~Version Information
 VERS.                  2.0:   CWLS log ASCII Standard -VERSION 2.0
 WRAP.                   NO:   One line per depth step
~Well Information Block
#MNEM.UNIT     VALUE/NAME     DESCRIPTION
#---------     -----------    ---------------------------
 STRT.S             23:30:34 30-Jun-20: START TIME 23:30:34 30-Jun-20
 STOP.S             23:39:34 30-Jun-20: STOP TIME  23:39:34 30-Jun-20
 STEP.S                   0.00: STEP TIME
 NULL.                 -999.25: NULL VALUE
 DFWT.                        :  DIST FWL TEXT
 DFST.                        :  DIST FSL TEXT
 DMF .             Drill Floor:  DRILL MEAS FROM
 STIM.      09.59.28 01-Jun-20:  START TIME
 DATE.      09.59.28 01-Jun-20:  END TIME
 SPUD.               01-Jun-20:  SPUD DATE
 NREF.                    Grid:  NORTH REFERENCE
 HPTY.       Minimum Curvature:  HOLE POS TYPE
 DMOD.             Drill Model:  DRILL MOD DESC
 SVYD.                  Survey:  SURVEY DESC
 ILTD.               Lithology:  INTERP LTH DESC
 FTOP.          Formation Tops:  FORM TOPS DESC
 SON .        AZ-XX-0905455768:  JOB NUMBER
 WTYP.                Deviated:  WELL TYPE
 COMP.     BP Exploration(Caspian Sea):  COMPANY
 BASE.              Azerbaijan:  LOGGING EQUIPMENT BASE LOCATION
 REGN.                   EESSA:  REGION
 CTRY.              Azerbaijan:  COUNTRY NAME
 FLD .                     ACG:  FIELD NAME
 SRVC.          Turan Drilling:  CONTRACTOR
 WELL.                     B41:  WELL NAME
 RIG .           Central Azeri:  RIG NAME
 DCON.         Sperry Drilling:  DIRECTNL CONTR
 PDAT.          Mean Sea Level:  PERMANENT DATUM
 MDS .        Operator Entered:  MAG DATA SOURCE
 API .                        :  API NUMBER
 CNTY.                        :  COUNTY
 PROV.                        :  PROVINCE
 STAT.                        :  STATE
 UWI .                        :  UNIQUE WELL IDENTIFIER
 LOC .                        :  LOCATION
 LMF .             Drill Floor:  LOG MEASURED FROM
 TVDS.m                  43.29:  TVDSS CORRECTN
 LATI.deg                40.03:  LATITUDE
 LONG.deg                51.35:  LONGITUDE
 WHNS.m                  12.98:  WELL HEAD N/S
 WHEW.m                  -6.62:  WELL HEAD E/W
 UTMX.m              530128.28:  UTM X
 UTMY.m             4433192.49:  UTM Y
 DFWL.m                   0.00:  DISTANCE FWL
 DFSL.m                   0.00:  DISTANCE FSL
 SDEP.m                 378.00:  START DEPTH
 TDD .m                   0.00:  TOTAL DEPTH (DRILLER)
 VSDR.deg               296.18:  VERT SEC DIRECT
 GVFD.g                   1.00:  GRAVITY FIELD
 MFLD.nT              50253.00:  MAGNETIC FIELD
 MDIP.deg                59.49:  MAGNETIC DIP
 MDEC.deg                 6.44:  MAGNETIC DECL
 GRDC.deg                 0.22:  GRID CORRECTION
 AZTC.deg                 6.22:  AZM TOTAL CORR
 EPD .m                   0.00:  ELEVATION
 EGL .m                   0.00:  GROUND ELEVATION
 WDMS.m                 128.20:  WD ELEV
 APD .m                  43.29:  DEPTH ABOVE PD
 AGAP.m                  43.29:  AIR GAP
 VSEW.m                  -6.62:  VERT SEC E/W
 VSNS.m                  12.98:  VERT SEC N/S
 EKB .m                  43.29:  KB ELEVATION
 EDF .m                  43.29:  DF ELEVATION
 TDL .m                1152.00:  TOTAL DEPTH (LOGGER)
 VSC .                       0:  VS TO CLOSURE
 MAGU.                 1848525:  MAGUTM CHECKSUM
~Parameter Information Block
#MNEM.UNIT       Value        Description
#---------     -----------    ---------------------------
 AV  .mps                 0.40:  Ann Velocity 
 AVMX.mps                 1.56:  Max Ann Veloc 
 AZIF.deg               300.46:  Azm, Final 
 BHAT.        Rotary Steerable:  BHA Type 
 BROT.°/30m               0.40:  Build Rotating 
 BS  .in                 17.50:  Bit Size 
 BSZ .in                 17.50:  Bit Size 
 BTPL.psig              300.00:  Bit Press Loss 
 CABU.                      No:  Customer Abuse 
 CGEO.          Parviz Guliyev:  Customer Geo 
 COMM.                     œº_:  Run Comments 1 
 TCS .hr                108.13:  Time Ciculation Ended 
 CV  .mps                 0.50:  Crit Velocity 
 CVMX.mps                 2.01:  Max Crit Veloc 
 DD1 .          Fariz Nahmatov:  Direct Drillr 1 
 DD2 .             Ehab Radwan:  Direct Drillr 2 
 DDSV.               Geo-Pilot:  DD Service 
 DEFF.%                  99.00:  % Det Eff 
 DLRX.°/30m               0.50:  Dogleg Rot Max 
 DLSO.°/30m               2.80:  Dogleg Oriented 
 DLSX.°/30m               3.90:  Dogleg Str Max 
 DRET.      09.30.04 03-Jul-20:  Drill End Time 
 DRST.      18.33.04 28-Jun-20:  Drill Start Tim 
 DTIM.hr                 55.83:  Time Drilling 
 EDEP.m                1952.00:  End Depth 
 ENG1.      Bakhtiyar Jabbarli:  Engineer 1 
 ENG2.         Farhad Orujzade:  Engineer 2 
 ENG3.          Rustam Safarov:  Engineer 3 
 ETIM.      01.33.04 04-Jul-20:  End Time 
 FLOI.gpm              1050.00:  Flow In 
 FLON.gpm               950.00:  Flow In Min 
 FLOS.cptm                0.10:  Fluid Loss 
 FLOX.gpm              1150.00:  Flow In Max 
 HFLO.                      No:  High Flow 
 HPRE.                      No:  High Pressure 
 HTEM.                      No:  High Temp 
 HYDO.m                   1.80:  Hydro Offset 
 IFIN.deg                75.26:  Inc, Final 
 IMAX.deg                75.38:  Inc Max 
 IMIN.deg                22.84:  Inc Min 
 IMND.m                 832.38:  Inc Min Depth 
 IMXD.m                1936.55:  Inc Max Depth 
 JARR.                      No:  Jarring 
 LETM.      17.40.00 04-Jul-20:  Log End Time 
 LOST.hr                     0:  Lost Rig Time 
 LSTM.      12.33.04 28-Jun-20:  Log Start Time 
 MDCL.ppm             49500.00:  Mud Chlorides 
 MDES.     Inversion Oil/Synthetic:  Mud Desc 
 DFD .sg                  1.46:  Mud Density 
 MDMN.sg                  1.46:  Dens Mud Min 
 MDMX.sg                  1.46:  Dens Mud Max 
 MOIL.                      70:  Run Mud Oil % 
 MOWR.                   70:30:  Run Mud OWR 
 MSND.                     0.5:  Run Mud Sand % 
 MSOL.                   19.89:  Run Mud Solids% 
 DFV .spqt               72.00:  Mud Viscosity 
 MWOD.in                  9.50:  MWD Tool OD 
 MWSI.                      No:  Serv Intrp, MWD 
 OTIM.hr                146.53:  Time Operating 
 PCON.           Look Like New:  Pad Condition 
 PMAX.psia             2900.00:  Press Op, Max 
 PV  .cP                 38.00:  Mud PV 
 RUN .                     600:  Run Number 
 ROPA.m/hr               22.00:  ROP Avg 
 ROPN.m/hr               10.00:  ROP Min 
 ROPX.m/hr              263.00:  ROP Max 
 RPMA.rpm               155.00:  RPM Surface Avg 
 RPMN.rpm               140.00:  RPM Surface Min 
 RPMX.rpm               160.00:  RPM Surface Max 
 RRUN.                    0600:  Rig Run Number 
 RTIM.hr                  5.00:  Time Reaming 
 SAZI.deg               300.08:  Azm, Start 
 SDEP.m                 800.00:  Start Depth 
 SIDD.                      No:  Serv Intrp, DD 
 SINC.deg                22.84:  Inc, Start 
 SPPA.psig             3000.00:  SPP Avg 
 SPPN.psig             1900.00:  SPP Min 
 SPPX.psig             3200.00:  SPP Max 
 STIM.      12.30.04 28-Jun-20:  Start Time 
 SVCS.                 DD, MWD:  Services 
 SVER.                    9.20:  Sperry Version 
 TDAT.m                1952.00:  Tot Depth Attmp 
 TDDF.                      No:  Trip for DD 
 TDLG.m                1152.00:  Tot Depth Loggd 
 TFF .                      No:  Trip for Fail 
 TQAA.f-kp                8.00:  Torque Abs Avg 
 TQAN.f-kp                5.00:  Torque Abs Min 
 TQAX.f-kp               14.00:  Torque Abs Max 
 TRRT.°/30m               0.50:  Turn Rotating 
 MRT .                  EWR-M5:  Maximum Recorded Temperature 
 TTMX.degC               69.00:  Max Tool Temp 
 VS01.                90610313:  Virtual Str1 SN 
 VS02.                90613431:  Virtual Str2 SN 
 VS03.                90615410:  Virtual Str3 SN 
 WBMN.klb                 6.00:  WOB Min 
 WITN.            Bruce Cheyne:  Customer Rep 
 WITN.             Ayaz Aliyev:  Customer Rep 2 
 WOBA.klb                 6.00:  WOB Avg 
 WOBX.klb                10.00:  WOB Max 
 YP  .lhf2               36.00:  Yield Point 
~Curve Information Block
#MNEM.UNIT                 API CODE     Curve Description
#---------               -----------    ---------------------------
 TIME.HHMMSS            00 000 000 000:  GT Time & Date
 GTET.sec               00 000 000 000:  GT Elapsed Test Time
 GTPQH.psia             00 000 000 000:  GT HR Quartz Pressure
 GTDEPTH.m              00 000 000 000:  GT Depth
 GTTVD.m                00 000 000 000:  GT True Vertical Depth
 GTTQ.degC              00 000 000 000:  GT Quartz Temperature
 GTTN.NONE              00 000 000 000:  GT Test Number
#Other Information
#
#WARRANTY: Halliburton will use its best efforts to furnish customers with 
#accurate information and interpretations that are part of, and incident to, the services 
#provided.  However, Halliburton cannot and does not warrant the accuracy 
#or correctness of such information and interpretations.  Under no circumstances should any 
#such information or interpretation be relied upon as the sole basis for any drilling, 
#completion, production, or financial decision or any procedure involving any risk to the 
#safety of any drilling venture, drilling rig or its crew or any other third party.  The 
#Customer has full responsibility for all drilling, completion and production operation.  
#Halliburton makes no representations or warranties, either expressed or 
#implied, including, but not limited to, the implied warranties of merchantability or fitness 
#for a particular purpose, with respect to the services rendered.  In no event will 
#Halliburton be liable for failure to obtain any particular results or for 
#any damages, including, but not limited to, indirect, special or consequential damages, 
#resulting from the use of any information or interpretation provided by Halliburton.
#
~A           TIME            GTET   GTPQH  GTDEPTH  GTTVD  GTTQ  GTTN 
   23:30:34.485.30-Jun-2020   0.00 2327.52 1161.05 1096.50 59.70 4.00
   23:30:34.685.30-Jun-2020   0.20 2327.52 1161.05 1096.50 59.70 4.00
   23:30:34.885.30-Jun-2020   0.40 2324.88 1161.05 1096.50 59.70 4.00
   23:30:35.085.30-Jun-2020   0.60 2321.13 1161.05 1096.50 59.70 4.00
   23:30:35.285.30-Jun-2020   0.80 2320.76 1161.05 1096.50 59.70 4.00
   23:30:35.485.30-Jun-2020   1.00 2321.02 1161.05 1096.50 59.70 4.00
   23:30:35.685.30-Jun-2020   1.20 2321.02 1161.05 1096.50 59.70 4.00
   23:30:35.886.30-Jun-2020   1.40 2316.89 1161.05 1096.50 59.70 4.00
   23:30:36.086.30-Jun-2020   1.60 2315.22 1161.05 1096.50 59.69 4.00
   23:30:36.286.30-Jun-2020   1.80 2317.92 1161.05 1096.50 59.69 4.00
   23:30:36.486.30-Jun-2020   2.00 2318.03 1161.05 1096.50 59.69 4.00
   23:30:36.686.30-Jun-2020   2.20 2318.03 1161.05 1096.50 59.69 4.00
   23:30:36.886.30-Jun-2020   2.40 2316.01 1161.05 1096.50 59.69 4.00
   23:30:37.086.30-Jun-2020   2.60 2318.37 1161.05 1096.50 59.69 4.00
   23:30:37.286.30-Jun-2020   2.80 2317.45 1161.05 1096.50 59.69 4.00
   23:30:37.486.30-Jun-2020   3.00 2317.51 1161.05 1096.50 59.69 4.00
   23:30:37.686.30-Jun-2020   3.20 2318.42 1161.05 1096.50 59.69 4.00
   23:30:37.886.30-Jun-2020   3.40 2320.60 1161.05 1096.50 59.69 4.00
   23:30:38.086.30-Jun-2020   3.60 2322.62 1161.05 1096.50 59.69 4.00
   23:30:38.286.30-Jun-2020   3.80 2319.81 1161.05 1096.50 59.69 4.00
   23:30:38.486.30-Jun-2020   4.00 2322.75 1161.05 1096.50 59.69 4.00
   23:30:38.686.30-Jun-2020   4.20 2322.75 1161.05 1096.50 59.69 4.00
   23:30:38.886.30-Jun-2020   4.40 2326.54 1161.05 1096.50 59.69 4.00
   23:30:39.086.30-Jun-2020   4.60 2326.30 1161.05 1096.50 59.69 4.00
   23:30:39.287.30-Jun-2020   4.80 2326.75 1161.05 1096.50 59.69 4.00
   23:30:39.487.30-Jun-2020   5.00 2327.71 1161.05 1096.50 59.69 4.00
   23:30:39.687.30-Jun-2020   5.20 2327.71 1161.05 1096.50 59.69 4.00
   23:30:39.887.30-Jun-2020   5.40 2330.15 1161.05 1096.50 59.69 4.00
   23:30:40.087.30-Jun-2020   5.60 2330.04 1161.05 1096.50 59.69 4.00
   23:30:40.287.30-Jun-2020   5.80 2330.82 1161.05 1096.50 59.69 4.00
   23:30:40.487.30-Jun-2020   6.00 2331.34 1161.05 1096.50 59.69 4.00
   23:30:40.687.30-Jun-2020   6.20 2331.34 1161.05 1096.50 59.69 4.00
   23:30:40.887.30-Jun-2020   6.40 2330.46 1161.05 1096.50 59.69 4.00
   23:30:41.087.30-Jun-2020   6.60 2331.25 1161.05 1096.50 59.69 4.00
   23:30:41.287.30-Jun-2020   6.80 2331.37 1161.05 1096.50 59.69 4.00
   23:30:41.487.30-Jun-2020   7.00 2330.50 1161.05 1096.50 59.69 4.00
   23:30:41.687.30-Jun-2020   7.20 2330.50 1161.05 1096.50 59.69 4.00
   23:30:41.887.30-Jun-2020   7.40 2327.30 1161.05 1096.50 59.69 4.00
   23:30:42.087.30-Jun-2020   7.60 2327.66 1161.05 1096.50 59.69 4.00
   23:30:42.287.30-Jun-2020   7.80 2327.61 1161.05 1096.50 59.69 4.00
   23:30:42.487.30-Jun-2020   8.00 2326.86 1161.05 1096.50 59.69 4.00
   23:30:42.687.30-Jun-2020   8.20 2326.86 1161.05 1096.50 59.69 4.00
   23:30:42.888.30-Jun-2020   8.40 2326.86 1161.05 1096.50 59.69 4.00
   23:30:43.088.30-Jun-2020   8.60 2324.33 1161.05 1096.50 59.69 4.00
   23:30:43.288.30-Jun-2020   8.80 2322.17 1161.05 1096.50 59.69 4.00
   23:30:43.488.30-Jun-2020   9.00 2322.00 1161.05 1096.50 59.69 4.00
   23:30:43.688.30-Jun-2020   9.20 2322.00 1161.05 1096.50 59.69 4.00
   23:30:43.888.30-Jun-2020   9.40 2321.36 1161.05 1096.50 59.69 4.00
   23:30:44.088.30-Jun-2020   9.60 2320.16 1161.05 1096.50 59.69 4.00
   23:30:44.288.30-Jun-2020   9.80 2319.77 1161.05 1096.50 59.69 4.00
   23:30:44.488.30-Jun-2020  10.00 2319.89 1161.05 1096.50 59.69 4.00
   23:30:44.688.30-Jun-2020  10.20 2319.89 1161.05 1096.50 59.69 4.00
   23:30:44.888.30-Jun-2020  10.40 2321.27 1161.05 1096.50 59.69 4.00
   23:30:45.088.30-Jun-2020  10.60 2320.33 1161.05 1096.50 59.69 4.00
   23:30:45.288.30-Jun-2020  10.80 2320.06 1161.05 1096.50 59.69 4.00
   23:30:45.488.30-Jun-2020  11.00 2320.48 1161.05 1096.50 59.69 4.00
   23:30:45.688.30-Jun-2020  11.20 2320.11 1161.05 1096.50 59.69 4.00
   23:30:45.888.30-Jun-2020  11.40 2319.59 1161.05 1096.50 59.69 4.00
   23:30:46.088.30-Jun-2020  11.60 2322.18 1161.05 1096.50 59.69 4.00
   23:30:46.289.30-Jun-2020  11.80 2322.84 1161.05 1096.50 59.69 4.00
   23:30:46.489.30-Jun-2020  12.00 2322.75 1161.05 1096.50 59.69 4.00
   23:30:46.689.30-Jun-2020  12.20 2322.75 1161.05 1096.50 59.69 4.00
   23:30:46.889.30-Jun-2020  12.40 2322.30 1161.05 1096.50 59.69 4.00
   23:30:47.089.30-Jun-2020  12.60 2324.42 1161.05 1096.50 59.69 4.00
   23:30:47.289.30-Jun-2020  12.80 2325.67 1161.05 1096.50 59.69 4.00
   23:30:47.489.30-Jun-2020  13.00 2325.30 1161.05 1096.50 59.69 4.00
   23:30:47.689.30-Jun-2020  13.20 2325.30 1161.05 1096.50 59.69 4.00
   23:30:47.889.30-Jun-2020  13.40 2325.10 1161.05 1096.50 59.69 4.00
   23:30:48.089.30-Jun-2020  13.60 2326.35 1161.05 1096.50 59.69 4.00
   23:30:48.289.30-Jun-2020  13.80 2327.22 1161.05 1096.50 59.69 4.00
   23:30:48.489.30-Jun-2020  14.00 2327.10 1161.05 1096.50 59.69 4.00
   23:30:48.689.30-Jun-2020  14.20 2327.10 1161.05 1096.50 59.69 4.00
   23:30:48.889.30-Jun-2020  14.40 2328.87 1161.05 1096.50 59.69 4.00
   23:30:49.089.30-Jun-2020  14.60 2327.03 1161.05 1096.50 59.69 4.00
   23:30:49.289.30-Jun-2020  14.80 2326.09 1161.05 1096.50 59.69 4.00
   23:30:49.489.30-Jun-2020  15.00 2325.81 1161.05 1096.50 59.69 4.00
   23:30:49.690.30-Jun-2020  15.20 2328.55 1161.05 1096.50 59.69 4.00
   23:30:49.890.30-Jun-2020  15.40 2327.29 1161.05 1096.50 59.69 4.00
   23:30:50.090.30-Jun-2020  15.60 2326.53 1161.05 1096.50 59.69 4.00
   23:30:50.290.30-Jun-2020  15.80 2326.00 1161.05 1096.50 59.69 4.00
   23:30:50.490.30-Jun-2020  16.00 2324.87 1161.05 1096.50 59.69 4.00
   23:30:50.690.30-Jun-2020  16.20 2324.87 1161.05 1096.50 59.69 4.00
   23:30:50.890.30-Jun-2020  16.40 2325.02 1161.05 1096.50 59.69 4.00
   23:30:51.090.30-Jun-2020  16.60 2325.09 1161.05 1096.50 59.69 4.00
   23:30:51.290.30-Jun-2020  16.80 2324.69 1161.05 1096.50 59.69 4.00
   23:30:51.490.30-Jun-2020  17.00 2324.70 1161.05 1096.50 59.69 4.00
   23:30:51.690.30-Jun-2020  17.20 2324.70 1161.05 1096.50 59.69 4.00
   23:30:51.890.30-Jun-2020  17.41 2321.82 1161.05 1096.50 59.69 4.00
   23:30:52.090.30-Jun-2020  17.61 2323.50 1161.05 1096.50 59.69 4.00
   23:30:52.290.30-Jun-2020  17.81 2324.58 1161.05 1096.50 59.69 4.00
   23:30:52.490.30-Jun-2020  18.01 2322.89 1161.05 1096.50 59.69 4.00
   23:30:52.690.30-Jun-2020  18.21 2322.16 1161.05 1096.50 59.69 4.00
   23:30:52.890.30-Jun-2020  18.41 2321.93 1161.05 1096.50 59.69 4.00
   23:30:53.091.30-Jun-2020  18.61 2322.15 1161.05 1096.50 59.69 4.00
   23:30:53.291.30-Jun-2020  18.81 2322.72 1161.05 1096.50 59.69 4.00
   23:30:53.491.30-Jun-2020  19.01 2322.82 1161.05 1096.50 59.69 4.00
   23:30:53.691.30-Jun-2020  19.21 2322.45 1161.05 1096.50 59.69 4.00
   23:30:53.891.30-Jun-2020  19.41 2322.59 1161.05 1096.50 59.69 4.00
   23:30:54.091.30-Jun-2020  19.61 2322.19 1161.05 1096.50 59.69 4.00
   23:30:54.291.30-Jun-2020  19.81 2320.67 1161.05 1096.50 59.69 4.00
   23:30:54.491.30-Jun-2020  20.01 2322.96 1161.05 1096.50 59.69 4.00
   23:30:54.691.30-Jun-2020  20.21 2322.96 1161.05 1096.50 59.69 4.00
   23:30:54.891.30-Jun-2020  20.41 2323.04 1161.05 1096.50 59.69 4.00
   23:30:55.091.30-Jun-2020  20.61 2323.66 1161.05 1096.50 59.68 4.00
   23:30:55.291.30-Jun-2020  20.81 2323.51 1161.05 1096.50 59.68 4.00
   23:30:55.491.30-Jun-2020  21.01 2323.04 1161.05 1096.50 59.68 4.00
   23:30:55.691.30-Jun-2020  21.21 2323.04 1161.05 1096.50 59.68 4.00
   23:30:55.891.30-Jun-2020  21.41 2324.46 1161.05 1096.50 59.68 4.00
   23:30:56.091.30-Jun-2020  21.61 2324.75 1161.05 1096.50 59.68 4.00
   23:30:56.291.30-Jun-2020  21.81 2324.67 1161.05 1096.50 59.68 4.00
   23:30:56.492.30-Jun-2020  22.01 2324.35 1161.05 1096.50 59.68 4.00
   23:30:56.692.30-Jun-2020  22.21 2324.35 1161.05 1096.50 59.68 4.00
   23:30:56.892.30-Jun-2020  22.41 2325.71 1161.05 1096.50 59.68 4.00
   23:30:57.092.30-Jun-2020  22.61 2326.82 1161.05 1096.50 59.68 4.00
   23:30:57.292.30-Jun-2020  22.81 2326.00 1161.05 1096.50 59.68 4.00
