~Version Information
 VERS.                  2.0:   CWLS log ASCII Standard -VERSION 2.0
 WRAP.                   NO:   One line per depth step
~Well Information Block
#MNEM.UNIT     VALUE/NAME     DESCRIPTION
#---------     -----------    ---------------------------
 STRT.S             23:54:17 02-Jul-20: START TIME 23:54:17 02-Jul-20
 STOP.S             00:03:12 03-Jul-20: STOP TIME  00:03:12 03-Jul-20
 STEP.S                   0.00: STEP TIME
 NULL.                 -999.25: NULL VALUE
 DFWT.                        :  DIST FWL TEXT
 DFST.                        :  DIST FSL TEXT
 DMF .             Drill Floor:  DRILL MEAS FROM
 STIM.      09.59.28 01-Jun-20:  START TIME
 DATE.      09.59.28 01-Jun-20:  END TIME
 SPUD.               01-Jun-20:  SPUD DATE
 NREF.                    Grid:  NORTH REFERENCE
 HPTY.       Minimum Curvature:  HOLE POS TYPE
 DMOD.             Drill Model:  DRILL MOD DESC
 SVYD.                  Survey:  SURVEY DESC
 ILTD.               Lithology:  INTERP LTH DESC
 FTOP.          Formation Tops:  FORM TOPS DESC
 SON .        AZ-XX-0905455768:  JOB NUMBER
 WTYP.                Deviated:  WELL TYPE
 COMP.     BP Exploration(Caspian Sea):  COMPANY
 BASE.              Azerbaijan:  LOGGING EQUIPMENT BASE LOCATION
 REGN.                   EESSA:  REGION
 CTRY.              Azerbaijan:  COUNTRY NAME
 FLD .                     ACG:  FIELD NAME
 SRVC.          Turan Drilling:  CONTRACTOR
 WELL.                     B41:  WELL NAME
 RIG .           Central Azeri:  RIG NAME
 DCON.         Sperry Drilling:  DIRECTNL CONTR
 PDAT.          Mean Sea Level:  PERMANENT DATUM
 MDS .        Operator Entered:  MAG DATA SOURCE
 API .                        :  API NUMBER
 CNTY.                        :  COUNTY
 PROV.                        :  PROVINCE
 STAT.                        :  STATE
 UWI .                        :  UNIQUE WELL IDENTIFIER
 LOC .                        :  LOCATION
 LMF .             Drill Floor:  LOG MEASURED FROM
 TVDS.m                  43.29:  TVDSS CORRECTN
 LATI.deg                40.03:  LATITUDE
 LONG.deg                51.35:  LONGITUDE
 WHNS.m                  12.98:  WELL HEAD N/S
 WHEW.m                  -6.62:  WELL HEAD E/W
 UTMX.m              530128.28:  UTM X
 UTMY.m             4433192.49:  UTM Y
 DFWL.m                   0.00:  DISTANCE FWL
 DFSL.m                   0.00:  DISTANCE FSL
 SDEP.m                 378.00:  START DEPTH
 TDD .m                   0.00:  TOTAL DEPTH (DRILLER)
 VSDR.deg               296.18:  VERT SEC DIRECT
 GVFD.g                   1.00:  GRAVITY FIELD
 MFLD.nT              50253.00:  MAGNETIC FIELD
 MDIP.deg                59.49:  MAGNETIC DIP
 MDEC.deg                 6.44:  MAGNETIC DECL
 GRDC.deg                 0.22:  GRID CORRECTION
 AZTC.deg                 6.22:  AZM TOTAL CORR
 EPD .m                   0.00:  ELEVATION
 EGL .m                   0.00:  GROUND ELEVATION
 WDMS.m                 128.20:  WD ELEV
 APD .m                  43.29:  DEPTH ABOVE PD
 AGAP.m                  43.29:  AIR GAP
 VSEW.m                  -6.62:  VERT SEC E/W
 VSNS.m                  12.98:  VERT SEC N/S
 EKB .m                  43.29:  KB ELEVATION
 EDF .m                  43.29:  DF ELEVATION
 TDL .m                1152.00:  TOTAL DEPTH (LOGGER)
 VSC .                       0:  VS TO CLOSURE
 MAGU.                 1848525:  MAGUTM CHECKSUM
~Parameter Information Block
#MNEM.UNIT       Value        Description
#---------     -----------    ---------------------------
 AV  .mps                 0.40:  Ann Velocity 
 AVMX.mps                 1.56:  Max Ann Veloc 
 AZIF.deg               300.46:  Azm, Final 
 BHAT.        Rotary Steerable:  BHA Type 
 BROT.°/30m               0.40:  Build Rotating 
 BS  .in                 17.50:  Bit Size 
 BSZ .in                 17.50:  Bit Size 
 BTPL.psig              300.00:  Bit Press Loss 
 CABU.                      No:  Customer Abuse 
 CGEO.          Parviz Guliyev:  Customer Geo 
 COMM.                     ägu:  Run Comments 1 
 TCS .hr                108.13:  Time Ciculation Ended 
 CV  .mps                 0.50:  Crit Velocity 
 CVMX.mps                 2.01:  Max Crit Veloc 
 DD1 .          Fariz Nahmatov:  Direct Drillr 1 
 DD2 .             Ehab Radwan:  Direct Drillr 2 
 DDSV.               Geo-Pilot:  DD Service 
 DEFF.%                  99.00:  % Det Eff 
 DLRX.°/30m               0.50:  Dogleg Rot Max 
 DLSO.°/30m               2.80:  Dogleg Oriented 
 DLSX.°/30m               3.90:  Dogleg Str Max 
 DRET.      09.30.04 03-Jul-20:  Drill End Time 
 DRST.      18.33.04 28-Jun-20:  Drill Start Tim 
 DTIM.hr                 55.83:  Time Drilling 
 EDEP.m                1952.00:  End Depth 
 ENG1.      Bakhtiyar Jabbarli:  Engineer 1 
 ENG2.         Farhad Orujzade:  Engineer 2 
 ENG3.          Rustam Safarov:  Engineer 3 
 ETIM.      01.33.04 04-Jul-20:  End Time 
 FLOI.gpm              1050.00:  Flow In 
 FLON.gpm               950.00:  Flow In Min 
 FLOS.cptm                0.10:  Fluid Loss 
 FLOX.gpm              1150.00:  Flow In Max 
 HFLO.                      No:  High Flow 
 HPRE.                      No:  High Pressure 
 HTEM.                      No:  High Temp 
 HYDO.m                   1.80:  Hydro Offset 
 IFIN.deg                75.26:  Inc, Final 
 IMAX.deg                75.38:  Inc Max 
 IMIN.deg                22.84:  Inc Min 
 IMND.m                 832.38:  Inc Min Depth 
 IMXD.m                1936.55:  Inc Max Depth 
 JARR.                      No:  Jarring 
 LETM.      17.40.00 04-Jul-20:  Log End Time 
 LOST.hr                     0:  Lost Rig Time 
 LSTM.      12.33.04 28-Jun-20:  Log Start Time 
 MDCL.ppm             49500.00:  Mud Chlorides 
 MDES.     Inversion Oil/Synthetic:  Mud Desc 
 DFD .sg                  1.46:  Mud Density 
 MDMN.sg                  1.46:  Dens Mud Min 
 MDMX.sg                  1.46:  Dens Mud Max 
 MOIL.                      70:  Run Mud Oil % 
 MOWR.                   70:30:  Run Mud OWR 
 MSND.                     0.5:  Run Mud Sand % 
 MSOL.                   19.89:  Run Mud Solids% 
 DFV .spqt               72.00:  Mud Viscosity 
 MWOD.in                  9.50:  MWD Tool OD 
 MWSI.                      No:  Serv Intrp, MWD 
 OTIM.hr                146.53:  Time Operating 
 PCON.           Look Like New:  Pad Condition 
 PMAX.psia             2900.00:  Press Op, Max 
 PV  .cP                 38.00:  Mud PV 
 RUN .                     600:  Run Number 
 ROPA.m/hr               22.00:  ROP Avg 
 ROPN.m/hr               10.00:  ROP Min 
 ROPX.m/hr              263.00:  ROP Max 
 RPMA.rpm               155.00:  RPM Surface Avg 
 RPMN.rpm               140.00:  RPM Surface Min 
 RPMX.rpm               160.00:  RPM Surface Max 
 RRUN.                    0600:  Rig Run Number 
 RTIM.hr                  5.00:  Time Reaming 
 SAZI.deg               300.08:  Azm, Start 
 SDEP.m                 800.00:  Start Depth 
 SIDD.                      No:  Serv Intrp, DD 
 SINC.deg                22.84:  Inc, Start 
 SPPA.psig             3000.00:  SPP Avg 
 SPPN.psig             1900.00:  SPP Min 
 SPPX.psig             3200.00:  SPP Max 
 STIM.      12.30.04 28-Jun-20:  Start Time 
 SVCS.                 DD, MWD:  Services 
 SVER.                    9.20:  Sperry Version 
 TDAT.m                1952.00:  Tot Depth Attmp 
 TDDF.                      No:  Trip for DD 
 TDLG.m                1152.00:  Tot Depth Loggd 
 TFF .                      No:  Trip for Fail 
 TQAA.f-kp                8.00:  Torque Abs Avg 
 TQAN.f-kp                5.00:  Torque Abs Min 
 TQAX.f-kp               14.00:  Torque Abs Max 
 TRRT.°/30m               0.50:  Turn Rotating 
 MRT .                  EWR-M5:  Maximum Recorded Temperature 
 TTMX.degC               69.00:  Max Tool Temp 
 VS01.                90610313:  Virtual Str1 SN 
 VS02.                90613431:  Virtual Str2 SN 
 VS03.                90615410:  Virtual Str3 SN 
 WBMN.klb                 6.00:  WOB Min 
 WITN.            Bruce Cheyne:  Customer Rep 
 WITN.             Ayaz Aliyev:  Customer Rep 2 
 WOBA.klb                 6.00:  WOB Avg 
 WOBX.klb                10.00:  WOB Max 
 YP  .lhf2               36.00:  Yield Point 
~Curve Information Block
#MNEM.UNIT                 API CODE     Curve Description
#---------               -----------    ---------------------------
 TIME.HHMMSS            00 000 000 000:  GT Time & Date
 GTET.sec               00 000 000 000:  GT Elapsed Test Time
 GTPQH.psia             00 000 000 000:  GT HR Quartz Pressure
 GTDEPTH.m              00 000 000 000:  GT Depth
 GTTVD.m                00 000 000 000:  GT True Vertical Depth
 GTTQ.degC              00 000 000 000:  GT Quartz Temperature
 GTTN.NONE              00 000 000 000:  GT Test Number
#Other Information
#
#WARRANTY: Halliburton will use its best efforts to furnish customers with 
#accurate information and interpretations that are part of, and incident to, the services 
#provided.  However, Halliburton cannot and does not warrant the accuracy 
#or correctness of such information and interpretations.  Under no circumstances should any 
#such information or interpretation be relied upon as the sole basis for any drilling, 
#completion, production, or financial decision or any procedure involving any risk to the 
#safety of any drilling venture, drilling rig or its crew or any other third party.  The 
#Customer has full responsibility for all drilling, completion and production operation.  
#Halliburton makes no representations or warranties, either expressed or 
#implied, including, but not limited to, the implied warranties of merchantability or fitness 
#for a particular purpose, with respect to the services rendered.  In no event will 
#Halliburton be liable for failure to obtain any particular results or for 
#any damages, including, but not limited to, indirect, special or consequential damages, 
#resulting from the use of any information or interpretation provided by Halliburton.
#
~A           TIME            GTET   GTPQH  GTDEPTH  GTTVD  GTTQ  GTTN 
# ...
   23:56:35.607.02-Jul-2020 138.02 2504.36 1828.92 1344.71 59.07 7.00
   23:56:35.807.02-Jul-2020 138.22 2504.36 1828.92 1344.71 59.07 7.00
   23:56:36.008.02-Jul-2020 138.42 2504.37 1828.92 1344.71 59.07 7.00
   23:56:36.208.02-Jul-2020 138.62 2504.26 1828.92 1344.71 59.07 7.00
   23:56:36.408.02-Jul-2020 138.82 2504.36 1828.92 1344.71 59.07 7.00
   23:56:36.608.02-Jul-2020 139.02 2504.37 1828.92 1344.71 59.07 7.00
   23:56:36.808.02-Jul-2020 139.22 2504.37 1828.92 1344.71 59.07 7.00
   23:56:37.008.02-Jul-2020 139.42 2504.36 1828.92 1344.71 59.07 7.00
   23:56:37.208.02-Jul-2020 139.62 2504.35 1828.92 1344.71 59.07 7.00
   23:56:37.408.02-Jul-2020 139.82 2504.26 1828.92 1344.71 59.07 7.00
   23:56:37.608.02-Jul-2020 140.02 2504.33 1828.92 1344.71 59.07 7.00
   23:56:37.808.02-Jul-2020 140.22 2504.33 1828.92 1344.71 59.07 7.00
   23:56:38.008.02-Jul-2020 140.42 2504.35 1828.92 1344.71 59.07 7.00
   23:56:38.208.02-Jul-2020 140.62 2504.36 1828.92 1344.71 59.07 7.00
   23:56:38.408.02-Jul-2020 140.82 2504.35 1828.92 1344.71 59.07 7.00
   23:56:38.608.02-Jul-2020 141.02 2504.34 1828.92 1344.71 59.07 7.00
   23:56:38.808.02-Jul-2020 141.22 2504.34 1828.92 1344.71 59.07 7.00
   23:56:39.008.02-Jul-2020 141.42 2504.37 1828.92 1344.71 59.07 7.00
   23:56:39.208.02-Jul-2020 141.62 2504.36 1828.92 1344.71 59.07 7.00
   23:56:39.408.02-Jul-2020 141.82 2504.36 1828.92 1344.71 59.07 7.00
   23:56:39.608.02-Jul-2020 142.02 2504.36 1828.92 1344.71 59.07 7.00
   23:56:39.808.02-Jul-2020 142.22 2504.36 1828.92 1344.71 59.07 7.00
   23:56:40.008.02-Jul-2020 142.42 2504.36 1828.92 1344.71 59.07 7.00
   23:56:40.208.02-Jul-2020 142.62 2504.37 1828.92 1344.71 59.07 7.00
   23:56:40.408.02-Jul-2020 142.82 2504.36 1828.92 1344.71 59.07 7.00
   23:56:40.608.02-Jul-2020 143.02 2504.37 1828.92 1344.71 59.07 7.00
   23:56:40.808.02-Jul-2020 143.22 2504.37 1828.92 1344.71 59.07 7.00
   23:56:41.008.02-Jul-2020 143.42 2504.33 1828.92 1344.71 59.07 7.00
   23:56:41.208.02-Jul-2020 143.62 2504.23 1828.92 1344.71 59.07 7.00
   23:56:41.408.02-Jul-2020 143.82 2504.37 1828.92 1344.71 59.07 7.00
   23:56:41.608.02-Jul-2020 144.02 2504.35 1828.92 1344.71 59.07 7.00
   23:56:41.808.02-Jul-2020 144.22 2504.35 1828.92 1344.71 59.07 7.00
   23:56:42.008.02-Jul-2020 144.42 2504.36 1828.92 1344.71 59.07 7.00
   23:56:42.208.02-Jul-2020 144.62 2504.35 1828.92 1344.71 59.07 7.00
   23:56:42.408.02-Jul-2020 144.82 2504.34 1828.92 1344.71 59.07 7.00
   23:56:42.608.02-Jul-2020 145.02 2504.36 1828.92 1344.71 59.07 7.00
   23:56:42.808.02-Jul-2020 145.22 2504.36 1828.92 1344.71 59.07 7.00
   23:56:43.008.02-Jul-2020 145.42 2504.37 1828.92 1344.71 59.07 7.00
   23:56:43.209.02-Jul-2020 145.62 2504.35 1828.92 1344.71 59.07 7.00
   23:56:43.409.02-Jul-2020 145.82 2504.35 1828.92 1344.71 59.07 7.00
   23:56:43.609.02-Jul-2020 146.02 2504.27 1828.92 1344.71 59.07 7.00
   23:56:43.809.02-Jul-2020 146.22 2504.27 1828.92 1344.71 59.07 7.00
   23:56:44.009.02-Jul-2020 146.42 2504.35 1828.92 1344.71 59.07 7.00
   23:56:44.209.02-Jul-2020 146.62 2504.34 1828.92 1344.71 59.07 7.00
   23:56:44.409.02-Jul-2020 146.82 2504.35 1828.92 1344.71 59.07 7.00
   23:56:44.609.02-Jul-2020 147.02 2504.34 1828.92 1344.71 59.07 7.00
   23:56:44.809.02-Jul-2020 147.22 2504.34 1828.92 1344.71 59.07 7.00
   23:56:45.009.02-Jul-2020 147.42 2504.27 1828.92 1344.71 59.07 7.00
   23:56:45.209.02-Jul-2020 147.62 2504.35 1828.92 1344.71 59.07 7.00
   23:56:45.409.02-Jul-2020 147.82 2504.33 1828.92 1344.71 59.07 7.00
   23:56:45.609.02-Jul-2020 148.02 2504.35 1828.92 1344.71 59.07 7.00
   23:56:45.809.02-Jul-2020 148.22 2504.35 1828.92 1344.71 59.07 7.00
   23:56:46.009.02-Jul-2020 148.42 2504.28 1828.92 1344.71 59.07 7.00
   23:56:46.209.02-Jul-2020 148.62 2504.28 1828.92 1344.71 59.07 7.00
   23:56:46.409.02-Jul-2020 148.82 2504.35 1828.92 1344.71 59.07 7.00
   23:56:46.609.02-Jul-2020 149.02 2504.34 1828.92 1344.71 59.07 7.00
   23:56:46.809.02-Jul-2020 149.22 2504.34 1828.92 1344.71 59.07 7.00
   23:56:47.009.02-Jul-2020 149.42 2504.33 1828.92 1344.71 59.07 7.00
   23:56:47.209.02-Jul-2020 149.62 2504.26 1828.92 1344.71 59.07 7.00
   23:56:47.409.02-Jul-2020 149.82 2504.25 1828.92 1344.71 59.07 7.00
   23:56:47.609.02-Jul-2020 150.02 2504.33 1828.92 1344.71 59.07 7.00
   23:56:47.809.02-Jul-2020 150.22 2504.33 1828.92 1344.71 59.07 7.00
   23:56:48.009.02-Jul-2020 150.42 2504.34 1828.92 1344.71 59.07 7.00
   23:56:48.209.02-Jul-2020 150.62 2504.33 1828.92 1344.71 59.07 7.00
   23:56:48.409.02-Jul-2020 150.82 2504.31 1828.92 1344.71 59.07 7.00
   23:56:48.609.02-Jul-2020 151.02 2504.32 1828.92 1344.71 59.07 7.00
   23:56:48.809.02-Jul-2020 151.22 2504.32 1828.92 1344.71 59.07 7.00
   23:56:49.009.02-Jul-2020 151.42 2504.32 1828.92 1344.71 59.07 7.00
   23:56:49.209.02-Jul-2020 151.62 2504.33 1828.92 1344.71 59.07 7.00
   23:56:49.409.02-Jul-2020 151.82 2504.33 1828.92 1344.71 59.07 7.00
   23:56:49.609.02-Jul-2020 152.02 2504.31 1828.92 1344.71 59.07 7.00
   23:56:49.809.02-Jul-2020 152.22 2504.31 1828.92 1344.71 59.07 7.00
   23:56:50.009.02-Jul-2020 152.42 2504.34 1828.92 1344.71 59.07 7.00
   23:56:50.209.02-Jul-2020 152.62 2504.34 1828.92 1344.71 59.07 7.00
   23:56:50.409.02-Jul-2020 152.82 2504.34 1828.92 1344.71 59.07 7.00
   23:56:50.610.02-Jul-2020 153.02 2504.34 1828.92 1344.71 59.07 7.00
   23:56:50.810.02-Jul-2020 153.22 2504.34 1828.92 1344.71 59.07 7.00
   23:56:51.010.02-Jul-2020 153.42 2504.23 1828.92 1344.71 59.07 7.00
   23:56:51.210.02-Jul-2020 153.62 2504.30 1828.92 1344.71 59.07 7.00
   23:56:51.410.02-Jul-2020 153.82 2504.34 1828.92 1344.71 59.07 7.00
   23:56:51.610.02-Jul-2020 154.02 2504.34 1828.92 1344.71 59.07 7.00
   23:56:51.810.02-Jul-2020 154.22 2504.34 1828.92 1344.71 59.07 7.00
   23:56:52.010.02-Jul-2020 154.42 2504.32 1828.92 1344.71 59.07 7.00
   23:56:52.210.02-Jul-2020 154.62 2504.33 1828.92 1344.71 59.07 7.00
   23:56:52.410.02-Jul-2020 154.82 2504.33 1828.92 1344.71 59.07 7.00
   23:56:52.610.02-Jul-2020 155.02 2504.34 1828.92 1344.71 59.07 7.00
   23:56:52.810.02-Jul-2020 155.22 2504.34 1828.92 1344.71 59.07 7.00
   23:56:53.010.02-Jul-2020 155.42 2504.34 1828.92 1344.71 59.07 7.00
   23:56:53.210.02-Jul-2020 155.62 2504.32 1828.92 1344.71 59.07 7.00
   23:56:53.410.02-Jul-2020 155.82 2504.24 1828.92 1344.71 59.07 7.00
   23:56:53.610.02-Jul-2020 156.02 2504.29 1828.92 1344.71 59.07 7.00
   23:56:53.810.02-Jul-2020 156.22 2504.29 1828.92 1344.71 59.07 7.00
   23:56:54.010.02-Jul-2020 156.42 2504.32 1828.92 1344.71 59.07 7.00
   23:56:54.210.02-Jul-2020 156.62 2504.33 1828.92 1344.71 59.07 7.00
   23:56:54.410.02-Jul-2020 156.82 2504.31 1828.92 1344.71 59.07 7.00
   23:56:54.610.02-Jul-2020 157.02 2504.29 1828.92 1344.71 59.07 7.00
   23:56:54.810.02-Jul-2020 157.22 2504.29 1828.92 1344.71 59.07 7.00
   23:56:55.010.02-Jul-2020 157.42 2504.32 1828.92 1344.71 59.07 7.00
   23:56:55.210.02-Jul-2020 157.62 2504.32 1828.92 1344.71 59.07 7.00
   23:56:55.410.02-Jul-2020 157.82 2504.32 1828.92 1344.71 59.07 7.00
   23:56:55.610.02-Jul-2020 158.02 2504.31 1828.92 1344.71 59.07 7.00
   23:56:55.810.02-Jul-2020 158.22 2504.31 1828.92 1344.71 59.07 7.00
   23:56:56.010.02-Jul-2020 158.42 2504.21 1828.92 1344.71 59.07 7.00
   23:56:56.210.02-Jul-2020 158.62 2504.36 1828.92 1344.71 59.07 7.00
   23:56:56.410.02-Jul-2020 158.82 2504.35 1828.92 1344.71 59.07 7.00
   23:56:56.610.02-Jul-2020 159.02 2504.33 1828.92 1344.71 59.07 7.00
   23:56:56.810.02-Jul-2020 159.22 2504.33 1828.92 1344.71 59.07 7.00
   23:56:57.010.02-Jul-2020 159.42 2504.28 1828.92 1344.71 59.07 7.00
   23:56:57.210.02-Jul-2020 159.62 2504.20 1828.92 1344.71 59.07 7.00
   23:56:57.410.02-Jul-2020 159.82 2504.32 1828.92 1344.71 59.07 7.00
   23:56:57.610.02-Jul-2020 160.02 2504.31 1828.92 1344.71 59.07 7.00
   23:56:57.810.02-Jul-2020 160.22 2504.31 1828.92 1344.71 59.07 7.00
   23:56:58.011.02-Jul-2020 160.42 2504.32 1828.92 1344.71 59.07 7.00
   23:56:58.211.02-Jul-2020 160.62 2504.30 1828.92 1344.71 59.07 7.00
   23:56:58.411.02-Jul-2020 160.82 2504.30 1828.92 1344.71 59.07 7.00
