~Version Information
 VERS.                  2.0:   CWLS log ASCII Standard -VERSION 2.0
 WRAP.                   NO:   One line per depth step
~Well Information Block
#MNEM.UNIT     VALUE/NAME     DESCRIPTION
#---------     -----------    ---------------------------
 STRT.S             08:47:02 18-Apr-20: START TIME 08:47:02 18-Apr-20
 STOP.S             08:53:58 18-Apr-20: STOP TIME  08:53:58 18-Apr-20
 STEP.S                   0.00: STEP TIME
 NULL.                 -999.25: NULL VALUE
 DFWT.                        :  DIST FWL TEXT
 DFST.                        :  DIST FSL TEXT
 DMF .                        :  DRILL MEAS FROM
 STIM.      16.29.52 23-Mar-20:  START TIME
 DATE.      16.29.52 23-Mar-20:  END TIME
 SPUD.               23-Mar-20:  SPUD DATE
 NREF.                    Grid:  NORTH REFERENCE
 HPTY.       Minimum Curvature:  HOLE POS TYPE
 DMOD.             Drill Model:  DRILL MOD DESC
 SVYD.                  Survey:  SURVEY DESC
 ILTD.               Lithology:  INTERP LTH DESC
 FTOP.          Formation Tops:  FORM TOPS DESC
 SON .        AZ-XX-0906252240:  JOB NUMBER
 RIG .             West Chirag:  RIG NAME
 PDAT.          Mean Sea Level:  PERMANENT DATUM
 FLD .                     ACG:  FIELD NAME
 CTRY.              Azerbaijan:  COUNTRY NAME
 WELL.           J23 (Slot 07):  WELL NAME
 SRVC.          Turan Drilling:  CONTRACTOR
 COMP.     BP Exploration (Casoian Sea) Ltd:  COMPANY
 WTYP.                Deviated:  WELL TYPE
 MDS .        Operator Entered:  MAG DATA SOURCE
 UWI .                     N/A:  UNIQUE WELL IDENTIFIER
 API .                     N/A:  API NUMBER
 BASE.              Azerbaijan:  LOGGING EQUIPMENT BASE LOCATION
 REGN.                   EESSA:  REGION
 PROV.                    Baku:  PROVINCE
 STAT.                    Baku:  STATE NAME
 MWDS.                     N/A:  MWD SHOP
 JOBN.        AZ-XX-0906252240:  JOB TICKET NUMB
 DOE .                     N/A:  DOE NUMBER
 DCON.         Sperry Drilling:  DIRECTNL CONTR
 UNIT.                     N/A:  LOGGING EQUIPMENT ID
 CNTY.                        :  COUNTY
 LOC .                        :  LOCATION
 LMF .             Drill Floor:  LOG MEASURED FROM
 TVDS.m                  43.00:  TVDSS CORRECTN
 LATI.deg                40.13:  LATITUDE
 LONG.deg                51.22:  LONGITUDE
 WHNS.m                   9.43:  WELL HEAD N/S
 WHEW.m                  -8.91:  WELL HEAD E/W
 UTMX.m              519005.06:  UTM X
 UTMY.m             4443793.85:  UTM Y
 DFWL.m                   0.00:  DISTANCE FWL
 DFSL.m                   0.00:  DISTANCE FSL
 SDEP.m                   0.00:  START DEPTH
 TDD .m                   0.00:  TOTAL DEPTH (DRILLER)
 VSDR.deg               179.88:  VERT SEC DIRECT
 GVFD.g                   1.00:  GRAVITY FIELD
 MFLD.nT              50281.00:  MAGNETIC FIELD
 MDIP.deg                59.58:  MAGNETIC DIP
 MDEC.deg                 6.48:  MAGNETIC DECL
 GRDC.deg                 0.14:  GRID CORRECTION
 AZTC.deg                 6.34:  AZM TOTAL CORR
 EPD .m                   0.00:  ELEVATION
 EGL .m                   0.00:  GROUND ELEVATION
 WDMS.m                 169.80:  WD ELEV
 APD .m                  43.00:  DEPTH ABOVE PD
 DEP .m                 354.17:  DEPTH
 AGAP.m                  43.00:  AIR GAP
 VSEW.m                  -8.91:  VERT SEC E/W
 VSNS.m                   9.43:  VERT SEC N/S
 EKB .m                   0.00:  KB ELEVATION
 EDF .m                  43.00:  DF ELEVATION
 TDL .m                1326.00:  TOTAL DEPTH (LOGGER)
 VSC .                       0:  VS TO CLOSURE
 MAGU.                 1850704:  MAGUTM CHECKSUM
~Parameter Information Block
#MNEM.UNIT       Value        Description
#---------     -----------    ---------------------------
 AV  .mps                 1.17:  Ann Velocity 
 AZIF.deg               184.04:  Azm, Final 
 BHAT.        Rotary Steerable:  BHA Type 
 BREV.rev            620000.00:  Rev Bit Total 
 BROT.°/30m               0.20:  Build Rotating 
 BS  .in                 14.75:  Bit Size 
 BSZ .in                 14.75:  Bit Size 
 BTPL.psig              618.00:  Bit Press Loss 
 CABU.                      No:  Customer Abuse 
 TCS .hr                 87.68:  Time Ciculation Ended 
 CV  .mps                 3.10:  Crit Velocity 
 DD1 .          Rashad Habibov:  Direct Drillr 1 
 DD2 .         Rasim Ibrahimov:  Direct Drillr 2 
 DDSV.               Geo-Pilot:  DD Service 
 DEFF.%                  98.00:  % Det Eff 
 DLRX.°/30m               1.48:  Dogleg Rot Max 
 DLSO.°/30m               0.50:  Dogleg Oriented 
 DLSX.°/30m               1.48:  Dogleg Str Max 
 DRET.      06.18.56 19-Apr-20:  Drill End Time 
 DRST.      15.00.56 15-Apr-20:  Drill Start Tim 
 DTIM.hr                 51.73:  Time Drilling 
 EDEP.m                3410.01:  End Depth 
 ENG1.        Marcelo Sandoval:  Engineer 1 
 ENG2.        Davud Huseynzade:  Engineer 2 
 ENG3.          Ruslan Safarov:  Engineer 3 
 ETIM.      04.00.56 20-Apr-20:  End Time 
 FLOI.gpm              1000.00:  Flow In 
 FLON.gpm               600.00:  Flow In Min 
 FLOS.cptm                0.00:  Fluid Loss 
 FLOX.gpm              1200.00:  Flow In Max 
 HFLO.                      No:  High Flow 
 HPRE.                     Yes:  High Pressure 
 HTEM.                      No:  High Temp 
 HYDO.m                   1.80:  Hydro Offset 
 IFIN.deg                70.04:  Inc, Final 
 IMAX.deg                70.56:  Inc Max 
 IMIN.deg                69.85:  Inc Min 
 IMND.m                3103.24:  Inc Min Depth 
 IMXD.m                2876.63:  Inc Max Depth 
 JARR.                      No:  Jarring 
 LETM.      06.18.56 19-Apr-20:  Log End Time 
 LOST.hr                     0:  Lost Rig Time 
 LSTM.      15.00.56 15-Apr-20:  Log Start Time 
 MDCL.ppm             42000.00:  Mud Chlorides 
 MDES.     Inversion Oil/Synthetic:  Mud Desc 
 DFD .sg                  1.58:  Mud Density 
 MDMN.sg                  1.58:  Dens Mud Min 
 MDMX.sg                  1.58:  Dens Mud Max 
 MOIL.                      71:  Run Mud Oil % 
 MOWR.                   71:29:  Run Mud OWR 
 MSND.                       0:  Run Mud Sand % 
 MSOL.                    23.3:  Run Mud Solids% 
 DFV .spqt               84.00:  Mud Viscosity 
 MWOD.in                  9.50:  MWD Tool OD 
 MWSI.                      No:  Serv Intrp, MWD 
 OTIM.hr                139.62:  Time Operating 
 PMAX.psia             5364.69:  Press Op, Max 
 PV  .cP                 80.00:  Mud PV 
 RUN .                     700:  Run Number 
 ROPA.m/hr               25.00:  ROP Avg 
 ROPN.m/hr               11.00:  ROP Min 
 ROPX.m/hr               36.00:  ROP Max 
 RPMA.rpm               130.00:  RPM Surface Avg 
 RPMN.rpm               120.00:  RPM Surface Min 
 RPMX.rpm               140.00:  RPM Surface Max 
 RRUN.                    0700:  Rig Run Number 
 SAZI.deg               183.25:  Azm, Start 
 SDEP.m                2084.00:  Start Depth 
 SIDD.                      No:  Serv Intrp, DD 
 SINC.deg                70.38:  Inc, Start 
 SPPA.psig             4800.00:  SPP Avg 
 SPPN.psig             4400.00:  SPP Min 
 SPPX.psig             5350.00:  SPP Max 
 STIM.      16.30.56 14-Apr-20:  Start Time 
 SVCS.                 DD, MWD:  Services 
 SVER.                    9.20:  Sperry Version 
 TDAT.m                1326.00:  Tot Depth Attmp 
 TDDF.                      No:  Trip for DD 
 TDLG.m                1326.00:  Tot Depth Loggd 
 TFF .                      No:  Trip for Fail 
 TQAA.f-kp               19.00:  Torque Abs Avg 
 TQAN.f-kp                8.00:  Torque Abs Min 
 TQAX.f-kp               27.00:  Torque Abs Max 
 TRRT.°/30m               0.50:  Turn Rotating 
 MRT .                    HCIM:  Maximum Recorded Temperature 
 TTMX.degC               82.35:  Max Tool Temp 
 VS01.       905245875X1Z1W1C8:  Virtual Str1 SN 
 VS02.       90608022F11V7D1A9:  Virtual Str2 SN 
 VS03.            90605473R5C9:  Virtual Str3 SN 
 WBMN.klb                11.00:  WOB Min 
 WOBA.klb                21.00:  WOB Avg 
 WOBX.klb                30.00:  WOB Max 
 YP  .lhf2               45.00:  Yield Point 
~Curve Information Block
#MNEM.UNIT                 API CODE     Curve Description
#---------               -----------    ---------------------------
 TIME.HHMMSS            00 000 000 000:  GT Time & Date
 GTDEPTH.m              00 000 000 000:  GT Depth
 GTPQH.psia             00 000 000 000:  GT HR Quartz Pressure
 GTTQ.degC              00 000 000 000:  GT Quartz Temperature
 GTTN.NONE              00 000 000 000:  GT Test Number
 GTET.sec               00 000 000 000:  GT Elapsed Test Time
 GTTVD.m                00 000 000 000:  GT True Vertical Depth
#Other Information
#
#WARRANTY: Halliburton will use its best efforts to furnish customers with 
#accurate information and interpretations that are part of, and incident to, the services 
#provided.  However, Halliburton cannot and does not warrant the accuracy 
#or correctness of such information and interpretations.  Under no circumstances should any 
#such information or interpretation be relied upon as the sole basis for any drilling, 
#completion, production, or financial decision or any procedure involving any risk to the 
#safety of any drilling venture, drilling rig or its crew or any other third party.  The 
#Customer has full responsibility for all drilling, completion and production operation.  
#Halliburton makes no representations or warranties, either expressed or 
#implied, including, but not limited to, the implied warranties of merchantability or fitness 
#for a particular purpose, with respect to the services rendered.  In no event will 
#Halliburton be liable for failure to obtain any particular results or for 
#any damages, including, but not limited to, indirect, special or consequential damages, 
#resulting from the use of any information or interpretation provided by Halliburton.
#
~A           TIME           GTDEPTH  GTPQH  GTTQ  GTTN  GTET   GTTVD  
# ...
   08:52:24.391.18-Apr-2020 3032.52 3389.20 68.68 3.00 322.04 1949.78
   08:52:24.591.18-Apr-2020 3032.52 3389.20 68.68 3.00 322.24 1949.78
   08:52:24.791.18-Apr-2020 3032.52 3389.20 68.68 3.00 322.44 1949.78
   08:52:24.991.18-Apr-2020 3032.52 3389.20 68.68 3.00 322.64 1949.78
   08:52:25.191.18-Apr-2020 3032.52 3389.19 68.68 3.00 322.84 1949.78
   08:52:25.391.18-Apr-2020 3032.52 3389.20 68.68 3.00 323.04 1949.78
   08:52:25.591.18-Apr-2020 3032.52 3389.20 68.68 3.00 323.24 1949.78
   08:52:25.791.18-Apr-2020 3032.52 3389.20 68.67 3.00 323.44 1949.78
   08:52:25.991.18-Apr-2020 3032.52 3389.20 68.67 3.00 323.64 1949.78
   08:52:26.191.18-Apr-2020 3032.52 3389.19 68.67 3.00 323.84 1949.78
   08:52:26.391.18-Apr-2020 3032.52 3389.23 68.67 3.00 324.04 1949.78
   08:52:26.591.18-Apr-2020 3032.52 3389.23 68.67 3.00 324.24 1949.78
   08:52:26.791.18-Apr-2020 3032.52 3389.20 68.67 3.00 324.44 1949.78
   08:52:26.991.18-Apr-2020 3032.52 3389.23 68.67 3.00 324.64 1949.78
   08:52:27.191.18-Apr-2020 3032.52 3389.24 68.67 3.00 324.84 1949.78
   08:52:27.391.18-Apr-2020 3032.52 3389.22 68.67 3.00 325.04 1949.78
   08:52:27.591.18-Apr-2020 3032.52 3389.21 68.67 3.00 325.24 1949.78
   08:52:27.791.18-Apr-2020 3032.52 3389.23 68.66 3.00 325.44 1949.78
   08:52:27.991.18-Apr-2020 3032.52 3389.22 68.66 3.00 325.64 1949.78
   08:52:28.191.18-Apr-2020 3032.52 3389.23 68.66 3.00 325.84 1949.78
   08:52:28.391.18-Apr-2020 3032.52 3389.21 68.66 3.00 326.04 1949.78
   08:52:28.591.18-Apr-2020 3032.52 3389.21 68.66 3.00 326.24 1949.78
   08:52:28.791.18-Apr-2020 3032.52 3389.23 68.66 3.00 326.44 1949.78
   08:52:28.991.18-Apr-2020 3032.52 3389.23 68.66 3.00 326.64 1949.78
   08:52:29.191.18-Apr-2020 3032.52 3389.21 68.66 3.00 326.84 1949.78
   08:52:29.391.18-Apr-2020 3032.52 3389.22 68.66 3.00 327.04 1949.78
   08:52:29.591.18-Apr-2020 3032.52 3389.22 68.66 3.00 327.24 1949.78
   08:52:29.791.18-Apr-2020 3032.52 3389.23 68.66 3.00 327.44 1949.78
   08:52:29.991.18-Apr-2020 3032.52 3389.21 68.65 3.00 327.64 1949.78
   08:52:30.191.18-Apr-2020 3032.52 3389.20 68.65 3.00 327.84 1949.78
   08:52:30.391.18-Apr-2020 3032.52 3389.20 68.65 3.00 328.04 1949.78
   08:52:30.591.18-Apr-2020 3032.52 3389.20 68.65 3.00 328.24 1949.78
   08:52:30.791.18-Apr-2020 3032.52 3389.20 68.65 3.00 328.44 1949.78
   08:52:30.991.18-Apr-2020 3032.52 3389.21 68.65 3.00 328.64 1949.78
   08:52:31.191.18-Apr-2020 3032.52 3389.20 68.65 3.00 328.84 1949.78
   08:52:31.391.18-Apr-2020 3032.52 3389.21 68.65 3.00 329.04 1949.78
   08:52:31.591.18-Apr-2020 3032.52 3389.21 68.65 3.00 329.24 1949.78
   08:52:31.791.18-Apr-2020 3032.52 3389.20 68.65 3.00 329.44 1949.78
   08:52:31.992.18-Apr-2020 3032.52 3389.20 68.65 3.00 329.64 1949.78
   08:52:32.192.18-Apr-2020 3032.52 3389.21 68.64 3.00 329.84 1949.78
   08:52:32.392.18-Apr-2020 3032.52 3389.20 68.64 3.00 330.04 1949.78
   08:52:32.592.18-Apr-2020 3032.52 3389.20 68.64 3.00 330.24 1949.78
   08:52:32.792.18-Apr-2020 3032.52 3389.22 68.64 3.00 330.44 1949.78
   08:52:32.992.18-Apr-2020 3032.52 3389.22 68.64 3.00 330.64 1949.78
   08:52:33.192.18-Apr-2020 3032.52 3389.22 68.64 3.00 330.84 1949.78
   08:52:33.392.18-Apr-2020 3032.52 3389.22 68.64 3.00 331.04 1949.78
   08:52:33.592.18-Apr-2020 3032.52 3389.22 68.64 3.00 331.24 1949.78
   08:52:33.792.18-Apr-2020 3032.52 3389.22 68.64 3.00 331.44 1949.78
   08:52:33.992.18-Apr-2020 3032.52 3389.21 68.64 3.00 331.64 1949.78
   08:52:34.192.18-Apr-2020 3032.52 3389.23 68.63 3.00 331.84 1949.78
   08:52:34.392.18-Apr-2020 3032.52 3389.22 68.63 3.00 332.04 1949.78
   08:52:34.592.18-Apr-2020 3032.52 3389.22 68.63 3.00 332.24 1949.78
   08:52:34.792.18-Apr-2020 3032.52 3389.21 68.63 3.00 332.44 1949.78
   08:52:34.992.18-Apr-2020 3032.52 3389.20 68.63 3.00 332.64 1949.78
   08:52:35.192.18-Apr-2020 3032.52 3389.23 68.63 3.00 332.84 1949.78
   08:52:35.392.18-Apr-2020 3032.52 3389.23 68.63 3.00 333.04 1949.78
   08:52:35.592.18-Apr-2020 3032.52 3389.22 68.63 3.00 333.24 1949.78
   08:52:35.792.18-Apr-2020 3032.52 3389.22 68.63 3.00 333.44 1949.78
   08:52:35.992.18-Apr-2020 3032.52 3389.23 68.63 3.00 333.64 1949.78
   08:52:36.192.18-Apr-2020 3032.52 3389.23 68.63 3.00 333.84 1949.78
   08:52:36.392.18-Apr-2020 3032.52 3389.21 68.63 3.00 334.05 1949.78
   08:52:36.592.18-Apr-2020 3032.52 3389.21 68.63 3.00 334.25 1949.78
   08:52:36.792.18-Apr-2020 3032.52 3389.23 68.62 3.00 334.45 1949.78
   08:52:36.992.18-Apr-2020 3032.52 3389.23 68.62 3.00 334.65 1949.78
   08:52:37.192.18-Apr-2020 3032.52 3389.21 68.62 3.00 334.85 1949.78
   08:52:37.392.18-Apr-2020 3032.52 3389.19 68.62 3.00 335.05 1949.78
   08:52:37.592.18-Apr-2020 3032.52 3389.19 68.62 3.00 335.25 1949.78
   08:52:37.792.18-Apr-2020 3032.52 3389.21 68.62 3.00 335.45 1949.78
   08:52:37.992.18-Apr-2020 3032.52 3389.22 68.62 3.00 335.65 1949.78
   08:52:38.192.18-Apr-2020 3032.52 3389.21 68.62 3.00 335.85 1949.78
   08:52:38.392.18-Apr-2020 3032.52 3389.20 68.62 3.00 336.05 1949.78
   08:52:38.592.18-Apr-2020 3032.52 3389.20 68.61 3.00 336.25 1949.78
   08:52:38.792.18-Apr-2020 3032.52 3389.22 68.61 3.00 336.45 1949.78
   08:52:38.992.18-Apr-2020 3032.52 3389.22 68.61 3.00 336.65 1949.78
   08:52:39.192.18-Apr-2020 3032.52 3389.21 68.61 3.00 336.85 1949.78
   08:52:39.393.18-Apr-2020 3032.52 3389.22 68.61 3.00 337.05 1949.78
   08:52:39.593.18-Apr-2020 3032.52 3389.21 68.61 3.00 337.25 1949.78
   08:52:39.793.18-Apr-2020 3032.52 3389.20 68.61 3.00 337.45 1949.78
   08:52:39.993.18-Apr-2020 3032.52 3389.21 68.61 3.00 337.65 1949.78
   08:52:40.193.18-Apr-2020 3032.52 3389.22 68.61 3.00 337.85 1949.78
   08:52:40.393.18-Apr-2020 3032.52 3389.21 68.61 3.00 338.05 1949.78
   08:52:40.593.18-Apr-2020 3032.52 3389.21 68.61 3.00 338.25 1949.78
   08:52:40.793.18-Apr-2020 3032.52 3389.21 68.60 3.00 338.45 1949.78
   08:52:40.993.18-Apr-2020 3032.52 3389.22 68.60 3.00 338.65 1949.78
   08:52:41.193.18-Apr-2020 3032.52 3389.22 68.60 3.00 338.85 1949.78
   08:52:41.393.18-Apr-2020 3032.52 3389.22 68.60 3.00 339.05 1949.78
   08:52:41.593.18-Apr-2020 3032.52 3389.22 68.60 3.00 339.25 1949.78
   08:52:41.793.18-Apr-2020 3032.52 3389.23 68.60 3.00 339.45 1949.78
   08:52:41.993.18-Apr-2020 3032.52 3389.23 68.60 3.00 339.65 1949.78
   08:52:42.193.18-Apr-2020 3032.52 3389.22 68.60 3.00 339.85 1949.78
   08:52:42.393.18-Apr-2020 3032.52 3389.22 68.60 3.00 340.05 1949.78
   08:52:42.593.18-Apr-2020 3032.52 3389.22 68.60 3.00 340.25 1949.78
   08:52:42.793.18-Apr-2020 3032.52 3389.23 68.60 3.00 340.45 1949.78
   08:52:42.993.18-Apr-2020 3032.52 3389.22 68.59 3.00 340.65 1949.78
   08:52:43.193.18-Apr-2020 3032.52 3389.22 68.59 3.00 340.85 1949.78
   08:52:43.393.18-Apr-2020 3032.52 3389.22 68.59 3.00 341.05 1949.78
   08:52:43.593.18-Apr-2020 3032.52 3389.22 68.59 3.00 341.25 1949.78
   08:52:43.793.18-Apr-2020 3032.52 3389.22 68.59 3.00 341.45 1949.78
   08:52:43.993.18-Apr-2020 3032.52 3389.20 68.59 3.00 341.65 1949.78
   08:52:44.193.18-Apr-2020 3032.52 3389.24 68.59 3.00 341.85 1949.78
   08:52:44.393.18-Apr-2020 3032.52 3389.23 68.59 3.00 342.05 1949.78
   08:52:44.593.18-Apr-2020 3032.52 3389.23 68.59 3.00 342.25 1949.78
   08:52:44.793.18-Apr-2020 3032.52 3389.24 68.59 3.00 342.45 1949.78
   08:52:44.993.18-Apr-2020 3032.52 3389.22 68.59 3.00 342.65 1949.78
   08:52:45.193.18-Apr-2020 3032.52 3389.22 68.58 3.00 342.85 1949.78
   08:52:45.393.18-Apr-2020 3032.52 3389.19 68.58 3.00 343.05 1949.78
   08:52:45.593.18-Apr-2020 3032.52 3389.19 68.58 3.00 343.25 1949.78
   08:52:45.793.18-Apr-2020 3032.52 3389.22 68.58 3.00 343.45 1949.78
   08:52:45.993.18-Apr-2020 3032.52 3389.21 68.58 3.00 343.65 1949.78
   08:52:46.193.18-Apr-2020 3032.52 3389.19 68.58 3.00 343.85 1949.78
   08:52:46.393.18-Apr-2020 3032.52 3389.20 68.58 3.00 344.05 1949.78
   08:52:46.593.18-Apr-2020 3032.52 3389.20 68.58 3.00 344.25 1949.78
   08:52:46.794.18-Apr-2020 3032.52 3389.22 68.58 3.00 344.45 1949.78
   08:52:46.994.18-Apr-2020 3032.52 3389.21 68.58 3.00 344.65 1949.78
   08:52:47.194.18-Apr-2020 3032.52 3389.21 68.58 3.00 344.85 1949.78
