~Version Information
 VERS.                  2.0:   CWLS log ASCII Standard -VERSION 2.0
 WRAP.                   NO:   One line per depth step
~Well Information Block
#MNEM.UNIT     VALUE/NAME     DESCRIPTION
#---------     -----------    ---------------------------
 STRT.S             07:07:08 18-Apr-20: START TIME 07:07:08 18-Apr-20
 STOP.S             07:14:03 18-Apr-20: STOP TIME  07:14:03 18-Apr-20
 STEP.S                   0.00: STEP TIME
 NULL.                 -999.25: NULL VALUE
 DFWT.                        :  DIST FWL TEXT
 DFST.                        :  DIST FSL TEXT
 DMF .                        :  DRILL MEAS FROM
 STIM.      16.29.52 23-Mar-20:  START TIME
 DATE.      16.29.52 23-Mar-20:  END TIME
 SPUD.               23-Mar-20:  SPUD DATE
 NREF.                    Grid:  NORTH REFERENCE
 HPTY.       Minimum Curvature:  HOLE POS TYPE
 DMOD.             Drill Model:  DRILL MOD DESC
 SVYD.                  Survey:  SURVEY DESC
 ILTD.               Lithology:  INTERP LTH DESC
 FTOP.          Formation Tops:  FORM TOPS DESC
 SON .        AZ-XX-0906252240:  JOB NUMBER
 RIG .             West Chirag:  RIG NAME
 PDAT.          Mean Sea Level:  PERMANENT DATUM
 FLD .                     ACG:  FIELD NAME
 CTRY.              Azerbaijan:  COUNTRY NAME
 WELL.           J23 (Slot 07):  WELL NAME
 SRVC.          Turan Drilling:  CONTRACTOR
 COMP.     BP Exploration (Casoian Sea) Ltd:  COMPANY
 WTYP.                Deviated:  WELL TYPE
 MDS .        Operator Entered:  MAG DATA SOURCE
 UWI .                     N/A:  UNIQUE WELL IDENTIFIER
 API .                     N/A:  API NUMBER
 BASE.              Azerbaijan:  LOGGING EQUIPMENT BASE LOCATION
 REGN.                   EESSA:  REGION
 PROV.                    Baku:  PROVINCE
 STAT.                    Baku:  STATE NAME
 MWDS.                     N/A:  MWD SHOP
 JOBN.        AZ-XX-0906252240:  JOB TICKET NUMB
 DOE .                     N/A:  DOE NUMBER
 DCON.         Sperry Drilling:  DIRECTNL CONTR
 UNIT.                     N/A:  LOGGING EQUIPMENT ID
 CNTY.                        :  COUNTY
 LOC .                        :  LOCATION
 LMF .             Drill Floor:  LOG MEASURED FROM
 TVDS.m                  43.00:  TVDSS CORRECTN
 LATI.deg                40.13:  LATITUDE
 LONG.deg                51.22:  LONGITUDE
 WHNS.m                   9.43:  WELL HEAD N/S
 WHEW.m                  -8.91:  WELL HEAD E/W
 UTMX.m              519005.06:  UTM X
 UTMY.m             4443793.85:  UTM Y
 DFWL.m                   0.00:  DISTANCE FWL
 DFSL.m                   0.00:  DISTANCE FSL
 SDEP.m                   0.00:  START DEPTH
 TDD .m                   0.00:  TOTAL DEPTH (DRILLER)
 VSDR.deg               179.88:  VERT SEC DIRECT
 GVFD.g                   1.00:  GRAVITY FIELD
 MFLD.nT              50281.00:  MAGNETIC FIELD
 MDIP.deg                59.58:  MAGNETIC DIP
 MDEC.deg                 6.48:  MAGNETIC DECL
 GRDC.deg                 0.14:  GRID CORRECTION
 AZTC.deg                 6.34:  AZM TOTAL CORR
 EPD .m                   0.00:  ELEVATION
 EGL .m                   0.00:  GROUND ELEVATION
 WDMS.m                 169.80:  WD ELEV
 APD .m                  43.00:  DEPTH ABOVE PD
 DEP .m                 354.17:  DEPTH
 AGAP.m                  43.00:  AIR GAP
 VSEW.m                  -8.91:  VERT SEC E/W
 VSNS.m                   9.43:  VERT SEC N/S
 EKB .m                   0.00:  KB ELEVATION
 EDF .m                  43.00:  DF ELEVATION
 TDL .m                1326.00:  TOTAL DEPTH (LOGGER)
 VSC .                       0:  VS TO CLOSURE
 MAGU.                 1850704:  MAGUTM CHECKSUM
~Parameter Information Block
#MNEM.UNIT       Value        Description
#---------     -----------    ---------------------------
 AV  .mps                 1.17:  Ann Velocity 
 AZIF.deg               184.04:  Azm, Final 
 BHAT.        Rotary Steerable:  BHA Type 
 BREV.rev            620000.00:  Rev Bit Total 
 BROT.°/30m               0.20:  Build Rotating 
 BS  .in                 14.75:  Bit Size 
 BSZ .in                 14.75:  Bit Size 
 BTPL.psig              618.00:  Bit Press Loss 
 CABU.                      No:  Customer Abuse 
 COMM.                     îb:  Run Comments 1 
 TCS .hr                 87.68:  Time Ciculation Ended 
 CV  .mps                 3.10:  Crit Velocity 
 DD1 .          Rashad Habibov:  Direct Drillr 1 
 DD2 .         Rasim Ibrahimov:  Direct Drillr 2 
 DDSV.               Geo-Pilot:  DD Service 
 DEFF.%                  98.00:  % Det Eff 
 DLRX.°/30m               1.48:  Dogleg Rot Max 
 DLSO.°/30m               0.50:  Dogleg Oriented 
 DLSX.°/30m               1.48:  Dogleg Str Max 
 DRET.      06.18.56 19-Apr-20:  Drill End Time 
 DRST.      15.00.56 15-Apr-20:  Drill Start Tim 
 DTIM.hr                 51.73:  Time Drilling 
 EDEP.m                3410.01:  End Depth 
 ENG1.        Marcelo Sandoval:  Engineer 1 
 ENG2.        Davud Huseynzade:  Engineer 2 
 ENG3.          Ruslan Safarov:  Engineer 3 
 ETIM.      04.00.56 20-Apr-20:  End Time 
 FLOI.gpm              1000.00:  Flow In 
 FLON.gpm               600.00:  Flow In Min 
 FLOS.cptm                0.00:  Fluid Loss 
 FLOX.gpm              1200.00:  Flow In Max 
 HFLO.                      No:  High Flow 
 HPRE.                     Yes:  High Pressure 
 HTEM.                      No:  High Temp 
 HYDO.m                   1.80:  Hydro Offset 
 IFIN.deg                70.04:  Inc, Final 
 IMAX.deg                70.56:  Inc Max 
 IMIN.deg                69.85:  Inc Min 
 IMND.m                3103.24:  Inc Min Depth 
 IMXD.m                2876.63:  Inc Max Depth 
 JARR.                      No:  Jarring 
 LETM.      06.18.56 19-Apr-20:  Log End Time 
 LOST.hr                     0:  Lost Rig Time 
 LSTM.      15.00.56 15-Apr-20:  Log Start Time 
 MDCL.ppm             42000.00:  Mud Chlorides 
 MDES.     Inversion Oil/Synthetic:  Mud Desc 
 DFD .sg                  1.58:  Mud Density 
 MDMN.sg                  1.58:  Dens Mud Min 
 MDMX.sg                  1.58:  Dens Mud Max 
 MOIL.                      71:  Run Mud Oil % 
 MOWR.                   71:29:  Run Mud OWR 
 MSND.                       0:  Run Mud Sand % 
 MSOL.                    23.3:  Run Mud Solids% 
 DFV .spqt               84.00:  Mud Viscosity 
 MWOD.in                  9.50:  MWD Tool OD 
 MWSI.                      No:  Serv Intrp, MWD 
 OTIM.hr                139.62:  Time Operating 
 PMAX.psia             5364.69:  Press Op, Max 
 PV  .cP                 80.00:  Mud PV 
 RUN .                     700:  Run Number 
 ROPA.m/hr               25.00:  ROP Avg 
 ROPN.m/hr               11.00:  ROP Min 
 ROPX.m/hr               36.00:  ROP Max 
 RPMA.rpm               130.00:  RPM Surface Avg 
 RPMN.rpm               120.00:  RPM Surface Min 
 RPMX.rpm               140.00:  RPM Surface Max 
 RRUN.                    0700:  Rig Run Number 
 SAZI.deg               183.25:  Azm, Start 
 SDEP.m                2084.00:  Start Depth 
 SIDD.                      No:  Serv Intrp, DD 
 SINC.deg                70.38:  Inc, Start 
 SPPA.psig             4800.00:  SPP Avg 
 SPPN.psig             4400.00:  SPP Min 
 SPPX.psig             5350.00:  SPP Max 
 STIM.      16.30.56 14-Apr-20:  Start Time 
 SVCS.                 DD, MWD:  Services 
 SVER.                    9.20:  Sperry Version 
 TDAT.m                1326.00:  Tot Depth Attmp 
 TDDF.                      No:  Trip for DD 
 TDLG.m                1326.00:  Tot Depth Loggd 
 TFF .                      No:  Trip for Fail 
 TQAA.f-kp               19.00:  Torque Abs Avg 
 TQAN.f-kp                8.00:  Torque Abs Min 
 TQAX.f-kp               27.00:  Torque Abs Max 
 TRRT.°/30m               0.50:  Turn Rotating 
 MRT .                    HCIM:  Maximum Recorded Temperature 
 TTMX.degC               82.35:  Max Tool Temp 
 VS01.       905245875X1Z1W1C8:  Virtual Str1 SN 
 VS02.       90608022F11V7D1A9:  Virtual Str2 SN 
 VS03.            90605473R5C9:  Virtual Str3 SN 
 WBMN.klb                11.00:  WOB Min 
 WOBA.klb                21.00:  WOB Avg 
 WOBX.klb                30.00:  WOB Max 
 YP  .lhf2               45.00:  Yield Point 
~Curve Information Block
#MNEM.UNIT                 API CODE     Curve Description
#---------               -----------    ---------------------------
 TIME.HHMMSS            00 000 000 000:  GT Time & Date
 GTDEPTH.m              00 000 000 000:  GT Depth
 GTPQH.psia             00 000 000 000:  GT HR Quartz Pressure
 GTTQ.degC              00 000 000 000:  GT Quartz Temperature
 GTTN.NONE              00 000 000 000:  GT Test Number
 GTET.sec               00 000 000 000:  GT Elapsed Test Time
 GTTVD.m                00 000 000 000:  GT True Vertical Depth
#Other Information
#
#WARRANTY: Halliburton will use its best efforts to furnish customers with 
#accurate information and interpretations that are part of, and incident to, the services 
#provided.  However, Halliburton cannot and does not warrant the accuracy 
#or correctness of such information and interpretations.  Under no circumstances should any 
#such information or interpretation be relied upon as the sole basis for any drilling, 
#completion, production, or financial decision or any procedure involving any risk to the 
#safety of any drilling venture, drilling rig or its crew or any other third party.  The 
#Customer has full responsibility for all drilling, completion and production operation.  
#Halliburton makes no representations or warranties, either expressed or 
#implied, including, but not limited to, the implied warranties of merchantability or fitness 
#for a particular purpose, with respect to the services rendered.  In no event will 
#Halliburton be liable for failure to obtain any particular results or for 
#any damages, including, but not limited to, indirect, special or consequential damages, 
#resulting from the use of any information or interpretation provided by Halliburton.
#
~A           TIME           GTDEPTH  GTPQH  GTTQ  GTTN  GTET   GTTVD  
# ...
   07:10:35.658.18-Apr-2020 3016.07 3390.34 70.28 2.00 207.02 1944.23
   07:10:35.858.18-Apr-2020 3016.07 3390.35 70.28 2.00 207.22 1944.23
   07:10:36.058.18-Apr-2020 3016.07 3390.32 70.28 2.00 207.42 1944.23
   07:10:36.258.18-Apr-2020 3016.07 3390.32 70.28 2.00 207.62 1944.23
   07:10:36.458.18-Apr-2020 3016.07 3390.32 70.28 2.00 207.82 1944.23
   07:10:36.658.18-Apr-2020 3016.07 3390.32 70.28 2.00 208.02 1944.23
   07:10:36.858.18-Apr-2020 3016.07 3390.33 70.28 2.00 208.22 1944.23
   07:10:37.058.18-Apr-2020 3016.07 3390.32 70.28 2.00 208.42 1944.23
   07:10:37.258.18-Apr-2020 3016.07 3390.33 70.28 2.00 208.62 1944.23
   07:10:37.458.18-Apr-2020 3016.07 3390.33 70.28 2.00 208.82 1944.23
   07:10:37.658.18-Apr-2020 3016.07 3390.31 70.28 2.00 209.02 1944.23
   07:10:37.858.18-Apr-2020 3016.07 3390.31 70.27 2.00 209.22 1944.23
   07:10:38.058.18-Apr-2020 3016.07 3390.32 70.27 2.00 209.42 1944.23
   07:10:38.258.18-Apr-2020 3016.07 3390.31 70.27 2.00 209.62 1944.23
   07:10:38.458.18-Apr-2020 3016.07 3390.31 70.27 2.00 209.82 1944.23
   07:10:38.658.18-Apr-2020 3016.07 3390.31 70.27 2.00 210.02 1944.23
   07:10:38.858.18-Apr-2020 3016.07 3390.31 70.27 2.00 210.22 1944.23
   07:10:39.058.18-Apr-2020 3016.07 3390.30 70.27 2.00 210.42 1944.23
   07:10:39.258.18-Apr-2020 3016.07 3390.31 70.27 2.00 210.62 1944.23
   07:10:39.458.18-Apr-2020 3016.07 3390.30 70.27 2.00 210.82 1944.23
   07:10:39.658.18-Apr-2020 3016.07 3390.33 70.27 2.00 211.02 1944.23
   07:10:39.858.18-Apr-2020 3016.07 3390.33 70.27 2.00 211.22 1944.23
   07:10:40.058.18-Apr-2020 3016.07 3390.32 70.27 2.00 211.42 1944.23
   07:10:40.258.18-Apr-2020 3016.07 3390.30 70.27 2.00 211.62 1944.23
   07:10:40.458.18-Apr-2020 3016.07 3390.58 70.26 2.00 211.82 1944.23
   07:10:40.658.18-Apr-2020 3016.07 3392.06 70.26 2.00 212.02 1944.23
   07:10:40.858.18-Apr-2020 3016.07 3392.06 70.26 2.00 212.22 1944.23
   07:10:41.058.18-Apr-2020 3016.07 3391.20 70.26 2.00 212.42 1944.23
   07:10:41.258.18-Apr-2020 3016.07 3391.00 70.26 2.00 212.62 1944.23
   07:10:41.458.18-Apr-2020 3016.07 3390.86 70.26 2.00 212.82 1944.23
   07:10:41.658.18-Apr-2020 3016.07 3390.74 70.26 2.00 213.02 1944.23
   07:10:41.858.18-Apr-2020 3016.07 3390.74 70.26 2.00 213.22 1944.23
   07:10:42.058.18-Apr-2020 3016.07 3390.56 70.26 2.00 213.42 1944.23
   07:10:42.258.18-Apr-2020 3016.07 3390.50 70.26 2.00 213.62 1944.23
   07:10:42.458.18-Apr-2020 3016.07 3390.45 70.26 2.00 213.82 1944.23
   07:10:42.658.18-Apr-2020 3016.07 3390.39 70.26 2.00 214.02 1944.23
   07:10:42.858.18-Apr-2020 3016.07 3390.39 70.26 2.00 214.22 1944.23
   07:10:43.058.18-Apr-2020 3016.07 3390.32 70.25 2.00 214.42 1944.23
   07:10:43.258.18-Apr-2020 3016.07 3390.29 70.25 2.00 214.62 1944.23
   07:10:43.458.18-Apr-2020 3016.07 3390.25 70.25 2.00 214.82 1944.23
   07:10:43.658.18-Apr-2020 3016.07 3390.24 70.25 2.00 215.02 1944.23
   07:10:43.858.18-Apr-2020 3016.07 3390.25 70.25 2.00 215.22 1944.23
   07:10:44.058.18-Apr-2020 3016.07 3390.24 70.25 2.00 215.42 1944.23
   07:10:44.258.18-Apr-2020 3016.07 3390.21 70.25 2.00 215.62 1944.23
   07:10:44.459.18-Apr-2020 3016.07 3390.20 70.25 2.00 215.82 1944.23
   07:10:44.659.18-Apr-2020 3016.07 3390.24 70.25 2.00 216.02 1944.23
   07:10:44.859.18-Apr-2020 3016.07 3390.24 70.25 2.00 216.22 1944.23
   07:10:45.059.18-Apr-2020 3016.07 3390.21 70.25 2.00 216.42 1944.23
   07:10:45.259.18-Apr-2020 3016.07 3390.20 70.25 2.00 216.62 1944.23
   07:10:45.459.18-Apr-2020 3016.07 3390.20 70.25 2.00 216.82 1944.23
   07:10:45.659.18-Apr-2020 3016.07 3390.21 70.24 2.00 217.02 1944.23
   07:10:45.859.18-Apr-2020 3016.07 3390.21 70.24 2.00 217.22 1944.23
   07:10:46.059.18-Apr-2020 3016.07 3390.19 70.24 2.00 217.42 1944.23
   07:10:46.259.18-Apr-2020 3016.07 3390.19 70.24 2.00 217.62 1944.23
   07:10:46.459.18-Apr-2020 3016.07 3390.20 70.24 2.00 217.82 1944.23
   07:10:46.659.18-Apr-2020 3016.07 3390.19 70.24 2.00 218.02 1944.23
   07:10:46.859.18-Apr-2020 3016.07 3390.19 70.24 2.00 218.22 1944.23
   07:10:47.059.18-Apr-2020 3016.07 3390.18 70.24 2.00 218.42 1944.23
   07:10:47.259.18-Apr-2020 3016.07 3390.17 70.24 2.00 218.62 1944.23
   07:10:47.459.18-Apr-2020 3016.07 3390.17 70.24 2.00 218.82 1944.23
   07:10:47.659.18-Apr-2020 3016.07 3390.18 70.24 2.00 219.02 1944.23
   07:10:47.859.18-Apr-2020 3016.07 3390.17 70.24 2.00 219.22 1944.23
   07:10:48.059.18-Apr-2020 3016.07 3390.17 70.24 2.00 219.42 1944.23
   07:10:48.259.18-Apr-2020 3016.07 3390.18 70.23 2.00 219.62 1944.23
   07:10:48.459.18-Apr-2020 3016.07 3390.15 70.23 2.00 219.82 1944.23
   07:10:48.659.18-Apr-2020 3016.07 3390.17 70.23 2.00 220.02 1944.23
   07:10:48.859.18-Apr-2020 3016.07 3390.17 70.23 2.00 220.22 1944.23
   07:10:49.059.18-Apr-2020 3016.07 3390.18 70.23 2.00 220.42 1944.23
   07:10:49.259.18-Apr-2020 3016.07 3390.19 70.23 2.00 220.62 1944.23
   07:10:49.459.18-Apr-2020 3016.07 3390.18 70.23 2.00 220.82 1944.23
   07:10:49.659.18-Apr-2020 3016.07 3390.19 70.23 2.00 221.02 1944.23
   07:10:49.859.18-Apr-2020 3016.07 3390.19 70.23 2.00 221.22 1944.23
   07:10:50.059.18-Apr-2020 3016.07 3390.17 70.23 2.00 221.42 1944.23
   07:10:50.259.18-Apr-2020 3016.07 3390.18 70.23 2.00 221.62 1944.23
   07:10:50.459.18-Apr-2020 3016.07 3390.19 70.23 2.00 221.82 1944.23
   07:10:50.659.18-Apr-2020 3016.07 3390.19 70.23 2.00 222.02 1944.23
   07:10:50.859.18-Apr-2020 3016.07 3390.19 70.22 2.00 222.22 1944.23
   07:10:51.059.18-Apr-2020 3016.07 3390.17 70.22 2.00 222.42 1944.23
   07:10:51.259.18-Apr-2020 3016.07 3390.21 70.22 2.00 222.62 1944.23
   07:10:51.459.18-Apr-2020 3016.07 3390.20 70.22 2.00 222.82 1944.23
   07:10:51.659.18-Apr-2020 3016.07 3390.20 70.22 2.00 223.02 1944.23
   07:10:51.859.18-Apr-2020 3016.07 3390.20 70.22 2.00 223.22 1944.23
   07:10:52.059.18-Apr-2020 3016.07 3390.21 70.22 2.00 223.42 1944.23
   07:10:52.259.18-Apr-2020 3016.07 3390.20 70.22 2.00 223.62 1944.23
   07:10:52.459.18-Apr-2020 3016.07 3390.20 70.22 2.00 223.82 1944.23
   07:10:52.659.18-Apr-2020 3016.07 3390.19 70.22 2.00 224.02 1944.23
   07:10:52.859.18-Apr-2020 3016.07 3390.19 70.22 2.00 224.22 1944.23
   07:10:53.059.18-Apr-2020 3016.07 3390.19 70.22 2.00 224.42 1944.23
   07:10:53.259.18-Apr-2020 3016.07 3390.16 70.22 2.00 224.62 1944.23
   07:10:53.459.18-Apr-2020 3016.07 3390.19 70.22 2.00 224.82 1944.23
   07:10:53.659.18-Apr-2020 3016.07 3390.20 70.21 2.00 225.02 1944.23
   07:10:53.860.18-Apr-2020 3016.07 3390.20 70.21 2.00 225.22 1944.23
   07:10:54.060.18-Apr-2020 3016.07 3390.19 70.21 2.00 225.42 1944.23
   07:10:54.260.18-Apr-2020 3016.07 3390.19 70.21 2.00 225.62 1944.23
   07:10:54.460.18-Apr-2020 3016.07 3390.20 70.21 2.00 225.82 1944.23
   07:10:54.660.18-Apr-2020 3016.07 3390.20 70.21 2.00 226.02 1944.23
   07:10:54.860.18-Apr-2020 3016.07 3390.20 70.21 2.00 226.22 1944.23
   07:10:55.060.18-Apr-2020 3016.07 3390.19 70.21 2.00 226.42 1944.23
   07:10:55.260.18-Apr-2020 3016.07 3390.21 70.21 2.00 226.62 1944.23
   07:10:55.460.18-Apr-2020 3016.07 3390.20 70.21 2.00 226.82 1944.23
   07:10:55.660.18-Apr-2020 3016.07 3390.18 70.21 2.00 227.02 1944.23
   07:10:55.860.18-Apr-2020 3016.07 3390.19 70.21 2.00 227.22 1944.23
   07:10:56.060.18-Apr-2020 3016.07 3390.19 70.21 2.00 227.42 1944.23
   07:10:56.260.18-Apr-2020 3016.07 3390.19 70.20 2.00 227.62 1944.23
   07:10:56.460.18-Apr-2020 3016.07 3390.19 70.20 2.00 227.82 1944.23
   07:10:56.660.18-Apr-2020 3016.07 3390.18 70.20 2.00 228.02 1944.23
   07:10:56.860.18-Apr-2020 3016.07 3390.18 70.20 2.00 228.22 1944.23
   07:10:57.060.18-Apr-2020 3016.07 3390.18 70.20 2.00 228.42 1944.23
   07:10:57.260.18-Apr-2020 3016.07 3390.17 70.20 2.00 228.62 1944.23
   07:10:57.460.18-Apr-2020 3016.07 3390.20 70.20 2.00 228.82 1944.23
   07:10:57.660.18-Apr-2020 3016.07 3390.20 70.20 2.00 229.02 1944.23
   07:10:57.860.18-Apr-2020 3016.07 3390.20 70.20 2.00 229.22 1944.23
   07:10:58.060.18-Apr-2020 3016.07 3390.20 70.20 2.00 229.42 1944.23
   07:10:58.260.18-Apr-2020 3016.07 3390.20 70.20 2.00 229.62 1944.23
   07:10:58.460.18-Apr-2020 3016.07 3390.20 70.20 2.00 229.82 1944.23
