~Version Information
 VERS.                  2.0:   CWLS log ASCII Standard -VERSION 2.0
 WRAP.                   NO:   One line per depth step
~Well Information Block
#MNEM.UNIT     VALUE/NAME     DESCRIPTION
#---------     -----------    ---------------------------
 STRT.S             13:35:33 18-Apr-20: START TIME 13:35:33 18-Apr-20
 STOP.S             13:42:31 18-Apr-20: STOP TIME  13:42:31 18-Apr-20
 STEP.S                   0.00: STEP TIME
 NULL.                 -999.25: NULL VALUE
 DFWT.                        :  DIST FWL TEXT
 DFST.                        :  DIST FSL TEXT
 DMF .                        :  DRILL MEAS FROM
 STIM.      16.29.52 23-Mar-20:  START TIME
 DATE.      16.29.52 23-Mar-20:  END TIME
 SPUD.               23-Mar-20:  SPUD DATE
 NREF.                    Grid:  NORTH REFERENCE
 HPTY.       Minimum Curvature:  HOLE POS TYPE
 DMOD.             Drill Model:  DRILL MOD DESC
 SVYD.                  Survey:  SURVEY DESC
 ILTD.               Lithology:  INTERP LTH DESC
 FTOP.          Formation Tops:  FORM TOPS DESC
 SON .        AZ-XX-0906252240:  JOB NUMBER
 RIG .             West Chirag:  RIG NAME
 PDAT.          Mean Sea Level:  PERMANENT DATUM
 FLD .                     ACG:  FIELD NAME
 CTRY.              Azerbaijan:  COUNTRY NAME
 WELL.           J23 (Slot 07):  WELL NAME
 SRVC.          Turan Drilling:  CONTRACTOR
 COMP.     BP Exploration (Casoian Sea) Ltd:  COMPANY
 WTYP.                Deviated:  WELL TYPE
 MDS .        Operator Entered:  MAG DATA SOURCE
 UWI .                     N/A:  UNIQUE WELL IDENTIFIER
 API .                     N/A:  API NUMBER
 BASE.              Azerbaijan:  LOGGING EQUIPMENT BASE LOCATION
 REGN.                   EESSA:  REGION
 PROV.                    Baku:  PROVINCE
 STAT.                    Baku:  STATE NAME
 MWDS.                     N/A:  MWD SHOP
 JOBN.        AZ-XX-0906252240:  JOB TICKET NUMB
 DOE .                     N/A:  DOE NUMBER
 DCON.         Sperry Drilling:  DIRECTNL CONTR
 UNIT.                     N/A:  LOGGING EQUIPMENT ID
 CNTY.                        :  COUNTY
 LOC .                        :  LOCATION
 LMF .             Drill Floor:  LOG MEASURED FROM
 TVDS.m                  43.00:  TVDSS CORRECTN
 LATI.deg                40.13:  LATITUDE
 LONG.deg                51.22:  LONGITUDE
 WHNS.m                   9.43:  WELL HEAD N/S
 WHEW.m                  -8.91:  WELL HEAD E/W
 UTMX.m              519005.06:  UTM X
 UTMY.m             4443793.85:  UTM Y
 DFWL.m                   0.00:  DISTANCE FWL
 DFSL.m                   0.00:  DISTANCE FSL
 SDEP.m                   0.00:  START DEPTH
 TDD .m                   0.00:  TOTAL DEPTH (DRILLER)
 VSDR.deg               179.88:  VERT SEC DIRECT
 GVFD.g                   1.00:  GRAVITY FIELD
 MFLD.nT              50281.00:  MAGNETIC FIELD
 MDIP.deg                59.58:  MAGNETIC DIP
 MDEC.deg                 6.48:  MAGNETIC DECL
 GRDC.deg                 0.14:  GRID CORRECTION
 AZTC.deg                 6.34:  AZM TOTAL CORR
 EPD .m                   0.00:  ELEVATION
 EGL .m                   0.00:  GROUND ELEVATION
 WDMS.m                 169.80:  WD ELEV
 APD .m                  43.00:  DEPTH ABOVE PD
 DEP .m                 354.17:  DEPTH
 AGAP.m                  43.00:  AIR GAP
 VSEW.m                  -8.91:  VERT SEC E/W
 VSNS.m                   9.43:  VERT SEC N/S
 EKB .m                   0.00:  KB ELEVATION
 EDF .m                  43.00:  DF ELEVATION
 TDL .m                1326.00:  TOTAL DEPTH (LOGGER)
 VSC .                       0:  VS TO CLOSURE
 MAGU.                 1850704:  MAGUTM CHECKSUM
~Parameter Information Block
#MNEM.UNIT       Value        Description
#---------     -----------    ---------------------------
 AV  .mps                 1.17:  Ann Velocity 
 AZIF.deg               184.04:  Azm, Final 
 BHAT.        Rotary Steerable:  BHA Type 
 BREV.rev            620000.00:  Rev Bit Total 
 BROT.°/30m               0.20:  Build Rotating 
 BS  .in                 14.75:  Bit Size 
 BSZ .in                 14.75:  Bit Size 
 BTPL.psig              618.00:  Bit Press Loss 
 CABU.                      No:  Customer Abuse 
 COMM.                     ôÎT:  Run Comments 1 
 TCS .hr                 87.68:  Time Ciculation Ended 
 CV  .mps                 3.10:  Crit Velocity 
 DD1 .          Rashad Habibov:  Direct Drillr 1 
 DD2 .         Rasim Ibrahimov:  Direct Drillr 2 
 DDSV.               Geo-Pilot:  DD Service 
 DEFF.%                  98.00:  % Det Eff 
 DLRX.°/30m               1.48:  Dogleg Rot Max 
 DLSO.°/30m               0.50:  Dogleg Oriented 
 DLSX.°/30m               1.48:  Dogleg Str Max 
 DRET.      06.18.56 19-Apr-20:  Drill End Time 
 DRST.      15.00.56 15-Apr-20:  Drill Start Tim 
 DTIM.hr                 51.73:  Time Drilling 
 EDEP.m                3410.01:  End Depth 
 ENG1.        Marcelo Sandoval:  Engineer 1 
 ENG2.        Davud Huseynzade:  Engineer 2 
 ENG3.          Ruslan Safarov:  Engineer 3 
 ETIM.      04.00.56 20-Apr-20:  End Time 
 FLOI.gpm              1000.00:  Flow In 
 FLON.gpm               600.00:  Flow In Min 
 FLOS.cptm                0.00:  Fluid Loss 
 FLOX.gpm              1200.00:  Flow In Max 
 HFLO.                      No:  High Flow 
 HPRE.                     Yes:  High Pressure 
 HTEM.                      No:  High Temp 
 HYDO.m                   1.80:  Hydro Offset 
 IFIN.deg                70.04:  Inc, Final 
 IMAX.deg                70.56:  Inc Max 
 IMIN.deg                69.85:  Inc Min 
 IMND.m                3103.24:  Inc Min Depth 
 IMXD.m                2876.63:  Inc Max Depth 
 JARR.                      No:  Jarring 
 LETM.      06.18.56 19-Apr-20:  Log End Time 
 LOST.hr                     0:  Lost Rig Time 
 LSTM.      15.00.56 15-Apr-20:  Log Start Time 
 MDCL.ppm             42000.00:  Mud Chlorides 
 MDES.     Inversion Oil/Synthetic:  Mud Desc 
 DFD .sg                  1.58:  Mud Density 
 MDMN.sg                  1.58:  Dens Mud Min 
 MDMX.sg                  1.58:  Dens Mud Max 
 MOIL.                      71:  Run Mud Oil % 
 MOWR.                   71:29:  Run Mud OWR 
 MSND.                       0:  Run Mud Sand % 
 MSOL.                    23.3:  Run Mud Solids% 
 DFV .spqt               84.00:  Mud Viscosity 
 MWOD.in                  9.50:  MWD Tool OD 
 MWSI.                      No:  Serv Intrp, MWD 
 OTIM.hr                139.62:  Time Operating 
 PMAX.psia             5364.69:  Press Op, Max 
 PV  .cP                 80.00:  Mud PV 
 RUN .                     700:  Run Number 
 ROPA.m/hr               25.00:  ROP Avg 
 ROPN.m/hr               11.00:  ROP Min 
 ROPX.m/hr               36.00:  ROP Max 
 RPMA.rpm               130.00:  RPM Surface Avg 
 RPMN.rpm               120.00:  RPM Surface Min 
 RPMX.rpm               140.00:  RPM Surface Max 
 RRUN.                    0700:  Rig Run Number 
 SAZI.deg               183.25:  Azm, Start 
 SDEP.m                2084.00:  Start Depth 
 SIDD.                      No:  Serv Intrp, DD 
 SINC.deg                70.38:  Inc, Start 
 SPPA.psig             4800.00:  SPP Avg 
 SPPN.psig             4400.00:  SPP Min 
 SPPX.psig             5350.00:  SPP Max 
 STIM.      16.30.56 14-Apr-20:  Start Time 
 SVCS.                 DD, MWD:  Services 
 SVER.                    9.20:  Sperry Version 
 TDAT.m                1326.00:  Tot Depth Attmp 
 TDDF.                      No:  Trip for DD 
 TDLG.m                1326.00:  Tot Depth Loggd 
 TFF .                      No:  Trip for Fail 
 TQAA.f-kp               19.00:  Torque Abs Avg 
 TQAN.f-kp                8.00:  Torque Abs Min 
 TQAX.f-kp               27.00:  Torque Abs Max 
 TRRT.°/30m               0.50:  Turn Rotating 
 MRT .                    HCIM:  Maximum Recorded Temperature 
 TTMX.degC               82.35:  Max Tool Temp 
 VS01.       905245875X1Z1W1C8:  Virtual Str1 SN 
 VS02.       90608022F11V7D1A9:  Virtual Str2 SN 
 VS03.            90605473R5C9:  Virtual Str3 SN 
 WBMN.klb                11.00:  WOB Min 
 WOBA.klb                21.00:  WOB Avg 
 WOBX.klb                30.00:  WOB Max 
 YP  .lhf2               45.00:  Yield Point 
~Curve Information Block
#MNEM.UNIT                 API CODE     Curve Description
#---------               -----------    ---------------------------
 TIME.HHMMSS            00 000 000 000:  GT Time & Date
 GTDEPTH.m              00 000 000 000:  GT Depth
 GTPQH.psia             00 000 000 000:  GT HR Quartz Pressure
 GTTQ.degC              00 000 000 000:  GT Quartz Temperature
 GTTN.NONE              00 000 000 000:  GT Test Number
 GTET.sec               00 000 000 000:  GT Elapsed Test Time
 GTTVD.m                00 000 000 000:  GT True Vertical Depth
#Other Information
#
#WARRANTY: Halliburton will use its best efforts to furnish customers with 
#accurate information and interpretations that are part of, and incident to, the services 
#provided.  However, Halliburton cannot and does not warrant the accuracy 
#or correctness of such information and interpretations.  Under no circumstances should any 
#such information or interpretation be relied upon as the sole basis for any drilling, 
#completion, production, or financial decision or any procedure involving any risk to the 
#safety of any drilling venture, drilling rig or its crew or any other third party.  The 
#Customer has full responsibility for all drilling, completion and production operation.  
#Halliburton makes no representations or warranties, either expressed or 
#implied, including, but not limited to, the implied warranties of merchantability or fitness 
#for a particular purpose, with respect to the services rendered.  In no event will 
#Halliburton be liable for failure to obtain any particular results or for 
#any damages, including, but not limited to, indirect, special or consequential damages, 
#resulting from the use of any information or interpretation provided by Halliburton.
#
~A           TIME           GTDEPTH  GTPQH  GTTQ  GTTN  GTET   GTTVD  
   13:35:33.257.18-Apr-2020 3111.02 4544.91 71.32 5.00   0.00 1976.62
   13:35:33.457.18-Apr-2020 3111.02 4544.91 71.32 5.00   0.20 1976.62
   13:35:33.657.18-Apr-2020 3111.02 4546.91 71.32 5.00   0.40 1976.62
   13:35:33.857.18-Apr-2020 3111.02 4549.89 71.32 5.00   0.60 1976.62
   13:35:34.058.18-Apr-2020 3111.02 4551.70 71.32 5.00   0.80 1976.62
   13:35:34.258.18-Apr-2020 3111.02 4552.79 71.31 5.00   1.00 1976.62
   13:35:34.458.18-Apr-2020 3111.02 4552.79 71.31 5.00   1.20 1976.62
   13:35:34.658.18-Apr-2020 3111.02 4554.33 71.31 5.00   1.40 1976.62
   13:35:34.858.18-Apr-2020 3111.02 4554.52 71.31 5.00   1.60 1976.62
   13:35:35.058.18-Apr-2020 3111.02 4554.98 71.31 5.00   1.80 1976.62
   13:35:35.258.18-Apr-2020 3111.02 4554.92 71.31 5.00   2.00 1976.62
   13:35:35.458.18-Apr-2020 3111.02 4554.92 71.31 5.00   2.20 1976.62
   13:35:35.658.18-Apr-2020 3111.02 4554.92 71.31 5.00   2.40 1976.62
   13:35:35.858.18-Apr-2020 3111.02 4551.62 71.31 5.00   2.60 1976.62
   13:35:36.058.18-Apr-2020 3111.02 4550.80 71.31 5.00   2.80 1976.62
   13:35:36.258.18-Apr-2020 3111.02 4552.79 71.31 5.00   3.00 1976.62
   13:35:36.459.18-Apr-2020 3111.02 4549.40 71.30 5.00   3.20 1976.62
   13:35:36.659.18-Apr-2020 3111.02 4549.40 71.30 5.00   3.40 1976.62
   13:35:36.859.18-Apr-2020 3111.02 4550.91 71.30 5.00   3.60 1976.62
   13:35:37.059.18-Apr-2020 3111.02 4551.30 71.30 5.00   3.80 1976.62
   13:35:37.259.18-Apr-2020 3111.02 4549.33 71.30 5.00   4.00 1976.62
   13:35:37.459.18-Apr-2020 3111.02 4553.55 71.30 5.00   4.20 1976.62
   13:35:37.659.18-Apr-2020 3111.02 4553.66 71.30 5.00   4.40 1976.62
   13:35:37.859.18-Apr-2020 3111.02 4553.76 71.30 5.00   4.60 1976.62
   13:35:38.059.18-Apr-2020 3111.02 4553.26 71.30 5.00   4.80 1976.62
   13:35:38.259.18-Apr-2020 3111.02 4552.48 71.29 5.00   5.00 1976.62
   13:35:38.459.18-Apr-2020 3111.02 4552.48 71.29 5.00   5.20 1976.62
   13:35:38.660.18-Apr-2020 3111.02 4553.70 71.29 5.00   5.40 1976.62
   13:35:38.860.18-Apr-2020 3111.02 4552.38 71.29 5.00   5.60 1976.62
   13:35:39.060.18-Apr-2020 3111.02 4550.83 71.29 5.00   5.80 1976.62
   13:35:39.260.18-Apr-2020 3111.02 4551.19 71.29 5.00   6.00 1976.62
   13:35:39.460.18-Apr-2020 3111.02 4551.19 71.29 5.00   6.20 1976.62
   13:35:39.660.18-Apr-2020 3111.02 4550.29 71.29 5.00   6.40 1976.62
   13:35:39.860.18-Apr-2020 3111.02 4546.36 71.29 5.00   6.60 1976.62
   13:35:40.060.18-Apr-2020 3111.02 4549.69 71.28 5.00   6.80 1976.62
   13:35:40.260.18-Apr-2020 3111.02 4548.45 71.28 5.00   7.00 1976.62
   13:35:40.460.18-Apr-2020 3111.02 4548.45 71.28 5.00   7.20 1976.62
   13:35:40.660.18-Apr-2020 3111.02 4546.00 71.28 5.00   7.40 1976.62
   13:35:40.861.18-Apr-2020 3111.02 4545.73 71.28 5.00   7.60 1976.62
   13:35:41.061.18-Apr-2020 3111.02 4544.98 71.28 5.00   7.80 1976.62
   13:35:41.261.18-Apr-2020 3111.02 4543.68 71.28 5.00   8.00 1976.62
   13:35:41.461.18-Apr-2020 3111.02 4543.68 71.28 5.00   8.20 1976.62
   13:35:41.661.18-Apr-2020 3111.02 4542.24 71.28 5.00   8.40 1976.62
   13:35:41.861.18-Apr-2020 3111.02 4541.57 71.28 5.00   8.60 1976.62
   13:35:42.061.18-Apr-2020 3111.02 4541.70 71.27 5.00   8.80 1976.62
   13:35:42.261.18-Apr-2020 3111.02 4541.59 71.27 5.00   9.00 1976.62
   13:35:42.461.18-Apr-2020 3111.02 4541.59 71.27 5.00   9.20 1976.62
   13:35:42.661.18-Apr-2020 3111.02 4541.45 71.27 5.00   9.40 1976.62
   13:35:42.861.18-Apr-2020 3111.02 4542.24 71.27 5.00   9.60 1976.62
   13:35:43.062.18-Apr-2020 3111.02 4542.21 71.27 5.00   9.80 1976.62
   13:35:43.262.18-Apr-2020 3111.02 4541.52 71.27 5.00  10.00 1976.62
   13:35:43.462.18-Apr-2020 3111.02 4541.52 71.27 5.00  10.20 1976.62
   13:35:43.662.18-Apr-2020 3111.02 4543.05 71.27 5.00  10.40 1976.62
   13:35:43.862.18-Apr-2020 3111.02 4542.45 71.26 5.00  10.60 1976.62
   13:35:44.062.18-Apr-2020 3111.02 4541.22 71.26 5.00  10.80 1976.62
   13:35:44.262.18-Apr-2020 3111.02 4541.10 71.26 5.00  11.00 1976.62
   13:35:44.462.18-Apr-2020 3111.02 4541.10 71.26 5.00  11.21 1976.62
   13:35:44.662.18-Apr-2020 3111.02 4539.83 71.26 5.00  11.41 1976.62
   13:35:44.862.18-Apr-2020 3111.02 4538.96 71.26 5.00  11.61 1976.62
   13:35:45.062.18-Apr-2020 3111.02 4538.25 71.26 5.00  11.81 1976.62
   13:35:45.263.18-Apr-2020 3111.02 4538.11 71.26 5.00  12.01 1976.62
   13:35:45.463.18-Apr-2020 3111.02 4538.11 71.26 5.00  12.21 1976.62
   13:35:45.663.18-Apr-2020 3111.02 4537.91 71.26 5.00  12.41 1976.62
   13:35:45.863.18-Apr-2020 3111.02 4537.73 71.25 5.00  12.61 1976.62
   13:35:46.063.18-Apr-2020 3111.02 4537.45 71.25 5.00  12.81 1976.62
   13:35:46.263.18-Apr-2020 3111.02 4538.42 71.25 5.00  13.01 1976.62
   13:35:46.463.18-Apr-2020 3111.02 4538.42 71.25 5.00  13.21 1976.62
   13:35:46.663.18-Apr-2020 3111.02 4539.69 71.25 5.00  13.41 1976.62
   13:35:46.863.18-Apr-2020 3111.02 4539.67 71.25 5.00  13.61 1976.62
   13:35:47.063.18-Apr-2020 3111.02 4540.07 71.25 5.00  13.81 1976.62
   13:35:47.263.18-Apr-2020 3111.02 4539.72 71.25 5.00  14.01 1976.62
   13:35:47.464.18-Apr-2020 3111.02 4539.72 71.25 5.00  14.21 1976.62
   13:35:47.664.18-Apr-2020 3111.02 4542.03 71.25 5.00  14.41 1976.62
   13:35:47.864.18-Apr-2020 3111.02 4539.34 71.24 5.00  14.61 1976.62
   13:35:48.064.18-Apr-2020 3111.02 4543.04 71.24 5.00  14.81 1976.62
   13:35:48.264.18-Apr-2020 3111.02 4542.52 71.24 5.00  15.01 1976.62
   13:35:48.464.18-Apr-2020 3111.02 4542.52 71.24 5.00  15.21 1976.62
   13:35:48.664.18-Apr-2020 3111.02 4543.35 71.24 5.00  15.41 1976.62
   13:35:48.864.18-Apr-2020 3111.02 4543.33 71.24 5.00  15.61 1976.62
   13:35:49.064.18-Apr-2020 3111.02 4541.81 71.24 5.00  15.81 1976.62
   13:35:49.264.18-Apr-2020 3111.02 4542.68 71.24 5.00  16.01 1976.62
   13:35:49.464.18-Apr-2020 3111.02 4542.68 71.24 5.00  16.21 1976.62
   13:35:49.665.18-Apr-2020 3111.02 4543.80 71.23 5.00  16.41 1976.62
   13:35:49.865.18-Apr-2020 3111.02 4540.73 71.23 5.00  16.61 1976.62
   13:35:50.065.18-Apr-2020 3111.02 4544.39 71.23 5.00  16.81 1976.62
   13:35:50.265.18-Apr-2020 3111.02 4544.33 71.23 5.00  17.01 1976.62
   13:35:50.465.18-Apr-2020 3111.02 4544.33 71.23 5.00  17.21 1976.62
   13:35:50.665.18-Apr-2020 3111.02 4544.67 71.23 5.00  17.41 1976.62
   13:35:50.865.18-Apr-2020 3111.02 4545.05 71.23 5.00  17.61 1976.62
   13:35:51.065.18-Apr-2020 3111.02 4544.78 71.23 5.00  17.81 1976.62
   13:35:51.265.18-Apr-2020 3111.02 4544.47 71.23 5.00  18.01 1976.62
   13:35:51.465.18-Apr-2020 3111.02 4544.47 71.23 5.00  18.21 1976.62
   13:35:51.665.18-Apr-2020 3111.02 4545.98 71.22 5.00  18.41 1976.62
   13:35:51.866.18-Apr-2020 3111.02 4545.73 71.22 5.00  18.61 1976.62
   13:35:52.066.18-Apr-2020 3111.02 4546.67 71.22 5.00  18.81 1976.62
   13:35:52.266.18-Apr-2020 3111.02 4547.17 71.22 5.00  19.01 1976.62
   13:35:52.466.18-Apr-2020 3111.02 4547.17 71.22 5.00  19.21 1976.62
   13:35:52.666.18-Apr-2020 3111.02 4544.29 71.22 5.00  19.41 1976.62
   13:35:52.866.18-Apr-2020 3111.02 4548.32 71.22 5.00  19.61 1976.62
   13:35:53.066.18-Apr-2020 3111.02 4547.90 71.22 5.00  19.81 1976.62
   13:35:53.266.18-Apr-2020 3111.02 4547.54 71.22 5.00  20.01 1976.62
   13:35:53.466.18-Apr-2020 3111.02 4547.54 71.22 5.00  20.21 1976.62
   13:35:53.666.18-Apr-2020 3111.02 4548.46 71.21 5.00  20.41 1976.62
   13:35:53.866.18-Apr-2020 3111.02 4547.72 71.21 5.00  20.61 1976.62
   13:35:54.067.18-Apr-2020 3111.02 4547.15 71.21 5.00  20.81 1976.62
   13:35:54.267.18-Apr-2020 3111.02 4547.39 71.21 5.00  21.01 1976.62
   13:35:54.467.18-Apr-2020 3111.02 4547.39 71.21 5.00  21.21 1976.62
   13:35:54.667.18-Apr-2020 3111.02 4546.71 71.21 5.00  21.41 1976.62
   13:35:54.867.18-Apr-2020 3111.02 4546.63 71.21 5.00  21.61 1976.62
   13:35:55.067.18-Apr-2020 3111.02 4546.92 71.21 5.00  21.81 1976.62
   13:35:55.267.18-Apr-2020 3111.02 4546.17 71.21 5.00  22.01 1976.62
   13:35:55.467.18-Apr-2020 3111.02 4546.17 71.21 5.00  22.21 1976.62
   13:35:55.667.18-Apr-2020 3111.02 4546.82 71.20 5.00  22.41 1976.62
   13:35:55.867.18-Apr-2020 3111.02 4546.59 71.20 5.00  22.61 1976.62
   13:35:56.067.18-Apr-2020 3111.02 4543.07 71.20 5.00  22.81 1976.62
