~Version Information
 VERS.                  2.0:   CWLS log ASCII Standard -VERSION 2.0
 WRAP.                   NO:   One line per depth step
~Well Information Block
#MNEM.UNIT     VALUE/NAME     DESCRIPTION
#---------     -----------    ---------------------------
 STRT.S             15:57:21 18-Apr-20: START TIME 15:57:21 18-Apr-20
 STOP.S             16:04:15 18-Apr-20: STOP TIME  16:04:15 18-Apr-20
 STEP.S                   0.00: STEP TIME
 NULL.                 -999.25: NULL VALUE
 DFWT.                        :  DIST FWL TEXT
 DFST.                        :  DIST FSL TEXT
 DMF .                        :  DRILL MEAS FROM
 STIM.      16.29.52 23-Mar-20:  START TIME
 DATE.      16.29.52 23-Mar-20:  END TIME
 SPUD.               23-Mar-20:  SPUD DATE
 NREF.                    Grid:  NORTH REFERENCE
 HPTY.       Minimum Curvature:  HOLE POS TYPE
 DMOD.             Drill Model:  DRILL MOD DESC
 SVYD.                  Survey:  SURVEY DESC
 ILTD.               Lithology:  INTERP LTH DESC
 FTOP.          Formation Tops:  FORM TOPS DESC
 SON .        AZ-XX-0906252240:  JOB NUMBER
 RIG .             West Chirag:  RIG NAME
 PDAT.          Mean Sea Level:  PERMANENT DATUM
 FLD .                     ACG:  FIELD NAME
 CTRY.              Azerbaijan:  COUNTRY NAME
 WELL.           J23 (Slot 07):  WELL NAME
 SRVC.          Turan Drilling:  CONTRACTOR
 COMP.     BP Exploration (Casoian Sea) Ltd:  COMPANY
 WTYP.                Deviated:  WELL TYPE
 MDS .        Operator Entered:  MAG DATA SOURCE
 UWI .                     N/A:  UNIQUE WELL IDENTIFIER
 API .                     N/A:  API NUMBER
 BASE.              Azerbaijan:  LOGGING EQUIPMENT BASE LOCATION
 REGN.                   EESSA:  REGION
 PROV.                    Baku:  PROVINCE
 STAT.                    Baku:  STATE NAME
 MWDS.                     N/A:  MWD SHOP
 JOBN.        AZ-XX-0906252240:  JOB TICKET NUMB
 DOE .                     N/A:  DOE NUMBER
 DCON.         Sperry Drilling:  DIRECTNL CONTR
 UNIT.                     N/A:  LOGGING EQUIPMENT ID
 CNTY.                        :  COUNTY
 LOC .                        :  LOCATION
 LMF .             Drill Floor:  LOG MEASURED FROM
 TVDS.m                  43.00:  TVDSS CORRECTN
 LATI.deg                40.13:  LATITUDE
 LONG.deg                51.22:  LONGITUDE
 WHNS.m                   9.43:  WELL HEAD N/S
 WHEW.m                  -8.91:  WELL HEAD E/W
 UTMX.m              519005.06:  UTM X
 UTMY.m             4443793.85:  UTM Y
 DFWL.m                   0.00:  DISTANCE FWL
 DFSL.m                   0.00:  DISTANCE FSL
 SDEP.m                   0.00:  START DEPTH
 TDD .m                   0.00:  TOTAL DEPTH (DRILLER)
 VSDR.deg               179.88:  VERT SEC DIRECT
 GVFD.g                   1.00:  GRAVITY FIELD
 MFLD.nT              50281.00:  MAGNETIC FIELD
 MDIP.deg                59.58:  MAGNETIC DIP
 MDEC.deg                 6.48:  MAGNETIC DECL
 GRDC.deg                 0.14:  GRID CORRECTION
 AZTC.deg                 6.34:  AZM TOTAL CORR
 EPD .m                   0.00:  ELEVATION
 EGL .m                   0.00:  GROUND ELEVATION
 WDMS.m                 169.80:  WD ELEV
 APD .m                  43.00:  DEPTH ABOVE PD
 DEP .m                 354.17:  DEPTH
 AGAP.m                  43.00:  AIR GAP
 VSEW.m                  -8.91:  VERT SEC E/W
 VSNS.m                   9.43:  VERT SEC N/S
 EKB .m                   0.00:  KB ELEVATION
 EDF .m                  43.00:  DF ELEVATION
 TDL .m                1326.00:  TOTAL DEPTH (LOGGER)
 VSC .                       0:  VS TO CLOSURE
 MAGU.                 1850704:  MAGUTM CHECKSUM
~Parameter Information Block
#MNEM.UNIT       Value        Description
#---------     -----------    ---------------------------
 AV  .mps                 1.17:  Ann Velocity 
 AZIF.deg               184.04:  Azm, Final 
 BHAT.        Rotary Steerable:  BHA Type 
 BREV.rev            620000.00:  Rev Bit Total 
 BROT.°/30m               0.20:  Build Rotating 
 BS  .in                 14.75:  Bit Size 
 BSZ .in                 14.75:  Bit Size 
 BTPL.psig              618.00:  Bit Press Loss 
 CABU.                      No:  Customer Abuse 
 COMM.                     ¬)g:  Run Comments 1 
 TCS .hr                 87.68:  Time Ciculation Ended 
 CV  .mps                 3.10:  Crit Velocity 
 DD1 .          Rashad Habibov:  Direct Drillr 1 
 DD2 .         Rasim Ibrahimov:  Direct Drillr 2 
 DDSV.               Geo-Pilot:  DD Service 
 DEFF.%                  98.00:  % Det Eff 
 DLRX.°/30m               1.48:  Dogleg Rot Max 
 DLSO.°/30m               0.50:  Dogleg Oriented 
 DLSX.°/30m               1.48:  Dogleg Str Max 
 DRET.      06.18.56 19-Apr-20:  Drill End Time 
 DRST.      15.00.56 15-Apr-20:  Drill Start Tim 
 DTIM.hr                 51.73:  Time Drilling 
 EDEP.m                3410.01:  End Depth 
 ENG1.        Marcelo Sandoval:  Engineer 1 
 ENG2.        Davud Huseynzade:  Engineer 2 
 ENG3.          Ruslan Safarov:  Engineer 3 
 ETIM.      04.00.56 20-Apr-20:  End Time 
 FLOI.gpm              1000.00:  Flow In 
 FLON.gpm               600.00:  Flow In Min 
 FLOS.cptm                0.00:  Fluid Loss 
 FLOX.gpm              1200.00:  Flow In Max 
 HFLO.                      No:  High Flow 
 HPRE.                     Yes:  High Pressure 
 HTEM.                      No:  High Temp 
 HYDO.m                   1.80:  Hydro Offset 
 IFIN.deg                70.04:  Inc, Final 
 IMAX.deg                70.56:  Inc Max 
 IMIN.deg                69.85:  Inc Min 
 IMND.m                3103.24:  Inc Min Depth 
 IMXD.m                2876.63:  Inc Max Depth 
 JARR.                      No:  Jarring 
 LETM.      06.18.56 19-Apr-20:  Log End Time 
 LOST.hr                     0:  Lost Rig Time 
 LSTM.      15.00.56 15-Apr-20:  Log Start Time 
 MDCL.ppm             42000.00:  Mud Chlorides 
 MDES.     Inversion Oil/Synthetic:  Mud Desc 
 DFD .sg                  1.58:  Mud Density 
 MDMN.sg                  1.58:  Dens Mud Min 
 MDMX.sg                  1.58:  Dens Mud Max 
 MOIL.                      71:  Run Mud Oil % 
 MOWR.                   71:29:  Run Mud OWR 
 MSND.                       0:  Run Mud Sand % 
 MSOL.                    23.3:  Run Mud Solids% 
 DFV .spqt               84.00:  Mud Viscosity 
 MWOD.in                  9.50:  MWD Tool OD 
 MWSI.                      No:  Serv Intrp, MWD 
 OTIM.hr                139.62:  Time Operating 
 PMAX.psia             5364.69:  Press Op, Max 
 PV  .cP                 80.00:  Mud PV 
 RUN .                     700:  Run Number 
 ROPA.m/hr               25.00:  ROP Avg 
 ROPN.m/hr               11.00:  ROP Min 
 ROPX.m/hr               36.00:  ROP Max 
 RPMA.rpm               130.00:  RPM Surface Avg 
 RPMN.rpm               120.00:  RPM Surface Min 
 RPMX.rpm               140.00:  RPM Surface Max 
 RRUN.                    0700:  Rig Run Number 
 SAZI.deg               183.25:  Azm, Start 
 SDEP.m                2084.00:  Start Depth 
 SIDD.                      No:  Serv Intrp, DD 
 SINC.deg                70.38:  Inc, Start 
 SPPA.psig             4800.00:  SPP Avg 
 SPPN.psig             4400.00:  SPP Min 
 SPPX.psig             5350.00:  SPP Max 
 STIM.      16.30.56 14-Apr-20:  Start Time 
 SVCS.                 DD, MWD:  Services 
 SVER.                    9.20:  Sperry Version 
 TDAT.m                1326.00:  Tot Depth Attmp 
 TDDF.                      No:  Trip for DD 
 TDLG.m                1326.00:  Tot Depth Loggd 
 TFF .                      No:  Trip for Fail 
 TQAA.f-kp               19.00:  Torque Abs Avg 
 TQAN.f-kp                8.00:  Torque Abs Min 
 TQAX.f-kp               27.00:  Torque Abs Max 
 TRRT.°/30m               0.50:  Turn Rotating 
 MRT .                    HCIM:  Maximum Recorded Temperature 
 TTMX.degC               82.35:  Max Tool Temp 
 VS01.       905245875X1Z1W1C8:  Virtual Str1 SN 
 VS02.       90608022F11V7D1A9:  Virtual Str2 SN 
 VS03.            90605473R5C9:  Virtual Str3 SN 
 WBMN.klb                11.00:  WOB Min 
 WOBA.klb                21.00:  WOB Avg 
 WOBX.klb                30.00:  WOB Max 
 YP  .lhf2               45.00:  Yield Point 
~Curve Information Block
#MNEM.UNIT                 API CODE     Curve Description
#---------               -----------    ---------------------------
 TIME.HHMMSS            00 000 000 000:  GT Time & Date
 GTDEPTH.m              00 000 000 000:  GT Depth
 GTPQH.psia             00 000 000 000:  GT HR Quartz Pressure
 GTTQ.degC              00 000 000 000:  GT Quartz Temperature
 GTTN.NONE              00 000 000 000:  GT Test Number
 GTET.sec               00 000 000 000:  GT Elapsed Test Time
 GTTVD.m                00 000 000 000:  GT True Vertical Depth
#Other Information
#
#WARRANTY: Halliburton will use its best efforts to furnish customers with 
#accurate information and interpretations that are part of, and incident to, the services 
#provided.  However, Halliburton cannot and does not warrant the accuracy 
#or correctness of such information and interpretations.  Under no circumstances should any 
#such information or interpretation be relied upon as the sole basis for any drilling, 
#completion, production, or financial decision or any procedure involving any risk to the 
#safety of any drilling venture, drilling rig or its crew or any other third party.  The 
#Customer has full responsibility for all drilling, completion and production operation.  
#Halliburton makes no representations or warranties, either expressed or 
#implied, including, but not limited to, the implied warranties of merchantability or fitness 
#for a particular purpose, with respect to the services rendered.  In no event will 
#Halliburton be liable for failure to obtain any particular results or for 
#any damages, including, but not limited to, indirect, special or consequential damages, 
#resulting from the use of any information or interpretation provided by Halliburton.
#
~A           TIME           GTDEPTH  GTPQH  GTTQ  GTTN  GTET   GTTVD  
# ...
   15:57:44.202.18-Apr-2020 3140.11 4561.31 67.77 7.00  23.00 1986.54
   15:57:44.402.18-Apr-2020 3140.11 4561.31 67.77 7.00  23.20 1986.54
   15:57:44.602.18-Apr-2020 3140.11 4561.11 67.77 7.00  23.40 1986.54
   15:57:44.802.18-Apr-2020 3140.11 4561.02 67.77 7.00  23.60 1986.54
   15:57:45.002.18-Apr-2020 3140.11 4561.21 67.77 7.00  23.80 1986.54
   15:57:45.202.18-Apr-2020 3140.11 4560.46 67.77 7.00  24.00 1986.54
   15:57:45.402.18-Apr-2020 3140.11 4560.46 67.77 7.00  24.20 1986.54
   15:57:45.602.18-Apr-2020 3140.11 4559.49 67.77 7.00  24.40 1986.54
   15:57:45.802.18-Apr-2020 3140.11 4558.58 67.77 7.00  24.60 1986.54
   15:57:46.002.18-Apr-2020 3140.11 4558.67 67.77 7.00  24.80 1986.54
   15:57:46.202.18-Apr-2020 3140.11 4558.47 67.77 7.00  25.00 1986.54
   15:57:46.402.18-Apr-2020 3140.11 4558.47 67.77 7.00  25.20 1986.54
   15:57:46.602.18-Apr-2020 3140.11 4555.61 67.77 7.00  25.40 1986.54
   15:57:46.802.18-Apr-2020 3140.11 4557.94 67.77 7.00  25.60 1986.54
   15:57:47.002.18-Apr-2020 3140.11 4557.81 67.77 7.00  25.80 1986.54
   15:57:47.202.18-Apr-2020 3140.11 4557.18 67.77 7.00  26.00 1986.54
   15:57:47.402.18-Apr-2020 3140.11 4557.18 67.77 7.00  26.20 1986.54
   15:57:47.602.18-Apr-2020 3140.11 4559.02 67.77 7.00  26.40 1986.54
   15:57:47.802.18-Apr-2020 3140.11 4558.98 67.76 7.00  26.60 1986.54
   15:57:48.002.18-Apr-2020 3140.11 4558.83 67.76 7.00  26.80 1986.54
   15:57:48.202.18-Apr-2020 3140.11 4559.02 67.76 7.00  27.00 1986.54
   15:57:48.402.18-Apr-2020 3140.11 4559.09 67.76 7.00  27.20 1986.54
   15:57:48.602.18-Apr-2020 3140.11 4558.60 67.76 7.00  27.40 1986.54
   15:57:48.802.18-Apr-2020 3140.11 4558.41 67.76 7.00  27.60 1986.54
   15:57:49.002.18-Apr-2020 3140.11 4558.54 67.76 7.00  27.80 1986.54
   15:57:49.202.18-Apr-2020 3140.11 4556.19 67.76 7.00  28.00 1986.54
   15:57:49.402.18-Apr-2020 3140.11 4556.19 67.76 7.00  28.20 1986.54
   15:57:49.602.18-Apr-2020 3140.11 4558.41 67.76 7.00  28.40 1986.54
   15:57:49.802.18-Apr-2020 3140.11 4557.13 67.76 7.00  28.60 1986.54
   15:57:50.002.18-Apr-2020 3140.11 4556.49 67.76 7.00  28.80 1986.54
   15:57:50.202.18-Apr-2020 3140.11 4559.08 67.76 7.00  29.00 1986.54
   15:57:50.402.18-Apr-2020 3140.11 4559.08 67.76 7.00  29.20 1986.54
   15:57:50.602.18-Apr-2020 3140.11 4558.42 67.76 7.00  29.40 1986.54
   15:57:50.802.18-Apr-2020 3140.11 4556.63 67.76 7.00  29.60 1986.54
   15:57:51.002.18-Apr-2020 3140.11 4559.88 67.76 7.00  29.80 1986.54
   15:57:51.202.18-Apr-2020 3140.11 4559.66 67.76 7.00  30.00 1986.54
   15:57:51.402.18-Apr-2020 3140.11 4559.66 67.76 7.00  30.20 1986.54
   15:57:51.601.18-Apr-2020 3140.11 4558.98 67.76 7.00  30.40 1986.54
   15:57:51.801.18-Apr-2020 3140.11 4559.39 67.76 7.00  30.60 1986.54
   15:57:52.001.18-Apr-2020 3140.11 4556.66 67.76 7.00  30.80 1986.54
   15:57:52.201.18-Apr-2020 3140.11 4559.39 67.76 7.00  31.00 1986.54
   15:57:52.401.18-Apr-2020 3140.11 4559.41 67.76 7.00  31.20 1986.54
   15:57:52.601.18-Apr-2020 3140.11 4556.26 67.76 7.00  31.40 1986.54
   15:57:52.801.18-Apr-2020 3140.11 4559.36 67.76 7.00  31.60 1986.54
   15:57:53.001.18-Apr-2020 3140.11 4559.53 67.75 7.00  31.80 1986.54
   15:57:53.201.18-Apr-2020 3140.11 4558.30 67.75 7.00  32.00 1986.54
   15:57:53.401.18-Apr-2020 3140.11 4558.30 67.75 7.00  32.20 1986.54
   15:57:53.601.18-Apr-2020 3140.11 4558.12 67.75 7.00  32.40 1986.54
   15:57:53.801.18-Apr-2020 3140.11 4558.00 67.75 7.00  32.60 1986.54
   15:57:54.001.18-Apr-2020 3140.11 4560.46 67.75 7.00  32.80 1986.54
   15:57:54.201.18-Apr-2020 3140.11 4558.66 67.75 7.00  33.00 1986.54
   15:57:54.401.18-Apr-2020 3140.11 4558.66 67.75 7.00  33.20 1986.54
   15:57:54.601.18-Apr-2020 3140.11 4560.98 67.75 7.00  33.40 1986.54
   15:57:54.801.18-Apr-2020 3140.11 4559.88 67.75 7.00  33.60 1986.54
   15:57:55.001.18-Apr-2020 3140.11 4556.20 67.75 7.00  33.80 1986.54
   15:57:55.201.18-Apr-2020 3140.11 4560.32 67.75 7.00  34.00 1986.54
   15:57:55.401.18-Apr-2020 3140.11 4560.32 67.75 7.00  34.20 1986.54
   15:57:55.601.18-Apr-2020 3140.11 4560.22 67.75 7.00  34.40 1986.54
   15:57:55.801.18-Apr-2020 3140.11 4557.21 67.75 7.00  34.60 1986.54
   15:57:56.001.18-Apr-2020 3140.11 4559.71 67.75 7.00  34.80 1986.54
   15:57:56.201.18-Apr-2020 3140.11 4560.32 67.75 7.00  35.00 1986.54
   15:57:56.401.18-Apr-2020 3140.11 4561.10 67.75 7.00  35.20 1986.54
   15:57:56.601.18-Apr-2020 3140.11 4561.83 67.75 7.00  35.40 1986.54
   15:57:56.801.18-Apr-2020 3140.11 4561.63 67.75 7.00  35.60 1986.54
   15:57:57.001.18-Apr-2020 3140.11 4557.60 67.75 7.00  35.80 1986.54
   15:57:57.201.18-Apr-2020 3140.11 4559.88 67.75 7.00  36.00 1986.54
   15:57:57.401.18-Apr-2020 3140.11 4559.88 67.75 7.00  36.20 1986.54
   15:57:57.601.18-Apr-2020 3140.11 4554.28 67.75 7.00  36.40 1986.54
   15:57:57.801.18-Apr-2020 3140.11 4553.43 67.75 7.00  36.60 1986.54
   15:57:58.001.18-Apr-2020 3140.11 4545.33 67.75 7.00  36.80 1986.54
   15:57:58.201.18-Apr-2020 3140.11 4536.39 67.74 7.00  37.00 1986.54
   15:57:58.401.18-Apr-2020 3140.11 4536.39 67.74 7.00  37.20 1986.54
   15:57:58.601.18-Apr-2020 3140.11 4557.95 67.74 7.00  37.40 1986.54
   15:57:58.801.18-Apr-2020 3140.11 4520.82 67.74 7.00  37.60 1986.54
   15:57:59.001.18-Apr-2020 3140.11 4511.09 67.74 7.00  37.80 1986.54
   15:57:59.201.18-Apr-2020 3140.11 4468.48 67.74 7.00  38.00 1986.54
   15:57:59.401.18-Apr-2020 3140.11 4468.48 67.74 7.00  38.20 1986.54
   15:57:59.601.18-Apr-2020 3140.11 4470.72 67.74 7.00  38.40 1986.54
   15:57:59.801.18-Apr-2020 3140.11 4552.08 67.74 7.00  38.60 1986.54
   15:58:00.001.18-Apr-2020 3140.11 4495.35 67.74 7.00  38.80 1986.54
   15:58:00.200.18-Apr-2020 3140.11 4469.93 67.74 7.00  39.00 1986.54
   15:58:00.400.18-Apr-2020 3140.11 4473.94 67.74 7.00  39.20 1986.54
   15:58:00.600.18-Apr-2020 3140.11 4413.42 67.74 7.00  39.40 1986.54
   15:58:00.800.18-Apr-2020 3140.11 4469.31 67.74 7.00  39.60 1986.54
   15:58:01.000.18-Apr-2020 3140.11 4465.25 67.74 7.00  39.80 1986.54
   15:58:01.200.18-Apr-2020 3140.11 4422.01 67.74 7.00  40.00 1986.54
   15:58:01.400.18-Apr-2020 3140.11 4422.01 67.74 7.00  40.20 1986.54
   15:58:01.600.18-Apr-2020 3140.11 4389.51 67.74 7.00  40.40 1986.54
   15:58:01.800.18-Apr-2020 3140.11 4335.30 67.74 7.00  40.60 1986.54
   15:58:02.000.18-Apr-2020 3140.11 4269.87 67.74 7.00  40.80 1986.54
   15:58:02.200.18-Apr-2020 3140.11 4246.03 67.74 7.00  41.00 1986.54
   15:58:02.400.18-Apr-2020 3140.11 4246.03 67.74 7.00  41.20 1986.54
   15:58:02.600.18-Apr-2020 3140.11 4273.51 67.74 7.00  41.40 1986.54
   15:58:02.800.18-Apr-2020 3140.11 4202.59 67.73 7.00  41.60 1986.54
   15:58:03.000.18-Apr-2020 3140.11 4148.39 67.73 7.00  41.80 1986.54
   15:58:03.200.18-Apr-2020 3140.11 4095.83 67.73 7.00  42.00 1986.54
   15:58:03.400.18-Apr-2020 3140.11 4095.83 67.73 7.00  42.20 1986.54
   15:58:03.600.18-Apr-2020 3140.11 3996.13 67.73 7.00  42.40 1986.54
   15:58:03.800.18-Apr-2020 3140.11 3943.14 67.73 7.00  42.60 1986.54
   15:58:04.000.18-Apr-2020 3140.11 3903.49 67.73 7.00  42.80 1986.54
   15:58:04.200.18-Apr-2020 3140.11 3850.78 67.73 7.00  43.00 1986.54
   15:58:04.400.18-Apr-2020 3140.11 3799.93 67.73 7.00  43.19 1986.54
   15:58:04.600.18-Apr-2020 3140.11 3762.75 67.73 7.00  43.39 1986.54
   15:58:04.800.18-Apr-2020 3140.11 3714.79 67.73 7.00  43.59 1986.54
   15:58:05.000.18-Apr-2020 3140.11 3671.64 67.73 7.00  43.79 1986.54
   15:58:05.200.18-Apr-2020 3140.11 4190.68 67.73 7.00  43.99 1986.54
   15:58:05.400.18-Apr-2020 3140.11 4190.68 67.73 7.00  44.19 1986.54
   15:58:05.600.18-Apr-2020 3140.11 4252.83 67.73 7.00  44.39 1986.54
   15:58:05.800.18-Apr-2020 3140.11 4168.20 67.73 7.00  44.59 1986.54
   15:58:06.000.18-Apr-2020 3140.11 4091.19 67.72 7.00  44.79 1986.54
   15:58:06.200.18-Apr-2020 3140.11 4018.30 67.72 7.00  44.99 1986.54
   15:58:06.400.18-Apr-2020 3140.11 4018.30 67.72 7.00  45.19 1986.54
   15:58:06.600.18-Apr-2020 3140.11 3888.03 67.72 7.00  45.39 1986.54
   15:58:06.800.18-Apr-2020 3140.11 3842.55 67.72 7.00  45.59 1986.54
   15:58:07.000.18-Apr-2020 3140.11 3825.86 67.72 7.00  45.79 1986.54
