~Version Information
 VERS.                  2.0:   CWLS log ASCII Standard -VERSION 2.0
 WRAP.                   NO:   One line per depth step
~Well Information Block
#MNEM.UNIT     VALUE/NAME     DESCRIPTION
#---------     -----------    ---------------------------
 STRT.S             15:35:19 18-Apr-20: START TIME 15:35:19 18-Apr-20
 STOP.S             15:42:14 18-Apr-20: STOP TIME  15:42:14 18-Apr-20
 STEP.S                   0.00: STEP TIME
 NULL.                 -999.25: NULL VALUE
 DFWT.                        :  DIST FWL TEXT
 DFST.                        :  DIST FSL TEXT
 DMF .                        :  DRILL MEAS FROM
 STIM.      16.29.52 23-Mar-20:  START TIME
 DATE.      16.29.52 23-Mar-20:  END TIME
 SPUD.               23-Mar-20:  SPUD DATE
 NREF.                    Grid:  NORTH REFERENCE
 HPTY.       Minimum Curvature:  HOLE POS TYPE
 DMOD.             Drill Model:  DRILL MOD DESC
 SVYD.                  Survey:  SURVEY DESC
 ILTD.               Lithology:  INTERP LTH DESC
 FTOP.          Formation Tops:  FORM TOPS DESC
 SON .        AZ-XX-0906252240:  JOB NUMBER
 RIG .             West Chirag:  RIG NAME
 PDAT.          Mean Sea Level:  PERMANENT DATUM
 FLD .                     ACG:  FIELD NAME
 CTRY.              Azerbaijan:  COUNTRY NAME
 WELL.           J23 (Slot 07):  WELL NAME
 SRVC.          Turan Drilling:  CONTRACTOR
 COMP.     BP Exploration (Casoian Sea) Ltd:  COMPANY
 WTYP.                Deviated:  WELL TYPE
 MDS .        Operator Entered:  MAG DATA SOURCE
 UWI .                     N/A:  UNIQUE WELL IDENTIFIER
 API .                     N/A:  API NUMBER
 BASE.              Azerbaijan:  LOGGING EQUIPMENT BASE LOCATION
 REGN.                   EESSA:  REGION
 PROV.                    Baku:  PROVINCE
 STAT.                    Baku:  STATE NAME
 MWDS.                     N/A:  MWD SHOP
 JOBN.        AZ-XX-0906252240:  JOB TICKET NUMB
 DOE .                     N/A:  DOE NUMBER
 DCON.         Sperry Drilling:  DIRECTNL CONTR
 UNIT.                     N/A:  LOGGING EQUIPMENT ID
 CNTY.                        :  COUNTY
 LOC .                        :  LOCATION
 LMF .             Drill Floor:  LOG MEASURED FROM
 TVDS.m                  43.00:  TVDSS CORRECTN
 LATI.deg                40.13:  LATITUDE
 LONG.deg                51.22:  LONGITUDE
 WHNS.m                   9.43:  WELL HEAD N/S
 WHEW.m                  -8.91:  WELL HEAD E/W
 UTMX.m              519005.06:  UTM X
 UTMY.m             4443793.85:  UTM Y
 DFWL.m                   0.00:  DISTANCE FWL
 DFSL.m                   0.00:  DISTANCE FSL
 SDEP.m                   0.00:  START DEPTH
 TDD .m                   0.00:  TOTAL DEPTH (DRILLER)
 VSDR.deg               179.88:  VERT SEC DIRECT
 GVFD.g                   1.00:  GRAVITY FIELD
 MFLD.nT              50281.00:  MAGNETIC FIELD
 MDIP.deg                59.58:  MAGNETIC DIP
 MDEC.deg                 6.48:  MAGNETIC DECL
 GRDC.deg                 0.14:  GRID CORRECTION
 AZTC.deg                 6.34:  AZM TOTAL CORR
 EPD .m                   0.00:  ELEVATION
 EGL .m                   0.00:  GROUND ELEVATION
 WDMS.m                 169.80:  WD ELEV
 APD .m                  43.00:  DEPTH ABOVE PD
 DEP .m                 354.17:  DEPTH
 AGAP.m                  43.00:  AIR GAP
 VSEW.m                  -8.91:  VERT SEC E/W
 VSNS.m                   9.43:  VERT SEC N/S
 EKB .m                   0.00:  KB ELEVATION
 EDF .m                  43.00:  DF ELEVATION
 TDL .m                1326.00:  TOTAL DEPTH (LOGGER)
 VSC .                       0:  VS TO CLOSURE
 MAGU.                 1850704:  MAGUTM CHECKSUM
~Parameter Information Block
#MNEM.UNIT       Value        Description
#---------     -----------    ---------------------------
 AV  .mps                 1.17:  Ann Velocity 
 AZIF.deg               184.04:  Azm, Final 
 BHAT.        Rotary Steerable:  BHA Type 
 BREV.rev            620000.00:  Rev Bit Total 
 BROT.°/30m               0.20:  Build Rotating 
 BS  .in                 14.75:  Bit Size 
 BSZ .in                 14.75:  Bit Size 
 BTPL.psig              618.00:  Bit Press Loss 
 CABU.                      No:  Customer Abuse 
 COMM.                     ü—`:  Run Comments 1 
 TCS .hr                 87.68:  Time Ciculation Ended 
 CV  .mps                 3.10:  Crit Velocity 
 DD1 .          Rashad Habibov:  Direct Drillr 1 
 DD2 .         Rasim Ibrahimov:  Direct Drillr 2 
 DDSV.               Geo-Pilot:  DD Service 
 DEFF.%                  98.00:  % Det Eff 
 DLRX.°/30m               1.48:  Dogleg Rot Max 
 DLSO.°/30m               0.50:  Dogleg Oriented 
 DLSX.°/30m               1.48:  Dogleg Str Max 
 DRET.      06.18.56 19-Apr-20:  Drill End Time 
 DRST.      15.00.56 15-Apr-20:  Drill Start Tim 
 DTIM.hr                 51.73:  Time Drilling 
 EDEP.m                3410.01:  End Depth 
 ENG1.        Marcelo Sandoval:  Engineer 1 
 ENG2.        Davud Huseynzade:  Engineer 2 
 ENG3.          Ruslan Safarov:  Engineer 3 
 ETIM.      04.00.56 20-Apr-20:  End Time 
 FLOI.gpm              1000.00:  Flow In 
 FLON.gpm               600.00:  Flow In Min 
 FLOS.cptm                0.00:  Fluid Loss 
 FLOX.gpm              1200.00:  Flow In Max 
 HFLO.                      No:  High Flow 
 HPRE.                     Yes:  High Pressure 
 HTEM.                      No:  High Temp 
 HYDO.m                   1.80:  Hydro Offset 
 IFIN.deg                70.04:  Inc, Final 
 IMAX.deg                70.56:  Inc Max 
 IMIN.deg                69.85:  Inc Min 
 IMND.m                3103.24:  Inc Min Depth 
 IMXD.m                2876.63:  Inc Max Depth 
 JARR.                      No:  Jarring 
 LETM.      06.18.56 19-Apr-20:  Log End Time 
 LOST.hr                     0:  Lost Rig Time 
 LSTM.      15.00.56 15-Apr-20:  Log Start Time 
 MDCL.ppm             42000.00:  Mud Chlorides 
 MDES.     Inversion Oil/Synthetic:  Mud Desc 
 DFD .sg                  1.58:  Mud Density 
 MDMN.sg                  1.58:  Dens Mud Min 
 MDMX.sg                  1.58:  Dens Mud Max 
 MOIL.                      71:  Run Mud Oil % 
 MOWR.                   71:29:  Run Mud OWR 
 MSND.                       0:  Run Mud Sand % 
 MSOL.                    23.3:  Run Mud Solids% 
 DFV .spqt               84.00:  Mud Viscosity 
 MWOD.in                  9.50:  MWD Tool OD 
 MWSI.                      No:  Serv Intrp, MWD 
 OTIM.hr                139.62:  Time Operating 
 PMAX.psia             5364.69:  Press Op, Max 
 PV  .cP                 80.00:  Mud PV 
 RUN .                     700:  Run Number 
 ROPA.m/hr               25.00:  ROP Avg 
 ROPN.m/hr               11.00:  ROP Min 
 ROPX.m/hr               36.00:  ROP Max 
 RPMA.rpm               130.00:  RPM Surface Avg 
 RPMN.rpm               120.00:  RPM Surface Min 
 RPMX.rpm               140.00:  RPM Surface Max 
 RRUN.                    0700:  Rig Run Number 
 SAZI.deg               183.25:  Azm, Start 
 SDEP.m                2084.00:  Start Depth 
 SIDD.                      No:  Serv Intrp, DD 
 SINC.deg                70.38:  Inc, Start 
 SPPA.psig             4800.00:  SPP Avg 
 SPPN.psig             4400.00:  SPP Min 
 SPPX.psig             5350.00:  SPP Max 
 STIM.      16.30.56 14-Apr-20:  Start Time 
 SVCS.                 DD, MWD:  Services 
 SVER.                    9.20:  Sperry Version 
 TDAT.m                1326.00:  Tot Depth Attmp 
 TDDF.                      No:  Trip for DD 
 TDLG.m                1326.00:  Tot Depth Loggd 
 TFF .                      No:  Trip for Fail 
 TQAA.f-kp               19.00:  Torque Abs Avg 
 TQAN.f-kp                8.00:  Torque Abs Min 
 TQAX.f-kp               27.00:  Torque Abs Max 
 TRRT.°/30m               0.50:  Turn Rotating 
 MRT .                    HCIM:  Maximum Recorded Temperature 
 TTMX.degC               82.35:  Max Tool Temp 
 VS01.       905245875X1Z1W1C8:  Virtual Str1 SN 
 VS02.       90608022F11V7D1A9:  Virtual Str2 SN 
 VS03.            90605473R5C9:  Virtual Str3 SN 
 WBMN.klb                11.00:  WOB Min 
 WOBA.klb                21.00:  WOB Avg 
 WOBX.klb                30.00:  WOB Max 
 YP  .lhf2               45.00:  Yield Point 
~Curve Information Block
#MNEM.UNIT                 API CODE     Curve Description
#---------               -----------    ---------------------------
 TIME.HHMMSS            00 000 000 000:  GT Time & Date
 GTDEPTH.m              00 000 000 000:  GT Depth
 GTPQH.psia             00 000 000 000:  GT HR Quartz Pressure
 GTTQ.degC              00 000 000 000:  GT Quartz Temperature
 GTTN.NONE              00 000 000 000:  GT Test Number
 GTET.sec               00 000 000 000:  GT Elapsed Test Time
 GTTVD.m                00 000 000 000:  GT True Vertical Depth
#Other Information
#
#WARRANTY: Halliburton will use its best efforts to furnish customers with 
#accurate information and interpretations that are part of, and incident to, the services 
#provided.  However, Halliburton cannot and does not warrant the accuracy 
#or correctness of such information and interpretations.  Under no circumstances should any 
#such information or interpretation be relied upon as the sole basis for any drilling, 
#completion, production, or financial decision or any procedure involving any risk to the 
#safety of any drilling venture, drilling rig or its crew or any other third party.  The 
#Customer has full responsibility for all drilling, completion and production operation.  
#Halliburton makes no representations or warranties, either expressed or 
#implied, including, but not limited to, the implied warranties of merchantability or fitness 
#for a particular purpose, with respect to the services rendered.  In no event will 
#Halliburton be liable for failure to obtain any particular results or for 
#any damages, including, but not limited to, indirect, special or consequential damages, 
#resulting from the use of any information or interpretation provided by Halliburton.
#
~A           TIME           GTDEPTH  GTPQH  GTTQ  GTTN  GTET   GTTVD  
# ...
   15:37:14.345.18-Apr-2020 3140.87 2500.24 71.51 6.00 114.99 1986.80
   15:37:14.545.18-Apr-2020 3140.87 2500.24 71.51 6.00 115.19 1986.80
   15:37:14.745.18-Apr-2020 3140.87 2500.19 71.51 6.00 115.39 1986.80
   15:37:14.945.18-Apr-2020 3140.87 2500.17 71.51 6.00 115.59 1986.80
   15:37:15.145.18-Apr-2020 3140.87 2500.14 71.51 6.00 115.79 1986.80
   15:37:15.345.18-Apr-2020 3140.87 2500.08 71.51 6.00 115.99 1986.80
   15:37:15.545.18-Apr-2020 3140.87 2500.08 71.51 6.00 116.19 1986.80
   15:37:15.745.18-Apr-2020 3140.87 2500.06 71.51 6.00 116.39 1986.80
   15:37:15.945.18-Apr-2020 3140.87 2500.03 71.51 6.00 116.59 1986.80
   15:37:16.145.18-Apr-2020 3140.87 2500.02 71.51 6.00 116.79 1986.80
   15:37:16.345.18-Apr-2020 3140.87 2500.00 71.51 6.00 116.99 1986.80
   15:37:16.545.18-Apr-2020 3140.87 2500.00 71.51 6.00 117.19 1986.80
   15:37:16.745.18-Apr-2020 3140.87 2499.95 71.50 6.00 117.39 1986.80
   15:37:16.945.18-Apr-2020 3140.87 2499.92 71.50 6.00 117.59 1986.80
   15:37:17.145.18-Apr-2020 3140.87 2499.91 71.50 6.00 117.79 1986.80
   15:37:17.344.18-Apr-2020 3140.87 2499.88 71.50 6.00 117.99 1986.80
   15:37:17.544.18-Apr-2020 3140.87 2499.88 71.50 6.00 118.19 1986.80
   15:37:17.744.18-Apr-2020 3140.87 2499.83 71.50 6.00 118.39 1986.80
   15:37:17.944.18-Apr-2020 3140.87 2499.79 71.50 6.00 118.59 1986.80
   15:37:18.144.18-Apr-2020 3140.87 2499.78 71.50 6.00 118.79 1986.80
   15:37:18.344.18-Apr-2020 3140.87 2499.75 71.50 6.00 118.99 1986.80
   15:37:18.544.18-Apr-2020 3140.87 2499.75 71.50 6.00 119.19 1986.80
   15:37:18.744.18-Apr-2020 3140.87 2499.73 71.50 6.00 119.39 1986.80
   15:37:18.944.18-Apr-2020 3140.87 2499.71 71.50 6.00 119.59 1986.80
   15:37:19.144.18-Apr-2020 3140.87 2499.66 71.50 6.00 119.79 1986.80
   15:37:19.344.18-Apr-2020 3140.87 2499.63 71.49 6.00 119.99 1986.80
   15:37:19.544.18-Apr-2020 3140.87 2499.62 71.49 6.00 120.19 1986.80
   15:37:19.744.18-Apr-2020 3140.87 2499.60 71.49 6.00 120.39 1986.80
   15:37:19.944.18-Apr-2020 3140.87 2499.57 71.49 6.00 120.59 1986.80
   15:37:20.144.18-Apr-2020 3140.87 2499.54 71.49 6.00 120.79 1986.80
   15:37:20.344.18-Apr-2020 3140.87 2499.51 71.49 6.00 120.99 1986.80
   15:37:20.544.18-Apr-2020 3140.87 2499.51 71.49 6.00 121.19 1986.80
   15:37:20.744.18-Apr-2020 3140.87 2499.47 71.49 6.00 121.39 1986.80
   15:37:20.944.18-Apr-2020 3140.87 2499.45 71.49 6.00 121.59 1986.80
   15:37:21.144.18-Apr-2020 3140.87 2499.42 71.49 6.00 121.79 1986.80
   15:37:21.344.18-Apr-2020 3140.87 2499.37 71.49 6.00 121.99 1986.80
   15:37:21.544.18-Apr-2020 3140.87 2499.37 71.49 6.00 122.19 1986.80
   15:37:21.744.18-Apr-2020 3140.87 2499.36 71.48 6.00 122.39 1986.80
   15:37:21.944.18-Apr-2020 3140.87 2499.33 71.48 6.00 122.59 1986.80
   15:37:22.144.18-Apr-2020 3140.87 2499.31 71.48 6.00 122.79 1986.80
   15:37:22.344.18-Apr-2020 3140.87 2499.30 71.48 6.00 122.99 1986.80
   15:37:22.544.18-Apr-2020 3140.87 2499.30 71.48 6.00 123.19 1986.80
   15:37:22.744.18-Apr-2020 3140.87 2499.25 71.48 6.00 123.39 1986.80
   15:37:22.944.18-Apr-2020 3140.87 2499.23 71.48 6.00 123.59 1986.80
   15:37:23.144.18-Apr-2020 3140.87 2499.20 71.48 6.00 123.79 1986.80
   15:37:23.344.18-Apr-2020 3140.87 2499.17 71.48 6.00 123.99 1986.80
   15:37:23.544.18-Apr-2020 3140.87 2499.15 71.48 6.00 124.19 1986.80
   15:37:23.744.18-Apr-2020 3140.87 2499.13 71.48 6.00 124.39 1986.80
   15:37:23.944.18-Apr-2020 3140.87 2499.10 71.48 6.00 124.59 1986.80
   15:37:24.144.18-Apr-2020 3140.87 2499.05 71.48 6.00 124.79 1986.80
   15:37:24.344.18-Apr-2020 3140.87 2499.03 71.47 6.00 124.99 1986.80
   15:37:24.544.18-Apr-2020 3140.87 2499.03 71.47 6.00 125.19 1986.80
   15:37:24.744.18-Apr-2020 3140.87 2498.99 71.47 6.00 125.39 1986.80
   15:37:24.944.18-Apr-2020 3140.87 2498.97 71.47 6.00 125.59 1986.80
   15:37:25.144.18-Apr-2020 3140.87 2498.96 71.47 6.00 125.79 1986.80
   15:37:25.344.18-Apr-2020 3140.87 2498.93 71.47 6.00 125.99 1986.80
   15:37:25.544.18-Apr-2020 3140.87 2498.93 71.47 6.00 126.19 1986.80
   15:37:25.744.18-Apr-2020 3140.87 2498.88 71.47 6.00 126.39 1986.80
   15:37:25.943.18-Apr-2020 3140.87 2498.86 71.47 6.00 126.59 1986.80
   15:37:26.143.18-Apr-2020 3140.87 2498.83 71.47 6.00 126.79 1986.80
   15:37:26.343.18-Apr-2020 3140.87 2498.80 71.47 6.00 126.99 1986.80
   15:37:26.543.18-Apr-2020 3140.87 2498.80 71.47 6.00 127.19 1986.80
   15:37:26.743.18-Apr-2020 3140.87 2498.74 71.47 6.00 127.39 1986.80
   15:37:26.943.18-Apr-2020 3140.87 2498.74 71.46 6.00 127.59 1986.80
   15:37:27.143.18-Apr-2020 3140.87 2498.71 71.46 6.00 127.79 1986.80
   15:37:27.343.18-Apr-2020 3140.87 2498.67 71.46 6.00 127.99 1986.80
   15:37:27.543.18-Apr-2020 3140.87 2498.64 71.46 6.00 128.19 1986.80
   15:37:27.743.18-Apr-2020 3140.87 2498.65 71.46 6.00 128.39 1986.80
   15:37:27.943.18-Apr-2020 3140.87 2498.62 71.46 6.00 128.59 1986.80
   15:37:28.143.18-Apr-2020 3140.87 2498.59 71.46 6.00 128.79 1986.80
   15:37:28.343.18-Apr-2020 3140.87 2498.55 71.46 6.00 128.99 1986.80
   15:37:28.543.18-Apr-2020 3140.87 2498.54 71.46 6.00 129.19 1986.80
   15:37:28.743.18-Apr-2020 3140.87 2498.52 71.46 6.00 129.39 1986.80
   15:37:28.943.18-Apr-2020 3140.87 2498.50 71.46 6.00 129.58 1986.80
   15:37:29.143.18-Apr-2020 3140.87 2498.47 71.46 6.00 129.78 1986.80
   15:37:29.343.18-Apr-2020 3140.87 2498.44 71.46 6.00 129.98 1986.80
   15:37:29.543.18-Apr-2020 3140.87 2498.44 71.46 6.00 130.18 1986.80
   15:37:29.743.18-Apr-2020 3140.87 2498.41 71.45 6.00 130.38 1986.80
   15:37:29.943.18-Apr-2020 3140.87 2498.39 71.45 6.00 130.58 1986.80
   15:37:30.143.18-Apr-2020 3140.87 2498.36 71.45 6.00 130.78 1986.80
   15:37:30.343.18-Apr-2020 3140.87 2498.31 71.45 6.00 130.98 1986.80
   15:37:30.543.18-Apr-2020 3140.87 2498.31 71.45 6.00 131.18 1986.80
   15:37:30.743.18-Apr-2020 3140.87 2498.31 71.45 6.00 131.38 1986.80
   15:37:30.943.18-Apr-2020 3140.87 2498.27 71.45 6.00 131.58 1986.80
   15:37:31.143.18-Apr-2020 3140.87 2498.25 71.45 6.00 131.78 1986.80
   15:37:31.343.18-Apr-2020 3140.87 2498.23 71.45 6.00 131.98 1986.80
   15:37:31.543.18-Apr-2020 3140.87 2498.22 71.45 6.00 132.18 1986.80
   15:37:31.743.18-Apr-2020 3140.87 2498.20 71.45 6.00 132.38 1986.80
   15:37:31.943.18-Apr-2020 3140.87 2498.16 71.45 6.00 132.58 1986.80
   15:37:32.143.18-Apr-2020 3140.87 2498.14 71.44 6.00 132.78 1986.80
   15:37:32.343.18-Apr-2020 3140.87 2498.12 71.44 6.00 132.98 1986.80
   15:37:32.543.18-Apr-2020 3140.87 2498.10 71.44 6.00 133.18 1986.80
   15:37:32.743.18-Apr-2020 3140.87 2498.07 71.44 6.00 133.38 1986.80
   15:37:32.943.18-Apr-2020 3140.87 2498.05 71.44 6.00 133.58 1986.80
   15:37:33.143.18-Apr-2020 3140.87 2498.00 71.44 6.00 133.78 1986.80
   15:37:33.343.18-Apr-2020 3140.87 2498.00 71.44 6.00 133.98 1986.80
   15:37:33.543.18-Apr-2020 3140.87 2498.00 71.44 6.00 134.18 1986.80
   15:37:33.743.18-Apr-2020 3140.87 2497.96 71.44 6.00 134.38 1986.80
   15:37:33.943.18-Apr-2020 3140.87 2497.94 71.44 6.00 134.58 1986.80
   15:37:34.143.18-Apr-2020 3140.87 2497.93 71.44 6.00 134.78 1986.80
   15:37:34.343.18-Apr-2020 3140.87 2497.91 71.44 6.00 134.98 1986.80
   15:37:34.543.18-Apr-2020 3140.87 2497.91 71.44 6.00 135.18 1986.80
   15:37:34.742.18-Apr-2020 3140.87 2497.86 71.43 6.00 135.38 1986.80
   15:37:34.942.18-Apr-2020 3140.87 2497.84 71.43 6.00 135.58 1986.80
   15:37:35.142.18-Apr-2020 3140.87 2497.81 71.43 6.00 135.78 1986.80
   15:37:35.342.18-Apr-2020 3140.87 2497.79 71.43 6.00 135.98 1986.80
   15:37:35.542.18-Apr-2020 3140.87 2497.79 71.43 6.00 136.18 1986.80
   15:37:35.742.18-Apr-2020 3140.87 2497.72 71.43 6.00 136.38 1986.80
   15:37:35.942.18-Apr-2020 3140.87 2497.70 71.43 6.00 136.58 1986.80
   15:37:36.142.18-Apr-2020 3140.87 2497.68 71.43 6.00 136.78 1986.80
   15:37:36.342.18-Apr-2020 3140.87 2497.65 71.43 6.00 136.98 1986.80
   15:37:36.542.18-Apr-2020 3140.87 2497.65 71.43 6.00 137.18 1986.80
   15:37:36.742.18-Apr-2020 3140.87 2497.63 71.43 6.00 137.38 1986.80
   15:37:36.942.18-Apr-2020 3140.87 2497.60 71.43 6.00 137.58 1986.80
   15:37:37.142.18-Apr-2020 3140.87 2497.58 71.42 6.00 137.78 1986.80
