~Version Information
 VERS.                  2.0:   CWLS log ASCII Standard -VERSION 2.0
 WRAP.                   NO:   One line per depth step
~Well Information Block
#MNEM.UNIT     VALUE/NAME     DESCRIPTION
#---------     -----------    ---------------------------
 STRT.S             07:07:08 18-Apr-20: START TIME 07:07:08 18-Apr-20
 STOP.S             07:14:03 18-Apr-20: STOP TIME  07:14:03 18-Apr-20
 STEP.S                   0.00: STEP TIME
 NULL.                 -999.25: NULL VALUE
 DFWT.                        :  DIST FWL TEXT
 DFST.                        :  DIST FSL TEXT
 DMF .                        :  DRILL MEAS FROM
 STIM.      16.29.52 23-Mar-20:  START TIME
 DATE.      16.29.52 23-Mar-20:  END TIME
 SPUD.               23-Mar-20:  SPUD DATE
 NREF.                    Grid:  NORTH REFERENCE
 HPTY.       Minimum Curvature:  HOLE POS TYPE
 DMOD.             Drill Model:  DRILL MOD DESC
 SVYD.                  Survey:  SURVEY DESC
 ILTD.               Lithology:  INTERP LTH DESC
 FTOP.          Formation Tops:  FORM TOPS DESC
 SON .        AZ-XX-0906252240:  JOB NUMBER
 RIG .             West Chirag:  RIG NAME
 PDAT.          Mean Sea Level:  PERMANENT DATUM
 FLD .                     ACG:  FIELD NAME
 CTRY.              Azerbaijan:  COUNTRY NAME
 WELL.           J23 (Slot 07):  WELL NAME
 SRVC.          Turan Drilling:  CONTRACTOR
 COMP.     BP Exploration (Casoian Sea) Ltd:  COMPANY
 WTYP.                Deviated:  WELL TYPE
 MDS .        Operator Entered:  MAG DATA SOURCE
 UWI .                     N/A:  UNIQUE WELL IDENTIFIER
 API .                     N/A:  API NUMBER
 BASE.              Azerbaijan:  LOGGING EQUIPMENT BASE LOCATION
 REGN.                   EESSA:  REGION
 PROV.                    Baku:  PROVINCE
 STAT.                    Baku:  STATE NAME
 MWDS.                     N/A:  MWD SHOP
 JOBN.        AZ-XX-0906252240:  JOB TICKET NUMB
 DOE .                     N/A:  DOE NUMBER
 DCON.         Sperry Drilling:  DIRECTNL CONTR
 UNIT.                     N/A:  LOGGING EQUIPMENT ID
 CNTY.                        :  COUNTY
 LOC .                        :  LOCATION
 LMF .             Drill Floor:  LOG MEASURED FROM
 TVDS.m                  43.00:  TVDSS CORRECTN
 LATI.deg                40.13:  LATITUDE
 LONG.deg                51.22:  LONGITUDE
 WHNS.m                   9.43:  WELL HEAD N/S
 WHEW.m                  -8.91:  WELL HEAD E/W
 UTMX.m              519005.06:  UTM X
 UTMY.m             4443793.85:  UTM Y
 DFWL.m                   0.00:  DISTANCE FWL
 DFSL.m                   0.00:  DISTANCE FSL
 SDEP.m                   0.00:  START DEPTH
 TDD .m                   0.00:  TOTAL DEPTH (DRILLER)
 VSDR.deg               179.88:  VERT SEC DIRECT
 GVFD.g                   1.00:  GRAVITY FIELD
 MFLD.nT              50281.00:  MAGNETIC FIELD
 MDIP.deg                59.58:  MAGNETIC DIP
 MDEC.deg                 6.48:  MAGNETIC DECL
 GRDC.deg                 0.14:  GRID CORRECTION
 AZTC.deg                 6.34:  AZM TOTAL CORR
 EPD .m                   0.00:  ELEVATION
 EGL .m                   0.00:  GROUND ELEVATION
 WDMS.m                 169.80:  WD ELEV
 APD .m                  43.00:  DEPTH ABOVE PD
 DEP .m                 354.17:  DEPTH
 AGAP.m                  43.00:  AIR GAP
 VSEW.m                  -8.91:  VERT SEC E/W
 VSNS.m                   9.43:  VERT SEC N/S
 EKB .m                   0.00:  KB ELEVATION
 EDF .m                  43.00:  DF ELEVATION
 TDL .m                1326.00:  TOTAL DEPTH (LOGGER)
 VSC .                       0:  VS TO CLOSURE
 MAGU.                 1850704:  MAGUTM CHECKSUM
~Parameter Information Block
#MNEM.UNIT       Value        Description
#---------     -----------    ---------------------------
 AV  .mps                 1.17:  Ann Velocity 
 AZIF.deg               184.04:  Azm, Final 
 BHAT.        Rotary Steerable:  BHA Type 
 BREV.rev            620000.00:  Rev Bit Total 
 BROT.°/30m               0.20:  Build Rotating 
 BS  .in                 14.75:  Bit Size 
 BSZ .in                 14.75:  Bit Size 
 BTPL.psig              618.00:  Bit Press Loss 
 CABU.                      No:  Customer Abuse 
 COMM.                     îb:  Run Comments 1 
 TCS .hr                 87.68:  Time Ciculation Ended 
 CV  .mps                 3.10:  Crit Velocity 
 DD1 .          Rashad Habibov:  Direct Drillr 1 
 DD2 .         Rasim Ibrahimov:  Direct Drillr 2 
 DDSV.               Geo-Pilot:  DD Service 
 DEFF.%                  98.00:  % Det Eff 
 DLRX.°/30m               1.48:  Dogleg Rot Max 
 DLSO.°/30m               0.50:  Dogleg Oriented 
 DLSX.°/30m               1.48:  Dogleg Str Max 
 DRET.      06.18.56 19-Apr-20:  Drill End Time 
 DRST.      15.00.56 15-Apr-20:  Drill Start Tim 
 DTIM.hr                 51.73:  Time Drilling 
 EDEP.m                3410.01:  End Depth 
 ENG1.        Marcelo Sandoval:  Engineer 1 
 ENG2.        Davud Huseynzade:  Engineer 2 
 ENG3.          Ruslan Safarov:  Engineer 3 
 ETIM.      04.00.56 20-Apr-20:  End Time 
 FLOI.gpm              1000.00:  Flow In 
 FLON.gpm               600.00:  Flow In Min 
 FLOS.cptm                0.00:  Fluid Loss 
 FLOX.gpm              1200.00:  Flow In Max 
 HFLO.                      No:  High Flow 
 HPRE.                     Yes:  High Pressure 
 HTEM.                      No:  High Temp 
 HYDO.m                   1.80:  Hydro Offset 
 IFIN.deg                70.04:  Inc, Final 
 IMAX.deg                70.56:  Inc Max 
 IMIN.deg                69.85:  Inc Min 
 IMND.m                3103.24:  Inc Min Depth 
 IMXD.m                2876.63:  Inc Max Depth 
 JARR.                      No:  Jarring 
 LETM.      06.18.56 19-Apr-20:  Log End Time 
 LOST.hr                     0:  Lost Rig Time 
 LSTM.      15.00.56 15-Apr-20:  Log Start Time 
 MDCL.ppm             42000.00:  Mud Chlorides 
 MDES.     Inversion Oil/Synthetic:  Mud Desc 
 DFD .sg                  1.58:  Mud Density 
 MDMN.sg                  1.58:  Dens Mud Min 
 MDMX.sg                  1.58:  Dens Mud Max 
 MOIL.                      71:  Run Mud Oil % 
 MOWR.                   71:29:  Run Mud OWR 
 MSND.                       0:  Run Mud Sand % 
 MSOL.                    23.3:  Run Mud Solids% 
 DFV .spqt               84.00:  Mud Viscosity 
 MWOD.in                  9.50:  MWD Tool OD 
 MWSI.                      No:  Serv Intrp, MWD 
 OTIM.hr                139.62:  Time Operating 
 PMAX.psia             5364.69:  Press Op, Max 
 PV  .cP                 80.00:  Mud PV 
 RUN .                     700:  Run Number 
 ROPA.m/hr               25.00:  ROP Avg 
 ROPN.m/hr               11.00:  ROP Min 
 ROPX.m/hr               36.00:  ROP Max 
 RPMA.rpm               130.00:  RPM Surface Avg 
 RPMN.rpm               120.00:  RPM Surface Min 
 RPMX.rpm               140.00:  RPM Surface Max 
 RRUN.                    0700:  Rig Run Number 
 SAZI.deg               183.25:  Azm, Start 
 SDEP.m                2084.00:  Start Depth 
 SIDD.                      No:  Serv Intrp, DD 
 SINC.deg                70.38:  Inc, Start 
 SPPA.psig             4800.00:  SPP Avg 
 SPPN.psig             4400.00:  SPP Min 
 SPPX.psig             5350.00:  SPP Max 
 STIM.      16.30.56 14-Apr-20:  Start Time 
 SVCS.                 DD, MWD:  Services 
 SVER.                    9.20:  Sperry Version 
 TDAT.m                1326.00:  Tot Depth Attmp 
 TDDF.                      No:  Trip for DD 
 TDLG.m                1326.00:  Tot Depth Loggd 
 TFF .                      No:  Trip for Fail 
 TQAA.f-kp               19.00:  Torque Abs Avg 
 TQAN.f-kp                8.00:  Torque Abs Min 
 TQAX.f-kp               27.00:  Torque Abs Max 
 TRRT.°/30m               0.50:  Turn Rotating 
 MRT .                    HCIM:  Maximum Recorded Temperature 
 TTMX.degC               82.35:  Max Tool Temp 
 VS01.       905245875X1Z1W1C8:  Virtual Str1 SN 
 VS02.       90608022F11V7D1A9:  Virtual Str2 SN 
 VS03.            90605473R5C9:  Virtual Str3 SN 
 WBMN.klb                11.00:  WOB Min 
 WOBA.klb                21.00:  WOB Avg 
 WOBX.klb                30.00:  WOB Max 
 YP  .lhf2               45.00:  Yield Point 
~Curve Information Block
#MNEM.UNIT                 API CODE     Curve Description
#---------               -----------    ---------------------------
 TIME.HHMMSS            00 000 000 000:  GT Time & Date
 GTDEPTH.m              00 000 000 000:  GT Depth
 GTPQH.psia             00 000 000 000:  GT HR Quartz Pressure
 GTTQ.degC              00 000 000 000:  GT Quartz Temperature
 GTTN.NONE              00 000 000 000:  GT Test Number
 GTET.sec               00 000 000 000:  GT Elapsed Test Time
 GTTVD.m                00 000 000 000:  GT True Vertical Depth
#Other Information
#
#WARRANTY: Halliburton will use its best efforts to furnish customers with 
#accurate information and interpretations that are part of, and incident to, the services 
#provided.  However, Halliburton cannot and does not warrant the accuracy 
#or correctness of such information and interpretations.  Under no circumstances should any 
#such information or interpretation be relied upon as the sole basis for any drilling, 
#completion, production, or financial decision or any procedure involving any risk to the 
#safety of any drilling venture, drilling rig or its crew or any other third party.  The 
#Customer has full responsibility for all drilling, completion and production operation.  
#Halliburton makes no representations or warranties, either expressed or 
#implied, including, but not limited to, the implied warranties of merchantability or fitness 
#for a particular purpose, with respect to the services rendered.  In no event will 
#Halliburton be liable for failure to obtain any particular results or for 
#any damages, including, but not limited to, indirect, special or consequential damages, 
#resulting from the use of any information or interpretation provided by Halliburton.
#
~A           TIME           GTDEPTH  GTPQH  GTTQ  GTTN  GTET   GTTVD  
   07:07:08.635.18-Apr-2020 3016.07 4474.82 71.19 2.00   0.00 1944.23
   07:07:08.836.18-Apr-2020 3016.07 4474.82 71.19 2.00   0.20 1944.23
   07:07:09.036.18-Apr-2020 3016.07 4477.03 71.19 2.00   0.40 1944.23
   07:07:09.236.18-Apr-2020 3016.07 4476.15 71.19 2.00   0.60 1944.23
   07:07:09.436.18-Apr-2020 3016.07 4473.52 71.19 2.00   0.80 1944.23
   07:07:09.636.18-Apr-2020 3016.07 4475.44 71.19 2.00   1.00 1944.23
   07:07:09.836.18-Apr-2020 3016.07 4475.44 71.19 2.00   1.20 1944.23
   07:07:10.036.18-Apr-2020 3016.07 4475.08 71.19 2.00   1.40 1944.23
   07:07:10.236.18-Apr-2020 3016.07 4471.80 71.19 2.00   1.60 1944.23
   07:07:10.436.18-Apr-2020 3016.07 4473.18 71.18 2.00   1.80 1944.23
   07:07:10.636.18-Apr-2020 3016.07 4473.18 71.18 2.00   2.00 1944.23
   07:07:10.836.18-Apr-2020 3016.07 4473.18 71.18 2.00   2.20 1944.23
   07:07:11.036.18-Apr-2020 3016.07 4470.02 71.18 2.00   2.40 1944.23
   07:07:11.236.18-Apr-2020 3016.07 4468.86 71.18 2.00   2.60 1944.23
   07:07:11.436.18-Apr-2020 3016.07 4468.25 71.18 2.00   2.80 1944.23
   07:07:11.636.18-Apr-2020 3016.07 4468.08 71.18 2.00   3.00 1944.23
   07:07:11.836.18-Apr-2020 3016.07 4467.23 71.18 2.00   3.20 1944.23
   07:07:12.036.18-Apr-2020 3016.07 4466.70 71.18 2.00   3.40 1944.23
   07:07:12.236.18-Apr-2020 3016.07 4467.72 71.18 2.00   3.60 1944.23
   07:07:12.436.18-Apr-2020 3016.07 4467.36 71.18 2.00   3.80 1944.23
   07:07:12.636.18-Apr-2020 3016.07 4466.91 71.17 2.00   4.00 1944.23
   07:07:12.836.18-Apr-2020 3016.07 4466.91 71.17 2.00   4.20 1944.23
   07:07:13.036.18-Apr-2020 3016.07 4467.64 71.17 2.00   4.40 1944.23
   07:07:13.236.18-Apr-2020 3016.07 4468.02 71.17 2.00   4.60 1944.23
   07:07:13.436.18-Apr-2020 3016.07 4468.11 71.17 2.00   4.80 1944.23
   07:07:13.636.18-Apr-2020 3016.07 4467.69 71.17 2.00   5.00 1944.23
   07:07:13.836.18-Apr-2020 3016.07 4467.69 71.17 2.00   5.20 1944.23
   07:07:14.036.18-Apr-2020 3016.07 4467.24 71.17 2.00   5.40 1944.23
   07:07:14.236.18-Apr-2020 3016.07 4464.22 71.17 2.00   5.60 1944.23
   07:07:14.436.18-Apr-2020 3016.07 4466.00 71.17 2.00   5.80 1944.23
   07:07:14.636.18-Apr-2020 3016.07 4465.44 71.16 2.00   6.00 1944.23
   07:07:14.836.18-Apr-2020 3016.07 4465.44 71.16 2.00   6.20 1944.23
   07:07:15.036.18-Apr-2020 3016.07 4464.65 71.16 2.00   6.40 1944.23
   07:07:15.236.18-Apr-2020 3016.07 4464.32 71.16 2.00   6.60 1944.23
   07:07:15.436.18-Apr-2020 3016.07 4464.30 71.16 2.00   6.80 1944.23
   07:07:15.636.18-Apr-2020 3016.07 4464.52 71.16 2.00   7.00 1944.23
   07:07:15.836.18-Apr-2020 3016.07 4464.23 71.16 2.00   7.20 1944.23
   07:07:16.036.18-Apr-2020 3016.07 4464.16 71.16 2.00   7.40 1944.23
   07:07:16.236.18-Apr-2020 3016.07 4464.95 71.16 2.00   7.60 1944.23
   07:07:16.436.18-Apr-2020 3016.07 4465.17 71.16 2.00   7.80 1944.23
   07:07:16.636.18-Apr-2020 3016.07 4464.64 71.15 2.00   8.00 1944.23
   07:07:16.836.18-Apr-2020 3016.07 4464.64 71.15 2.00   8.20 1944.23
   07:07:17.036.18-Apr-2020 3016.07 4465.45 71.15 2.00   8.40 1944.23
   07:07:17.236.18-Apr-2020 3016.07 4463.62 71.15 2.00   8.60 1944.23
   07:07:17.436.18-Apr-2020 3016.07 4466.45 71.15 2.00   8.80 1944.23
   07:07:17.636.18-Apr-2020 3016.07 4466.18 71.15 2.00   9.00 1944.23
   07:07:17.836.18-Apr-2020 3016.07 4466.18 71.15 2.00   9.20 1944.23
   07:07:18.036.18-Apr-2020 3016.07 4465.32 71.15 2.00   9.40 1944.23
   07:07:18.237.18-Apr-2020 3016.07 4468.38 71.15 2.00   9.60 1944.23
   07:07:18.437.18-Apr-2020 3016.07 4468.64 71.15 2.00   9.80 1944.23
   07:07:18.637.18-Apr-2020 3016.07 4466.40 71.15 2.00  10.00 1944.23
   07:07:18.837.18-Apr-2020 3016.07 4466.40 71.14 2.00  10.20 1944.23
   07:07:19.037.18-Apr-2020 3016.07 4469.02 71.14 2.00  10.40 1944.23
   07:07:19.237.18-Apr-2020 3016.07 4467.42 71.14 2.00  10.60 1944.23
   07:07:19.437.18-Apr-2020 3016.07 4468.72 71.14 2.00  10.80 1944.23
   07:07:19.637.18-Apr-2020 3016.07 4468.99 71.14 2.00  11.00 1944.23
   07:07:19.837.18-Apr-2020 3016.07 4468.99 71.14 2.00  11.20 1944.23
   07:07:20.037.18-Apr-2020 3016.07 4468.99 71.14 2.00  11.40 1944.23
   07:07:20.237.18-Apr-2020 3016.07 4468.64 71.14 2.00  11.60 1944.23
   07:07:20.437.18-Apr-2020 3016.07 4468.43 71.14 2.00  11.80 1944.23
   07:07:20.637.18-Apr-2020 3016.07 4466.38 71.14 2.00  12.00 1944.23
   07:07:20.837.18-Apr-2020 3016.07 4466.38 71.14 2.00  12.20 1944.23
   07:07:21.037.18-Apr-2020 3016.07 4469.83 71.13 2.00  12.40 1944.23
   07:07:21.237.18-Apr-2020 3016.07 4470.54 71.13 2.00  12.60 1944.23
   07:07:21.437.18-Apr-2020 3016.07 4470.59 71.13 2.00  12.80 1944.23
   07:07:21.637.18-Apr-2020 3016.07 4470.75 71.13 2.00  13.00 1944.23
   07:07:21.837.18-Apr-2020 3016.07 4470.75 71.13 2.00  13.20 1944.23
   07:07:22.037.18-Apr-2020 3016.07 4471.52 71.13 2.00  13.40 1944.23
   07:07:22.237.18-Apr-2020 3016.07 4471.36 71.13 2.00  13.60 1944.23
   07:07:22.437.18-Apr-2020 3016.07 4471.12 71.13 2.00  13.80 1944.23
   07:07:22.637.18-Apr-2020 3016.07 4472.04 71.13 2.00  14.00 1944.23
   07:07:22.837.18-Apr-2020 3016.07 4472.04 71.12 2.00  14.20 1944.23
   07:07:23.037.18-Apr-2020 3016.07 4471.26 71.12 2.00  14.40 1944.23
   07:07:23.237.18-Apr-2020 3016.07 4471.41 71.12 2.00  14.60 1944.23
   07:07:23.437.18-Apr-2020 3016.07 4469.72 71.12 2.00  14.80 1944.23
   07:07:23.637.18-Apr-2020 3016.07 4471.71 71.12 2.00  15.00 1944.23
   07:07:23.837.18-Apr-2020 3016.07 4471.74 71.12 2.00  15.20 1944.23
   07:07:24.037.18-Apr-2020 3016.07 4472.05 71.12 2.00  15.40 1944.23
   07:07:24.237.18-Apr-2020 3016.07 4471.70 71.12 2.00  15.60 1944.23
   07:07:24.437.18-Apr-2020 3016.07 4471.97 71.12 2.00  15.80 1944.23
   07:07:24.637.18-Apr-2020 3016.07 4471.49 71.12 2.00  16.00 1944.23
   07:07:24.837.18-Apr-2020 3016.07 4471.49 71.12 2.00  16.20 1944.23
   07:07:25.037.18-Apr-2020 3016.07 4471.29 71.11 2.00  16.40 1944.23
   07:07:25.237.18-Apr-2020 3016.07 4470.93 71.11 2.00  16.60 1944.23
   07:07:25.437.18-Apr-2020 3016.07 4470.79 71.11 2.00  16.80 1944.23
   07:07:25.637.18-Apr-2020 3016.07 4471.03 71.11 2.00  17.00 1944.23
   07:07:25.837.18-Apr-2020 3016.07 4471.03 71.11 2.00  17.20 1944.23
   07:07:26.037.18-Apr-2020 3016.07 4470.05 71.11 2.00  17.40 1944.23
   07:07:26.237.18-Apr-2020 3016.07 4468.48 71.11 2.00  17.60 1944.23
   07:07:26.437.18-Apr-2020 3016.07 4471.02 71.11 2.00  17.80 1944.23
   07:07:26.637.18-Apr-2020 3016.07 4470.23 71.11 2.00  18.00 1944.23
   07:07:26.837.18-Apr-2020 3016.07 4470.23 71.11 2.00  18.20 1944.23
   07:07:27.037.18-Apr-2020 3016.07 4471.27 71.10 2.00  18.40 1944.23
   07:07:27.237.18-Apr-2020 3016.07 4470.51 71.10 2.00  18.60 1944.23
   07:07:27.437.18-Apr-2020 3016.07 4470.52 71.10 2.00  18.80 1944.23
   07:07:27.638.18-Apr-2020 3016.07 4467.89 71.10 2.00  19.00 1944.23
   07:07:27.838.18-Apr-2020 3016.07 4470.25 71.10 2.00  19.20 1944.23
   07:07:28.038.18-Apr-2020 3016.07 4469.32 71.10 2.00  19.40 1944.23
   07:07:28.238.18-Apr-2020 3016.07 4469.07 71.10 2.00  19.60 1944.23
   07:07:28.438.18-Apr-2020 3016.07 4468.35 71.10 2.00  19.80 1944.23
   07:07:28.638.18-Apr-2020 3016.07 4465.86 71.10 2.00  20.00 1944.23
   07:07:28.838.18-Apr-2020 3016.07 4465.86 71.10 2.00  20.20 1944.23
   07:07:29.038.18-Apr-2020 3016.07 4467.92 71.09 2.00  20.40 1944.23
   07:07:29.238.18-Apr-2020 3016.07 4467.41 71.09 2.00  20.60 1944.23
   07:07:29.438.18-Apr-2020 3016.07 4466.64 71.09 2.00  20.80 1944.23
   07:07:29.638.18-Apr-2020 3016.07 4465.83 71.09 2.00  21.00 1944.23
   07:07:29.838.18-Apr-2020 3016.07 4465.83 71.09 2.00  21.20 1944.23
   07:07:30.038.18-Apr-2020 3016.07 4467.06 71.09 2.00  21.40 1944.23
   07:07:30.238.18-Apr-2020 3016.07 4467.11 71.09 2.00  21.60 1944.23
   07:07:30.438.18-Apr-2020 3016.07 4467.98 71.09 2.00  21.80 1944.23
   07:07:30.638.18-Apr-2020 3016.07 4467.89 71.09 2.00  22.00 1944.23
   07:07:30.838.18-Apr-2020 3016.07 4467.89 71.09 2.00  22.20 1944.23
   07:07:31.038.18-Apr-2020 3016.07 4466.62 71.08 2.00  22.40 1944.23
   07:07:31.238.18-Apr-2020 3016.07 4466.70 71.08 2.00  22.60 1944.23
   07:07:31.438.18-Apr-2020 3016.07 4467.05 71.08 2.00  22.80 1944.23
