~Version Information
 VERS.                  2.0:   CWLS log ASCII Standard -VERSION 2.0
 WRAP.                   NO:   One line per depth step
~Well Information Block
#MNEM.UNIT     VALUE/NAME     DESCRIPTION
#---------     -----------    ---------------------------
 STRT.S             08:47:02 18-Apr-20: START TIME 08:47:02 18-Apr-20
 STOP.S             08:53:58 18-Apr-20: STOP TIME  08:53:58 18-Apr-20
 STEP.S                   0.00: STEP TIME
 NULL.                 -999.25: NULL VALUE
 DFWT.                        :  DIST FWL TEXT
 DFST.                        :  DIST FSL TEXT
 DMF .                        :  DRILL MEAS FROM
 STIM.      16.29.52 23-Mar-20:  START TIME
 DATE.      16.29.52 23-Mar-20:  END TIME
 SPUD.               23-Mar-20:  SPUD DATE
 NREF.                    Grid:  NORTH REFERENCE
 HPTY.       Minimum Curvature:  HOLE POS TYPE
 DMOD.             Drill Model:  DRILL MOD DESC
 SVYD.                  Survey:  SURVEY DESC
 ILTD.               Lithology:  INTERP LTH DESC
 FTOP.          Formation Tops:  FORM TOPS DESC
 SON .        AZ-XX-0906252240:  JOB NUMBER
 RIG .             West Chirag:  RIG NAME
 PDAT.          Mean Sea Level:  PERMANENT DATUM
 FLD .                     ACG:  FIELD NAME
 CTRY.              Azerbaijan:  COUNTRY NAME
 WELL.           J23 (Slot 07):  WELL NAME
 SRVC.          Turan Drilling:  CONTRACTOR
 COMP.     BP Exploration (Casoian Sea) Ltd:  COMPANY
 WTYP.                Deviated:  WELL TYPE
 MDS .        Operator Entered:  MAG DATA SOURCE
 UWI .                     N/A:  UNIQUE WELL IDENTIFIER
 API .                     N/A:  API NUMBER
 BASE.              Azerbaijan:  LOGGING EQUIPMENT BASE LOCATION
 REGN.                   EESSA:  REGION
 PROV.                    Baku:  PROVINCE
 STAT.                    Baku:  STATE NAME
 MWDS.                     N/A:  MWD SHOP
 JOBN.        AZ-XX-0906252240:  JOB TICKET NUMB
 DOE .                     N/A:  DOE NUMBER
 DCON.         Sperry Drilling:  DIRECTNL CONTR
 UNIT.                     N/A:  LOGGING EQUIPMENT ID
 CNTY.                        :  COUNTY
 LOC .                        :  LOCATION
 LMF .             Drill Floor:  LOG MEASURED FROM
 TVDS.m                  43.00:  TVDSS CORRECTN
 LATI.deg                40.13:  LATITUDE
 LONG.deg                51.22:  LONGITUDE
 WHNS.m                   9.43:  WELL HEAD N/S
 WHEW.m                  -8.91:  WELL HEAD E/W
 UTMX.m              519005.06:  UTM X
 UTMY.m             4443793.85:  UTM Y
 DFWL.m                   0.00:  DISTANCE FWL
 DFSL.m                   0.00:  DISTANCE FSL
 SDEP.m                   0.00:  START DEPTH
 TDD .m                   0.00:  TOTAL DEPTH (DRILLER)
 VSDR.deg               179.88:  VERT SEC DIRECT
 GVFD.g                   1.00:  GRAVITY FIELD
 MFLD.nT              50281.00:  MAGNETIC FIELD
 MDIP.deg                59.58:  MAGNETIC DIP
 MDEC.deg                 6.48:  MAGNETIC DECL
 GRDC.deg                 0.14:  GRID CORRECTION
 AZTC.deg                 6.34:  AZM TOTAL CORR
 EPD .m                   0.00:  ELEVATION
 EGL .m                   0.00:  GROUND ELEVATION
 WDMS.m                 169.80:  WD ELEV
 APD .m                  43.00:  DEPTH ABOVE PD
 DEP .m                 354.17:  DEPTH
 AGAP.m                  43.00:  AIR GAP
 VSEW.m                  -8.91:  VERT SEC E/W
 VSNS.m                   9.43:  VERT SEC N/S
 EKB .m                   0.00:  KB ELEVATION
 EDF .m                  43.00:  DF ELEVATION
 TDL .m                1326.00:  TOTAL DEPTH (LOGGER)
 VSC .                       0:  VS TO CLOSURE
 MAGU.                 1850704:  MAGUTM CHECKSUM
~Parameter Information Block
#MNEM.UNIT       Value        Description
#---------     -----------    ---------------------------
 AV  .mps                 1.17:  Ann Velocity 
 AZIF.deg               184.04:  Azm, Final 
 BHAT.        Rotary Steerable:  BHA Type 
 BREV.rev            620000.00:  Rev Bit Total 
 BROT.°/30m               0.20:  Build Rotating 
 BS  .in                 14.75:  Bit Size 
 BSZ .in                 14.75:  Bit Size 
 BTPL.psig              618.00:  Bit Press Loss 
 CABU.                      No:  Customer Abuse 
 TCS .hr                 87.68:  Time Ciculation Ended 
 CV  .mps                 3.10:  Crit Velocity 
 DD1 .          Rashad Habibov:  Direct Drillr 1 
 DD2 .         Rasim Ibrahimov:  Direct Drillr 2 
 DDSV.               Geo-Pilot:  DD Service 
 DEFF.%                  98.00:  % Det Eff 
 DLRX.°/30m               1.48:  Dogleg Rot Max 
 DLSO.°/30m               0.50:  Dogleg Oriented 
 DLSX.°/30m               1.48:  Dogleg Str Max 
 DRET.      06.18.56 19-Apr-20:  Drill End Time 
 DRST.      15.00.56 15-Apr-20:  Drill Start Tim 
 DTIM.hr                 51.73:  Time Drilling 
 EDEP.m                3410.01:  End Depth 
 ENG1.        Marcelo Sandoval:  Engineer 1 
 ENG2.        Davud Huseynzade:  Engineer 2 
 ENG3.          Ruslan Safarov:  Engineer 3 
 ETIM.      04.00.56 20-Apr-20:  End Time 
 FLOI.gpm              1000.00:  Flow In 
 FLON.gpm               600.00:  Flow In Min 
 FLOS.cptm                0.00:  Fluid Loss 
 FLOX.gpm              1200.00:  Flow In Max 
 HFLO.                      No:  High Flow 
 HPRE.                     Yes:  High Pressure 
 HTEM.                      No:  High Temp 
 HYDO.m                   1.80:  Hydro Offset 
 IFIN.deg                70.04:  Inc, Final 
 IMAX.deg                70.56:  Inc Max 
 IMIN.deg                69.85:  Inc Min 
 IMND.m                3103.24:  Inc Min Depth 
 IMXD.m                2876.63:  Inc Max Depth 
 JARR.                      No:  Jarring 
 LETM.      06.18.56 19-Apr-20:  Log End Time 
 LOST.hr                     0:  Lost Rig Time 
 LSTM.      15.00.56 15-Apr-20:  Log Start Time 
 MDCL.ppm             42000.00:  Mud Chlorides 
 MDES.     Inversion Oil/Synthetic:  Mud Desc 
 DFD .sg                  1.58:  Mud Density 
 MDMN.sg                  1.58:  Dens Mud Min 
 MDMX.sg                  1.58:  Dens Mud Max 
 MOIL.                      71:  Run Mud Oil % 
 MOWR.                   71:29:  Run Mud OWR 
 MSND.                       0:  Run Mud Sand % 
 MSOL.                    23.3:  Run Mud Solids% 
 DFV .spqt               84.00:  Mud Viscosity 
 MWOD.in                  9.50:  MWD Tool OD 
 MWSI.                      No:  Serv Intrp, MWD 
 OTIM.hr                139.62:  Time Operating 
 PMAX.psia             5364.69:  Press Op, Max 
 PV  .cP                 80.00:  Mud PV 
 RUN .                     700:  Run Number 
 ROPA.m/hr               25.00:  ROP Avg 
 ROPN.m/hr               11.00:  ROP Min 
 ROPX.m/hr               36.00:  ROP Max 
 RPMA.rpm               130.00:  RPM Surface Avg 
 RPMN.rpm               120.00:  RPM Surface Min 
 RPMX.rpm               140.00:  RPM Surface Max 
 RRUN.                    0700:  Rig Run Number 
 SAZI.deg               183.25:  Azm, Start 
 SDEP.m                2084.00:  Start Depth 
 SIDD.                      No:  Serv Intrp, DD 
 SINC.deg                70.38:  Inc, Start 
 SPPA.psig             4800.00:  SPP Avg 
 SPPN.psig             4400.00:  SPP Min 
 SPPX.psig             5350.00:  SPP Max 
 STIM.      16.30.56 14-Apr-20:  Start Time 
 SVCS.                 DD, MWD:  Services 
 SVER.                    9.20:  Sperry Version 
 TDAT.m                1326.00:  Tot Depth Attmp 
 TDDF.                      No:  Trip for DD 
 TDLG.m                1326.00:  Tot Depth Loggd 
 TFF .                      No:  Trip for Fail 
 TQAA.f-kp               19.00:  Torque Abs Avg 
 TQAN.f-kp                8.00:  Torque Abs Min 
 TQAX.f-kp               27.00:  Torque Abs Max 
 TRRT.°/30m               0.50:  Turn Rotating 
 MRT .                    HCIM:  Maximum Recorded Temperature 
 TTMX.degC               82.35:  Max Tool Temp 
 VS01.       905245875X1Z1W1C8:  Virtual Str1 SN 
 VS02.       90608022F11V7D1A9:  Virtual Str2 SN 
 VS03.            90605473R5C9:  Virtual Str3 SN 
 WBMN.klb                11.00:  WOB Min 
 WOBA.klb                21.00:  WOB Avg 
 WOBX.klb                30.00:  WOB Max 
 YP  .lhf2               45.00:  Yield Point 
~Curve Information Block
#MNEM.UNIT                 API CODE     Curve Description
#---------               -----------    ---------------------------
 TIME.HHMMSS            00 000 000 000:  GT Time & Date
 GTDEPTH.m              00 000 000 000:  GT Depth
 GTPQH.psia             00 000 000 000:  GT HR Quartz Pressure
 GTTQ.degC              00 000 000 000:  GT Quartz Temperature
 GTTN.NONE              00 000 000 000:  GT Test Number
 GTET.sec               00 000 000 000:  GT Elapsed Test Time
 GTTVD.m                00 000 000 000:  GT True Vertical Depth
#Other Information
#
#WARRANTY: Halliburton will use its best efforts to furnish customers with 
#accurate information and interpretations that are part of, and incident to, the services 
#provided.  However, Halliburton cannot and does not warrant the accuracy 
#or correctness of such information and interpretations.  Under no circumstances should any 
#such information or interpretation be relied upon as the sole basis for any drilling, 
#completion, production, or financial decision or any procedure involving any risk to the 
#safety of any drilling venture, drilling rig or its crew or any other third party.  The 
#Customer has full responsibility for all drilling, completion and production operation.  
#Halliburton makes no representations or warranties, either expressed or 
#implied, including, but not limited to, the implied warranties of merchantability or fitness 
#for a particular purpose, with respect to the services rendered.  In no event will 
#Halliburton be liable for failure to obtain any particular results or for 
#any damages, including, but not limited to, indirect, special or consequential damages, 
#resulting from the use of any information or interpretation provided by Halliburton.
#
~A           TIME           GTDEPTH  GTPQH  GTTQ  GTTN  GTET   GTTVD  
# ...
   08:51:15.381.18-Apr-2020 3032.52 3389.26 69.01 3.00 253.03 1949.78
   08:51:15.581.18-Apr-2020 3032.52 3389.28 69.01 3.00 253.23 1949.78
   08:51:15.781.18-Apr-2020 3032.52 3389.28 69.01 3.00 253.43 1949.78
   08:51:15.981.18-Apr-2020 3032.52 3389.28 69.00 3.00 253.63 1949.78
   08:51:16.181.18-Apr-2020 3032.52 3389.26 69.00 3.00 253.83 1949.78
   08:51:16.381.18-Apr-2020 3032.52 3389.28 69.00 3.00 254.03 1949.78
   08:51:16.581.18-Apr-2020 3032.52 3389.28 69.00 3.00 254.23 1949.78
   08:51:16.781.18-Apr-2020 3032.52 3389.29 69.00 3.00 254.43 1949.78
   08:51:16.981.18-Apr-2020 3032.52 3389.26 69.00 3.00 254.63 1949.78
   08:51:17.181.18-Apr-2020 3032.52 3389.26 69.00 3.00 254.83 1949.78
   08:51:17.381.18-Apr-2020 3032.52 3389.28 69.00 3.00 255.03 1949.78
   08:51:17.582.18-Apr-2020 3032.52 3389.28 69.00 3.00 255.23 1949.78
   08:51:17.782.18-Apr-2020 3032.52 3389.28 69.00 3.00 255.43 1949.78
   08:51:17.982.18-Apr-2020 3032.52 3389.28 69.00 3.00 255.63 1949.78
   08:51:18.182.18-Apr-2020 3032.52 3389.26 68.99 3.00 255.83 1949.78
   08:51:18.382.18-Apr-2020 3032.52 3389.29 68.99 3.00 256.03 1949.78
   08:51:18.582.18-Apr-2020 3032.52 3389.29 68.99 3.00 256.23 1949.78
   08:51:18.782.18-Apr-2020 3032.52 3389.28 68.99 3.00 256.43 1949.78
   08:51:18.982.18-Apr-2020 3032.52 3389.28 68.99 3.00 256.63 1949.78
   08:51:19.182.18-Apr-2020 3032.52 3389.27 68.99 3.00 256.83 1949.78
   08:51:19.382.18-Apr-2020 3032.52 3389.28 68.99 3.00 257.03 1949.78
   08:51:19.582.18-Apr-2020 3032.52 3389.26 68.99 3.00 257.23 1949.78
   08:51:19.782.18-Apr-2020 3032.52 3389.27 68.99 3.00 257.43 1949.78
   08:51:19.982.18-Apr-2020 3032.52 3389.27 68.99 3.00 257.63 1949.78
   08:51:20.182.18-Apr-2020 3032.52 3389.27 68.98 3.00 257.83 1949.78
   08:51:20.382.18-Apr-2020 3032.52 3389.27 68.98 3.00 258.03 1949.78
   08:51:20.582.18-Apr-2020 3032.52 3389.27 68.98 3.00 258.23 1949.78
   08:51:20.782.18-Apr-2020 3032.52 3389.26 68.98 3.00 258.43 1949.78
   08:51:20.982.18-Apr-2020 3032.52 3389.26 68.98 3.00 258.63 1949.78
   08:51:21.182.18-Apr-2020 3032.52 3389.28 68.98 3.00 258.83 1949.78
   08:51:21.382.18-Apr-2020 3032.52 3389.27 68.98 3.00 259.03 1949.78
   08:51:21.582.18-Apr-2020 3032.52 3389.27 68.98 3.00 259.23 1949.78
   08:51:21.782.18-Apr-2020 3032.52 3389.26 68.98 3.00 259.43 1949.78
   08:51:21.982.18-Apr-2020 3032.52 3389.27 68.98 3.00 259.63 1949.78
   08:51:22.182.18-Apr-2020 3032.52 3389.27 68.97 3.00 259.84 1949.78
   08:51:22.382.18-Apr-2020 3032.52 3389.26 68.97 3.00 260.04 1949.78
   08:51:22.582.18-Apr-2020 3032.52 3389.26 68.97 3.00 260.24 1949.78
   08:51:22.782.18-Apr-2020 3032.52 3389.26 68.97 3.00 260.44 1949.78
   08:51:22.982.18-Apr-2020 3032.52 3389.25 68.97 3.00 260.64 1949.78
   08:51:23.182.18-Apr-2020 3032.52 3389.25 68.97 3.00 260.84 1949.78
   08:51:23.382.18-Apr-2020 3032.52 3389.26 68.97 3.00 261.04 1949.78
   08:51:23.582.18-Apr-2020 3032.52 3389.26 68.97 3.00 261.24 1949.78
   08:51:23.782.18-Apr-2020 3032.52 3389.25 68.97 3.00 261.44 1949.78
   08:51:23.982.18-Apr-2020 3032.52 3389.28 68.97 3.00 261.64 1949.78
   08:51:24.182.18-Apr-2020 3032.52 3389.26 68.97 3.00 261.84 1949.78
   08:51:24.382.18-Apr-2020 3032.52 3389.25 68.96 3.00 262.04 1949.78
   08:51:24.582.18-Apr-2020 3032.52 3389.25 68.96 3.00 262.24 1949.78
   08:51:24.782.18-Apr-2020 3032.52 3389.27 68.96 3.00 262.44 1949.78
   08:51:24.982.18-Apr-2020 3032.52 3389.25 68.96 3.00 262.64 1949.78
   08:51:25.183.18-Apr-2020 3032.52 3389.25 68.96 3.00 262.84 1949.78
   08:51:25.383.18-Apr-2020 3032.52 3389.26 68.96 3.00 263.04 1949.78
   08:51:25.583.18-Apr-2020 3032.52 3389.26 68.96 3.00 263.24 1949.78
   08:51:25.783.18-Apr-2020 3032.52 3389.25 68.96 3.00 263.44 1949.78
   08:51:25.983.18-Apr-2020 3032.52 3389.24 68.96 3.00 263.64 1949.78
   08:51:26.183.18-Apr-2020 3032.52 3389.26 68.96 3.00 263.84 1949.78
   08:51:26.383.18-Apr-2020 3032.52 3389.26 68.95 3.00 264.04 1949.78
   08:51:26.583.18-Apr-2020 3032.52 3389.26 68.95 3.00 264.24 1949.78
   08:51:26.783.18-Apr-2020 3032.52 3389.25 68.95 3.00 264.44 1949.78
   08:51:26.983.18-Apr-2020 3032.52 3389.25 68.95 3.00 264.64 1949.78
   08:51:27.183.18-Apr-2020 3032.52 3389.27 68.95 3.00 264.84 1949.78
   08:51:27.383.18-Apr-2020 3032.52 3389.28 68.95 3.00 265.04 1949.78
   08:51:27.583.18-Apr-2020 3032.52 3389.27 68.95 3.00 265.24 1949.78
   08:51:27.783.18-Apr-2020 3032.52 3389.25 68.95 3.00 265.44 1949.78
   08:51:27.983.18-Apr-2020 3032.52 3389.27 68.95 3.00 265.64 1949.78
   08:51:28.183.18-Apr-2020 3032.52 3389.26 68.95 3.00 265.84 1949.78
   08:51:28.383.18-Apr-2020 3032.52 3389.25 68.94 3.00 266.04 1949.78
   08:51:28.583.18-Apr-2020 3032.52 3389.25 68.94 3.00 266.24 1949.78
   08:51:28.783.18-Apr-2020 3032.52 3389.26 68.94 3.00 266.44 1949.78
   08:51:28.983.18-Apr-2020 3032.52 3389.25 68.94 3.00 266.64 1949.78
   08:51:29.183.18-Apr-2020 3032.52 3389.26 68.94 3.00 266.84 1949.78
   08:51:29.383.18-Apr-2020 3032.52 3389.25 68.94 3.00 267.04 1949.78
   08:51:29.583.18-Apr-2020 3032.52 3389.25 68.94 3.00 267.24 1949.78
   08:51:29.783.18-Apr-2020 3032.52 3389.25 68.94 3.00 267.44 1949.78
   08:51:29.983.18-Apr-2020 3032.52 3389.25 68.94 3.00 267.64 1949.78
   08:51:30.183.18-Apr-2020 3032.52 3389.27 68.94 3.00 267.84 1949.78
   08:51:30.383.18-Apr-2020 3032.52 3389.27 68.94 3.00 268.04 1949.78
   08:51:30.583.18-Apr-2020 3032.52 3389.27 68.93 3.00 268.24 1949.78
   08:51:30.783.18-Apr-2020 3032.52 3389.25 68.93 3.00 268.44 1949.78
   08:51:30.983.18-Apr-2020 3032.52 3389.26 68.93 3.00 268.64 1949.78
   08:51:31.183.18-Apr-2020 3032.52 3389.25 68.93 3.00 268.84 1949.78
   08:51:31.383.18-Apr-2020 3032.52 3389.25 68.93 3.00 269.04 1949.78
   08:51:31.583.18-Apr-2020 3032.52 3389.24 68.93 3.00 269.24 1949.78
   08:51:31.783.18-Apr-2020 3032.52 3389.26 68.93 3.00 269.44 1949.78
   08:51:31.983.18-Apr-2020 3032.52 3389.25 68.93 3.00 269.64 1949.78
   08:51:32.183.18-Apr-2020 3032.52 3389.25 68.93 3.00 269.84 1949.78
   08:51:32.383.18-Apr-2020 3032.52 3389.25 68.93 3.00 270.04 1949.78
   08:51:32.584.18-Apr-2020 3032.52 3389.25 68.93 3.00 270.24 1949.78
   08:51:32.784.18-Apr-2020 3032.52 3389.26 68.92 3.00 270.44 1949.78
   08:51:32.984.18-Apr-2020 3032.52 3389.25 68.92 3.00 270.64 1949.78
   08:51:33.184.18-Apr-2020 3032.52 3389.25 68.92 3.00 270.84 1949.78
   08:51:33.384.18-Apr-2020 3032.52 3389.27 68.92 3.00 271.04 1949.78
   08:51:33.584.18-Apr-2020 3032.52 3389.27 68.92 3.00 271.24 1949.78
   08:51:33.784.18-Apr-2020 3032.52 3389.26 68.92 3.00 271.44 1949.78
   08:51:33.984.18-Apr-2020 3032.52 3389.24 68.92 3.00 271.64 1949.78
   08:51:34.184.18-Apr-2020 3032.52 3389.25 68.92 3.00 271.84 1949.78
   08:51:34.384.18-Apr-2020 3032.52 3389.27 68.92 3.00 272.04 1949.78
   08:51:34.584.18-Apr-2020 3032.52 3389.27 68.92 3.00 272.24 1949.78
   08:51:34.784.18-Apr-2020 3032.52 3389.25 68.91 3.00 272.44 1949.78
   08:51:34.984.18-Apr-2020 3032.52 3389.25 68.91 3.00 272.64 1949.78
   08:51:35.184.18-Apr-2020 3032.52 3389.27 68.91 3.00 272.84 1949.78
   08:51:35.384.18-Apr-2020 3032.52 3389.27 68.91 3.00 273.04 1949.78
   08:51:35.584.18-Apr-2020 3032.52 3389.27 68.91 3.00 273.24 1949.78
   08:51:35.784.18-Apr-2020 3032.52 3389.26 68.91 3.00 273.44 1949.78
   08:51:35.984.18-Apr-2020 3032.52 3389.25 68.91 3.00 273.64 1949.78
   08:51:36.184.18-Apr-2020 3032.52 3389.28 68.91 3.00 273.84 1949.78
   08:51:36.384.18-Apr-2020 3032.52 3389.26 68.91 3.00 274.04 1949.78
   08:51:36.584.18-Apr-2020 3032.52 3389.26 68.91 3.00 274.24 1949.78
   08:51:36.784.18-Apr-2020 3032.52 3389.26 68.90 3.00 274.44 1949.78
   08:51:36.984.18-Apr-2020 3032.52 3388.72 68.90 3.00 274.64 1949.78
   08:51:37.184.18-Apr-2020 3032.52 3372.43 68.90 3.00 274.84 1949.78
   08:51:37.384.18-Apr-2020 3032.52 3367.29 68.90 3.00 275.04 1949.78
   08:51:37.584.18-Apr-2020 3032.52 3367.29 68.90 3.00 275.24 1949.78
   08:51:37.784.18-Apr-2020 3032.52 3367.10 68.90 3.00 275.44 1949.78
   08:51:37.984.18-Apr-2020 3032.52 3367.02 68.90 3.00 275.64 1949.78
   08:51:38.184.18-Apr-2020 3032.52 3367.01 68.90 3.00 275.84 1949.78
