~Version Information
 VERS.                  2.0:   CWLS log ASCII Standard -VERSION 2.0
 WRAP.                   NO:   One line per depth step
~Well Information Block
#MNEM.UNIT     VALUE/NAME     DESCRIPTION
#---------     -----------    ---------------------------
 STRT.S             13:35:33 18-Apr-20: START TIME 13:35:33 18-Apr-20
 STOP.S             13:42:31 18-Apr-20: STOP TIME  13:42:31 18-Apr-20
 STEP.S                   0.00: STEP TIME
 NULL.                 -999.25: NULL VALUE
 DFWT.                        :  DIST FWL TEXT
 DFST.                        :  DIST FSL TEXT
 DMF .                        :  DRILL MEAS FROM
 STIM.      16.29.52 23-Mar-20:  START TIME
 DATE.      16.29.52 23-Mar-20:  END TIME
 SPUD.               23-Mar-20:  SPUD DATE
 NREF.                    Grid:  NORTH REFERENCE
 HPTY.       Minimum Curvature:  HOLE POS TYPE
 DMOD.             Drill Model:  DRILL MOD DESC
 SVYD.                  Survey:  SURVEY DESC
 ILTD.               Lithology:  INTERP LTH DESC
 FTOP.          Formation Tops:  FORM TOPS DESC
 SON .        AZ-XX-0906252240:  JOB NUMBER
 RIG .             West Chirag:  RIG NAME
 PDAT.          Mean Sea Level:  PERMANENT DATUM
 FLD .                     ACG:  FIELD NAME
 CTRY.              Azerbaijan:  COUNTRY NAME
 WELL.           J23 (Slot 07):  WELL NAME
 SRVC.          Turan Drilling:  CONTRACTOR
 COMP.     BP Exploration (Casoian Sea) Ltd:  COMPANY
 WTYP.                Deviated:  WELL TYPE
 MDS .        Operator Entered:  MAG DATA SOURCE
 UWI .                     N/A:  UNIQUE WELL IDENTIFIER
 API .                     N/A:  API NUMBER
 BASE.              Azerbaijan:  LOGGING EQUIPMENT BASE LOCATION
 REGN.                   EESSA:  REGION
 PROV.                    Baku:  PROVINCE
 STAT.                    Baku:  STATE NAME
 MWDS.                     N/A:  MWD SHOP
 JOBN.        AZ-XX-0906252240:  JOB TICKET NUMB
 DOE .                     N/A:  DOE NUMBER
 DCON.         Sperry Drilling:  DIRECTNL CONTR
 UNIT.                     N/A:  LOGGING EQUIPMENT ID
 CNTY.                        :  COUNTY
 LOC .                        :  LOCATION
 LMF .             Drill Floor:  LOG MEASURED FROM
 TVDS.m                  43.00:  TVDSS CORRECTN
 LATI.deg                40.13:  LATITUDE
 LONG.deg                51.22:  LONGITUDE
 WHNS.m                   9.43:  WELL HEAD N/S
 WHEW.m                  -8.91:  WELL HEAD E/W
 UTMX.m              519005.06:  UTM X
 UTMY.m             4443793.85:  UTM Y
 DFWL.m                   0.00:  DISTANCE FWL
 DFSL.m                   0.00:  DISTANCE FSL
 SDEP.m                   0.00:  START DEPTH
 TDD .m                   0.00:  TOTAL DEPTH (DRILLER)
 VSDR.deg               179.88:  VERT SEC DIRECT
 GVFD.g                   1.00:  GRAVITY FIELD
 MFLD.nT              50281.00:  MAGNETIC FIELD
 MDIP.deg                59.58:  MAGNETIC DIP
 MDEC.deg                 6.48:  MAGNETIC DECL
 GRDC.deg                 0.14:  GRID CORRECTION
 AZTC.deg                 6.34:  AZM TOTAL CORR
 EPD .m                   0.00:  ELEVATION
 EGL .m                   0.00:  GROUND ELEVATION
 WDMS.m                 169.80:  WD ELEV
 APD .m                  43.00:  DEPTH ABOVE PD
 DEP .m                 354.17:  DEPTH
 AGAP.m                  43.00:  AIR GAP
 VSEW.m                  -8.91:  VERT SEC E/W
 VSNS.m                   9.43:  VERT SEC N/S
 EKB .m                   0.00:  KB ELEVATION
 EDF .m                  43.00:  DF ELEVATION
 TDL .m                1326.00:  TOTAL DEPTH (LOGGER)
 VSC .                       0:  VS TO CLOSURE
 MAGU.                 1850704:  MAGUTM CHECKSUM
~Parameter Information Block
#MNEM.UNIT       Value        Description
#---------     -----------    ---------------------------
 AV  .mps                 1.17:  Ann Velocity 
 AZIF.deg               184.04:  Azm, Final 
 BHAT.        Rotary Steerable:  BHA Type 
 BREV.rev            620000.00:  Rev Bit Total 
 BROT.°/30m               0.20:  Build Rotating 
 BS  .in                 14.75:  Bit Size 
 BSZ .in                 14.75:  Bit Size 
 BTPL.psig              618.00:  Bit Press Loss 
 CABU.                      No:  Customer Abuse 
 COMM.                     ôÎT:  Run Comments 1 
 TCS .hr                 87.68:  Time Ciculation Ended 
 CV  .mps                 3.10:  Crit Velocity 
 DD1 .          Rashad Habibov:  Direct Drillr 1 
 DD2 .         Rasim Ibrahimov:  Direct Drillr 2 
 DDSV.               Geo-Pilot:  DD Service 
 DEFF.%                  98.00:  % Det Eff 
 DLRX.°/30m               1.48:  Dogleg Rot Max 
 DLSO.°/30m               0.50:  Dogleg Oriented 
 DLSX.°/30m               1.48:  Dogleg Str Max 
 DRET.      06.18.56 19-Apr-20:  Drill End Time 
 DRST.      15.00.56 15-Apr-20:  Drill Start Tim 
 DTIM.hr                 51.73:  Time Drilling 
 EDEP.m                3410.01:  End Depth 
 ENG1.        Marcelo Sandoval:  Engineer 1 
 ENG2.        Davud Huseynzade:  Engineer 2 
 ENG3.          Ruslan Safarov:  Engineer 3 
 ETIM.      04.00.56 20-Apr-20:  End Time 
 FLOI.gpm              1000.00:  Flow In 
 FLON.gpm               600.00:  Flow In Min 
 FLOS.cptm                0.00:  Fluid Loss 
 FLOX.gpm              1200.00:  Flow In Max 
 HFLO.                      No:  High Flow 
 HPRE.                     Yes:  High Pressure 
 HTEM.                      No:  High Temp 
 HYDO.m                   1.80:  Hydro Offset 
 IFIN.deg                70.04:  Inc, Final 
 IMAX.deg                70.56:  Inc Max 
 IMIN.deg                69.85:  Inc Min 
 IMND.m                3103.24:  Inc Min Depth 
 IMXD.m                2876.63:  Inc Max Depth 
 JARR.                      No:  Jarring 
 LETM.      06.18.56 19-Apr-20:  Log End Time 
 LOST.hr                     0:  Lost Rig Time 
 LSTM.      15.00.56 15-Apr-20:  Log Start Time 
 MDCL.ppm             42000.00:  Mud Chlorides 
 MDES.     Inversion Oil/Synthetic:  Mud Desc 
 DFD .sg                  1.58:  Mud Density 
 MDMN.sg                  1.58:  Dens Mud Min 
 MDMX.sg                  1.58:  Dens Mud Max 
 MOIL.                      71:  Run Mud Oil % 
 MOWR.                   71:29:  Run Mud OWR 
 MSND.                       0:  Run Mud Sand % 
 MSOL.                    23.3:  Run Mud Solids% 
 DFV .spqt               84.00:  Mud Viscosity 
 MWOD.in                  9.50:  MWD Tool OD 
 MWSI.                      No:  Serv Intrp, MWD 
 OTIM.hr                139.62:  Time Operating 
 PMAX.psia             5364.69:  Press Op, Max 
 PV  .cP                 80.00:  Mud PV 
 RUN .                     700:  Run Number 
 ROPA.m/hr               25.00:  ROP Avg 
 ROPN.m/hr               11.00:  ROP Min 
 ROPX.m/hr               36.00:  ROP Max 
 RPMA.rpm               130.00:  RPM Surface Avg 
 RPMN.rpm               120.00:  RPM Surface Min 
 RPMX.rpm               140.00:  RPM Surface Max 
 RRUN.                    0700:  Rig Run Number 
 SAZI.deg               183.25:  Azm, Start 
 SDEP.m                2084.00:  Start Depth 
 SIDD.                      No:  Serv Intrp, DD 
 SINC.deg                70.38:  Inc, Start 
 SPPA.psig             4800.00:  SPP Avg 
 SPPN.psig             4400.00:  SPP Min 
 SPPX.psig             5350.00:  SPP Max 
 STIM.      16.30.56 14-Apr-20:  Start Time 
 SVCS.                 DD, MWD:  Services 
 SVER.                    9.20:  Sperry Version 
 TDAT.m                1326.00:  Tot Depth Attmp 
 TDDF.                      No:  Trip for DD 
 TDLG.m                1326.00:  Tot Depth Loggd 
 TFF .                      No:  Trip for Fail 
 TQAA.f-kp               19.00:  Torque Abs Avg 
 TQAN.f-kp                8.00:  Torque Abs Min 
 TQAX.f-kp               27.00:  Torque Abs Max 
 TRRT.°/30m               0.50:  Turn Rotating 
 MRT .                    HCIM:  Maximum Recorded Temperature 
 TTMX.degC               82.35:  Max Tool Temp 
 VS01.       905245875X1Z1W1C8:  Virtual Str1 SN 
 VS02.       90608022F11V7D1A9:  Virtual Str2 SN 
 VS03.            90605473R5C9:  Virtual Str3 SN 
 WBMN.klb                11.00:  WOB Min 
 WOBA.klb                21.00:  WOB Avg 
 WOBX.klb                30.00:  WOB Max 
 YP  .lhf2               45.00:  Yield Point 
~Curve Information Block
#MNEM.UNIT                 API CODE     Curve Description
#---------               -----------    ---------------------------
 TIME.HHMMSS            00 000 000 000:  GT Time & Date
 GTDEPTH.m              00 000 000 000:  GT Depth
 GTPQH.psia             00 000 000 000:  GT HR Quartz Pressure
 GTTQ.degC              00 000 000 000:  GT Quartz Temperature
 GTTN.NONE              00 000 000 000:  GT Test Number
 GTET.sec               00 000 000 000:  GT Elapsed Test Time
 GTTVD.m                00 000 000 000:  GT True Vertical Depth
#Other Information
#
#WARRANTY: Halliburton will use its best efforts to furnish customers with 
#accurate information and interpretations that are part of, and incident to, the services 
#provided.  However, Halliburton cannot and does not warrant the accuracy 
#or correctness of such information and interpretations.  Under no circumstances should any 
#such information or interpretation be relied upon as the sole basis for any drilling, 
#completion, production, or financial decision or any procedure involving any risk to the 
#safety of any drilling venture, drilling rig or its crew or any other third party.  The 
#Customer has full responsibility for all drilling, completion and production operation.  
#Halliburton makes no representations or warranties, either expressed or 
#implied, including, but not limited to, the implied warranties of merchantability or fitness 
#for a particular purpose, with respect to the services rendered.  In no event will 
#Halliburton be liable for failure to obtain any particular results or for 
#any damages, including, but not limited to, indirect, special or consequential damages, 
#resulting from the use of any information or interpretation provided by Halliburton.
#
~A           TIME           GTDEPTH  GTPQH  GTTQ  GTTN  GTET   GTTVD  
# ...
   13:39:46.371.18-Apr-2020 3111.02 3318.27 69.99 5.00 253.11 1976.62
   13:39:46.571.18-Apr-2020 3111.02 3318.27 69.99 5.00 253.31 1976.62
   13:39:46.771.18-Apr-2020 3111.02 3318.26 69.99 5.00 253.51 1976.62
   13:39:46.971.18-Apr-2020 3111.02 3318.26 69.98 5.00 253.71 1976.62
   13:39:47.171.18-Apr-2020 3111.02 3318.25 69.98 5.00 253.91 1976.62
   13:39:47.371.18-Apr-2020 3111.02 3318.27 69.98 5.00 254.11 1976.62
   13:39:47.572.18-Apr-2020 3111.02 3318.27 69.98 5.00 254.31 1976.62
   13:39:47.772.18-Apr-2020 3111.02 3318.26 69.98 5.00 254.51 1976.62
   13:39:47.972.18-Apr-2020 3111.02 3318.26 69.98 5.00 254.71 1976.62
   13:39:48.172.18-Apr-2020 3111.02 3318.26 69.98 5.00 254.91 1976.62
   13:39:48.372.18-Apr-2020 3111.02 3318.25 69.98 5.00 255.11 1976.62
   13:39:48.572.18-Apr-2020 3111.02 3318.25 69.98 5.00 255.31 1976.62
   13:39:48.772.18-Apr-2020 3111.02 3318.26 69.98 5.00 255.51 1976.62
   13:39:48.972.18-Apr-2020 3111.02 3318.27 69.97 5.00 255.71 1976.62
   13:39:49.172.18-Apr-2020 3111.02 3318.26 69.97 5.00 255.92 1976.62
   13:39:49.372.18-Apr-2020 3111.02 3318.25 69.97 5.00 256.12 1976.62
   13:39:49.572.18-Apr-2020 3111.02 3318.25 69.97 5.00 256.32 1976.62
   13:39:49.773.18-Apr-2020 3111.02 3318.27 69.97 5.00 256.52 1976.62
   13:39:49.973.18-Apr-2020 3111.02 3318.26 69.97 5.00 256.72 1976.62
   13:39:50.173.18-Apr-2020 3111.02 3318.25 69.97 5.00 256.92 1976.62
   13:39:50.373.18-Apr-2020 3111.02 3318.25 69.97 5.00 257.12 1976.62
   13:39:50.573.18-Apr-2020 3111.02 3318.25 69.97 5.00 257.32 1976.62
   13:39:50.773.18-Apr-2020 3111.02 3318.27 69.96 5.00 257.52 1976.62
   13:39:50.973.18-Apr-2020 3111.02 3318.26 69.96 5.00 257.72 1976.62
   13:39:51.173.18-Apr-2020 3111.02 3318.26 69.96 5.00 257.92 1976.62
   13:39:51.373.18-Apr-2020 3111.02 3318.27 69.96 5.00 258.12 1976.62
   13:39:51.573.18-Apr-2020 3111.02 3318.27 69.96 5.00 258.32 1976.62
   13:39:51.773.18-Apr-2020 3111.02 3318.27 69.96 5.00 258.52 1976.62
   13:39:51.973.18-Apr-2020 3111.02 3318.26 69.96 5.00 258.72 1976.62
   13:39:52.174.18-Apr-2020 3111.02 3318.26 69.96 5.00 258.92 1976.62
   13:39:52.374.18-Apr-2020 3111.02 3318.26 69.96 5.00 259.12 1976.62
   13:39:52.574.18-Apr-2020 3111.02 3318.26 69.96 5.00 259.32 1976.62
   13:39:52.774.18-Apr-2020 3111.02 3318.27 69.95 5.00 259.52 1976.62
   13:39:52.974.18-Apr-2020 3111.02 3318.27 69.95 5.00 259.72 1976.62
   13:39:53.174.18-Apr-2020 3111.02 3318.25 69.95 5.00 259.92 1976.62
   13:39:53.374.18-Apr-2020 3111.02 3318.27 69.95 5.00 260.12 1976.62
   13:39:53.574.18-Apr-2020 3111.02 3318.27 69.95 5.00 260.32 1976.62
   13:39:53.774.18-Apr-2020 3111.02 3318.27 69.95 5.00 260.52 1976.62
   13:39:53.974.18-Apr-2020 3111.02 3318.26 69.95 5.00 260.72 1976.62
   13:39:54.174.18-Apr-2020 3111.02 3318.26 69.95 5.00 260.92 1976.62
   13:39:54.375.18-Apr-2020 3111.02 3318.27 69.95 5.00 261.12 1976.62
   13:39:54.575.18-Apr-2020 3111.02 3318.27 69.95 5.00 261.32 1976.62
   13:39:54.775.18-Apr-2020 3111.02 3318.26 69.94 5.00 261.52 1976.62
   13:39:54.975.18-Apr-2020 3111.02 3318.27 69.94 5.00 261.72 1976.62
   13:39:55.175.18-Apr-2020 3111.02 3318.27 69.94 5.00 261.92 1976.62
   13:39:55.375.18-Apr-2020 3111.02 3318.26 69.94 5.00 262.12 1976.62
   13:39:55.575.18-Apr-2020 3111.02 3318.26 69.94 5.00 262.32 1976.62
   13:39:55.775.18-Apr-2020 3111.02 3318.26 69.94 5.00 262.52 1976.62
   13:39:55.975.18-Apr-2020 3111.02 3318.26 69.94 5.00 262.72 1976.62
   13:39:56.175.18-Apr-2020 3111.02 3318.27 69.94 5.00 262.92 1976.62
   13:39:56.375.18-Apr-2020 3111.02 3318.27 69.93 5.00 263.12 1976.62
   13:39:56.576.18-Apr-2020 3111.02 3318.27 69.93 5.00 263.32 1976.62
   13:39:56.776.18-Apr-2020 3111.02 3318.28 69.93 5.00 263.52 1976.62
   13:39:56.976.18-Apr-2020 3111.02 3318.27 69.93 5.00 263.72 1976.62
   13:39:57.176.18-Apr-2020 3111.02 3318.26 69.93 5.00 263.92 1976.62
   13:39:57.376.18-Apr-2020 3111.02 3318.26 69.93 5.00 264.12 1976.62
   13:39:57.576.18-Apr-2020 3111.02 3318.26 69.93 5.00 264.32 1976.62
   13:39:57.776.18-Apr-2020 3111.02 3318.27 69.93 5.00 264.52 1976.62
   13:39:57.976.18-Apr-2020 3111.02 3318.26 69.93 5.00 264.72 1976.62
   13:39:58.176.18-Apr-2020 3111.02 3318.26 69.93 5.00 264.92 1976.62
   13:39:58.376.18-Apr-2020 3111.02 3318.26 69.92 5.00 265.12 1976.62
   13:39:58.576.18-Apr-2020 3111.02 3318.26 69.92 5.00 265.32 1976.62
   13:39:58.777.18-Apr-2020 3111.02 3318.25 69.92 5.00 265.52 1976.62
   13:39:58.977.18-Apr-2020 3111.02 3318.26 69.92 5.00 265.72 1976.62
   13:39:59.177.18-Apr-2020 3111.02 3318.26 69.92 5.00 265.92 1976.62
   13:39:59.377.18-Apr-2020 3111.02 3318.26 69.92 5.00 266.12 1976.62
   13:39:59.577.18-Apr-2020 3111.02 3318.26 69.92 5.00 266.32 1976.62
   13:39:59.777.18-Apr-2020 3111.02 3318.27 69.92 5.00 266.52 1976.62
   13:39:59.977.18-Apr-2020 3111.02 3318.26 69.92 5.00 266.72 1976.62
   13:40:00.177.18-Apr-2020 3111.02 3318.25 69.91 5.00 266.92 1976.62
   13:40:00.377.18-Apr-2020 3111.02 3318.25 69.91 5.00 267.12 1976.62
   13:40:00.577.18-Apr-2020 3111.02 3318.25 69.91 5.00 267.32 1976.62
   13:40:00.777.18-Apr-2020 3111.02 3318.25 69.91 5.00 267.52 1976.62
   13:40:00.978.18-Apr-2020 3111.02 3318.26 69.91 5.00 267.72 1976.62
   13:40:01.178.18-Apr-2020 3111.02 3318.25 69.91 5.00 267.92 1976.62
   13:40:01.378.18-Apr-2020 3111.02 3318.26 69.91 5.00 268.12 1976.62
   13:40:01.578.18-Apr-2020 3111.02 3318.26 69.91 5.00 268.32 1976.62
   13:40:01.778.18-Apr-2020 3111.02 3318.25 69.91 5.00 268.52 1976.62
   13:40:01.978.18-Apr-2020 3111.02 3318.25 69.90 5.00 268.72 1976.62
   13:40:02.178.18-Apr-2020 3111.02 3318.26 69.90 5.00 268.92 1976.62
   13:40:02.378.18-Apr-2020 3111.02 3318.25 69.90 5.00 269.12 1976.62
   13:40:02.578.18-Apr-2020 3111.02 3318.25 69.90 5.00 269.32 1976.62
   13:40:02.778.18-Apr-2020 3111.02 3318.26 69.90 5.00 269.52 1976.62
   13:40:02.978.18-Apr-2020 3111.02 3318.26 69.90 5.00 269.72 1976.62
   13:40:03.179.18-Apr-2020 3111.02 3318.26 69.90 5.00 269.92 1976.62
   13:40:03.379.18-Apr-2020 3111.02 3318.26 69.90 5.00 270.12 1976.62
   13:40:03.579.18-Apr-2020 3111.02 3318.26 69.90 5.00 270.32 1976.62
   13:40:03.779.18-Apr-2020 3111.02 3318.25 69.90 5.00 270.52 1976.62
   13:40:03.979.18-Apr-2020 3111.02 3318.26 69.89 5.00 270.72 1976.62
   13:40:04.179.18-Apr-2020 3111.02 3318.25 69.89 5.00 270.92 1976.62
   13:40:04.379.18-Apr-2020 3111.02 3318.25 69.89 5.00 271.12 1976.62
   13:40:04.579.18-Apr-2020 3111.02 3318.25 69.89 5.00 271.32 1976.62
   13:40:04.779.18-Apr-2020 3111.02 3318.25 69.89 5.00 271.52 1976.62
   13:40:04.979.18-Apr-2020 3111.02 3318.25 69.89 5.00 271.72 1976.62
   13:40:05.179.18-Apr-2020 3111.02 3318.24 69.89 5.00 271.92 1976.62
   13:40:05.380.18-Apr-2020 3111.02 3318.27 69.89 5.00 272.12 1976.62
   13:40:05.580.18-Apr-2020 3111.02 3318.27 69.89 5.00 272.32 1976.62
   13:40:05.780.18-Apr-2020 3111.02 3318.26 69.88 5.00 272.52 1976.62
   13:40:05.980.18-Apr-2020 3111.02 3318.27 69.88 5.00 272.72 1976.62
   13:40:06.180.18-Apr-2020 3111.02 3318.28 69.88 5.00 272.92 1976.62
   13:40:06.380.18-Apr-2020 3111.02 3318.27 69.88 5.00 273.12 1976.62
   13:40:06.580.18-Apr-2020 3111.02 3318.27 69.88 5.00 273.32 1976.62
   13:40:06.780.18-Apr-2020 3111.02 3318.26 69.88 5.00 273.52 1976.62
   13:40:06.980.18-Apr-2020 3111.02 3318.26 69.88 5.00 273.72 1976.62
   13:40:07.180.18-Apr-2020 3111.02 3318.28 69.88 5.00 273.92 1976.62
   13:40:07.380.18-Apr-2020 3111.02 3318.26 69.88 5.00 274.12 1976.62
   13:40:07.581.18-Apr-2020 3111.02 3318.26 69.88 5.00 274.32 1976.62
   13:40:07.781.18-Apr-2020 3111.02 3318.26 69.87 5.00 274.52 1976.62
   13:40:07.981.18-Apr-2020 3111.02 3314.21 69.87 5.00 274.72 1976.62
   13:40:08.181.18-Apr-2020 3111.02 3311.35 69.87 5.00 274.92 1976.62
   13:40:08.381.18-Apr-2020 3111.02 3311.39 69.87 5.00 275.12 1976.62
   13:40:08.581.18-Apr-2020 3111.02 3311.39 69.87 5.00 275.32 1976.62
   13:40:08.781.18-Apr-2020 3111.02 3311.45 69.87 5.00 275.52 1976.62
   13:40:08.981.18-Apr-2020 3111.02 3311.51 69.87 5.00 275.72 1976.62
   13:40:09.181.18-Apr-2020 3111.02 3311.65 69.87 5.00 275.92 1976.62
