~Version Information
 VERS.                  2.0:   CWLS log ASCII Standard -VERSION 2.0
 WRAP.                   NO:   One line per depth step
~Well Information Block
#MNEM.UNIT     VALUE/NAME     DESCRIPTION
#---------     -----------    ---------------------------
 STRT.S             00:39:23 18-Apr-20: START TIME 00:39:23 18-Apr-20
 STOP.S             00:46:19 18-Apr-20: STOP TIME  00:46:19 18-Apr-20
 STEP.S                   0.00: STEP TIME
 NULL.                 -999.25: NULL VALUE
 DFWT.                        :  DIST FWL TEXT
 DFST.                        :  DIST FSL TEXT
 DMF .                        :  DRILL MEAS FROM
 STIM.      16.29.52 23-Mar-20:  START TIME
 DATE.      16.29.52 23-Mar-20:  END TIME
 SPUD.               23-Mar-20:  SPUD DATE
 NREF.                    Grid:  NORTH REFERENCE
 HPTY.       Minimum Curvature:  HOLE POS TYPE
 DMOD.             Drill Model:  DRILL MOD DESC
 SVYD.                  Survey:  SURVEY DESC
 ILTD.               Lithology:  INTERP LTH DESC
 FTOP.          Formation Tops:  FORM TOPS DESC
 SON .        AZ-XX-0906252240:  JOB NUMBER
 RIG .             West Chirag:  RIG NAME
 PDAT.          Mean Sea Level:  PERMANENT DATUM
 FLD .                     ACG:  FIELD NAME
 CTRY.              Azerbaijan:  COUNTRY NAME
 WELL.           J23 (Slot 07):  WELL NAME
 SRVC.          Turan Drilling:  CONTRACTOR
 COMP.     BP Exploration (Casoian Sea) Ltd:  COMPANY
 WTYP.                Deviated:  WELL TYPE
 MDS .        Operator Entered:  MAG DATA SOURCE
 UWI .                     N/A:  UNIQUE WELL IDENTIFIER
 API .                     N/A:  API NUMBER
 BASE.              Azerbaijan:  LOGGING EQUIPMENT BASE LOCATION
 REGN.                   EESSA:  REGION
 PROV.                    Baku:  PROVINCE
 STAT.                    Baku:  STATE NAME
 MWDS.                     N/A:  MWD SHOP
 JOBN.        AZ-XX-0906252240:  JOB TICKET NUMB
 DOE .                     N/A:  DOE NUMBER
 DCON.         Sperry Drilling:  DIRECTNL CONTR
 UNIT.                     N/A:  LOGGING EQUIPMENT ID
 CNTY.                        :  COUNTY
 LOC .                        :  LOCATION
 LMF .             Drill Floor:  LOG MEASURED FROM
 TVDS.m                  43.00:  TVDSS CORRECTN
 LATI.deg                40.13:  LATITUDE
 LONG.deg                51.22:  LONGITUDE
 WHNS.m                   9.43:  WELL HEAD N/S
 WHEW.m                  -8.91:  WELL HEAD E/W
 UTMX.m              519005.06:  UTM X
 UTMY.m             4443793.85:  UTM Y
 DFWL.m                   0.00:  DISTANCE FWL
 DFSL.m                   0.00:  DISTANCE FSL
 SDEP.m                   0.00:  START DEPTH
 TDD .m                   0.00:  TOTAL DEPTH (DRILLER)
 VSDR.deg               179.88:  VERT SEC DIRECT
 GVFD.g                   1.00:  GRAVITY FIELD
 MFLD.nT              50281.00:  MAGNETIC FIELD
 MDIP.deg                59.58:  MAGNETIC DIP
 MDEC.deg                 6.48:  MAGNETIC DECL
 GRDC.deg                 0.14:  GRID CORRECTION
 AZTC.deg                 6.34:  AZM TOTAL CORR
 EPD .m                   0.00:  ELEVATION
 EGL .m                   0.00:  GROUND ELEVATION
 WDMS.m                 169.80:  WD ELEV
 APD .m                  43.00:  DEPTH ABOVE PD
 DEP .m                 354.17:  DEPTH
 AGAP.m                  43.00:  AIR GAP
 VSEW.m                  -8.91:  VERT SEC E/W
 VSNS.m                   9.43:  VERT SEC N/S
 EKB .m                   0.00:  KB ELEVATION
 EDF .m                  43.00:  DF ELEVATION
 TDL .m                1326.00:  TOTAL DEPTH (LOGGER)
 VSC .                       0:  VS TO CLOSURE
 MAGU.                 1850704:  MAGUTM CHECKSUM
~Parameter Information Block
#MNEM.UNIT       Value        Description
#---------     -----------    ---------------------------
 AV  .mps                 1.17:  Ann Velocity 
 AZIF.deg               184.04:  Azm, Final 
 BHAT.        Rotary Steerable:  BHA Type 
 BREV.rev            620000.00:  Rev Bit Total 
 BROT.°/30m               0.20:  Build Rotating 
 BS  .in                 14.75:  Bit Size 
 BSZ .in                 14.75:  Bit Size 
 BTPL.psig              618.00:  Bit Press Loss 
 CABU.                      No:  Customer Abuse 
 COMM.                     TŠT:  Run Comments 1 
 TCS .hr                 87.68:  Time Ciculation Ended 
 CV  .mps                 3.10:  Crit Velocity 
 DD1 .          Rashad Habibov:  Direct Drillr 1 
 DD2 .         Rasim Ibrahimov:  Direct Drillr 2 
 DDSV.               Geo-Pilot:  DD Service 
 DEFF.%                  98.00:  % Det Eff 
 DLRX.°/30m               1.48:  Dogleg Rot Max 
 DLSO.°/30m               0.50:  Dogleg Oriented 
 DLSX.°/30m               1.48:  Dogleg Str Max 
 DRET.      06.18.56 19-Apr-20:  Drill End Time 
 DRST.      15.00.56 15-Apr-20:  Drill Start Tim 
 DTIM.hr                 51.73:  Time Drilling 
 EDEP.m                3410.01:  End Depth 
 ENG1.        Marcelo Sandoval:  Engineer 1 
 ENG2.        Davud Huseynzade:  Engineer 2 
 ENG3.          Ruslan Safarov:  Engineer 3 
 ETIM.      04.00.56 20-Apr-20:  End Time 
 FLOI.gpm              1000.00:  Flow In 
 FLON.gpm               600.00:  Flow In Min 
 FLOS.cptm                0.00:  Fluid Loss 
 FLOX.gpm              1200.00:  Flow In Max 
 HFLO.                      No:  High Flow 
 HPRE.                     Yes:  High Pressure 
 HTEM.                      No:  High Temp 
 HYDO.m                   1.80:  Hydro Offset 
 IFIN.deg                70.04:  Inc, Final 
 IMAX.deg                70.56:  Inc Max 
 IMIN.deg                69.85:  Inc Min 
 IMND.m                3103.24:  Inc Min Depth 
 IMXD.m                2876.63:  Inc Max Depth 
 JARR.                      No:  Jarring 
 LETM.      06.18.56 19-Apr-20:  Log End Time 
 LOST.hr                     0:  Lost Rig Time 
 LSTM.      15.00.56 15-Apr-20:  Log Start Time 
 MDCL.ppm             42000.00:  Mud Chlorides 
 MDES.     Inversion Oil/Synthetic:  Mud Desc 
 DFD .sg                  1.58:  Mud Density 
 MDMN.sg                  1.58:  Dens Mud Min 
 MDMX.sg                  1.58:  Dens Mud Max 
 MOIL.                      71:  Run Mud Oil % 
 MOWR.                   71:29:  Run Mud OWR 
 MSND.                       0:  Run Mud Sand % 
 MSOL.                    23.3:  Run Mud Solids% 
 DFV .spqt               84.00:  Mud Viscosity 
 MWOD.in                  9.50:  MWD Tool OD 
 MWSI.                      No:  Serv Intrp, MWD 
 OTIM.hr                139.62:  Time Operating 
 PMAX.psia             5364.69:  Press Op, Max 
 PV  .cP                 80.00:  Mud PV 
 RUN .                     700:  Run Number 
 ROPA.m/hr               25.00:  ROP Avg 
 ROPN.m/hr               11.00:  ROP Min 
 ROPX.m/hr               36.00:  ROP Max 
 RPMA.rpm               130.00:  RPM Surface Avg 
 RPMN.rpm               120.00:  RPM Surface Min 
 RPMX.rpm               140.00:  RPM Surface Max 
 RRUN.                    0700:  Rig Run Number 
 SAZI.deg               183.25:  Azm, Start 
 SDEP.m                2084.00:  Start Depth 
 SIDD.                      No:  Serv Intrp, DD 
 SINC.deg                70.38:  Inc, Start 
 SPPA.psig             4800.00:  SPP Avg 
 SPPN.psig             4400.00:  SPP Min 
 SPPX.psig             5350.00:  SPP Max 
 STIM.      16.30.56 14-Apr-20:  Start Time 
 SVCS.                 DD, MWD:  Services 
 SVER.                    9.20:  Sperry Version 
 TDAT.m                1326.00:  Tot Depth Attmp 
 TDDF.                      No:  Trip for DD 
 TDLG.m                1326.00:  Tot Depth Loggd 
 TFF .                      No:  Trip for Fail 
 TQAA.f-kp               19.00:  Torque Abs Avg 
 TQAN.f-kp                8.00:  Torque Abs Min 
 TQAX.f-kp               27.00:  Torque Abs Max 
 TRRT.°/30m               0.50:  Turn Rotating 
 MRT .                    HCIM:  Maximum Recorded Temperature 
 TTMX.degC               82.35:  Max Tool Temp 
 VS01.       905245875X1Z1W1C8:  Virtual Str1 SN 
 VS02.       90608022F11V7D1A9:  Virtual Str2 SN 
 VS03.            90605473R5C9:  Virtual Str3 SN 
 WBMN.klb                11.00:  WOB Min 
 WOBA.klb                21.00:  WOB Avg 
 WOBX.klb                30.00:  WOB Max 
 YP  .lhf2               45.00:  Yield Point 
~Curve Information Block
#MNEM.UNIT                 API CODE     Curve Description
#---------               -----------    ---------------------------
 TIME.HHMMSS            00 000 000 000:  GT Time & Date
 GTDEPTH.m              00 000 000 000:  GT Depth
 GTPQH.psia             00 000 000 000:  GT HR Quartz Pressure
 GTTQ.degC              00 000 000 000:  GT Quartz Temperature
 GTTN.NONE              00 000 000 000:  GT Test Number
 GTET.sec               00 000 000 000:  GT Elapsed Test Time
 GTTVD.m                00 000 000 000:  GT True Vertical Depth
#Other Information
#
#WARRANTY: Halliburton will use its best efforts to furnish customers with 
#accurate information and interpretations that are part of, and incident to, the services 
#provided.  However, Halliburton cannot and does not warrant the accuracy 
#or correctness of such information and interpretations.  Under no circumstances should any 
#such information or interpretation be relied upon as the sole basis for any drilling, 
#completion, production, or financial decision or any procedure involving any risk to the 
#safety of any drilling venture, drilling rig or its crew or any other third party.  The 
#Customer has full responsibility for all drilling, completion and production operation.  
#Halliburton makes no representations or warranties, either expressed or 
#implied, including, but not limited to, the implied warranties of merchantability or fitness 
#for a particular purpose, with respect to the services rendered.  In no event will 
#Halliburton be liable for failure to obtain any particular results or for 
#any damages, including, but not limited to, indirect, special or consequential damages, 
#resulting from the use of any information or interpretation provided by Halliburton.
#
~A           TIME           GTDEPTH  GTPQH  GTTQ  GTTN  GTET   GTTVD  
# ...
   00:41:41.331.18-Apr-2020 2932.07 3431.54 63.33 1.00 138.02 1915.77
   00:41:41.531.18-Apr-2020 2932.07 3431.54 63.33 1.00 138.22 1915.77
   00:41:41.731.18-Apr-2020 2932.07 3431.54 63.33 1.00 138.42 1915.77
   00:41:41.931.18-Apr-2020 2932.07 3431.54 63.33 1.00 138.62 1915.77
   00:41:42.131.18-Apr-2020 2932.07 3431.52 63.33 1.00 138.82 1915.77
   00:41:42.331.18-Apr-2020 2932.07 3431.52 63.33 1.00 139.02 1915.77
   00:41:42.531.18-Apr-2020 2932.07 3431.52 63.33 1.00 139.22 1915.77
   00:41:42.731.18-Apr-2020 2932.07 3431.52 63.33 1.00 139.42 1915.77
   00:41:42.931.18-Apr-2020 2932.07 3431.51 63.33 1.00 139.62 1915.77
   00:41:43.131.18-Apr-2020 2932.07 3431.50 63.32 1.00 139.82 1915.77
   00:41:43.331.18-Apr-2020 2932.07 3431.52 63.32 1.00 140.02 1915.77
   00:41:43.531.18-Apr-2020 2932.07 3431.48 63.32 1.00 140.22 1915.77
   00:41:43.731.18-Apr-2020 2932.07 3431.52 63.32 1.00 140.42 1915.77
   00:41:43.931.18-Apr-2020 2932.07 3431.50 63.32 1.00 140.62 1915.77
   00:41:44.131.18-Apr-2020 2932.07 3431.45 63.32 1.00 140.82 1915.77
   00:41:44.331.18-Apr-2020 2932.07 3431.53 63.32 1.00 141.02 1915.77
   00:41:44.531.18-Apr-2020 2932.07 3431.53 63.32 1.00 141.22 1915.77
   00:41:44.731.18-Apr-2020 2932.07 3431.50 63.32 1.00 141.42 1915.77
   00:41:44.931.18-Apr-2020 2932.07 3431.45 63.32 1.00 141.62 1915.77
   00:41:45.131.18-Apr-2020 2932.07 3431.52 63.32 1.00 141.82 1915.77
   00:41:45.331.18-Apr-2020 2932.07 3431.51 63.32 1.00 142.02 1915.77
   00:41:45.531.18-Apr-2020 2932.07 3431.51 63.32 1.00 142.22 1915.77
   00:41:45.731.18-Apr-2020 2932.07 3431.48 63.32 1.00 142.42 1915.77
   00:41:45.931.18-Apr-2020 2932.07 3431.48 63.32 1.00 142.62 1915.77
   00:41:46.131.18-Apr-2020 2932.07 3431.50 63.32 1.00 142.82 1915.77
   00:41:46.331.18-Apr-2020 2932.07 3431.49 63.32 1.00 143.02 1915.77
   00:41:46.531.18-Apr-2020 2932.07 3431.49 63.32 1.00 143.22 1915.77
   00:41:46.731.18-Apr-2020 2932.07 3431.48 63.32 1.00 143.42 1915.77
   00:41:46.932.18-Apr-2020 2932.07 3431.49 63.32 1.00 143.62 1915.77
   00:41:47.132.18-Apr-2020 2932.07 3431.45 63.32 1.00 143.82 1915.77
   00:41:47.332.18-Apr-2020 2932.07 3431.49 63.32 1.00 144.02 1915.77
   00:41:47.532.18-Apr-2020 2932.07 3431.49 63.32 1.00 144.22 1915.77
   00:41:47.732.18-Apr-2020 2932.07 3431.48 63.32 1.00 144.42 1915.77
   00:41:47.932.18-Apr-2020 2932.07 3431.45 63.32 1.00 144.62 1915.77
   00:41:48.132.18-Apr-2020 2932.07 3431.47 63.32 1.00 144.82 1915.77
   00:41:48.332.18-Apr-2020 2932.07 3431.46 63.32 1.00 145.02 1915.77
   00:41:48.532.18-Apr-2020 2932.07 3431.46 63.32 1.00 145.22 1915.77
   00:41:48.732.18-Apr-2020 2932.07 3431.47 63.32 1.00 145.42 1915.77
   00:41:48.932.18-Apr-2020 2932.07 3431.45 63.31 1.00 145.62 1915.77
   00:41:49.132.18-Apr-2020 2932.07 3431.46 63.31 1.00 145.82 1915.77
   00:41:49.332.18-Apr-2020 2932.07 3431.46 63.31 1.00 146.02 1915.77
   00:41:49.532.18-Apr-2020 2932.07 3431.46 63.31 1.00 146.22 1915.77
   00:41:49.732.18-Apr-2020 2932.07 3431.47 63.31 1.00 146.42 1915.77
   00:41:49.932.18-Apr-2020 2932.07 3431.46 63.31 1.00 146.62 1915.77
   00:41:50.132.18-Apr-2020 2932.07 3431.44 63.31 1.00 146.82 1915.77
   00:41:50.332.18-Apr-2020 2932.07 3431.49 63.31 1.00 147.02 1915.77
   00:41:50.532.18-Apr-2020 2932.07 3431.49 63.31 1.00 147.22 1915.77
   00:41:50.732.18-Apr-2020 2932.07 3431.46 63.31 1.00 147.42 1915.77
   00:41:50.932.18-Apr-2020 2932.07 3431.47 63.31 1.00 147.62 1915.77
   00:41:51.132.18-Apr-2020 2932.07 3431.46 63.31 1.00 147.82 1915.77
   00:41:51.332.18-Apr-2020 2932.07 3431.46 63.31 1.00 148.02 1915.77
   00:41:51.532.18-Apr-2020 2932.07 3431.46 63.31 1.00 148.22 1915.77
   00:41:51.732.18-Apr-2020 2932.07 3431.47 63.31 1.00 148.42 1915.77
   00:41:51.932.18-Apr-2020 2932.07 3431.45 63.31 1.00 148.62 1915.77
   00:41:52.132.18-Apr-2020 2932.07 3431.46 63.31 1.00 148.82 1915.77
   00:41:52.332.18-Apr-2020 2932.07 3431.45 63.31 1.00 149.02 1915.77
   00:41:52.532.18-Apr-2020 2932.07 3431.45 63.31 1.00 149.22 1915.77
   00:41:52.732.18-Apr-2020 2932.07 3431.42 63.31 1.00 149.42 1915.77
   00:41:52.932.18-Apr-2020 2932.07 3431.47 63.31 1.00 149.62 1915.77
   00:41:53.133.18-Apr-2020 2932.07 3431.44 63.31 1.00 149.82 1915.77
   00:41:53.333.18-Apr-2020 2932.07 3431.43 63.31 1.00 150.02 1915.77
   00:41:53.533.18-Apr-2020 2932.07 3431.43 63.31 1.00 150.22 1915.77
   00:41:53.733.18-Apr-2020 2932.07 3431.45 63.31 1.00 150.42 1915.77
   00:41:53.933.18-Apr-2020 2932.07 3431.45 63.31 1.00 150.62 1915.77
   00:41:54.133.18-Apr-2020 2932.07 3431.40 63.31 1.00 150.82 1915.77
   00:41:54.333.18-Apr-2020 2932.07 3431.41 63.31 1.00 151.02 1915.77
   00:41:54.533.18-Apr-2020 2932.07 3431.43 63.31 1.00 151.22 1915.77
   00:41:54.733.18-Apr-2020 2932.07 3431.43 63.31 1.00 151.42 1915.77
   00:41:54.933.18-Apr-2020 2932.07 3431.42 63.30 1.00 151.62 1915.77
   00:41:55.133.18-Apr-2020 2932.07 3431.42 63.30 1.00 151.82 1915.77
   00:41:55.333.18-Apr-2020 2932.07 3431.35 63.30 1.00 152.02 1915.77
   00:41:55.533.18-Apr-2020 2932.07 3431.40 63.30 1.00 152.22 1915.77
   00:41:55.733.18-Apr-2020 2932.07 3431.41 63.30 1.00 152.42 1915.77
   00:41:55.933.18-Apr-2020 2932.07 3431.39 63.30 1.00 152.62 1915.77
   00:41:56.133.18-Apr-2020 2932.07 3431.39 63.30 1.00 152.82 1915.77
   00:41:56.333.18-Apr-2020 2932.07 3431.39 63.30 1.00 153.02 1915.77
   00:41:56.533.18-Apr-2020 2932.07 3431.38 63.30 1.00 153.22 1915.77
   00:41:56.733.18-Apr-2020 2932.07 3431.40 63.30 1.00 153.42 1915.77
   00:41:56.933.18-Apr-2020 2932.07 3431.39 63.30 1.00 153.62 1915.77
   00:41:57.133.18-Apr-2020 2932.07 3431.36 63.30 1.00 153.82 1915.77
   00:41:57.333.18-Apr-2020 2932.07 3431.37 63.30 1.00 154.02 1915.77
   00:41:57.533.18-Apr-2020 2932.07 3431.37 63.30 1.00 154.22 1915.77
   00:41:57.733.18-Apr-2020 2932.07 3431.34 63.30 1.00 154.42 1915.77
   00:41:57.933.18-Apr-2020 2932.07 3431.35 63.30 1.00 154.62 1915.77
   00:41:58.133.18-Apr-2020 2932.07 3431.34 63.30 1.00 154.83 1915.77
   00:41:58.333.18-Apr-2020 2932.07 3431.33 63.30 1.00 155.03 1915.77
   00:41:58.533.18-Apr-2020 2932.07 3431.35 63.30 1.00 155.23 1915.77
   00:41:58.733.18-Apr-2020 2932.07 3431.35 63.30 1.00 155.43 1915.77
   00:41:58.933.18-Apr-2020 2932.07 3431.34 63.30 1.00 155.63 1915.77
   00:41:59.134.18-Apr-2020 2932.07 3431.34 63.30 1.00 155.83 1915.77
   00:41:59.334.18-Apr-2020 2932.07 3431.31 63.30 1.00 156.03 1915.77
   00:41:59.534.18-Apr-2020 2932.07 3431.35 63.30 1.00 156.23 1915.77
   00:41:59.734.18-Apr-2020 2932.07 3431.33 63.30 1.00 156.43 1915.77
   00:41:59.934.18-Apr-2020 2932.07 3431.35 63.30 1.00 156.63 1915.77
   00:42:00.134.18-Apr-2020 2932.07 3431.31 63.30 1.00 156.83 1915.77
   00:42:00.334.18-Apr-2020 2932.07 3431.32 63.30 1.00 157.03 1915.77
   00:42:00.534.18-Apr-2020 2932.07 3431.32 63.30 1.00 157.23 1915.77
   00:42:00.734.18-Apr-2020 2932.07 3431.32 63.29 1.00 157.43 1915.77
   00:42:00.934.18-Apr-2020 2932.07 3431.32 63.29 1.00 157.63 1915.77
   00:42:01.134.18-Apr-2020 2932.07 3431.29 63.29 1.00 157.83 1915.77
   00:42:01.334.18-Apr-2020 2932.07 3431.30 63.29 1.00 158.03 1915.77
   00:42:01.534.18-Apr-2020 2932.07 3431.30 63.29 1.00 158.23 1915.77
   00:42:01.734.18-Apr-2020 2932.07 3431.28 63.29 1.00 158.43 1915.77
   00:42:01.934.18-Apr-2020 2932.07 3431.25 63.29 1.00 158.63 1915.77
   00:42:02.134.18-Apr-2020 2932.07 3431.27 63.29 1.00 158.83 1915.77
   00:42:02.334.18-Apr-2020 2932.07 3431.30 63.29 1.00 159.03 1915.77
   00:42:02.534.18-Apr-2020 2932.07 3431.30 63.29 1.00 159.23 1915.77
   00:42:02.734.18-Apr-2020 2932.07 3431.28 63.29 1.00 159.43 1915.77
   00:42:02.934.18-Apr-2020 2932.07 3431.27 63.29 1.00 159.63 1915.77
   00:42:03.134.18-Apr-2020 2932.07 3431.29 63.29 1.00 159.83 1915.77
   00:42:03.334.18-Apr-2020 2932.07 3431.30 63.29 1.00 160.03 1915.77
   00:42:03.534.18-Apr-2020 2932.07 3431.27 63.29 1.00 160.23 1915.77
   00:42:03.734.18-Apr-2020 2932.07 3431.27 63.29 1.00 160.43 1915.77
   00:42:03.934.18-Apr-2020 2932.07 3431.28 63.29 1.00 160.63 1915.77
   00:42:04.134.18-Apr-2020 2932.07 3431.29 63.29 1.00 160.83 1915.77
