~Version Information
 VERS.                  2.0:   CWLS log ASCII Standard -VERSION 2.0
 WRAP.                   NO:   One line per depth step
~Well Information Block
#MNEM.UNIT     VALUE/NAME     DESCRIPTION
#---------     -----------    ---------------------------
 STRT.S             15:35:19 18-Apr-20: START TIME 15:35:19 18-Apr-20
 STOP.S             15:42:14 18-Apr-20: STOP TIME  15:42:14 18-Apr-20
 STEP.S                   0.00: STEP TIME
 NULL.                 -999.25: NULL VALUE
 DFWT.                        :  DIST FWL TEXT
 DFST.                        :  DIST FSL TEXT
 DMF .                        :  DRILL MEAS FROM
 STIM.      16.29.52 23-Mar-20:  START TIME
 DATE.      16.29.52 23-Mar-20:  END TIME
 SPUD.               23-Mar-20:  SPUD DATE
 NREF.                    Grid:  NORTH REFERENCE
 HPTY.       Minimum Curvature:  HOLE POS TYPE
 DMOD.             Drill Model:  DRILL MOD DESC
 SVYD.                  Survey:  SURVEY DESC
 ILTD.               Lithology:  INTERP LTH DESC
 FTOP.          Formation Tops:  FORM TOPS DESC
 SON .        AZ-XX-0906252240:  JOB NUMBER
 RIG .             West Chirag:  RIG NAME
 PDAT.          Mean Sea Level:  PERMANENT DATUM
 FLD .                     ACG:  FIELD NAME
 CTRY.              Azerbaijan:  COUNTRY NAME
 WELL.           J23 (Slot 07):  WELL NAME
 SRVC.          Turan Drilling:  CONTRACTOR
 COMP.     BP Exploration (Casoian Sea) Ltd:  COMPANY
 WTYP.                Deviated:  WELL TYPE
 MDS .        Operator Entered:  MAG DATA SOURCE
 UWI .                     N/A:  UNIQUE WELL IDENTIFIER
 API .                     N/A:  API NUMBER
 BASE.              Azerbaijan:  LOGGING EQUIPMENT BASE LOCATION
 REGN.                   EESSA:  REGION
 PROV.                    Baku:  PROVINCE
 STAT.                    Baku:  STATE NAME
 MWDS.                     N/A:  MWD SHOP
 JOBN.        AZ-XX-0906252240:  JOB TICKET NUMB
 DOE .                     N/A:  DOE NUMBER
 DCON.         Sperry Drilling:  DIRECTNL CONTR
 UNIT.                     N/A:  LOGGING EQUIPMENT ID
 CNTY.                        :  COUNTY
 LOC .                        :  LOCATION
 LMF .             Drill Floor:  LOG MEASURED FROM
 TVDS.m                  43.00:  TVDSS CORRECTN
 LATI.deg                40.13:  LATITUDE
 LONG.deg                51.22:  LONGITUDE
 WHNS.m                   9.43:  WELL HEAD N/S
 WHEW.m                  -8.91:  WELL HEAD E/W
 UTMX.m              519005.06:  UTM X
 UTMY.m             4443793.85:  UTM Y
 DFWL.m                   0.00:  DISTANCE FWL
 DFSL.m                   0.00:  DISTANCE FSL
 SDEP.m                   0.00:  START DEPTH
 TDD .m                   0.00:  TOTAL DEPTH (DRILLER)
 VSDR.deg               179.88:  VERT SEC DIRECT
 GVFD.g                   1.00:  GRAVITY FIELD
 MFLD.nT              50281.00:  MAGNETIC FIELD
 MDIP.deg                59.58:  MAGNETIC DIP
 MDEC.deg                 6.48:  MAGNETIC DECL
 GRDC.deg                 0.14:  GRID CORRECTION
 AZTC.deg                 6.34:  AZM TOTAL CORR
 EPD .m                   0.00:  ELEVATION
 EGL .m                   0.00:  GROUND ELEVATION
 WDMS.m                 169.80:  WD ELEV
 APD .m                  43.00:  DEPTH ABOVE PD
 DEP .m                 354.17:  DEPTH
 AGAP.m                  43.00:  AIR GAP
 VSEW.m                  -8.91:  VERT SEC E/W
 VSNS.m                   9.43:  VERT SEC N/S
 EKB .m                   0.00:  KB ELEVATION
 EDF .m                  43.00:  DF ELEVATION
 TDL .m                1326.00:  TOTAL DEPTH (LOGGER)
 VSC .                       0:  VS TO CLOSURE
 MAGU.                 1850704:  MAGUTM CHECKSUM
~Parameter Information Block
#MNEM.UNIT       Value        Description
#---------     -----------    ---------------------------
 AV  .mps                 1.17:  Ann Velocity 
 AZIF.deg               184.04:  Azm, Final 
 BHAT.        Rotary Steerable:  BHA Type 
 BREV.rev            620000.00:  Rev Bit Total 
 BROT.°/30m               0.20:  Build Rotating 
 BS  .in                 14.75:  Bit Size 
 BSZ .in                 14.75:  Bit Size 
 BTPL.psig              618.00:  Bit Press Loss 
 CABU.                      No:  Customer Abuse 
 COMM.                     ü—`:  Run Comments 1 
 TCS .hr                 87.68:  Time Ciculation Ended 
 CV  .mps                 3.10:  Crit Velocity 
 DD1 .          Rashad Habibov:  Direct Drillr 1 
 DD2 .         Rasim Ibrahimov:  Direct Drillr 2 
 DDSV.               Geo-Pilot:  DD Service 
 DEFF.%                  98.00:  % Det Eff 
 DLRX.°/30m               1.48:  Dogleg Rot Max 
 DLSO.°/30m               0.50:  Dogleg Oriented 
 DLSX.°/30m               1.48:  Dogleg Str Max 
 DRET.      06.18.56 19-Apr-20:  Drill End Time 
 DRST.      15.00.56 15-Apr-20:  Drill Start Tim 
 DTIM.hr                 51.73:  Time Drilling 
 EDEP.m                3410.01:  End Depth 
 ENG1.        Marcelo Sandoval:  Engineer 1 
 ENG2.        Davud Huseynzade:  Engineer 2 
 ENG3.          Ruslan Safarov:  Engineer 3 
 ETIM.      04.00.56 20-Apr-20:  End Time 
 FLOI.gpm              1000.00:  Flow In 
 FLON.gpm               600.00:  Flow In Min 
 FLOS.cptm                0.00:  Fluid Loss 
 FLOX.gpm              1200.00:  Flow In Max 
 HFLO.                      No:  High Flow 
 HPRE.                     Yes:  High Pressure 
 HTEM.                      No:  High Temp 
 HYDO.m                   1.80:  Hydro Offset 
 IFIN.deg                70.04:  Inc, Final 
 IMAX.deg                70.56:  Inc Max 
 IMIN.deg                69.85:  Inc Min 
 IMND.m                3103.24:  Inc Min Depth 
 IMXD.m                2876.63:  Inc Max Depth 
 JARR.                      No:  Jarring 
 LETM.      06.18.56 19-Apr-20:  Log End Time 
 LOST.hr                     0:  Lost Rig Time 
 LSTM.      15.00.56 15-Apr-20:  Log Start Time 
 MDCL.ppm             42000.00:  Mud Chlorides 
 MDES.     Inversion Oil/Synthetic:  Mud Desc 
 DFD .sg                  1.58:  Mud Density 
 MDMN.sg                  1.58:  Dens Mud Min 
 MDMX.sg                  1.58:  Dens Mud Max 
 MOIL.                      71:  Run Mud Oil % 
 MOWR.                   71:29:  Run Mud OWR 
 MSND.                       0:  Run Mud Sand % 
 MSOL.                    23.3:  Run Mud Solids% 
 DFV .spqt               84.00:  Mud Viscosity 
 MWOD.in                  9.50:  MWD Tool OD 
 MWSI.                      No:  Serv Intrp, MWD 
 OTIM.hr                139.62:  Time Operating 
 PMAX.psia             5364.69:  Press Op, Max 
 PV  .cP                 80.00:  Mud PV 
 RUN .                     700:  Run Number 
 ROPA.m/hr               25.00:  ROP Avg 
 ROPN.m/hr               11.00:  ROP Min 
 ROPX.m/hr               36.00:  ROP Max 
 RPMA.rpm               130.00:  RPM Surface Avg 
 RPMN.rpm               120.00:  RPM Surface Min 
 RPMX.rpm               140.00:  RPM Surface Max 
 RRUN.                    0700:  Rig Run Number 
 SAZI.deg               183.25:  Azm, Start 
 SDEP.m                2084.00:  Start Depth 
 SIDD.                      No:  Serv Intrp, DD 
 SINC.deg                70.38:  Inc, Start 
 SPPA.psig             4800.00:  SPP Avg 
 SPPN.psig             4400.00:  SPP Min 
 SPPX.psig             5350.00:  SPP Max 
 STIM.      16.30.56 14-Apr-20:  Start Time 
 SVCS.                 DD, MWD:  Services 
 SVER.                    9.20:  Sperry Version 
 TDAT.m                1326.00:  Tot Depth Attmp 
 TDDF.                      No:  Trip for DD 
 TDLG.m                1326.00:  Tot Depth Loggd 
 TFF .                      No:  Trip for Fail 
 TQAA.f-kp               19.00:  Torque Abs Avg 
 TQAN.f-kp                8.00:  Torque Abs Min 
 TQAX.f-kp               27.00:  Torque Abs Max 
 TRRT.°/30m               0.50:  Turn Rotating 
 MRT .                    HCIM:  Maximum Recorded Temperature 
 TTMX.degC               82.35:  Max Tool Temp 
 VS01.       905245875X1Z1W1C8:  Virtual Str1 SN 
 VS02.       90608022F11V7D1A9:  Virtual Str2 SN 
 VS03.            90605473R5C9:  Virtual Str3 SN 
 WBMN.klb                11.00:  WOB Min 
 WOBA.klb                21.00:  WOB Avg 
 WOBX.klb                30.00:  WOB Max 
 YP  .lhf2               45.00:  Yield Point 
~Curve Information Block
#MNEM.UNIT                 API CODE     Curve Description
#---------               -----------    ---------------------------
 TIME.HHMMSS            00 000 000 000:  GT Time & Date
 GTDEPTH.m              00 000 000 000:  GT Depth
 GTPQH.psia             00 000 000 000:  GT HR Quartz Pressure
 GTTQ.degC              00 000 000 000:  GT Quartz Temperature
 GTTN.NONE              00 000 000 000:  GT Test Number
 GTET.sec               00 000 000 000:  GT Elapsed Test Time
 GTTVD.m                00 000 000 000:  GT True Vertical Depth
#Other Information
#
#WARRANTY: Halliburton will use its best efforts to furnish customers with 
#accurate information and interpretations that are part of, and incident to, the services 
#provided.  However, Halliburton cannot and does not warrant the accuracy 
#or correctness of such information and interpretations.  Under no circumstances should any 
#such information or interpretation be relied upon as the sole basis for any drilling, 
#completion, production, or financial decision or any procedure involving any risk to the 
#safety of any drilling venture, drilling rig or its crew or any other third party.  The 
#Customer has full responsibility for all drilling, completion and production operation.  
#Halliburton makes no representations or warranties, either expressed or 
#implied, including, but not limited to, the implied warranties of merchantability or fitness 
#for a particular purpose, with respect to the services rendered.  In no event will 
#Halliburton be liable for failure to obtain any particular results or for 
#any damages, including, but not limited to, indirect, special or consequential damages, 
#resulting from the use of any information or interpretation provided by Halliburton.
#
~A           TIME           GTDEPTH  GTPQH  GTTQ  GTTN  GTET   GTTVD  
# ...
   15:41:27.316.18-Apr-2020 3140.87 1186.53 70.46 6.00 367.96 1986.80
   15:41:27.516.18-Apr-2020 3140.87 1186.53 70.46 6.00 368.16 1986.80
   15:41:27.715.18-Apr-2020 3140.87 1186.54 70.46 6.00 368.36 1986.80
   15:41:27.915.18-Apr-2020 3140.87 1186.55 70.46 6.00 368.56 1986.80
   15:41:28.115.18-Apr-2020 3140.87 1186.55 70.46 6.00 368.76 1986.80
   15:41:28.315.18-Apr-2020 3140.87 1186.56 70.46 6.00 368.96 1986.80
   15:41:28.515.18-Apr-2020 3140.87 1186.56 70.46 6.00 369.16 1986.80
   15:41:28.715.18-Apr-2020 3140.87 1186.57 70.45 6.00 369.36 1986.80
   15:41:28.915.18-Apr-2020 3140.87 1186.57 70.45 6.00 369.56 1986.80
   15:41:29.115.18-Apr-2020 3140.87 1186.57 70.45 6.00 369.76 1986.80
   15:41:29.315.18-Apr-2020 3140.87 1186.60 70.45 6.00 369.96 1986.80
   15:41:29.515.18-Apr-2020 3140.87 1186.60 70.45 6.00 370.16 1986.80
   15:41:29.715.18-Apr-2020 3140.87 1186.60 70.45 6.00 370.36 1986.80
   15:41:29.915.18-Apr-2020 3140.87 1186.61 70.45 6.00 370.56 1986.80
   15:41:30.115.18-Apr-2020 3140.87 1186.63 70.45 6.00 370.76 1986.80
   15:41:30.315.18-Apr-2020 3140.87 1186.64 70.45 6.00 370.96 1986.80
   15:41:30.515.18-Apr-2020 3140.87 1186.63 70.45 6.00 371.16 1986.80
   15:41:30.715.18-Apr-2020 3140.87 1186.65 70.45 6.00 371.36 1986.80
   15:41:30.915.18-Apr-2020 3140.87 1186.65 70.44 6.00 371.56 1986.80
   15:41:31.115.18-Apr-2020 3140.87 1186.68 70.44 6.00 371.76 1986.80
   15:41:31.315.18-Apr-2020 3140.87 1186.68 70.44 6.00 371.96 1986.80
   15:41:31.515.18-Apr-2020 3140.87 1186.69 70.44 6.00 372.16 1986.80
   15:41:31.715.18-Apr-2020 3140.87 1186.72 70.44 6.00 372.36 1986.80
   15:41:31.915.18-Apr-2020 3140.87 1186.73 70.44 6.00 372.56 1986.80
   15:41:32.115.18-Apr-2020 3140.87 1186.73 70.44 6.00 372.76 1986.80
   15:41:32.315.18-Apr-2020 3140.87 1186.75 70.44 6.00 372.96 1986.80
   15:41:32.515.18-Apr-2020 3140.87 1186.75 70.44 6.00 373.16 1986.80
   15:41:32.715.18-Apr-2020 3140.87 1186.76 70.44 6.00 373.36 1986.80
   15:41:32.915.18-Apr-2020 3140.87 1186.80 70.44 6.00 373.56 1986.80
   15:41:33.115.18-Apr-2020 3140.87 1186.80 70.44 6.00 373.76 1986.80
   15:41:33.315.18-Apr-2020 3140.87 1186.82 70.44 6.00 373.96 1986.80
   15:41:33.515.18-Apr-2020 3140.87 1186.82 70.44 6.00 374.16 1986.80
   15:41:33.715.18-Apr-2020 3140.87 1186.85 70.43 6.00 374.36 1986.80
   15:41:33.915.18-Apr-2020 3140.87 1186.86 70.43 6.00 374.56 1986.80
   15:41:34.115.18-Apr-2020 3140.87 1186.88 70.43 6.00 374.76 1986.80
   15:41:34.315.18-Apr-2020 3140.87 1186.89 70.43 6.00 374.96 1986.80
   15:41:34.515.18-Apr-2020 3140.87 1186.89 70.43 6.00 375.16 1986.80
   15:41:34.715.18-Apr-2020 3140.87 1186.91 70.43 6.00 375.36 1986.80
   15:41:34.915.18-Apr-2020 3140.87 1186.92 70.43 6.00 375.56 1986.80
   15:41:35.115.18-Apr-2020 3140.87 1186.93 70.43 6.00 375.76 1986.80
   15:41:35.315.18-Apr-2020 3140.87 1186.94 70.43 6.00 375.96 1986.80
   15:41:35.515.18-Apr-2020 3140.87 1186.94 70.43 6.00 376.16 1986.80
   15:41:35.715.18-Apr-2020 3140.87 1186.97 70.43 6.00 376.36 1986.80
   15:41:35.915.18-Apr-2020 3140.87 1186.98 70.42 6.00 376.56 1986.80
   15:41:36.115.18-Apr-2020 3140.87 1186.99 70.42 6.00 376.76 1986.80
   15:41:36.314.18-Apr-2020 3140.87 1186.99 70.42 6.00 376.96 1986.80
   15:41:36.514.18-Apr-2020 3140.87 1186.99 70.42 6.00 377.16 1986.80
   15:41:36.714.18-Apr-2020 3140.87 1187.01 70.42 6.00 377.36 1986.80
   15:41:36.914.18-Apr-2020 3140.87 1187.01 70.42 6.00 377.56 1986.80
   15:41:37.114.18-Apr-2020 3140.87 1188.00 70.42 6.00 377.76 1986.80
   15:41:37.314.18-Apr-2020 3140.87 1193.21 70.42 6.00 377.96 1986.80
   15:41:37.514.18-Apr-2020 3140.87 1193.21 70.42 6.00 378.16 1986.80
   15:41:37.714.18-Apr-2020 3140.87 1208.37 70.42 6.00 378.36 1986.80
   15:41:37.914.18-Apr-2020 3140.87 1215.30 70.42 6.00 378.56 1986.80
   15:41:38.114.18-Apr-2020 3140.87 1221.78 70.42 6.00 378.76 1986.80
   15:41:38.314.18-Apr-2020 3140.87 1227.73 70.41 6.00 378.96 1986.80
   15:41:38.514.18-Apr-2020 3140.87 1233.13 70.41 6.00 379.16 1986.80
   15:41:38.714.18-Apr-2020 3140.87 1233.73 70.41 6.00 379.36 1986.80
   15:41:38.914.18-Apr-2020 3140.87 1213.37 70.41 6.00 379.56 1986.80
   15:41:39.114.18-Apr-2020 3140.87 1210.48 70.41 6.00 379.76 1986.80
   15:41:39.314.18-Apr-2020 3140.87 1234.71 70.41 6.00 379.96 1986.80
   15:41:39.514.18-Apr-2020 3140.87 1234.71 70.41 6.00 380.16 1986.80
   15:41:39.714.18-Apr-2020 3140.87 1384.56 70.41 6.00 380.36 1986.80
   15:41:39.914.18-Apr-2020 3140.87 2239.15 70.41 6.00 380.56 1986.80
   15:41:40.114.18-Apr-2020 3140.87 2686.62 70.41 6.00 380.76 1986.80
   15:41:40.314.18-Apr-2020 3140.87 2613.37 70.41 6.00 380.96 1986.80
   15:41:40.514.18-Apr-2020 3140.87 2613.37 70.41 6.00 381.16 1986.80
   15:41:40.714.18-Apr-2020 3140.87 2547.80 70.41 6.00 381.36 1986.80
   15:41:40.914.18-Apr-2020 3140.87 2523.90 70.41 6.00 381.56 1986.80
   15:41:41.114.18-Apr-2020 3140.87 2506.85 70.41 6.00 381.76 1986.80
   15:41:41.314.18-Apr-2020 3140.87 2492.72 70.41 6.00 381.96 1986.80
   15:41:41.514.18-Apr-2020 3140.87 2492.72 70.41 6.00 382.16 1986.80
   15:41:41.714.18-Apr-2020 3140.87 2469.95 70.41 6.00 382.36 1986.80
   15:41:41.914.18-Apr-2020 3140.87 2460.23 70.41 6.00 382.56 1986.80
   15:41:42.114.18-Apr-2020 3140.87 2451.33 70.41 6.00 382.76 1986.80
   15:41:42.314.18-Apr-2020 3140.87 2443.62 70.41 6.00 382.96 1986.80
   15:41:42.514.18-Apr-2020 3140.87 2436.81 70.41 6.00 383.16 1986.80
   15:41:42.714.18-Apr-2020 3140.87 2430.58 70.41 6.00 383.36 1986.80
   15:41:42.914.18-Apr-2020 3140.87 2424.87 70.41 6.00 383.56 1986.80
   15:41:43.114.18-Apr-2020 3140.87 2419.56 70.41 6.00 383.76 1986.80
   15:41:43.314.18-Apr-2020 3140.87 2414.53 70.41 6.00 383.96 1986.80
   15:41:43.514.18-Apr-2020 3140.87 2409.88 70.41 6.00 384.16 1986.80
   15:41:43.714.18-Apr-2020 3140.87 2405.41 70.41 6.00 384.36 1986.80
   15:41:43.914.18-Apr-2020 3140.87 2401.17 70.41 6.00 384.56 1986.80
   15:41:44.114.18-Apr-2020 3140.87 2397.14 70.41 6.00 384.76 1986.80
   15:41:44.314.18-Apr-2020 3140.87 2393.34 70.41 6.00 384.96 1986.80
   15:41:44.514.18-Apr-2020 3140.87 2393.34 70.41 6.00 385.16 1986.80
   15:41:44.714.18-Apr-2020 3140.87 2386.01 70.40 6.00 385.36 1986.80
   15:41:44.913.18-Apr-2020 3140.87 2382.47 70.40 6.00 385.56 1986.80
   15:41:45.113.18-Apr-2020 3140.87 2379.21 70.40 6.00 385.76 1986.80
   15:41:45.313.18-Apr-2020 3140.87 2376.14 70.40 6.00 385.96 1986.80
   15:41:45.513.18-Apr-2020 3140.87 2376.14 70.40 6.00 386.16 1986.80
   15:41:45.713.18-Apr-2020 3140.87 2371.76 70.40 6.00 386.36 1986.80
   15:41:45.913.18-Apr-2020 3140.87 2367.90 70.40 6.00 386.56 1986.80
   15:41:46.113.18-Apr-2020 3140.87 2360.24 70.40 6.00 386.76 1986.80
   15:41:46.313.18-Apr-2020 3140.87 2418.40 70.40 6.00 386.96 1986.80
   15:41:46.513.18-Apr-2020 3140.87 2506.96 70.40 6.00 387.16 1986.80
   15:41:46.713.18-Apr-2020 3140.87 2701.19 70.40 6.00 387.36 1986.80
   15:41:46.913.18-Apr-2020 3140.87 3377.43 70.40 6.00 387.56 1986.80
   15:41:47.113.18-Apr-2020 3140.87 3622.78 70.40 6.00 387.76 1986.80
   15:41:47.313.18-Apr-2020 3140.87 3685.15 70.40 6.00 387.96 1986.80
   15:41:47.513.18-Apr-2020 3140.87 3817.63 70.40 6.00 388.16 1986.80
   15:41:47.713.18-Apr-2020 3140.87 3859.59 70.40 6.00 388.36 1986.80
   15:41:47.913.18-Apr-2020 3140.87 3928.11 70.40 6.00 388.55 1986.80
   15:41:48.113.18-Apr-2020 3140.87 3998.89 70.40 6.00 388.75 1986.80
   15:41:48.313.18-Apr-2020 3140.87 4018.43 70.40 6.00 388.95 1986.80
   15:41:48.513.18-Apr-2020 3140.87 4018.43 70.40 6.00 389.15 1986.80
   15:41:48.713.18-Apr-2020 3140.87 4005.44 70.40 6.00 389.35 1986.80
   15:41:48.913.18-Apr-2020 3140.87 4005.69 70.40 6.00 389.55 1986.80
   15:41:49.113.18-Apr-2020 3140.87 3988.81 70.40 6.00 389.75 1986.80
   15:41:49.313.18-Apr-2020 3140.87 3947.55 70.40 6.00 389.95 1986.80
   15:41:49.513.18-Apr-2020 3140.87 3947.55 70.40 6.00 390.15 1986.80
   15:41:49.713.18-Apr-2020 3140.87 3937.92 70.41 6.00 390.35 1986.80
   15:41:49.913.18-Apr-2020 3140.87 3926.26 70.41 6.00 390.55 1986.80
   15:41:50.113.18-Apr-2020 3140.87 3917.24 70.41 6.00 390.75 1986.80
