~Version Information
 VERS.                  2.0:   CWLS log ASCII Standard -VERSION 2.0
 WRAP.                   NO:   One line per depth step
~Well Information Block
#MNEM.UNIT     VALUE/NAME     DESCRIPTION
#---------     -----------    ---------------------------
 STRT.S             00:39:23 18-Apr-20: START TIME 00:39:23 18-Apr-20
 STOP.S             00:46:19 18-Apr-20: STOP TIME  00:46:19 18-Apr-20
 STEP.S                   0.00: STEP TIME
 NULL.                 -999.25: NULL VALUE
 DFWT.                        :  DIST FWL TEXT
 DFST.                        :  DIST FSL TEXT
 DMF .                        :  DRILL MEAS FROM
 STIM.      16.29.52 23-Mar-20:  START TIME
 DATE.      16.29.52 23-Mar-20:  END TIME
 SPUD.               23-Mar-20:  SPUD DATE
 NREF.                    Grid:  NORTH REFERENCE
 HPTY.       Minimum Curvature:  HOLE POS TYPE
 DMOD.             Drill Model:  DRILL MOD DESC
 SVYD.                  Survey:  SURVEY DESC
 ILTD.               Lithology:  INTERP LTH DESC
 FTOP.          Formation Tops:  FORM TOPS DESC
 SON .        AZ-XX-0906252240:  JOB NUMBER
 RIG .             West Chirag:  RIG NAME
 PDAT.          Mean Sea Level:  PERMANENT DATUM
 FLD .                     ACG:  FIELD NAME
 CTRY.              Azerbaijan:  COUNTRY NAME
 WELL.           J23 (Slot 07):  WELL NAME
 SRVC.          Turan Drilling:  CONTRACTOR
 COMP.     BP Exploration (Casoian Sea) Ltd:  COMPANY
 WTYP.                Deviated:  WELL TYPE
 MDS .        Operator Entered:  MAG DATA SOURCE
 UWI .                     N/A:  UNIQUE WELL IDENTIFIER
 API .                     N/A:  API NUMBER
 BASE.              Azerbaijan:  LOGGING EQUIPMENT BASE LOCATION
 REGN.                   EESSA:  REGION
 PROV.                    Baku:  PROVINCE
 STAT.                    Baku:  STATE NAME
 MWDS.                     N/A:  MWD SHOP
 JOBN.        AZ-XX-0906252240:  JOB TICKET NUMB
 DOE .                     N/A:  DOE NUMBER
 DCON.         Sperry Drilling:  DIRECTNL CONTR
 UNIT.                     N/A:  LOGGING EQUIPMENT ID
 CNTY.                        :  COUNTY
 LOC .                        :  LOCATION
 LMF .             Drill Floor:  LOG MEASURED FROM
 TVDS.m                  43.00:  TVDSS CORRECTN
 LATI.deg                40.13:  LATITUDE
 LONG.deg                51.22:  LONGITUDE
 WHNS.m                   9.43:  WELL HEAD N/S
 WHEW.m                  -8.91:  WELL HEAD E/W
 UTMX.m              519005.06:  UTM X
 UTMY.m             4443793.85:  UTM Y
 DFWL.m                   0.00:  DISTANCE FWL
 DFSL.m                   0.00:  DISTANCE FSL
 SDEP.m                   0.00:  START DEPTH
 TDD .m                   0.00:  TOTAL DEPTH (DRILLER)
 VSDR.deg               179.88:  VERT SEC DIRECT
 GVFD.g                   1.00:  GRAVITY FIELD
 MFLD.nT              50281.00:  MAGNETIC FIELD
 MDIP.deg                59.58:  MAGNETIC DIP
 MDEC.deg                 6.48:  MAGNETIC DECL
 GRDC.deg                 0.14:  GRID CORRECTION
 AZTC.deg                 6.34:  AZM TOTAL CORR
 EPD .m                   0.00:  ELEVATION
 EGL .m                   0.00:  GROUND ELEVATION
 WDMS.m                 169.80:  WD ELEV
 APD .m                  43.00:  DEPTH ABOVE PD
 DEP .m                 354.17:  DEPTH
 AGAP.m                  43.00:  AIR GAP
 VSEW.m                  -8.91:  VERT SEC E/W
 VSNS.m                   9.43:  VERT SEC N/S
 EKB .m                   0.00:  KB ELEVATION
 EDF .m                  43.00:  DF ELEVATION
 TDL .m                1326.00:  TOTAL DEPTH (LOGGER)
 VSC .                       0:  VS TO CLOSURE
 MAGU.                 1850704:  MAGUTM CHECKSUM
~Parameter Information Block
#MNEM.UNIT       Value        Description
#---------     -----------    ---------------------------
 AV  .mps                 1.17:  Ann Velocity 
 AZIF.deg               184.04:  Azm, Final 
 BHAT.        Rotary Steerable:  BHA Type 
 BREV.rev            620000.00:  Rev Bit Total 
 BROT.°/30m               0.20:  Build Rotating 
 BS  .in                 14.75:  Bit Size 
 BSZ .in                 14.75:  Bit Size 
 BTPL.psig              618.00:  Bit Press Loss 
 CABU.                      No:  Customer Abuse 
 COMM.                     TŠT:  Run Comments 1 
 TCS .hr                 87.68:  Time Ciculation Ended 
 CV  .mps                 3.10:  Crit Velocity 
 DD1 .          Rashad Habibov:  Direct Drillr 1 
 DD2 .         Rasim Ibrahimov:  Direct Drillr 2 
 DDSV.               Geo-Pilot:  DD Service 
 DEFF.%                  98.00:  % Det Eff 
 DLRX.°/30m               1.48:  Dogleg Rot Max 
 DLSO.°/30m               0.50:  Dogleg Oriented 
 DLSX.°/30m               1.48:  Dogleg Str Max 
 DRET.      06.18.56 19-Apr-20:  Drill End Time 
 DRST.      15.00.56 15-Apr-20:  Drill Start Tim 
 DTIM.hr                 51.73:  Time Drilling 
 EDEP.m                3410.01:  End Depth 
 ENG1.        Marcelo Sandoval:  Engineer 1 
 ENG2.        Davud Huseynzade:  Engineer 2 
 ENG3.          Ruslan Safarov:  Engineer 3 
 ETIM.      04.00.56 20-Apr-20:  End Time 
 FLOI.gpm              1000.00:  Flow In 
 FLON.gpm               600.00:  Flow In Min 
 FLOS.cptm                0.00:  Fluid Loss 
 FLOX.gpm              1200.00:  Flow In Max 
 HFLO.                      No:  High Flow 
 HPRE.                     Yes:  High Pressure 
 HTEM.                      No:  High Temp 
 HYDO.m                   1.80:  Hydro Offset 
 IFIN.deg                70.04:  Inc, Final 
 IMAX.deg                70.56:  Inc Max 
 IMIN.deg                69.85:  Inc Min 
 IMND.m                3103.24:  Inc Min Depth 
 IMXD.m                2876.63:  Inc Max Depth 
 JARR.                      No:  Jarring 
 LETM.      06.18.56 19-Apr-20:  Log End Time 
 LOST.hr                     0:  Lost Rig Time 
 LSTM.      15.00.56 15-Apr-20:  Log Start Time 
 MDCL.ppm             42000.00:  Mud Chlorides 
 MDES.     Inversion Oil/Synthetic:  Mud Desc 
 DFD .sg                  1.58:  Mud Density 
 MDMN.sg                  1.58:  Dens Mud Min 
 MDMX.sg                  1.58:  Dens Mud Max 
 MOIL.                      71:  Run Mud Oil % 
 MOWR.                   71:29:  Run Mud OWR 
 MSND.                       0:  Run Mud Sand % 
 MSOL.                    23.3:  Run Mud Solids% 
 DFV .spqt               84.00:  Mud Viscosity 
 MWOD.in                  9.50:  MWD Tool OD 
 MWSI.                      No:  Serv Intrp, MWD 
 OTIM.hr                139.62:  Time Operating 
 PMAX.psia             5364.69:  Press Op, Max 
 PV  .cP                 80.00:  Mud PV 
 RUN .                     700:  Run Number 
 ROPA.m/hr               25.00:  ROP Avg 
 ROPN.m/hr               11.00:  ROP Min 
 ROPX.m/hr               36.00:  ROP Max 
 RPMA.rpm               130.00:  RPM Surface Avg 
 RPMN.rpm               120.00:  RPM Surface Min 
 RPMX.rpm               140.00:  RPM Surface Max 
 RRUN.                    0700:  Rig Run Number 
 SAZI.deg               183.25:  Azm, Start 
 SDEP.m                2084.00:  Start Depth 
 SIDD.                      No:  Serv Intrp, DD 
 SINC.deg                70.38:  Inc, Start 
 SPPA.psig             4800.00:  SPP Avg 
 SPPN.psig             4400.00:  SPP Min 
 SPPX.psig             5350.00:  SPP Max 
 STIM.      16.30.56 14-Apr-20:  Start Time 
 SVCS.                 DD, MWD:  Services 
 SVER.                    9.20:  Sperry Version 
 TDAT.m                1326.00:  Tot Depth Attmp 
 TDDF.                      No:  Trip for DD 
 TDLG.m                1326.00:  Tot Depth Loggd 
 TFF .                      No:  Trip for Fail 
 TQAA.f-kp               19.00:  Torque Abs Avg 
 TQAN.f-kp                8.00:  Torque Abs Min 
 TQAX.f-kp               27.00:  Torque Abs Max 
 TRRT.°/30m               0.50:  Turn Rotating 
 MRT .                    HCIM:  Maximum Recorded Temperature 
 TTMX.degC               82.35:  Max Tool Temp 
 VS01.       905245875X1Z1W1C8:  Virtual Str1 SN 
 VS02.       90608022F11V7D1A9:  Virtual Str2 SN 
 VS03.            90605473R5C9:  Virtual Str3 SN 
 WBMN.klb                11.00:  WOB Min 
 WOBA.klb                21.00:  WOB Avg 
 WOBX.klb                30.00:  WOB Max 
 YP  .lhf2               45.00:  Yield Point 
~Curve Information Block
#MNEM.UNIT                 API CODE     Curve Description
#---------               -----------    ---------------------------
 TIME.HHMMSS            00 000 000 000:  GT Time & Date
 GTDEPTH.m              00 000 000 000:  GT Depth
 GTPQH.psia             00 000 000 000:  GT HR Quartz Pressure
 GTTQ.degC              00 000 000 000:  GT Quartz Temperature
 GTTN.NONE              00 000 000 000:  GT Test Number
 GTET.sec               00 000 000 000:  GT Elapsed Test Time
 GTTVD.m                00 000 000 000:  GT True Vertical Depth
#Other Information
#
#WARRANTY: Halliburton will use its best efforts to furnish customers with 
#accurate information and interpretations that are part of, and incident to, the services 
#provided.  However, Halliburton cannot and does not warrant the accuracy 
#or correctness of such information and interpretations.  Under no circumstances should any 
#such information or interpretation be relied upon as the sole basis for any drilling, 
#completion, production, or financial decision or any procedure involving any risk to the 
#safety of any drilling venture, drilling rig or its crew or any other third party.  The 
#Customer has full responsibility for all drilling, completion and production operation.  
#Halliburton makes no representations or warranties, either expressed or 
#implied, including, but not limited to, the implied warranties of merchantability or fitness 
#for a particular purpose, with respect to the services rendered.  In no event will 
#Halliburton be liable for failure to obtain any particular results or for 
#any damages, including, but not limited to, indirect, special or consequential damages, 
#resulting from the use of any information or interpretation provided by Halliburton.
#
~A           TIME           GTDEPTH  GTPQH  GTTQ  GTTN  GTET   GTTVD  
# ...
   00:43:13.345.18-Apr-2020 2932.07 3431.40 63.17 1.00 230.04 1915.77
   00:43:13.546.18-Apr-2020 2932.07 3431.40 63.17 1.00 230.24 1915.77
   00:43:13.746.18-Apr-2020 2932.07 3431.41 63.17 1.00 230.44 1915.77
   00:43:13.946.18-Apr-2020 2932.07 3431.41 63.17 1.00 230.64 1915.77
   00:43:14.146.18-Apr-2020 2932.07 3431.41 63.17 1.00 230.84 1915.77
   00:43:14.346.18-Apr-2020 2932.07 3431.41 63.17 1.00 231.04 1915.77
   00:43:14.546.18-Apr-2020 2932.07 3431.41 63.17 1.00 231.24 1915.77
   00:43:14.746.18-Apr-2020 2932.07 3431.41 63.16 1.00 231.44 1915.77
   00:43:14.946.18-Apr-2020 2932.07 3431.40 63.16 1.00 231.64 1915.77
   00:43:15.146.18-Apr-2020 2932.07 3431.39 63.16 1.00 231.84 1915.77
   00:43:15.346.18-Apr-2020 2932.07 3431.40 63.16 1.00 232.04 1915.77
   00:43:15.546.18-Apr-2020 2932.07 3431.40 63.16 1.00 232.24 1915.77
   00:43:15.746.18-Apr-2020 2932.07 3431.40 63.16 1.00 232.44 1915.77
   00:43:15.946.18-Apr-2020 2932.07 3431.40 63.16 1.00 232.64 1915.77
   00:43:16.146.18-Apr-2020 2932.07 3431.40 63.16 1.00 232.84 1915.77
   00:43:16.346.18-Apr-2020 2932.07 3431.39 63.16 1.00 233.04 1915.77
   00:43:16.546.18-Apr-2020 2932.07 3431.41 63.16 1.00 233.24 1915.77
   00:43:16.746.18-Apr-2020 2932.07 3431.41 63.16 1.00 233.44 1915.77
   00:43:16.946.18-Apr-2020 2932.07 3431.38 63.16 1.00 233.64 1915.77
   00:43:17.146.18-Apr-2020 2932.07 3431.39 63.16 1.00 233.84 1915.77
   00:43:17.346.18-Apr-2020 2932.07 3431.42 63.16 1.00 234.04 1915.77
   00:43:17.546.18-Apr-2020 2932.07 3431.42 63.16 1.00 234.24 1915.77
   00:43:17.746.18-Apr-2020 2932.07 3431.39 63.16 1.00 234.44 1915.77
   00:43:17.946.18-Apr-2020 2932.07 3431.40 63.16 1.00 234.64 1915.77
   00:43:18.146.18-Apr-2020 2932.07 3431.38 63.16 1.00 234.84 1915.77
   00:43:18.346.18-Apr-2020 2932.07 3431.41 63.16 1.00 235.04 1915.77
   00:43:18.546.18-Apr-2020 2932.07 3431.41 63.16 1.00 235.24 1915.77
   00:43:18.746.18-Apr-2020 2932.07 3431.39 63.16 1.00 235.44 1915.77
   00:43:18.946.18-Apr-2020 2932.07 3431.39 63.16 1.00 235.64 1915.77
   00:43:19.146.18-Apr-2020 2932.07 3431.39 63.16 1.00 235.84 1915.77
   00:43:19.346.18-Apr-2020 2932.07 3431.37 63.16 1.00 236.04 1915.77
   00:43:19.547.18-Apr-2020 2932.07 3431.37 63.16 1.00 236.24 1915.77
   00:43:19.747.18-Apr-2020 2932.07 3431.39 63.16 1.00 236.44 1915.77
   00:43:19.947.18-Apr-2020 2932.07 3431.39 63.15 1.00 236.64 1915.77
   00:43:20.147.18-Apr-2020 2932.07 3431.39 63.15 1.00 236.84 1915.77
   00:43:20.347.18-Apr-2020 2932.07 3431.39 63.15 1.00 237.04 1915.77
   00:43:20.547.18-Apr-2020 2932.07 3431.39 63.15 1.00 237.24 1915.77
   00:43:20.747.18-Apr-2020 2932.07 3431.39 63.15 1.00 237.44 1915.77
   00:43:20.947.18-Apr-2020 2932.07 3431.38 63.15 1.00 237.64 1915.77
   00:43:21.147.18-Apr-2020 2932.07 3431.38 63.15 1.00 237.84 1915.77
   00:43:21.347.18-Apr-2020 2932.07 3431.40 63.15 1.00 238.04 1915.77
   00:43:21.547.18-Apr-2020 2932.07 3431.40 63.15 1.00 238.24 1915.77
   00:43:21.747.18-Apr-2020 2932.07 3431.38 63.15 1.00 238.44 1915.77
   00:43:21.947.18-Apr-2020 2932.07 3431.39 63.15 1.00 238.64 1915.77
   00:43:22.147.18-Apr-2020 2932.07 3431.38 63.15 1.00 238.84 1915.77
   00:43:22.347.18-Apr-2020 2932.07 3431.39 63.15 1.00 239.04 1915.77
   00:43:22.547.18-Apr-2020 2932.07 3431.39 63.15 1.00 239.24 1915.77
   00:43:22.747.18-Apr-2020 2932.07 3431.38 63.15 1.00 239.44 1915.77
   00:43:22.947.18-Apr-2020 2932.07 3431.38 63.15 1.00 239.64 1915.77
   00:43:23.147.18-Apr-2020 2932.07 3431.39 63.15 1.00 239.84 1915.77
   00:43:23.347.18-Apr-2020 2932.07 3431.38 63.15 1.00 240.04 1915.77
   00:43:23.547.18-Apr-2020 2932.07 3431.38 63.15 1.00 240.24 1915.77
   00:43:23.747.18-Apr-2020 2932.07 3431.38 63.15 1.00 240.44 1915.77
   00:43:23.947.18-Apr-2020 2932.07 3431.38 63.15 1.00 240.64 1915.77
   00:43:24.147.18-Apr-2020 2932.07 3431.37 63.15 1.00 240.84 1915.77
   00:43:24.347.18-Apr-2020 2932.07 3431.38 63.15 1.00 241.04 1915.77
   00:43:24.547.18-Apr-2020 2932.07 3431.37 63.15 1.00 241.24 1915.77
   00:43:24.747.18-Apr-2020 2932.07 3431.38 63.15 1.00 241.44 1915.77
   00:43:24.947.18-Apr-2020 2932.07 3431.36 63.15 1.00 241.64 1915.77
   00:43:25.147.18-Apr-2020 2932.07 3431.39 63.15 1.00 241.84 1915.77
   00:43:25.347.18-Apr-2020 2932.07 3431.38 63.15 1.00 242.04 1915.77
   00:43:25.547.18-Apr-2020 2932.07 3431.38 63.15 1.00 242.24 1915.77
   00:43:25.748.18-Apr-2020 2932.07 3431.39 63.14 1.00 242.44 1915.77
   00:43:25.948.18-Apr-2020 2932.07 3431.38 63.14 1.00 242.64 1915.77
   00:43:26.148.18-Apr-2020 2932.07 3431.38 63.14 1.00 242.84 1915.77
   00:43:26.348.18-Apr-2020 2932.07 3431.36 63.14 1.00 243.04 1915.77
   00:43:26.548.18-Apr-2020 2932.07 3431.36 63.14 1.00 243.24 1915.77
   00:43:26.748.18-Apr-2020 2932.07 3431.39 63.14 1.00 243.44 1915.77
   00:43:26.948.18-Apr-2020 2932.07 3431.38 63.14 1.00 243.64 1915.77
   00:43:27.148.18-Apr-2020 2932.07 3431.37 63.14 1.00 243.84 1915.77
   00:43:27.348.18-Apr-2020 2932.07 3431.36 63.14 1.00 244.04 1915.77
   00:43:27.548.18-Apr-2020 2932.07 3431.36 63.14 1.00 244.24 1915.77
   00:43:27.748.18-Apr-2020 2932.07 3431.37 63.14 1.00 244.44 1915.77
   00:43:27.948.18-Apr-2020 2932.07 3431.38 63.14 1.00 244.64 1915.77
   00:43:28.148.18-Apr-2020 2932.07 3431.37 63.14 1.00 244.84 1915.77
   00:43:28.348.18-Apr-2020 2932.07 3431.37 63.14 1.00 245.04 1915.77
   00:43:28.548.18-Apr-2020 2932.07 3431.36 63.14 1.00 245.24 1915.77
   00:43:28.748.18-Apr-2020 2932.07 3431.38 63.14 1.00 245.44 1915.77
   00:43:28.948.18-Apr-2020 2932.07 3431.37 63.14 1.00 245.64 1915.77
   00:43:29.148.18-Apr-2020 2932.07 3431.36 63.14 1.00 245.84 1915.77
   00:43:29.348.18-Apr-2020 2932.07 3431.37 63.14 1.00 246.04 1915.77
   00:43:29.548.18-Apr-2020 2932.07 3431.37 63.14 1.00 246.24 1915.77
   00:43:29.748.18-Apr-2020 2932.07 3431.36 63.14 1.00 246.44 1915.77
   00:43:29.948.18-Apr-2020 2932.07 3431.35 63.14 1.00 246.64 1915.77
   00:43:30.148.18-Apr-2020 2932.07 3431.35 63.14 1.00 246.84 1915.77
   00:43:30.348.18-Apr-2020 2932.07 3431.35 63.14 1.00 247.04 1915.77
   00:43:30.548.18-Apr-2020 2932.07 3431.35 63.14 1.00 247.24 1915.77
   00:43:30.748.18-Apr-2020 2932.07 3431.34 63.14 1.00 247.44 1915.77
   00:43:30.948.18-Apr-2020 2932.07 3431.35 63.13 1.00 247.64 1915.77
   00:43:31.148.18-Apr-2020 2932.07 3431.35 63.13 1.00 247.84 1915.77
   00:43:31.348.18-Apr-2020 2932.07 3431.35 63.13 1.00 248.04 1915.77
   00:43:31.548.18-Apr-2020 2932.07 3431.34 63.13 1.00 248.24 1915.77
   00:43:31.748.18-Apr-2020 2932.07 3431.36 63.13 1.00 248.44 1915.77
   00:43:31.949.18-Apr-2020 2932.07 3431.36 63.13 1.00 248.64 1915.77
   00:43:32.149.18-Apr-2020 2932.07 3431.35 63.13 1.00 248.84 1915.77
   00:43:32.349.18-Apr-2020 2932.07 3431.36 63.13 1.00 249.04 1915.77
   00:43:32.549.18-Apr-2020 2932.07 3431.36 63.13 1.00 249.24 1915.77
   00:43:32.749.18-Apr-2020 2932.07 3431.36 63.13 1.00 249.44 1915.77
   00:43:32.949.18-Apr-2020 2932.07 3431.35 63.13 1.00 249.64 1915.77
   00:43:33.149.18-Apr-2020 2932.07 3431.35 63.13 1.00 249.84 1915.77
   00:43:33.349.18-Apr-2020 2932.07 3431.35 63.13 1.00 250.04 1915.77
   00:43:33.549.18-Apr-2020 2932.07 3431.35 63.13 1.00 250.24 1915.77
   00:43:33.749.18-Apr-2020 2932.07 3431.36 63.13 1.00 250.44 1915.77
   00:43:33.949.18-Apr-2020 2932.07 3431.35 63.13 1.00 250.64 1915.77
   00:43:34.149.18-Apr-2020 2932.07 3431.34 63.13 1.00 250.84 1915.77
   00:43:34.349.18-Apr-2020 2932.07 3431.35 63.13 1.00 251.04 1915.77
   00:43:34.549.18-Apr-2020 2932.07 3431.35 63.13 1.00 251.24 1915.77
   00:43:34.749.18-Apr-2020 2932.07 3431.34 63.13 1.00 251.44 1915.77
   00:43:34.949.18-Apr-2020 2932.07 3431.36 63.13 1.00 251.64 1915.77
   00:43:35.149.18-Apr-2020 2932.07 3431.35 63.13 1.00 251.84 1915.77
   00:43:35.349.18-Apr-2020 2932.07 3431.35 63.13 1.00 252.04 1915.77
   00:43:35.549.18-Apr-2020 2932.07 3431.34 63.13 1.00 252.24 1915.77
   00:43:35.749.18-Apr-2020 2932.07 3431.35 63.13 1.00 252.44 1915.77
   00:43:35.949.18-Apr-2020 2932.07 3431.34 63.13 1.00 252.64 1915.77
   00:43:36.149.18-Apr-2020 2932.07 3431.35 63.13 1.00 252.84 1915.77
