~Version Information
 VERS.                  2.0:   CWLS log ASCII Standard -VERSION 2.0
 WRAP.                   NO:   One line per depth step
~Well Information Block
#MNEM.UNIT     VALUE/NAME     DESCRIPTION
#---------     -----------    ---------------------------
 STRT.S             07:07:08 18-Apr-20: START TIME 07:07:08 18-Apr-20
 STOP.S             07:14:03 18-Apr-20: STOP TIME  07:14:03 18-Apr-20
 STEP.S                   0.00: STEP TIME
 NULL.                 -999.25: NULL VALUE
 DFWT.                        :  DIST FWL TEXT
 DFST.                        :  DIST FSL TEXT
 DMF .                        :  DRILL MEAS FROM
 STIM.      16.29.52 23-Mar-20:  START TIME
 DATE.      16.29.52 23-Mar-20:  END TIME
 SPUD.               23-Mar-20:  SPUD DATE
 NREF.                    Grid:  NORTH REFERENCE
 HPTY.       Minimum Curvature:  HOLE POS TYPE
 DMOD.             Drill Model:  DRILL MOD DESC
 SVYD.                  Survey:  SURVEY DESC
 ILTD.               Lithology:  INTERP LTH DESC
 FTOP.          Formation Tops:  FORM TOPS DESC
 SON .        AZ-XX-0906252240:  JOB NUMBER
 RIG .             West Chirag:  RIG NAME
 PDAT.          Mean Sea Level:  PERMANENT DATUM
 FLD .                     ACG:  FIELD NAME
 CTRY.              Azerbaijan:  COUNTRY NAME
 WELL.           J23 (Slot 07):  WELL NAME
 SRVC.          Turan Drilling:  CONTRACTOR
 COMP.     BP Exploration (Casoian Sea) Ltd:  COMPANY
 WTYP.                Deviated:  WELL TYPE
 MDS .        Operator Entered:  MAG DATA SOURCE
 UWI .                     N/A:  UNIQUE WELL IDENTIFIER
 API .                     N/A:  API NUMBER
 BASE.              Azerbaijan:  LOGGING EQUIPMENT BASE LOCATION
 REGN.                   EESSA:  REGION
 PROV.                    Baku:  PROVINCE
 STAT.                    Baku:  STATE NAME
 MWDS.                     N/A:  MWD SHOP
 JOBN.        AZ-XX-0906252240:  JOB TICKET NUMB
 DOE .                     N/A:  DOE NUMBER
 DCON.         Sperry Drilling:  DIRECTNL CONTR
 UNIT.                     N/A:  LOGGING EQUIPMENT ID
 CNTY.                        :  COUNTY
 LOC .                        :  LOCATION
 LMF .             Drill Floor:  LOG MEASURED FROM
 TVDS.m                  43.00:  TVDSS CORRECTN
 LATI.deg                40.13:  LATITUDE
 LONG.deg                51.22:  LONGITUDE
 WHNS.m                   9.43:  WELL HEAD N/S
 WHEW.m                  -8.91:  WELL HEAD E/W
 UTMX.m              519005.06:  UTM X
 UTMY.m             4443793.85:  UTM Y
 DFWL.m                   0.00:  DISTANCE FWL
 DFSL.m                   0.00:  DISTANCE FSL
 SDEP.m                   0.00:  START DEPTH
 TDD .m                   0.00:  TOTAL DEPTH (DRILLER)
 VSDR.deg               179.88:  VERT SEC DIRECT
 GVFD.g                   1.00:  GRAVITY FIELD
 MFLD.nT              50281.00:  MAGNETIC FIELD
 MDIP.deg                59.58:  MAGNETIC DIP
 MDEC.deg                 6.48:  MAGNETIC DECL
 GRDC.deg                 0.14:  GRID CORRECTION
 AZTC.deg                 6.34:  AZM TOTAL CORR
 EPD .m                   0.00:  ELEVATION
 EGL .m                   0.00:  GROUND ELEVATION
 WDMS.m                 169.80:  WD ELEV
 APD .m                  43.00:  DEPTH ABOVE PD
 DEP .m                 354.17:  DEPTH
 AGAP.m                  43.00:  AIR GAP
 VSEW.m                  -8.91:  VERT SEC E/W
 VSNS.m                   9.43:  VERT SEC N/S
 EKB .m                   0.00:  KB ELEVATION
 EDF .m                  43.00:  DF ELEVATION
 TDL .m                1326.00:  TOTAL DEPTH (LOGGER)
 VSC .                       0:  VS TO CLOSURE
 MAGU.                 1850704:  MAGUTM CHECKSUM
~Parameter Information Block
#MNEM.UNIT       Value        Description
#---------     -----------    ---------------------------
 AV  .mps                 1.17:  Ann Velocity 
 AZIF.deg               184.04:  Azm, Final 
 BHAT.        Rotary Steerable:  BHA Type 
 BREV.rev            620000.00:  Rev Bit Total 
 BROT.°/30m               0.20:  Build Rotating 
 BS  .in                 14.75:  Bit Size 
 BSZ .in                 14.75:  Bit Size 
 BTPL.psig              618.00:  Bit Press Loss 
 CABU.                      No:  Customer Abuse 
 COMM.                     îb:  Run Comments 1 
 TCS .hr                 87.68:  Time Ciculation Ended 
 CV  .mps                 3.10:  Crit Velocity 
 DD1 .          Rashad Habibov:  Direct Drillr 1 
 DD2 .         Rasim Ibrahimov:  Direct Drillr 2 
 DDSV.               Geo-Pilot:  DD Service 
 DEFF.%                  98.00:  % Det Eff 
 DLRX.°/30m               1.48:  Dogleg Rot Max 
 DLSO.°/30m               0.50:  Dogleg Oriented 
 DLSX.°/30m               1.48:  Dogleg Str Max 
 DRET.      06.18.56 19-Apr-20:  Drill End Time 
 DRST.      15.00.56 15-Apr-20:  Drill Start Tim 
 DTIM.hr                 51.73:  Time Drilling 
 EDEP.m                3410.01:  End Depth 
 ENG1.        Marcelo Sandoval:  Engineer 1 
 ENG2.        Davud Huseynzade:  Engineer 2 
 ENG3.          Ruslan Safarov:  Engineer 3 
 ETIM.      04.00.56 20-Apr-20:  End Time 
 FLOI.gpm              1000.00:  Flow In 
 FLON.gpm               600.00:  Flow In Min 
 FLOS.cptm                0.00:  Fluid Loss 
 FLOX.gpm              1200.00:  Flow In Max 
 HFLO.                      No:  High Flow 
 HPRE.                     Yes:  High Pressure 
 HTEM.                      No:  High Temp 
 HYDO.m                   1.80:  Hydro Offset 
 IFIN.deg                70.04:  Inc, Final 
 IMAX.deg                70.56:  Inc Max 
 IMIN.deg                69.85:  Inc Min 
 IMND.m                3103.24:  Inc Min Depth 
 IMXD.m                2876.63:  Inc Max Depth 
 JARR.                      No:  Jarring 
 LETM.      06.18.56 19-Apr-20:  Log End Time 
 LOST.hr                     0:  Lost Rig Time 
 LSTM.      15.00.56 15-Apr-20:  Log Start Time 
 MDCL.ppm             42000.00:  Mud Chlorides 
 MDES.     Inversion Oil/Synthetic:  Mud Desc 
 DFD .sg                  1.58:  Mud Density 
 MDMN.sg                  1.58:  Dens Mud Min 
 MDMX.sg                  1.58:  Dens Mud Max 
 MOIL.                      71:  Run Mud Oil % 
 MOWR.                   71:29:  Run Mud OWR 
 MSND.                       0:  Run Mud Sand % 
 MSOL.                    23.3:  Run Mud Solids% 
 DFV .spqt               84.00:  Mud Viscosity 
 MWOD.in                  9.50:  MWD Tool OD 
 MWSI.                      No:  Serv Intrp, MWD 
 OTIM.hr                139.62:  Time Operating 
 PMAX.psia             5364.69:  Press Op, Max 
 PV  .cP                 80.00:  Mud PV 
 RUN .                     700:  Run Number 
 ROPA.m/hr               25.00:  ROP Avg 
 ROPN.m/hr               11.00:  ROP Min 
 ROPX.m/hr               36.00:  ROP Max 
 RPMA.rpm               130.00:  RPM Surface Avg 
 RPMN.rpm               120.00:  RPM Surface Min 
 RPMX.rpm               140.00:  RPM Surface Max 
 RRUN.                    0700:  Rig Run Number 
 SAZI.deg               183.25:  Azm, Start 
 SDEP.m                2084.00:  Start Depth 
 SIDD.                      No:  Serv Intrp, DD 
 SINC.deg                70.38:  Inc, Start 
 SPPA.psig             4800.00:  SPP Avg 
 SPPN.psig             4400.00:  SPP Min 
 SPPX.psig             5350.00:  SPP Max 
 STIM.      16.30.56 14-Apr-20:  Start Time 
 SVCS.                 DD, MWD:  Services 
 SVER.                    9.20:  Sperry Version 
 TDAT.m                1326.00:  Tot Depth Attmp 
 TDDF.                      No:  Trip for DD 
 TDLG.m                1326.00:  Tot Depth Loggd 
 TFF .                      No:  Trip for Fail 
 TQAA.f-kp               19.00:  Torque Abs Avg 
 TQAN.f-kp                8.00:  Torque Abs Min 
 TQAX.f-kp               27.00:  Torque Abs Max 
 TRRT.°/30m               0.50:  Turn Rotating 
 MRT .                    HCIM:  Maximum Recorded Temperature 
 TTMX.degC               82.35:  Max Tool Temp 
 VS01.       905245875X1Z1W1C8:  Virtual Str1 SN 
 VS02.       90608022F11V7D1A9:  Virtual Str2 SN 
 VS03.            90605473R5C9:  Virtual Str3 SN 
 WBMN.klb                11.00:  WOB Min 
 WOBA.klb                21.00:  WOB Avg 
 WOBX.klb                30.00:  WOB Max 
 YP  .lhf2               45.00:  Yield Point 
~Curve Information Block
#MNEM.UNIT                 API CODE     Curve Description
#---------               -----------    ---------------------------
 TIME.HHMMSS            00 000 000 000:  GT Time & Date
 GTDEPTH.m              00 000 000 000:  GT Depth
 GTPQH.psia             00 000 000 000:  GT HR Quartz Pressure
 GTTQ.degC              00 000 000 000:  GT Quartz Temperature
 GTTN.NONE              00 000 000 000:  GT Test Number
 GTET.sec               00 000 000 000:  GT Elapsed Test Time
 GTTVD.m                00 000 000 000:  GT True Vertical Depth
#Other Information
#
#WARRANTY: Halliburton will use its best efforts to furnish customers with 
#accurate information and interpretations that are part of, and incident to, the services 
#provided.  However, Halliburton cannot and does not warrant the accuracy 
#or correctness of such information and interpretations.  Under no circumstances should any 
#such information or interpretation be relied upon as the sole basis for any drilling, 
#completion, production, or financial decision or any procedure involving any risk to the 
#safety of any drilling venture, drilling rig or its crew or any other third party.  The 
#Customer has full responsibility for all drilling, completion and production operation.  
#Halliburton makes no representations or warranties, either expressed or 
#implied, including, but not limited to, the implied warranties of merchantability or fitness 
#for a particular purpose, with respect to the services rendered.  In no event will 
#Halliburton be liable for failure to obtain any particular results or for 
#any damages, including, but not limited to, indirect, special or consequential damages, 
#resulting from the use of any information or interpretation provided by Halliburton.
#
~A           TIME           GTDEPTH  GTPQH  GTTQ  GTTN  GTET   GTTVD  
# ...
   07:13:16.675.18-Apr-2020 3016.07 3392.08 69.69 2.00 368.04 1944.23
   07:13:16.875.18-Apr-2020 3016.07 3392.08 69.69 2.00 368.24 1944.23
   07:13:17.075.18-Apr-2020 3016.07 3391.93 69.69 2.00 368.44 1944.23
   07:13:17.275.18-Apr-2020 3016.07 3391.85 69.69 2.00 368.64 1944.23
   07:13:17.475.18-Apr-2020 3016.07 3391.77 69.69 2.00 368.84 1944.23
   07:13:17.675.18-Apr-2020 3016.07 3391.74 69.69 2.00 369.04 1944.23
   07:13:17.875.18-Apr-2020 3016.07 3391.74 69.69 2.00 369.24 1944.23
   07:13:18.075.18-Apr-2020 3016.07 3391.63 69.69 2.00 369.44 1944.23
   07:13:18.275.18-Apr-2020 3016.07 3391.57 69.69 2.00 369.64 1944.23
   07:13:18.475.18-Apr-2020 3016.07 3391.53 69.69 2.00 369.84 1944.23
   07:13:18.675.18-Apr-2020 3016.07 3391.47 69.68 2.00 370.04 1944.23
   07:13:18.875.18-Apr-2020 3016.07 3391.47 69.68 2.00 370.24 1944.23
   07:13:19.075.18-Apr-2020 3016.07 3391.36 69.68 2.00 370.44 1944.23
   07:13:19.275.18-Apr-2020 3016.07 3391.30 69.68 2.00 370.64 1944.23
   07:13:19.475.18-Apr-2020 3016.07 3391.24 69.68 2.00 370.84 1944.23
   07:13:19.675.18-Apr-2020 3016.07 3391.20 69.68 2.00 371.04 1944.23
   07:13:19.875.18-Apr-2020 3016.07 3391.20 69.68 2.00 371.24 1944.23
   07:13:20.075.18-Apr-2020 3016.07 3391.09 69.68 2.00 371.44 1944.23
   07:13:20.275.18-Apr-2020 3016.07 3391.04 69.68 2.00 371.64 1944.23
   07:13:20.475.18-Apr-2020 3016.07 3390.97 69.68 2.00 371.84 1944.23
   07:13:20.675.18-Apr-2020 3016.07 3390.93 69.68 2.00 372.04 1944.23
   07:13:20.875.18-Apr-2020 3016.07 3390.93 69.68 2.00 372.24 1944.23
   07:13:21.075.18-Apr-2020 3016.07 3390.84 69.68 2.00 372.44 1944.23
   07:13:21.275.18-Apr-2020 3016.07 3390.78 69.68 2.00 372.64 1944.23
   07:13:21.475.18-Apr-2020 3016.07 3390.73 69.68 2.00 372.84 1944.23
   07:13:21.675.18-Apr-2020 3016.07 3390.69 69.67 2.00 373.04 1944.23
   07:13:21.875.18-Apr-2020 3016.07 3390.64 69.67 2.00 373.24 1944.23
   07:13:22.075.18-Apr-2020 3016.07 3390.58 69.67 2.00 373.44 1944.23
   07:13:22.275.18-Apr-2020 3016.07 3390.54 69.67 2.00 373.64 1944.23
   07:13:22.475.18-Apr-2020 3016.07 3390.50 69.67 2.00 373.84 1944.23
   07:13:22.675.18-Apr-2020 3016.07 3390.45 69.67 2.00 374.04 1944.23
   07:13:22.875.18-Apr-2020 3016.07 3390.45 69.67 2.00 374.24 1944.23
   07:13:23.075.18-Apr-2020 3016.07 3390.34 69.67 2.00 374.44 1944.23
   07:13:23.275.18-Apr-2020 3016.07 3390.32 69.67 2.00 374.64 1944.23
   07:13:23.475.18-Apr-2020 3016.07 3390.30 69.67 2.00 374.84 1944.23
   07:13:23.675.18-Apr-2020 3016.07 3390.22 69.67 2.00 375.04 1944.23
   07:13:23.876.18-Apr-2020 3016.07 3390.21 69.67 2.00 375.24 1944.23
   07:13:24.076.18-Apr-2020 3016.07 3390.18 69.67 2.00 375.44 1944.23
   07:13:24.276.18-Apr-2020 3016.07 3390.16 69.67 2.00 375.64 1944.23
   07:13:24.476.18-Apr-2020 3016.07 3390.12 69.66 2.00 375.84 1944.23
   07:13:24.676.18-Apr-2020 3016.07 3390.10 69.66 2.00 376.04 1944.23
   07:13:24.876.18-Apr-2020 3016.07 3390.10 69.66 2.00 376.24 1944.23
   07:13:25.076.18-Apr-2020 3016.07 3390.09 69.66 2.00 376.44 1944.23
   07:13:25.276.18-Apr-2020 3016.07 3390.09 69.66 2.00 376.64 1944.23
   07:13:25.476.18-Apr-2020 3016.07 3390.06 69.66 2.00 376.84 1944.23
   07:13:25.676.18-Apr-2020 3016.07 3390.08 69.66 2.00 377.04 1944.23
   07:13:25.876.18-Apr-2020 3016.07 3390.08 69.66 2.00 377.24 1944.23
   07:13:26.076.18-Apr-2020 3016.07 3390.09 69.66 2.00 377.44 1944.23
   07:13:26.276.18-Apr-2020 3016.07 3390.09 69.66 2.00 377.64 1944.23
   07:13:26.476.18-Apr-2020 3016.07 3390.07 69.66 2.00 377.84 1944.23
   07:13:26.676.18-Apr-2020 3016.07 3392.63 69.66 2.00 378.04 1944.23
   07:13:26.876.18-Apr-2020 3016.07 3392.63 69.66 2.00 378.24 1944.23
   07:13:27.076.18-Apr-2020 3016.07 3414.50 69.66 2.00 378.44 1944.23
   07:13:27.276.18-Apr-2020 3016.07 3362.56 69.66 2.00 378.64 1944.23
   07:13:27.476.18-Apr-2020 3016.07 3345.35 69.65 2.00 378.84 1944.23
   07:13:27.676.18-Apr-2020 3016.07 3381.00 69.65 2.00 379.04 1944.23
   07:13:27.876.18-Apr-2020 3016.07 3414.46 69.65 2.00 379.24 1944.23
   07:13:28.076.18-Apr-2020 3016.07 3446.73 69.65 2.00 379.44 1944.23
   07:13:28.276.18-Apr-2020 3016.07 3473.22 69.65 2.00 379.64 1944.23
   07:13:28.476.18-Apr-2020 3016.07 3472.36 69.65 2.00 379.84 1944.23
   07:13:28.676.18-Apr-2020 3016.07 3447.45 69.65 2.00 380.04 1944.23
   07:13:28.876.18-Apr-2020 3016.07 3447.45 69.65 2.00 380.24 1944.23
   07:13:29.076.18-Apr-2020 3016.07 3503.96 69.65 2.00 380.44 1944.23
   07:13:29.276.18-Apr-2020 3016.07 3939.69 69.65 2.00 380.64 1944.23
   07:13:29.476.18-Apr-2020 3016.07 4459.87 69.65 2.00 380.84 1944.23
   07:13:29.676.18-Apr-2020 3016.07 4463.20 69.65 2.00 381.04 1944.23
   07:13:29.876.18-Apr-2020 3016.07 4463.20 69.65 2.00 381.24 1944.23
   07:13:30.076.18-Apr-2020 3016.07 4463.30 69.65 2.00 381.44 1944.23
   07:13:30.276.18-Apr-2020 3016.07 4462.82 69.65 2.00 381.64 1944.23
   07:13:30.476.18-Apr-2020 3016.07 4463.19 69.65 2.00 381.84 1944.23
   07:13:30.676.18-Apr-2020 3016.07 4463.53 69.65 2.00 382.04 1944.23
   07:13:30.876.18-Apr-2020 3016.07 4463.53 69.65 2.00 382.24 1944.23
   07:13:31.076.18-Apr-2020 3016.07 4463.77 69.65 2.00 382.44 1944.23
   07:13:31.276.18-Apr-2020 3016.07 4463.84 69.64 2.00 382.64 1944.23
   07:13:31.476.18-Apr-2020 3016.07 4464.43 69.64 2.00 382.84 1944.23
   07:13:31.676.18-Apr-2020 3016.07 4464.61 69.64 2.00 383.04 1944.23
   07:13:31.876.18-Apr-2020 3016.07 4464.26 69.64 2.00 383.24 1944.23
   07:13:32.076.18-Apr-2020 3016.07 4462.84 69.64 2.00 383.44 1944.23
   07:13:32.276.18-Apr-2020 3016.07 4464.85 69.64 2.00 383.64 1944.23
   07:13:32.476.18-Apr-2020 3016.07 4465.89 69.64 2.00 383.84 1944.23
   07:13:32.676.18-Apr-2020 3016.07 4464.93 69.64 2.00 384.04 1944.23
   07:13:32.876.18-Apr-2020 3016.07 4464.93 69.64 2.00 384.24 1944.23
   07:13:33.076.18-Apr-2020 3016.07 4465.94 69.64 2.00 384.44 1944.23
   07:13:33.277.18-Apr-2020 3016.07 4466.17 69.64 2.00 384.64 1944.23
   07:13:33.477.18-Apr-2020 3016.07 4465.36 69.64 2.00 384.84 1944.23
   07:13:33.677.18-Apr-2020 3016.07 4463.67 69.64 2.00 385.04 1944.23
   07:13:33.877.18-Apr-2020 3016.07 4463.67 69.64 2.00 385.24 1944.23
   07:13:34.077.18-Apr-2020 3016.07 4465.54 69.64 2.00 385.44 1944.23
   07:13:34.277.18-Apr-2020 3016.07 4465.01 69.64 2.00 385.64 1944.23
   07:13:34.477.18-Apr-2020 3016.07 4462.30 69.64 2.00 385.84 1944.23
   07:13:34.677.18-Apr-2020 3016.07 4465.78 69.64 2.00 386.04 1944.23
   07:13:34.877.18-Apr-2020 3016.07 4465.78 69.64 2.00 386.24 1944.23
   07:13:35.077.18-Apr-2020 3016.07 4465.45 69.64 2.00 386.44 1944.23
   07:13:35.277.18-Apr-2020 3016.07 4464.73 69.64 2.00 386.64 1944.23
   07:13:35.477.18-Apr-2020 3016.07 4465.72 69.64 2.00 386.84 1944.23
   07:13:35.677.18-Apr-2020 3016.07 4465.25 69.64 2.00 387.04 1944.23
   07:13:35.877.18-Apr-2020 3016.07 4466.58 69.64 2.00 387.24 1944.23
   07:13:36.077.18-Apr-2020 3016.07 4466.48 69.64 2.00 387.44 1944.23
   07:13:36.277.18-Apr-2020 3016.07 4466.49 69.64 2.00 387.64 1944.23
   07:13:36.477.18-Apr-2020 3016.07 4467.91 69.64 2.00 387.84 1944.23
   07:13:36.677.18-Apr-2020 3016.07 4467.11 69.64 2.00 388.04 1944.23
   07:13:36.877.18-Apr-2020 3016.07 4467.11 69.64 2.00 388.24 1944.23
   07:13:37.077.18-Apr-2020 3016.07 4465.93 69.64 2.00 388.44 1944.23
   07:13:37.277.18-Apr-2020 3016.07 4466.42 69.64 2.00 388.64 1944.23
   07:13:37.477.18-Apr-2020 3016.07 4466.40 69.64 2.00 388.84 1944.23
   07:13:37.677.18-Apr-2020 3016.07 4466.04 69.64 2.00 389.04 1944.23
   07:13:37.877.18-Apr-2020 3016.07 4466.04 69.64 2.00 389.24 1944.23
   07:13:38.077.18-Apr-2020 3016.07 4465.51 69.64 2.00 389.44 1944.23
   07:13:38.277.18-Apr-2020 3016.07 4465.71 69.64 2.00 389.64 1944.23
   07:13:38.477.18-Apr-2020 3016.07 4463.72 69.64 2.00 389.84 1944.23
   07:13:38.677.18-Apr-2020 3016.07 4466.10 69.64 2.00 390.04 1944.23
   07:13:38.877.18-Apr-2020 3016.07 4466.10 69.64 2.00 390.24 1944.23
   07:13:39.077.18-Apr-2020 3016.07 4466.68 69.64 2.00 390.44 1944.23
   07:13:39.277.18-Apr-2020 3016.07 4466.75 69.64 2.00 390.64 1944.23
   07:13:39.477.18-Apr-2020 3016.07 4466.46 69.64 2.00 390.84 1944.23
