~Version Information
 VERS.                  2.0:   CWLS log ASCII Standard -VERSION 2.0
 WRAP.                   NO:   One line per depth step
~Well Information Block
#MNEM.UNIT     VALUE/NAME     DESCRIPTION
#---------     -----------    ---------------------------
 STRT.S             15:57:21 18-Apr-20: START TIME 15:57:21 18-Apr-20
 STOP.S             16:04:15 18-Apr-20: STOP TIME  16:04:15 18-Apr-20
 STEP.S                   0.00: STEP TIME
 NULL.                 -999.25: NULL VALUE
 DFWT.                        :  DIST FWL TEXT
 DFST.                        :  DIST FSL TEXT
 DMF .                        :  DRILL MEAS FROM
 STIM.      16.29.52 23-Mar-20:  START TIME
 DATE.      16.29.52 23-Mar-20:  END TIME
 SPUD.               23-Mar-20:  SPUD DATE
 NREF.                    Grid:  NORTH REFERENCE
 HPTY.       Minimum Curvature:  HOLE POS TYPE
 DMOD.             Drill Model:  DRILL MOD DESC
 SVYD.                  Survey:  SURVEY DESC
 ILTD.               Lithology:  INTERP LTH DESC
 FTOP.          Formation Tops:  FORM TOPS DESC
 SON .        AZ-XX-0906252240:  JOB NUMBER
 RIG .             West Chirag:  RIG NAME
 PDAT.          Mean Sea Level:  PERMANENT DATUM
 FLD .                     ACG:  FIELD NAME
 CTRY.              Azerbaijan:  COUNTRY NAME
 WELL.           J23 (Slot 07):  WELL NAME
 SRVC.          Turan Drilling:  CONTRACTOR
 COMP.     BP Exploration (Casoian Sea) Ltd:  COMPANY
 WTYP.                Deviated:  WELL TYPE
 MDS .        Operator Entered:  MAG DATA SOURCE
 UWI .                     N/A:  UNIQUE WELL IDENTIFIER
 API .                     N/A:  API NUMBER
 BASE.              Azerbaijan:  LOGGING EQUIPMENT BASE LOCATION
 REGN.                   EESSA:  REGION
 PROV.                    Baku:  PROVINCE
 STAT.                    Baku:  STATE NAME
 MWDS.                     N/A:  MWD SHOP
 JOBN.        AZ-XX-0906252240:  JOB TICKET NUMB
 DOE .                     N/A:  DOE NUMBER
 DCON.         Sperry Drilling:  DIRECTNL CONTR
 UNIT.                     N/A:  LOGGING EQUIPMENT ID
 CNTY.                        :  COUNTY
 LOC .                        :  LOCATION
 LMF .             Drill Floor:  LOG MEASURED FROM
 TVDS.m                  43.00:  TVDSS CORRECTN
 LATI.deg                40.13:  LATITUDE
 LONG.deg                51.22:  LONGITUDE
 WHNS.m                   9.43:  WELL HEAD N/S
 WHEW.m                  -8.91:  WELL HEAD E/W
 UTMX.m              519005.06:  UTM X
 UTMY.m             4443793.85:  UTM Y
 DFWL.m                   0.00:  DISTANCE FWL
 DFSL.m                   0.00:  DISTANCE FSL
 SDEP.m                   0.00:  START DEPTH
 TDD .m                   0.00:  TOTAL DEPTH (DRILLER)
 VSDR.deg               179.88:  VERT SEC DIRECT
 GVFD.g                   1.00:  GRAVITY FIELD
 MFLD.nT              50281.00:  MAGNETIC FIELD
 MDIP.deg                59.58:  MAGNETIC DIP
 MDEC.deg                 6.48:  MAGNETIC DECL
 GRDC.deg                 0.14:  GRID CORRECTION
 AZTC.deg                 6.34:  AZM TOTAL CORR
 EPD .m                   0.00:  ELEVATION
 EGL .m                   0.00:  GROUND ELEVATION
 WDMS.m                 169.80:  WD ELEV
 APD .m                  43.00:  DEPTH ABOVE PD
 DEP .m                 354.17:  DEPTH
 AGAP.m                  43.00:  AIR GAP
 VSEW.m                  -8.91:  VERT SEC E/W
 VSNS.m                   9.43:  VERT SEC N/S
 EKB .m                   0.00:  KB ELEVATION
 EDF .m                  43.00:  DF ELEVATION
 TDL .m                1326.00:  TOTAL DEPTH (LOGGER)
 VSC .                       0:  VS TO CLOSURE
 MAGU.                 1850704:  MAGUTM CHECKSUM
~Parameter Information Block
#MNEM.UNIT       Value        Description
#---------     -----------    ---------------------------
 AV  .mps                 1.17:  Ann Velocity 
 AZIF.deg               184.04:  Azm, Final 
 BHAT.        Rotary Steerable:  BHA Type 
 BREV.rev            620000.00:  Rev Bit Total 
 BROT.°/30m               0.20:  Build Rotating 
 BS  .in                 14.75:  Bit Size 
 BSZ .in                 14.75:  Bit Size 
 BTPL.psig              618.00:  Bit Press Loss 
 CABU.                      No:  Customer Abuse 
 COMM.                     ¬)g:  Run Comments 1 
 TCS .hr                 87.68:  Time Ciculation Ended 
 CV  .mps                 3.10:  Crit Velocity 
 DD1 .          Rashad Habibov:  Direct Drillr 1 
 DD2 .         Rasim Ibrahimov:  Direct Drillr 2 
 DDSV.               Geo-Pilot:  DD Service 
 DEFF.%                  98.00:  % Det Eff 
 DLRX.°/30m               1.48:  Dogleg Rot Max 
 DLSO.°/30m               0.50:  Dogleg Oriented 
 DLSX.°/30m               1.48:  Dogleg Str Max 
 DRET.      06.18.56 19-Apr-20:  Drill End Time 
 DRST.      15.00.56 15-Apr-20:  Drill Start Tim 
 DTIM.hr                 51.73:  Time Drilling 
 EDEP.m                3410.01:  End Depth 
 ENG1.        Marcelo Sandoval:  Engineer 1 
 ENG2.        Davud Huseynzade:  Engineer 2 
 ENG3.          Ruslan Safarov:  Engineer 3 
 ETIM.      04.00.56 20-Apr-20:  End Time 
 FLOI.gpm              1000.00:  Flow In 
 FLON.gpm               600.00:  Flow In Min 
 FLOS.cptm                0.00:  Fluid Loss 
 FLOX.gpm              1200.00:  Flow In Max 
 HFLO.                      No:  High Flow 
 HPRE.                     Yes:  High Pressure 
 HTEM.                      No:  High Temp 
 HYDO.m                   1.80:  Hydro Offset 
 IFIN.deg                70.04:  Inc, Final 
 IMAX.deg                70.56:  Inc Max 
 IMIN.deg                69.85:  Inc Min 
 IMND.m                3103.24:  Inc Min Depth 
 IMXD.m                2876.63:  Inc Max Depth 
 JARR.                      No:  Jarring 
 LETM.      06.18.56 19-Apr-20:  Log End Time 
 LOST.hr                     0:  Lost Rig Time 
 LSTM.      15.00.56 15-Apr-20:  Log Start Time 
 MDCL.ppm             42000.00:  Mud Chlorides 
 MDES.     Inversion Oil/Synthetic:  Mud Desc 
 DFD .sg                  1.58:  Mud Density 
 MDMN.sg                  1.58:  Dens Mud Min 
 MDMX.sg                  1.58:  Dens Mud Max 
 MOIL.                      71:  Run Mud Oil % 
 MOWR.                   71:29:  Run Mud OWR 
 MSND.                       0:  Run Mud Sand % 
 MSOL.                    23.3:  Run Mud Solids% 
 DFV .spqt               84.00:  Mud Viscosity 
 MWOD.in                  9.50:  MWD Tool OD 
 MWSI.                      No:  Serv Intrp, MWD 
 OTIM.hr                139.62:  Time Operating 
 PMAX.psia             5364.69:  Press Op, Max 
 PV  .cP                 80.00:  Mud PV 
 RUN .                     700:  Run Number 
 ROPA.m/hr               25.00:  ROP Avg 
 ROPN.m/hr               11.00:  ROP Min 
 ROPX.m/hr               36.00:  ROP Max 
 RPMA.rpm               130.00:  RPM Surface Avg 
 RPMN.rpm               120.00:  RPM Surface Min 
 RPMX.rpm               140.00:  RPM Surface Max 
 RRUN.                    0700:  Rig Run Number 
 SAZI.deg               183.25:  Azm, Start 
 SDEP.m                2084.00:  Start Depth 
 SIDD.                      No:  Serv Intrp, DD 
 SINC.deg                70.38:  Inc, Start 
 SPPA.psig             4800.00:  SPP Avg 
 SPPN.psig             4400.00:  SPP Min 
 SPPX.psig             5350.00:  SPP Max 
 STIM.      16.30.56 14-Apr-20:  Start Time 
 SVCS.                 DD, MWD:  Services 
 SVER.                    9.20:  Sperry Version 
 TDAT.m                1326.00:  Tot Depth Attmp 
 TDDF.                      No:  Trip for DD 
 TDLG.m                1326.00:  Tot Depth Loggd 
 TFF .                      No:  Trip for Fail 
 TQAA.f-kp               19.00:  Torque Abs Avg 
 TQAN.f-kp                8.00:  Torque Abs Min 
 TQAX.f-kp               27.00:  Torque Abs Max 
 TRRT.°/30m               0.50:  Turn Rotating 
 MRT .                    HCIM:  Maximum Recorded Temperature 
 TTMX.degC               82.35:  Max Tool Temp 
 VS01.       905245875X1Z1W1C8:  Virtual Str1 SN 
 VS02.       90608022F11V7D1A9:  Virtual Str2 SN 
 VS03.            90605473R5C9:  Virtual Str3 SN 
 WBMN.klb                11.00:  WOB Min 
 WOBA.klb                21.00:  WOB Avg 
 WOBX.klb                30.00:  WOB Max 
 YP  .lhf2               45.00:  Yield Point 
~Curve Information Block
#MNEM.UNIT                 API CODE     Curve Description
#---------               -----------    ---------------------------
 TIME.HHMMSS            00 000 000 000:  GT Time & Date
 GTDEPTH.m              00 000 000 000:  GT Depth
 GTPQH.psia             00 000 000 000:  GT HR Quartz Pressure
 GTTQ.degC              00 000 000 000:  GT Quartz Temperature
 GTTN.NONE              00 000 000 000:  GT Test Number
 GTET.sec               00 000 000 000:  GT Elapsed Test Time
 GTTVD.m                00 000 000 000:  GT True Vertical Depth
#Other Information
#
#WARRANTY: Halliburton will use its best efforts to furnish customers with 
#accurate information and interpretations that are part of, and incident to, the services 
#provided.  However, Halliburton cannot and does not warrant the accuracy 
#or correctness of such information and interpretations.  Under no circumstances should any 
#such information or interpretation be relied upon as the sole basis for any drilling, 
#completion, production, or financial decision or any procedure involving any risk to the 
#safety of any drilling venture, drilling rig or its crew or any other third party.  The 
#Customer has full responsibility for all drilling, completion and production operation.  
#Halliburton makes no representations or warranties, either expressed or 
#implied, including, but not limited to, the implied warranties of merchantability or fitness 
#for a particular purpose, with respect to the services rendered.  In no event will 
#Halliburton be liable for failure to obtain any particular results or for 
#any damages, including, but not limited to, indirect, special or consequential damages, 
#resulting from the use of any information or interpretation provided by Halliburton.
#
~A           TIME           GTDEPTH  GTPQH  GTTQ  GTTN  GTET   GTTVD  
# ...
   16:03:52.160.18-Apr-2020 3140.11 4556.33 67.42 7.00 390.95 1986.54
   16:03:52.360.18-Apr-2020 3140.11 4555.60 67.42 7.00 391.15 1986.54
   16:03:52.560.18-Apr-2020 3140.11 4555.07 67.42 7.00 391.35 1986.54
   16:03:52.760.18-Apr-2020 3140.11 4555.62 67.42 7.00 391.55 1986.54
   16:03:52.960.18-Apr-2020 3140.11 4555.28 67.42 7.00 391.75 1986.54
   16:03:53.160.18-Apr-2020 3140.11 4555.41 67.42 7.00 391.95 1986.54
   16:03:53.360.18-Apr-2020 3140.11 4555.41 67.42 7.00 392.15 1986.54
   16:03:53.560.18-Apr-2020 3140.11 4554.75 67.42 7.00 392.35 1986.54
   16:03:53.760.18-Apr-2020 3140.11 4553.28 67.42 7.00 392.55 1986.54
   16:03:53.960.18-Apr-2020 3140.11 4556.09 67.42 7.00 392.75 1986.54
   16:03:54.159.18-Apr-2020 3140.11 4556.39 67.42 7.00 392.95 1986.54
   16:03:54.359.18-Apr-2020 3140.11 4556.39 67.42 7.00 393.15 1986.54
   16:03:54.559.18-Apr-2020 3140.11 4556.80 67.42 7.00 393.35 1986.54
   16:03:54.759.18-Apr-2020 3140.11 4556.63 67.42 7.00 393.55 1986.54
   16:03:54.959.18-Apr-2020 3140.11 4556.46 67.42 7.00 393.75 1986.54
   16:03:55.159.18-Apr-2020 3140.11 4555.98 67.42 7.00 393.95 1986.54
   16:03:55.359.18-Apr-2020 3140.11 4555.98 67.42 7.00 394.15 1986.54
   16:03:55.559.18-Apr-2020 3140.11 4555.78 67.42 7.00 394.35 1986.54
   16:03:55.759.18-Apr-2020 3140.11 4555.67 67.42 7.00 394.55 1986.54
   16:03:55.959.18-Apr-2020 3140.11 4555.93 67.42 7.00 394.75 1986.54
   16:03:56.159.18-Apr-2020 3140.11 4556.10 67.42 7.00 394.95 1986.54
   16:03:56.359.18-Apr-2020 3140.11 4552.81 67.42 7.00 395.15 1986.54
   16:03:56.559.18-Apr-2020 3140.11 4555.86 67.42 7.00 395.35 1986.54
   16:03:56.759.18-Apr-2020 3140.11 4556.10 67.42 7.00 395.55 1986.54
   16:03:56.959.18-Apr-2020 3140.11 4554.82 67.42 7.00 395.75 1986.54
   16:03:57.159.18-Apr-2020 3140.11 4555.31 67.42 7.00 395.95 1986.54
   16:03:57.359.18-Apr-2020 3140.11 4555.31 67.42 7.00 396.15 1986.54
   16:03:57.559.18-Apr-2020 3140.11 4556.16 67.42 7.00 396.35 1986.54
   16:03:57.759.18-Apr-2020 3140.11 4554.47 67.42 7.00 396.55 1986.54
   16:03:57.959.18-Apr-2020 3140.11 4555.69 67.42 7.00 396.75 1986.54
   16:03:58.159.18-Apr-2020 3140.11 4556.65 67.42 7.00 396.95 1986.54
   16:03:58.359.18-Apr-2020 3140.11 4556.65 67.42 7.00 397.15 1986.54
   16:03:58.559.18-Apr-2020 3140.11 4553.35 67.42 7.00 397.35 1986.54
   16:03:58.759.18-Apr-2020 3140.11 4556.38 67.42 7.00 397.55 1986.54
   16:03:58.959.18-Apr-2020 3140.11 4556.05 67.42 7.00 397.75 1986.54
   16:03:59.159.18-Apr-2020 3140.11 4554.92 67.42 7.00 397.95 1986.54
   16:03:59.359.18-Apr-2020 3140.11 4554.92 67.42 7.00 398.15 1986.54
   16:03:59.559.18-Apr-2020 3140.11 4555.47 67.42 7.00 398.35 1986.54
   16:03:59.759.18-Apr-2020 3140.11 4553.68 67.42 7.00 398.55 1986.54
   16:03:59.959.18-Apr-2020 3140.11 4555.53 67.42 7.00 398.75 1986.54
   16:04:00.159.18-Apr-2020 3140.11 4555.73 67.42 7.00 398.95 1986.54
   16:04:00.359.18-Apr-2020 3140.11 4555.47 67.42 7.00 399.15 1986.54
   16:04:00.559.18-Apr-2020 3140.11 4555.73 67.42 7.00 399.35 1986.54
   16:04:00.759.18-Apr-2020 3140.11 4555.70 67.42 7.00 399.55 1986.54
   16:04:00.959.18-Apr-2020 3140.11 4556.66 67.42 7.00 399.75 1986.54
   16:04:01.159.18-Apr-2020 3140.11 4556.49 67.42 7.00 399.95 1986.54
   16:04:01.359.18-Apr-2020 3140.11 4556.49 67.42 7.00 400.15 1986.54
   16:04:01.559.18-Apr-2020 3140.11 4555.74 67.42 7.00 400.35 1986.54
   16:04:01.759.18-Apr-2020 3140.11 4555.60 67.42 7.00 400.55 1986.54
   16:04:01.959.18-Apr-2020 3140.11 4555.19 67.42 7.00 400.75 1986.54
   16:04:02.159.18-Apr-2020 3140.11 4555.43 67.42 7.00 400.95 1986.54
   16:04:02.359.18-Apr-2020 3140.11 4555.43 67.42 7.00 401.15 1986.54
   16:04:02.559.18-Apr-2020 3140.11 4552.61 67.42 7.00 401.35 1986.54
   16:04:02.758.18-Apr-2020 3140.11 4555.49 67.42 7.00 401.55 1986.54
   16:04:02.958.18-Apr-2020 3140.11 4556.21 67.42 7.00 401.75 1986.54
   16:04:03.158.18-Apr-2020 3140.11 4555.35 67.42 7.00 401.95 1986.54
   16:04:03.358.18-Apr-2020 3140.11 4555.35 67.42 7.00 402.15 1986.54
   16:04:03.558.18-Apr-2020 3140.11 4556.38 67.42 7.00 402.35 1986.54
   16:04:03.758.18-Apr-2020 3140.11 4556.96 67.42 7.00 402.55 1986.54
   16:04:03.958.18-Apr-2020 3140.11 4556.98 67.42 7.00 402.75 1986.54
   16:04:04.158.18-Apr-2020 3140.11 4556.55 67.42 7.00 402.95 1986.54
   16:04:04.358.18-Apr-2020 3140.11 4556.96 67.42 7.00 403.15 1986.54
   16:04:04.558.18-Apr-2020 3140.11 4556.72 67.42 7.00 403.35 1986.54
   16:04:04.758.18-Apr-2020 3140.11 4556.18 67.42 7.00 403.55 1986.54
   16:04:04.958.18-Apr-2020 3140.11 4556.45 67.42 7.00 403.75 1986.54
   16:04:05.158.18-Apr-2020 3140.11 4555.17 67.42 7.00 403.95 1986.54
   16:04:05.358.18-Apr-2020 3140.11 4555.17 67.42 7.00 404.15 1986.54
   16:04:05.558.18-Apr-2020 3140.11 4556.75 67.42 7.00 404.35 1986.54
   16:04:05.758.18-Apr-2020 3140.11 4557.20 67.42 7.00 404.55 1986.54
   16:04:05.958.18-Apr-2020 3140.11 4556.98 67.42 7.00 404.75 1986.54
   16:04:06.158.18-Apr-2020 3140.11 4560.56 67.42 7.00 404.95 1986.54
   16:04:06.358.18-Apr-2020 3140.11 4560.56 67.42 7.00 405.15 1986.54
   16:04:06.558.18-Apr-2020 3140.11 4642.71 67.42 7.00 405.35 1986.54
   16:04:06.758.18-Apr-2020 3140.11 4748.45 67.42 7.00 405.55 1986.54
   16:04:06.958.18-Apr-2020 3140.11 4719.97 67.41 7.00 405.75 1986.54
   16:04:07.158.18-Apr-2020 3140.11 4685.29 67.41 7.00 405.95 1986.54
   16:04:07.358.18-Apr-2020 3140.11 4685.29 67.41 7.00 406.15 1986.54
   16:04:07.558.18-Apr-2020 3140.11 4627.39 67.41 7.00 406.35 1986.54
   16:04:07.758.18-Apr-2020 3140.11 4689.13 67.41 7.00 406.55 1986.54
   16:04:07.958.18-Apr-2020 3140.11 4702.59 67.41 7.00 406.75 1986.54
   16:04:08.158.18-Apr-2020 3140.11 4667.48 67.41 7.00 406.95 1986.54
   16:04:08.358.18-Apr-2020 3140.11 4673.40 67.41 7.00 407.15 1986.54
   16:04:08.558.18-Apr-2020 3140.11 4749.90 67.41 7.00 407.35 1986.54
   16:04:08.758.18-Apr-2020 3140.11 4707.15 67.41 7.00 407.55 1986.54
   16:04:08.958.18-Apr-2020 3140.11 4567.15 67.41 7.00 407.75 1986.54
   16:04:09.158.18-Apr-2020 3140.11 4730.32 67.41 7.00 407.95 1986.54
   16:04:09.358.18-Apr-2020 3140.11 4730.32 67.41 7.00 408.15 1986.54
   16:04:09.558.18-Apr-2020 3140.11 4660.58 67.41 7.00 408.35 1986.54
   16:04:09.758.18-Apr-2020 3140.11 4672.23 67.41 7.00 408.55 1986.54
   16:04:09.958.18-Apr-2020 3140.11 4576.64 67.41 7.00 408.75 1986.54
   16:04:10.158.18-Apr-2020 3140.11 4571.94 67.41 7.00 408.95 1986.54
   16:04:10.358.18-Apr-2020 3140.11 4571.94 67.41 7.00 409.15 1986.54
   16:04:10.558.18-Apr-2020 3140.11 4601.90 67.41 7.00 409.35 1986.54
   16:04:10.758.18-Apr-2020 3140.11 4681.45 67.41 7.00 409.55 1986.54
   16:04:10.958.18-Apr-2020 3140.11 4592.57 67.41 7.00 409.75 1986.54
   16:04:11.158.18-Apr-2020 3140.11 4630.45 67.41 7.00 409.95 1986.54
   16:04:11.357.18-Apr-2020 3140.11 4630.45 67.41 7.00 410.15 1986.54
   16:04:11.557.18-Apr-2020 3140.11 4556.00 67.41 7.00 410.35 1986.54
   16:04:11.757.18-Apr-2020 3140.11 4555.92 67.41 7.00 410.55 1986.54
   16:04:11.957.18-Apr-2020 3140.11 4556.76 67.41 7.00 410.75 1986.54
   16:04:12.157.18-Apr-2020 3140.11 4556.72 67.41 7.00 410.95 1986.54
   16:04:12.357.18-Apr-2020 3140.11 4556.50 67.41 7.00 411.15 1986.54
   16:04:12.557.18-Apr-2020 3140.11 4557.07 67.41 7.00 411.35 1986.54
   16:04:12.757.18-Apr-2020 3140.11 4556.88 67.41 7.00 411.55 1986.54
   16:04:12.957.18-Apr-2020 3140.11 4556.25 67.41 7.00 411.75 1986.54
   16:04:13.157.18-Apr-2020 3140.11 4556.48 67.41 7.00 411.95 1986.54
   16:04:13.357.18-Apr-2020 3140.11 4556.48 67.41 7.00 412.15 1986.54
   16:04:13.557.18-Apr-2020 3140.11 4556.20 67.41 7.00 412.35 1986.54
   16:04:13.757.18-Apr-2020 3140.11 4556.22 67.41 7.00 412.55 1986.54
   16:04:13.957.18-Apr-2020 3140.11 4554.41 67.41 7.00 412.75 1986.54
   16:04:14.157.18-Apr-2020 3140.11 4554.81 67.41 7.00 412.95 1986.54
   16:04:14.357.18-Apr-2020 3140.11 4554.81 67.41 7.00 413.15 1986.54
   16:04:14.557.18-Apr-2020 3140.11 4555.14 67.41 7.00 413.35 1986.54
   16:04:14.757.18-Apr-2020 3140.11 4553.16 67.41 7.00 413.55 1986.54
   16:04:14.957.18-Apr-2020 3140.11 4556.07 67.41 7.00 413.75 1986.54
