~Version Information
 VERS.                  2.0:   CWLS log ASCII Standard -VERSION 2.0
 WRAP.                   NO:   One line per depth step
~Well Information Block
#MNEM.UNIT     VALUE/NAME     DESCRIPTION
#---------     -----------    ---------------------------
 STRT.S             08:47:02 18-Apr-20: START TIME 08:47:02 18-Apr-20
 STOP.S             08:53:58 18-Apr-20: STOP TIME  08:53:58 18-Apr-20
 STEP.S                   0.00: STEP TIME
 NULL.                 -999.25: NULL VALUE
 DFWT.                        :  DIST FWL TEXT
 DFST.                        :  DIST FSL TEXT
 DMF .                        :  DRILL MEAS FROM
 STIM.      16.29.52 23-Mar-20:  START TIME
 DATE.      16.29.52 23-Mar-20:  END TIME
 SPUD.               23-Mar-20:  SPUD DATE
 NREF.                    Grid:  NORTH REFERENCE
 HPTY.       Minimum Curvature:  HOLE POS TYPE
 DMOD.             Drill Model:  DRILL MOD DESC
 SVYD.                  Survey:  SURVEY DESC
 ILTD.               Lithology:  INTERP LTH DESC
 FTOP.          Formation Tops:  FORM TOPS DESC
 SON .        AZ-XX-0906252240:  JOB NUMBER
 RIG .             West Chirag:  RIG NAME
 PDAT.          Mean Sea Level:  PERMANENT DATUM
 FLD .                     ACG:  FIELD NAME
 CTRY.              Azerbaijan:  COUNTRY NAME
 WELL.           J23 (Slot 07):  WELL NAME
 SRVC.          Turan Drilling:  CONTRACTOR
 COMP.     BP Exploration (Casoian Sea) Ltd:  COMPANY
 WTYP.                Deviated:  WELL TYPE
 MDS .        Operator Entered:  MAG DATA SOURCE
 UWI .                     N/A:  UNIQUE WELL IDENTIFIER
 API .                     N/A:  API NUMBER
 BASE.              Azerbaijan:  LOGGING EQUIPMENT BASE LOCATION
 REGN.                   EESSA:  REGION
 PROV.                    Baku:  PROVINCE
 STAT.                    Baku:  STATE NAME
 MWDS.                     N/A:  MWD SHOP
 JOBN.        AZ-XX-0906252240:  JOB TICKET NUMB
 DOE .                     N/A:  DOE NUMBER
 DCON.         Sperry Drilling:  DIRECTNL CONTR
 UNIT.                     N/A:  LOGGING EQUIPMENT ID
 CNTY.                        :  COUNTY
 LOC .                        :  LOCATION
 LMF .             Drill Floor:  LOG MEASURED FROM
 TVDS.m                  43.00:  TVDSS CORRECTN
 LATI.deg                40.13:  LATITUDE
 LONG.deg                51.22:  LONGITUDE
 WHNS.m                   9.43:  WELL HEAD N/S
 WHEW.m                  -8.91:  WELL HEAD E/W
 UTMX.m              519005.06:  UTM X
 UTMY.m             4443793.85:  UTM Y
 DFWL.m                   0.00:  DISTANCE FWL
 DFSL.m                   0.00:  DISTANCE FSL
 SDEP.m                   0.00:  START DEPTH
 TDD .m                   0.00:  TOTAL DEPTH (DRILLER)
 VSDR.deg               179.88:  VERT SEC DIRECT
 GVFD.g                   1.00:  GRAVITY FIELD
 MFLD.nT              50281.00:  MAGNETIC FIELD
 MDIP.deg                59.58:  MAGNETIC DIP
 MDEC.deg                 6.48:  MAGNETIC DECL
 GRDC.deg                 0.14:  GRID CORRECTION
 AZTC.deg                 6.34:  AZM TOTAL CORR
 EPD .m                   0.00:  ELEVATION
 EGL .m                   0.00:  GROUND ELEVATION
 WDMS.m                 169.80:  WD ELEV
 APD .m                  43.00:  DEPTH ABOVE PD
 DEP .m                 354.17:  DEPTH
 AGAP.m                  43.00:  AIR GAP
 VSEW.m                  -8.91:  VERT SEC E/W
 VSNS.m                   9.43:  VERT SEC N/S
 EKB .m                   0.00:  KB ELEVATION
 EDF .m                  43.00:  DF ELEVATION
 TDL .m                1326.00:  TOTAL DEPTH (LOGGER)
 VSC .                       0:  VS TO CLOSURE
 MAGU.                 1850704:  MAGUTM CHECKSUM
~Parameter Information Block
#MNEM.UNIT       Value        Description
#---------     -----------    ---------------------------
 AV  .mps                 1.17:  Ann Velocity 
 AZIF.deg               184.04:  Azm, Final 
 BHAT.        Rotary Steerable:  BHA Type 
 BREV.rev            620000.00:  Rev Bit Total 
 BROT.°/30m               0.20:  Build Rotating 
 BS  .in                 14.75:  Bit Size 
 BSZ .in                 14.75:  Bit Size 
 BTPL.psig              618.00:  Bit Press Loss 
 CABU.                      No:  Customer Abuse 
 TCS .hr                 87.68:  Time Ciculation Ended 
 CV  .mps                 3.10:  Crit Velocity 
 DD1 .          Rashad Habibov:  Direct Drillr 1 
 DD2 .         Rasim Ibrahimov:  Direct Drillr 2 
 DDSV.               Geo-Pilot:  DD Service 
 DEFF.%                  98.00:  % Det Eff 
 DLRX.°/30m               1.48:  Dogleg Rot Max 
 DLSO.°/30m               0.50:  Dogleg Oriented 
 DLSX.°/30m               1.48:  Dogleg Str Max 
 DRET.      06.18.56 19-Apr-20:  Drill End Time 
 DRST.      15.00.56 15-Apr-20:  Drill Start Tim 
 DTIM.hr                 51.73:  Time Drilling 
 EDEP.m                3410.01:  End Depth 
 ENG1.        Marcelo Sandoval:  Engineer 1 
 ENG2.        Davud Huseynzade:  Engineer 2 
 ENG3.          Ruslan Safarov:  Engineer 3 
 ETIM.      04.00.56 20-Apr-20:  End Time 
 FLOI.gpm              1000.00:  Flow In 
 FLON.gpm               600.00:  Flow In Min 
 FLOS.cptm                0.00:  Fluid Loss 
 FLOX.gpm              1200.00:  Flow In Max 
 HFLO.                      No:  High Flow 
 HPRE.                     Yes:  High Pressure 
 HTEM.                      No:  High Temp 
 HYDO.m                   1.80:  Hydro Offset 
 IFIN.deg                70.04:  Inc, Final 
 IMAX.deg                70.56:  Inc Max 
 IMIN.deg                69.85:  Inc Min 
 IMND.m                3103.24:  Inc Min Depth 
 IMXD.m                2876.63:  Inc Max Depth 
 JARR.                      No:  Jarring 
 LETM.      06.18.56 19-Apr-20:  Log End Time 
 LOST.hr                     0:  Lost Rig Time 
 LSTM.      15.00.56 15-Apr-20:  Log Start Time 
 MDCL.ppm             42000.00:  Mud Chlorides 
 MDES.     Inversion Oil/Synthetic:  Mud Desc 
 DFD .sg                  1.58:  Mud Density 
 MDMN.sg                  1.58:  Dens Mud Min 
 MDMX.sg                  1.58:  Dens Mud Max 
 MOIL.                      71:  Run Mud Oil % 
 MOWR.                   71:29:  Run Mud OWR 
 MSND.                       0:  Run Mud Sand % 
 MSOL.                    23.3:  Run Mud Solids% 
 DFV .spqt               84.00:  Mud Viscosity 
 MWOD.in                  9.50:  MWD Tool OD 
 MWSI.                      No:  Serv Intrp, MWD 
 OTIM.hr                139.62:  Time Operating 
 PMAX.psia             5364.69:  Press Op, Max 
 PV  .cP                 80.00:  Mud PV 
 RUN .                     700:  Run Number 
 ROPA.m/hr               25.00:  ROP Avg 
 ROPN.m/hr               11.00:  ROP Min 
 ROPX.m/hr               36.00:  ROP Max 
 RPMA.rpm               130.00:  RPM Surface Avg 
 RPMN.rpm               120.00:  RPM Surface Min 
 RPMX.rpm               140.00:  RPM Surface Max 
 RRUN.                    0700:  Rig Run Number 
 SAZI.deg               183.25:  Azm, Start 
 SDEP.m                2084.00:  Start Depth 
 SIDD.                      No:  Serv Intrp, DD 
 SINC.deg                70.38:  Inc, Start 
 SPPA.psig             4800.00:  SPP Avg 
 SPPN.psig             4400.00:  SPP Min 
 SPPX.psig             5350.00:  SPP Max 
 STIM.      16.30.56 14-Apr-20:  Start Time 
 SVCS.                 DD, MWD:  Services 
 SVER.                    9.20:  Sperry Version 
 TDAT.m                1326.00:  Tot Depth Attmp 
 TDDF.                      No:  Trip for DD 
 TDLG.m                1326.00:  Tot Depth Loggd 
 TFF .                      No:  Trip for Fail 
 TQAA.f-kp               19.00:  Torque Abs Avg 
 TQAN.f-kp                8.00:  Torque Abs Min 
 TQAX.f-kp               27.00:  Torque Abs Max 
 TRRT.°/30m               0.50:  Turn Rotating 
 MRT .                    HCIM:  Maximum Recorded Temperature 
 TTMX.degC               82.35:  Max Tool Temp 
 VS01.       905245875X1Z1W1C8:  Virtual Str1 SN 
 VS02.       90608022F11V7D1A9:  Virtual Str2 SN 
 VS03.            90605473R5C9:  Virtual Str3 SN 
 WBMN.klb                11.00:  WOB Min 
 WOBA.klb                21.00:  WOB Avg 
 WOBX.klb                30.00:  WOB Max 
 YP  .lhf2               45.00:  Yield Point 
~Curve Information Block
#MNEM.UNIT                 API CODE     Curve Description
#---------               -----------    ---------------------------
 TIME.HHMMSS            00 000 000 000:  GT Time & Date
 GTDEPTH.m              00 000 000 000:  GT Depth
 GTPQH.psia             00 000 000 000:  GT HR Quartz Pressure
 GTTQ.degC              00 000 000 000:  GT Quartz Temperature
 GTTN.NONE              00 000 000 000:  GT Test Number
 GTET.sec               00 000 000 000:  GT Elapsed Test Time
 GTTVD.m                00 000 000 000:  GT True Vertical Depth
#Other Information
#
#WARRANTY: Halliburton will use its best efforts to furnish customers with 
#accurate information and interpretations that are part of, and incident to, the services 
#provided.  However, Halliburton cannot and does not warrant the accuracy 
#or correctness of such information and interpretations.  Under no circumstances should any 
#such information or interpretation be relied upon as the sole basis for any drilling, 
#completion, production, or financial decision or any procedure involving any risk to the 
#safety of any drilling venture, drilling rig or its crew or any other third party.  The 
#Customer has full responsibility for all drilling, completion and production operation.  
#Halliburton makes no representations or warranties, either expressed or 
#implied, including, but not limited to, the implied warranties of merchantability or fitness 
#for a particular purpose, with respect to the services rendered.  In no event will 
#Halliburton be liable for failure to obtain any particular results or for 
#any damages, including, but not limited to, indirect, special or consequential damages, 
#resulting from the use of any information or interpretation provided by Halliburton.
#
~A           TIME           GTDEPTH  GTPQH  GTTQ  GTTN  GTET   GTTVD  
# ...
   08:51:38.384.18-Apr-2020 3032.52 3367.16 68.90 3.00 276.04 1949.78
   08:51:38.584.18-Apr-2020 3032.52 3367.16 68.90 3.00 276.24 1949.78
   08:51:38.784.18-Apr-2020 3032.52 3367.30 68.90 3.00 276.44 1949.78
   08:51:38.984.18-Apr-2020 3032.52 3367.14 68.89 3.00 276.64 1949.78
   08:51:39.184.18-Apr-2020 3032.52 3367.73 68.89 3.00 276.84 1949.78
   08:51:39.384.18-Apr-2020 3032.52 3367.84 68.89 3.00 277.04 1949.78
   08:51:39.584.18-Apr-2020 3032.52 3367.77 68.89 3.00 277.24 1949.78
   08:51:39.784.18-Apr-2020 3032.52 3367.91 68.89 3.00 277.44 1949.78
   08:51:39.985.18-Apr-2020 3032.52 3367.91 68.89 3.00 277.64 1949.78
   08:51:40.185.18-Apr-2020 3032.52 3367.64 68.89 3.00 277.84 1949.78
   08:51:40.385.18-Apr-2020 3032.52 3368.14 68.89 3.00 278.04 1949.78
   08:51:40.585.18-Apr-2020 3032.52 3368.14 68.89 3.00 278.24 1949.78
   08:51:40.785.18-Apr-2020 3032.52 3368.19 68.89 3.00 278.44 1949.78
   08:51:40.985.18-Apr-2020 3032.52 3368.14 68.88 3.00 278.64 1949.78
   08:51:41.185.18-Apr-2020 3032.52 3368.22 68.88 3.00 278.84 1949.78
   08:51:41.385.18-Apr-2020 3032.52 3368.19 68.88 3.00 279.04 1949.78
   08:51:41.585.18-Apr-2020 3032.52 3368.19 68.88 3.00 279.24 1949.78
   08:51:41.785.18-Apr-2020 3032.52 3368.58 68.88 3.00 279.44 1949.78
   08:51:41.985.18-Apr-2020 3032.52 3368.54 68.88 3.00 279.64 1949.78
   08:51:42.185.18-Apr-2020 3032.52 3368.37 68.88 3.00 279.84 1949.78
   08:51:42.385.18-Apr-2020 3032.52 3368.57 68.88 3.00 280.04 1949.78
   08:51:42.585.18-Apr-2020 3032.52 3368.57 68.88 3.00 280.24 1949.78
   08:51:42.785.18-Apr-2020 3032.52 3368.69 68.88 3.00 280.44 1949.78
   08:51:42.985.18-Apr-2020 3032.52 3368.88 68.87 3.00 280.64 1949.78
   08:51:43.185.18-Apr-2020 3032.52 3368.95 68.87 3.00 280.84 1949.78
   08:51:43.385.18-Apr-2020 3032.52 3368.95 68.87 3.00 281.04 1949.78
   08:51:43.585.18-Apr-2020 3032.52 3368.95 68.87 3.00 281.24 1949.78
   08:51:43.785.18-Apr-2020 3032.52 3368.91 68.87 3.00 281.44 1949.78
   08:51:43.985.18-Apr-2020 3032.52 3368.80 68.87 3.00 281.64 1949.78
   08:51:44.185.18-Apr-2020 3032.52 3369.04 68.87 3.00 281.84 1949.78
   08:51:44.385.18-Apr-2020 3032.52 3368.99 68.87 3.00 282.04 1949.78
   08:51:44.585.18-Apr-2020 3032.52 3368.99 68.87 3.00 282.24 1949.78
   08:51:44.785.18-Apr-2020 3032.52 3369.06 68.87 3.00 282.44 1949.78
   08:51:44.985.18-Apr-2020 3032.52 3368.99 68.86 3.00 282.64 1949.78
   08:51:45.185.18-Apr-2020 3032.52 3369.29 68.86 3.00 282.84 1949.78
   08:51:45.385.18-Apr-2020 3032.52 3369.20 68.86 3.00 283.04 1949.78
   08:51:45.585.18-Apr-2020 3032.52 3369.20 68.86 3.00 283.24 1949.78
   08:51:45.785.18-Apr-2020 3032.52 3386.80 68.86 3.00 283.44 1949.78
   08:51:45.985.18-Apr-2020 3032.52 3388.89 68.86 3.00 283.64 1949.78
   08:51:46.185.18-Apr-2020 3032.52 3389.04 68.86 3.00 283.84 1949.78
   08:51:46.385.18-Apr-2020 3032.52 3389.07 68.86 3.00 284.04 1949.78
   08:51:46.585.18-Apr-2020 3032.52 3389.07 68.86 3.00 284.24 1949.78
   08:51:46.785.18-Apr-2020 3032.52 3389.09 68.86 3.00 284.44 1949.78
   08:51:46.985.18-Apr-2020 3032.52 3389.10 68.86 3.00 284.64 1949.78
   08:51:47.185.18-Apr-2020 3032.52 3389.11 68.85 3.00 284.84 1949.78
   08:51:47.386.18-Apr-2020 3032.52 3389.11 68.85 3.00 285.04 1949.78
   08:51:47.586.18-Apr-2020 3032.52 3389.13 68.85 3.00 285.24 1949.78
   08:51:47.786.18-Apr-2020 3032.52 3389.12 68.85 3.00 285.44 1949.78
   08:51:47.986.18-Apr-2020 3032.52 3389.14 68.85 3.00 285.64 1949.78
   08:51:48.186.18-Apr-2020 3032.52 3389.15 68.85 3.00 285.84 1949.78
   08:51:48.386.18-Apr-2020 3032.52 3389.16 68.85 3.00 286.04 1949.78
   08:51:48.586.18-Apr-2020 3032.52 3389.16 68.85 3.00 286.24 1949.78
   08:51:48.786.18-Apr-2020 3032.52 3389.17 68.85 3.00 286.44 1949.78
   08:51:48.986.18-Apr-2020 3032.52 3389.17 68.85 3.00 286.64 1949.78
   08:51:49.186.18-Apr-2020 3032.52 3389.17 68.85 3.00 286.84 1949.78
   08:51:49.386.18-Apr-2020 3032.52 3389.18 68.84 3.00 287.04 1949.78
   08:51:49.586.18-Apr-2020 3032.52 3389.18 68.84 3.00 287.24 1949.78
   08:51:49.786.18-Apr-2020 3032.52 3389.18 68.84 3.00 287.44 1949.78
   08:51:49.986.18-Apr-2020 3032.52 3389.19 68.84 3.00 287.64 1949.78
   08:51:50.186.18-Apr-2020 3032.52 3389.19 68.84 3.00 287.84 1949.78
   08:51:50.386.18-Apr-2020 3032.52 3389.19 68.84 3.00 288.04 1949.78
   08:51:50.586.18-Apr-2020 3032.52 3389.19 68.84 3.00 288.24 1949.78
   08:51:50.786.18-Apr-2020 3032.52 3389.21 68.84 3.00 288.44 1949.78
   08:51:50.986.18-Apr-2020 3032.52 3389.20 68.84 3.00 288.64 1949.78
   08:51:51.186.18-Apr-2020 3032.52 3389.18 68.84 3.00 288.84 1949.78
   08:51:51.386.18-Apr-2020 3032.52 3389.21 68.83 3.00 289.04 1949.78
   08:51:51.586.18-Apr-2020 3032.52 3389.21 68.83 3.00 289.24 1949.78
   08:51:51.786.18-Apr-2020 3032.52 3389.20 68.83 3.00 289.44 1949.78
   08:51:51.986.18-Apr-2020 3032.52 3389.19 68.83 3.00 289.64 1949.78
   08:51:52.186.18-Apr-2020 3032.52 3389.23 68.83 3.00 289.84 1949.78
   08:51:52.386.18-Apr-2020 3032.52 3389.20 68.83 3.00 290.04 1949.78
   08:51:52.586.18-Apr-2020 3032.52 3389.20 68.83 3.00 290.24 1949.78
   08:51:52.786.18-Apr-2020 3032.52 3389.21 68.83 3.00 290.44 1949.78
   08:51:52.986.18-Apr-2020 3032.52 3389.22 68.83 3.00 290.64 1949.78
   08:51:53.186.18-Apr-2020 3032.52 3389.22 68.83 3.00 290.84 1949.78
   08:51:53.386.18-Apr-2020 3032.52 3389.21 68.83 3.00 291.04 1949.78
   08:51:53.586.18-Apr-2020 3032.52 3389.21 68.83 3.00 291.24 1949.78
   08:51:53.786.18-Apr-2020 3032.52 3389.20 68.82 3.00 291.44 1949.78
   08:51:53.986.18-Apr-2020 3032.52 3389.22 68.82 3.00 291.64 1949.78
   08:51:54.186.18-Apr-2020 3032.52 3389.21 68.82 3.00 291.84 1949.78
   08:51:54.386.18-Apr-2020 3032.52 3389.21 68.82 3.00 292.04 1949.78
   08:51:54.586.18-Apr-2020 3032.52 3389.21 68.82 3.00 292.24 1949.78
   08:51:54.787.18-Apr-2020 3032.52 3389.21 68.82 3.00 292.44 1949.78
   08:51:54.987.18-Apr-2020 3032.52 3389.20 68.82 3.00 292.64 1949.78
   08:51:55.187.18-Apr-2020 3032.52 3389.21 68.82 3.00 292.84 1949.78
   08:51:55.387.18-Apr-2020 3032.52 3389.20 68.82 3.00 293.04 1949.78
   08:51:55.587.18-Apr-2020 3032.52 3389.21 68.82 3.00 293.24 1949.78
   08:51:55.787.18-Apr-2020 3032.52 3389.20 68.81 3.00 293.44 1949.78
   08:51:55.987.18-Apr-2020 3032.52 3389.20 68.81 3.00 293.64 1949.78
   08:51:56.187.18-Apr-2020 3032.52 3389.21 68.81 3.00 293.84 1949.78
   08:51:56.387.18-Apr-2020 3032.52 3389.20 68.81 3.00 294.04 1949.78
   08:51:56.587.18-Apr-2020 3032.52 3389.20 68.81 3.00 294.24 1949.78
   08:51:56.787.18-Apr-2020 3032.52 3389.20 68.81 3.00 294.44 1949.78
   08:51:56.987.18-Apr-2020 3032.52 3389.23 68.81 3.00 294.64 1949.78
   08:51:57.187.18-Apr-2020 3032.52 3389.22 68.81 3.00 294.84 1949.78
   08:51:57.387.18-Apr-2020 3032.52 3389.21 68.81 3.00 295.04 1949.78
   08:51:57.587.18-Apr-2020 3032.52 3389.21 68.81 3.00 295.24 1949.78
   08:51:57.787.18-Apr-2020 3032.52 3389.21 68.80 3.00 295.44 1949.78
   08:51:57.987.18-Apr-2020 3032.52 3389.22 68.80 3.00 295.64 1949.78
   08:51:58.187.18-Apr-2020 3032.52 3389.21 68.80 3.00 295.84 1949.78
   08:51:58.387.18-Apr-2020 3032.52 3389.20 68.80 3.00 296.04 1949.78
   08:51:58.587.18-Apr-2020 3032.52 3389.20 68.80 3.00 296.24 1949.78
   08:51:58.787.18-Apr-2020 3032.52 3389.20 68.80 3.00 296.44 1949.78
   08:51:58.987.18-Apr-2020 3032.52 3389.21 68.80 3.00 296.64 1949.78
   08:51:59.187.18-Apr-2020 3032.52 3389.21 68.80 3.00 296.84 1949.78
   08:51:59.387.18-Apr-2020 3032.52 3389.19 68.80 3.00 297.04 1949.78
   08:51:59.587.18-Apr-2020 3032.52 3389.21 68.80 3.00 297.24 1949.78
   08:51:59.787.18-Apr-2020 3032.52 3389.22 68.80 3.00 297.44 1949.78
   08:51:59.987.18-Apr-2020 3032.52 3389.20 68.79 3.00 297.64 1949.78
   08:52:00.187.18-Apr-2020 3032.52 3389.21 68.79 3.00 297.84 1949.78
   08:52:00.387.18-Apr-2020 3032.52 3389.22 68.79 3.00 298.04 1949.78
   08:52:00.587.18-Apr-2020 3032.52 3389.22 68.79 3.00 298.24 1949.78
   08:52:00.787.18-Apr-2020 3032.52 3389.19 68.79 3.00 298.44 1949.78
   08:52:00.987.18-Apr-2020 3032.52 3389.22 68.79 3.00 298.64 1949.78
   08:52:01.187.18-Apr-2020 3032.52 3389.21 68.79 3.00 298.84 1949.78
