~Version Information
 VERS.                  2.0:   CWLS log ASCII Standard -VERSION 2.0
 WRAP.                   NO:   One line per depth step
~Well Information Block
#MNEM.UNIT     VALUE/NAME     DESCRIPTION
#---------     -----------    ---------------------------
 STRT.S             07:07:08 18-Apr-20: START TIME 07:07:08 18-Apr-20
 STOP.S             07:14:03 18-Apr-20: STOP TIME  07:14:03 18-Apr-20
 STEP.S                   0.00: STEP TIME
 NULL.                 -999.25: NULL VALUE
 DFWT.                        :  DIST FWL TEXT
 DFST.                        :  DIST FSL TEXT
 DMF .                        :  DRILL MEAS FROM
 STIM.      16.29.52 23-Mar-20:  START TIME
 DATE.      16.29.52 23-Mar-20:  END TIME
 SPUD.               23-Mar-20:  SPUD DATE
 NREF.                    Grid:  NORTH REFERENCE
 HPTY.       Minimum Curvature:  HOLE POS TYPE
 DMOD.             Drill Model:  DRILL MOD DESC
 SVYD.                  Survey:  SURVEY DESC
 ILTD.               Lithology:  INTERP LTH DESC
 FTOP.          Formation Tops:  FORM TOPS DESC
 SON .        AZ-XX-0906252240:  JOB NUMBER
 RIG .             West Chirag:  RIG NAME
 PDAT.          Mean Sea Level:  PERMANENT DATUM
 FLD .                     ACG:  FIELD NAME
 CTRY.              Azerbaijan:  COUNTRY NAME
 WELL.           J23 (Slot 07):  WELL NAME
 SRVC.          Turan Drilling:  CONTRACTOR
 COMP.     BP Exploration (Casoian Sea) Ltd:  COMPANY
 WTYP.                Deviated:  WELL TYPE
 MDS .        Operator Entered:  MAG DATA SOURCE
 UWI .                     N/A:  UNIQUE WELL IDENTIFIER
 API .                     N/A:  API NUMBER
 BASE.              Azerbaijan:  LOGGING EQUIPMENT BASE LOCATION
 REGN.                   EESSA:  REGION
 PROV.                    Baku:  PROVINCE
 STAT.                    Baku:  STATE NAME
 MWDS.                     N/A:  MWD SHOP
 JOBN.        AZ-XX-0906252240:  JOB TICKET NUMB
 DOE .                     N/A:  DOE NUMBER
 DCON.         Sperry Drilling:  DIRECTNL CONTR
 UNIT.                     N/A:  LOGGING EQUIPMENT ID
 CNTY.                        :  COUNTY
 LOC .                        :  LOCATION
 LMF .             Drill Floor:  LOG MEASURED FROM
 TVDS.m                  43.00:  TVDSS CORRECTN
 LATI.deg                40.13:  LATITUDE
 LONG.deg                51.22:  LONGITUDE
 WHNS.m                   9.43:  WELL HEAD N/S
 WHEW.m                  -8.91:  WELL HEAD E/W
 UTMX.m              519005.06:  UTM X
 UTMY.m             4443793.85:  UTM Y
 DFWL.m                   0.00:  DISTANCE FWL
 DFSL.m                   0.00:  DISTANCE FSL
 SDEP.m                   0.00:  START DEPTH
 TDD .m                   0.00:  TOTAL DEPTH (DRILLER)
 VSDR.deg               179.88:  VERT SEC DIRECT
 GVFD.g                   1.00:  GRAVITY FIELD
 MFLD.nT              50281.00:  MAGNETIC FIELD
 MDIP.deg                59.58:  MAGNETIC DIP
 MDEC.deg                 6.48:  MAGNETIC DECL
 GRDC.deg                 0.14:  GRID CORRECTION
 AZTC.deg                 6.34:  AZM TOTAL CORR
 EPD .m                   0.00:  ELEVATION
 EGL .m                   0.00:  GROUND ELEVATION
 WDMS.m                 169.80:  WD ELEV
 APD .m                  43.00:  DEPTH ABOVE PD
 DEP .m                 354.17:  DEPTH
 AGAP.m                  43.00:  AIR GAP
 VSEW.m                  -8.91:  VERT SEC E/W
 VSNS.m                   9.43:  VERT SEC N/S
 EKB .m                   0.00:  KB ELEVATION
 EDF .m                  43.00:  DF ELEVATION
 TDL .m                1326.00:  TOTAL DEPTH (LOGGER)
 VSC .                       0:  VS TO CLOSURE
 MAGU.                 1850704:  MAGUTM CHECKSUM
~Parameter Information Block
#MNEM.UNIT       Value        Description
#---------     -----------    ---------------------------
 AV  .mps                 1.17:  Ann Velocity 
 AZIF.deg               184.04:  Azm, Final 
 BHAT.        Rotary Steerable:  BHA Type 
 BREV.rev            620000.00:  Rev Bit Total 
 BROT.°/30m               0.20:  Build Rotating 
 BS  .in                 14.75:  Bit Size 
 BSZ .in                 14.75:  Bit Size 
 BTPL.psig              618.00:  Bit Press Loss 
 CABU.                      No:  Customer Abuse 
 COMM.                     îb:  Run Comments 1 
 TCS .hr                 87.68:  Time Ciculation Ended 
 CV  .mps                 3.10:  Crit Velocity 
 DD1 .          Rashad Habibov:  Direct Drillr 1 
 DD2 .         Rasim Ibrahimov:  Direct Drillr 2 
 DDSV.               Geo-Pilot:  DD Service 
 DEFF.%                  98.00:  % Det Eff 
 DLRX.°/30m               1.48:  Dogleg Rot Max 
 DLSO.°/30m               0.50:  Dogleg Oriented 
 DLSX.°/30m               1.48:  Dogleg Str Max 
 DRET.      06.18.56 19-Apr-20:  Drill End Time 
 DRST.      15.00.56 15-Apr-20:  Drill Start Tim 
 DTIM.hr                 51.73:  Time Drilling 
 EDEP.m                3410.01:  End Depth 
 ENG1.        Marcelo Sandoval:  Engineer 1 
 ENG2.        Davud Huseynzade:  Engineer 2 
 ENG3.          Ruslan Safarov:  Engineer 3 
 ETIM.      04.00.56 20-Apr-20:  End Time 
 FLOI.gpm              1000.00:  Flow In 
 FLON.gpm               600.00:  Flow In Min 
 FLOS.cptm                0.00:  Fluid Loss 
 FLOX.gpm              1200.00:  Flow In Max 
 HFLO.                      No:  High Flow 
 HPRE.                     Yes:  High Pressure 
 HTEM.                      No:  High Temp 
 HYDO.m                   1.80:  Hydro Offset 
 IFIN.deg                70.04:  Inc, Final 
 IMAX.deg                70.56:  Inc Max 
 IMIN.deg                69.85:  Inc Min 
 IMND.m                3103.24:  Inc Min Depth 
 IMXD.m                2876.63:  Inc Max Depth 
 JARR.                      No:  Jarring 
 LETM.      06.18.56 19-Apr-20:  Log End Time 
 LOST.hr                     0:  Lost Rig Time 
 LSTM.      15.00.56 15-Apr-20:  Log Start Time 
 MDCL.ppm             42000.00:  Mud Chlorides 
 MDES.     Inversion Oil/Synthetic:  Mud Desc 
 DFD .sg                  1.58:  Mud Density 
 MDMN.sg                  1.58:  Dens Mud Min 
 MDMX.sg                  1.58:  Dens Mud Max 
 MOIL.                      71:  Run Mud Oil % 
 MOWR.                   71:29:  Run Mud OWR 
 MSND.                       0:  Run Mud Sand % 
 MSOL.                    23.3:  Run Mud Solids% 
 DFV .spqt               84.00:  Mud Viscosity 
 MWOD.in                  9.50:  MWD Tool OD 
 MWSI.                      No:  Serv Intrp, MWD 
 OTIM.hr                139.62:  Time Operating 
 PMAX.psia             5364.69:  Press Op, Max 
 PV  .cP                 80.00:  Mud PV 
 RUN .                     700:  Run Number 
 ROPA.m/hr               25.00:  ROP Avg 
 ROPN.m/hr               11.00:  ROP Min 
 ROPX.m/hr               36.00:  ROP Max 
 RPMA.rpm               130.00:  RPM Surface Avg 
 RPMN.rpm               120.00:  RPM Surface Min 
 RPMX.rpm               140.00:  RPM Surface Max 
 RRUN.                    0700:  Rig Run Number 
 SAZI.deg               183.25:  Azm, Start 
 SDEP.m                2084.00:  Start Depth 
 SIDD.                      No:  Serv Intrp, DD 
 SINC.deg                70.38:  Inc, Start 
 SPPA.psig             4800.00:  SPP Avg 
 SPPN.psig             4400.00:  SPP Min 
 SPPX.psig             5350.00:  SPP Max 
 STIM.      16.30.56 14-Apr-20:  Start Time 
 SVCS.                 DD, MWD:  Services 
 SVER.                    9.20:  Sperry Version 
 TDAT.m                1326.00:  Tot Depth Attmp 
 TDDF.                      No:  Trip for DD 
 TDLG.m                1326.00:  Tot Depth Loggd 
 TFF .                      No:  Trip for Fail 
 TQAA.f-kp               19.00:  Torque Abs Avg 
 TQAN.f-kp                8.00:  Torque Abs Min 
 TQAX.f-kp               27.00:  Torque Abs Max 
 TRRT.°/30m               0.50:  Turn Rotating 
 MRT .                    HCIM:  Maximum Recorded Temperature 
 TTMX.degC               82.35:  Max Tool Temp 
 VS01.       905245875X1Z1W1C8:  Virtual Str1 SN 
 VS02.       90608022F11V7D1A9:  Virtual Str2 SN 
 VS03.            90605473R5C9:  Virtual Str3 SN 
 WBMN.klb                11.00:  WOB Min 
 WOBA.klb                21.00:  WOB Avg 
 WOBX.klb                30.00:  WOB Max 
 YP  .lhf2               45.00:  Yield Point 
~Curve Information Block
#MNEM.UNIT                 API CODE     Curve Description
#---------               -----------    ---------------------------
 TIME.HHMMSS            00 000 000 000:  GT Time & Date
 GTDEPTH.m              00 000 000 000:  GT Depth
 GTPQH.psia             00 000 000 000:  GT HR Quartz Pressure
 GTTQ.degC              00 000 000 000:  GT Quartz Temperature
 GTTN.NONE              00 000 000 000:  GT Test Number
 GTET.sec               00 000 000 000:  GT Elapsed Test Time
 GTTVD.m                00 000 000 000:  GT True Vertical Depth
#Other Information
#
#WARRANTY: Halliburton will use its best efforts to furnish customers with 
#accurate information and interpretations that are part of, and incident to, the services 
#provided.  However, Halliburton cannot and does not warrant the accuracy 
#or correctness of such information and interpretations.  Under no circumstances should any 
#such information or interpretation be relied upon as the sole basis for any drilling, 
#completion, production, or financial decision or any procedure involving any risk to the 
#safety of any drilling venture, drilling rig or its crew or any other third party.  The 
#Customer has full responsibility for all drilling, completion and production operation.  
#Halliburton makes no representations or warranties, either expressed or 
#implied, including, but not limited to, the implied warranties of merchantability or fitness 
#for a particular purpose, with respect to the services rendered.  In no event will 
#Halliburton be liable for failure to obtain any particular results or for 
#any damages, including, but not limited to, indirect, special or consequential damages, 
#resulting from the use of any information or interpretation provided by Halliburton.
#
~A           TIME           GTDEPTH  GTPQH  GTTQ  GTTN  GTET   GTTVD  
# ...
   07:12:30.670.18-Apr-2020 3016.07 3390.30 69.85 2.00 322.03 1944.23
   07:12:30.870.18-Apr-2020 3016.07 3390.30 69.85 2.00 322.23 1944.23
   07:12:31.070.18-Apr-2020 3016.07 3390.33 69.85 2.00 322.43 1944.23
   07:12:31.270.18-Apr-2020 3016.07 3390.31 69.85 2.00 322.63 1944.23
   07:12:31.470.18-Apr-2020 3016.07 3390.29 69.85 2.00 322.83 1944.23
   07:12:31.670.18-Apr-2020 3016.07 3390.32 69.85 2.00 323.03 1944.23
   07:12:31.870.18-Apr-2020 3016.07 3390.33 69.85 2.00 323.23 1944.23
   07:12:32.070.18-Apr-2020 3016.07 3390.32 69.85 2.00 323.43 1944.23
   07:12:32.270.18-Apr-2020 3016.07 3390.31 69.85 2.00 323.63 1944.23
   07:12:32.470.18-Apr-2020 3016.07 3390.30 69.85 2.00 323.83 1944.23
   07:12:32.670.18-Apr-2020 3016.07 3390.33 69.85 2.00 324.03 1944.23
   07:12:32.870.18-Apr-2020 3016.07 3390.33 69.85 2.00 324.23 1944.23
   07:12:33.070.18-Apr-2020 3016.07 3390.33 69.85 2.00 324.43 1944.23
   07:12:33.270.18-Apr-2020 3016.07 3390.33 69.85 2.00 324.63 1944.23
   07:12:33.470.18-Apr-2020 3016.07 3390.33 69.84 2.00 324.83 1944.23
   07:12:33.670.18-Apr-2020 3016.07 3390.33 69.84 2.00 325.03 1944.23
   07:12:33.870.18-Apr-2020 3016.07 3390.33 69.84 2.00 325.23 1944.23
   07:12:34.070.18-Apr-2020 3016.07 3390.33 69.84 2.00 325.43 1944.23
   07:12:34.270.18-Apr-2020 3016.07 3390.32 69.84 2.00 325.63 1944.23
   07:12:34.470.18-Apr-2020 3016.07 3390.32 69.84 2.00 325.83 1944.23
   07:12:34.670.18-Apr-2020 3016.07 3390.32 69.84 2.00 326.03 1944.23
   07:12:34.870.18-Apr-2020 3016.07 3390.32 69.84 2.00 326.23 1944.23
   07:12:35.070.18-Apr-2020 3016.07 3390.32 69.84 2.00 326.43 1944.23
   07:12:35.270.18-Apr-2020 3016.07 3390.32 69.84 2.00 326.63 1944.23
   07:12:35.470.18-Apr-2020 3016.07 3390.31 69.84 2.00 326.83 1944.23
   07:12:35.670.18-Apr-2020 3016.07 3390.34 69.84 2.00 327.03 1944.23
   07:12:35.870.18-Apr-2020 3016.07 3390.33 69.84 2.00 327.23 1944.23
   07:12:36.070.18-Apr-2020 3016.07 3390.33 69.84 2.00 327.43 1944.23
   07:12:36.270.18-Apr-2020 3016.07 3390.33 69.83 2.00 327.63 1944.23
   07:12:36.470.18-Apr-2020 3016.07 3390.31 69.83 2.00 327.83 1944.23
   07:12:36.670.18-Apr-2020 3016.07 3390.32 69.83 2.00 328.03 1944.23
   07:12:36.870.18-Apr-2020 3016.07 3390.32 69.83 2.00 328.24 1944.23
   07:12:37.071.18-Apr-2020 3016.07 3390.32 69.83 2.00 328.44 1944.23
   07:12:37.271.18-Apr-2020 3016.07 3390.32 69.83 2.00 328.64 1944.23
   07:12:37.471.18-Apr-2020 3016.07 3390.32 69.83 2.00 328.84 1944.23
   07:12:37.671.18-Apr-2020 3016.07 3390.32 69.83 2.00 329.04 1944.23
   07:12:37.871.18-Apr-2020 3016.07 3390.32 69.83 2.00 329.24 1944.23
   07:12:38.071.18-Apr-2020 3016.07 3390.29 69.83 2.00 329.44 1944.23
   07:12:38.271.18-Apr-2020 3016.07 3390.31 69.83 2.00 329.64 1944.23
   07:12:38.471.18-Apr-2020 3016.07 3390.33 69.83 2.00 329.84 1944.23
   07:12:38.671.18-Apr-2020 3016.07 3390.30 69.83 2.00 330.04 1944.23
   07:12:38.871.18-Apr-2020 3016.07 3390.30 69.83 2.00 330.24 1944.23
   07:12:39.071.18-Apr-2020 3016.07 3390.32 69.82 2.00 330.44 1944.23
   07:12:39.271.18-Apr-2020 3016.07 3390.31 69.82 2.00 330.64 1944.23
   07:12:39.471.18-Apr-2020 3016.07 3390.31 69.82 2.00 330.84 1944.23
   07:12:39.671.18-Apr-2020 3016.07 3390.30 69.82 2.00 331.04 1944.23
   07:12:39.871.18-Apr-2020 3016.07 3390.30 69.82 2.00 331.24 1944.23
   07:12:40.071.18-Apr-2020 3016.07 3390.32 69.82 2.00 331.44 1944.23
   07:12:40.271.18-Apr-2020 3016.07 3390.31 69.82 2.00 331.64 1944.23
   07:12:40.471.18-Apr-2020 3016.07 3390.28 69.82 2.00 331.84 1944.23
   07:12:40.671.18-Apr-2020 3016.07 3390.32 69.82 2.00 332.04 1944.23
   07:12:40.871.18-Apr-2020 3016.07 3390.32 69.82 2.00 332.24 1944.23
   07:12:41.071.18-Apr-2020 3016.07 3390.31 69.82 2.00 332.44 1944.23
   07:12:41.271.18-Apr-2020 3016.07 3390.31 69.82 2.00 332.64 1944.23
   07:12:41.471.18-Apr-2020 3016.07 3390.28 69.82 2.00 332.84 1944.23
   07:12:41.671.18-Apr-2020 3016.07 3390.33 69.82 2.00 333.04 1944.23
   07:12:41.871.18-Apr-2020 3016.07 3390.33 69.82 2.00 333.24 1944.23
   07:12:42.071.18-Apr-2020 3016.07 3390.32 69.81 2.00 333.44 1944.23
   07:12:42.271.18-Apr-2020 3016.07 3390.31 69.81 2.00 333.64 1944.23
   07:12:42.471.18-Apr-2020 3016.07 3390.33 69.81 2.00 333.84 1944.23
   07:12:42.671.18-Apr-2020 3016.07 3390.31 69.81 2.00 334.04 1944.23
   07:12:42.871.18-Apr-2020 3016.07 3390.31 69.81 2.00 334.24 1944.23
   07:12:43.071.18-Apr-2020 3016.07 3390.30 69.81 2.00 334.44 1944.23
   07:12:43.271.18-Apr-2020 3016.07 3390.32 69.81 2.00 334.64 1944.23
   07:12:43.471.18-Apr-2020 3016.07 3390.30 69.81 2.00 334.84 1944.23
   07:12:43.671.18-Apr-2020 3016.07 3390.30 69.81 2.00 335.04 1944.23
   07:12:43.871.18-Apr-2020 3016.07 3390.31 69.81 2.00 335.24 1944.23
   07:12:44.071.18-Apr-2020 3016.07 3390.31 69.81 2.00 335.44 1944.23
   07:12:44.271.18-Apr-2020 3016.07 3390.30 69.81 2.00 335.64 1944.23
   07:12:44.471.18-Apr-2020 3016.07 3390.29 69.81 2.00 335.84 1944.23
   07:12:44.671.18-Apr-2020 3016.07 3390.31 69.80 2.00 336.04 1944.23
   07:12:44.871.18-Apr-2020 3016.07 3390.31 69.80 2.00 336.24 1944.23
   07:12:45.071.18-Apr-2020 3016.07 3390.31 69.80 2.00 336.44 1944.23
   07:12:45.271.18-Apr-2020 3016.07 3390.31 69.80 2.00 336.64 1944.23
   07:12:45.471.18-Apr-2020 3016.07 3390.30 69.80 2.00 336.84 1944.23
   07:12:45.671.18-Apr-2020 3016.07 3390.31 69.80 2.00 337.04 1944.23
   07:12:45.871.18-Apr-2020 3016.07 3390.31 69.80 2.00 337.24 1944.23
   07:12:46.071.18-Apr-2020 3016.07 3390.30 69.80 2.00 337.44 1944.23
   07:12:46.271.18-Apr-2020 3016.07 3390.30 69.80 2.00 337.64 1944.23
   07:12:46.472.18-Apr-2020 3016.07 3390.30 69.80 2.00 337.84 1944.23
   07:12:46.672.18-Apr-2020 3016.07 3390.30 69.80 2.00 338.04 1944.23
   07:12:46.872.18-Apr-2020 3016.07 3390.30 69.80 2.00 338.24 1944.23
   07:12:47.072.18-Apr-2020 3016.07 3390.28 69.80 2.00 338.44 1944.23
   07:12:47.272.18-Apr-2020 3016.07 3390.32 69.80 2.00 338.64 1944.23
   07:12:47.472.18-Apr-2020 3016.07 3390.31 69.79 2.00 338.84 1944.23
   07:12:47.672.18-Apr-2020 3016.07 3390.28 69.79 2.00 339.04 1944.23
   07:12:47.872.18-Apr-2020 3016.07 3390.31 69.79 2.00 339.24 1944.23
   07:12:48.072.18-Apr-2020 3016.07 3390.32 69.79 2.00 339.44 1944.23
   07:12:48.272.18-Apr-2020 3016.07 3390.31 69.79 2.00 339.64 1944.23
   07:12:48.472.18-Apr-2020 3016.07 3390.31 69.79 2.00 339.84 1944.23
   07:12:48.672.18-Apr-2020 3016.07 3390.28 69.79 2.00 340.04 1944.23
   07:12:48.872.18-Apr-2020 3016.07 3390.28 69.79 2.00 340.24 1944.23
   07:12:49.072.18-Apr-2020 3016.07 3390.31 69.79 2.00 340.44 1944.23
   07:12:49.272.18-Apr-2020 3016.07 3390.29 69.79 2.00 340.64 1944.23
   07:12:49.472.18-Apr-2020 3016.07 3390.27 69.79 2.00 340.84 1944.23
   07:12:49.672.18-Apr-2020 3016.07 3390.31 69.79 2.00 341.04 1944.23
   07:12:49.872.18-Apr-2020 3016.07 3390.31 69.79 2.00 341.24 1944.23
   07:12:50.072.18-Apr-2020 3016.07 3390.30 69.79 2.00 341.44 1944.23
   07:12:50.272.18-Apr-2020 3016.07 3390.29 69.78 2.00 341.64 1944.23
   07:12:50.472.18-Apr-2020 3016.07 3390.28 69.78 2.00 341.84 1944.23
   07:12:50.672.18-Apr-2020 3016.07 3390.31 69.78 2.00 342.04 1944.23
   07:12:50.872.18-Apr-2020 3016.07 3390.31 69.78 2.00 342.24 1944.23
   07:12:51.072.18-Apr-2020 3016.07 3390.31 69.78 2.00 342.44 1944.23
   07:12:51.272.18-Apr-2020 3016.07 3390.30 69.78 2.00 342.64 1944.23
   07:12:51.472.18-Apr-2020 3016.07 3390.32 69.78 2.00 342.84 1944.23
   07:12:51.672.18-Apr-2020 3016.07 3390.30 69.78 2.00 343.04 1944.23
   07:12:51.872.18-Apr-2020 3016.07 3390.30 69.78 2.00 343.24 1944.23
   07:12:52.072.18-Apr-2020 3016.07 3390.31 69.78 2.00 343.44 1944.23
   07:12:52.272.18-Apr-2020 3016.07 3390.31 69.78 2.00 343.64 1944.23
   07:12:52.472.18-Apr-2020 3016.07 3390.30 69.78 2.00 343.84 1944.23
   07:12:52.672.18-Apr-2020 3016.07 3390.30 69.78 2.00 344.04 1944.23
   07:12:52.872.18-Apr-2020 3016.07 3390.30 69.78 2.00 344.24 1944.23
   07:12:53.072.18-Apr-2020 3016.07 3390.30 69.78 2.00 344.44 1944.23
   07:12:53.272.18-Apr-2020 3016.07 3390.30 69.77 2.00 344.64 1944.23
   07:12:53.472.18-Apr-2020 3016.07 3390.29 69.77 2.00 344.84 1944.23
