~Version Information
 VERS.                  2.0:   CWLS log ASCII Standard -VERSION 2.0
 WRAP.                   NO:   One line per depth step
~Well Information Block
#MNEM.UNIT     VALUE/NAME     DESCRIPTION
#---------     -----------    ---------------------------
 STRT.S             08:47:02 18-Apr-20: START TIME 08:47:02 18-Apr-20
 STOP.S             08:53:58 18-Apr-20: STOP TIME  08:53:58 18-Apr-20
 STEP.S                   0.00: STEP TIME
 NULL.                 -999.25: NULL VALUE
 DFWT.                        :  DIST FWL TEXT
 DFST.                        :  DIST FSL TEXT
 DMF .                        :  DRILL MEAS FROM
 STIM.      16.29.52 23-Mar-20:  START TIME
 DATE.      16.29.52 23-Mar-20:  END TIME
 SPUD.               23-Mar-20:  SPUD DATE
 NREF.                    Grid:  NORTH REFERENCE
 HPTY.       Minimum Curvature:  HOLE POS TYPE
 DMOD.             Drill Model:  DRILL MOD DESC
 SVYD.                  Survey:  SURVEY DESC
 ILTD.               Lithology:  INTERP LTH DESC
 FTOP.          Formation Tops:  FORM TOPS DESC
 SON .        AZ-XX-0906252240:  JOB NUMBER
 RIG .             West Chirag:  RIG NAME
 PDAT.          Mean Sea Level:  PERMANENT DATUM
 FLD .                     ACG:  FIELD NAME
 CTRY.              Azerbaijan:  COUNTRY NAME
 WELL.           J23 (Slot 07):  WELL NAME
 SRVC.          Turan Drilling:  CONTRACTOR
 COMP.     BP Exploration (Casoian Sea) Ltd:  COMPANY
 WTYP.                Deviated:  WELL TYPE
 MDS .        Operator Entered:  MAG DATA SOURCE
 UWI .                     N/A:  UNIQUE WELL IDENTIFIER
 API .                     N/A:  API NUMBER
 BASE.              Azerbaijan:  LOGGING EQUIPMENT BASE LOCATION
 REGN.                   EESSA:  REGION
 PROV.                    Baku:  PROVINCE
 STAT.                    Baku:  STATE NAME
 MWDS.                     N/A:  MWD SHOP
 JOBN.        AZ-XX-0906252240:  JOB TICKET NUMB
 DOE .                     N/A:  DOE NUMBER
 DCON.         Sperry Drilling:  DIRECTNL CONTR
 UNIT.                     N/A:  LOGGING EQUIPMENT ID
 CNTY.                        :  COUNTY
 LOC .                        :  LOCATION
 LMF .             Drill Floor:  LOG MEASURED FROM
 TVDS.m                  43.00:  TVDSS CORRECTN
 LATI.deg                40.13:  LATITUDE
 LONG.deg                51.22:  LONGITUDE
 WHNS.m                   9.43:  WELL HEAD N/S
 WHEW.m                  -8.91:  WELL HEAD E/W
 UTMX.m              519005.06:  UTM X
 UTMY.m             4443793.85:  UTM Y
 DFWL.m                   0.00:  DISTANCE FWL
 DFSL.m                   0.00:  DISTANCE FSL
 SDEP.m                   0.00:  START DEPTH
 TDD .m                   0.00:  TOTAL DEPTH (DRILLER)
 VSDR.deg               179.88:  VERT SEC DIRECT
 GVFD.g                   1.00:  GRAVITY FIELD
 MFLD.nT              50281.00:  MAGNETIC FIELD
 MDIP.deg                59.58:  MAGNETIC DIP
 MDEC.deg                 6.48:  MAGNETIC DECL
 GRDC.deg                 0.14:  GRID CORRECTION
 AZTC.deg                 6.34:  AZM TOTAL CORR
 EPD .m                   0.00:  ELEVATION
 EGL .m                   0.00:  GROUND ELEVATION
 WDMS.m                 169.80:  WD ELEV
 APD .m                  43.00:  DEPTH ABOVE PD
 DEP .m                 354.17:  DEPTH
 AGAP.m                  43.00:  AIR GAP
 VSEW.m                  -8.91:  VERT SEC E/W
 VSNS.m                   9.43:  VERT SEC N/S
 EKB .m                   0.00:  KB ELEVATION
 EDF .m                  43.00:  DF ELEVATION
 TDL .m                1326.00:  TOTAL DEPTH (LOGGER)
 VSC .                       0:  VS TO CLOSURE
 MAGU.                 1850704:  MAGUTM CHECKSUM
~Parameter Information Block
#MNEM.UNIT       Value        Description
#---------     -----------    ---------------------------
 AV  .mps                 1.17:  Ann Velocity 
 AZIF.deg               184.04:  Azm, Final 
 BHAT.        Rotary Steerable:  BHA Type 
 BREV.rev            620000.00:  Rev Bit Total 
 BROT.°/30m               0.20:  Build Rotating 
 BS  .in                 14.75:  Bit Size 
 BSZ .in                 14.75:  Bit Size 
 BTPL.psig              618.00:  Bit Press Loss 
 CABU.                      No:  Customer Abuse 
 TCS .hr                 87.68:  Time Ciculation Ended 
 CV  .mps                 3.10:  Crit Velocity 
 DD1 .          Rashad Habibov:  Direct Drillr 1 
 DD2 .         Rasim Ibrahimov:  Direct Drillr 2 
 DDSV.               Geo-Pilot:  DD Service 
 DEFF.%                  98.00:  % Det Eff 
 DLRX.°/30m               1.48:  Dogleg Rot Max 
 DLSO.°/30m               0.50:  Dogleg Oriented 
 DLSX.°/30m               1.48:  Dogleg Str Max 
 DRET.      06.18.56 19-Apr-20:  Drill End Time 
 DRST.      15.00.56 15-Apr-20:  Drill Start Tim 
 DTIM.hr                 51.73:  Time Drilling 
 EDEP.m                3410.01:  End Depth 
 ENG1.        Marcelo Sandoval:  Engineer 1 
 ENG2.        Davud Huseynzade:  Engineer 2 
 ENG3.          Ruslan Safarov:  Engineer 3 
 ETIM.      04.00.56 20-Apr-20:  End Time 
 FLOI.gpm              1000.00:  Flow In 
 FLON.gpm               600.00:  Flow In Min 
 FLOS.cptm                0.00:  Fluid Loss 
 FLOX.gpm              1200.00:  Flow In Max 
 HFLO.                      No:  High Flow 
 HPRE.                     Yes:  High Pressure 
 HTEM.                      No:  High Temp 
 HYDO.m                   1.80:  Hydro Offset 
 IFIN.deg                70.04:  Inc, Final 
 IMAX.deg                70.56:  Inc Max 
 IMIN.deg                69.85:  Inc Min 
 IMND.m                3103.24:  Inc Min Depth 
 IMXD.m                2876.63:  Inc Max Depth 
 JARR.                      No:  Jarring 
 LETM.      06.18.56 19-Apr-20:  Log End Time 
 LOST.hr                     0:  Lost Rig Time 
 LSTM.      15.00.56 15-Apr-20:  Log Start Time 
 MDCL.ppm             42000.00:  Mud Chlorides 
 MDES.     Inversion Oil/Synthetic:  Mud Desc 
 DFD .sg                  1.58:  Mud Density 
 MDMN.sg                  1.58:  Dens Mud Min 
 MDMX.sg                  1.58:  Dens Mud Max 
 MOIL.                      71:  Run Mud Oil % 
 MOWR.                   71:29:  Run Mud OWR 
 MSND.                       0:  Run Mud Sand % 
 MSOL.                    23.3:  Run Mud Solids% 
 DFV .spqt               84.00:  Mud Viscosity 
 MWOD.in                  9.50:  MWD Tool OD 
 MWSI.                      No:  Serv Intrp, MWD 
 OTIM.hr                139.62:  Time Operating 
 PMAX.psia             5364.69:  Press Op, Max 
 PV  .cP                 80.00:  Mud PV 
 RUN .                     700:  Run Number 
 ROPA.m/hr               25.00:  ROP Avg 
 ROPN.m/hr               11.00:  ROP Min 
 ROPX.m/hr               36.00:  ROP Max 
 RPMA.rpm               130.00:  RPM Surface Avg 
 RPMN.rpm               120.00:  RPM Surface Min 
 RPMX.rpm               140.00:  RPM Surface Max 
 RRUN.                    0700:  Rig Run Number 
 SAZI.deg               183.25:  Azm, Start 
 SDEP.m                2084.00:  Start Depth 
 SIDD.                      No:  Serv Intrp, DD 
 SINC.deg                70.38:  Inc, Start 
 SPPA.psig             4800.00:  SPP Avg 
 SPPN.psig             4400.00:  SPP Min 
 SPPX.psig             5350.00:  SPP Max 
 STIM.      16.30.56 14-Apr-20:  Start Time 
 SVCS.                 DD, MWD:  Services 
 SVER.                    9.20:  Sperry Version 
 TDAT.m                1326.00:  Tot Depth Attmp 
 TDDF.                      No:  Trip for DD 
 TDLG.m                1326.00:  Tot Depth Loggd 
 TFF .                      No:  Trip for Fail 
 TQAA.f-kp               19.00:  Torque Abs Avg 
 TQAN.f-kp                8.00:  Torque Abs Min 
 TQAX.f-kp               27.00:  Torque Abs Max 
 TRRT.°/30m               0.50:  Turn Rotating 
 MRT .                    HCIM:  Maximum Recorded Temperature 
 TTMX.degC               82.35:  Max Tool Temp 
 VS01.       905245875X1Z1W1C8:  Virtual Str1 SN 
 VS02.       90608022F11V7D1A9:  Virtual Str2 SN 
 VS03.            90605473R5C9:  Virtual Str3 SN 
 WBMN.klb                11.00:  WOB Min 
 WOBA.klb                21.00:  WOB Avg 
 WOBX.klb                30.00:  WOB Max 
 YP  .lhf2               45.00:  Yield Point 
~Curve Information Block
#MNEM.UNIT                 API CODE     Curve Description
#---------               -----------    ---------------------------
 TIME.HHMMSS            00 000 000 000:  GT Time & Date
 GTDEPTH.m              00 000 000 000:  GT Depth
 GTPQH.psia             00 000 000 000:  GT HR Quartz Pressure
 GTTQ.degC              00 000 000 000:  GT Quartz Temperature
 GTTN.NONE              00 000 000 000:  GT Test Number
 GTET.sec               00 000 000 000:  GT Elapsed Test Time
 GTTVD.m                00 000 000 000:  GT True Vertical Depth
#Other Information
#
#WARRANTY: Halliburton will use its best efforts to furnish customers with 
#accurate information and interpretations that are part of, and incident to, the services 
#provided.  However, Halliburton cannot and does not warrant the accuracy 
#or correctness of such information and interpretations.  Under no circumstances should any 
#such information or interpretation be relied upon as the sole basis for any drilling, 
#completion, production, or financial decision or any procedure involving any risk to the 
#safety of any drilling venture, drilling rig or its crew or any other third party.  The 
#Customer has full responsibility for all drilling, completion and production operation.  
#Halliburton makes no representations or warranties, either expressed or 
#implied, including, but not limited to, the implied warranties of merchantability or fitness 
#for a particular purpose, with respect to the services rendered.  In no event will 
#Halliburton be liable for failure to obtain any particular results or for 
#any damages, including, but not limited to, indirect, special or consequential damages, 
#resulting from the use of any information or interpretation provided by Halliburton.
#
~A           TIME           GTDEPTH  GTPQH  GTTQ  GTTN  GTET   GTTVD  
# ...
   08:53:33.400.18-Apr-2020 3032.52 4480.35 68.39 3.00 391.05 1949.78
   08:53:33.600.18-Apr-2020 3032.52 4480.35 68.39 3.00 391.25 1949.78
   08:53:33.800.18-Apr-2020 3032.52 4480.65 68.39 3.00 391.45 1949.78
   08:53:34.000.18-Apr-2020 3032.52 4480.37 68.39 3.00 391.65 1949.78
   08:53:34.200.18-Apr-2020 3032.52 4479.98 68.39 3.00 391.85 1949.78
   08:53:34.400.18-Apr-2020 3032.52 4479.59 68.39 3.00 392.05 1949.78
   08:53:34.600.18-Apr-2020 3032.52 4479.59 68.39 3.00 392.25 1949.78
   08:53:34.800.18-Apr-2020 3032.52 4477.34 68.39 3.00 392.45 1949.78
   08:53:35.000.18-Apr-2020 3032.52 4480.60 68.39 3.00 392.65 1949.78
   08:53:35.200.18-Apr-2020 3032.52 4480.04 68.39 3.00 392.85 1949.78
   08:53:35.400.18-Apr-2020 3032.52 4480.81 68.39 3.00 393.05 1949.78
   08:53:35.600.18-Apr-2020 3032.52 4480.62 68.38 3.00 393.25 1949.78
   08:53:35.800.18-Apr-2020 3032.52 4480.93 68.38 3.00 393.45 1949.78
   08:53:36.000.18-Apr-2020 3032.52 4480.57 68.38 3.00 393.65 1949.78
   08:53:36.200.18-Apr-2020 3032.52 4480.50 68.38 3.00 393.85 1949.78
   08:53:36.400.18-Apr-2020 3032.52 4480.77 68.38 3.00 394.05 1949.78
   08:53:36.600.18-Apr-2020 3032.52 4480.77 68.38 3.00 394.25 1949.78
   08:53:36.800.18-Apr-2020 3032.52 4479.96 68.38 3.00 394.45 1949.78
   08:53:37.000.18-Apr-2020 3032.52 4480.17 68.38 3.00 394.65 1949.78
   08:53:37.200.18-Apr-2020 3032.52 4480.23 68.38 3.00 394.85 1949.78
   08:53:37.400.18-Apr-2020 3032.52 4479.64 68.38 3.00 395.05 1949.78
   08:53:37.600.18-Apr-2020 3032.52 4479.64 68.38 3.00 395.25 1949.78
   08:53:37.800.18-Apr-2020 3032.52 4480.58 68.38 3.00 395.45 1949.78
   08:53:38.000.18-Apr-2020 3032.52 4480.88 68.38 3.00 395.65 1949.78
   08:53:38.200.18-Apr-2020 3032.52 4478.02 68.37 3.00 395.85 1949.78
   08:53:38.400.18-Apr-2020 3032.52 4480.56 68.37 3.00 396.05 1949.78
   08:53:38.600.18-Apr-2020 3032.52 4480.56 68.37 3.00 396.25 1949.78
   08:53:38.801.18-Apr-2020 3032.52 4480.79 68.37 3.00 396.45 1949.78
   08:53:39.001.18-Apr-2020 3032.52 4478.74 68.37 3.00 396.65 1949.78
   08:53:39.201.18-Apr-2020 3032.52 4480.40 68.37 3.00 396.85 1949.78
   08:53:39.401.18-Apr-2020 3032.52 4480.48 68.37 3.00 397.05 1949.78
   08:53:39.601.18-Apr-2020 3032.52 4480.48 68.37 3.00 397.25 1949.78
   08:53:39.801.18-Apr-2020 3032.52 4479.35 68.37 3.00 397.45 1949.78
   08:53:40.001.18-Apr-2020 3032.52 4479.40 68.37 3.00 397.65 1949.78
   08:53:40.201.18-Apr-2020 3032.52 4478.12 68.37 3.00 397.85 1949.78
   08:53:40.401.18-Apr-2020 3032.52 4479.82 68.37 3.00 398.05 1949.78
   08:53:40.601.18-Apr-2020 3032.52 4479.82 68.37 3.00 398.25 1949.78
   08:53:40.801.18-Apr-2020 3032.52 4479.93 68.36 3.00 398.45 1949.78
   08:53:41.001.18-Apr-2020 3032.52 4479.48 68.36 3.00 398.65 1949.78
   08:53:41.201.18-Apr-2020 3032.52 4480.28 68.36 3.00 398.85 1949.78
   08:53:41.401.18-Apr-2020 3032.52 4477.87 68.36 3.00 399.05 1949.78
   08:53:41.601.18-Apr-2020 3032.52 4477.87 68.36 3.00 399.25 1949.78
   08:53:41.801.18-Apr-2020 3032.52 4480.75 68.36 3.00 399.45 1949.78
   08:53:42.001.18-Apr-2020 3032.52 4480.97 68.36 3.00 399.65 1949.78
   08:53:42.201.18-Apr-2020 3032.52 4480.03 68.36 3.00 399.85 1949.78
   08:53:42.401.18-Apr-2020 3032.52 4480.24 68.36 3.00 400.05 1949.78
   08:53:42.601.18-Apr-2020 3032.52 4480.24 68.36 3.00 400.25 1949.78
   08:53:42.801.18-Apr-2020 3032.52 4479.25 68.36 3.00 400.45 1949.78
   08:53:43.001.18-Apr-2020 3032.52 4479.36 68.35 3.00 400.65 1949.78
   08:53:43.201.18-Apr-2020 3032.52 4479.59 68.35 3.00 400.85 1949.78
   08:53:43.401.18-Apr-2020 3032.52 4479.55 68.35 3.00 401.05 1949.78
   08:53:43.601.18-Apr-2020 3032.52 4479.55 68.35 3.00 401.25 1949.78
   08:53:43.801.18-Apr-2020 3032.52 4479.09 68.35 3.00 401.45 1949.78
   08:53:44.001.18-Apr-2020 3032.52 4479.24 68.35 3.00 401.65 1949.78
   08:53:44.201.18-Apr-2020 3032.52 4477.06 68.35 3.00 401.85 1949.78
   08:53:44.401.18-Apr-2020 3032.52 4480.84 68.35 3.00 402.05 1949.78
   08:53:44.601.18-Apr-2020 3032.52 4480.84 68.35 3.00 402.25 1949.78
   08:53:44.801.18-Apr-2020 3032.52 4480.74 68.35 3.00 402.45 1949.78
   08:53:45.001.18-Apr-2020 3032.52 4479.83 68.35 3.00 402.65 1949.78
   08:53:45.201.18-Apr-2020 3032.52 4480.62 68.34 3.00 402.85 1949.78
   08:53:45.401.18-Apr-2020 3032.52 4481.00 68.34 3.00 403.05 1949.78
   08:53:45.601.18-Apr-2020 3032.52 4481.00 68.34 3.00 403.25 1949.78
   08:53:45.801.18-Apr-2020 3032.52 4480.04 68.34 3.00 403.45 1949.78
   08:53:46.001.18-Apr-2020 3032.52 4480.72 68.34 3.00 403.65 1949.78
   08:53:46.202.18-Apr-2020 3032.52 4480.67 68.34 3.00 403.85 1949.78
   08:53:46.402.18-Apr-2020 3032.52 4480.28 68.34 3.00 404.05 1949.78
   08:53:46.602.18-Apr-2020 3032.52 4480.28 68.34 3.00 404.25 1949.78
   08:53:46.802.18-Apr-2020 3032.52 4480.11 68.34 3.00 404.45 1949.78
   08:53:47.002.18-Apr-2020 3032.52 4478.85 68.34 3.00 404.65 1949.78
   08:53:47.202.18-Apr-2020 3032.52 4481.47 68.34 3.00 404.85 1949.78
   08:53:47.402.18-Apr-2020 3032.52 4481.11 68.33 3.00 405.05 1949.78
   08:53:47.602.18-Apr-2020 3032.52 4478.30 68.33 3.00 405.25 1949.78
   08:53:47.802.18-Apr-2020 3032.52 4480.78 68.33 3.00 405.45 1949.78
   08:53:48.002.18-Apr-2020 3032.52 4480.88 68.33 3.00 405.65 1949.78
   08:53:48.202.18-Apr-2020 3032.52 4480.65 68.33 3.00 405.85 1949.78
   08:53:48.402.18-Apr-2020 3032.52 4479.80 68.33 3.00 406.05 1949.78
   08:53:48.602.18-Apr-2020 3032.52 4479.80 68.33 3.00 406.25 1949.78
   08:53:48.802.18-Apr-2020 3032.52 4480.58 68.33 3.00 406.45 1949.78
   08:53:49.002.18-Apr-2020 3032.52 4479.45 68.33 3.00 406.65 1949.78
   08:53:49.202.18-Apr-2020 3032.52 4478.14 68.33 3.00 406.85 1949.78
   08:53:49.402.18-Apr-2020 3032.52 4480.02 68.33 3.00 407.05 1949.78
   08:53:49.602.18-Apr-2020 3032.52 4480.02 68.33 3.00 407.25 1949.78
   08:53:49.802.18-Apr-2020 3032.52 4480.18 68.32 3.00 407.45 1949.78
   08:53:50.002.18-Apr-2020 3032.52 4479.80 68.32 3.00 407.65 1949.78
   08:53:50.202.18-Apr-2020 3032.52 4477.45 68.32 3.00 407.85 1949.78
   08:53:50.402.18-Apr-2020 3032.52 4480.87 68.32 3.00 408.05 1949.78
   08:53:50.602.18-Apr-2020 3032.52 4480.87 68.32 3.00 408.25 1949.78
   08:53:50.802.18-Apr-2020 3032.52 4480.58 68.32 3.00 408.46 1949.78
   08:53:51.002.18-Apr-2020 3032.52 4479.85 68.32 3.00 408.66 1949.78
   08:53:51.202.18-Apr-2020 3032.52 4481.18 68.32 3.00 408.86 1949.78
   08:53:51.402.18-Apr-2020 3032.52 4480.87 68.32 3.00 409.06 1949.78
   08:53:51.602.18-Apr-2020 3032.52 4479.60 68.32 3.00 409.26 1949.78
   08:53:51.802.18-Apr-2020 3032.52 4479.73 68.31 3.00 409.46 1949.78
   08:53:52.002.18-Apr-2020 3032.52 4480.18 68.31 3.00 409.66 1949.78
   08:53:52.202.18-Apr-2020 3032.52 4480.05 68.31 3.00 409.86 1949.78
   08:53:52.402.18-Apr-2020 3032.52 4479.95 68.31 3.00 410.06 1949.78
   08:53:52.602.18-Apr-2020 3032.52 4479.95 68.31 3.00 410.26 1949.78
   08:53:52.802.18-Apr-2020 3032.52 4479.68 68.31 3.00 410.46 1949.78
   08:53:53.002.18-Apr-2020 3032.52 4477.92 68.31 3.00 410.66 1949.78
   08:53:53.202.18-Apr-2020 3032.52 4479.75 68.31 3.00 410.86 1949.78
   08:53:53.402.18-Apr-2020 3032.52 4480.13 68.31 3.00 411.06 1949.78
   08:53:53.603.18-Apr-2020 3032.52 4480.13 68.31 3.00 411.26 1949.78
   08:53:53.803.18-Apr-2020 3032.52 4480.16 68.31 3.00 411.46 1949.78
   08:53:54.003.18-Apr-2020 3032.52 4481.00 68.30 3.00 411.66 1949.78
   08:53:54.203.18-Apr-2020 3032.52 4480.78 68.30 3.00 411.86 1949.78
   08:53:54.403.18-Apr-2020 3032.52 4480.62 68.30 3.00 412.06 1949.78
   08:53:54.603.18-Apr-2020 3032.52 4480.62 68.30 3.00 412.26 1949.78
   08:53:54.803.18-Apr-2020 3032.52 4480.64 68.30 3.00 412.46 1949.78
   08:53:55.003.18-Apr-2020 3032.52 4480.17 68.30 3.00 412.66 1949.78
   08:53:55.203.18-Apr-2020 3032.52 4479.80 68.30 3.00 412.86 1949.78
   08:53:55.403.18-Apr-2020 3032.52 4479.97 68.30 3.00 413.06 1949.78
   08:53:55.603.18-Apr-2020 3032.52 4479.92 68.30 3.00 413.26 1949.78
   08:53:55.803.18-Apr-2020 3032.52 4477.67 68.30 3.00 413.46 1949.78
   08:53:56.003.18-Apr-2020 3032.52 4480.71 68.30 3.00 413.66 1949.78
   08:53:56.203.18-Apr-2020 3032.52 4480.40 68.29 3.00 413.86 1949.78
