~Version Information
 VERS.                  2.0:   CWLS log ASCII Standard -VERSION 2.0
 WRAP.                   NO:   One line per depth step
~Well Information Block
#MNEM.UNIT     VALUE/NAME     DESCRIPTION
#---------     -----------    ---------------------------
 STRT.S             11:18:22 18-Apr-20: START TIME 11:18:22 18-Apr-20
 STOP.S             11:25:23 18-Apr-20: STOP TIME  11:25:23 18-Apr-20
 STEP.S                   0.00: STEP TIME
 NULL.                 -999.25: NULL VALUE
 DFWT.                        :  DIST FWL TEXT
 DFST.                        :  DIST FSL TEXT
 DMF .                        :  DRILL MEAS FROM
 STIM.      16.29.52 23-Mar-20:  START TIME
 DATE.      16.29.52 23-Mar-20:  END TIME
 SPUD.               23-Mar-20:  SPUD DATE
 NREF.                    Grid:  NORTH REFERENCE
 HPTY.       Minimum Curvature:  HOLE POS TYPE
 DMOD.             Drill Model:  DRILL MOD DESC
 SVYD.                  Survey:  SURVEY DESC
 ILTD.               Lithology:  INTERP LTH DESC
 FTOP.          Formation Tops:  FORM TOPS DESC
 SON .        AZ-XX-0906252240:  JOB NUMBER
 RIG .             West Chirag:  RIG NAME
 PDAT.          Mean Sea Level:  PERMANENT DATUM
 FLD .                     ACG:  FIELD NAME
 CTRY.              Azerbaijan:  COUNTRY NAME
 WELL.           J23 (Slot 07):  WELL NAME
 SRVC.          Turan Drilling:  CONTRACTOR
 COMP.     BP Exploration (Casoian Sea) Ltd:  COMPANY
 WTYP.                Deviated:  WELL TYPE
 MDS .        Operator Entered:  MAG DATA SOURCE
 UWI .                     N/A:  UNIQUE WELL IDENTIFIER
 API .                     N/A:  API NUMBER
 BASE.              Azerbaijan:  LOGGING EQUIPMENT BASE LOCATION
 REGN.                   EESSA:  REGION
 PROV.                    Baku:  PROVINCE
 STAT.                    Baku:  STATE NAME
 MWDS.                     N/A:  MWD SHOP
 JOBN.        AZ-XX-0906252240:  JOB TICKET NUMB
 DOE .                     N/A:  DOE NUMBER
 DCON.         Sperry Drilling:  DIRECTNL CONTR
 UNIT.                     N/A:  LOGGING EQUIPMENT ID
 CNTY.                        :  COUNTY
 LOC .                        :  LOCATION
 LMF .             Drill Floor:  LOG MEASURED FROM
 TVDS.m                  43.00:  TVDSS CORRECTN
 LATI.deg                40.13:  LATITUDE
 LONG.deg                51.22:  LONGITUDE
 WHNS.m                   9.43:  WELL HEAD N/S
 WHEW.m                  -8.91:  WELL HEAD E/W
 UTMX.m              519005.06:  UTM X
 UTMY.m             4443793.85:  UTM Y
 DFWL.m                   0.00:  DISTANCE FWL
 DFSL.m                   0.00:  DISTANCE FSL
 SDEP.m                   0.00:  START DEPTH
 TDD .m                   0.00:  TOTAL DEPTH (DRILLER)
 VSDR.deg               179.88:  VERT SEC DIRECT
 GVFD.g                   1.00:  GRAVITY FIELD
 MFLD.nT              50281.00:  MAGNETIC FIELD
 MDIP.deg                59.58:  MAGNETIC DIP
 MDEC.deg                 6.48:  MAGNETIC DECL
 GRDC.deg                 0.14:  GRID CORRECTION
 AZTC.deg                 6.34:  AZM TOTAL CORR
 EPD .m                   0.00:  ELEVATION
 EGL .m                   0.00:  GROUND ELEVATION
 WDMS.m                 169.80:  WD ELEV
 APD .m                  43.00:  DEPTH ABOVE PD
 DEP .m                 354.17:  DEPTH
 AGAP.m                  43.00:  AIR GAP
 VSEW.m                  -8.91:  VERT SEC E/W
 VSNS.m                   9.43:  VERT SEC N/S
 EKB .m                   0.00:  KB ELEVATION
 EDF .m                  43.00:  DF ELEVATION
 TDL .m                1326.00:  TOTAL DEPTH (LOGGER)
 VSC .                       0:  VS TO CLOSURE
 MAGU.                 1850704:  MAGUTM CHECKSUM
~Parameter Information Block
#MNEM.UNIT       Value        Description
#---------     -----------    ---------------------------
 AV  .mps                 1.17:  Ann Velocity 
 AZIF.deg               184.04:  Azm, Final 
 BHAT.        Rotary Steerable:  BHA Type 
 BREV.rev            620000.00:  Rev Bit Total 
 BROT.°/30m               0.20:  Build Rotating 
 BS  .in                 14.75:  Bit Size 
 BSZ .in                 14.75:  Bit Size 
 BTPL.psig              618.00:  Bit Press Loss 
 CABU.                      No:  Customer Abuse 
 TCS .hr                 87.68:  Time Ciculation Ended 
 CV  .mps                 3.10:  Crit Velocity 
 DD1 .          Rashad Habibov:  Direct Drillr 1 
 DD2 .         Rasim Ibrahimov:  Direct Drillr 2 
 DDSV.               Geo-Pilot:  DD Service 
 DEFF.%                  98.00:  % Det Eff 
 DLRX.°/30m               1.48:  Dogleg Rot Max 
 DLSO.°/30m               0.50:  Dogleg Oriented 
 DLSX.°/30m               1.48:  Dogleg Str Max 
 DRET.      06.18.56 19-Apr-20:  Drill End Time 
 DRST.      15.00.56 15-Apr-20:  Drill Start Tim 
 DTIM.hr                 51.73:  Time Drilling 
 EDEP.m                3410.01:  End Depth 
 ENG1.        Marcelo Sandoval:  Engineer 1 
 ENG2.        Davud Huseynzade:  Engineer 2 
 ENG3.          Ruslan Safarov:  Engineer 3 
 ETIM.      04.00.56 20-Apr-20:  End Time 
 FLOI.gpm              1000.00:  Flow In 
 FLON.gpm               600.00:  Flow In Min 
 FLOS.cptm                0.00:  Fluid Loss 
 FLOX.gpm              1200.00:  Flow In Max 
 HFLO.                      No:  High Flow 
 HPRE.                     Yes:  High Pressure 
 HTEM.                      No:  High Temp 
 HYDO.m                   1.80:  Hydro Offset 
 IFIN.deg                70.04:  Inc, Final 
 IMAX.deg                70.56:  Inc Max 
 IMIN.deg                69.85:  Inc Min 
 IMND.m                3103.24:  Inc Min Depth 
 IMXD.m                2876.63:  Inc Max Depth 
 JARR.                      No:  Jarring 
 LETM.      06.18.56 19-Apr-20:  Log End Time 
 LOST.hr                     0:  Lost Rig Time 
 LSTM.      15.00.56 15-Apr-20:  Log Start Time 
 MDCL.ppm             42000.00:  Mud Chlorides 
 MDES.     Inversion Oil/Synthetic:  Mud Desc 
 DFD .sg                  1.58:  Mud Density 
 MDMN.sg                  1.58:  Dens Mud Min 
 MDMX.sg                  1.58:  Dens Mud Max 
 MOIL.                      71:  Run Mud Oil % 
 MOWR.                   71:29:  Run Mud OWR 
 MSND.                       0:  Run Mud Sand % 
 MSOL.                    23.3:  Run Mud Solids% 
 DFV .spqt               84.00:  Mud Viscosity 
 MWOD.in                  9.50:  MWD Tool OD 
 MWSI.                      No:  Serv Intrp, MWD 
 OTIM.hr                139.62:  Time Operating 
 PMAX.psia             5364.69:  Press Op, Max 
 PV  .cP                 80.00:  Mud PV 
 RUN .                     700:  Run Number 
 ROPA.m/hr               25.00:  ROP Avg 
 ROPN.m/hr               11.00:  ROP Min 
 ROPX.m/hr               36.00:  ROP Max 
 RPMA.rpm               130.00:  RPM Surface Avg 
 RPMN.rpm               120.00:  RPM Surface Min 
 RPMX.rpm               140.00:  RPM Surface Max 
 RRUN.                    0700:  Rig Run Number 
 SAZI.deg               183.25:  Azm, Start 
 SDEP.m                2084.00:  Start Depth 
 SIDD.                      No:  Serv Intrp, DD 
 SINC.deg                70.38:  Inc, Start 
 SPPA.psig             4800.00:  SPP Avg 
 SPPN.psig             4400.00:  SPP Min 
 SPPX.psig             5350.00:  SPP Max 
 STIM.      16.30.56 14-Apr-20:  Start Time 
 SVCS.                 DD, MWD:  Services 
 SVER.                    9.20:  Sperry Version 
 TDAT.m                1326.00:  Tot Depth Attmp 
 TDDF.                      No:  Trip for DD 
 TDLG.m                1326.00:  Tot Depth Loggd 
 TFF .                      No:  Trip for Fail 
 TQAA.f-kp               19.00:  Torque Abs Avg 
 TQAN.f-kp                8.00:  Torque Abs Min 
 TQAX.f-kp               27.00:  Torque Abs Max 
 TRRT.°/30m               0.50:  Turn Rotating 
 MRT .                    HCIM:  Maximum Recorded Temperature 
 TTMX.degC               82.35:  Max Tool Temp 
 VS01.       905245875X1Z1W1C8:  Virtual Str1 SN 
 VS02.       90608022F11V7D1A9:  Virtual Str2 SN 
 VS03.            90605473R5C9:  Virtual Str3 SN 
 WBMN.klb                11.00:  WOB Min 
 WOBA.klb                21.00:  WOB Avg 
 WOBX.klb                30.00:  WOB Max 
 YP  .lhf2               45.00:  Yield Point 
~Curve Information Block
#MNEM.UNIT                 API CODE     Curve Description
#---------               -----------    ---------------------------
 TIME.HHMMSS            00 000 000 000:  GT Time & Date
 GTDEPTH.m              00 000 000 000:  GT Depth
 GTPQH.psia             00 000 000 000:  GT HR Quartz Pressure
 GTTQ.degC              00 000 000 000:  GT Quartz Temperature
 GTTN.NONE              00 000 000 000:  GT Test Number
 GTET.sec               00 000 000 000:  GT Elapsed Test Time
 GTTVD.m                00 000 000 000:  GT True Vertical Depth
#Other Information
#
#WARRANTY: Halliburton will use its best efforts to furnish customers with 
#accurate information and interpretations that are part of, and incident to, the services 
#provided.  However, Halliburton cannot and does not warrant the accuracy 
#or correctness of such information and interpretations.  Under no circumstances should any 
#such information or interpretation be relied upon as the sole basis for any drilling, 
#completion, production, or financial decision or any procedure involving any risk to the 
#safety of any drilling venture, drilling rig or its crew or any other third party.  The 
#Customer has full responsibility for all drilling, completion and production operation.  
#Halliburton makes no representations or warranties, either expressed or 
#implied, including, but not limited to, the implied warranties of merchantability or fitness 
#for a particular purpose, with respect to the services rendered.  In no event will 
#Halliburton be liable for failure to obtain any particular results or for 
#any damages, including, but not limited to, indirect, special or consequential damages, 
#resulting from the use of any information or interpretation provided by Halliburton.
#
~A           TIME           GTDEPTH  GTPQH  GTTQ  GTTN  GTET   GTTVD  
# ...
   11:21:03.590.18-Apr-2020 3074.89 3315.70 69.49 4.00 161.02 1964.21
   11:21:03.790.18-Apr-2020 3074.89 3315.70 69.49 4.00 161.22 1964.21
   11:21:03.990.18-Apr-2020 3074.89 3315.71 69.49 4.00 161.42 1964.21
   11:21:04.190.18-Apr-2020 3074.89 3315.67 69.49 4.00 161.62 1964.21
   11:21:04.390.18-Apr-2020 3074.89 3315.69 69.49 4.00 161.82 1964.21
   11:21:04.590.18-Apr-2020 3074.89 3315.70 69.49 4.00 162.02 1964.21
   11:21:04.790.18-Apr-2020 3074.89 3315.70 69.49 4.00 162.22 1964.21
   11:21:04.990.18-Apr-2020 3074.89 3315.69 69.49 4.00 162.42 1964.21
   11:21:05.190.18-Apr-2020 3074.89 3315.69 69.48 4.00 162.62 1964.21
   11:21:05.390.18-Apr-2020 3074.89 3315.66 69.48 4.00 162.82 1964.21
   11:21:05.590.18-Apr-2020 3074.89 3315.70 69.48 4.00 163.02 1964.21
   11:21:05.790.18-Apr-2020 3074.89 3315.70 69.48 4.00 163.22 1964.21
   11:21:05.990.18-Apr-2020 3074.89 3315.67 69.48 4.00 163.42 1964.21
   11:21:06.190.18-Apr-2020 3074.89 3315.72 69.48 4.00 163.62 1964.21
   11:21:06.390.18-Apr-2020 3074.89 3315.67 69.48 4.00 163.82 1964.21
   11:21:06.590.18-Apr-2020 3074.89 3315.69 69.48 4.00 164.02 1964.21
   11:21:06.791.18-Apr-2020 3074.89 3315.69 69.48 4.00 164.22 1964.21
   11:21:06.991.18-Apr-2020 3074.89 3315.68 69.48 4.00 164.42 1964.21
   11:21:07.191.18-Apr-2020 3074.89 3315.70 69.48 4.00 164.62 1964.21
   11:21:07.391.18-Apr-2020 3074.89 3315.68 69.48 4.00 164.82 1964.21
   11:21:07.591.18-Apr-2020 3074.89 3315.68 69.47 4.00 165.02 1964.21
   11:21:07.791.18-Apr-2020 3074.89 3315.68 69.47 4.00 165.22 1964.21
   11:21:07.991.18-Apr-2020 3074.89 3315.69 69.47 4.00 165.42 1964.21
   11:21:08.191.18-Apr-2020 3074.89 3315.67 69.47 4.00 165.62 1964.21
   11:21:08.391.18-Apr-2020 3074.89 3315.70 69.47 4.00 165.82 1964.21
   11:21:08.591.18-Apr-2020 3074.89 3315.68 69.47 4.00 166.02 1964.21
   11:21:08.791.18-Apr-2020 3074.89 3315.68 69.47 4.00 166.22 1964.21
   11:21:08.991.18-Apr-2020 3074.89 3315.68 69.47 4.00 166.42 1964.21
   11:21:09.191.18-Apr-2020 3074.89 3315.69 69.47 4.00 166.62 1964.21
   11:21:09.391.18-Apr-2020 3074.89 3315.69 69.47 4.00 166.82 1964.21
   11:21:09.591.18-Apr-2020 3074.89 3315.69 69.47 4.00 167.02 1964.21
   11:21:09.791.18-Apr-2020 3074.89 3315.69 69.47 4.00 167.22 1964.21
   11:21:09.991.18-Apr-2020 3074.89 3315.67 69.46 4.00 167.42 1964.21
   11:21:10.191.18-Apr-2020 3074.89 3315.68 69.46 4.00 167.62 1964.21
   11:21:10.391.18-Apr-2020 3074.89 3315.68 69.46 4.00 167.82 1964.21
   11:21:10.591.18-Apr-2020 3074.89 3315.68 69.46 4.00 168.02 1964.21
   11:21:10.791.18-Apr-2020 3074.89 3315.68 69.46 4.00 168.22 1964.21
   11:21:10.991.18-Apr-2020 3074.89 3315.68 69.46 4.00 168.42 1964.21
   11:21:11.191.18-Apr-2020 3074.89 3315.67 69.46 4.00 168.62 1964.21
   11:21:11.391.18-Apr-2020 3074.89 3315.69 69.46 4.00 168.82 1964.21
   11:21:11.591.18-Apr-2020 3074.89 3315.64 69.46 4.00 169.02 1964.21
   11:21:11.791.18-Apr-2020 3074.89 3315.64 69.46 4.00 169.22 1964.21
   11:21:11.991.18-Apr-2020 3074.89 3315.68 69.46 4.00 169.42 1964.21
   11:21:12.191.18-Apr-2020 3074.89 3315.65 69.45 4.00 169.62 1964.21
   11:21:12.391.18-Apr-2020 3074.89 3315.71 69.45 4.00 169.82 1964.21
   11:21:12.591.18-Apr-2020 3074.89 3315.68 69.45 4.00 170.02 1964.21
   11:21:12.791.18-Apr-2020 3074.89 3315.68 69.45 4.00 170.22 1964.21
   11:21:12.991.18-Apr-2020 3074.89 3315.68 69.45 4.00 170.42 1964.21
   11:21:13.191.18-Apr-2020 3074.89 3315.66 69.45 4.00 170.62 1964.21
   11:21:13.391.18-Apr-2020 3074.89 3315.68 69.45 4.00 170.82 1964.21
   11:21:13.591.18-Apr-2020 3074.89 3315.68 69.45 4.00 171.02 1964.21
   11:21:13.791.18-Apr-2020 3074.89 3315.68 69.45 4.00 171.22 1964.21
   11:21:13.991.18-Apr-2020 3074.89 3315.67 69.45 4.00 171.42 1964.21
   11:21:14.191.18-Apr-2020 3074.89 3315.68 69.45 4.00 171.62 1964.21
   11:21:14.392.18-Apr-2020 3074.89 3301.63 69.45 4.00 171.82 1964.21
   11:21:14.592.18-Apr-2020 3074.89 3297.34 69.44 4.00 172.02 1964.21
   11:21:14.792.18-Apr-2020 3074.89 3297.34 69.44 4.00 172.22 1964.21
   11:21:14.992.18-Apr-2020 3074.89 3298.18 69.44 4.00 172.42 1964.21
   11:21:15.192.18-Apr-2020 3074.89 3298.71 69.44 4.00 172.62 1964.21
   11:21:15.392.18-Apr-2020 3074.89 3298.62 69.44 4.00 172.82 1964.21
   11:21:15.592.18-Apr-2020 3074.89 3298.53 69.44 4.00 173.02 1964.21
   11:21:15.792.18-Apr-2020 3074.89 3298.53 69.44 4.00 173.22 1964.21
   11:21:15.992.18-Apr-2020 3074.89 3298.72 69.44 4.00 173.42 1964.21
   11:21:16.192.18-Apr-2020 3074.89 3298.76 69.44 4.00 173.62 1964.21
   11:21:16.392.18-Apr-2020 3074.89 3298.72 69.44 4.00 173.82 1964.21
   11:21:16.592.18-Apr-2020 3074.89 3298.94 69.44 4.00 174.02 1964.21
   11:21:16.792.18-Apr-2020 3074.89 3298.94 69.44 4.00 174.22 1964.21
   11:21:16.992.18-Apr-2020 3074.89 3299.24 69.43 4.00 174.42 1964.21
   11:21:17.192.18-Apr-2020 3074.89 3299.44 69.43 4.00 174.62 1964.21
   11:21:17.392.18-Apr-2020 3074.89 3299.49 69.43 4.00 174.82 1964.21
   11:21:17.592.18-Apr-2020 3074.89 3299.57 69.43 4.00 175.02 1964.21
   11:21:17.792.18-Apr-2020 3074.89 3299.57 69.43 4.00 175.22 1964.21
   11:21:17.992.18-Apr-2020 3074.89 3299.86 69.43 4.00 175.42 1964.21
   11:21:18.192.18-Apr-2020 3074.89 3300.13 69.43 4.00 175.62 1964.21
   11:21:18.392.18-Apr-2020 3074.89 3300.09 69.43 4.00 175.82 1964.21
   11:21:18.592.18-Apr-2020 3074.89 3300.26 69.43 4.00 176.02 1964.21
   11:21:18.792.18-Apr-2020 3074.89 3300.26 69.43 4.00 176.22 1964.21
   11:21:18.992.18-Apr-2020 3074.89 3300.47 69.43 4.00 176.42 1964.21
   11:21:19.192.18-Apr-2020 3074.89 3300.57 69.43 4.00 176.62 1964.21
   11:21:19.392.18-Apr-2020 3074.89 3300.53 69.42 4.00 176.82 1964.21
   11:21:19.592.18-Apr-2020 3074.89 3300.56 69.42 4.00 177.02 1964.21
   11:21:19.792.18-Apr-2020 3074.89 3300.56 69.42 4.00 177.22 1964.21
   11:21:19.992.18-Apr-2020 3074.89 3300.69 69.42 4.00 177.42 1964.21
   11:21:20.192.18-Apr-2020 3074.89 3300.80 69.42 4.00 177.62 1964.21
   11:21:20.392.18-Apr-2020 3074.89 3300.90 69.42 4.00 177.82 1964.21
   11:21:20.592.18-Apr-2020 3074.89 3300.95 69.42 4.00 178.02 1964.21
   11:21:20.792.18-Apr-2020 3074.89 3300.95 69.42 4.00 178.22 1964.21
   11:21:20.992.18-Apr-2020 3074.89 3301.25 69.42 4.00 178.42 1964.21
   11:21:21.192.18-Apr-2020 3074.89 3301.14 69.42 4.00 178.62 1964.21
   11:21:21.392.18-Apr-2020 3074.89 3301.60 69.42 4.00 178.82 1964.21
   11:21:21.592.18-Apr-2020 3074.89 3301.43 69.41 4.00 179.02 1964.21
   11:21:21.793.18-Apr-2020 3074.89 3301.43 69.41 4.00 179.22 1964.21
   11:21:21.993.18-Apr-2020 3074.89 3301.48 69.41 4.00 179.42 1964.21
   11:21:22.193.18-Apr-2020 3074.89 3301.49 69.41 4.00 179.62 1964.21
   11:21:22.393.18-Apr-2020 3074.89 3301.53 69.41 4.00 179.82 1964.21
   11:21:22.593.18-Apr-2020 3074.89 3301.74 69.41 4.00 180.02 1964.21
   11:21:22.793.18-Apr-2020 3074.89 3301.74 69.41 4.00 180.22 1964.21
   11:21:22.993.18-Apr-2020 3074.89 3301.86 69.41 4.00 180.42 1964.21
   11:21:23.193.18-Apr-2020 3074.89 3301.88 69.41 4.00 180.62 1964.21
   11:21:23.393.18-Apr-2020 3074.89 3301.87 69.41 4.00 180.82 1964.21
   11:21:23.593.18-Apr-2020 3074.89 3301.91 69.41 4.00 181.02 1964.21
   11:21:23.793.18-Apr-2020 3074.89 3301.91 69.41 4.00 181.22 1964.21
   11:21:23.993.18-Apr-2020 3074.89 3301.84 69.40 4.00 181.42 1964.21
   11:21:24.193.18-Apr-2020 3074.89 3302.35 69.40 4.00 181.62 1964.21
   11:21:24.393.18-Apr-2020 3074.89 3302.19 69.40 4.00 181.82 1964.21
   11:21:24.593.18-Apr-2020 3074.89 3302.19 69.40 4.00 182.02 1964.21
   11:21:24.793.18-Apr-2020 3074.89 3302.19 69.40 4.00 182.22 1964.21
   11:21:24.993.18-Apr-2020 3074.89 3313.77 69.40 4.00 182.42 1964.21
   11:21:25.193.18-Apr-2020 3074.89 3315.66 69.40 4.00 182.62 1964.21
   11:21:25.393.18-Apr-2020 3074.89 3315.72 69.40 4.00 182.82 1964.21
   11:21:25.593.18-Apr-2020 3074.89 3315.74 69.40 4.00 183.02 1964.21
   11:21:25.793.18-Apr-2020 3074.89 3315.74 69.40 4.00 183.22 1964.21
   11:21:25.993.18-Apr-2020 3074.89 3315.72 69.40 4.00 183.42 1964.21
   11:21:26.193.18-Apr-2020 3074.89 3315.74 69.40 4.00 183.62 1964.21
   11:21:26.393.18-Apr-2020 3074.89 3315.73 69.39 4.00 183.82 1964.21
