~Version Information
 VERS.                  2.0:   CWLS log ASCII Standard -VERSION 2.0
 WRAP.                   NO:   One line per depth step
~Well Information Block
#MNEM.UNIT     VALUE/NAME     DESCRIPTION
#---------     -----------    ---------------------------
 STRT.S             11:18:22 18-Apr-20: START TIME 11:18:22 18-Apr-20
 STOP.S             11:25:23 18-Apr-20: STOP TIME  11:25:23 18-Apr-20
 STEP.S                   0.00: STEP TIME
 NULL.                 -999.25: NULL VALUE
 DFWT.                        :  DIST FWL TEXT
 DFST.                        :  DIST FSL TEXT
 DMF .                        :  DRILL MEAS FROM
 STIM.      16.29.52 23-Mar-20:  START TIME
 DATE.      16.29.52 23-Mar-20:  END TIME
 SPUD.               23-Mar-20:  SPUD DATE
 NREF.                    Grid:  NORTH REFERENCE
 HPTY.       Minimum Curvature:  HOLE POS TYPE
 DMOD.             Drill Model:  DRILL MOD DESC
 SVYD.                  Survey:  SURVEY DESC
 ILTD.               Lithology:  INTERP LTH DESC
 FTOP.          Formation Tops:  FORM TOPS DESC
 SON .        AZ-XX-0906252240:  JOB NUMBER
 RIG .             West Chirag:  RIG NAME
 PDAT.          Mean Sea Level:  PERMANENT DATUM
 FLD .                     ACG:  FIELD NAME
 CTRY.              Azerbaijan:  COUNTRY NAME
 WELL.           J23 (Slot 07):  WELL NAME
 SRVC.          Turan Drilling:  CONTRACTOR
 COMP.     BP Exploration (Casoian Sea) Ltd:  COMPANY
 WTYP.                Deviated:  WELL TYPE
 MDS .        Operator Entered:  MAG DATA SOURCE
 UWI .                     N/A:  UNIQUE WELL IDENTIFIER
 API .                     N/A:  API NUMBER
 BASE.              Azerbaijan:  LOGGING EQUIPMENT BASE LOCATION
 REGN.                   EESSA:  REGION
 PROV.                    Baku:  PROVINCE
 STAT.                    Baku:  STATE NAME
 MWDS.                     N/A:  MWD SHOP
 JOBN.        AZ-XX-0906252240:  JOB TICKET NUMB
 DOE .                     N/A:  DOE NUMBER
 DCON.         Sperry Drilling:  DIRECTNL CONTR
 UNIT.                     N/A:  LOGGING EQUIPMENT ID
 CNTY.                        :  COUNTY
 LOC .                        :  LOCATION
 LMF .             Drill Floor:  LOG MEASURED FROM
 TVDS.m                  43.00:  TVDSS CORRECTN
 LATI.deg                40.13:  LATITUDE
 LONG.deg                51.22:  LONGITUDE
 WHNS.m                   9.43:  WELL HEAD N/S
 WHEW.m                  -8.91:  WELL HEAD E/W
 UTMX.m              519005.06:  UTM X
 UTMY.m             4443793.85:  UTM Y
 DFWL.m                   0.00:  DISTANCE FWL
 DFSL.m                   0.00:  DISTANCE FSL
 SDEP.m                   0.00:  START DEPTH
 TDD .m                   0.00:  TOTAL DEPTH (DRILLER)
 VSDR.deg               179.88:  VERT SEC DIRECT
 GVFD.g                   1.00:  GRAVITY FIELD
 MFLD.nT              50281.00:  MAGNETIC FIELD
 MDIP.deg                59.58:  MAGNETIC DIP
 MDEC.deg                 6.48:  MAGNETIC DECL
 GRDC.deg                 0.14:  GRID CORRECTION
 AZTC.deg                 6.34:  AZM TOTAL CORR
 EPD .m                   0.00:  ELEVATION
 EGL .m                   0.00:  GROUND ELEVATION
 WDMS.m                 169.80:  WD ELEV
 APD .m                  43.00:  DEPTH ABOVE PD
 DEP .m                 354.17:  DEPTH
 AGAP.m                  43.00:  AIR GAP
 VSEW.m                  -8.91:  VERT SEC E/W
 VSNS.m                   9.43:  VERT SEC N/S
 EKB .m                   0.00:  KB ELEVATION
 EDF .m                  43.00:  DF ELEVATION
 TDL .m                1326.00:  TOTAL DEPTH (LOGGER)
 VSC .                       0:  VS TO CLOSURE
 MAGU.                 1850704:  MAGUTM CHECKSUM
~Parameter Information Block
#MNEM.UNIT       Value        Description
#---------     -----------    ---------------------------
 AV  .mps                 1.17:  Ann Velocity 
 AZIF.deg               184.04:  Azm, Final 
 BHAT.        Rotary Steerable:  BHA Type 
 BREV.rev            620000.00:  Rev Bit Total 
 BROT.°/30m               0.20:  Build Rotating 
 BS  .in                 14.75:  Bit Size 
 BSZ .in                 14.75:  Bit Size 
 BTPL.psig              618.00:  Bit Press Loss 
 CABU.                      No:  Customer Abuse 
 TCS .hr                 87.68:  Time Ciculation Ended 
 CV  .mps                 3.10:  Crit Velocity 
 DD1 .          Rashad Habibov:  Direct Drillr 1 
 DD2 .         Rasim Ibrahimov:  Direct Drillr 2 
 DDSV.               Geo-Pilot:  DD Service 
 DEFF.%                  98.00:  % Det Eff 
 DLRX.°/30m               1.48:  Dogleg Rot Max 
 DLSO.°/30m               0.50:  Dogleg Oriented 
 DLSX.°/30m               1.48:  Dogleg Str Max 
 DRET.      06.18.56 19-Apr-20:  Drill End Time 
 DRST.      15.00.56 15-Apr-20:  Drill Start Tim 
 DTIM.hr                 51.73:  Time Drilling 
 EDEP.m                3410.01:  End Depth 
 ENG1.        Marcelo Sandoval:  Engineer 1 
 ENG2.        Davud Huseynzade:  Engineer 2 
 ENG3.          Ruslan Safarov:  Engineer 3 
 ETIM.      04.00.56 20-Apr-20:  End Time 
 FLOI.gpm              1000.00:  Flow In 
 FLON.gpm               600.00:  Flow In Min 
 FLOS.cptm                0.00:  Fluid Loss 
 FLOX.gpm              1200.00:  Flow In Max 
 HFLO.                      No:  High Flow 
 HPRE.                     Yes:  High Pressure 
 HTEM.                      No:  High Temp 
 HYDO.m                   1.80:  Hydro Offset 
 IFIN.deg                70.04:  Inc, Final 
 IMAX.deg                70.56:  Inc Max 
 IMIN.deg                69.85:  Inc Min 
 IMND.m                3103.24:  Inc Min Depth 
 IMXD.m                2876.63:  Inc Max Depth 
 JARR.                      No:  Jarring 
 LETM.      06.18.56 19-Apr-20:  Log End Time 
 LOST.hr                     0:  Lost Rig Time 
 LSTM.      15.00.56 15-Apr-20:  Log Start Time 
 MDCL.ppm             42000.00:  Mud Chlorides 
 MDES.     Inversion Oil/Synthetic:  Mud Desc 
 DFD .sg                  1.58:  Mud Density 
 MDMN.sg                  1.58:  Dens Mud Min 
 MDMX.sg                  1.58:  Dens Mud Max 
 MOIL.                      71:  Run Mud Oil % 
 MOWR.                   71:29:  Run Mud OWR 
 MSND.                       0:  Run Mud Sand % 
 MSOL.                    23.3:  Run Mud Solids% 
 DFV .spqt               84.00:  Mud Viscosity 
 MWOD.in                  9.50:  MWD Tool OD 
 MWSI.                      No:  Serv Intrp, MWD 
 OTIM.hr                139.62:  Time Operating 
 PMAX.psia             5364.69:  Press Op, Max 
 PV  .cP                 80.00:  Mud PV 
 RUN .                     700:  Run Number 
 ROPA.m/hr               25.00:  ROP Avg 
 ROPN.m/hr               11.00:  ROP Min 
 ROPX.m/hr               36.00:  ROP Max 
 RPMA.rpm               130.00:  RPM Surface Avg 
 RPMN.rpm               120.00:  RPM Surface Min 
 RPMX.rpm               140.00:  RPM Surface Max 
 RRUN.                    0700:  Rig Run Number 
 SAZI.deg               183.25:  Azm, Start 
 SDEP.m                2084.00:  Start Depth 
 SIDD.                      No:  Serv Intrp, DD 
 SINC.deg                70.38:  Inc, Start 
 SPPA.psig             4800.00:  SPP Avg 
 SPPN.psig             4400.00:  SPP Min 
 SPPX.psig             5350.00:  SPP Max 
 STIM.      16.30.56 14-Apr-20:  Start Time 
 SVCS.                 DD, MWD:  Services 
 SVER.                    9.20:  Sperry Version 
 TDAT.m                1326.00:  Tot Depth Attmp 
 TDDF.                      No:  Trip for DD 
 TDLG.m                1326.00:  Tot Depth Loggd 
 TFF .                      No:  Trip for Fail 
 TQAA.f-kp               19.00:  Torque Abs Avg 
 TQAN.f-kp                8.00:  Torque Abs Min 
 TQAX.f-kp               27.00:  Torque Abs Max 
 TRRT.°/30m               0.50:  Turn Rotating 
 MRT .                    HCIM:  Maximum Recorded Temperature 
 TTMX.degC               82.35:  Max Tool Temp 
 VS01.       905245875X1Z1W1C8:  Virtual Str1 SN 
 VS02.       90608022F11V7D1A9:  Virtual Str2 SN 
 VS03.            90605473R5C9:  Virtual Str3 SN 
 WBMN.klb                11.00:  WOB Min 
 WOBA.klb                21.00:  WOB Avg 
 WOBX.klb                30.00:  WOB Max 
 YP  .lhf2               45.00:  Yield Point 
~Curve Information Block
#MNEM.UNIT                 API CODE     Curve Description
#---------               -----------    ---------------------------
 TIME.HHMMSS            00 000 000 000:  GT Time & Date
 GTDEPTH.m              00 000 000 000:  GT Depth
 GTPQH.psia             00 000 000 000:  GT HR Quartz Pressure
 GTTQ.degC              00 000 000 000:  GT Quartz Temperature
 GTTN.NONE              00 000 000 000:  GT Test Number
 GTET.sec               00 000 000 000:  GT Elapsed Test Time
 GTTVD.m                00 000 000 000:  GT True Vertical Depth
#Other Information
#
#WARRANTY: Halliburton will use its best efforts to furnish customers with 
#accurate information and interpretations that are part of, and incident to, the services 
#provided.  However, Halliburton cannot and does not warrant the accuracy 
#or correctness of such information and interpretations.  Under no circumstances should any 
#such information or interpretation be relied upon as the sole basis for any drilling, 
#completion, production, or financial decision or any procedure involving any risk to the 
#safety of any drilling venture, drilling rig or its crew or any other third party.  The 
#Customer has full responsibility for all drilling, completion and production operation.  
#Halliburton makes no representations or warranties, either expressed or 
#implied, including, but not limited to, the implied warranties of merchantability or fitness 
#for a particular purpose, with respect to the services rendered.  In no event will 
#Halliburton be liable for failure to obtain any particular results or for 
#any damages, including, but not limited to, indirect, special or consequential damages, 
#resulting from the use of any information or interpretation provided by Halliburton.
#
~A           TIME           GTDEPTH  GTPQH  GTTQ  GTTN  GTET   GTTVD  
# ...
   11:23:44.612.18-Apr-2020 3074.89 3315.66 68.78 4.00 322.04 1964.21
   11:23:44.812.18-Apr-2020 3074.89 3315.66 68.78 4.00 322.24 1964.21
   11:23:45.012.18-Apr-2020 3074.89 3315.66 68.78 4.00 322.44 1964.21
   11:23:45.212.18-Apr-2020 3074.89 3315.64 68.78 4.00 322.64 1964.21
   11:23:45.412.18-Apr-2020 3074.89 3315.68 68.78 4.00 322.84 1964.21
   11:23:45.612.18-Apr-2020 3074.89 3315.66 68.78 4.00 323.04 1964.21
   11:23:45.812.18-Apr-2020 3074.89 3315.66 68.78 4.00 323.24 1964.21
   11:23:46.012.18-Apr-2020 3074.89 3315.68 68.78 4.00 323.44 1964.21
   11:23:46.212.18-Apr-2020 3074.89 3315.68 68.78 4.00 323.64 1964.21
   11:23:46.412.18-Apr-2020 3074.89 3315.66 68.78 4.00 323.84 1964.21
   11:23:46.612.18-Apr-2020 3074.89 3315.66 68.78 4.00 324.04 1964.21
   11:23:46.812.18-Apr-2020 3074.89 3315.66 68.78 4.00 324.24 1964.21
   11:23:47.012.18-Apr-2020 3074.89 3315.65 68.77 4.00 324.44 1964.21
   11:23:47.212.18-Apr-2020 3074.89 3315.68 68.77 4.00 324.64 1964.21
   11:23:47.412.18-Apr-2020 3074.89 3315.67 68.77 4.00 324.84 1964.21
   11:23:47.612.18-Apr-2020 3074.89 3315.67 68.77 4.00 325.04 1964.21
   11:23:47.812.18-Apr-2020 3074.89 3315.67 68.77 4.00 325.24 1964.21
   11:23:48.012.18-Apr-2020 3074.89 3315.65 68.77 4.00 325.44 1964.21
   11:23:48.212.18-Apr-2020 3074.89 3315.67 68.77 4.00 325.64 1964.21
   11:23:48.412.18-Apr-2020 3074.89 3315.68 68.77 4.00 325.84 1964.21
   11:23:48.612.18-Apr-2020 3074.89 3315.66 68.77 4.00 326.04 1964.21
   11:23:48.812.18-Apr-2020 3074.89 3315.66 68.77 4.00 326.24 1964.21
   11:23:49.012.18-Apr-2020 3074.89 3315.68 68.77 4.00 326.44 1964.21
   11:23:49.212.18-Apr-2020 3074.89 3315.67 68.76 4.00 326.64 1964.21
   11:23:49.412.18-Apr-2020 3074.89 3315.67 68.76 4.00 326.84 1964.21
   11:23:49.612.18-Apr-2020 3074.89 3315.67 68.76 4.00 327.04 1964.21
   11:23:49.812.18-Apr-2020 3074.89 3315.67 68.76 4.00 327.24 1964.21
   11:23:50.012.18-Apr-2020 3074.89 3315.67 68.76 4.00 327.44 1964.21
   11:23:50.212.18-Apr-2020 3074.89 3315.66 68.76 4.00 327.64 1964.21
   11:23:50.412.18-Apr-2020 3074.89 3315.66 68.76 4.00 327.84 1964.21
   11:23:50.612.18-Apr-2020 3074.89 3315.67 68.76 4.00 328.04 1964.21
   11:23:50.813.18-Apr-2020 3074.89 3315.67 68.76 4.00 328.24 1964.21
   11:23:51.013.18-Apr-2020 3074.89 3315.67 68.76 4.00 328.44 1964.21
   11:23:51.213.18-Apr-2020 3074.89 3315.66 68.76 4.00 328.64 1964.21
   11:23:51.413.18-Apr-2020 3074.89 3315.67 68.75 4.00 328.84 1964.21
   11:23:51.613.18-Apr-2020 3074.89 3315.65 68.75 4.00 329.04 1964.21
   11:23:51.813.18-Apr-2020 3074.89 3315.65 68.75 4.00 329.24 1964.21
   11:23:52.013.18-Apr-2020 3074.89 3315.67 68.75 4.00 329.44 1964.21
   11:23:52.213.18-Apr-2020 3074.89 3315.68 68.75 4.00 329.64 1964.21
   11:23:52.413.18-Apr-2020 3074.89 3315.66 68.75 4.00 329.84 1964.21
   11:23:52.613.18-Apr-2020 3074.89 3315.68 68.75 4.00 330.04 1964.21
   11:23:52.813.18-Apr-2020 3074.89 3315.68 68.75 4.00 330.24 1964.21
   11:23:53.013.18-Apr-2020 3074.89 3315.67 68.75 4.00 330.44 1964.21
   11:23:53.213.18-Apr-2020 3074.89 3315.66 68.75 4.00 330.64 1964.21
   11:23:53.413.18-Apr-2020 3074.89 3315.66 68.75 4.00 330.84 1964.21
   11:23:53.613.18-Apr-2020 3074.89 3315.66 68.74 4.00 331.04 1964.21
   11:23:53.813.18-Apr-2020 3074.89 3315.66 68.74 4.00 331.24 1964.21
   11:23:54.013.18-Apr-2020 3074.89 3315.67 68.74 4.00 331.44 1964.21
   11:23:54.213.18-Apr-2020 3074.89 3315.66 68.74 4.00 331.64 1964.21
   11:23:54.413.18-Apr-2020 3074.89 3315.68 68.74 4.00 331.84 1964.21
   11:23:54.613.18-Apr-2020 3074.89 3315.67 68.74 4.00 332.04 1964.21
   11:23:54.813.18-Apr-2020 3074.89 3315.67 68.74 4.00 332.24 1964.21
   11:23:55.013.18-Apr-2020 3074.89 3315.69 68.74 4.00 332.44 1964.21
   11:23:55.213.18-Apr-2020 3074.89 3315.68 68.74 4.00 332.64 1964.21
   11:23:55.413.18-Apr-2020 3074.89 3315.67 68.74 4.00 332.84 1964.21
   11:23:55.613.18-Apr-2020 3074.89 3315.67 68.74 4.00 333.04 1964.21
   11:23:55.813.18-Apr-2020 3074.89 3315.67 68.74 4.00 333.24 1964.21
   11:23:56.013.18-Apr-2020 3074.89 3315.67 68.73 4.00 333.44 1964.21
   11:23:56.213.18-Apr-2020 3074.89 3315.68 68.73 4.00 333.64 1964.21
   11:23:56.413.18-Apr-2020 3074.89 3315.68 68.73 4.00 333.84 1964.21
   11:23:56.613.18-Apr-2020 3074.89 3315.66 68.73 4.00 334.04 1964.21
   11:23:56.813.18-Apr-2020 3074.89 3315.66 68.73 4.00 334.24 1964.21
   11:23:57.013.18-Apr-2020 3074.89 3315.65 68.73 4.00 334.44 1964.21
   11:23:57.213.18-Apr-2020 3074.89 3315.67 68.73 4.00 334.64 1964.21
   11:23:57.413.18-Apr-2020 3074.89 3315.66 68.73 4.00 334.84 1964.21
   11:23:57.613.18-Apr-2020 3074.89 3315.66 68.73 4.00 335.04 1964.21
   11:23:57.813.18-Apr-2020 3074.89 3315.66 68.73 4.00 335.25 1964.21
   11:23:58.013.18-Apr-2020 3074.89 3315.68 68.72 4.00 335.45 1964.21
   11:23:58.214.18-Apr-2020 3074.89 3315.67 68.72 4.00 335.65 1964.21
   11:23:58.414.18-Apr-2020 3074.89 3315.66 68.72 4.00 335.85 1964.21
   11:23:58.614.18-Apr-2020 3074.89 3315.66 68.72 4.00 336.05 1964.21
   11:23:58.814.18-Apr-2020 3074.89 3315.66 68.72 4.00 336.25 1964.21
   11:23:59.014.18-Apr-2020 3074.89 3315.66 68.72 4.00 336.45 1964.21
   11:23:59.214.18-Apr-2020 3074.89 3315.66 68.72 4.00 336.65 1964.21
   11:23:59.414.18-Apr-2020 3074.89 3315.65 68.72 4.00 336.85 1964.21
   11:23:59.614.18-Apr-2020 3074.89 3315.66 68.72 4.00 337.05 1964.21
   11:23:59.814.18-Apr-2020 3074.89 3315.66 68.72 4.00 337.25 1964.21
   11:24:00.014.18-Apr-2020 3074.89 3315.66 68.72 4.00 337.45 1964.21
   11:24:00.214.18-Apr-2020 3074.89 3315.66 68.71 4.00 337.65 1964.21
   11:24:00.414.18-Apr-2020 3074.89 3315.66 68.71 4.00 337.85 1964.21
   11:24:00.614.18-Apr-2020 3074.89 3315.65 68.71 4.00 338.05 1964.21
   11:24:00.814.18-Apr-2020 3074.89 3315.65 68.71 4.00 338.25 1964.21
   11:24:01.014.18-Apr-2020 3074.89 3315.67 68.71 4.00 338.45 1964.21
   11:24:01.214.18-Apr-2020 3074.89 3315.67 68.71 4.00 338.65 1964.21
   11:24:01.414.18-Apr-2020 3074.89 3315.68 68.71 4.00 338.85 1964.21
   11:24:01.614.18-Apr-2020 3074.89 3315.66 68.71 4.00 339.05 1964.21
   11:24:01.814.18-Apr-2020 3074.89 3315.66 68.71 4.00 339.25 1964.21
   11:24:02.014.18-Apr-2020 3074.89 3315.66 68.71 4.00 339.45 1964.21
   11:24:02.214.18-Apr-2020 3074.89 3315.67 68.71 4.00 339.65 1964.21
   11:24:02.414.18-Apr-2020 3074.89 3315.67 68.70 4.00 339.85 1964.21
   11:24:02.614.18-Apr-2020 3074.89 3315.67 68.70 4.00 340.05 1964.21
   11:24:02.814.18-Apr-2020 3074.89 3315.67 68.70 4.00 340.25 1964.21
   11:24:03.014.18-Apr-2020 3074.89 3315.67 68.70 4.00 340.45 1964.21
   11:24:03.214.18-Apr-2020 3074.89 3315.66 68.70 4.00 340.65 1964.21
   11:24:03.414.18-Apr-2020 3074.89 3315.68 68.70 4.00 340.85 1964.21
   11:24:03.614.18-Apr-2020 3074.89 3315.68 68.70 4.00 341.05 1964.21
   11:24:03.814.18-Apr-2020 3074.89 3315.68 68.70 4.00 341.25 1964.21
   11:24:04.014.18-Apr-2020 3074.89 3315.69 68.70 4.00 341.45 1964.21
   11:24:04.214.18-Apr-2020 3074.89 3315.69 68.70 4.00 341.65 1964.21
   11:24:04.414.18-Apr-2020 3074.89 3315.66 68.70 4.00 341.85 1964.21
   11:24:04.614.18-Apr-2020 3074.89 3315.67 68.69 4.00 342.05 1964.21
   11:24:04.814.18-Apr-2020 3074.89 3315.67 68.69 4.00 342.25 1964.21
   11:24:05.014.18-Apr-2020 3074.89 3315.65 68.69 4.00 342.45 1964.21
   11:24:05.214.18-Apr-2020 3074.89 3315.66 68.69 4.00 342.65 1964.21
   11:24:05.414.18-Apr-2020 3074.89 3315.66 68.69 4.00 342.85 1964.21
   11:24:05.615.18-Apr-2020 3074.89 3315.66 68.69 4.00 343.05 1964.21
   11:24:05.815.18-Apr-2020 3074.89 3315.66 68.69 4.00 343.25 1964.21
   11:24:06.015.18-Apr-2020 3074.89 3315.66 68.69 4.00 343.45 1964.21
   11:24:06.215.18-Apr-2020 3074.89 3315.66 68.69 4.00 343.65 1964.21
   11:24:06.415.18-Apr-2020 3074.89 3315.68 68.69 4.00 343.85 1964.21
   11:24:06.615.18-Apr-2020 3074.89 3315.66 68.69 4.00 344.05 1964.21
   11:24:06.815.18-Apr-2020 3074.89 3315.66 68.69 4.00 344.25 1964.21
   11:24:07.015.18-Apr-2020 3074.89 3315.69 68.68 4.00 344.45 1964.21
   11:24:07.215.18-Apr-2020 3074.89 3315.67 68.68 4.00 344.65 1964.21
   11:24:07.415.18-Apr-2020 3074.89 3315.67 68.68 4.00 344.85 1964.21
