~Version Information
 VERS.                  2.0:   CWLS log ASCII Standard -VERSION 2.0
 WRAP.                   NO:   One line per depth step
~Well Information Block
#MNEM.UNIT     VALUE/NAME     DESCRIPTION
#---------     -----------    ---------------------------
 STRT.S             08:47:02 18-Apr-20: START TIME 08:47:02 18-Apr-20
 STOP.S             08:53:58 18-Apr-20: STOP TIME  08:53:58 18-Apr-20
 STEP.S                   0.00: STEP TIME
 NULL.                 -999.25: NULL VALUE
 DFWT.                        :  DIST FWL TEXT
 DFST.                        :  DIST FSL TEXT
 DMF .                        :  DRILL MEAS FROM
 STIM.      16.29.52 23-Mar-20:  START TIME
 DATE.      16.29.52 23-Mar-20:  END TIME
 SPUD.               23-Mar-20:  SPUD DATE
 NREF.                    Grid:  NORTH REFERENCE
 HPTY.       Minimum Curvature:  HOLE POS TYPE
 DMOD.             Drill Model:  DRILL MOD DESC
 SVYD.                  Survey:  SURVEY DESC
 ILTD.               Lithology:  INTERP LTH DESC
 FTOP.          Formation Tops:  FORM TOPS DESC
 SON .        AZ-XX-0906252240:  JOB NUMBER
 RIG .             West Chirag:  RIG NAME
 PDAT.          Mean Sea Level:  PERMANENT DATUM
 FLD .                     ACG:  FIELD NAME
 CTRY.              Azerbaijan:  COUNTRY NAME
 WELL.           J23 (Slot 07):  WELL NAME
 SRVC.          Turan Drilling:  CONTRACTOR
 COMP.     BP Exploration (Casoian Sea) Ltd:  COMPANY
 WTYP.                Deviated:  WELL TYPE
 MDS .        Operator Entered:  MAG DATA SOURCE
 UWI .                     N/A:  UNIQUE WELL IDENTIFIER
 API .                     N/A:  API NUMBER
 BASE.              Azerbaijan:  LOGGING EQUIPMENT BASE LOCATION
 REGN.                   EESSA:  REGION
 PROV.                    Baku:  PROVINCE
 STAT.                    Baku:  STATE NAME
 MWDS.                     N/A:  MWD SHOP
 JOBN.        AZ-XX-0906252240:  JOB TICKET NUMB
 DOE .                     N/A:  DOE NUMBER
 DCON.         Sperry Drilling:  DIRECTNL CONTR
 UNIT.                     N/A:  LOGGING EQUIPMENT ID
 CNTY.                        :  COUNTY
 LOC .                        :  LOCATION
 LMF .             Drill Floor:  LOG MEASURED FROM
 TVDS.m                  43.00:  TVDSS CORRECTN
 LATI.deg                40.13:  LATITUDE
 LONG.deg                51.22:  LONGITUDE
 WHNS.m                   9.43:  WELL HEAD N/S
 WHEW.m                  -8.91:  WELL HEAD E/W
 UTMX.m              519005.06:  UTM X
 UTMY.m             4443793.85:  UTM Y
 DFWL.m                   0.00:  DISTANCE FWL
 DFSL.m                   0.00:  DISTANCE FSL
 SDEP.m                   0.00:  START DEPTH
 TDD .m                   0.00:  TOTAL DEPTH (DRILLER)
 VSDR.deg               179.88:  VERT SEC DIRECT
 GVFD.g                   1.00:  GRAVITY FIELD
 MFLD.nT              50281.00:  MAGNETIC FIELD
 MDIP.deg                59.58:  MAGNETIC DIP
 MDEC.deg                 6.48:  MAGNETIC DECL
 GRDC.deg                 0.14:  GRID CORRECTION
 AZTC.deg                 6.34:  AZM TOTAL CORR
 EPD .m                   0.00:  ELEVATION
 EGL .m                   0.00:  GROUND ELEVATION
 WDMS.m                 169.80:  WD ELEV
 APD .m                  43.00:  DEPTH ABOVE PD
 DEP .m                 354.17:  DEPTH
 AGAP.m                  43.00:  AIR GAP
 VSEW.m                  -8.91:  VERT SEC E/W
 VSNS.m                   9.43:  VERT SEC N/S
 EKB .m                   0.00:  KB ELEVATION
 EDF .m                  43.00:  DF ELEVATION
 TDL .m                1326.00:  TOTAL DEPTH (LOGGER)
 VSC .                       0:  VS TO CLOSURE
 MAGU.                 1850704:  MAGUTM CHECKSUM
~Parameter Information Block
#MNEM.UNIT       Value        Description
#---------     -----------    ---------------------------
 AV  .mps                 1.17:  Ann Velocity 
 AZIF.deg               184.04:  Azm, Final 
 BHAT.        Rotary Steerable:  BHA Type 
 BREV.rev            620000.00:  Rev Bit Total 
 BROT.°/30m               0.20:  Build Rotating 
 BS  .in                 14.75:  Bit Size 
 BSZ .in                 14.75:  Bit Size 
 BTPL.psig              618.00:  Bit Press Loss 
 CABU.                      No:  Customer Abuse 
 TCS .hr                 87.68:  Time Ciculation Ended 
 CV  .mps                 3.10:  Crit Velocity 
 DD1 .          Rashad Habibov:  Direct Drillr 1 
 DD2 .         Rasim Ibrahimov:  Direct Drillr 2 
 DDSV.               Geo-Pilot:  DD Service 
 DEFF.%                  98.00:  % Det Eff 
 DLRX.°/30m               1.48:  Dogleg Rot Max 
 DLSO.°/30m               0.50:  Dogleg Oriented 
 DLSX.°/30m               1.48:  Dogleg Str Max 
 DRET.      06.18.56 19-Apr-20:  Drill End Time 
 DRST.      15.00.56 15-Apr-20:  Drill Start Tim 
 DTIM.hr                 51.73:  Time Drilling 
 EDEP.m                3410.01:  End Depth 
 ENG1.        Marcelo Sandoval:  Engineer 1 
 ENG2.        Davud Huseynzade:  Engineer 2 
 ENG3.          Ruslan Safarov:  Engineer 3 
 ETIM.      04.00.56 20-Apr-20:  End Time 
 FLOI.gpm              1000.00:  Flow In 
 FLON.gpm               600.00:  Flow In Min 
 FLOS.cptm                0.00:  Fluid Loss 
 FLOX.gpm              1200.00:  Flow In Max 
 HFLO.                      No:  High Flow 
 HPRE.                     Yes:  High Pressure 
 HTEM.                      No:  High Temp 
 HYDO.m                   1.80:  Hydro Offset 
 IFIN.deg                70.04:  Inc, Final 
 IMAX.deg                70.56:  Inc Max 
 IMIN.deg                69.85:  Inc Min 
 IMND.m                3103.24:  Inc Min Depth 
 IMXD.m                2876.63:  Inc Max Depth 
 JARR.                      No:  Jarring 
 LETM.      06.18.56 19-Apr-20:  Log End Time 
 LOST.hr                     0:  Lost Rig Time 
 LSTM.      15.00.56 15-Apr-20:  Log Start Time 
 MDCL.ppm             42000.00:  Mud Chlorides 
 MDES.     Inversion Oil/Synthetic:  Mud Desc 
 DFD .sg                  1.58:  Mud Density 
 MDMN.sg                  1.58:  Dens Mud Min 
 MDMX.sg                  1.58:  Dens Mud Max 
 MOIL.                      71:  Run Mud Oil % 
 MOWR.                   71:29:  Run Mud OWR 
 MSND.                       0:  Run Mud Sand % 
 MSOL.                    23.3:  Run Mud Solids% 
 DFV .spqt               84.00:  Mud Viscosity 
 MWOD.in                  9.50:  MWD Tool OD 
 MWSI.                      No:  Serv Intrp, MWD 
 OTIM.hr                139.62:  Time Operating 
 PMAX.psia             5364.69:  Press Op, Max 
 PV  .cP                 80.00:  Mud PV 
 RUN .                     700:  Run Number 
 ROPA.m/hr               25.00:  ROP Avg 
 ROPN.m/hr               11.00:  ROP Min 
 ROPX.m/hr               36.00:  ROP Max 
 RPMA.rpm               130.00:  RPM Surface Avg 
 RPMN.rpm               120.00:  RPM Surface Min 
 RPMX.rpm               140.00:  RPM Surface Max 
 RRUN.                    0700:  Rig Run Number 
 SAZI.deg               183.25:  Azm, Start 
 SDEP.m                2084.00:  Start Depth 
 SIDD.                      No:  Serv Intrp, DD 
 SINC.deg                70.38:  Inc, Start 
 SPPA.psig             4800.00:  SPP Avg 
 SPPN.psig             4400.00:  SPP Min 
 SPPX.psig             5350.00:  SPP Max 
 STIM.      16.30.56 14-Apr-20:  Start Time 
 SVCS.                 DD, MWD:  Services 
 SVER.                    9.20:  Sperry Version 
 TDAT.m                1326.00:  Tot Depth Attmp 
 TDDF.                      No:  Trip for DD 
 TDLG.m                1326.00:  Tot Depth Loggd 
 TFF .                      No:  Trip for Fail 
 TQAA.f-kp               19.00:  Torque Abs Avg 
 TQAN.f-kp                8.00:  Torque Abs Min 
 TQAX.f-kp               27.00:  Torque Abs Max 
 TRRT.°/30m               0.50:  Turn Rotating 
 MRT .                    HCIM:  Maximum Recorded Temperature 
 TTMX.degC               82.35:  Max Tool Temp 
 VS01.       905245875X1Z1W1C8:  Virtual Str1 SN 
 VS02.       90608022F11V7D1A9:  Virtual Str2 SN 
 VS03.            90605473R5C9:  Virtual Str3 SN 
 WBMN.klb                11.00:  WOB Min 
 WOBA.klb                21.00:  WOB Avg 
 WOBX.klb                30.00:  WOB Max 
 YP  .lhf2               45.00:  Yield Point 
~Curve Information Block
#MNEM.UNIT                 API CODE     Curve Description
#---------               -----------    ---------------------------
 TIME.HHMMSS            00 000 000 000:  GT Time & Date
 GTDEPTH.m              00 000 000 000:  GT Depth
 GTPQH.psia             00 000 000 000:  GT HR Quartz Pressure
 GTTQ.degC              00 000 000 000:  GT Quartz Temperature
 GTTN.NONE              00 000 000 000:  GT Test Number
 GTET.sec               00 000 000 000:  GT Elapsed Test Time
 GTTVD.m                00 000 000 000:  GT True Vertical Depth
#Other Information
#
#WARRANTY: Halliburton will use its best efforts to furnish customers with 
#accurate information and interpretations that are part of, and incident to, the services 
#provided.  However, Halliburton cannot and does not warrant the accuracy 
#or correctness of such information and interpretations.  Under no circumstances should any 
#such information or interpretation be relied upon as the sole basis for any drilling, 
#completion, production, or financial decision or any procedure involving any risk to the 
#safety of any drilling venture, drilling rig or its crew or any other third party.  The 
#Customer has full responsibility for all drilling, completion and production operation.  
#Halliburton makes no representations or warranties, either expressed or 
#implied, including, but not limited to, the implied warranties of merchantability or fitness 
#for a particular purpose, with respect to the services rendered.  In no event will 
#Halliburton be liable for failure to obtain any particular results or for 
#any damages, including, but not limited to, indirect, special or consequential damages, 
#resulting from the use of any information or interpretation provided by Halliburton.
#
~A           TIME           GTDEPTH  GTPQH  GTTQ  GTTN  GTET   GTTVD  
# ...
   08:48:57.363.18-Apr-2020 3032.52 3389.33 69.70 3.00 115.02 1949.78
   08:48:57.563.18-Apr-2020 3032.52 3389.33 69.70 3.00 115.22 1949.78
   08:48:57.763.18-Apr-2020 3032.52 3389.31 69.70 3.00 115.42 1949.78
   08:48:57.963.18-Apr-2020 3032.52 3389.32 69.69 3.00 115.62 1949.78
   08:48:58.163.18-Apr-2020 3032.52 3389.31 69.69 3.00 115.82 1949.78
   08:48:58.363.18-Apr-2020 3032.52 3389.28 69.69 3.00 116.02 1949.78
   08:48:58.563.18-Apr-2020 3032.52 3389.28 69.69 3.00 116.22 1949.78
   08:48:58.763.18-Apr-2020 3032.52 3389.34 69.69 3.00 116.42 1949.78
   08:48:58.963.18-Apr-2020 3032.52 3389.32 69.69 3.00 116.62 1949.78
   08:48:59.163.18-Apr-2020 3032.52 3389.33 69.69 3.00 116.82 1949.78
   08:48:59.363.18-Apr-2020 3032.52 3389.32 69.69 3.00 117.02 1949.78
   08:48:59.563.18-Apr-2020 3032.52 3389.32 69.69 3.00 117.22 1949.78
   08:48:59.763.18-Apr-2020 3032.52 3389.32 69.69 3.00 117.42 1949.78
   08:48:59.963.18-Apr-2020 3032.52 3389.32 69.68 3.00 117.62 1949.78
   08:49:00.163.18-Apr-2020 3032.52 3389.31 69.68 3.00 117.82 1949.78
   08:49:00.363.18-Apr-2020 3032.52 3389.31 69.68 3.00 118.02 1949.78
   08:49:00.563.18-Apr-2020 3032.52 3389.31 69.68 3.00 118.22 1949.78
   08:49:00.763.18-Apr-2020 3032.52 3389.30 69.68 3.00 118.42 1949.78
   08:49:00.963.18-Apr-2020 3032.52 3389.27 69.68 3.00 118.62 1949.78
   08:49:01.163.18-Apr-2020 3032.52 3389.32 69.68 3.00 118.82 1949.78
   08:49:01.363.18-Apr-2020 3032.52 3389.32 69.68 3.00 119.02 1949.78
   08:49:01.563.18-Apr-2020 3032.52 3389.32 69.68 3.00 119.22 1949.78
   08:49:01.763.18-Apr-2020 3032.52 3389.31 69.68 3.00 119.42 1949.78
   08:49:01.963.18-Apr-2020 3032.52 3389.31 69.67 3.00 119.62 1949.78
   08:49:02.163.18-Apr-2020 3032.52 3389.31 69.67 3.00 119.82 1949.78
   08:49:02.363.18-Apr-2020 3032.52 3389.31 69.67 3.00 120.02 1949.78
   08:49:02.563.18-Apr-2020 3032.52 3389.31 69.67 3.00 120.22 1949.78
   08:49:02.763.18-Apr-2020 3032.52 3389.30 69.67 3.00 120.42 1949.78
   08:49:02.963.18-Apr-2020 3032.52 3389.31 69.67 3.00 120.62 1949.78
   08:49:03.163.18-Apr-2020 3032.52 3389.29 69.67 3.00 120.82 1949.78
   08:49:03.363.18-Apr-2020 3032.52 3389.28 69.67 3.00 121.02 1949.78
   08:49:03.563.18-Apr-2020 3032.52 3389.28 69.67 3.00 121.22 1949.78
   08:49:03.763.18-Apr-2020 3032.52 3389.32 69.67 3.00 121.42 1949.78
   08:49:03.963.18-Apr-2020 3032.52 3389.29 69.66 3.00 121.62 1949.78
   08:49:04.164.18-Apr-2020 3032.52 3389.30 69.66 3.00 121.82 1949.78
   08:49:04.364.18-Apr-2020 3032.52 3389.30 69.66 3.00 122.02 1949.78
   08:49:04.564.18-Apr-2020 3032.52 3389.30 69.66 3.00 122.22 1949.78
   08:49:04.764.18-Apr-2020 3032.52 3389.32 69.66 3.00 122.42 1949.78
   08:49:04.964.18-Apr-2020 3032.52 3389.30 69.66 3.00 122.62 1949.78
   08:49:05.164.18-Apr-2020 3032.52 3389.31 69.66 3.00 122.82 1949.78
   08:49:05.364.18-Apr-2020 3032.52 3389.31 69.66 3.00 123.02 1949.78
   08:49:05.564.18-Apr-2020 3032.52 3389.31 69.66 3.00 123.22 1949.78
   08:49:05.764.18-Apr-2020 3032.52 3389.29 69.65 3.00 123.42 1949.78
   08:49:05.964.18-Apr-2020 3032.52 3389.30 69.65 3.00 123.62 1949.78
   08:49:06.164.18-Apr-2020 3032.52 3389.31 69.65 3.00 123.82 1949.78
   08:49:06.364.18-Apr-2020 3032.52 3389.30 69.65 3.00 124.02 1949.78
   08:49:06.564.18-Apr-2020 3032.52 3389.30 69.65 3.00 124.22 1949.78
   08:49:06.764.18-Apr-2020 3032.52 3389.30 69.65 3.00 124.42 1949.78
   08:49:06.964.18-Apr-2020 3032.52 3389.30 69.65 3.00 124.62 1949.78
   08:49:07.164.18-Apr-2020 3032.52 3389.29 69.65 3.00 124.82 1949.78
   08:49:07.364.18-Apr-2020 3032.52 3389.28 69.65 3.00 125.02 1949.78
   08:49:07.564.18-Apr-2020 3032.52 3389.29 69.65 3.00 125.22 1949.78
   08:49:07.764.18-Apr-2020 3032.52 3389.32 69.64 3.00 125.42 1949.78
   08:49:07.964.18-Apr-2020 3032.52 3389.31 69.64 3.00 125.62 1949.78
   08:49:08.164.18-Apr-2020 3032.52 3389.30 69.64 3.00 125.82 1949.78
   08:49:08.364.18-Apr-2020 3032.52 3389.30 69.64 3.00 126.02 1949.78
   08:49:08.564.18-Apr-2020 3032.52 3389.30 69.64 3.00 126.22 1949.78
   08:49:08.764.18-Apr-2020 3032.52 3389.30 69.64 3.00 126.42 1949.78
   08:49:08.964.18-Apr-2020 3032.52 3389.29 69.64 3.00 126.62 1949.78
   08:49:09.164.18-Apr-2020 3032.52 3389.28 69.64 3.00 126.82 1949.78
   08:49:09.364.18-Apr-2020 3032.52 3389.29 69.64 3.00 127.02 1949.78
   08:49:09.564.18-Apr-2020 3032.52 3389.29 69.64 3.00 127.22 1949.78
   08:49:09.764.18-Apr-2020 3032.52 3389.28 69.63 3.00 127.42 1949.78
   08:49:09.964.18-Apr-2020 3032.52 3389.28 69.63 3.00 127.62 1949.78
   08:49:10.164.18-Apr-2020 3032.52 3389.30 69.63 3.00 127.82 1949.78
   08:49:10.364.18-Apr-2020 3032.52 3389.27 69.63 3.00 128.02 1949.78
   08:49:10.564.18-Apr-2020 3032.52 3389.27 69.63 3.00 128.22 1949.78
   08:49:10.764.18-Apr-2020 3032.52 3389.30 69.63 3.00 128.42 1949.78
   08:49:10.964.18-Apr-2020 3032.52 3389.32 69.63 3.00 128.62 1949.78
   08:49:11.164.18-Apr-2020 3032.52 3389.28 69.63 3.00 128.82 1949.78
   08:49:11.364.18-Apr-2020 3032.52 3389.26 69.63 3.00 129.02 1949.78
   08:49:11.565.18-Apr-2020 3032.52 3389.29 69.63 3.00 129.22 1949.78
   08:49:11.765.18-Apr-2020 3032.52 3389.29 69.62 3.00 129.42 1949.78
   08:49:11.965.18-Apr-2020 3032.52 3389.29 69.62 3.00 129.62 1949.78
   08:49:12.165.18-Apr-2020 3032.52 3389.27 69.62 3.00 129.82 1949.78
   08:49:12.365.18-Apr-2020 3032.52 3389.26 69.62 3.00 130.02 1949.78
   08:49:12.565.18-Apr-2020 3032.52 3389.26 69.62 3.00 130.22 1949.78
   08:49:12.765.18-Apr-2020 3032.52 3389.29 69.62 3.00 130.42 1949.78
   08:49:12.965.18-Apr-2020 3032.52 3389.28 69.62 3.00 130.62 1949.78
   08:49:13.165.18-Apr-2020 3032.52 3389.29 69.62 3.00 130.82 1949.78
   08:49:13.365.18-Apr-2020 3032.52 3389.28 69.62 3.00 131.02 1949.78
   08:49:13.565.18-Apr-2020 3032.52 3389.28 69.62 3.00 131.22 1949.78
   08:49:13.765.18-Apr-2020 3032.52 3389.29 69.61 3.00 131.42 1949.78
   08:49:13.965.18-Apr-2020 3032.52 3389.28 69.61 3.00 131.62 1949.78
   08:49:14.165.18-Apr-2020 3032.52 3389.31 69.61 3.00 131.82 1949.78
   08:49:14.365.18-Apr-2020 3032.52 3389.30 69.61 3.00 132.02 1949.78
   08:49:14.565.18-Apr-2020 3032.52 3389.30 69.61 3.00 132.22 1949.78
   08:49:14.765.18-Apr-2020 3032.52 3389.28 69.61 3.00 132.42 1949.78
   08:49:14.965.18-Apr-2020 3032.52 3389.28 69.61 3.00 132.62 1949.78
   08:49:15.165.18-Apr-2020 3032.52 3389.28 69.61 3.00 132.82 1949.78
   08:49:15.365.18-Apr-2020 3032.52 3389.27 69.61 3.00 133.02 1949.78
   08:49:15.565.18-Apr-2020 3032.52 3389.27 69.61 3.00 133.22 1949.78
   08:49:15.765.18-Apr-2020 3032.52 3389.27 69.60 3.00 133.42 1949.78
   08:49:15.965.18-Apr-2020 3032.52 3389.28 69.60 3.00 133.62 1949.78
   08:49:16.165.18-Apr-2020 3032.52 3389.24 69.60 3.00 133.82 1949.78
   08:49:16.365.18-Apr-2020 3032.52 3389.29 69.60 3.00 134.02 1949.78
   08:49:16.565.18-Apr-2020 3032.52 3389.29 69.60 3.00 134.22 1949.78
   08:49:16.765.18-Apr-2020 3032.52 3389.29 69.60 3.00 134.42 1949.78
   08:49:16.965.18-Apr-2020 3032.52 3389.27 69.60 3.00 134.62 1949.78
   08:49:17.165.18-Apr-2020 3032.52 3389.28 69.60 3.00 134.82 1949.78
   08:49:17.365.18-Apr-2020 3032.52 3389.27 69.60 3.00 135.02 1949.78
   08:49:17.565.18-Apr-2020 3032.52 3389.27 69.60 3.00 135.22 1949.78
   08:49:17.765.18-Apr-2020 3032.52 3389.26 69.59 3.00 135.42 1949.78
   08:49:17.965.18-Apr-2020 3032.52 3389.28 69.59 3.00 135.62 1949.78
   08:49:18.165.18-Apr-2020 3032.52 3389.27 69.59 3.00 135.82 1949.78
   08:49:18.365.18-Apr-2020 3032.52 3389.26 69.59 3.00 136.02 1949.78
   08:49:18.565.18-Apr-2020 3032.52 3389.26 69.59 3.00 136.22 1949.78
   08:49:18.765.18-Apr-2020 3032.52 3389.24 69.59 3.00 136.42 1949.78
   08:49:18.966.18-Apr-2020 3032.52 3389.27 69.59 3.00 136.62 1949.78
   08:49:19.166.18-Apr-2020 3032.52 3389.28 69.59 3.00 136.82 1949.78
   08:49:19.366.18-Apr-2020 3032.52 3389.27 69.59 3.00 137.02 1949.78
   08:49:19.566.18-Apr-2020 3032.52 3389.27 69.58 3.00 137.22 1949.78
   08:49:19.766.18-Apr-2020 3032.52 3389.28 69.58 3.00 137.42 1949.78
   08:49:19.966.18-Apr-2020 3032.52 3389.28 69.58 3.00 137.62 1949.78
   08:49:20.166.18-Apr-2020 3032.52 3389.26 69.58 3.00 137.82 1949.78
