~Version Information
 VERS.                  2.0:   CWLS log ASCII Standard -VERSION 2.0
 WRAP.                   NO:   One line per depth step
~Well Information Block
#MNEM.UNIT     VALUE/NAME     DESCRIPTION
#---------     -----------    ---------------------------
 STRT.S             13:35:33 18-Apr-20: START TIME 13:35:33 18-Apr-20
 STOP.S             13:42:31 18-Apr-20: STOP TIME  13:42:31 18-Apr-20
 STEP.S                   0.00: STEP TIME
 NULL.                 -999.25: NULL VALUE
 DFWT.                        :  DIST FWL TEXT
 DFST.                        :  DIST FSL TEXT
 DMF .                        :  DRILL MEAS FROM
 STIM.      16.29.52 23-Mar-20:  START TIME
 DATE.      16.29.52 23-Mar-20:  END TIME
 SPUD.               23-Mar-20:  SPUD DATE
 NREF.                    Grid:  NORTH REFERENCE
 HPTY.       Minimum Curvature:  HOLE POS TYPE
 DMOD.             Drill Model:  DRILL MOD DESC
 SVYD.                  Survey:  SURVEY DESC
 ILTD.               Lithology:  INTERP LTH DESC
 FTOP.          Formation Tops:  FORM TOPS DESC
 SON .        AZ-XX-0906252240:  JOB NUMBER
 RIG .             West Chirag:  RIG NAME
 PDAT.          Mean Sea Level:  PERMANENT DATUM
 FLD .                     ACG:  FIELD NAME
 CTRY.              Azerbaijan:  COUNTRY NAME
 WELL.           J23 (Slot 07):  WELL NAME
 SRVC.          Turan Drilling:  CONTRACTOR
 COMP.     BP Exploration (Casoian Sea) Ltd:  COMPANY
 WTYP.                Deviated:  WELL TYPE
 MDS .        Operator Entered:  MAG DATA SOURCE
 UWI .                     N/A:  UNIQUE WELL IDENTIFIER
 API .                     N/A:  API NUMBER
 BASE.              Azerbaijan:  LOGGING EQUIPMENT BASE LOCATION
 REGN.                   EESSA:  REGION
 PROV.                    Baku:  PROVINCE
 STAT.                    Baku:  STATE NAME
 MWDS.                     N/A:  MWD SHOP
 JOBN.        AZ-XX-0906252240:  JOB TICKET NUMB
 DOE .                     N/A:  DOE NUMBER
 DCON.         Sperry Drilling:  DIRECTNL CONTR
 UNIT.                     N/A:  LOGGING EQUIPMENT ID
 CNTY.                        :  COUNTY
 LOC .                        :  LOCATION
 LMF .             Drill Floor:  LOG MEASURED FROM
 TVDS.m                  43.00:  TVDSS CORRECTN
 LATI.deg                40.13:  LATITUDE
 LONG.deg                51.22:  LONGITUDE
 WHNS.m                   9.43:  WELL HEAD N/S
 WHEW.m                  -8.91:  WELL HEAD E/W
 UTMX.m              519005.06:  UTM X
 UTMY.m             4443793.85:  UTM Y
 DFWL.m                   0.00:  DISTANCE FWL
 DFSL.m                   0.00:  DISTANCE FSL
 SDEP.m                   0.00:  START DEPTH
 TDD .m                   0.00:  TOTAL DEPTH (DRILLER)
 VSDR.deg               179.88:  VERT SEC DIRECT
 GVFD.g                   1.00:  GRAVITY FIELD
 MFLD.nT              50281.00:  MAGNETIC FIELD
 MDIP.deg                59.58:  MAGNETIC DIP
 MDEC.deg                 6.48:  MAGNETIC DECL
 GRDC.deg                 0.14:  GRID CORRECTION
 AZTC.deg                 6.34:  AZM TOTAL CORR
 EPD .m                   0.00:  ELEVATION
 EGL .m                   0.00:  GROUND ELEVATION
 WDMS.m                 169.80:  WD ELEV
 APD .m                  43.00:  DEPTH ABOVE PD
 DEP .m                 354.17:  DEPTH
 AGAP.m                  43.00:  AIR GAP
 VSEW.m                  -8.91:  VERT SEC E/W
 VSNS.m                   9.43:  VERT SEC N/S
 EKB .m                   0.00:  KB ELEVATION
 EDF .m                  43.00:  DF ELEVATION
 TDL .m                1326.00:  TOTAL DEPTH (LOGGER)
 VSC .                       0:  VS TO CLOSURE
 MAGU.                 1850704:  MAGUTM CHECKSUM
~Parameter Information Block
#MNEM.UNIT       Value        Description
#---------     -----------    ---------------------------
 AV  .mps                 1.17:  Ann Velocity 
 AZIF.deg               184.04:  Azm, Final 
 BHAT.        Rotary Steerable:  BHA Type 
 BREV.rev            620000.00:  Rev Bit Total 
 BROT.°/30m               0.20:  Build Rotating 
 BS  .in                 14.75:  Bit Size 
 BSZ .in                 14.75:  Bit Size 
 BTPL.psig              618.00:  Bit Press Loss 
 CABU.                      No:  Customer Abuse 
 COMM.                     ôÎT:  Run Comments 1 
 TCS .hr                 87.68:  Time Ciculation Ended 
 CV  .mps                 3.10:  Crit Velocity 
 DD1 .          Rashad Habibov:  Direct Drillr 1 
 DD2 .         Rasim Ibrahimov:  Direct Drillr 2 
 DDSV.               Geo-Pilot:  DD Service 
 DEFF.%                  98.00:  % Det Eff 
 DLRX.°/30m               1.48:  Dogleg Rot Max 
 DLSO.°/30m               0.50:  Dogleg Oriented 
 DLSX.°/30m               1.48:  Dogleg Str Max 
 DRET.      06.18.56 19-Apr-20:  Drill End Time 
 DRST.      15.00.56 15-Apr-20:  Drill Start Tim 
 DTIM.hr                 51.73:  Time Drilling 
 EDEP.m                3410.01:  End Depth 
 ENG1.        Marcelo Sandoval:  Engineer 1 
 ENG2.        Davud Huseynzade:  Engineer 2 
 ENG3.          Ruslan Safarov:  Engineer 3 
 ETIM.      04.00.56 20-Apr-20:  End Time 
 FLOI.gpm              1000.00:  Flow In 
 FLON.gpm               600.00:  Flow In Min 
 FLOS.cptm                0.00:  Fluid Loss 
 FLOX.gpm              1200.00:  Flow In Max 
 HFLO.                      No:  High Flow 
 HPRE.                     Yes:  High Pressure 
 HTEM.                      No:  High Temp 
 HYDO.m                   1.80:  Hydro Offset 
 IFIN.deg                70.04:  Inc, Final 
 IMAX.deg                70.56:  Inc Max 
 IMIN.deg                69.85:  Inc Min 
 IMND.m                3103.24:  Inc Min Depth 
 IMXD.m                2876.63:  Inc Max Depth 
 JARR.                      No:  Jarring 
 LETM.      06.18.56 19-Apr-20:  Log End Time 
 LOST.hr                     0:  Lost Rig Time 
 LSTM.      15.00.56 15-Apr-20:  Log Start Time 
 MDCL.ppm             42000.00:  Mud Chlorides 
 MDES.     Inversion Oil/Synthetic:  Mud Desc 
 DFD .sg                  1.58:  Mud Density 
 MDMN.sg                  1.58:  Dens Mud Min 
 MDMX.sg                  1.58:  Dens Mud Max 
 MOIL.                      71:  Run Mud Oil % 
 MOWR.                   71:29:  Run Mud OWR 
 MSND.                       0:  Run Mud Sand % 
 MSOL.                    23.3:  Run Mud Solids% 
 DFV .spqt               84.00:  Mud Viscosity 
 MWOD.in                  9.50:  MWD Tool OD 
 MWSI.                      No:  Serv Intrp, MWD 
 OTIM.hr                139.62:  Time Operating 
 PMAX.psia             5364.69:  Press Op, Max 
 PV  .cP                 80.00:  Mud PV 
 RUN .                     700:  Run Number 
 ROPA.m/hr               25.00:  ROP Avg 
 ROPN.m/hr               11.00:  ROP Min 
 ROPX.m/hr               36.00:  ROP Max 
 RPMA.rpm               130.00:  RPM Surface Avg 
 RPMN.rpm               120.00:  RPM Surface Min 
 RPMX.rpm               140.00:  RPM Surface Max 
 RRUN.                    0700:  Rig Run Number 
 SAZI.deg               183.25:  Azm, Start 
 SDEP.m                2084.00:  Start Depth 
 SIDD.                      No:  Serv Intrp, DD 
 SINC.deg                70.38:  Inc, Start 
 SPPA.psig             4800.00:  SPP Avg 
 SPPN.psig             4400.00:  SPP Min 
 SPPX.psig             5350.00:  SPP Max 
 STIM.      16.30.56 14-Apr-20:  Start Time 
 SVCS.                 DD, MWD:  Services 
 SVER.                    9.20:  Sperry Version 
 TDAT.m                1326.00:  Tot Depth Attmp 
 TDDF.                      No:  Trip for DD 
 TDLG.m                1326.00:  Tot Depth Loggd 
 TFF .                      No:  Trip for Fail 
 TQAA.f-kp               19.00:  Torque Abs Avg 
 TQAN.f-kp                8.00:  Torque Abs Min 
 TQAX.f-kp               27.00:  Torque Abs Max 
 TRRT.°/30m               0.50:  Turn Rotating 
 MRT .                    HCIM:  Maximum Recorded Temperature 
 TTMX.degC               82.35:  Max Tool Temp 
 VS01.       905245875X1Z1W1C8:  Virtual Str1 SN 
 VS02.       90608022F11V7D1A9:  Virtual Str2 SN 
 VS03.            90605473R5C9:  Virtual Str3 SN 
 WBMN.klb                11.00:  WOB Min 
 WOBA.klb                21.00:  WOB Avg 
 WOBX.klb                30.00:  WOB Max 
 YP  .lhf2               45.00:  Yield Point 
~Curve Information Block
#MNEM.UNIT                 API CODE     Curve Description
#---------               -----------    ---------------------------
 TIME.HHMMSS            00 000 000 000:  GT Time & Date
 GTDEPTH.m              00 000 000 000:  GT Depth
 GTPQH.psia             00 000 000 000:  GT HR Quartz Pressure
 GTTQ.degC              00 000 000 000:  GT Quartz Temperature
 GTTN.NONE              00 000 000 000:  GT Test Number
 GTET.sec               00 000 000 000:  GT Elapsed Test Time
 GTTVD.m                00 000 000 000:  GT True Vertical Depth
#Other Information
#
#WARRANTY: Halliburton will use its best efforts to furnish customers with 
#accurate information and interpretations that are part of, and incident to, the services 
#provided.  However, Halliburton cannot and does not warrant the accuracy 
#or correctness of such information and interpretations.  Under no circumstances should any 
#such information or interpretation be relied upon as the sole basis for any drilling, 
#completion, production, or financial decision or any procedure involving any risk to the 
#safety of any drilling venture, drilling rig or its crew or any other third party.  The 
#Customer has full responsibility for all drilling, completion and production operation.  
#Halliburton makes no representations or warranties, either expressed or 
#implied, including, but not limited to, the implied warranties of merchantability or fitness 
#for a particular purpose, with respect to the services rendered.  In no event will 
#Halliburton be liable for failure to obtain any particular results or for 
#any damages, including, but not limited to, indirect, special or consequential damages, 
#resulting from the use of any information or interpretation provided by Halliburton.
#
~A           TIME           GTDEPTH  GTPQH  GTTQ  GTTN  GTET   GTTVD  
# ...
   13:41:41.423.18-Apr-2020 3111.02 3318.25 69.37 5.00 368.17 1976.62
   13:41:41.623.18-Apr-2020 3111.02 3318.25 69.37 5.00 368.37 1976.62
   13:41:41.823.18-Apr-2020 3111.02 3318.27 69.37 5.00 368.57 1976.62
   13:41:42.023.18-Apr-2020 3111.02 3318.26 69.37 5.00 368.77 1976.62
   13:41:42.223.18-Apr-2020 3111.02 3318.26 69.37 5.00 368.97 1976.62
   13:41:42.423.18-Apr-2020 3111.02 3318.26 69.36 5.00 369.17 1976.62
   13:41:42.623.18-Apr-2020 3111.02 3318.26 69.36 5.00 369.37 1976.62
   13:41:42.823.18-Apr-2020 3111.02 3318.26 69.36 5.00 369.57 1976.62
   13:41:43.023.18-Apr-2020 3111.02 3318.26 69.36 5.00 369.77 1976.62
   13:41:43.224.18-Apr-2020 3111.02 3318.26 69.36 5.00 369.97 1976.62
   13:41:43.424.18-Apr-2020 3111.02 3318.25 69.36 5.00 370.17 1976.62
   13:41:43.624.18-Apr-2020 3111.02 3318.25 69.36 5.00 370.37 1976.62
   13:41:43.824.18-Apr-2020 3111.02 3318.26 69.36 5.00 370.57 1976.62
   13:41:44.024.18-Apr-2020 3111.02 3318.25 69.36 5.00 370.77 1976.62
   13:41:44.224.18-Apr-2020 3111.02 3318.25 69.36 5.00 370.97 1976.62
   13:41:44.424.18-Apr-2020 3111.02 3318.25 69.35 5.00 371.17 1976.62
   13:41:44.624.18-Apr-2020 3111.02 3318.25 69.35 5.00 371.37 1976.62
   13:41:44.824.18-Apr-2020 3111.02 3318.26 69.35 5.00 371.57 1976.62
   13:41:45.024.18-Apr-2020 3111.02 3318.26 69.35 5.00 371.77 1976.62
   13:41:45.224.18-Apr-2020 3111.02 3318.26 69.35 5.00 371.97 1976.62
   13:41:45.425.18-Apr-2020 3111.02 3318.25 69.35 5.00 372.17 1976.62
   13:41:45.625.18-Apr-2020 3111.02 3318.25 69.35 5.00 372.37 1976.62
   13:41:45.825.18-Apr-2020 3111.02 3318.26 69.35 5.00 372.57 1976.62
   13:41:46.025.18-Apr-2020 3111.02 3318.25 69.35 5.00 372.77 1976.62
   13:41:46.225.18-Apr-2020 3111.02 3318.26 69.34 5.00 372.97 1976.62
   13:41:46.425.18-Apr-2020 3111.02 3318.25 69.34 5.00 373.17 1976.62
   13:41:46.625.18-Apr-2020 3111.02 3318.25 69.34 5.00 373.37 1976.62
   13:41:46.825.18-Apr-2020 3111.02 3318.25 69.34 5.00 373.57 1976.62
   13:41:47.025.18-Apr-2020 3111.02 3318.25 69.34 5.00 373.77 1976.62
   13:41:47.225.18-Apr-2020 3111.02 3318.25 69.34 5.00 373.97 1976.62
   13:41:47.425.18-Apr-2020 3111.02 3318.27 69.34 5.00 374.17 1976.62
   13:41:47.626.18-Apr-2020 3111.02 3318.27 69.34 5.00 374.37 1976.62
   13:41:47.826.18-Apr-2020 3111.02 3318.25 69.34 5.00 374.57 1976.62
   13:41:48.026.18-Apr-2020 3111.02 3318.27 69.33 5.00 374.77 1976.62
   13:41:48.226.18-Apr-2020 3111.02 3318.27 69.33 5.00 374.97 1976.62
   13:41:48.426.18-Apr-2020 3111.02 3318.26 69.33 5.00 375.17 1976.62
   13:41:48.626.18-Apr-2020 3111.02 3318.26 69.33 5.00 375.37 1976.62
   13:41:48.826.18-Apr-2020 3111.02 3318.25 69.33 5.00 375.57 1976.62
   13:41:49.026.18-Apr-2020 3111.02 3318.28 69.33 5.00 375.77 1976.62
   13:41:49.226.18-Apr-2020 3111.02 3318.26 69.33 5.00 375.97 1976.62
   13:41:49.426.18-Apr-2020 3111.02 3318.27 69.33 5.00 376.17 1976.62
   13:41:49.626.18-Apr-2020 3111.02 3318.27 69.33 5.00 376.37 1976.62
   13:41:49.826.18-Apr-2020 3111.02 3318.26 69.32 5.00 376.57 1976.62
   13:41:50.027.18-Apr-2020 3111.02 3318.25 69.32 5.00 376.77 1976.62
   13:41:50.227.18-Apr-2020 3111.02 3318.28 69.32 5.00 376.97 1976.62
   13:41:50.427.18-Apr-2020 3111.02 3318.28 69.32 5.00 377.17 1976.62
   13:41:50.627.18-Apr-2020 3111.02 3318.28 69.32 5.00 377.37 1976.62
   13:41:50.827.18-Apr-2020 3111.02 3318.27 69.32 5.00 377.57 1976.62
   13:41:51.027.18-Apr-2020 3111.02 3318.28 69.32 5.00 377.77 1976.62
   13:41:51.227.18-Apr-2020 3111.02 3318.28 69.32 5.00 377.97 1976.62
   13:41:51.427.18-Apr-2020 3111.02 3318.28 69.32 5.00 378.17 1976.62
   13:41:51.627.18-Apr-2020 3111.02 3318.28 69.32 5.00 378.37 1976.62
   13:41:51.827.18-Apr-2020 3111.02 3318.27 69.31 5.00 378.57 1976.62
   13:41:52.027.18-Apr-2020 3111.02 3318.26 69.31 5.00 378.77 1976.62
   13:41:52.228.18-Apr-2020 3111.02 3318.26 69.31 5.00 378.97 1976.62
   13:41:52.428.18-Apr-2020 3111.02 3318.26 69.31 5.00 379.17 1976.62
   13:41:52.628.18-Apr-2020 3111.02 3318.26 69.31 5.00 379.37 1976.62
   13:41:52.828.18-Apr-2020 3111.02 3318.71 69.31 5.00 379.57 1976.62
   13:41:53.028.18-Apr-2020 3111.02 3321.77 69.31 5.00 379.77 1976.62
   13:41:53.228.18-Apr-2020 3111.02 3306.55 69.31 5.00 379.97 1976.62
   13:41:53.428.18-Apr-2020 3111.02 3264.08 69.31 5.00 380.17 1976.62
   13:41:53.628.18-Apr-2020 3111.02 3264.08 69.31 5.00 380.37 1976.62
   13:41:53.828.18-Apr-2020 3111.02 3303.59 69.30 5.00 380.57 1976.62
   13:41:54.028.18-Apr-2020 3111.02 3329.67 69.30 5.00 380.77 1976.62
   13:41:54.228.18-Apr-2020 3111.02 3358.37 69.30 5.00 380.97 1976.62
   13:41:54.429.18-Apr-2020 3111.02 3385.36 69.30 5.00 381.17 1976.62
   13:41:54.629.18-Apr-2020 3111.02 3385.36 69.30 5.00 381.37 1976.62
   13:41:54.829.18-Apr-2020 3111.02 3428.47 69.30 5.00 381.57 1976.62
   13:41:55.029.18-Apr-2020 3111.02 3426.86 69.30 5.00 381.77 1976.62
   13:41:55.229.18-Apr-2020 3111.02 3445.07 69.30 5.00 381.97 1976.62
   13:41:55.429.18-Apr-2020 3111.02 4025.24 69.29 5.00 382.17 1976.62
   13:41:55.629.18-Apr-2020 3111.02 4025.24 69.29 5.00 382.37 1976.62
   13:41:55.829.18-Apr-2020 3111.02 4537.63 69.29 5.00 382.57 1976.62
   13:41:56.029.18-Apr-2020 3111.02 4537.10 69.29 5.00 382.77 1976.62
   13:41:56.229.18-Apr-2020 3111.02 4537.29 69.29 5.00 382.97 1976.62
   13:41:56.429.18-Apr-2020 3111.02 4535.52 69.29 5.00 383.17 1976.62
   13:41:56.630.18-Apr-2020 3111.02 4535.52 69.29 5.00 383.37 1976.62
   13:41:56.830.18-Apr-2020 3111.02 4537.79 69.29 5.00 383.57 1976.62
   13:41:57.030.18-Apr-2020 3111.02 4537.59 69.29 5.00 383.77 1976.62
   13:41:57.230.18-Apr-2020 3111.02 4537.00 69.29 5.00 383.97 1976.62
   13:41:57.430.18-Apr-2020 3111.02 4539.88 69.29 5.00 384.17 1976.62
   13:41:57.630.18-Apr-2020 3111.02 4539.88 69.29 5.00 384.37 1976.62
   13:41:57.830.18-Apr-2020 3111.02 4539.14 69.29 5.00 384.57 1976.62
   13:41:58.030.18-Apr-2020 3111.02 4539.94 69.29 5.00 384.77 1976.62
   13:41:58.230.18-Apr-2020 3111.02 4537.60 69.29 5.00 384.97 1976.62
   13:41:58.430.18-Apr-2020 3111.02 4540.63 69.29 5.00 385.17 1976.62
   13:41:58.630.18-Apr-2020 3111.02 4540.63 69.29 5.00 385.37 1976.62
   13:41:58.831.18-Apr-2020 3111.02 4539.61 69.29 5.00 385.57 1976.62
   13:41:59.031.18-Apr-2020 3111.02 4539.44 69.29 5.00 385.77 1976.62
   13:41:59.231.18-Apr-2020 3111.02 4539.10 69.29 5.00 385.97 1976.62
   13:41:59.431.18-Apr-2020 3111.02 4537.36 69.28 5.00 386.17 1976.62
   13:41:59.631.18-Apr-2020 3111.02 4537.36 69.28 5.00 386.37 1976.62
   13:41:59.831.18-Apr-2020 3111.02 4539.17 69.28 5.00 386.57 1976.62
   13:42:00.031.18-Apr-2020 3111.02 4539.15 69.28 5.00 386.77 1976.62
   13:42:00.231.18-Apr-2020 3111.02 4537.75 69.28 5.00 386.97 1976.62
   13:42:00.431.18-Apr-2020 3111.02 4540.87 69.28 5.00 387.17 1976.62
   13:42:00.631.18-Apr-2020 3111.02 4540.87 69.28 5.00 387.37 1976.62
   13:42:00.831.18-Apr-2020 3111.02 4540.08 69.28 5.00 387.57 1976.62
   13:42:01.032.18-Apr-2020 3111.02 4540.14 69.28 5.00 387.77 1976.62
   13:42:01.232.18-Apr-2020 3111.02 4541.04 69.28 5.00 387.97 1976.62
   13:42:01.432.18-Apr-2020 3111.02 4540.75 69.28 5.00 388.17 1976.62
   13:42:01.632.18-Apr-2020 3111.02 4540.75 69.28 5.00 388.37 1976.62
   13:42:01.832.18-Apr-2020 3111.02 4539.81 69.28 5.00 388.57 1976.62
   13:42:02.032.18-Apr-2020 3111.02 4539.54 69.28 5.00 388.77 1976.62
   13:42:02.232.18-Apr-2020 3111.02 4539.50 69.28 5.00 388.97 1976.62
   13:42:02.432.18-Apr-2020 3111.02 4540.08 69.28 5.00 389.18 1976.62
   13:42:02.632.18-Apr-2020 3111.02 4540.08 69.28 5.00 389.38 1976.62
   13:42:02.832.18-Apr-2020 3111.02 4540.22 69.28 5.00 389.58 1976.62
   13:42:03.032.18-Apr-2020 3111.02 4539.98 69.28 5.00 389.78 1976.62
   13:42:03.233.18-Apr-2020 3111.02 4538.67 69.28 5.00 389.98 1976.62
   13:42:03.433.18-Apr-2020 3111.02 4540.83 69.28 5.00 390.18 1976.62
   13:42:03.633.18-Apr-2020 3111.02 4540.83 69.28 5.00 390.38 1976.62
   13:42:03.833.18-Apr-2020 3111.02 4541.71 69.27 5.00 390.58 1976.62
   13:42:04.033.18-Apr-2020 3111.02 4542.25 69.27 5.00 390.78 1976.62
   13:42:04.233.18-Apr-2020 3111.02 4541.87 69.27 5.00 390.98 1976.62
