~Version Information
 VERS.                  2.0:   CWLS log ASCII Standard -VERSION 2.0
 WRAP.                   NO:   One line per depth step
~Well Information Block
#MNEM.UNIT     VALUE/NAME     DESCRIPTION
#---------     -----------    ---------------------------
 STRT.S             00:39:23 18-Apr-20: START TIME 00:39:23 18-Apr-20
 STOP.S             00:46:19 18-Apr-20: STOP TIME  00:46:19 18-Apr-20
 STEP.S                   0.00: STEP TIME
 NULL.                 -999.25: NULL VALUE
 DFWT.                        :  DIST FWL TEXT
 DFST.                        :  DIST FSL TEXT
 DMF .                        :  DRILL MEAS FROM
 STIM.      16.29.52 23-Mar-20:  START TIME
 DATE.      16.29.52 23-Mar-20:  END TIME
 SPUD.               23-Mar-20:  SPUD DATE
 NREF.                    Grid:  NORTH REFERENCE
 HPTY.       Minimum Curvature:  HOLE POS TYPE
 DMOD.             Drill Model:  DRILL MOD DESC
 SVYD.                  Survey:  SURVEY DESC
 ILTD.               Lithology:  INTERP LTH DESC
 FTOP.          Formation Tops:  FORM TOPS DESC
 SON .        AZ-XX-0906252240:  JOB NUMBER
 RIG .             West Chirag:  RIG NAME
 PDAT.          Mean Sea Level:  PERMANENT DATUM
 FLD .                     ACG:  FIELD NAME
 CTRY.              Azerbaijan:  COUNTRY NAME
 WELL.           J23 (Slot 07):  WELL NAME
 SRVC.          Turan Drilling:  CONTRACTOR
 COMP.     BP Exploration (Casoian Sea) Ltd:  COMPANY
 WTYP.                Deviated:  WELL TYPE
 MDS .        Operator Entered:  MAG DATA SOURCE
 UWI .                     N/A:  UNIQUE WELL IDENTIFIER
 API .                     N/A:  API NUMBER
 BASE.              Azerbaijan:  LOGGING EQUIPMENT BASE LOCATION
 REGN.                   EESSA:  REGION
 PROV.                    Baku:  PROVINCE
 STAT.                    Baku:  STATE NAME
 MWDS.                     N/A:  MWD SHOP
 JOBN.        AZ-XX-0906252240:  JOB TICKET NUMB
 DOE .                     N/A:  DOE NUMBER
 DCON.         Sperry Drilling:  DIRECTNL CONTR
 UNIT.                     N/A:  LOGGING EQUIPMENT ID
 CNTY.                        :  COUNTY
 LOC .                        :  LOCATION
 LMF .             Drill Floor:  LOG MEASURED FROM
 TVDS.m                  43.00:  TVDSS CORRECTN
 LATI.deg                40.13:  LATITUDE
 LONG.deg                51.22:  LONGITUDE
 WHNS.m                   9.43:  WELL HEAD N/S
 WHEW.m                  -8.91:  WELL HEAD E/W
 UTMX.m              519005.06:  UTM X
 UTMY.m             4443793.85:  UTM Y
 DFWL.m                   0.00:  DISTANCE FWL
 DFSL.m                   0.00:  DISTANCE FSL
 SDEP.m                   0.00:  START DEPTH
 TDD .m                   0.00:  TOTAL DEPTH (DRILLER)
 VSDR.deg               179.88:  VERT SEC DIRECT
 GVFD.g                   1.00:  GRAVITY FIELD
 MFLD.nT              50281.00:  MAGNETIC FIELD
 MDIP.deg                59.58:  MAGNETIC DIP
 MDEC.deg                 6.48:  MAGNETIC DECL
 GRDC.deg                 0.14:  GRID CORRECTION
 AZTC.deg                 6.34:  AZM TOTAL CORR
 EPD .m                   0.00:  ELEVATION
 EGL .m                   0.00:  GROUND ELEVATION
 WDMS.m                 169.80:  WD ELEV
 APD .m                  43.00:  DEPTH ABOVE PD
 DEP .m                 354.17:  DEPTH
 AGAP.m                  43.00:  AIR GAP
 VSEW.m                  -8.91:  VERT SEC E/W
 VSNS.m                   9.43:  VERT SEC N/S
 EKB .m                   0.00:  KB ELEVATION
 EDF .m                  43.00:  DF ELEVATION
 TDL .m                1326.00:  TOTAL DEPTH (LOGGER)
 VSC .                       0:  VS TO CLOSURE
 MAGU.                 1850704:  MAGUTM CHECKSUM
~Parameter Information Block
#MNEM.UNIT       Value        Description
#---------     -----------    ---------------------------
 AV  .mps                 1.17:  Ann Velocity 
 AZIF.deg               184.04:  Azm, Final 
 BHAT.        Rotary Steerable:  BHA Type 
 BREV.rev            620000.00:  Rev Bit Total 
 BROT.°/30m               0.20:  Build Rotating 
 BS  .in                 14.75:  Bit Size 
 BSZ .in                 14.75:  Bit Size 
 BTPL.psig              618.00:  Bit Press Loss 
 CABU.                      No:  Customer Abuse 
 COMM.                     TŠT:  Run Comments 1 
 TCS .hr                 87.68:  Time Ciculation Ended 
 CV  .mps                 3.10:  Crit Velocity 
 DD1 .          Rashad Habibov:  Direct Drillr 1 
 DD2 .         Rasim Ibrahimov:  Direct Drillr 2 
 DDSV.               Geo-Pilot:  DD Service 
 DEFF.%                  98.00:  % Det Eff 
 DLRX.°/30m               1.48:  Dogleg Rot Max 
 DLSO.°/30m               0.50:  Dogleg Oriented 
 DLSX.°/30m               1.48:  Dogleg Str Max 
 DRET.      06.18.56 19-Apr-20:  Drill End Time 
 DRST.      15.00.56 15-Apr-20:  Drill Start Tim 
 DTIM.hr                 51.73:  Time Drilling 
 EDEP.m                3410.01:  End Depth 
 ENG1.        Marcelo Sandoval:  Engineer 1 
 ENG2.        Davud Huseynzade:  Engineer 2 
 ENG3.          Ruslan Safarov:  Engineer 3 
 ETIM.      04.00.56 20-Apr-20:  End Time 
 FLOI.gpm              1000.00:  Flow In 
 FLON.gpm               600.00:  Flow In Min 
 FLOS.cptm                0.00:  Fluid Loss 
 FLOX.gpm              1200.00:  Flow In Max 
 HFLO.                      No:  High Flow 
 HPRE.                     Yes:  High Pressure 
 HTEM.                      No:  High Temp 
 HYDO.m                   1.80:  Hydro Offset 
 IFIN.deg                70.04:  Inc, Final 
 IMAX.deg                70.56:  Inc Max 
 IMIN.deg                69.85:  Inc Min 
 IMND.m                3103.24:  Inc Min Depth 
 IMXD.m                2876.63:  Inc Max Depth 
 JARR.                      No:  Jarring 
 LETM.      06.18.56 19-Apr-20:  Log End Time 
 LOST.hr                     0:  Lost Rig Time 
 LSTM.      15.00.56 15-Apr-20:  Log Start Time 
 MDCL.ppm             42000.00:  Mud Chlorides 
 MDES.     Inversion Oil/Synthetic:  Mud Desc 
 DFD .sg                  1.58:  Mud Density 
 MDMN.sg                  1.58:  Dens Mud Min 
 MDMX.sg                  1.58:  Dens Mud Max 
 MOIL.                      71:  Run Mud Oil % 
 MOWR.                   71:29:  Run Mud OWR 
 MSND.                       0:  Run Mud Sand % 
 MSOL.                    23.3:  Run Mud Solids% 
 DFV .spqt               84.00:  Mud Viscosity 
 MWOD.in                  9.50:  MWD Tool OD 
 MWSI.                      No:  Serv Intrp, MWD 
 OTIM.hr                139.62:  Time Operating 
 PMAX.psia             5364.69:  Press Op, Max 
 PV  .cP                 80.00:  Mud PV 
 RUN .                     700:  Run Number 
 ROPA.m/hr               25.00:  ROP Avg 
 ROPN.m/hr               11.00:  ROP Min 
 ROPX.m/hr               36.00:  ROP Max 
 RPMA.rpm               130.00:  RPM Surface Avg 
 RPMN.rpm               120.00:  RPM Surface Min 
 RPMX.rpm               140.00:  RPM Surface Max 
 RRUN.                    0700:  Rig Run Number 
 SAZI.deg               183.25:  Azm, Start 
 SDEP.m                2084.00:  Start Depth 
 SIDD.                      No:  Serv Intrp, DD 
 SINC.deg                70.38:  Inc, Start 
 SPPA.psig             4800.00:  SPP Avg 
 SPPN.psig             4400.00:  SPP Min 
 SPPX.psig             5350.00:  SPP Max 
 STIM.      16.30.56 14-Apr-20:  Start Time 
 SVCS.                 DD, MWD:  Services 
 SVER.                    9.20:  Sperry Version 
 TDAT.m                1326.00:  Tot Depth Attmp 
 TDDF.                      No:  Trip for DD 
 TDLG.m                1326.00:  Tot Depth Loggd 
 TFF .                      No:  Trip for Fail 
 TQAA.f-kp               19.00:  Torque Abs Avg 
 TQAN.f-kp                8.00:  Torque Abs Min 
 TQAX.f-kp               27.00:  Torque Abs Max 
 TRRT.°/30m               0.50:  Turn Rotating 
 MRT .                    HCIM:  Maximum Recorded Temperature 
 TTMX.degC               82.35:  Max Tool Temp 
 VS01.       905245875X1Z1W1C8:  Virtual Str1 SN 
 VS02.       90608022F11V7D1A9:  Virtual Str2 SN 
 VS03.            90605473R5C9:  Virtual Str3 SN 
 WBMN.klb                11.00:  WOB Min 
 WOBA.klb                21.00:  WOB Avg 
 WOBX.klb                30.00:  WOB Max 
 YP  .lhf2               45.00:  Yield Point 
~Curve Information Block
#MNEM.UNIT                 API CODE     Curve Description
#---------               -----------    ---------------------------
 TIME.HHMMSS            00 000 000 000:  GT Time & Date
 GTDEPTH.m              00 000 000 000:  GT Depth
 GTPQH.psia             00 000 000 000:  GT HR Quartz Pressure
 GTTQ.degC              00 000 000 000:  GT Quartz Temperature
 GTTN.NONE              00 000 000 000:  GT Test Number
 GTET.sec               00 000 000 000:  GT Elapsed Test Time
 GTTVD.m                00 000 000 000:  GT True Vertical Depth
#Other Information
#
#WARRANTY: Halliburton will use its best efforts to furnish customers with 
#accurate information and interpretations that are part of, and incident to, the services 
#provided.  However, Halliburton cannot and does not warrant the accuracy 
#or correctness of such information and interpretations.  Under no circumstances should any 
#such information or interpretation be relied upon as the sole basis for any drilling, 
#completion, production, or financial decision or any procedure involving any risk to the 
#safety of any drilling venture, drilling rig or its crew or any other third party.  The 
#Customer has full responsibility for all drilling, completion and production operation.  
#Halliburton makes no representations or warranties, either expressed or 
#implied, including, but not limited to, the implied warranties of merchantability or fitness 
#for a particular purpose, with respect to the services rendered.  In no event will 
#Halliburton be liable for failure to obtain any particular results or for 
#any damages, including, but not limited to, indirect, special or consequential damages, 
#resulting from the use of any information or interpretation provided by Halliburton.
#
~A           TIME           GTDEPTH  GTPQH  GTTQ  GTTN  GTET   GTTVD  
# ...
   00:43:59.353.18-Apr-2020 2932.07 3422.65 63.08 1.00 276.04 1915.77
   00:43:59.553.18-Apr-2020 2932.07 3422.65 63.08 1.00 276.24 1915.77
   00:43:59.753.18-Apr-2020 2932.07 3422.94 63.08 1.00 276.44 1915.77
   00:43:59.953.18-Apr-2020 2932.07 3422.97 63.08 1.00 276.64 1915.77
   00:44:00.153.18-Apr-2020 2932.07 3423.00 63.08 1.00 276.84 1915.77
   00:44:00.353.18-Apr-2020 2932.07 3423.06 63.08 1.00 277.04 1915.77
   00:44:00.553.18-Apr-2020 2932.07 3423.09 63.08 1.00 277.24 1915.77
   00:44:00.753.18-Apr-2020 2932.07 3423.22 63.08 1.00 277.44 1915.77
   00:44:00.953.18-Apr-2020 2932.07 3423.22 63.08 1.00 277.64 1915.77
   00:44:01.153.18-Apr-2020 2932.07 3423.17 63.08 1.00 277.84 1915.77
   00:44:01.353.18-Apr-2020 2932.07 3423.18 63.08 1.00 278.04 1915.77
   00:44:01.553.18-Apr-2020 2932.07 3423.18 63.08 1.00 278.24 1915.77
   00:44:01.753.18-Apr-2020 2932.07 3423.28 63.08 1.00 278.45 1915.77
   00:44:01.953.18-Apr-2020 2932.07 3423.31 63.08 1.00 278.65 1915.77
   00:44:02.153.18-Apr-2020 2932.07 3423.40 63.08 1.00 278.85 1915.77
   00:44:02.353.18-Apr-2020 2932.07 3423.39 63.08 1.00 279.05 1915.77
   00:44:02.553.18-Apr-2020 2932.07 3423.39 63.08 1.00 279.25 1915.77
   00:44:02.753.18-Apr-2020 2932.07 3423.53 63.08 1.00 279.45 1915.77
   00:44:02.954.18-Apr-2020 2932.07 3423.43 63.08 1.00 279.65 1915.77
   00:44:03.154.18-Apr-2020 2932.07 3423.51 63.07 1.00 279.85 1915.77
   00:44:03.354.18-Apr-2020 2932.07 3423.44 63.07 1.00 280.05 1915.77
   00:44:03.554.18-Apr-2020 2932.07 3423.54 63.07 1.00 280.25 1915.77
   00:44:03.754.18-Apr-2020 2932.07 3423.43 63.07 1.00 280.45 1915.77
   00:44:03.954.18-Apr-2020 2932.07 3423.38 63.07 1.00 280.65 1915.77
   00:44:04.154.18-Apr-2020 2932.07 3423.45 63.07 1.00 280.85 1915.77
   00:44:04.354.18-Apr-2020 2932.07 3423.46 63.07 1.00 281.05 1915.77
   00:44:04.554.18-Apr-2020 2932.07 3423.58 63.07 1.00 281.25 1915.77
   00:44:04.754.18-Apr-2020 2932.07 3423.48 63.07 1.00 281.45 1915.77
   00:44:04.954.18-Apr-2020 2932.07 3423.58 63.07 1.00 281.65 1915.77
   00:44:05.154.18-Apr-2020 2932.07 3423.57 63.07 1.00 281.85 1915.77
   00:44:05.354.18-Apr-2020 2932.07 3423.54 63.07 1.00 282.05 1915.77
   00:44:05.554.18-Apr-2020 2932.07 3423.54 63.07 1.00 282.25 1915.77
   00:44:05.754.18-Apr-2020 2932.07 3423.63 63.07 1.00 282.45 1915.77
   00:44:05.954.18-Apr-2020 2932.07 3423.58 63.07 1.00 282.65 1915.77
   00:44:06.154.18-Apr-2020 2932.07 3423.58 63.07 1.00 282.85 1915.77
   00:44:06.354.18-Apr-2020 2932.07 3423.60 63.07 1.00 283.05 1915.77
   00:44:06.554.18-Apr-2020 2932.07 3423.60 63.07 1.00 283.25 1915.77
   00:44:06.754.18-Apr-2020 2932.07 3431.42 63.07 1.00 283.45 1915.77
   00:44:06.954.18-Apr-2020 2932.07 3431.44 63.07 1.00 283.65 1915.77
   00:44:07.154.18-Apr-2020 2932.07 3431.45 63.07 1.00 283.85 1915.77
   00:44:07.354.18-Apr-2020 2932.07 3431.46 63.07 1.00 284.05 1915.77
   00:44:07.554.18-Apr-2020 2932.07 3431.46 63.07 1.00 284.25 1915.77
   00:44:07.754.18-Apr-2020 2932.07 3431.46 63.07 1.00 284.45 1915.77
   00:44:07.954.18-Apr-2020 2932.07 3431.47 63.07 1.00 284.65 1915.77
   00:44:08.154.18-Apr-2020 2932.07 3431.47 63.07 1.00 284.85 1915.77
   00:44:08.354.18-Apr-2020 2932.07 3431.47 63.07 1.00 285.05 1915.77
   00:44:08.554.18-Apr-2020 2932.07 3431.47 63.06 1.00 285.25 1915.77
   00:44:08.754.18-Apr-2020 2932.07 3431.48 63.06 1.00 285.45 1915.77
   00:44:08.954.18-Apr-2020 2932.07 3431.49 63.06 1.00 285.65 1915.77
   00:44:09.155.18-Apr-2020 2932.07 3431.49 63.06 1.00 285.85 1915.77
   00:44:09.355.18-Apr-2020 2932.07 3431.49 63.06 1.00 286.05 1915.77
   00:44:09.555.18-Apr-2020 2932.07 3431.49 63.06 1.00 286.25 1915.77
   00:44:09.755.18-Apr-2020 2932.07 3431.48 63.06 1.00 286.45 1915.77
   00:44:09.955.18-Apr-2020 2932.07 3431.50 63.06 1.00 286.65 1915.77
   00:44:10.155.18-Apr-2020 2932.07 3431.50 63.06 1.00 286.85 1915.77
   00:44:10.355.18-Apr-2020 2932.07 3431.48 63.06 1.00 287.05 1915.77
   00:44:10.555.18-Apr-2020 2932.07 3431.49 63.06 1.00 287.25 1915.77
   00:44:10.755.18-Apr-2020 2932.07 3431.49 63.06 1.00 287.45 1915.77
   00:44:10.955.18-Apr-2020 2932.07 3431.48 63.06 1.00 287.65 1915.77
   00:44:11.155.18-Apr-2020 2932.07 3431.48 63.06 1.00 287.85 1915.77
   00:44:11.355.18-Apr-2020 2932.07 3431.49 63.06 1.00 288.05 1915.77
   00:44:11.555.18-Apr-2020 2932.07 3431.49 63.06 1.00 288.25 1915.77
   00:44:11.755.18-Apr-2020 2932.07 3431.47 63.06 1.00 288.45 1915.77
   00:44:11.955.18-Apr-2020 2932.07 3431.49 63.06 1.00 288.65 1915.77
   00:44:12.155.18-Apr-2020 2932.07 3431.49 63.06 1.00 288.85 1915.77
   00:44:12.355.18-Apr-2020 2932.07 3431.48 63.06 1.00 289.05 1915.77
   00:44:12.555.18-Apr-2020 2932.07 3431.48 63.06 1.00 289.25 1915.77
   00:44:12.755.18-Apr-2020 2932.07 3431.49 63.06 1.00 289.45 1915.77
   00:44:12.955.18-Apr-2020 2932.07 3431.48 63.06 1.00 289.65 1915.77
   00:44:13.155.18-Apr-2020 2932.07 3431.49 63.06 1.00 289.85 1915.77
   00:44:13.355.18-Apr-2020 2932.07 3431.48 63.06 1.00 290.05 1915.77
   00:44:13.555.18-Apr-2020 2932.07 3431.48 63.06 1.00 290.25 1915.77
   00:44:13.755.18-Apr-2020 2932.07 3431.48 63.06 1.00 290.45 1915.77
   00:44:13.955.18-Apr-2020 2932.07 3431.48 63.05 1.00 290.65 1915.77
   00:44:14.155.18-Apr-2020 2932.07 3431.48 63.05 1.00 290.85 1915.77
   00:44:14.355.18-Apr-2020 2932.07 3431.49 63.05 1.00 291.05 1915.77
   00:44:14.555.18-Apr-2020 2932.07 3431.49 63.05 1.00 291.25 1915.77
   00:44:14.755.18-Apr-2020 2932.07 3431.49 63.05 1.00 291.45 1915.77
   00:44:14.955.18-Apr-2020 2932.07 3431.48 63.05 1.00 291.65 1915.77
   00:44:15.155.18-Apr-2020 2932.07 3431.50 63.05 1.00 291.85 1915.77
   00:44:15.356.18-Apr-2020 2932.07 3431.49 63.05 1.00 292.05 1915.77
   00:44:15.556.18-Apr-2020 2932.07 3431.49 63.05 1.00 292.25 1915.77
   00:44:15.756.18-Apr-2020 2932.07 3431.48 63.05 1.00 292.45 1915.77
   00:44:15.956.18-Apr-2020 2932.07 3431.48 63.05 1.00 292.65 1915.77
   00:44:16.156.18-Apr-2020 2932.07 3431.48 63.05 1.00 292.85 1915.77
   00:44:16.356.18-Apr-2020 2932.07 3431.48 63.05 1.00 293.05 1915.77
   00:44:16.556.18-Apr-2020 2932.07 3431.48 63.05 1.00 293.25 1915.77
   00:44:16.756.18-Apr-2020 2932.07 3431.47 63.05 1.00 293.45 1915.77
   00:44:16.956.18-Apr-2020 2932.07 3431.48 63.05 1.00 293.65 1915.77
   00:44:17.156.18-Apr-2020 2932.07 3431.47 63.05 1.00 293.85 1915.77
   00:44:17.356.18-Apr-2020 2932.07 3431.48 63.05 1.00 294.05 1915.77
   00:44:17.556.18-Apr-2020 2932.07 3431.48 63.05 1.00 294.25 1915.77
   00:44:17.756.18-Apr-2020 2932.07 3431.47 63.05 1.00 294.45 1915.77
   00:44:17.956.18-Apr-2020 2932.07 3431.49 63.05 1.00 294.65 1915.77
   00:44:18.156.18-Apr-2020 2932.07 3431.49 63.05 1.00 294.85 1915.77
   00:44:18.356.18-Apr-2020 2932.07 3431.49 63.05 1.00 295.05 1915.77
   00:44:18.556.18-Apr-2020 2932.07 3431.49 63.05 1.00 295.25 1915.77
   00:44:18.756.18-Apr-2020 2932.07 3431.49 63.05 1.00 295.45 1915.77
   00:44:18.956.18-Apr-2020 2932.07 3431.48 63.05 1.00 295.65 1915.77
   00:44:19.156.18-Apr-2020 2932.07 3431.48 63.05 1.00 295.85 1915.77
   00:44:19.356.18-Apr-2020 2932.07 3431.49 63.04 1.00 296.05 1915.77
   00:44:19.556.18-Apr-2020 2932.07 3431.47 63.04 1.00 296.25 1915.77
   00:44:19.756.18-Apr-2020 2932.07 3431.48 63.04 1.00 296.45 1915.77
   00:44:19.956.18-Apr-2020 2932.07 3431.48 63.04 1.00 296.65 1915.77
   00:44:20.156.18-Apr-2020 2932.07 3431.48 63.04 1.00 296.85 1915.77
   00:44:20.356.18-Apr-2020 2932.07 3431.46 63.04 1.00 297.05 1915.77
   00:44:20.556.18-Apr-2020 2932.07 3431.49 63.04 1.00 297.25 1915.77
   00:44:20.756.18-Apr-2020 2932.07 3431.48 63.04 1.00 297.45 1915.77
   00:44:20.956.18-Apr-2020 2932.07 3431.47 63.04 1.00 297.65 1915.77
   00:44:21.156.18-Apr-2020 2932.07 3431.47 63.04 1.00 297.85 1915.77
   00:44:21.356.18-Apr-2020 2932.07 3431.48 63.04 1.00 298.05 1915.77
   00:44:21.557.18-Apr-2020 2932.07 3431.48 63.04 1.00 298.25 1915.77
   00:44:21.757.18-Apr-2020 2932.07 3431.47 63.04 1.00 298.45 1915.77
   00:44:21.957.18-Apr-2020 2932.07 3431.48 63.04 1.00 298.65 1915.77
   00:44:22.157.18-Apr-2020 2932.07 3431.47 63.04 1.00 298.85 1915.77
