~Version Information
 VERS.                  2.0:   CWLS log ASCII Standard -VERSION 2.0
 WRAP.                   NO:   One line per depth step
~Well Information Block
#MNEM.UNIT     VALUE/NAME     DESCRIPTION
#---------     -----------    ---------------------------
 STRT.S             11:18:22 18-Apr-20: START TIME 11:18:22 18-Apr-20
 STOP.S             11:25:23 18-Apr-20: STOP TIME  11:25:23 18-Apr-20
 STEP.S                   0.00: STEP TIME
 NULL.                 -999.25: NULL VALUE
 DFWT.                        :  DIST FWL TEXT
 DFST.                        :  DIST FSL TEXT
 DMF .                        :  DRILL MEAS FROM
 STIM.      16.29.52 23-Mar-20:  START TIME
 DATE.      16.29.52 23-Mar-20:  END TIME
 SPUD.               23-Mar-20:  SPUD DATE
 NREF.                    Grid:  NORTH REFERENCE
 HPTY.       Minimum Curvature:  HOLE POS TYPE
 DMOD.             Drill Model:  DRILL MOD DESC
 SVYD.                  Survey:  SURVEY DESC
 ILTD.               Lithology:  INTERP LTH DESC
 FTOP.          Formation Tops:  FORM TOPS DESC
 SON .        AZ-XX-0906252240:  JOB NUMBER
 RIG .             West Chirag:  RIG NAME
 PDAT.          Mean Sea Level:  PERMANENT DATUM
 FLD .                     ACG:  FIELD NAME
 CTRY.              Azerbaijan:  COUNTRY NAME
 WELL.           J23 (Slot 07):  WELL NAME
 SRVC.          Turan Drilling:  CONTRACTOR
 COMP.     BP Exploration (Casoian Sea) Ltd:  COMPANY
 WTYP.                Deviated:  WELL TYPE
 MDS .        Operator Entered:  MAG DATA SOURCE
 UWI .                     N/A:  UNIQUE WELL IDENTIFIER
 API .                     N/A:  API NUMBER
 BASE.              Azerbaijan:  LOGGING EQUIPMENT BASE LOCATION
 REGN.                   EESSA:  REGION
 PROV.                    Baku:  PROVINCE
 STAT.                    Baku:  STATE NAME
 MWDS.                     N/A:  MWD SHOP
 JOBN.        AZ-XX-0906252240:  JOB TICKET NUMB
 DOE .                     N/A:  DOE NUMBER
 DCON.         Sperry Drilling:  DIRECTNL CONTR
 UNIT.                     N/A:  LOGGING EQUIPMENT ID
 CNTY.                        :  COUNTY
 LOC .                        :  LOCATION
 LMF .             Drill Floor:  LOG MEASURED FROM
 TVDS.m                  43.00:  TVDSS CORRECTN
 LATI.deg                40.13:  LATITUDE
 LONG.deg                51.22:  LONGITUDE
 WHNS.m                   9.43:  WELL HEAD N/S
 WHEW.m                  -8.91:  WELL HEAD E/W
 UTMX.m              519005.06:  UTM X
 UTMY.m             4443793.85:  UTM Y
 DFWL.m                   0.00:  DISTANCE FWL
 DFSL.m                   0.00:  DISTANCE FSL
 SDEP.m                   0.00:  START DEPTH
 TDD .m                   0.00:  TOTAL DEPTH (DRILLER)
 VSDR.deg               179.88:  VERT SEC DIRECT
 GVFD.g                   1.00:  GRAVITY FIELD
 MFLD.nT              50281.00:  MAGNETIC FIELD
 MDIP.deg                59.58:  MAGNETIC DIP
 MDEC.deg                 6.48:  MAGNETIC DECL
 GRDC.deg                 0.14:  GRID CORRECTION
 AZTC.deg                 6.34:  AZM TOTAL CORR
 EPD .m                   0.00:  ELEVATION
 EGL .m                   0.00:  GROUND ELEVATION
 WDMS.m                 169.80:  WD ELEV
 APD .m                  43.00:  DEPTH ABOVE PD
 DEP .m                 354.17:  DEPTH
 AGAP.m                  43.00:  AIR GAP
 VSEW.m                  -8.91:  VERT SEC E/W
 VSNS.m                   9.43:  VERT SEC N/S
 EKB .m                   0.00:  KB ELEVATION
 EDF .m                  43.00:  DF ELEVATION
 TDL .m                1326.00:  TOTAL DEPTH (LOGGER)
 VSC .                       0:  VS TO CLOSURE
 MAGU.                 1850704:  MAGUTM CHECKSUM
~Parameter Information Block
#MNEM.UNIT       Value        Description
#---------     -----------    ---------------------------
 AV  .mps                 1.17:  Ann Velocity 
 AZIF.deg               184.04:  Azm, Final 
 BHAT.        Rotary Steerable:  BHA Type 
 BREV.rev            620000.00:  Rev Bit Total 
 BROT.°/30m               0.20:  Build Rotating 
 BS  .in                 14.75:  Bit Size 
 BSZ .in                 14.75:  Bit Size 
 BTPL.psig              618.00:  Bit Press Loss 
 CABU.                      No:  Customer Abuse 
 TCS .hr                 87.68:  Time Ciculation Ended 
 CV  .mps                 3.10:  Crit Velocity 
 DD1 .          Rashad Habibov:  Direct Drillr 1 
 DD2 .         Rasim Ibrahimov:  Direct Drillr 2 
 DDSV.               Geo-Pilot:  DD Service 
 DEFF.%                  98.00:  % Det Eff 
 DLRX.°/30m               1.48:  Dogleg Rot Max 
 DLSO.°/30m               0.50:  Dogleg Oriented 
 DLSX.°/30m               1.48:  Dogleg Str Max 
 DRET.      06.18.56 19-Apr-20:  Drill End Time 
 DRST.      15.00.56 15-Apr-20:  Drill Start Tim 
 DTIM.hr                 51.73:  Time Drilling 
 EDEP.m                3410.01:  End Depth 
 ENG1.        Marcelo Sandoval:  Engineer 1 
 ENG2.        Davud Huseynzade:  Engineer 2 
 ENG3.          Ruslan Safarov:  Engineer 3 
 ETIM.      04.00.56 20-Apr-20:  End Time 
 FLOI.gpm              1000.00:  Flow In 
 FLON.gpm               600.00:  Flow In Min 
 FLOS.cptm                0.00:  Fluid Loss 
 FLOX.gpm              1200.00:  Flow In Max 
 HFLO.                      No:  High Flow 
 HPRE.                     Yes:  High Pressure 
 HTEM.                      No:  High Temp 
 HYDO.m                   1.80:  Hydro Offset 
 IFIN.deg                70.04:  Inc, Final 
 IMAX.deg                70.56:  Inc Max 
 IMIN.deg                69.85:  Inc Min 
 IMND.m                3103.24:  Inc Min Depth 
 IMXD.m                2876.63:  Inc Max Depth 
 JARR.                      No:  Jarring 
 LETM.      06.18.56 19-Apr-20:  Log End Time 
 LOST.hr                     0:  Lost Rig Time 
 LSTM.      15.00.56 15-Apr-20:  Log Start Time 
 MDCL.ppm             42000.00:  Mud Chlorides 
 MDES.     Inversion Oil/Synthetic:  Mud Desc 
 DFD .sg                  1.58:  Mud Density 
 MDMN.sg                  1.58:  Dens Mud Min 
 MDMX.sg                  1.58:  Dens Mud Max 
 MOIL.                      71:  Run Mud Oil % 
 MOWR.                   71:29:  Run Mud OWR 
 MSND.                       0:  Run Mud Sand % 
 MSOL.                    23.3:  Run Mud Solids% 
 DFV .spqt               84.00:  Mud Viscosity 
 MWOD.in                  9.50:  MWD Tool OD 
 MWSI.                      No:  Serv Intrp, MWD 
 OTIM.hr                139.62:  Time Operating 
 PMAX.psia             5364.69:  Press Op, Max 
 PV  .cP                 80.00:  Mud PV 
 RUN .                     700:  Run Number 
 ROPA.m/hr               25.00:  ROP Avg 
 ROPN.m/hr               11.00:  ROP Min 
 ROPX.m/hr               36.00:  ROP Max 
 RPMA.rpm               130.00:  RPM Surface Avg 
 RPMN.rpm               120.00:  RPM Surface Min 
 RPMX.rpm               140.00:  RPM Surface Max 
 RRUN.                    0700:  Rig Run Number 
 SAZI.deg               183.25:  Azm, Start 
 SDEP.m                2084.00:  Start Depth 
 SIDD.                      No:  Serv Intrp, DD 
 SINC.deg                70.38:  Inc, Start 
 SPPA.psig             4800.00:  SPP Avg 
 SPPN.psig             4400.00:  SPP Min 
 SPPX.psig             5350.00:  SPP Max 
 STIM.      16.30.56 14-Apr-20:  Start Time 
 SVCS.                 DD, MWD:  Services 
 SVER.                    9.20:  Sperry Version 
 TDAT.m                1326.00:  Tot Depth Attmp 
 TDDF.                      No:  Trip for DD 
 TDLG.m                1326.00:  Tot Depth Loggd 
 TFF .                      No:  Trip for Fail 
 TQAA.f-kp               19.00:  Torque Abs Avg 
 TQAN.f-kp                8.00:  Torque Abs Min 
 TQAX.f-kp               27.00:  Torque Abs Max 
 TRRT.°/30m               0.50:  Turn Rotating 
 MRT .                    HCIM:  Maximum Recorded Temperature 
 TTMX.degC               82.35:  Max Tool Temp 
 VS01.       905245875X1Z1W1C8:  Virtual Str1 SN 
 VS02.       90608022F11V7D1A9:  Virtual Str2 SN 
 VS03.            90605473R5C9:  Virtual Str3 SN 
 WBMN.klb                11.00:  WOB Min 
 WOBA.klb                21.00:  WOB Avg 
 WOBX.klb                30.00:  WOB Max 
 YP  .lhf2               45.00:  Yield Point 
~Curve Information Block
#MNEM.UNIT                 API CODE     Curve Description
#---------               -----------    ---------------------------
 TIME.HHMMSS            00 000 000 000:  GT Time & Date
 GTDEPTH.m              00 000 000 000:  GT Depth
 GTPQH.psia             00 000 000 000:  GT HR Quartz Pressure
 GTTQ.degC              00 000 000 000:  GT Quartz Temperature
 GTTN.NONE              00 000 000 000:  GT Test Number
 GTET.sec               00 000 000 000:  GT Elapsed Test Time
 GTTVD.m                00 000 000 000:  GT True Vertical Depth
#Other Information
#
#WARRANTY: Halliburton will use its best efforts to furnish customers with 
#accurate information and interpretations that are part of, and incident to, the services 
#provided.  However, Halliburton cannot and does not warrant the accuracy 
#or correctness of such information and interpretations.  Under no circumstances should any 
#such information or interpretation be relied upon as the sole basis for any drilling, 
#completion, production, or financial decision or any procedure involving any risk to the 
#safety of any drilling venture, drilling rig or its crew or any other third party.  The 
#Customer has full responsibility for all drilling, completion and production operation.  
#Halliburton makes no representations or warranties, either expressed or 
#implied, including, but not limited to, the implied warranties of merchantability or fitness 
#for a particular purpose, with respect to the services rendered.  In no event will 
#Halliburton be liable for failure to obtain any particular results or for 
#any damages, including, but not limited to, indirect, special or consequential damages, 
#resulting from the use of any information or interpretation provided by Halliburton.
#
~A           TIME           GTDEPTH  GTPQH  GTTQ  GTTN  GTET   GTTVD  
# ...
   11:24:53.621.18-Apr-2020 3074.89 4505.17 68.49 4.00 391.05 1964.21
   11:24:53.821.18-Apr-2020 3074.89 4505.17 68.49 4.00 391.25 1964.21
   11:24:54.021.18-Apr-2020 3074.89 4505.14 68.49 4.00 391.45 1964.21
   11:24:54.221.18-Apr-2020 3074.89 4505.10 68.49 4.00 391.65 1964.21
   11:24:54.421.18-Apr-2020 3074.89 4504.74 68.49 4.00 391.85 1964.21
   11:24:54.621.18-Apr-2020 3074.89 4503.29 68.49 4.00 392.05 1964.21
   11:24:54.821.18-Apr-2020 3074.89 4503.29 68.49 4.00 392.25 1964.21
   11:24:55.021.18-Apr-2020 3074.89 4505.67 68.49 4.00 392.45 1964.21
   11:24:55.221.18-Apr-2020 3074.89 4506.08 68.49 4.00 392.65 1964.21
   11:24:55.421.18-Apr-2020 3074.89 4506.88 68.49 4.00 392.85 1964.21
   11:24:55.621.18-Apr-2020 3074.89 4507.29 68.49 4.00 393.05 1964.21
   11:24:55.821.18-Apr-2020 3074.89 4507.29 68.49 4.00 393.25 1964.21
   11:24:56.021.18-Apr-2020 3074.89 4506.76 68.49 4.00 393.45 1964.21
   11:24:56.221.18-Apr-2020 3074.89 4506.88 68.49 4.00 393.65 1964.21
   11:24:56.421.18-Apr-2020 3074.89 4506.76 68.49 4.00 393.85 1964.21
   11:24:56.621.18-Apr-2020 3074.89 4506.60 68.48 4.00 394.05 1964.21
   11:24:56.821.18-Apr-2020 3074.89 4506.60 68.48 4.00 394.25 1964.21
   11:24:57.021.18-Apr-2020 3074.89 4506.41 68.48 4.00 394.45 1964.21
   11:24:57.221.18-Apr-2020 3074.89 4505.56 68.48 4.00 394.65 1964.21
   11:24:57.421.18-Apr-2020 3074.89 4505.11 68.48 4.00 394.85 1964.21
   11:24:57.621.18-Apr-2020 3074.89 4506.43 68.48 4.00 395.05 1964.21
   11:24:57.822.18-Apr-2020 3074.89 4506.43 68.48 4.00 395.25 1964.21
   11:24:58.022.18-Apr-2020 3074.89 4504.64 68.48 4.00 395.45 1964.21
   11:24:58.222.18-Apr-2020 3074.89 4507.50 68.48 4.00 395.65 1964.21
   11:24:58.422.18-Apr-2020 3074.89 4507.26 68.48 4.00 395.85 1964.21
   11:24:58.622.18-Apr-2020 3074.89 4507.36 68.48 4.00 396.05 1964.21
   11:24:58.822.18-Apr-2020 3074.89 4507.36 68.48 4.00 396.25 1964.21
   11:24:59.022.18-Apr-2020 3074.89 4504.45 68.48 4.00 396.45 1964.21
   11:24:59.222.18-Apr-2020 3074.89 4507.63 68.48 4.00 396.65 1964.21
   11:24:59.422.18-Apr-2020 3074.89 4506.38 68.48 4.00 396.85 1964.21
   11:24:59.622.18-Apr-2020 3074.89 4506.43 68.48 4.00 397.05 1964.21
   11:24:59.822.18-Apr-2020 3074.89 4506.43 68.48 4.00 397.25 1964.21
   11:25:00.022.18-Apr-2020 3074.89 4504.69 68.47 4.00 397.45 1964.21
   11:25:00.222.18-Apr-2020 3074.89 4506.33 68.47 4.00 397.65 1964.21
   11:25:00.422.18-Apr-2020 3074.89 4504.96 68.47 4.00 397.85 1964.21
   11:25:00.622.18-Apr-2020 3074.89 4504.38 68.47 4.00 398.05 1964.21
   11:25:00.822.18-Apr-2020 3074.89 4504.38 68.47 4.00 398.25 1964.21
   11:25:01.022.18-Apr-2020 3074.89 4506.30 68.47 4.00 398.45 1964.21
   11:25:01.222.18-Apr-2020 3074.89 4506.38 68.47 4.00 398.65 1964.21
   11:25:01.422.18-Apr-2020 3074.89 4506.63 68.47 4.00 398.85 1964.21
   11:25:01.622.18-Apr-2020 3074.89 4506.26 68.47 4.00 399.05 1964.21
   11:25:01.822.18-Apr-2020 3074.89 4506.26 68.47 4.00 399.25 1964.21
   11:25:02.022.18-Apr-2020 3074.89 4507.09 68.47 4.00 399.45 1964.21
   11:25:02.222.18-Apr-2020 3074.89 4506.37 68.47 4.00 399.65 1964.21
   11:25:02.422.18-Apr-2020 3074.89 4506.00 68.47 4.00 399.85 1964.21
   11:25:02.622.18-Apr-2020 3074.89 4505.39 68.46 4.00 400.05 1964.21
   11:25:02.822.18-Apr-2020 3074.89 4505.39 68.46 4.00 400.25 1964.21
   11:25:03.022.18-Apr-2020 3074.89 4505.53 68.46 4.00 400.45 1964.21
   11:25:03.222.18-Apr-2020 3074.89 4504.71 68.46 4.00 400.65 1964.21
   11:25:03.422.18-Apr-2020 3074.89 4503.38 68.46 4.00 400.85 1964.21
   11:25:03.622.18-Apr-2020 3074.89 4505.86 68.46 4.00 401.05 1964.21
   11:25:03.822.18-Apr-2020 3074.89 4505.86 68.46 4.00 401.25 1964.21
   11:25:04.022.18-Apr-2020 3074.89 4506.07 68.46 4.00 401.45 1964.21
   11:25:04.222.18-Apr-2020 3074.89 4505.92 68.46 4.00 401.65 1964.21
   11:25:04.422.18-Apr-2020 3074.89 4506.70 68.46 4.00 401.85 1964.21
   11:25:04.622.18-Apr-2020 3074.89 4506.99 68.46 4.00 402.05 1964.21
   11:25:04.822.18-Apr-2020 3074.89 4506.99 68.46 4.00 402.25 1964.21
   11:25:05.022.18-Apr-2020 3074.89 4506.55 68.45 4.00 402.45 1964.21
   11:25:05.223.18-Apr-2020 3074.89 4506.31 68.45 4.00 402.65 1964.21
   11:25:05.423.18-Apr-2020 3074.89 4506.27 68.45 4.00 402.85 1964.21
   11:25:05.623.18-Apr-2020 3074.89 4505.92 68.45 4.00 403.05 1964.21
   11:25:05.823.18-Apr-2020 3074.89 4505.92 68.45 4.00 403.25 1964.21
   11:25:06.023.18-Apr-2020 3074.89 4502.78 68.45 4.00 403.45 1964.21
   11:25:06.223.18-Apr-2020 3074.89 4505.86 68.45 4.00 403.65 1964.21
   11:25:06.423.18-Apr-2020 3074.89 4505.93 68.45 4.00 403.85 1964.21
   11:25:06.623.18-Apr-2020 3074.89 4504.72 68.45 4.00 404.05 1964.21
   11:25:06.823.18-Apr-2020 3074.89 4504.72 68.45 4.00 404.25 1964.21
   11:25:07.023.18-Apr-2020 3074.89 4506.34 68.45 4.00 404.45 1964.21
   11:25:07.223.18-Apr-2020 3074.89 4506.50 68.44 4.00 404.65 1964.21
   11:25:07.423.18-Apr-2020 3074.89 4506.64 68.44 4.00 404.85 1964.21
   11:25:07.623.18-Apr-2020 3074.89 4506.51 68.44 4.00 405.05 1964.21
   11:25:07.823.18-Apr-2020 3074.89 4506.51 68.44 4.00 405.25 1964.21
   11:25:08.023.18-Apr-2020 3074.89 4506.17 68.44 4.00 405.45 1964.21
   11:25:08.223.18-Apr-2020 3074.89 4505.84 68.44 4.00 405.65 1964.21
   11:25:08.423.18-Apr-2020 3074.89 4504.87 68.44 4.00 405.85 1964.21
   11:25:08.623.18-Apr-2020 3074.89 4503.92 68.44 4.00 406.05 1964.21
   11:25:08.823.18-Apr-2020 3074.89 4503.92 68.44 4.00 406.25 1964.21
   11:25:09.023.18-Apr-2020 3074.89 4505.47 68.44 4.00 406.45 1964.21
   11:25:09.223.18-Apr-2020 3074.89 4505.37 68.44 4.00 406.65 1964.21
   11:25:09.423.18-Apr-2020 3074.89 4502.45 68.43 4.00 406.85 1964.21
   11:25:09.623.18-Apr-2020 3074.89 4505.30 68.43 4.00 407.05 1964.21
   11:25:09.823.18-Apr-2020 3074.89 4505.30 68.43 4.00 407.25 1964.21
   11:25:10.023.18-Apr-2020 3074.89 4506.06 68.43 4.00 407.45 1964.21
   11:25:10.223.18-Apr-2020 3074.89 4505.88 68.43 4.00 407.65 1964.21
   11:25:10.423.18-Apr-2020 3074.89 4506.34 68.43 4.00 407.85 1964.21
   11:25:10.623.18-Apr-2020 3074.89 4507.13 68.43 4.00 408.05 1964.21
   11:25:10.823.18-Apr-2020 3074.89 4507.13 68.43 4.00 408.25 1964.21
   11:25:11.023.18-Apr-2020 3074.89 4506.39 68.43 4.00 408.45 1964.21
   11:25:11.223.18-Apr-2020 3074.89 4505.66 68.43 4.00 408.65 1964.21
   11:25:11.423.18-Apr-2020 3074.89 4505.89 68.42 4.00 408.85 1964.21
   11:25:11.623.18-Apr-2020 3074.89 4506.09 68.42 4.00 409.05 1964.21
   11:25:11.823.18-Apr-2020 3074.89 4506.09 68.42 4.00 409.25 1964.21
   11:25:12.023.18-Apr-2020 3074.89 4505.49 68.42 4.00 409.45 1964.21
   11:25:12.223.18-Apr-2020 3074.89 4504.25 68.42 4.00 409.66 1964.21
   11:25:12.423.18-Apr-2020 3074.89 4504.57 68.42 4.00 409.86 1964.21
   11:25:12.624.18-Apr-2020 3074.89 4506.27 68.42 4.00 410.06 1964.21
   11:25:12.824.18-Apr-2020 3074.89 4506.27 68.42 4.00 410.26 1964.21
   11:25:13.024.18-Apr-2020 3074.89 4506.70 68.42 4.00 410.46 1964.21
   11:25:13.224.18-Apr-2020 3074.89 4507.10 68.42 4.00 410.66 1964.21
   11:25:13.424.18-Apr-2020 3074.89 4507.17 68.42 4.00 410.86 1964.21
   11:25:13.624.18-Apr-2020 3074.89 4507.07 68.41 4.00 411.06 1964.21
   11:25:13.824.18-Apr-2020 3074.89 4507.07 68.41 4.00 411.26 1964.21
   11:25:14.024.18-Apr-2020 3074.89 4506.65 68.41 4.00 411.46 1964.21
   11:25:14.224.18-Apr-2020 3074.89 4506.20 68.41 4.00 411.66 1964.21
   11:25:14.424.18-Apr-2020 3074.89 4506.02 68.41 4.00 411.86 1964.21
   11:25:14.624.18-Apr-2020 3074.89 4505.71 68.41 4.00 412.06 1964.21
   11:25:14.824.18-Apr-2020 3074.89 4505.71 68.41 4.00 412.26 1964.21
   11:25:15.024.18-Apr-2020 3074.89 4502.81 68.41 4.00 412.46 1964.21
   11:25:15.224.18-Apr-2020 3074.89 4506.48 68.41 4.00 412.66 1964.21
   11:25:15.424.18-Apr-2020 3074.89 4505.79 68.41 4.00 412.86 1964.21
   11:25:15.624.18-Apr-2020 3074.89 4504.19 68.41 4.00 413.06 1964.21
   11:25:15.824.18-Apr-2020 3074.89 4504.19 68.41 4.00 413.26 1964.21
   11:25:16.024.18-Apr-2020 3074.89 4506.48 68.40 4.00 413.46 1964.21
   11:25:16.224.18-Apr-2020 3074.89 4506.45 68.40 4.00 413.66 1964.21
   11:25:16.424.18-Apr-2020 3074.89 4506.48 68.40 4.00 413.86 1964.21
