~Version Information
 VERS.                  2.0:   CWLS log ASCII Standard -VERSION 2.0
 WRAP.                   NO:   One line per depth step
~Well Information Block
#MNEM.UNIT     VALUE/NAME     DESCRIPTION
#---------     -----------    ---------------------------
 STRT.S             08:47:02 18-Apr-20: START TIME 08:47:02 18-Apr-20
 STOP.S             08:53:58 18-Apr-20: STOP TIME  08:53:58 18-Apr-20
 STEP.S                   0.00: STEP TIME
 NULL.                 -999.25: NULL VALUE
 DFWT.                        :  DIST FWL TEXT
 DFST.                        :  DIST FSL TEXT
 DMF .                        :  DRILL MEAS FROM
 STIM.      16.29.52 23-Mar-20:  START TIME
 DATE.      16.29.52 23-Mar-20:  END TIME
 SPUD.               23-Mar-20:  SPUD DATE
 NREF.                    Grid:  NORTH REFERENCE
 HPTY.       Minimum Curvature:  HOLE POS TYPE
 DMOD.             Drill Model:  DRILL MOD DESC
 SVYD.                  Survey:  SURVEY DESC
 ILTD.               Lithology:  INTERP LTH DESC
 FTOP.          Formation Tops:  FORM TOPS DESC
 SON .        AZ-XX-0906252240:  JOB NUMBER
 RIG .             West Chirag:  RIG NAME
 PDAT.          Mean Sea Level:  PERMANENT DATUM
 FLD .                     ACG:  FIELD NAME
 CTRY.              Azerbaijan:  COUNTRY NAME
 WELL.           J23 (Slot 07):  WELL NAME
 SRVC.          Turan Drilling:  CONTRACTOR
 COMP.     BP Exploration (Casoian Sea) Ltd:  COMPANY
 WTYP.                Deviated:  WELL TYPE
 MDS .        Operator Entered:  MAG DATA SOURCE
 UWI .                     N/A:  UNIQUE WELL IDENTIFIER
 API .                     N/A:  API NUMBER
 BASE.              Azerbaijan:  LOGGING EQUIPMENT BASE LOCATION
 REGN.                   EESSA:  REGION
 PROV.                    Baku:  PROVINCE
 STAT.                    Baku:  STATE NAME
 MWDS.                     N/A:  MWD SHOP
 JOBN.        AZ-XX-0906252240:  JOB TICKET NUMB
 DOE .                     N/A:  DOE NUMBER
 DCON.         Sperry Drilling:  DIRECTNL CONTR
 UNIT.                     N/A:  LOGGING EQUIPMENT ID
 CNTY.                        :  COUNTY
 LOC .                        :  LOCATION
 LMF .             Drill Floor:  LOG MEASURED FROM
 TVDS.m                  43.00:  TVDSS CORRECTN
 LATI.deg                40.13:  LATITUDE
 LONG.deg                51.22:  LONGITUDE
 WHNS.m                   9.43:  WELL HEAD N/S
 WHEW.m                  -8.91:  WELL HEAD E/W
 UTMX.m              519005.06:  UTM X
 UTMY.m             4443793.85:  UTM Y
 DFWL.m                   0.00:  DISTANCE FWL
 DFSL.m                   0.00:  DISTANCE FSL
 SDEP.m                   0.00:  START DEPTH
 TDD .m                   0.00:  TOTAL DEPTH (DRILLER)
 VSDR.deg               179.88:  VERT SEC DIRECT
 GVFD.g                   1.00:  GRAVITY FIELD
 MFLD.nT              50281.00:  MAGNETIC FIELD
 MDIP.deg                59.58:  MAGNETIC DIP
 MDEC.deg                 6.48:  MAGNETIC DECL
 GRDC.deg                 0.14:  GRID CORRECTION
 AZTC.deg                 6.34:  AZM TOTAL CORR
 EPD .m                   0.00:  ELEVATION
 EGL .m                   0.00:  GROUND ELEVATION
 WDMS.m                 169.80:  WD ELEV
 APD .m                  43.00:  DEPTH ABOVE PD
 DEP .m                 354.17:  DEPTH
 AGAP.m                  43.00:  AIR GAP
 VSEW.m                  -8.91:  VERT SEC E/W
 VSNS.m                   9.43:  VERT SEC N/S
 EKB .m                   0.00:  KB ELEVATION
 EDF .m                  43.00:  DF ELEVATION
 TDL .m                1326.00:  TOTAL DEPTH (LOGGER)
 VSC .                       0:  VS TO CLOSURE
 MAGU.                 1850704:  MAGUTM CHECKSUM
~Parameter Information Block
#MNEM.UNIT       Value        Description
#---------     -----------    ---------------------------
 AV  .mps                 1.17:  Ann Velocity 
 AZIF.deg               184.04:  Azm, Final 
 BHAT.        Rotary Steerable:  BHA Type 
 BREV.rev            620000.00:  Rev Bit Total 
 BROT.°/30m               0.20:  Build Rotating 
 BS  .in                 14.75:  Bit Size 
 BSZ .in                 14.75:  Bit Size 
 BTPL.psig              618.00:  Bit Press Loss 
 CABU.                      No:  Customer Abuse 
 TCS .hr                 87.68:  Time Ciculation Ended 
 CV  .mps                 3.10:  Crit Velocity 
 DD1 .          Rashad Habibov:  Direct Drillr 1 
 DD2 .         Rasim Ibrahimov:  Direct Drillr 2 
 DDSV.               Geo-Pilot:  DD Service 
 DEFF.%                  98.00:  % Det Eff 
 DLRX.°/30m               1.48:  Dogleg Rot Max 
 DLSO.°/30m               0.50:  Dogleg Oriented 
 DLSX.°/30m               1.48:  Dogleg Str Max 
 DRET.      06.18.56 19-Apr-20:  Drill End Time 
 DRST.      15.00.56 15-Apr-20:  Drill Start Tim 
 DTIM.hr                 51.73:  Time Drilling 
 EDEP.m                3410.01:  End Depth 
 ENG1.        Marcelo Sandoval:  Engineer 1 
 ENG2.        Davud Huseynzade:  Engineer 2 
 ENG3.          Ruslan Safarov:  Engineer 3 
 ETIM.      04.00.56 20-Apr-20:  End Time 
 FLOI.gpm              1000.00:  Flow In 
 FLON.gpm               600.00:  Flow In Min 
 FLOS.cptm                0.00:  Fluid Loss 
 FLOX.gpm              1200.00:  Flow In Max 
 HFLO.                      No:  High Flow 
 HPRE.                     Yes:  High Pressure 
 HTEM.                      No:  High Temp 
 HYDO.m                   1.80:  Hydro Offset 
 IFIN.deg                70.04:  Inc, Final 
 IMAX.deg                70.56:  Inc Max 
 IMIN.deg                69.85:  Inc Min 
 IMND.m                3103.24:  Inc Min Depth 
 IMXD.m                2876.63:  Inc Max Depth 
 JARR.                      No:  Jarring 
 LETM.      06.18.56 19-Apr-20:  Log End Time 
 LOST.hr                     0:  Lost Rig Time 
 LSTM.      15.00.56 15-Apr-20:  Log Start Time 
 MDCL.ppm             42000.00:  Mud Chlorides 
 MDES.     Inversion Oil/Synthetic:  Mud Desc 
 DFD .sg                  1.58:  Mud Density 
 MDMN.sg                  1.58:  Dens Mud Min 
 MDMX.sg                  1.58:  Dens Mud Max 
 MOIL.                      71:  Run Mud Oil % 
 MOWR.                   71:29:  Run Mud OWR 
 MSND.                       0:  Run Mud Sand % 
 MSOL.                    23.3:  Run Mud Solids% 
 DFV .spqt               84.00:  Mud Viscosity 
 MWOD.in                  9.50:  MWD Tool OD 
 MWSI.                      No:  Serv Intrp, MWD 
 OTIM.hr                139.62:  Time Operating 
 PMAX.psia             5364.69:  Press Op, Max 
 PV  .cP                 80.00:  Mud PV 
 RUN .                     700:  Run Number 
 ROPA.m/hr               25.00:  ROP Avg 
 ROPN.m/hr               11.00:  ROP Min 
 ROPX.m/hr               36.00:  ROP Max 
 RPMA.rpm               130.00:  RPM Surface Avg 
 RPMN.rpm               120.00:  RPM Surface Min 
 RPMX.rpm               140.00:  RPM Surface Max 
 RRUN.                    0700:  Rig Run Number 
 SAZI.deg               183.25:  Azm, Start 
 SDEP.m                2084.00:  Start Depth 
 SIDD.                      No:  Serv Intrp, DD 
 SINC.deg                70.38:  Inc, Start 
 SPPA.psig             4800.00:  SPP Avg 
 SPPN.psig             4400.00:  SPP Min 
 SPPX.psig             5350.00:  SPP Max 
 STIM.      16.30.56 14-Apr-20:  Start Time 
 SVCS.                 DD, MWD:  Services 
 SVER.                    9.20:  Sperry Version 
 TDAT.m                1326.00:  Tot Depth Attmp 
 TDDF.                      No:  Trip for DD 
 TDLG.m                1326.00:  Tot Depth Loggd 
 TFF .                      No:  Trip for Fail 
 TQAA.f-kp               19.00:  Torque Abs Avg 
 TQAN.f-kp                8.00:  Torque Abs Min 
 TQAX.f-kp               27.00:  Torque Abs Max 
 TRRT.°/30m               0.50:  Turn Rotating 
 MRT .                    HCIM:  Maximum Recorded Temperature 
 TTMX.degC               82.35:  Max Tool Temp 
 VS01.       905245875X1Z1W1C8:  Virtual Str1 SN 
 VS02.       90608022F11V7D1A9:  Virtual Str2 SN 
 VS03.            90605473R5C9:  Virtual Str3 SN 
 WBMN.klb                11.00:  WOB Min 
 WOBA.klb                21.00:  WOB Avg 
 WOBX.klb                30.00:  WOB Max 
 YP  .lhf2               45.00:  Yield Point 
~Curve Information Block
#MNEM.UNIT                 API CODE     Curve Description
#---------               -----------    ---------------------------
 TIME.HHMMSS            00 000 000 000:  GT Time & Date
 GTDEPTH.m              00 000 000 000:  GT Depth
 GTPQH.psia             00 000 000 000:  GT HR Quartz Pressure
 GTTQ.degC              00 000 000 000:  GT Quartz Temperature
 GTTN.NONE              00 000 000 000:  GT Test Number
 GTET.sec               00 000 000 000:  GT Elapsed Test Time
 GTTVD.m                00 000 000 000:  GT True Vertical Depth
#Other Information
#
#WARRANTY: Halliburton will use its best efforts to furnish customers with 
#accurate information and interpretations that are part of, and incident to, the services 
#provided.  However, Halliburton cannot and does not warrant the accuracy 
#or correctness of such information and interpretations.  Under no circumstances should any 
#such information or interpretation be relied upon as the sole basis for any drilling, 
#completion, production, or financial decision or any procedure involving any risk to the 
#safety of any drilling venture, drilling rig or its crew or any other third party.  The 
#Customer has full responsibility for all drilling, completion and production operation.  
#Halliburton makes no representations or warranties, either expressed or 
#implied, including, but not limited to, the implied warranties of merchantability or fitness 
#for a particular purpose, with respect to the services rendered.  In no event will 
#Halliburton be liable for failure to obtain any particular results or for 
#any damages, including, but not limited to, indirect, special or consequential damages, 
#resulting from the use of any information or interpretation provided by Halliburton.
#
~A           TIME           GTDEPTH  GTPQH  GTTQ  GTTN  GTET   GTTVD  
# ...
   08:53:10.397.18-Apr-2020 3032.52 3389.21 68.47 3.00 368.05 1949.78
   08:53:10.597.18-Apr-2020 3032.52 3389.21 68.47 3.00 368.25 1949.78
   08:53:10.797.18-Apr-2020 3032.52 3389.21 68.47 3.00 368.45 1949.78
   08:53:10.997.18-Apr-2020 3032.52 3389.24 68.47 3.00 368.65 1949.78
   08:53:11.197.18-Apr-2020 3032.52 3389.22 68.47 3.00 368.85 1949.78
   08:53:11.397.18-Apr-2020 3032.52 3389.20 68.47 3.00 369.05 1949.78
   08:53:11.597.18-Apr-2020 3032.52 3389.20 68.47 3.00 369.25 1949.78
   08:53:11.797.18-Apr-2020 3032.52 3389.22 68.46 3.00 369.45 1949.78
   08:53:11.997.18-Apr-2020 3032.52 3389.22 68.46 3.00 369.65 1949.78
   08:53:12.197.18-Apr-2020 3032.52 3389.21 68.46 3.00 369.85 1949.78
   08:53:12.397.18-Apr-2020 3032.52 3389.24 68.46 3.00 370.05 1949.78
   08:53:12.597.18-Apr-2020 3032.52 3389.24 68.46 3.00 370.25 1949.78
   08:53:12.797.18-Apr-2020 3032.52 3389.22 68.46 3.00 370.45 1949.78
   08:53:12.997.18-Apr-2020 3032.52 3389.20 68.46 3.00 370.65 1949.78
   08:53:13.197.18-Apr-2020 3032.52 3389.22 68.46 3.00 370.85 1949.78
   08:53:13.397.18-Apr-2020 3032.52 3389.24 68.46 3.00 371.05 1949.78
   08:53:13.597.18-Apr-2020 3032.52 3389.24 68.46 3.00 371.25 1949.78
   08:53:13.797.18-Apr-2020 3032.52 3389.20 68.46 3.00 371.45 1949.78
   08:53:13.997.18-Apr-2020 3032.52 3389.21 68.45 3.00 371.65 1949.78
   08:53:14.197.18-Apr-2020 3032.52 3389.22 68.45 3.00 371.85 1949.78
   08:53:14.397.18-Apr-2020 3032.52 3389.23 68.45 3.00 372.05 1949.78
   08:53:14.597.18-Apr-2020 3032.52 3389.23 68.45 3.00 372.25 1949.78
   08:53:14.797.18-Apr-2020 3032.52 3389.20 68.45 3.00 372.45 1949.78
   08:53:14.997.18-Apr-2020 3032.52 3389.22 68.45 3.00 372.65 1949.78
   08:53:15.197.18-Apr-2020 3032.52 3389.21 68.45 3.00 372.85 1949.78
   08:53:15.397.18-Apr-2020 3032.52 3389.21 68.45 3.00 373.05 1949.78
   08:53:15.597.18-Apr-2020 3032.52 3389.21 68.45 3.00 373.25 1949.78
   08:53:15.797.18-Apr-2020 3032.52 3389.20 68.45 3.00 373.45 1949.78
   08:53:15.997.18-Apr-2020 3032.52 3389.21 68.45 3.00 373.65 1949.78
   08:53:16.197.18-Apr-2020 3032.52 3389.20 68.44 3.00 373.85 1949.78
   08:53:16.398.18-Apr-2020 3032.52 3389.20 68.44 3.00 374.05 1949.78
   08:53:16.598.18-Apr-2020 3032.52 3389.20 68.44 3.00 374.25 1949.78
   08:53:16.798.18-Apr-2020 3032.52 3389.20 68.44 3.00 374.45 1949.78
   08:53:16.998.18-Apr-2020 3032.52 3389.19 68.44 3.00 374.65 1949.78
   08:53:17.198.18-Apr-2020 3032.52 3389.22 68.44 3.00 374.85 1949.78
   08:53:17.398.18-Apr-2020 3032.52 3389.21 68.44 3.00 375.05 1949.78
   08:53:17.598.18-Apr-2020 3032.52 3389.21 68.44 3.00 375.25 1949.78
   08:53:17.798.18-Apr-2020 3032.52 3389.20 68.44 3.00 375.45 1949.78
   08:53:17.998.18-Apr-2020 3032.52 3389.21 68.44 3.00 375.65 1949.78
   08:53:18.198.18-Apr-2020 3032.52 3389.20 68.44 3.00 375.85 1949.78
   08:53:18.398.18-Apr-2020 3032.52 3389.20 68.44 3.00 376.05 1949.78
   08:53:18.598.18-Apr-2020 3032.52 3389.20 68.43 3.00 376.25 1949.78
   08:53:18.798.18-Apr-2020 3032.52 3389.20 68.43 3.00 376.45 1949.78
   08:53:18.998.18-Apr-2020 3032.52 3389.20 68.43 3.00 376.65 1949.78
   08:53:19.198.18-Apr-2020 3032.52 3389.20 68.43 3.00 376.85 1949.78
   08:53:19.398.18-Apr-2020 3032.52 3389.20 68.43 3.00 377.05 1949.78
   08:53:19.598.18-Apr-2020 3032.52 3389.19 68.43 3.00 377.25 1949.78
   08:53:19.798.18-Apr-2020 3032.52 3389.24 68.43 3.00 377.45 1949.78
   08:53:19.998.18-Apr-2020 3032.52 3389.24 68.43 3.00 377.65 1949.78
   08:53:20.198.18-Apr-2020 3032.52 3389.22 68.43 3.00 377.85 1949.78
   08:53:20.398.18-Apr-2020 3032.52 3389.24 68.43 3.00 378.05 1949.78
   08:53:20.598.18-Apr-2020 3032.52 3389.24 68.43 3.00 378.25 1949.78
   08:53:20.798.18-Apr-2020 3032.52 3389.23 68.42 3.00 378.45 1949.78
   08:53:20.998.18-Apr-2020 3032.52 3389.22 68.42 3.00 378.65 1949.78
   08:53:21.198.18-Apr-2020 3032.52 3389.21 68.42 3.00 378.85 1949.78
   08:53:21.398.18-Apr-2020 3032.52 3389.24 68.42 3.00 379.05 1949.78
   08:53:21.598.18-Apr-2020 3032.52 3389.24 68.42 3.00 379.25 1949.78
   08:53:21.798.18-Apr-2020 3032.52 3389.21 68.42 3.00 379.45 1949.78
   08:53:21.998.18-Apr-2020 3032.52 3390.51 68.42 3.00 379.65 1949.78
   08:53:22.198.18-Apr-2020 3032.52 3401.85 68.42 3.00 379.85 1949.78
   08:53:22.398.18-Apr-2020 3032.52 3442.64 68.42 3.00 380.05 1949.78
   08:53:22.598.18-Apr-2020 3032.52 3442.64 68.42 3.00 380.25 1949.78
   08:53:22.798.18-Apr-2020 3032.52 3537.33 68.42 3.00 380.45 1949.78
   08:53:22.998.18-Apr-2020 3032.52 3581.41 68.42 3.00 380.65 1949.78
   08:53:23.198.18-Apr-2020 3032.52 3523.03 68.41 3.00 380.85 1949.78
   08:53:23.398.18-Apr-2020 3032.52 3373.09 68.41 3.00 381.05 1949.78
   08:53:23.598.18-Apr-2020 3032.52 3373.09 68.41 3.00 381.25 1949.78
   08:53:23.799.18-Apr-2020 3032.52 3370.80 68.41 3.00 381.45 1949.78
   08:53:23.999.18-Apr-2020 3032.52 3378.65 68.41 3.00 381.65 1949.78
   08:53:24.199.18-Apr-2020 3032.52 3384.33 68.41 3.00 381.85 1949.78
   08:53:24.399.18-Apr-2020 3032.52 3422.23 68.41 3.00 382.05 1949.78
   08:53:24.599.18-Apr-2020 3032.52 3422.23 68.41 3.00 382.25 1949.78
   08:53:24.799.18-Apr-2020 3032.52 4477.41 68.41 3.00 382.45 1949.78
   08:53:24.999.18-Apr-2020 3032.52 4476.84 68.41 3.00 382.65 1949.78
   08:53:25.199.18-Apr-2020 3032.52 4476.54 68.41 3.00 382.85 1949.78
   08:53:25.399.18-Apr-2020 3032.52 4476.10 68.41 3.00 383.05 1949.78
   08:53:25.599.18-Apr-2020 3032.52 4476.10 68.41 3.00 383.25 1949.78
   08:53:25.799.18-Apr-2020 3032.52 4476.69 68.40 3.00 383.45 1949.78
   08:53:25.999.18-Apr-2020 3032.52 4475.01 68.40 3.00 383.65 1949.78
   08:53:26.199.18-Apr-2020 3032.52 4477.89 68.40 3.00 383.85 1949.78
   08:53:26.399.18-Apr-2020 3032.52 4477.91 68.40 3.00 384.05 1949.78
   08:53:26.599.18-Apr-2020 3032.52 4477.91 68.40 3.00 384.25 1949.78
   08:53:26.799.18-Apr-2020 3032.52 4478.97 68.40 3.00 384.45 1949.78
   08:53:26.999.18-Apr-2020 3032.52 4479.14 68.40 3.00 384.65 1949.78
   08:53:27.199.18-Apr-2020 3032.52 4479.06 68.40 3.00 384.85 1949.78
   08:53:27.399.18-Apr-2020 3032.52 4479.61 68.40 3.00 385.05 1949.78
   08:53:27.599.18-Apr-2020 3032.52 4479.24 68.40 3.00 385.25 1949.78
   08:53:27.799.18-Apr-2020 3032.52 4479.15 68.40 3.00 385.45 1949.78
   08:53:27.999.18-Apr-2020 3032.52 4479.02 68.40 3.00 385.65 1949.78
   08:53:28.199.18-Apr-2020 3032.52 4479.58 68.40 3.00 385.85 1949.78
   08:53:28.399.18-Apr-2020 3032.52 4479.55 68.40 3.00 386.05 1949.78
   08:53:28.599.18-Apr-2020 3032.52 4479.55 68.40 3.00 386.25 1949.78
   08:53:28.799.18-Apr-2020 3032.52 4480.57 68.40 3.00 386.45 1949.78
   08:53:28.999.18-Apr-2020 3032.52 4480.50 68.40 3.00 386.65 1949.78
   08:53:29.199.18-Apr-2020 3032.52 4478.97 68.40 3.00 386.85 1949.78
   08:53:29.399.18-Apr-2020 3032.52 4479.41 68.40 3.00 387.05 1949.78
   08:53:29.599.18-Apr-2020 3032.52 4479.41 68.40 3.00 387.25 1949.78
   08:53:29.799.18-Apr-2020 3032.52 4480.89 68.40 3.00 387.45 1949.78
   08:53:29.999.18-Apr-2020 3032.52 4479.50 68.40 3.00 387.65 1949.78
   08:53:30.199.18-Apr-2020 3032.52 4479.04 68.40 3.00 387.85 1949.78
   08:53:30.399.18-Apr-2020 3032.52 4480.90 68.40 3.00 388.05 1949.78
   08:53:30.599.18-Apr-2020 3032.52 4480.64 68.40 3.00 388.25 1949.78
   08:53:30.799.18-Apr-2020 3032.52 4479.93 68.40 3.00 388.45 1949.78
   08:53:30.999.18-Apr-2020 3032.52 4477.73 68.40 3.00 388.65 1949.78
   08:53:31.200.18-Apr-2020 3032.52 4480.70 68.40 3.00 388.85 1949.78
   08:53:31.400.18-Apr-2020 3032.52 4480.87 68.40 3.00 389.05 1949.78
   08:53:31.600.18-Apr-2020 3032.52 4480.70 68.40 3.00 389.25 1949.78
   08:53:31.800.18-Apr-2020 3032.52 4479.78 68.40 3.00 389.45 1949.78
   08:53:32.000.18-Apr-2020 3032.52 4478.22 68.39 3.00 389.65 1949.78
   08:53:32.200.18-Apr-2020 3032.52 4481.46 68.39 3.00 389.85 1949.78
   08:53:32.400.18-Apr-2020 3032.52 4480.67 68.39 3.00 390.05 1949.78
   08:53:32.600.18-Apr-2020 3032.52 4480.67 68.39 3.00 390.25 1949.78
   08:53:32.800.18-Apr-2020 3032.52 4480.83 68.39 3.00 390.45 1949.78
   08:53:33.000.18-Apr-2020 3032.52 4481.92 68.39 3.00 390.65 1949.78
   08:53:33.200.18-Apr-2020 3032.52 4481.28 68.39 3.00 390.85 1949.78
