~Version Information
 VERS.                  2.0:   CWLS log ASCII Standard -VERSION 2.0
 WRAP.                   NO:   One line per depth step
~Well Information Block
#MNEM.UNIT     VALUE/NAME     DESCRIPTION
#---------     -----------    ---------------------------
 STRT.S             15:35:19 18-Apr-20: START TIME 15:35:19 18-Apr-20
 STOP.S             15:42:14 18-Apr-20: STOP TIME  15:42:14 18-Apr-20
 STEP.S                   0.00: STEP TIME
 NULL.                 -999.25: NULL VALUE
 DFWT.                        :  DIST FWL TEXT
 DFST.                        :  DIST FSL TEXT
 DMF .                        :  DRILL MEAS FROM
 STIM.      16.29.52 23-Mar-20:  START TIME
 DATE.      16.29.52 23-Mar-20:  END TIME
 SPUD.               23-Mar-20:  SPUD DATE
 NREF.                    Grid:  NORTH REFERENCE
 HPTY.       Minimum Curvature:  HOLE POS TYPE
 DMOD.             Drill Model:  DRILL MOD DESC
 SVYD.                  Survey:  SURVEY DESC
 ILTD.               Lithology:  INTERP LTH DESC
 FTOP.          Formation Tops:  FORM TOPS DESC
 SON .        AZ-XX-0906252240:  JOB NUMBER
 RIG .             West Chirag:  RIG NAME
 PDAT.          Mean Sea Level:  PERMANENT DATUM
 FLD .                     ACG:  FIELD NAME
 CTRY.              Azerbaijan:  COUNTRY NAME
 WELL.           J23 (Slot 07):  WELL NAME
 SRVC.          Turan Drilling:  CONTRACTOR
 COMP.     BP Exploration (Casoian Sea) Ltd:  COMPANY
 WTYP.                Deviated:  WELL TYPE
 MDS .        Operator Entered:  MAG DATA SOURCE
 UWI .                     N/A:  UNIQUE WELL IDENTIFIER
 API .                     N/A:  API NUMBER
 BASE.              Azerbaijan:  LOGGING EQUIPMENT BASE LOCATION
 REGN.                   EESSA:  REGION
 PROV.                    Baku:  PROVINCE
 STAT.                    Baku:  STATE NAME
 MWDS.                     N/A:  MWD SHOP
 JOBN.        AZ-XX-0906252240:  JOB TICKET NUMB
 DOE .                     N/A:  DOE NUMBER
 DCON.         Sperry Drilling:  DIRECTNL CONTR
 UNIT.                     N/A:  LOGGING EQUIPMENT ID
 CNTY.                        :  COUNTY
 LOC .                        :  LOCATION
 LMF .             Drill Floor:  LOG MEASURED FROM
 TVDS.m                  43.00:  TVDSS CORRECTN
 LATI.deg                40.13:  LATITUDE
 LONG.deg                51.22:  LONGITUDE
 WHNS.m                   9.43:  WELL HEAD N/S
 WHEW.m                  -8.91:  WELL HEAD E/W
 UTMX.m              519005.06:  UTM X
 UTMY.m             4443793.85:  UTM Y
 DFWL.m                   0.00:  DISTANCE FWL
 DFSL.m                   0.00:  DISTANCE FSL
 SDEP.m                   0.00:  START DEPTH
 TDD .m                   0.00:  TOTAL DEPTH (DRILLER)
 VSDR.deg               179.88:  VERT SEC DIRECT
 GVFD.g                   1.00:  GRAVITY FIELD
 MFLD.nT              50281.00:  MAGNETIC FIELD
 MDIP.deg                59.58:  MAGNETIC DIP
 MDEC.deg                 6.48:  MAGNETIC DECL
 GRDC.deg                 0.14:  GRID CORRECTION
 AZTC.deg                 6.34:  AZM TOTAL CORR
 EPD .m                   0.00:  ELEVATION
 EGL .m                   0.00:  GROUND ELEVATION
 WDMS.m                 169.80:  WD ELEV
 APD .m                  43.00:  DEPTH ABOVE PD
 DEP .m                 354.17:  DEPTH
 AGAP.m                  43.00:  AIR GAP
 VSEW.m                  -8.91:  VERT SEC E/W
 VSNS.m                   9.43:  VERT SEC N/S
 EKB .m                   0.00:  KB ELEVATION
 EDF .m                  43.00:  DF ELEVATION
 TDL .m                1326.00:  TOTAL DEPTH (LOGGER)
 VSC .                       0:  VS TO CLOSURE
 MAGU.                 1850704:  MAGUTM CHECKSUM
~Parameter Information Block
#MNEM.UNIT       Value        Description
#---------     -----------    ---------------------------
 AV  .mps                 1.17:  Ann Velocity 
 AZIF.deg               184.04:  Azm, Final 
 BHAT.        Rotary Steerable:  BHA Type 
 BREV.rev            620000.00:  Rev Bit Total 
 BROT.°/30m               0.20:  Build Rotating 
 BS  .in                 14.75:  Bit Size 
 BSZ .in                 14.75:  Bit Size 
 BTPL.psig              618.00:  Bit Press Loss 
 CABU.                      No:  Customer Abuse 
 COMM.                     ü—`:  Run Comments 1 
 TCS .hr                 87.68:  Time Ciculation Ended 
 CV  .mps                 3.10:  Crit Velocity 
 DD1 .          Rashad Habibov:  Direct Drillr 1 
 DD2 .         Rasim Ibrahimov:  Direct Drillr 2 
 DDSV.               Geo-Pilot:  DD Service 
 DEFF.%                  98.00:  % Det Eff 
 DLRX.°/30m               1.48:  Dogleg Rot Max 
 DLSO.°/30m               0.50:  Dogleg Oriented 
 DLSX.°/30m               1.48:  Dogleg Str Max 
 DRET.      06.18.56 19-Apr-20:  Drill End Time 
 DRST.      15.00.56 15-Apr-20:  Drill Start Tim 
 DTIM.hr                 51.73:  Time Drilling 
 EDEP.m                3410.01:  End Depth 
 ENG1.        Marcelo Sandoval:  Engineer 1 
 ENG2.        Davud Huseynzade:  Engineer 2 
 ENG3.          Ruslan Safarov:  Engineer 3 
 ETIM.      04.00.56 20-Apr-20:  End Time 
 FLOI.gpm              1000.00:  Flow In 
 FLON.gpm               600.00:  Flow In Min 
 FLOS.cptm                0.00:  Fluid Loss 
 FLOX.gpm              1200.00:  Flow In Max 
 HFLO.                      No:  High Flow 
 HPRE.                     Yes:  High Pressure 
 HTEM.                      No:  High Temp 
 HYDO.m                   1.80:  Hydro Offset 
 IFIN.deg                70.04:  Inc, Final 
 IMAX.deg                70.56:  Inc Max 
 IMIN.deg                69.85:  Inc Min 
 IMND.m                3103.24:  Inc Min Depth 
 IMXD.m                2876.63:  Inc Max Depth 
 JARR.                      No:  Jarring 
 LETM.      06.18.56 19-Apr-20:  Log End Time 
 LOST.hr                     0:  Lost Rig Time 
 LSTM.      15.00.56 15-Apr-20:  Log Start Time 
 MDCL.ppm             42000.00:  Mud Chlorides 
 MDES.     Inversion Oil/Synthetic:  Mud Desc 
 DFD .sg                  1.58:  Mud Density 
 MDMN.sg                  1.58:  Dens Mud Min 
 MDMX.sg                  1.58:  Dens Mud Max 
 MOIL.                      71:  Run Mud Oil % 
 MOWR.                   71:29:  Run Mud OWR 
 MSND.                       0:  Run Mud Sand % 
 MSOL.                    23.3:  Run Mud Solids% 
 DFV .spqt               84.00:  Mud Viscosity 
 MWOD.in                  9.50:  MWD Tool OD 
 MWSI.                      No:  Serv Intrp, MWD 
 OTIM.hr                139.62:  Time Operating 
 PMAX.psia             5364.69:  Press Op, Max 
 PV  .cP                 80.00:  Mud PV 
 RUN .                     700:  Run Number 
 ROPA.m/hr               25.00:  ROP Avg 
 ROPN.m/hr               11.00:  ROP Min 
 ROPX.m/hr               36.00:  ROP Max 
 RPMA.rpm               130.00:  RPM Surface Avg 
 RPMN.rpm               120.00:  RPM Surface Min 
 RPMX.rpm               140.00:  RPM Surface Max 
 RRUN.                    0700:  Rig Run Number 
 SAZI.deg               183.25:  Azm, Start 
 SDEP.m                2084.00:  Start Depth 
 SIDD.                      No:  Serv Intrp, DD 
 SINC.deg                70.38:  Inc, Start 
 SPPA.psig             4800.00:  SPP Avg 
 SPPN.psig             4400.00:  SPP Min 
 SPPX.psig             5350.00:  SPP Max 
 STIM.      16.30.56 14-Apr-20:  Start Time 
 SVCS.                 DD, MWD:  Services 
 SVER.                    9.20:  Sperry Version 
 TDAT.m                1326.00:  Tot Depth Attmp 
 TDDF.                      No:  Trip for DD 
 TDLG.m                1326.00:  Tot Depth Loggd 
 TFF .                      No:  Trip for Fail 
 TQAA.f-kp               19.00:  Torque Abs Avg 
 TQAN.f-kp                8.00:  Torque Abs Min 
 TQAX.f-kp               27.00:  Torque Abs Max 
 TRRT.°/30m               0.50:  Turn Rotating 
 MRT .                    HCIM:  Maximum Recorded Temperature 
 TTMX.degC               82.35:  Max Tool Temp 
 VS01.       905245875X1Z1W1C8:  Virtual Str1 SN 
 VS02.       90608022F11V7D1A9:  Virtual Str2 SN 
 VS03.            90605473R5C9:  Virtual Str3 SN 
 WBMN.klb                11.00:  WOB Min 
 WOBA.klb                21.00:  WOB Avg 
 WOBX.klb                30.00:  WOB Max 
 YP  .lhf2               45.00:  Yield Point 
~Curve Information Block
#MNEM.UNIT                 API CODE     Curve Description
#---------               -----------    ---------------------------
 TIME.HHMMSS            00 000 000 000:  GT Time & Date
 GTDEPTH.m              00 000 000 000:  GT Depth
 GTPQH.psia             00 000 000 000:  GT HR Quartz Pressure
 GTTQ.degC              00 000 000 000:  GT Quartz Temperature
 GTTN.NONE              00 000 000 000:  GT Test Number
 GTET.sec               00 000 000 000:  GT Elapsed Test Time
 GTTVD.m                00 000 000 000:  GT True Vertical Depth
#Other Information
#
#WARRANTY: Halliburton will use its best efforts to furnish customers with 
#accurate information and interpretations that are part of, and incident to, the services 
#provided.  However, Halliburton cannot and does not warrant the accuracy 
#or correctness of such information and interpretations.  Under no circumstances should any 
#such information or interpretation be relied upon as the sole basis for any drilling, 
#completion, production, or financial decision or any procedure involving any risk to the 
#safety of any drilling venture, drilling rig or its crew or any other third party.  The 
#Customer has full responsibility for all drilling, completion and production operation.  
#Halliburton makes no representations or warranties, either expressed or 
#implied, including, but not limited to, the implied warranties of merchantability or fitness 
#for a particular purpose, with respect to the services rendered.  In no event will 
#Halliburton be liable for failure to obtain any particular results or for 
#any damages, including, but not limited to, indirect, special or consequential damages, 
#resulting from the use of any information or interpretation provided by Halliburton.
#
~A           TIME           GTDEPTH  GTPQH  GTTQ  GTTN  GTET   GTTVD  
# ...
   15:39:32.329.18-Apr-2020 3140.87 1526.75 70.94 6.00 252.97 1986.80
   15:39:32.529.18-Apr-2020 3140.87 1526.75 70.94 6.00 253.17 1986.80
   15:39:32.729.18-Apr-2020 3140.87 1526.76 70.94 6.00 253.37 1986.80
   15:39:32.929.18-Apr-2020 3140.87 1526.77 70.94 6.00 253.57 1986.80
   15:39:33.129.18-Apr-2020 3140.87 1526.77 70.94 6.00 253.77 1986.80
   15:39:33.329.18-Apr-2020 3140.87 1526.79 70.94 6.00 253.97 1986.80
   15:39:33.529.18-Apr-2020 3140.87 1526.79 70.94 6.00 254.17 1986.80
   15:39:33.729.18-Apr-2020 3140.87 1526.79 70.94 6.00 254.37 1986.80
   15:39:33.929.18-Apr-2020 3140.87 1526.80 70.93 6.00 254.57 1986.80
   15:39:34.129.18-Apr-2020 3140.87 1526.84 70.93 6.00 254.77 1986.80
   15:39:34.329.18-Apr-2020 3140.87 1526.85 70.93 6.00 254.97 1986.80
   15:39:34.529.18-Apr-2020 3140.87 1526.85 70.93 6.00 255.17 1986.80
   15:39:34.729.18-Apr-2020 3140.87 1526.90 70.93 6.00 255.37 1986.80
   15:39:34.929.18-Apr-2020 3140.87 1526.92 70.93 6.00 255.57 1986.80
   15:39:35.129.18-Apr-2020 3140.87 1526.93 70.93 6.00 255.77 1986.80
   15:39:35.329.18-Apr-2020 3140.87 1526.95 70.93 6.00 255.97 1986.80
   15:39:35.528.18-Apr-2020 3140.87 1526.95 70.93 6.00 256.17 1986.80
   15:39:35.728.18-Apr-2020 3140.87 1527.00 70.93 6.00 256.37 1986.80
   15:39:35.928.18-Apr-2020 3140.87 1527.04 70.93 6.00 256.57 1986.80
   15:39:36.128.18-Apr-2020 3140.87 1527.06 70.93 6.00 256.77 1986.80
   15:39:36.328.18-Apr-2020 3140.87 1527.09 70.93 6.00 256.97 1986.80
   15:39:36.528.18-Apr-2020 3140.87 1527.09 70.93 6.00 257.17 1986.80
   15:39:36.728.18-Apr-2020 3140.87 1527.12 70.92 6.00 257.37 1986.80
   15:39:36.928.18-Apr-2020 3140.87 1527.17 70.92 6.00 257.57 1986.80
   15:39:37.128.18-Apr-2020 3140.87 1527.20 70.92 6.00 257.77 1986.80
   15:39:37.328.18-Apr-2020 3140.87 1527.23 70.92 6.00 257.97 1986.80
   15:39:37.528.18-Apr-2020 3140.87 1527.23 70.92 6.00 258.17 1986.80
   15:39:37.728.18-Apr-2020 3140.87 1527.31 70.92 6.00 258.37 1986.80
   15:39:37.928.18-Apr-2020 3140.87 1527.33 70.92 6.00 258.57 1986.80
   15:39:38.128.18-Apr-2020 3140.87 1527.35 70.92 6.00 258.77 1986.80
   15:39:38.328.18-Apr-2020 3140.87 1527.37 70.92 6.00 258.97 1986.80
   15:39:38.528.18-Apr-2020 3140.87 1527.37 70.92 6.00 259.17 1986.80
   15:39:38.728.18-Apr-2020 3140.87 1527.40 70.92 6.00 259.37 1986.80
   15:39:38.928.18-Apr-2020 3140.87 1527.43 70.91 6.00 259.57 1986.80
   15:39:39.128.18-Apr-2020 3140.87 1527.43 70.91 6.00 259.77 1986.80
   15:39:39.328.18-Apr-2020 3140.87 1527.46 70.91 6.00 259.97 1986.80
   15:39:39.528.18-Apr-2020 3140.87 1527.46 70.91 6.00 260.17 1986.80
   15:39:39.728.18-Apr-2020 3140.87 1527.48 70.91 6.00 260.37 1986.80
   15:39:39.928.18-Apr-2020 3140.87 1527.49 70.91 6.00 260.57 1986.80
   15:39:40.128.18-Apr-2020 3140.87 1527.50 70.91 6.00 260.77 1986.80
   15:39:40.328.18-Apr-2020 3140.87 1527.50 70.91 6.00 260.97 1986.80
   15:39:40.528.18-Apr-2020 3140.87 1527.50 70.91 6.00 261.17 1986.80
   15:39:40.728.18-Apr-2020 3140.87 1527.56 70.91 6.00 261.37 1986.80
   15:39:40.928.18-Apr-2020 3140.87 1527.57 70.91 6.00 261.57 1986.80
   15:39:41.128.18-Apr-2020 3140.87 1527.58 70.91 6.00 261.77 1986.80
   15:39:41.328.18-Apr-2020 3140.87 1527.59 70.90 6.00 261.97 1986.80
   15:39:41.528.18-Apr-2020 3140.87 1527.59 70.90 6.00 262.17 1986.80
   15:39:41.728.18-Apr-2020 3140.87 1527.62 70.90 6.00 262.37 1986.80
   15:39:41.928.18-Apr-2020 3140.87 1527.63 70.90 6.00 262.57 1986.80
   15:39:42.128.18-Apr-2020 3140.87 1527.64 70.90 6.00 262.77 1986.80
   15:39:42.328.18-Apr-2020 3140.87 1527.65 70.90 6.00 262.97 1986.80
   15:39:42.528.18-Apr-2020 3140.87 1527.65 70.90 6.00 263.17 1986.80
   15:39:42.728.18-Apr-2020 3140.87 1527.67 70.90 6.00 263.37 1986.80
   15:39:42.928.18-Apr-2020 3140.87 1527.66 70.90 6.00 263.57 1986.80
   15:39:43.128.18-Apr-2020 3140.87 1527.68 70.90 6.00 263.77 1986.80
   15:39:43.328.18-Apr-2020 3140.87 1527.71 70.90 6.00 263.97 1986.80
   15:39:43.528.18-Apr-2020 3140.87 1527.70 70.90 6.00 264.17 1986.80
   15:39:43.728.18-Apr-2020 3140.87 1527.73 70.89 6.00 264.37 1986.80
   15:39:43.928.18-Apr-2020 3140.87 1527.76 70.89 6.00 264.57 1986.80
   15:39:44.127.18-Apr-2020 3140.87 1527.76 70.89 6.00 264.77 1986.80
   15:39:44.327.18-Apr-2020 3140.87 1527.76 70.89 6.00 264.97 1986.80
   15:39:44.527.18-Apr-2020 3140.87 1527.78 70.89 6.00 265.17 1986.80
   15:39:44.727.18-Apr-2020 3140.87 1527.77 70.89 6.00 265.37 1986.80
   15:39:44.927.18-Apr-2020 3140.87 1527.81 70.89 6.00 265.57 1986.80
   15:39:45.127.18-Apr-2020 3140.87 1527.82 70.89 6.00 265.77 1986.80
   15:39:45.327.18-Apr-2020 3140.87 1527.83 70.89 6.00 265.97 1986.80
   15:39:45.527.18-Apr-2020 3140.87 1527.83 70.89 6.00 266.17 1986.80
   15:39:45.727.18-Apr-2020 3140.87 1527.84 70.89 6.00 266.37 1986.80
   15:39:45.927.18-Apr-2020 3140.87 1527.85 70.89 6.00 266.57 1986.80
   15:39:46.127.18-Apr-2020 3140.87 1527.90 70.89 6.00 266.77 1986.80
   15:39:46.327.18-Apr-2020 3140.87 1527.90 70.88 6.00 266.97 1986.80
   15:39:46.527.18-Apr-2020 3140.87 1527.90 70.88 6.00 267.17 1986.80
   15:39:46.727.18-Apr-2020 3140.87 1527.93 70.88 6.00 267.37 1986.80
   15:39:46.927.18-Apr-2020 3140.87 1527.95 70.88 6.00 267.57 1986.80
   15:39:47.127.18-Apr-2020 3140.87 1527.96 70.88 6.00 267.77 1986.80
   15:39:47.327.18-Apr-2020 3140.87 1527.97 70.88 6.00 267.97 1986.80
   15:39:47.527.18-Apr-2020 3140.87 1527.98 70.88 6.00 268.17 1986.80
   15:39:47.727.18-Apr-2020 3140.87 1527.99 70.88 6.00 268.37 1986.80
   15:39:47.927.18-Apr-2020 3140.87 1528.01 70.88 6.00 268.57 1986.80
   15:39:48.127.18-Apr-2020 3140.87 1528.02 70.88 6.00 268.77 1986.80
   15:39:48.327.18-Apr-2020 3140.87 1528.03 70.88 6.00 268.97 1986.80
   15:39:48.527.18-Apr-2020 3140.87 1528.05 70.88 6.00 269.17 1986.80
   15:39:48.727.18-Apr-2020 3140.87 1528.05 70.87 6.00 269.37 1986.80
   15:39:48.927.18-Apr-2020 3140.87 1528.07 70.87 6.00 269.57 1986.80
   15:39:49.127.18-Apr-2020 3140.87 1528.09 70.87 6.00 269.77 1986.80
   15:39:49.327.18-Apr-2020 3140.87 1528.09 70.87 6.00 269.97 1986.80
   15:39:49.527.18-Apr-2020 3140.87 1528.09 70.87 6.00 270.17 1986.80
   15:39:49.727.18-Apr-2020 3140.87 1528.16 70.87 6.00 270.37 1986.80
   15:39:49.927.18-Apr-2020 3140.87 1528.17 70.87 6.00 270.57 1986.80
   15:39:50.127.18-Apr-2020 3140.87 1528.19 70.87 6.00 270.77 1986.80
   15:39:50.327.18-Apr-2020 3140.87 1528.20 70.87 6.00 270.97 1986.80
   15:39:50.527.18-Apr-2020 3140.87 1528.20 70.87 6.00 271.17 1986.80
   15:39:50.727.18-Apr-2020 3140.87 1528.22 70.87 6.00 271.37 1986.80
   15:39:50.927.18-Apr-2020 3140.87 1528.23 70.87 6.00 271.57 1986.80
   15:39:51.127.18-Apr-2020 3140.87 1528.24 70.86 6.00 271.77 1986.80
   15:39:51.327.18-Apr-2020 3140.87 1528.25 70.86 6.00 271.97 1986.80
   15:39:51.527.18-Apr-2020 3140.87 1528.25 70.86 6.00 272.17 1986.80
   15:39:51.727.18-Apr-2020 3140.87 1528.26 70.86 6.00 272.37 1986.80
   15:39:51.927.18-Apr-2020 3140.87 1528.26 70.86 6.00 272.57 1986.80
   15:39:52.127.18-Apr-2020 3140.87 1528.27 70.86 6.00 272.77 1986.80
   15:39:52.327.18-Apr-2020 3140.87 1528.29 70.86 6.00 272.97 1986.80
   15:39:52.527.18-Apr-2020 3140.87 1528.30 70.86 6.00 273.17 1986.80
   15:39:52.726.18-Apr-2020 3140.87 1528.29 70.86 6.00 273.37 1986.80
   15:39:52.926.18-Apr-2020 3140.87 1528.32 70.86 6.00 273.57 1986.80
   15:39:53.126.18-Apr-2020 3140.87 1528.15 70.86 6.00 273.77 1986.80
   15:39:53.326.18-Apr-2020 3140.87 1518.23 70.86 6.00 273.97 1986.80
   15:39:53.526.18-Apr-2020 3140.87 1518.23 70.86 6.00 274.17 1986.80
   15:39:53.726.18-Apr-2020 3140.87 1488.78 70.85 6.00 274.37 1986.80
   15:39:53.926.18-Apr-2020 3140.87 1475.24 70.85 6.00 274.57 1986.80
   15:39:54.126.18-Apr-2020 3140.87 1462.42 70.85 6.00 274.77 1986.80
   15:39:54.326.18-Apr-2020 3140.87 1450.19 70.85 6.00 274.97 1986.80
   15:39:54.526.18-Apr-2020 3140.87 1450.19 70.85 6.00 275.17 1986.80
   15:39:54.726.18-Apr-2020 3140.87 1426.80 70.85 6.00 275.37 1986.80
   15:39:54.926.18-Apr-2020 3140.87 1415.75 70.85 6.00 275.57 1986.80
   15:39:55.126.18-Apr-2020 3140.87 1404.91 70.85 6.00 275.77 1986.80
