~Version Information
 VERS.                  2.0:   CWLS log ASCII Standard -VERSION 2.0
 WRAP.                   NO:   One line per depth step
~Well Information Block
#MNEM.UNIT     VALUE/NAME     DESCRIPTION
#---------     -----------    ---------------------------
 STRT.S             07:07:08 18-Apr-20: START TIME 07:07:08 18-Apr-20
 STOP.S             07:14:03 18-Apr-20: STOP TIME  07:14:03 18-Apr-20
 STEP.S                   0.00: STEP TIME
 NULL.                 -999.25: NULL VALUE
 DFWT.                        :  DIST FWL TEXT
 DFST.                        :  DIST FSL TEXT
 DMF .                        :  DRILL MEAS FROM
 STIM.      16.29.52 23-Mar-20:  START TIME
 DATE.      16.29.52 23-Mar-20:  END TIME
 SPUD.               23-Mar-20:  SPUD DATE
 NREF.                    Grid:  NORTH REFERENCE
 HPTY.       Minimum Curvature:  HOLE POS TYPE
 DMOD.             Drill Model:  DRILL MOD DESC
 SVYD.                  Survey:  SURVEY DESC
 ILTD.               Lithology:  INTERP LTH DESC
 FTOP.          Formation Tops:  FORM TOPS DESC
 SON .        AZ-XX-0906252240:  JOB NUMBER
 RIG .             West Chirag:  RIG NAME
 PDAT.          Mean Sea Level:  PERMANENT DATUM
 FLD .                     ACG:  FIELD NAME
 CTRY.              Azerbaijan:  COUNTRY NAME
 WELL.           J23 (Slot 07):  WELL NAME
 SRVC.          Turan Drilling:  CONTRACTOR
 COMP.     BP Exploration (Casoian Sea) Ltd:  COMPANY
 WTYP.                Deviated:  WELL TYPE
 MDS .        Operator Entered:  MAG DATA SOURCE
 UWI .                     N/A:  UNIQUE WELL IDENTIFIER
 API .                     N/A:  API NUMBER
 BASE.              Azerbaijan:  LOGGING EQUIPMENT BASE LOCATION
 REGN.                   EESSA:  REGION
 PROV.                    Baku:  PROVINCE
 STAT.                    Baku:  STATE NAME
 MWDS.                     N/A:  MWD SHOP
 JOBN.        AZ-XX-0906252240:  JOB TICKET NUMB
 DOE .                     N/A:  DOE NUMBER
 DCON.         Sperry Drilling:  DIRECTNL CONTR
 UNIT.                     N/A:  LOGGING EQUIPMENT ID
 CNTY.                        :  COUNTY
 LOC .                        :  LOCATION
 LMF .             Drill Floor:  LOG MEASURED FROM
 TVDS.m                  43.00:  TVDSS CORRECTN
 LATI.deg                40.13:  LATITUDE
 LONG.deg                51.22:  LONGITUDE
 WHNS.m                   9.43:  WELL HEAD N/S
 WHEW.m                  -8.91:  WELL HEAD E/W
 UTMX.m              519005.06:  UTM X
 UTMY.m             4443793.85:  UTM Y
 DFWL.m                   0.00:  DISTANCE FWL
 DFSL.m                   0.00:  DISTANCE FSL
 SDEP.m                   0.00:  START DEPTH
 TDD .m                   0.00:  TOTAL DEPTH (DRILLER)
 VSDR.deg               179.88:  VERT SEC DIRECT
 GVFD.g                   1.00:  GRAVITY FIELD
 MFLD.nT              50281.00:  MAGNETIC FIELD
 MDIP.deg                59.58:  MAGNETIC DIP
 MDEC.deg                 6.48:  MAGNETIC DECL
 GRDC.deg                 0.14:  GRID CORRECTION
 AZTC.deg                 6.34:  AZM TOTAL CORR
 EPD .m                   0.00:  ELEVATION
 EGL .m                   0.00:  GROUND ELEVATION
 WDMS.m                 169.80:  WD ELEV
 APD .m                  43.00:  DEPTH ABOVE PD
 DEP .m                 354.17:  DEPTH
 AGAP.m                  43.00:  AIR GAP
 VSEW.m                  -8.91:  VERT SEC E/W
 VSNS.m                   9.43:  VERT SEC N/S
 EKB .m                   0.00:  KB ELEVATION
 EDF .m                  43.00:  DF ELEVATION
 TDL .m                1326.00:  TOTAL DEPTH (LOGGER)
 VSC .                       0:  VS TO CLOSURE
 MAGU.                 1850704:  MAGUTM CHECKSUM
~Parameter Information Block
#MNEM.UNIT       Value        Description
#---------     -----------    ---------------------------
 AV  .mps                 1.17:  Ann Velocity 
 AZIF.deg               184.04:  Azm, Final 
 BHAT.        Rotary Steerable:  BHA Type 
 BREV.rev            620000.00:  Rev Bit Total 
 BROT.°/30m               0.20:  Build Rotating 
 BS  .in                 14.75:  Bit Size 
 BSZ .in                 14.75:  Bit Size 
 BTPL.psig              618.00:  Bit Press Loss 
 CABU.                      No:  Customer Abuse 
 COMM.                     îb:  Run Comments 1 
 TCS .hr                 87.68:  Time Ciculation Ended 
 CV  .mps                 3.10:  Crit Velocity 
 DD1 .          Rashad Habibov:  Direct Drillr 1 
 DD2 .         Rasim Ibrahimov:  Direct Drillr 2 
 DDSV.               Geo-Pilot:  DD Service 
 DEFF.%                  98.00:  % Det Eff 
 DLRX.°/30m               1.48:  Dogleg Rot Max 
 DLSO.°/30m               0.50:  Dogleg Oriented 
 DLSX.°/30m               1.48:  Dogleg Str Max 
 DRET.      06.18.56 19-Apr-20:  Drill End Time 
 DRST.      15.00.56 15-Apr-20:  Drill Start Tim 
 DTIM.hr                 51.73:  Time Drilling 
 EDEP.m                3410.01:  End Depth 
 ENG1.        Marcelo Sandoval:  Engineer 1 
 ENG2.        Davud Huseynzade:  Engineer 2 
 ENG3.          Ruslan Safarov:  Engineer 3 
 ETIM.      04.00.56 20-Apr-20:  End Time 
 FLOI.gpm              1000.00:  Flow In 
 FLON.gpm               600.00:  Flow In Min 
 FLOS.cptm                0.00:  Fluid Loss 
 FLOX.gpm              1200.00:  Flow In Max 
 HFLO.                      No:  High Flow 
 HPRE.                     Yes:  High Pressure 
 HTEM.                      No:  High Temp 
 HYDO.m                   1.80:  Hydro Offset 
 IFIN.deg                70.04:  Inc, Final 
 IMAX.deg                70.56:  Inc Max 
 IMIN.deg                69.85:  Inc Min 
 IMND.m                3103.24:  Inc Min Depth 
 IMXD.m                2876.63:  Inc Max Depth 
 JARR.                      No:  Jarring 
 LETM.      06.18.56 19-Apr-20:  Log End Time 
 LOST.hr                     0:  Lost Rig Time 
 LSTM.      15.00.56 15-Apr-20:  Log Start Time 
 MDCL.ppm             42000.00:  Mud Chlorides 
 MDES.     Inversion Oil/Synthetic:  Mud Desc 
 DFD .sg                  1.58:  Mud Density 
 MDMN.sg                  1.58:  Dens Mud Min 
 MDMX.sg                  1.58:  Dens Mud Max 
 MOIL.                      71:  Run Mud Oil % 
 MOWR.                   71:29:  Run Mud OWR 
 MSND.                       0:  Run Mud Sand % 
 MSOL.                    23.3:  Run Mud Solids% 
 DFV .spqt               84.00:  Mud Viscosity 
 MWOD.in                  9.50:  MWD Tool OD 
 MWSI.                      No:  Serv Intrp, MWD 
 OTIM.hr                139.62:  Time Operating 
 PMAX.psia             5364.69:  Press Op, Max 
 PV  .cP                 80.00:  Mud PV 
 RUN .                     700:  Run Number 
 ROPA.m/hr               25.00:  ROP Avg 
 ROPN.m/hr               11.00:  ROP Min 
 ROPX.m/hr               36.00:  ROP Max 
 RPMA.rpm               130.00:  RPM Surface Avg 
 RPMN.rpm               120.00:  RPM Surface Min 
 RPMX.rpm               140.00:  RPM Surface Max 
 RRUN.                    0700:  Rig Run Number 
 SAZI.deg               183.25:  Azm, Start 
 SDEP.m                2084.00:  Start Depth 
 SIDD.                      No:  Serv Intrp, DD 
 SINC.deg                70.38:  Inc, Start 
 SPPA.psig             4800.00:  SPP Avg 
 SPPN.psig             4400.00:  SPP Min 
 SPPX.psig             5350.00:  SPP Max 
 STIM.      16.30.56 14-Apr-20:  Start Time 
 SVCS.                 DD, MWD:  Services 
 SVER.                    9.20:  Sperry Version 
 TDAT.m                1326.00:  Tot Depth Attmp 
 TDDF.                      No:  Trip for DD 
 TDLG.m                1326.00:  Tot Depth Loggd 
 TFF .                      No:  Trip for Fail 
 TQAA.f-kp               19.00:  Torque Abs Avg 
 TQAN.f-kp                8.00:  Torque Abs Min 
 TQAX.f-kp               27.00:  Torque Abs Max 
 TRRT.°/30m               0.50:  Turn Rotating 
 MRT .                    HCIM:  Maximum Recorded Temperature 
 TTMX.degC               82.35:  Max Tool Temp 
 VS01.       905245875X1Z1W1C8:  Virtual Str1 SN 
 VS02.       90608022F11V7D1A9:  Virtual Str2 SN 
 VS03.            90605473R5C9:  Virtual Str3 SN 
 WBMN.klb                11.00:  WOB Min 
 WOBA.klb                21.00:  WOB Avg 
 WOBX.klb                30.00:  WOB Max 
 YP  .lhf2               45.00:  Yield Point 
~Curve Information Block
#MNEM.UNIT                 API CODE     Curve Description
#---------               -----------    ---------------------------
 TIME.HHMMSS            00 000 000 000:  GT Time & Date
 GTDEPTH.m              00 000 000 000:  GT Depth
 GTPQH.psia             00 000 000 000:  GT HR Quartz Pressure
 GTTQ.degC              00 000 000 000:  GT Quartz Temperature
 GTTN.NONE              00 000 000 000:  GT Test Number
 GTET.sec               00 000 000 000:  GT Elapsed Test Time
 GTTVD.m                00 000 000 000:  GT True Vertical Depth
#Other Information
#
#WARRANTY: Halliburton will use its best efforts to furnish customers with 
#accurate information and interpretations that are part of, and incident to, the services 
#provided.  However, Halliburton cannot and does not warrant the accuracy 
#or correctness of such information and interpretations.  Under no circumstances should any 
#such information or interpretation be relied upon as the sole basis for any drilling, 
#completion, production, or financial decision or any procedure involving any risk to the 
#safety of any drilling venture, drilling rig or its crew or any other third party.  The 
#Customer has full responsibility for all drilling, completion and production operation.  
#Halliburton makes no representations or warranties, either expressed or 
#implied, including, but not limited to, the implied warranties of merchantability or fitness 
#for a particular purpose, with respect to the services rendered.  In no event will 
#Halliburton be liable for failure to obtain any particular results or for 
#any damages, including, but not limited to, indirect, special or consequential damages, 
#resulting from the use of any information or interpretation provided by Halliburton.
#
~A           TIME           GTDEPTH  GTPQH  GTTQ  GTTN  GTET   GTTVD  
# ...
   07:10:58.660.18-Apr-2020 3016.07 3390.21 70.20 2.00 230.02 1944.23
   07:10:58.860.18-Apr-2020 3016.07 3390.21 70.19 2.00 230.22 1944.23
   07:10:59.060.18-Apr-2020 3016.07 3390.19 70.19 2.00 230.42 1944.23
   07:10:59.260.18-Apr-2020 3016.07 3390.20 70.19 2.00 230.62 1944.23
   07:10:59.460.18-Apr-2020 3016.07 3390.20 70.19 2.00 230.82 1944.23
   07:10:59.660.18-Apr-2020 3016.07 3390.18 70.19 2.00 231.02 1944.23
   07:10:59.860.18-Apr-2020 3016.07 3390.18 70.19 2.00 231.22 1944.23
   07:11:00.060.18-Apr-2020 3016.07 3390.20 70.19 2.00 231.42 1944.23
   07:11:00.260.18-Apr-2020 3016.07 3390.21 70.19 2.00 231.62 1944.23
   07:11:00.460.18-Apr-2020 3016.07 3390.19 70.19 2.00 231.82 1944.23
   07:11:00.660.18-Apr-2020 3016.07 3390.19 70.19 2.00 232.02 1944.23
   07:11:00.860.18-Apr-2020 3016.07 3390.19 70.19 2.00 232.22 1944.23
   07:11:01.060.18-Apr-2020 3016.07 3390.20 70.19 2.00 232.42 1944.23
   07:11:01.260.18-Apr-2020 3016.07 3390.20 70.19 2.00 232.62 1944.23
   07:11:01.460.18-Apr-2020 3016.07 3390.20 70.18 2.00 232.82 1944.23
   07:11:01.660.18-Apr-2020 3016.07 3390.21 70.18 2.00 233.02 1944.23
   07:11:01.860.18-Apr-2020 3016.07 3390.22 70.18 2.00 233.22 1944.23
   07:11:02.060.18-Apr-2020 3016.07 3390.19 70.18 2.00 233.42 1944.23
   07:11:02.260.18-Apr-2020 3016.07 3390.19 70.18 2.00 233.62 1944.23
   07:11:02.460.18-Apr-2020 3016.07 3390.22 70.18 2.00 233.82 1944.23
   07:11:02.660.18-Apr-2020 3016.07 3390.21 70.18 2.00 234.02 1944.23
   07:11:02.860.18-Apr-2020 3016.07 3390.21 70.18 2.00 234.22 1944.23
   07:11:03.060.18-Apr-2020 3016.07 3390.21 70.18 2.00 234.42 1944.23
   07:11:03.261.18-Apr-2020 3016.07 3390.19 70.18 2.00 234.63 1944.23
   07:11:03.461.18-Apr-2020 3016.07 3390.20 70.18 2.00 234.83 1944.23
   07:11:03.661.18-Apr-2020 3016.07 3390.20 70.18 2.00 235.03 1944.23
   07:11:03.861.18-Apr-2020 3016.07 3390.20 70.18 2.00 235.23 1944.23
   07:11:04.061.18-Apr-2020 3016.07 3390.20 70.17 2.00 235.43 1944.23
   07:11:04.261.18-Apr-2020 3016.07 3390.21 70.17 2.00 235.63 1944.23
   07:11:04.461.18-Apr-2020 3016.07 3390.20 70.17 2.00 235.83 1944.23
   07:11:04.661.18-Apr-2020 3016.07 3390.19 70.17 2.00 236.03 1944.23
   07:11:04.861.18-Apr-2020 3016.07 3390.19 70.17 2.00 236.23 1944.23
   07:11:05.061.18-Apr-2020 3016.07 3390.19 70.17 2.00 236.43 1944.23
   07:11:05.261.18-Apr-2020 3016.07 3390.19 70.17 2.00 236.63 1944.23
   07:11:05.461.18-Apr-2020 3016.07 3390.18 70.17 2.00 236.83 1944.23
   07:11:05.661.18-Apr-2020 3016.07 3390.18 70.17 2.00 237.03 1944.23
   07:11:05.861.18-Apr-2020 3016.07 3390.18 70.17 2.00 237.23 1944.23
   07:11:06.061.18-Apr-2020 3016.07 3390.18 70.17 2.00 237.43 1944.23
   07:11:06.261.18-Apr-2020 3016.07 3390.17 70.17 2.00 237.63 1944.23
   07:11:06.461.18-Apr-2020 3016.07 3390.21 70.17 2.00 237.83 1944.23
   07:11:06.661.18-Apr-2020 3016.07 3390.21 70.16 2.00 238.03 1944.23
   07:11:06.861.18-Apr-2020 3016.07 3390.21 70.16 2.00 238.23 1944.23
   07:11:07.061.18-Apr-2020 3016.07 3390.19 70.16 2.00 238.43 1944.23
   07:11:07.261.18-Apr-2020 3016.07 3390.19 70.16 2.00 238.63 1944.23
   07:11:07.461.18-Apr-2020 3016.07 3390.20 70.16 2.00 238.83 1944.23
   07:11:07.661.18-Apr-2020 3016.07 3390.20 70.16 2.00 239.03 1944.23
   07:11:07.861.18-Apr-2020 3016.07 3390.18 70.16 2.00 239.23 1944.23
   07:11:08.061.18-Apr-2020 3016.07 3390.19 70.16 2.00 239.43 1944.23
   07:11:08.261.18-Apr-2020 3016.07 3390.19 70.16 2.00 239.63 1944.23
   07:11:08.461.18-Apr-2020 3016.07 3390.20 70.16 2.00 239.83 1944.23
   07:11:08.661.18-Apr-2020 3016.07 3390.19 70.16 2.00 240.03 1944.23
   07:11:08.861.18-Apr-2020 3016.07 3390.19 70.16 2.00 240.23 1944.23
   07:11:09.061.18-Apr-2020 3016.07 3390.20 70.16 2.00 240.43 1944.23
   07:11:09.261.18-Apr-2020 3016.07 3390.21 70.16 2.00 240.63 1944.23
   07:11:09.461.18-Apr-2020 3016.07 3390.20 70.15 2.00 240.83 1944.23
   07:11:09.661.18-Apr-2020 3016.07 3390.20 70.15 2.00 241.03 1944.23
   07:11:09.861.18-Apr-2020 3016.07 3390.20 70.15 2.00 241.23 1944.23
   07:11:10.061.18-Apr-2020 3016.07 3390.21 70.15 2.00 241.43 1944.23
   07:11:10.261.18-Apr-2020 3016.07 3390.19 70.15 2.00 241.63 1944.23
   07:11:10.461.18-Apr-2020 3016.07 3390.20 70.15 2.00 241.83 1944.23
   07:11:10.661.18-Apr-2020 3016.07 3390.20 70.15 2.00 242.03 1944.23
   07:11:10.861.18-Apr-2020 3016.07 3390.20 70.15 2.00 242.23 1944.23
   07:11:11.061.18-Apr-2020 3016.07 3390.18 70.15 2.00 242.43 1944.23
   07:11:11.261.18-Apr-2020 3016.07 3390.17 70.15 2.00 242.63 1944.23
   07:11:11.461.18-Apr-2020 3016.07 3390.21 70.15 2.00 242.83 1944.23
   07:11:11.661.18-Apr-2020 3016.07 3390.20 70.15 2.00 243.03 1944.23
   07:11:11.861.18-Apr-2020 3016.07 3390.20 70.15 2.00 243.23 1944.23
   07:11:12.061.18-Apr-2020 3016.07 3390.18 70.14 2.00 243.43 1944.23
   07:11:12.261.18-Apr-2020 3016.07 3390.20 70.14 2.00 243.63 1944.23
   07:11:12.461.18-Apr-2020 3016.07 3390.20 70.14 2.00 243.83 1944.23
   07:11:12.662.18-Apr-2020 3016.07 3390.20 70.14 2.00 244.03 1944.23
   07:11:12.862.18-Apr-2020 3016.07 3390.20 70.14 2.00 244.23 1944.23
   07:11:13.062.18-Apr-2020 3016.07 3390.20 70.14 2.00 244.43 1944.23
   07:11:13.262.18-Apr-2020 3016.07 3390.21 70.14 2.00 244.63 1944.23
   07:11:13.462.18-Apr-2020 3016.07 3390.20 70.14 2.00 244.83 1944.23
   07:11:13.662.18-Apr-2020 3016.07 3390.19 70.14 2.00 245.03 1944.23
   07:11:13.862.18-Apr-2020 3016.07 3390.19 70.14 2.00 245.23 1944.23
   07:11:14.062.18-Apr-2020 3016.07 3390.20 70.14 2.00 245.43 1944.23
   07:11:14.262.18-Apr-2020 3016.07 3390.18 70.14 2.00 245.63 1944.23
   07:11:14.462.18-Apr-2020 3016.07 3390.19 70.14 2.00 245.83 1944.23
   07:11:14.662.18-Apr-2020 3016.07 3390.19 70.13 2.00 246.03 1944.23
   07:11:14.862.18-Apr-2020 3016.07 3390.19 70.13 2.00 246.23 1944.23
   07:11:15.062.18-Apr-2020 3016.07 3390.18 70.13 2.00 246.43 1944.23
   07:11:15.262.18-Apr-2020 3016.07 3390.18 70.13 2.00 246.63 1944.23
   07:11:15.462.18-Apr-2020 3016.07 3390.19 70.13 2.00 246.83 1944.23
   07:11:15.662.18-Apr-2020 3016.07 3390.21 70.13 2.00 247.03 1944.23
   07:11:15.862.18-Apr-2020 3016.07 3390.20 70.13 2.00 247.23 1944.23
   07:11:16.062.18-Apr-2020 3016.07 3390.20 70.13 2.00 247.43 1944.23
   07:11:16.262.18-Apr-2020 3016.07 3390.19 70.13 2.00 247.63 1944.23
   07:11:16.462.18-Apr-2020 3016.07 3390.19 70.13 2.00 247.83 1944.23
   07:11:16.662.18-Apr-2020 3016.07 3390.20 70.13 2.00 248.03 1944.23
   07:11:16.862.18-Apr-2020 3016.07 3390.20 70.13 2.00 248.23 1944.23
   07:11:17.062.18-Apr-2020 3016.07 3390.19 70.13 2.00 248.43 1944.23
   07:11:17.262.18-Apr-2020 3016.07 3390.19 70.13 2.00 248.63 1944.23
   07:11:17.462.18-Apr-2020 3016.07 3390.20 70.12 2.00 248.83 1944.23
   07:11:17.662.18-Apr-2020 3016.07 3390.18 70.12 2.00 249.03 1944.23
   07:11:17.862.18-Apr-2020 3016.07 3390.18 70.12 2.00 249.23 1944.23
   07:11:18.062.18-Apr-2020 3016.07 3390.19 70.12 2.00 249.43 1944.23
   07:11:18.262.18-Apr-2020 3016.07 3390.21 70.12 2.00 249.63 1944.23
   07:11:18.462.18-Apr-2020 3016.07 3390.19 70.12 2.00 249.83 1944.23
   07:11:18.662.18-Apr-2020 3016.07 3390.20 70.12 2.00 250.03 1944.23
   07:11:18.862.18-Apr-2020 3016.07 3390.20 70.12 2.00 250.23 1944.23
   07:11:19.062.18-Apr-2020 3016.07 3390.21 70.12 2.00 250.43 1944.23
   07:11:19.262.18-Apr-2020 3016.07 3390.19 70.12 2.00 250.63 1944.23
   07:11:19.462.18-Apr-2020 3016.07 3390.20 70.12 2.00 250.83 1944.23
   07:11:19.662.18-Apr-2020 3016.07 3390.21 70.12 2.00 251.03 1944.23
   07:11:19.862.18-Apr-2020 3016.07 3390.21 70.12 2.00 251.23 1944.23
   07:11:20.062.18-Apr-2020 3016.07 3390.20 70.11 2.00 251.43 1944.23
   07:11:20.262.18-Apr-2020 3016.07 3390.19 70.11 2.00 251.63 1944.23
   07:11:20.462.18-Apr-2020 3016.07 3390.23 70.11 2.00 251.83 1944.23
   07:11:20.662.18-Apr-2020 3016.07 3390.22 70.11 2.00 252.03 1944.23
   07:11:20.862.18-Apr-2020 3016.07 3390.22 70.11 2.00 252.23 1944.23
   07:11:21.062.18-Apr-2020 3016.07 3390.21 70.11 2.00 252.43 1944.23
   07:11:21.262.18-Apr-2020 3016.07 3390.20 70.11 2.00 252.63 1944.23
   07:11:21.462.18-Apr-2020 3016.07 3390.21 70.11 2.00 252.83 1944.23
