~Version Information
 VERS.                  2.0:   CWLS log ASCII Standard -VERSION 2.0
 WRAP.                   NO:   One line per depth step
~Well Information Block
#MNEM.UNIT     VALUE/NAME     DESCRIPTION
#---------     -----------    ---------------------------
 STRT.S             07:07:08 18-Apr-20: START TIME 07:07:08 18-Apr-20
 STOP.S             07:14:03 18-Apr-20: STOP TIME  07:14:03 18-Apr-20
 STEP.S                   0.00: STEP TIME
 NULL.                 -999.25: NULL VALUE
 DFWT.                        :  DIST FWL TEXT
 DFST.                        :  DIST FSL TEXT
 DMF .                        :  DRILL MEAS FROM
 STIM.      16.29.52 23-Mar-20:  START TIME
 DATE.      16.29.52 23-Mar-20:  END TIME
 SPUD.               23-Mar-20:  SPUD DATE
 NREF.                    Grid:  NORTH REFERENCE
 HPTY.       Minimum Curvature:  HOLE POS TYPE
 DMOD.             Drill Model:  DRILL MOD DESC
 SVYD.                  Survey:  SURVEY DESC
 ILTD.               Lithology:  INTERP LTH DESC
 FTOP.          Formation Tops:  FORM TOPS DESC
 SON .        AZ-XX-0906252240:  JOB NUMBER
 RIG .             West Chirag:  RIG NAME
 PDAT.          Mean Sea Level:  PERMANENT DATUM
 FLD .                     ACG:  FIELD NAME
 CTRY.              Azerbaijan:  COUNTRY NAME
 WELL.           J23 (Slot 07):  WELL NAME
 SRVC.          Turan Drilling:  CONTRACTOR
 COMP.     BP Exploration (Casoian Sea) Ltd:  COMPANY
 WTYP.                Deviated:  WELL TYPE
 MDS .        Operator Entered:  MAG DATA SOURCE
 UWI .                     N/A:  UNIQUE WELL IDENTIFIER
 API .                     N/A:  API NUMBER
 BASE.              Azerbaijan:  LOGGING EQUIPMENT BASE LOCATION
 REGN.                   EESSA:  REGION
 PROV.                    Baku:  PROVINCE
 STAT.                    Baku:  STATE NAME
 MWDS.                     N/A:  MWD SHOP
 JOBN.        AZ-XX-0906252240:  JOB TICKET NUMB
 DOE .                     N/A:  DOE NUMBER
 DCON.         Sperry Drilling:  DIRECTNL CONTR
 UNIT.                     N/A:  LOGGING EQUIPMENT ID
 CNTY.                        :  COUNTY
 LOC .                        :  LOCATION
 LMF .             Drill Floor:  LOG MEASURED FROM
 TVDS.m                  43.00:  TVDSS CORRECTN
 LATI.deg                40.13:  LATITUDE
 LONG.deg                51.22:  LONGITUDE
 WHNS.m                   9.43:  WELL HEAD N/S
 WHEW.m                  -8.91:  WELL HEAD E/W
 UTMX.m              519005.06:  UTM X
 UTMY.m             4443793.85:  UTM Y
 DFWL.m                   0.00:  DISTANCE FWL
 DFSL.m                   0.00:  DISTANCE FSL
 SDEP.m                   0.00:  START DEPTH
 TDD .m                   0.00:  TOTAL DEPTH (DRILLER)
 VSDR.deg               179.88:  VERT SEC DIRECT
 GVFD.g                   1.00:  GRAVITY FIELD
 MFLD.nT              50281.00:  MAGNETIC FIELD
 MDIP.deg                59.58:  MAGNETIC DIP
 MDEC.deg                 6.48:  MAGNETIC DECL
 GRDC.deg                 0.14:  GRID CORRECTION
 AZTC.deg                 6.34:  AZM TOTAL CORR
 EPD .m                   0.00:  ELEVATION
 EGL .m                   0.00:  GROUND ELEVATION
 WDMS.m                 169.80:  WD ELEV
 APD .m                  43.00:  DEPTH ABOVE PD
 DEP .m                 354.17:  DEPTH
 AGAP.m                  43.00:  AIR GAP
 VSEW.m                  -8.91:  VERT SEC E/W
 VSNS.m                   9.43:  VERT SEC N/S
 EKB .m                   0.00:  KB ELEVATION
 EDF .m                  43.00:  DF ELEVATION
 TDL .m                1326.00:  TOTAL DEPTH (LOGGER)
 VSC .                       0:  VS TO CLOSURE
 MAGU.                 1850704:  MAGUTM CHECKSUM
~Parameter Information Block
#MNEM.UNIT       Value        Description
#---------     -----------    ---------------------------
 AV  .mps                 1.17:  Ann Velocity 
 AZIF.deg               184.04:  Azm, Final 
 BHAT.        Rotary Steerable:  BHA Type 
 BREV.rev            620000.00:  Rev Bit Total 
 BROT.°/30m               0.20:  Build Rotating 
 BS  .in                 14.75:  Bit Size 
 BSZ .in                 14.75:  Bit Size 
 BTPL.psig              618.00:  Bit Press Loss 
 CABU.                      No:  Customer Abuse 
 COMM.                     îb:  Run Comments 1 
 TCS .hr                 87.68:  Time Ciculation Ended 
 CV  .mps                 3.10:  Crit Velocity 
 DD1 .          Rashad Habibov:  Direct Drillr 1 
 DD2 .         Rasim Ibrahimov:  Direct Drillr 2 
 DDSV.               Geo-Pilot:  DD Service 
 DEFF.%                  98.00:  % Det Eff 
 DLRX.°/30m               1.48:  Dogleg Rot Max 
 DLSO.°/30m               0.50:  Dogleg Oriented 
 DLSX.°/30m               1.48:  Dogleg Str Max 
 DRET.      06.18.56 19-Apr-20:  Drill End Time 
 DRST.      15.00.56 15-Apr-20:  Drill Start Tim 
 DTIM.hr                 51.73:  Time Drilling 
 EDEP.m                3410.01:  End Depth 
 ENG1.        Marcelo Sandoval:  Engineer 1 
 ENG2.        Davud Huseynzade:  Engineer 2 
 ENG3.          Ruslan Safarov:  Engineer 3 
 ETIM.      04.00.56 20-Apr-20:  End Time 
 FLOI.gpm              1000.00:  Flow In 
 FLON.gpm               600.00:  Flow In Min 
 FLOS.cptm                0.00:  Fluid Loss 
 FLOX.gpm              1200.00:  Flow In Max 
 HFLO.                      No:  High Flow 
 HPRE.                     Yes:  High Pressure 
 HTEM.                      No:  High Temp 
 HYDO.m                   1.80:  Hydro Offset 
 IFIN.deg                70.04:  Inc, Final 
 IMAX.deg                70.56:  Inc Max 
 IMIN.deg                69.85:  Inc Min 
 IMND.m                3103.24:  Inc Min Depth 
 IMXD.m                2876.63:  Inc Max Depth 
 JARR.                      No:  Jarring 
 LETM.      06.18.56 19-Apr-20:  Log End Time 
 LOST.hr                     0:  Lost Rig Time 
 LSTM.      15.00.56 15-Apr-20:  Log Start Time 
 MDCL.ppm             42000.00:  Mud Chlorides 
 MDES.     Inversion Oil/Synthetic:  Mud Desc 
 DFD .sg                  1.58:  Mud Density 
 MDMN.sg                  1.58:  Dens Mud Min 
 MDMX.sg                  1.58:  Dens Mud Max 
 MOIL.                      71:  Run Mud Oil % 
 MOWR.                   71:29:  Run Mud OWR 
 MSND.                       0:  Run Mud Sand % 
 MSOL.                    23.3:  Run Mud Solids% 
 DFV .spqt               84.00:  Mud Viscosity 
 MWOD.in                  9.50:  MWD Tool OD 
 MWSI.                      No:  Serv Intrp, MWD 
 OTIM.hr                139.62:  Time Operating 
 PMAX.psia             5364.69:  Press Op, Max 
 PV  .cP                 80.00:  Mud PV 
 RUN .                     700:  Run Number 
 ROPA.m/hr               25.00:  ROP Avg 
 ROPN.m/hr               11.00:  ROP Min 
 ROPX.m/hr               36.00:  ROP Max 
 RPMA.rpm               130.00:  RPM Surface Avg 
 RPMN.rpm               120.00:  RPM Surface Min 
 RPMX.rpm               140.00:  RPM Surface Max 
 RRUN.                    0700:  Rig Run Number 
 SAZI.deg               183.25:  Azm, Start 
 SDEP.m                2084.00:  Start Depth 
 SIDD.                      No:  Serv Intrp, DD 
 SINC.deg                70.38:  Inc, Start 
 SPPA.psig             4800.00:  SPP Avg 
 SPPN.psig             4400.00:  SPP Min 
 SPPX.psig             5350.00:  SPP Max 
 STIM.      16.30.56 14-Apr-20:  Start Time 
 SVCS.                 DD, MWD:  Services 
 SVER.                    9.20:  Sperry Version 
 TDAT.m                1326.00:  Tot Depth Attmp 
 TDDF.                      No:  Trip for DD 
 TDLG.m                1326.00:  Tot Depth Loggd 
 TFF .                      No:  Trip for Fail 
 TQAA.f-kp               19.00:  Torque Abs Avg 
 TQAN.f-kp                8.00:  Torque Abs Min 
 TQAX.f-kp               27.00:  Torque Abs Max 
 TRRT.°/30m               0.50:  Turn Rotating 
 MRT .                    HCIM:  Maximum Recorded Temperature 
 TTMX.degC               82.35:  Max Tool Temp 
 VS01.       905245875X1Z1W1C8:  Virtual Str1 SN 
 VS02.       90608022F11V7D1A9:  Virtual Str2 SN 
 VS03.            90605473R5C9:  Virtual Str3 SN 
 WBMN.klb                11.00:  WOB Min 
 WOBA.klb                21.00:  WOB Avg 
 WOBX.klb                30.00:  WOB Max 
 YP  .lhf2               45.00:  Yield Point 
~Curve Information Block
#MNEM.UNIT                 API CODE     Curve Description
#---------               -----------    ---------------------------
 TIME.HHMMSS            00 000 000 000:  GT Time & Date
 GTDEPTH.m              00 000 000 000:  GT Depth
 GTPQH.psia             00 000 000 000:  GT HR Quartz Pressure
 GTTQ.degC              00 000 000 000:  GT Quartz Temperature
 GTTN.NONE              00 000 000 000:  GT Test Number
 GTET.sec               00 000 000 000:  GT Elapsed Test Time
 GTTVD.m                00 000 000 000:  GT True Vertical Depth
#Other Information
#
#WARRANTY: Halliburton will use its best efforts to furnish customers with 
#accurate information and interpretations that are part of, and incident to, the services 
#provided.  However, Halliburton cannot and does not warrant the accuracy 
#or correctness of such information and interpretations.  Under no circumstances should any 
#such information or interpretation be relied upon as the sole basis for any drilling, 
#completion, production, or financial decision or any procedure involving any risk to the 
#safety of any drilling venture, drilling rig or its crew or any other third party.  The 
#Customer has full responsibility for all drilling, completion and production operation.  
#Halliburton makes no representations or warranties, either expressed or 
#implied, including, but not limited to, the implied warranties of merchantability or fitness 
#for a particular purpose, with respect to the services rendered.  In no event will 
#Halliburton be liable for failure to obtain any particular results or for 
#any damages, including, but not limited to, indirect, special or consequential damages, 
#resulting from the use of any information or interpretation provided by Halliburton.
#
~A           TIME           GTDEPTH  GTPQH  GTTQ  GTTN  GTET   GTTVD  
# ...
   07:09:03.648.18-Apr-2020 3016.07 3390.71 70.65 2.00 115.01 1944.23
   07:09:03.848.18-Apr-2020 3016.07 3390.67 70.64 2.00 115.21 1944.23
   07:09:04.048.18-Apr-2020 3016.07 3390.64 70.64 2.00 115.41 1944.23
   07:09:04.248.18-Apr-2020 3016.07 3390.57 70.64 2.00 115.61 1944.23
   07:09:04.448.18-Apr-2020 3016.07 3390.57 70.64 2.00 115.81 1944.23
   07:09:04.648.18-Apr-2020 3016.07 3390.56 70.64 2.00 116.01 1944.23
   07:09:04.848.18-Apr-2020 3016.07 3390.56 70.64 2.00 116.21 1944.23
   07:09:05.048.18-Apr-2020 3016.07 3390.49 70.64 2.00 116.41 1944.23
   07:09:05.248.18-Apr-2020 3016.07 3390.49 70.64 2.00 116.61 1944.23
   07:09:05.448.18-Apr-2020 3016.07 3390.49 70.64 2.00 116.81 1944.23
   07:09:05.648.18-Apr-2020 3016.07 3390.48 70.64 2.00 117.01 1944.23
   07:09:05.848.18-Apr-2020 3016.07 3390.48 70.64 2.00 117.21 1944.23
   07:09:06.048.18-Apr-2020 3016.07 3390.46 70.64 2.00 117.41 1944.23
   07:09:06.248.18-Apr-2020 3016.07 3390.41 70.63 2.00 117.61 1944.23
   07:09:06.448.18-Apr-2020 3016.07 3390.43 70.63 2.00 117.81 1944.23
   07:09:06.648.18-Apr-2020 3016.07 3390.38 70.63 2.00 118.01 1944.23
   07:09:06.848.18-Apr-2020 3016.07 3390.38 70.63 2.00 118.21 1944.23
   07:09:07.048.18-Apr-2020 3016.07 3390.40 70.63 2.00 118.41 1944.23
   07:09:07.248.18-Apr-2020 3016.07 3390.37 70.63 2.00 118.61 1944.23
   07:09:07.448.18-Apr-2020 3016.07 3390.36 70.63 2.00 118.81 1944.23
   07:09:07.648.18-Apr-2020 3016.07 3390.37 70.63 2.00 119.01 1944.23
   07:09:07.848.18-Apr-2020 3016.07 3390.38 70.63 2.00 119.21 1944.23
   07:09:08.048.18-Apr-2020 3016.07 3390.40 70.63 2.00 119.41 1944.23
   07:09:08.248.18-Apr-2020 3016.07 3390.39 70.63 2.00 119.61 1944.23
   07:09:08.448.18-Apr-2020 3016.07 3390.40 70.63 2.00 119.81 1944.23
   07:09:08.648.18-Apr-2020 3016.07 3390.41 70.63 2.00 120.01 1944.23
   07:09:08.848.18-Apr-2020 3016.07 3390.41 70.63 2.00 120.21 1944.23
   07:09:09.048.18-Apr-2020 3016.07 3390.40 70.62 2.00 120.41 1944.23
   07:09:09.248.18-Apr-2020 3016.07 3390.40 70.62 2.00 120.61 1944.23
   07:09:09.448.18-Apr-2020 3016.07 3390.40 70.62 2.00 120.81 1944.23
   07:09:09.648.18-Apr-2020 3016.07 3390.40 70.62 2.00 121.01 1944.23
   07:09:09.848.18-Apr-2020 3016.07 3390.40 70.62 2.00 121.21 1944.23
   07:09:10.048.18-Apr-2020 3016.07 3390.38 70.62 2.00 121.41 1944.23
   07:09:10.248.18-Apr-2020 3016.07 3390.36 70.62 2.00 121.61 1944.23
   07:09:10.448.18-Apr-2020 3016.07 3390.39 70.62 2.00 121.81 1944.23
   07:09:10.648.18-Apr-2020 3016.07 3390.38 70.62 2.00 122.01 1944.23
   07:09:10.849.18-Apr-2020 3016.07 3390.38 70.62 2.00 122.21 1944.23
   07:09:11.049.18-Apr-2020 3016.07 3390.41 70.62 2.00 122.41 1944.23
   07:09:11.249.18-Apr-2020 3016.07 3390.43 70.61 2.00 122.61 1944.23
   07:09:11.449.18-Apr-2020 3016.07 3390.42 70.61 2.00 122.81 1944.23
   07:09:11.649.18-Apr-2020 3016.07 3390.39 70.61 2.00 123.01 1944.23
   07:09:11.849.18-Apr-2020 3016.07 3390.42 70.61 2.00 123.21 1944.23
   07:09:12.049.18-Apr-2020 3016.07 3390.42 70.61 2.00 123.41 1944.23
   07:09:12.249.18-Apr-2020 3016.07 3390.50 70.61 2.00 123.61 1944.23
   07:09:12.449.18-Apr-2020 3016.07 3390.48 70.61 2.00 123.81 1944.23
   07:09:12.649.18-Apr-2020 3016.07 3390.46 70.61 2.00 124.01 1944.23
   07:09:12.849.18-Apr-2020 3016.07 3390.46 70.61 2.00 124.21 1944.23
   07:09:13.049.18-Apr-2020 3016.07 3390.43 70.61 2.00 124.41 1944.23
   07:09:13.249.18-Apr-2020 3016.07 3390.42 70.61 2.00 124.61 1944.23
   07:09:13.449.18-Apr-2020 3016.07 3390.46 70.61 2.00 124.81 1944.23
   07:09:13.649.18-Apr-2020 3016.07 3390.42 70.61 2.00 125.01 1944.23
   07:09:13.849.18-Apr-2020 3016.07 3390.42 70.61 2.00 125.21 1944.23
   07:09:14.049.18-Apr-2020 3016.07 3390.45 70.60 2.00 125.41 1944.23
   07:09:14.249.18-Apr-2020 3016.07 3390.44 70.60 2.00 125.61 1944.23
   07:09:14.449.18-Apr-2020 3016.07 3390.41 70.60 2.00 125.81 1944.23
   07:09:14.649.18-Apr-2020 3016.07 3390.40 70.60 2.00 126.01 1944.23
   07:09:14.849.18-Apr-2020 3016.07 3390.40 70.60 2.00 126.21 1944.23
   07:09:15.049.18-Apr-2020 3016.07 3391.67 70.60 2.00 126.41 1944.23
   07:09:15.249.18-Apr-2020 3016.07 3394.52 70.60 2.00 126.61 1944.23
   07:09:15.449.18-Apr-2020 3016.07 3392.77 70.60 2.00 126.81 1944.23
   07:09:15.649.18-Apr-2020 3016.07 3391.88 70.60 2.00 127.01 1944.23
   07:09:15.849.18-Apr-2020 3016.07 3391.48 70.60 2.00 127.21 1944.23
   07:09:16.049.18-Apr-2020 3016.07 3391.25 70.60 2.00 127.41 1944.23
   07:09:16.249.18-Apr-2020 3016.07 3391.08 70.59 2.00 127.61 1944.23
   07:09:16.449.18-Apr-2020 3016.07 3391.03 70.59 2.00 127.81 1944.23
   07:09:16.649.18-Apr-2020 3016.07 3390.95 70.59 2.00 128.01 1944.23
   07:09:16.849.18-Apr-2020 3016.07 3390.95 70.59 2.00 128.21 1944.23
   07:09:17.049.18-Apr-2020 3016.07 3390.89 70.59 2.00 128.41 1944.23
   07:09:17.249.18-Apr-2020 3016.07 3390.87 70.59 2.00 128.61 1944.23
   07:09:17.449.18-Apr-2020 3016.07 3390.82 70.59 2.00 128.81 1944.23
   07:09:17.649.18-Apr-2020 3016.07 3390.77 70.59 2.00 129.01 1944.23
   07:09:17.849.18-Apr-2020 3016.07 3390.77 70.59 2.00 129.21 1944.23
   07:09:18.049.18-Apr-2020 3016.07 3390.66 70.59 2.00 129.41 1944.23
   07:09:18.249.18-Apr-2020 3016.07 3390.65 70.59 2.00 129.61 1944.23
   07:09:18.449.18-Apr-2020 3016.07 3390.61 70.59 2.00 129.81 1944.23
   07:09:18.649.18-Apr-2020 3016.07 3390.57 70.59 2.00 130.01 1944.23
   07:09:18.849.18-Apr-2020 3016.07 3390.57 70.58 2.00 130.21 1944.23
   07:09:19.049.18-Apr-2020 3016.07 3390.52 70.58 2.00 130.41 1944.23
   07:09:19.249.18-Apr-2020 3016.07 3390.49 70.58 2.00 130.61 1944.23
   07:09:19.449.18-Apr-2020 3016.07 3390.47 70.58 2.00 130.81 1944.23
   07:09:19.649.18-Apr-2020 3016.07 3390.44 70.58 2.00 131.01 1944.23
   07:09:19.849.18-Apr-2020 3016.07 3390.44 70.58 2.00 131.21 1944.23
   07:09:20.050.18-Apr-2020 3016.07 3390.47 70.58 2.00 131.41 1944.23
   07:09:20.250.18-Apr-2020 3016.07 3390.46 70.58 2.00 131.61 1944.23
   07:09:20.450.18-Apr-2020 3016.07 3390.43 70.58 2.00 131.81 1944.23
   07:09:20.650.18-Apr-2020 3016.07 3390.41 70.58 2.00 132.01 1944.23
   07:09:20.850.18-Apr-2020 3016.07 3390.41 70.58 2.00 132.21 1944.23
   07:09:21.050.18-Apr-2020 3016.07 3390.39 70.58 2.00 132.41 1944.23
   07:09:21.250.18-Apr-2020 3016.07 3390.38 70.57 2.00 132.61 1944.23
   07:09:21.450.18-Apr-2020 3016.07 3390.36 70.57 2.00 132.81 1944.23
   07:09:21.650.18-Apr-2020 3016.07 3390.36 70.57 2.00 133.01 1944.23
   07:09:21.850.18-Apr-2020 3016.07 3390.36 70.57 2.00 133.21 1944.23
   07:09:22.050.18-Apr-2020 3016.07 3390.34 70.57 2.00 133.41 1944.23
   07:09:22.250.18-Apr-2020 3016.07 3390.32 70.57 2.00 133.61 1944.23
   07:09:22.450.18-Apr-2020 3016.07 3390.34 70.57 2.00 133.81 1944.23
   07:09:22.650.18-Apr-2020 3016.07 3390.38 70.57 2.00 134.01 1944.23
   07:09:22.850.18-Apr-2020 3016.07 3390.38 70.57 2.00 134.21 1944.23
   07:09:23.050.18-Apr-2020 3016.07 3390.35 70.57 2.00 134.41 1944.23
   07:09:23.250.18-Apr-2020 3016.07 3390.36 70.57 2.00 134.61 1944.23
   07:09:23.450.18-Apr-2020 3016.07 3390.39 70.57 2.00 134.81 1944.23
   07:09:23.650.18-Apr-2020 3016.07 3390.38 70.57 2.00 135.01 1944.23
   07:09:23.850.18-Apr-2020 3016.07 3390.39 70.56 2.00 135.21 1944.23
   07:09:24.050.18-Apr-2020 3016.07 3390.39 70.56 2.00 135.41 1944.23
   07:09:24.250.18-Apr-2020 3016.07 3390.38 70.56 2.00 135.61 1944.23
   07:09:24.450.18-Apr-2020 3016.07 3390.37 70.56 2.00 135.81 1944.23
   07:09:24.650.18-Apr-2020 3016.07 3390.36 70.56 2.00 136.01 1944.23
   07:09:24.850.18-Apr-2020 3016.07 3390.36 70.56 2.00 136.21 1944.23
   07:09:25.050.18-Apr-2020 3016.07 3390.40 70.56 2.00 136.41 1944.23
   07:09:25.250.18-Apr-2020 3016.07 3390.37 70.56 2.00 136.61 1944.23
   07:09:25.450.18-Apr-2020 3016.07 3390.36 70.56 2.00 136.81 1944.23
   07:09:25.650.18-Apr-2020 3016.07 3390.41 70.56 2.00 137.01 1944.23
   07:09:25.850.18-Apr-2020 3016.07 3390.41 70.56 2.00 137.21 1944.23
   07:09:26.050.18-Apr-2020 3016.07 3390.37 70.56 2.00 137.41 1944.23
   07:09:26.250.18-Apr-2020 3016.07 3390.39 70.55 2.00 137.61 1944.23
   07:09:26.450.18-Apr-2020 3016.07 3390.39 70.55 2.00 137.81 1944.23
