~Version Information
 VERS.                  2.0:   CWLS log ASCII Standard -VERSION 2.0
 WRAP.                   NO:   One line per depth step
~Well Information Block
#MNEM.UNIT     VALUE/NAME     DESCRIPTION
#---------     -----------    ---------------------------
 STRT.S             00:39:23 18-Apr-20: START TIME 00:39:23 18-Apr-20
 STOP.S             00:46:19 18-Apr-20: STOP TIME  00:46:19 18-Apr-20
 STEP.S                   0.00: STEP TIME
 NULL.                 -999.25: NULL VALUE
 DFWT.                        :  DIST FWL TEXT
 DFST.                        :  DIST FSL TEXT
 DMF .                        :  DRILL MEAS FROM
 STIM.      16.29.52 23-Mar-20:  START TIME
 DATE.      16.29.52 23-Mar-20:  END TIME
 SPUD.               23-Mar-20:  SPUD DATE
 NREF.                    Grid:  NORTH REFERENCE
 HPTY.       Minimum Curvature:  HOLE POS TYPE
 DMOD.             Drill Model:  DRILL MOD DESC
 SVYD.                  Survey:  SURVEY DESC
 ILTD.               Lithology:  INTERP LTH DESC
 FTOP.          Formation Tops:  FORM TOPS DESC
 SON .        AZ-XX-0906252240:  JOB NUMBER
 RIG .             West Chirag:  RIG NAME
 PDAT.          Mean Sea Level:  PERMANENT DATUM
 FLD .                     ACG:  FIELD NAME
 CTRY.              Azerbaijan:  COUNTRY NAME
 WELL.           J23 (Slot 07):  WELL NAME
 SRVC.          Turan Drilling:  CONTRACTOR
 COMP.     BP Exploration (Casoian Sea) Ltd:  COMPANY
 WTYP.                Deviated:  WELL TYPE
 MDS .        Operator Entered:  MAG DATA SOURCE
 UWI .                     N/A:  UNIQUE WELL IDENTIFIER
 API .                     N/A:  API NUMBER
 BASE.              Azerbaijan:  LOGGING EQUIPMENT BASE LOCATION
 REGN.                   EESSA:  REGION
 PROV.                    Baku:  PROVINCE
 STAT.                    Baku:  STATE NAME
 MWDS.                     N/A:  MWD SHOP
 JOBN.        AZ-XX-0906252240:  JOB TICKET NUMB
 DOE .                     N/A:  DOE NUMBER
 DCON.         Sperry Drilling:  DIRECTNL CONTR
 UNIT.                     N/A:  LOGGING EQUIPMENT ID
 CNTY.                        :  COUNTY
 LOC .                        :  LOCATION
 LMF .             Drill Floor:  LOG MEASURED FROM
 TVDS.m                  43.00:  TVDSS CORRECTN
 LATI.deg                40.13:  LATITUDE
 LONG.deg                51.22:  LONGITUDE
 WHNS.m                   9.43:  WELL HEAD N/S
 WHEW.m                  -8.91:  WELL HEAD E/W
 UTMX.m              519005.06:  UTM X
 UTMY.m             4443793.85:  UTM Y
 DFWL.m                   0.00:  DISTANCE FWL
 DFSL.m                   0.00:  DISTANCE FSL
 SDEP.m                   0.00:  START DEPTH
 TDD .m                   0.00:  TOTAL DEPTH (DRILLER)
 VSDR.deg               179.88:  VERT SEC DIRECT
 GVFD.g                   1.00:  GRAVITY FIELD
 MFLD.nT              50281.00:  MAGNETIC FIELD
 MDIP.deg                59.58:  MAGNETIC DIP
 MDEC.deg                 6.48:  MAGNETIC DECL
 GRDC.deg                 0.14:  GRID CORRECTION
 AZTC.deg                 6.34:  AZM TOTAL CORR
 EPD .m                   0.00:  ELEVATION
 EGL .m                   0.00:  GROUND ELEVATION
 WDMS.m                 169.80:  WD ELEV
 APD .m                  43.00:  DEPTH ABOVE PD
 DEP .m                 354.17:  DEPTH
 AGAP.m                  43.00:  AIR GAP
 VSEW.m                  -8.91:  VERT SEC E/W
 VSNS.m                   9.43:  VERT SEC N/S
 EKB .m                   0.00:  KB ELEVATION
 EDF .m                  43.00:  DF ELEVATION
 TDL .m                1326.00:  TOTAL DEPTH (LOGGER)
 VSC .                       0:  VS TO CLOSURE
 MAGU.                 1850704:  MAGUTM CHECKSUM
~Parameter Information Block
#MNEM.UNIT       Value        Description
#---------     -----------    ---------------------------
 AV  .mps                 1.17:  Ann Velocity 
 AZIF.deg               184.04:  Azm, Final 
 BHAT.        Rotary Steerable:  BHA Type 
 BREV.rev            620000.00:  Rev Bit Total 
 BROT.°/30m               0.20:  Build Rotating 
 BS  .in                 14.75:  Bit Size 
 BSZ .in                 14.75:  Bit Size 
 BTPL.psig              618.00:  Bit Press Loss 
 CABU.                      No:  Customer Abuse 
 COMM.                     TŠT:  Run Comments 1 
 TCS .hr                 87.68:  Time Ciculation Ended 
 CV  .mps                 3.10:  Crit Velocity 
 DD1 .          Rashad Habibov:  Direct Drillr 1 
 DD2 .         Rasim Ibrahimov:  Direct Drillr 2 
 DDSV.               Geo-Pilot:  DD Service 
 DEFF.%                  98.00:  % Det Eff 
 DLRX.°/30m               1.48:  Dogleg Rot Max 
 DLSO.°/30m               0.50:  Dogleg Oriented 
 DLSX.°/30m               1.48:  Dogleg Str Max 
 DRET.      06.18.56 19-Apr-20:  Drill End Time 
 DRST.      15.00.56 15-Apr-20:  Drill Start Tim 
 DTIM.hr                 51.73:  Time Drilling 
 EDEP.m                3410.01:  End Depth 
 ENG1.        Marcelo Sandoval:  Engineer 1 
 ENG2.        Davud Huseynzade:  Engineer 2 
 ENG3.          Ruslan Safarov:  Engineer 3 
 ETIM.      04.00.56 20-Apr-20:  End Time 
 FLOI.gpm              1000.00:  Flow In 
 FLON.gpm               600.00:  Flow In Min 
 FLOS.cptm                0.00:  Fluid Loss 
 FLOX.gpm              1200.00:  Flow In Max 
 HFLO.                      No:  High Flow 
 HPRE.                     Yes:  High Pressure 
 HTEM.                      No:  High Temp 
 HYDO.m                   1.80:  Hydro Offset 
 IFIN.deg                70.04:  Inc, Final 
 IMAX.deg                70.56:  Inc Max 
 IMIN.deg                69.85:  Inc Min 
 IMND.m                3103.24:  Inc Min Depth 
 IMXD.m                2876.63:  Inc Max Depth 
 JARR.                      No:  Jarring 
 LETM.      06.18.56 19-Apr-20:  Log End Time 
 LOST.hr                     0:  Lost Rig Time 
 LSTM.      15.00.56 15-Apr-20:  Log Start Time 
 MDCL.ppm             42000.00:  Mud Chlorides 
 MDES.     Inversion Oil/Synthetic:  Mud Desc 
 DFD .sg                  1.58:  Mud Density 
 MDMN.sg                  1.58:  Dens Mud Min 
 MDMX.sg                  1.58:  Dens Mud Max 
 MOIL.                      71:  Run Mud Oil % 
 MOWR.                   71:29:  Run Mud OWR 
 MSND.                       0:  Run Mud Sand % 
 MSOL.                    23.3:  Run Mud Solids% 
 DFV .spqt               84.00:  Mud Viscosity 
 MWOD.in                  9.50:  MWD Tool OD 
 MWSI.                      No:  Serv Intrp, MWD 
 OTIM.hr                139.62:  Time Operating 
 PMAX.psia             5364.69:  Press Op, Max 
 PV  .cP                 80.00:  Mud PV 
 RUN .                     700:  Run Number 
 ROPA.m/hr               25.00:  ROP Avg 
 ROPN.m/hr               11.00:  ROP Min 
 ROPX.m/hr               36.00:  ROP Max 
 RPMA.rpm               130.00:  RPM Surface Avg 
 RPMN.rpm               120.00:  RPM Surface Min 
 RPMX.rpm               140.00:  RPM Surface Max 
 RRUN.                    0700:  Rig Run Number 
 SAZI.deg               183.25:  Azm, Start 
 SDEP.m                2084.00:  Start Depth 
 SIDD.                      No:  Serv Intrp, DD 
 SINC.deg                70.38:  Inc, Start 
 SPPA.psig             4800.00:  SPP Avg 
 SPPN.psig             4400.00:  SPP Min 
 SPPX.psig             5350.00:  SPP Max 
 STIM.      16.30.56 14-Apr-20:  Start Time 
 SVCS.                 DD, MWD:  Services 
 SVER.                    9.20:  Sperry Version 
 TDAT.m                1326.00:  Tot Depth Attmp 
 TDDF.                      No:  Trip for DD 
 TDLG.m                1326.00:  Tot Depth Loggd 
 TFF .                      No:  Trip for Fail 
 TQAA.f-kp               19.00:  Torque Abs Avg 
 TQAN.f-kp                8.00:  Torque Abs Min 
 TQAX.f-kp               27.00:  Torque Abs Max 
 TRRT.°/30m               0.50:  Turn Rotating 
 MRT .                    HCIM:  Maximum Recorded Temperature 
 TTMX.degC               82.35:  Max Tool Temp 
 VS01.       905245875X1Z1W1C8:  Virtual Str1 SN 
 VS02.       90608022F11V7D1A9:  Virtual Str2 SN 
 VS03.            90605473R5C9:  Virtual Str3 SN 
 WBMN.klb                11.00:  WOB Min 
 WOBA.klb                21.00:  WOB Avg 
 WOBX.klb                30.00:  WOB Max 
 YP  .lhf2               45.00:  Yield Point 
~Curve Information Block
#MNEM.UNIT                 API CODE     Curve Description
#---------               -----------    ---------------------------
 TIME.HHMMSS            00 000 000 000:  GT Time & Date
 GTDEPTH.m              00 000 000 000:  GT Depth
 GTPQH.psia             00 000 000 000:  GT HR Quartz Pressure
 GTTQ.degC              00 000 000 000:  GT Quartz Temperature
 GTTN.NONE              00 000 000 000:  GT Test Number
 GTET.sec               00 000 000 000:  GT Elapsed Test Time
 GTTVD.m                00 000 000 000:  GT True Vertical Depth
#Other Information
#
#WARRANTY: Halliburton will use its best efforts to furnish customers with 
#accurate information and interpretations that are part of, and incident to, the services 
#provided.  However, Halliburton cannot and does not warrant the accuracy 
#or correctness of such information and interpretations.  Under no circumstances should any 
#such information or interpretation be relied upon as the sole basis for any drilling, 
#completion, production, or financial decision or any procedure involving any risk to the 
#safety of any drilling venture, drilling rig or its crew or any other third party.  The 
#Customer has full responsibility for all drilling, completion and production operation.  
#Halliburton makes no representations or warranties, either expressed or 
#implied, including, but not limited to, the implied warranties of merchantability or fitness 
#for a particular purpose, with respect to the services rendered.  In no event will 
#Halliburton be liable for failure to obtain any particular results or for 
#any damages, including, but not limited to, indirect, special or consequential damages, 
#resulting from the use of any information or interpretation provided by Halliburton.
#
~A           TIME           GTDEPTH  GTPQH  GTTQ  GTTN  GTET   GTTVD  
# ...
   00:39:46.312.18-Apr-2020 2932.07 4420.59 63.56 1.00  23.00 1915.77
   00:39:46.512.18-Apr-2020 2932.07 4420.59 63.56 1.00  23.20 1915.77
   00:39:46.712.18-Apr-2020 2932.07 4420.16 63.56 1.00  23.40 1915.77
   00:39:46.912.18-Apr-2020 2932.07 4419.24 63.56 1.00  23.60 1915.77
   00:39:47.112.18-Apr-2020 2932.07 4419.34 63.56 1.00  23.80 1915.77
   00:39:47.312.18-Apr-2020 2932.07 4418.96 63.56 1.00  24.00 1915.77
   00:39:47.512.18-Apr-2020 2932.07 4418.96 63.56 1.00  24.20 1915.77
   00:39:47.712.18-Apr-2020 2932.07 4419.33 63.56 1.00  24.40 1915.77
   00:39:47.912.18-Apr-2020 2932.07 4419.05 63.56 1.00  24.60 1915.77
   00:39:48.112.18-Apr-2020 2932.07 4418.77 63.56 1.00  24.80 1915.77
   00:39:48.312.18-Apr-2020 2932.07 4418.97 63.56 1.00  25.00 1915.77
   00:39:48.512.18-Apr-2020 2932.07 4417.11 63.56 1.00  25.20 1915.77
   00:39:48.712.18-Apr-2020 2932.07 4419.26 63.56 1.00  25.40 1915.77
   00:39:48.912.18-Apr-2020 2932.07 4419.45 63.56 1.00  25.60 1915.77
   00:39:49.112.18-Apr-2020 2932.07 4419.79 63.56 1.00  25.80 1915.77
   00:39:49.313.18-Apr-2020 2932.07 4419.62 63.55 1.00  26.00 1915.77
   00:39:49.513.18-Apr-2020 2932.07 4419.62 63.55 1.00  26.20 1915.77
   00:39:49.713.18-Apr-2020 2932.07 4419.13 63.55 1.00  26.40 1915.77
   00:39:49.913.18-Apr-2020 2932.07 4419.43 63.55 1.00  26.60 1915.77
   00:39:50.113.18-Apr-2020 2932.07 4419.42 63.55 1.00  26.80 1915.77
   00:39:50.313.18-Apr-2020 2932.07 4419.34 63.55 1.00  27.00 1915.77
   00:39:50.513.18-Apr-2020 2932.07 4419.34 63.55 1.00  27.20 1915.77
   00:39:50.713.18-Apr-2020 2932.07 4418.97 63.55 1.00  27.40 1915.77
   00:39:50.913.18-Apr-2020 2932.07 4419.14 63.55 1.00  27.60 1915.77
   00:39:51.113.18-Apr-2020 2932.07 4419.31 63.55 1.00  27.80 1915.77
   00:39:51.313.18-Apr-2020 2932.07 4418.20 63.55 1.00  28.00 1915.77
   00:39:51.513.18-Apr-2020 2932.07 4419.08 63.55 1.00  28.20 1915.77
   00:39:51.713.18-Apr-2020 2932.07 4419.77 63.55 1.00  28.40 1915.77
   00:39:51.913.18-Apr-2020 2932.07 4420.05 63.55 1.00  28.60 1915.77
   00:39:52.113.18-Apr-2020 2932.07 4420.02 63.55 1.00  28.80 1915.77
   00:39:52.313.18-Apr-2020 2932.07 4420.32 63.55 1.00  29.00 1915.77
   00:39:52.513.18-Apr-2020 2932.07 4420.32 63.55 1.00  29.20 1915.77
   00:39:52.713.18-Apr-2020 2932.07 4420.65 63.55 1.00  29.40 1915.77
   00:39:52.913.18-Apr-2020 2932.07 4420.59 63.55 1.00  29.60 1915.77
   00:39:53.113.18-Apr-2020 2932.07 4420.90 63.55 1.00  29.80 1915.77
   00:39:53.313.18-Apr-2020 2932.07 4420.94 63.55 1.00  30.00 1915.77
   00:39:53.513.18-Apr-2020 2932.07 4420.94 63.55 1.00  30.20 1915.77
   00:39:53.713.18-Apr-2020 2932.07 4421.00 63.55 1.00  30.40 1915.77
   00:39:53.913.18-Apr-2020 2932.07 4421.15 63.55 1.00  30.60 1915.77
   00:39:54.113.18-Apr-2020 2932.07 4419.69 63.54 1.00  30.80 1915.77
   00:39:54.313.18-Apr-2020 2932.07 4421.83 63.54 1.00  31.01 1915.77
   00:39:54.513.18-Apr-2020 2932.07 4421.83 63.54 1.00  31.21 1915.77
   00:39:54.713.18-Apr-2020 2932.07 4419.66 63.54 1.00  31.41 1915.77
   00:39:54.913.18-Apr-2020 2932.07 4421.93 63.54 1.00  31.61 1915.77
   00:39:55.113.18-Apr-2020 2932.07 4422.03 63.54 1.00  31.81 1915.77
   00:39:55.313.18-Apr-2020 2932.07 4420.93 63.54 1.00  32.01 1915.77
   00:39:55.514.18-Apr-2020 2932.07 4421.08 63.54 1.00  32.21 1915.77
   00:39:55.714.18-Apr-2020 2932.07 4421.86 63.54 1.00  32.41 1915.77
   00:39:55.914.18-Apr-2020 2932.07 4421.55 63.54 1.00  32.61 1915.77
   00:39:56.114.18-Apr-2020 2932.07 4421.14 63.54 1.00  32.81 1915.77
   00:39:56.314.18-Apr-2020 2932.07 4420.47 63.54 1.00  33.01 1915.77
   00:39:56.514.18-Apr-2020 2932.07 4421.16 63.54 1.00  33.21 1915.77
   00:39:56.714.18-Apr-2020 2932.07 4421.58 63.54 1.00  33.41 1915.77
   00:39:56.914.18-Apr-2020 2932.07 4421.40 63.54 1.00  33.61 1915.77
   00:39:57.114.18-Apr-2020 2932.07 4421.21 63.54 1.00  33.81 1915.77
   00:39:57.314.18-Apr-2020 2932.07 4421.67 63.54 1.00  34.01 1915.77
   00:39:57.514.18-Apr-2020 2932.07 4421.67 63.54 1.00  34.21 1915.77
   00:39:57.714.18-Apr-2020 2932.07 4421.81 63.54 1.00  34.41 1915.77
   00:39:57.914.18-Apr-2020 2932.07 4422.14 63.54 1.00  34.61 1915.77
   00:39:58.114.18-Apr-2020 2932.07 4422.29 63.54 1.00  34.81 1915.77
   00:39:58.314.18-Apr-2020 2932.07 4421.46 63.54 1.00  35.01 1915.77
   00:39:58.514.18-Apr-2020 2932.07 4421.46 63.54 1.00  35.21 1915.77
   00:39:58.714.18-Apr-2020 2932.07 4421.19 63.54 1.00  35.41 1915.77
   00:39:58.914.18-Apr-2020 2932.07 4421.36 63.54 1.00  35.61 1915.77
   00:39:59.114.18-Apr-2020 2932.07 4421.08 63.53 1.00  35.81 1915.77
   00:39:59.314.18-Apr-2020 2932.07 4420.90 63.53 1.00  36.01 1915.77
   00:39:59.514.18-Apr-2020 2932.07 4420.69 63.53 1.00  36.21 1915.77
   00:39:59.714.18-Apr-2020 2932.07 4420.50 63.53 1.00  36.41 1915.77
   00:39:59.914.18-Apr-2020 2932.07 4420.43 63.53 1.00  36.61 1915.77
   00:40:00.114.18-Apr-2020 2932.07 4420.62 63.53 1.00  36.81 1915.77
   00:40:00.314.18-Apr-2020 2932.07 4420.36 63.53 1.00  37.01 1915.77
   00:40:00.514.18-Apr-2020 2932.07 4419.37 63.53 1.00  37.21 1915.77
   00:40:00.714.18-Apr-2020 2932.07 4420.78 63.53 1.00  37.41 1915.77
   00:40:00.914.18-Apr-2020 2932.07 4420.79 63.53 1.00  37.61 1915.77
   00:40:01.114.18-Apr-2020 2932.07 4420.53 63.53 1.00  37.81 1915.77
   00:40:01.314.18-Apr-2020 2932.07 4420.73 63.53 1.00  38.01 1915.77
   00:40:01.514.18-Apr-2020 2932.07 4420.73 63.53 1.00  38.21 1915.77
   00:40:01.715.18-Apr-2020 2932.07 4420.27 63.53 1.00  38.41 1915.77
   00:40:01.915.18-Apr-2020 2932.07 4420.38 63.53 1.00  38.61 1915.77
   00:40:02.115.18-Apr-2020 2932.07 4420.53 63.53 1.00  38.81 1915.77
   00:40:02.315.18-Apr-2020 2932.07 4420.31 63.53 1.00  39.01 1915.77
   00:40:02.515.18-Apr-2020 2932.07 4420.31 63.53 1.00  39.21 1915.77
   00:40:02.715.18-Apr-2020 2932.07 4420.32 63.53 1.00  39.41 1915.77
   00:40:02.915.18-Apr-2020 2932.07 4420.69 63.53 1.00  39.61 1915.77
   00:40:03.115.18-Apr-2020 2932.07 4420.69 63.53 1.00  39.81 1915.77
   00:40:03.315.18-Apr-2020 2932.07 4420.58 63.53 1.00  40.01 1915.77
   00:40:03.515.18-Apr-2020 2932.07 4418.72 63.53 1.00  40.21 1915.77
   00:40:03.715.18-Apr-2020 2932.07 4420.78 63.53 1.00  40.41 1915.77
   00:40:03.915.18-Apr-2020 2932.07 4420.28 63.53 1.00  40.61 1915.77
   00:40:04.115.18-Apr-2020 2932.07 4419.56 63.52 1.00  40.81 1915.77
   00:40:04.315.18-Apr-2020 2932.07 4420.17 63.52 1.00  41.01 1915.77
   00:40:04.515.18-Apr-2020 2932.07 4420.64 63.52 1.00  41.21 1915.77
   00:40:04.715.18-Apr-2020 2932.07 4420.08 63.52 1.00  41.41 1915.77
   00:40:04.915.18-Apr-2020 2932.07 4417.99 63.52 1.00  41.61 1915.77
   00:40:05.115.18-Apr-2020 2932.07 4420.62 63.52 1.00  41.81 1915.77
   00:40:05.315.18-Apr-2020 2932.07 4420.37 63.52 1.00  42.01 1915.77
   00:40:05.515.18-Apr-2020 2932.07 4420.37 63.52 1.00  42.21 1915.77
   00:40:05.715.18-Apr-2020 2932.07 4420.23 63.52 1.00  42.41 1915.77
   00:40:05.915.18-Apr-2020 2932.07 4420.33 63.52 1.00  42.61 1915.77
   00:40:06.115.18-Apr-2020 2932.07 4418.42 63.52 1.00  42.81 1915.77
   00:40:06.315.18-Apr-2020 2932.07 4420.45 63.52 1.00  43.01 1915.77
   00:40:06.515.18-Apr-2020 2932.07 4420.55 63.52 1.00  43.21 1915.77
   00:40:06.715.18-Apr-2020 2932.07 4420.71 63.52 1.00  43.41 1915.77
   00:40:06.915.18-Apr-2020 2932.07 4418.81 63.52 1.00  43.61 1915.77
   00:40:07.115.18-Apr-2020 2932.07 4421.07 63.52 1.00  43.81 1915.77
   00:40:07.315.18-Apr-2020 2932.07 4420.87 63.52 1.00  44.01 1915.77
   00:40:07.515.18-Apr-2020 2932.07 4420.87 63.52 1.00  44.21 1915.77
   00:40:07.715.18-Apr-2020 2932.07 4420.24 63.52 1.00  44.41 1915.77
   00:40:07.916.18-Apr-2020 2932.07 4420.56 63.52 1.00  44.61 1915.77
   00:40:08.116.18-Apr-2020 2932.07 4420.40 63.52 1.00  44.81 1915.77
   00:40:08.316.18-Apr-2020 2932.07 4420.40 63.52 1.00  45.01 1915.77
   00:40:08.516.18-Apr-2020 2932.07 4420.56 63.52 1.00  45.21 1915.77
   00:40:08.716.18-Apr-2020 2932.07 4420.81 63.52 1.00  45.41 1915.77
   00:40:08.916.18-Apr-2020 2932.07 4420.63 63.52 1.00  45.61 1915.77
   00:40:09.116.18-Apr-2020 2932.07 4420.35 63.51 1.00  45.81 1915.77
