~Version Information
 VERS.                  2.0:   CWLS log ASCII Standard -VERSION 2.0
 WRAP.                   NO:   One line per depth step
~Well Information Block
#MNEM.UNIT     VALUE/NAME     DESCRIPTION
#---------     -----------    ---------------------------
 STRT.S             15:57:21 18-Apr-20: START TIME 15:57:21 18-Apr-20
 STOP.S             16:04:15 18-Apr-20: STOP TIME  16:04:15 18-Apr-20
 STEP.S                   0.00: STEP TIME
 NULL.                 -999.25: NULL VALUE
 DFWT.                        :  DIST FWL TEXT
 DFST.                        :  DIST FSL TEXT
 DMF .                        :  DRILL MEAS FROM
 STIM.      16.29.52 23-Mar-20:  START TIME
 DATE.      16.29.52 23-Mar-20:  END TIME
 SPUD.               23-Mar-20:  SPUD DATE
 NREF.                    Grid:  NORTH REFERENCE
 HPTY.       Minimum Curvature:  HOLE POS TYPE
 DMOD.             Drill Model:  DRILL MOD DESC
 SVYD.                  Survey:  SURVEY DESC
 ILTD.               Lithology:  INTERP LTH DESC
 FTOP.          Formation Tops:  FORM TOPS DESC
 SON .        AZ-XX-0906252240:  JOB NUMBER
 RIG .             West Chirag:  RIG NAME
 PDAT.          Mean Sea Level:  PERMANENT DATUM
 FLD .                     ACG:  FIELD NAME
 CTRY.              Azerbaijan:  COUNTRY NAME
 WELL.           J23 (Slot 07):  WELL NAME
 SRVC.          Turan Drilling:  CONTRACTOR
 COMP.     BP Exploration (Casoian Sea) Ltd:  COMPANY
 WTYP.                Deviated:  WELL TYPE
 MDS .        Operator Entered:  MAG DATA SOURCE
 UWI .                     N/A:  UNIQUE WELL IDENTIFIER
 API .                     N/A:  API NUMBER
 BASE.              Azerbaijan:  LOGGING EQUIPMENT BASE LOCATION
 REGN.                   EESSA:  REGION
 PROV.                    Baku:  PROVINCE
 STAT.                    Baku:  STATE NAME
 MWDS.                     N/A:  MWD SHOP
 JOBN.        AZ-XX-0906252240:  JOB TICKET NUMB
 DOE .                     N/A:  DOE NUMBER
 DCON.         Sperry Drilling:  DIRECTNL CONTR
 UNIT.                     N/A:  LOGGING EQUIPMENT ID
 CNTY.                        :  COUNTY
 LOC .                        :  LOCATION
 LMF .             Drill Floor:  LOG MEASURED FROM
 TVDS.m                  43.00:  TVDSS CORRECTN
 LATI.deg                40.13:  LATITUDE
 LONG.deg                51.22:  LONGITUDE
 WHNS.m                   9.43:  WELL HEAD N/S
 WHEW.m                  -8.91:  WELL HEAD E/W
 UTMX.m              519005.06:  UTM X
 UTMY.m             4443793.85:  UTM Y
 DFWL.m                   0.00:  DISTANCE FWL
 DFSL.m                   0.00:  DISTANCE FSL
 SDEP.m                   0.00:  START DEPTH
 TDD .m                   0.00:  TOTAL DEPTH (DRILLER)
 VSDR.deg               179.88:  VERT SEC DIRECT
 GVFD.g                   1.00:  GRAVITY FIELD
 MFLD.nT              50281.00:  MAGNETIC FIELD
 MDIP.deg                59.58:  MAGNETIC DIP
 MDEC.deg                 6.48:  MAGNETIC DECL
 GRDC.deg                 0.14:  GRID CORRECTION
 AZTC.deg                 6.34:  AZM TOTAL CORR
 EPD .m                   0.00:  ELEVATION
 EGL .m                   0.00:  GROUND ELEVATION
 WDMS.m                 169.80:  WD ELEV
 APD .m                  43.00:  DEPTH ABOVE PD
 DEP .m                 354.17:  DEPTH
 AGAP.m                  43.00:  AIR GAP
 VSEW.m                  -8.91:  VERT SEC E/W
 VSNS.m                   9.43:  VERT SEC N/S
 EKB .m                   0.00:  KB ELEVATION
 EDF .m                  43.00:  DF ELEVATION
 TDL .m                1326.00:  TOTAL DEPTH (LOGGER)
 VSC .                       0:  VS TO CLOSURE
 MAGU.                 1850704:  MAGUTM CHECKSUM
~Parameter Information Block
#MNEM.UNIT       Value        Description
#---------     -----------    ---------------------------
 AV  .mps                 1.17:  Ann Velocity 
 AZIF.deg               184.04:  Azm, Final 
 BHAT.        Rotary Steerable:  BHA Type 
 BREV.rev            620000.00:  Rev Bit Total 
 BROT.°/30m               0.20:  Build Rotating 
 BS  .in                 14.75:  Bit Size 
 BSZ .in                 14.75:  Bit Size 
 BTPL.psig              618.00:  Bit Press Loss 
 CABU.                      No:  Customer Abuse 
 COMM.                     ¬)g:  Run Comments 1 
 TCS .hr                 87.68:  Time Ciculation Ended 
 CV  .mps                 3.10:  Crit Velocity 
 DD1 .          Rashad Habibov:  Direct Drillr 1 
 DD2 .         Rasim Ibrahimov:  Direct Drillr 2 
 DDSV.               Geo-Pilot:  DD Service 
 DEFF.%                  98.00:  % Det Eff 
 DLRX.°/30m               1.48:  Dogleg Rot Max 
 DLSO.°/30m               0.50:  Dogleg Oriented 
 DLSX.°/30m               1.48:  Dogleg Str Max 
 DRET.      06.18.56 19-Apr-20:  Drill End Time 
 DRST.      15.00.56 15-Apr-20:  Drill Start Tim 
 DTIM.hr                 51.73:  Time Drilling 
 EDEP.m                3410.01:  End Depth 
 ENG1.        Marcelo Sandoval:  Engineer 1 
 ENG2.        Davud Huseynzade:  Engineer 2 
 ENG3.          Ruslan Safarov:  Engineer 3 
 ETIM.      04.00.56 20-Apr-20:  End Time 
 FLOI.gpm              1000.00:  Flow In 
 FLON.gpm               600.00:  Flow In Min 
 FLOS.cptm                0.00:  Fluid Loss 
 FLOX.gpm              1200.00:  Flow In Max 
 HFLO.                      No:  High Flow 
 HPRE.                     Yes:  High Pressure 
 HTEM.                      No:  High Temp 
 HYDO.m                   1.80:  Hydro Offset 
 IFIN.deg                70.04:  Inc, Final 
 IMAX.deg                70.56:  Inc Max 
 IMIN.deg                69.85:  Inc Min 
 IMND.m                3103.24:  Inc Min Depth 
 IMXD.m                2876.63:  Inc Max Depth 
 JARR.                      No:  Jarring 
 LETM.      06.18.56 19-Apr-20:  Log End Time 
 LOST.hr                     0:  Lost Rig Time 
 LSTM.      15.00.56 15-Apr-20:  Log Start Time 
 MDCL.ppm             42000.00:  Mud Chlorides 
 MDES.     Inversion Oil/Synthetic:  Mud Desc 
 DFD .sg                  1.58:  Mud Density 
 MDMN.sg                  1.58:  Dens Mud Min 
 MDMX.sg                  1.58:  Dens Mud Max 
 MOIL.                      71:  Run Mud Oil % 
 MOWR.                   71:29:  Run Mud OWR 
 MSND.                       0:  Run Mud Sand % 
 MSOL.                    23.3:  Run Mud Solids% 
 DFV .spqt               84.00:  Mud Viscosity 
 MWOD.in                  9.50:  MWD Tool OD 
 MWSI.                      No:  Serv Intrp, MWD 
 OTIM.hr                139.62:  Time Operating 
 PMAX.psia             5364.69:  Press Op, Max 
 PV  .cP                 80.00:  Mud PV 
 RUN .                     700:  Run Number 
 ROPA.m/hr               25.00:  ROP Avg 
 ROPN.m/hr               11.00:  ROP Min 
 ROPX.m/hr               36.00:  ROP Max 
 RPMA.rpm               130.00:  RPM Surface Avg 
 RPMN.rpm               120.00:  RPM Surface Min 
 RPMX.rpm               140.00:  RPM Surface Max 
 RRUN.                    0700:  Rig Run Number 
 SAZI.deg               183.25:  Azm, Start 
 SDEP.m                2084.00:  Start Depth 
 SIDD.                      No:  Serv Intrp, DD 
 SINC.deg                70.38:  Inc, Start 
 SPPA.psig             4800.00:  SPP Avg 
 SPPN.psig             4400.00:  SPP Min 
 SPPX.psig             5350.00:  SPP Max 
 STIM.      16.30.56 14-Apr-20:  Start Time 
 SVCS.                 DD, MWD:  Services 
 SVER.                    9.20:  Sperry Version 
 TDAT.m                1326.00:  Tot Depth Attmp 
 TDDF.                      No:  Trip for DD 
 TDLG.m                1326.00:  Tot Depth Loggd 
 TFF .                      No:  Trip for Fail 
 TQAA.f-kp               19.00:  Torque Abs Avg 
 TQAN.f-kp                8.00:  Torque Abs Min 
 TQAX.f-kp               27.00:  Torque Abs Max 
 TRRT.°/30m               0.50:  Turn Rotating 
 MRT .                    HCIM:  Maximum Recorded Temperature 
 TTMX.degC               82.35:  Max Tool Temp 
 VS01.       905245875X1Z1W1C8:  Virtual Str1 SN 
 VS02.       90608022F11V7D1A9:  Virtual Str2 SN 
 VS03.            90605473R5C9:  Virtual Str3 SN 
 WBMN.klb                11.00:  WOB Min 
 WOBA.klb                21.00:  WOB Avg 
 WOBX.klb                30.00:  WOB Max 
 YP  .lhf2               45.00:  Yield Point 
~Curve Information Block
#MNEM.UNIT                 API CODE     Curve Description
#---------               -----------    ---------------------------
 TIME.HHMMSS            00 000 000 000:  GT Time & Date
 GTDEPTH.m              00 000 000 000:  GT Depth
 GTPQH.psia             00 000 000 000:  GT HR Quartz Pressure
 GTTQ.degC              00 000 000 000:  GT Quartz Temperature
 GTTN.NONE              00 000 000 000:  GT Test Number
 GTET.sec               00 000 000 000:  GT Elapsed Test Time
 GTTVD.m                00 000 000 000:  GT True Vertical Depth
#Other Information
#
#WARRANTY: Halliburton will use its best efforts to furnish customers with 
#accurate information and interpretations that are part of, and incident to, the services 
#provided.  However, Halliburton cannot and does not warrant the accuracy 
#or correctness of such information and interpretations.  Under no circumstances should any 
#such information or interpretation be relied upon as the sole basis for any drilling, 
#completion, production, or financial decision or any procedure involving any risk to the 
#safety of any drilling venture, drilling rig or its crew or any other third party.  The 
#Customer has full responsibility for all drilling, completion and production operation.  
#Halliburton makes no representations or warranties, either expressed or 
#implied, including, but not limited to, the implied warranties of merchantability or fitness 
#for a particular purpose, with respect to the services rendered.  In no event will 
#Halliburton be liable for failure to obtain any particular results or for 
#any damages, including, but not limited to, indirect, special or consequential damages, 
#resulting from the use of any information or interpretation provided by Halliburton.
#
~A           TIME           GTDEPTH  GTPQH  GTTQ  GTTN  GTET   GTTVD  
# ...
   16:03:06.165.18-Apr-2020 3140.11 3320.27 67.42 7.00 344.96 1986.54
   16:03:06.365.18-Apr-2020 3140.11 3320.27 67.42 7.00 345.16 1986.54
   16:03:06.565.18-Apr-2020 3140.11 3320.26 67.42 7.00 345.36 1986.54
   16:03:06.765.18-Apr-2020 3140.11 3320.25 67.42 7.00 345.56 1986.54
   16:03:06.965.18-Apr-2020 3140.11 3320.26 67.42 7.00 345.76 1986.54
   16:03:07.165.18-Apr-2020 3140.11 3320.26 67.42 7.00 345.96 1986.54
   16:03:07.365.18-Apr-2020 3140.11 3320.26 67.42 7.00 346.16 1986.54
   16:03:07.565.18-Apr-2020 3140.11 3320.25 67.42 7.00 346.36 1986.54
   16:03:07.765.18-Apr-2020 3140.11 3320.26 67.42 7.00 346.56 1986.54
   16:03:07.965.18-Apr-2020 3140.11 3320.27 67.42 7.00 346.76 1986.54
   16:03:08.165.18-Apr-2020 3140.11 3320.25 67.42 7.00 346.96 1986.54
   16:03:08.365.18-Apr-2020 3140.11 3320.26 67.42 7.00 347.16 1986.54
   16:03:08.565.18-Apr-2020 3140.11 3320.23 67.42 7.00 347.36 1986.54
   16:03:08.765.18-Apr-2020 3140.11 3320.27 67.42 7.00 347.56 1986.54
   16:03:08.965.18-Apr-2020 3140.11 3320.26 67.42 7.00 347.76 1986.54
   16:03:09.165.18-Apr-2020 3140.11 3320.25 67.42 7.00 347.96 1986.54
   16:03:09.365.18-Apr-2020 3140.11 3320.25 67.42 7.00 348.16 1986.54
   16:03:09.565.18-Apr-2020 3140.11 3320.27 67.42 7.00 348.36 1986.54
   16:03:09.765.18-Apr-2020 3140.11 3320.27 67.42 7.00 348.56 1986.54
   16:03:09.965.18-Apr-2020 3140.11 3320.27 67.42 7.00 348.76 1986.54
   16:03:10.165.18-Apr-2020 3140.11 3320.25 67.42 7.00 348.96 1986.54
   16:03:10.365.18-Apr-2020 3140.11 3320.25 67.42 7.00 349.16 1986.54
   16:03:10.565.18-Apr-2020 3140.11 3320.27 67.42 7.00 349.36 1986.54
   16:03:10.765.18-Apr-2020 3140.11 3320.26 67.42 7.00 349.56 1986.54
   16:03:10.964.18-Apr-2020 3140.11 3320.26 67.42 7.00 349.76 1986.54
   16:03:11.164.18-Apr-2020 3140.11 3320.25 67.42 7.00 349.96 1986.54
   16:03:11.364.18-Apr-2020 3140.11 3320.25 67.42 7.00 350.16 1986.54
   16:03:11.564.18-Apr-2020 3140.11 3320.26 67.42 7.00 350.36 1986.54
   16:03:11.764.18-Apr-2020 3140.11 3320.26 67.42 7.00 350.56 1986.54
   16:03:11.964.18-Apr-2020 3140.11 3320.26 67.42 7.00 350.76 1986.54
   16:03:12.164.18-Apr-2020 3140.11 3320.26 67.42 7.00 350.96 1986.54
   16:03:12.364.18-Apr-2020 3140.11 3320.26 67.42 7.00 351.16 1986.54
   16:03:12.564.18-Apr-2020 3140.11 3320.25 67.42 7.00 351.36 1986.54
   16:03:12.764.18-Apr-2020 3140.11 3320.26 67.42 7.00 351.56 1986.54
   16:03:12.964.18-Apr-2020 3140.11 3320.27 67.42 7.00 351.76 1986.54
   16:03:13.164.18-Apr-2020 3140.11 3320.27 67.42 7.00 351.96 1986.54
   16:03:13.364.18-Apr-2020 3140.11 3320.27 67.42 7.00 352.16 1986.54
   16:03:13.564.18-Apr-2020 3140.11 3320.26 67.42 7.00 352.36 1986.54
   16:03:13.764.18-Apr-2020 3140.11 3320.26 67.42 7.00 352.56 1986.54
   16:03:13.964.18-Apr-2020 3140.11 3320.25 67.42 7.00 352.76 1986.54
   16:03:14.164.18-Apr-2020 3140.11 3320.25 67.42 7.00 352.96 1986.54
   16:03:14.364.18-Apr-2020 3140.11 3320.25 67.42 7.00 353.16 1986.54
   16:03:14.564.18-Apr-2020 3140.11 3320.26 67.42 7.00 353.36 1986.54
   16:03:14.764.18-Apr-2020 3140.11 3320.26 67.42 7.00 353.56 1986.54
   16:03:14.964.18-Apr-2020 3140.11 3320.26 67.42 7.00 353.76 1986.54
   16:03:15.164.18-Apr-2020 3140.11 3320.26 67.42 7.00 353.96 1986.54
   16:03:15.364.18-Apr-2020 3140.11 3320.26 67.42 7.00 354.16 1986.54
   16:03:15.564.18-Apr-2020 3140.11 3320.26 67.42 7.00 354.36 1986.54
   16:03:15.764.18-Apr-2020 3140.11 3320.27 67.42 7.00 354.56 1986.54
   16:03:15.964.18-Apr-2020 3140.11 3320.26 67.42 7.00 354.76 1986.54
   16:03:16.164.18-Apr-2020 3140.11 3320.25 67.42 7.00 354.96 1986.54
   16:03:16.364.18-Apr-2020 3140.11 3320.26 67.42 7.00 355.16 1986.54
   16:03:16.564.18-Apr-2020 3140.11 3320.26 67.42 7.00 355.36 1986.54
   16:03:16.764.18-Apr-2020 3140.11 3320.26 67.42 7.00 355.56 1986.54
   16:03:16.964.18-Apr-2020 3140.11 3320.25 67.42 7.00 355.76 1986.54
   16:03:17.164.18-Apr-2020 3140.11 3320.26 67.42 7.00 355.96 1986.54
   16:03:17.364.18-Apr-2020 3140.11 3320.26 67.42 7.00 356.16 1986.54
   16:03:17.564.18-Apr-2020 3140.11 3320.25 67.42 7.00 356.36 1986.54
   16:03:17.764.18-Apr-2020 3140.11 3320.25 67.42 7.00 356.56 1986.54
   16:03:17.964.18-Apr-2020 3140.11 3320.26 67.42 7.00 356.76 1986.54
   16:03:18.164.18-Apr-2020 3140.11 3320.24 67.42 7.00 356.96 1986.54
   16:03:18.364.18-Apr-2020 3140.11 3320.24 67.42 7.00 357.16 1986.54
   16:03:18.564.18-Apr-2020 3140.11 3320.26 67.42 7.00 357.36 1986.54
   16:03:18.764.18-Apr-2020 3140.11 3320.24 67.42 7.00 357.56 1986.54
   16:03:18.964.18-Apr-2020 3140.11 3320.27 67.42 7.00 357.76 1986.54
   16:03:19.164.18-Apr-2020 3140.11 3320.26 67.42 7.00 357.96 1986.54
   16:03:19.364.18-Apr-2020 3140.11 3320.26 67.42 7.00 358.16 1986.54
   16:03:19.563.18-Apr-2020 3140.11 3320.26 67.42 7.00 358.36 1986.54
   16:03:19.763.18-Apr-2020 3140.11 3320.26 67.42 7.00 358.56 1986.54
   16:03:19.963.18-Apr-2020 3140.11 3320.25 67.42 7.00 358.76 1986.54
   16:03:20.163.18-Apr-2020 3140.11 3320.26 67.41 7.00 358.96 1986.54
   16:03:20.363.18-Apr-2020 3140.11 3320.26 67.41 7.00 359.16 1986.54
   16:03:20.563.18-Apr-2020 3140.11 3320.25 67.41 7.00 359.36 1986.54
   16:03:20.763.18-Apr-2020 3140.11 3320.27 67.41 7.00 359.56 1986.54
   16:03:20.963.18-Apr-2020 3140.11 3320.23 67.41 7.00 359.76 1986.54
   16:03:21.163.18-Apr-2020 3140.11 3320.27 67.41 7.00 359.96 1986.54
   16:03:21.363.18-Apr-2020 3140.11 3320.27 67.41 7.00 360.16 1986.54
   16:03:21.563.18-Apr-2020 3140.11 3320.27 67.41 7.00 360.36 1986.54
   16:03:21.763.18-Apr-2020 3140.11 3320.26 67.41 7.00 360.56 1986.54
   16:03:21.963.18-Apr-2020 3140.11 3320.26 67.41 7.00 360.76 1986.54
   16:03:22.163.18-Apr-2020 3140.11 3320.25 67.41 7.00 360.96 1986.54
   16:03:22.363.18-Apr-2020 3140.11 3320.25 67.41 7.00 361.16 1986.54
   16:03:22.563.18-Apr-2020 3140.11 3320.27 67.41 7.00 361.36 1986.54
   16:03:22.763.18-Apr-2020 3140.11 3320.25 67.41 7.00 361.56 1986.54
   16:03:22.963.18-Apr-2020 3140.11 3320.27 67.41 7.00 361.76 1986.54
   16:03:23.163.18-Apr-2020 3140.11 3320.26 67.41 7.00 361.96 1986.54
   16:03:23.363.18-Apr-2020 3140.11 3320.26 67.41 7.00 362.16 1986.54
   16:03:23.563.18-Apr-2020 3140.11 3320.27 67.41 7.00 362.36 1986.54
   16:03:23.763.18-Apr-2020 3140.11 3320.26 67.41 7.00 362.56 1986.54
   16:03:23.963.18-Apr-2020 3140.11 3320.26 67.41 7.00 362.76 1986.54
   16:03:24.163.18-Apr-2020 3140.11 3320.26 67.41 7.00 362.96 1986.54
   16:03:24.363.18-Apr-2020 3140.11 3320.26 67.41 7.00 363.16 1986.54
   16:03:24.563.18-Apr-2020 3140.11 3320.25 67.41 7.00 363.36 1986.54
   16:03:24.763.18-Apr-2020 3140.11 3320.26 67.41 7.00 363.56 1986.54
   16:03:24.963.18-Apr-2020 3140.11 3320.25 67.41 7.00 363.76 1986.54
   16:03:25.163.18-Apr-2020 3140.11 3320.26 67.41 7.00 363.96 1986.54
   16:03:25.363.18-Apr-2020 3140.11 3320.26 67.41 7.00 364.16 1986.54
   16:03:25.563.18-Apr-2020 3140.11 3320.27 67.41 7.00 364.36 1986.54
   16:03:25.763.18-Apr-2020 3140.11 3320.27 67.41 7.00 364.56 1986.54
   16:03:25.963.18-Apr-2020 3140.11 3320.26 67.41 7.00 364.76 1986.54
   16:03:26.163.18-Apr-2020 3140.11 3320.27 67.41 7.00 364.96 1986.54
   16:03:26.363.18-Apr-2020 3140.11 3320.27 67.41 7.00 365.16 1986.54
   16:03:26.563.18-Apr-2020 3140.11 3320.26 67.41 7.00 365.36 1986.54
   16:03:26.763.18-Apr-2020 3140.11 3320.25 67.41 7.00 365.56 1986.54
   16:03:26.963.18-Apr-2020 3140.11 3320.27 67.41 7.00 365.76 1986.54
   16:03:27.163.18-Apr-2020 3140.11 3320.26 67.41 7.00 365.96 1986.54
   16:03:27.363.18-Apr-2020 3140.11 3320.26 67.41 7.00 366.16 1986.54
   16:03:27.563.18-Apr-2020 3140.11 3320.25 67.41 7.00 366.36 1986.54
   16:03:27.763.18-Apr-2020 3140.11 3320.26 67.41 7.00 366.56 1986.54
   16:03:27.963.18-Apr-2020 3140.11 3320.26 67.41 7.00 366.76 1986.54
   16:03:28.162.18-Apr-2020 3140.11 3320.27 67.41 7.00 366.96 1986.54
   16:03:28.362.18-Apr-2020 3140.11 3320.25 67.41 7.00 367.16 1986.54
   16:03:28.562.18-Apr-2020 3140.11 3320.28 67.41 7.00 367.36 1986.54
   16:03:28.762.18-Apr-2020 3140.11 3320.27 67.41 7.00 367.56 1986.54
   16:03:28.962.18-Apr-2020 3140.11 3320.26 67.41 7.00 367.76 1986.54
