~Version Information
 VERS.                  2.0:   CWLS log ASCII Standard -VERSION 2.0
 WRAP.                   NO:   One line per depth step
~Well Information Block
#MNEM.UNIT     VALUE/NAME     DESCRIPTION
#---------     -----------    ---------------------------
 STRT.S             08:47:02 18-Apr-20: START TIME 08:47:02 18-Apr-20
 STOP.S             08:53:58 18-Apr-20: STOP TIME  08:53:58 18-Apr-20
 STEP.S                   0.00: STEP TIME
 NULL.                 -999.25: NULL VALUE
 DFWT.                        :  DIST FWL TEXT
 DFST.                        :  DIST FSL TEXT
 DMF .                        :  DRILL MEAS FROM
 STIM.      16.29.52 23-Mar-20:  START TIME
 DATE.      16.29.52 23-Mar-20:  END TIME
 SPUD.               23-Mar-20:  SPUD DATE
 NREF.                    Grid:  NORTH REFERENCE
 HPTY.       Minimum Curvature:  HOLE POS TYPE
 DMOD.             Drill Model:  DRILL MOD DESC
 SVYD.                  Survey:  SURVEY DESC
 ILTD.               Lithology:  INTERP LTH DESC
 FTOP.          Formation Tops:  FORM TOPS DESC
 SON .        AZ-XX-0906252240:  JOB NUMBER
 RIG .             West Chirag:  RIG NAME
 PDAT.          Mean Sea Level:  PERMANENT DATUM
 FLD .                     ACG:  FIELD NAME
 CTRY.              Azerbaijan:  COUNTRY NAME
 WELL.           J23 (Slot 07):  WELL NAME
 SRVC.          Turan Drilling:  CONTRACTOR
 COMP.     BP Exploration (Casoian Sea) Ltd:  COMPANY
 WTYP.                Deviated:  WELL TYPE
 MDS .        Operator Entered:  MAG DATA SOURCE
 UWI .                     N/A:  UNIQUE WELL IDENTIFIER
 API .                     N/A:  API NUMBER
 BASE.              Azerbaijan:  LOGGING EQUIPMENT BASE LOCATION
 REGN.                   EESSA:  REGION
 PROV.                    Baku:  PROVINCE
 STAT.                    Baku:  STATE NAME
 MWDS.                     N/A:  MWD SHOP
 JOBN.        AZ-XX-0906252240:  JOB TICKET NUMB
 DOE .                     N/A:  DOE NUMBER
 DCON.         Sperry Drilling:  DIRECTNL CONTR
 UNIT.                     N/A:  LOGGING EQUIPMENT ID
 CNTY.                        :  COUNTY
 LOC .                        :  LOCATION
 LMF .             Drill Floor:  LOG MEASURED FROM
 TVDS.m                  43.00:  TVDSS CORRECTN
 LATI.deg                40.13:  LATITUDE
 LONG.deg                51.22:  LONGITUDE
 WHNS.m                   9.43:  WELL HEAD N/S
 WHEW.m                  -8.91:  WELL HEAD E/W
 UTMX.m              519005.06:  UTM X
 UTMY.m             4443793.85:  UTM Y
 DFWL.m                   0.00:  DISTANCE FWL
 DFSL.m                   0.00:  DISTANCE FSL
 SDEP.m                   0.00:  START DEPTH
 TDD .m                   0.00:  TOTAL DEPTH (DRILLER)
 VSDR.deg               179.88:  VERT SEC DIRECT
 GVFD.g                   1.00:  GRAVITY FIELD
 MFLD.nT              50281.00:  MAGNETIC FIELD
 MDIP.deg                59.58:  MAGNETIC DIP
 MDEC.deg                 6.48:  MAGNETIC DECL
 GRDC.deg                 0.14:  GRID CORRECTION
 AZTC.deg                 6.34:  AZM TOTAL CORR
 EPD .m                   0.00:  ELEVATION
 EGL .m                   0.00:  GROUND ELEVATION
 WDMS.m                 169.80:  WD ELEV
 APD .m                  43.00:  DEPTH ABOVE PD
 DEP .m                 354.17:  DEPTH
 AGAP.m                  43.00:  AIR GAP
 VSEW.m                  -8.91:  VERT SEC E/W
 VSNS.m                   9.43:  VERT SEC N/S
 EKB .m                   0.00:  KB ELEVATION
 EDF .m                  43.00:  DF ELEVATION
 TDL .m                1326.00:  TOTAL DEPTH (LOGGER)
 VSC .                       0:  VS TO CLOSURE
 MAGU.                 1850704:  MAGUTM CHECKSUM
~Parameter Information Block
#MNEM.UNIT       Value        Description
#---------     -----------    ---------------------------
 AV  .mps                 1.17:  Ann Velocity 
 AZIF.deg               184.04:  Azm, Final 
 BHAT.        Rotary Steerable:  BHA Type 
 BREV.rev            620000.00:  Rev Bit Total 
 BROT.°/30m               0.20:  Build Rotating 
 BS  .in                 14.75:  Bit Size 
 BSZ .in                 14.75:  Bit Size 
 BTPL.psig              618.00:  Bit Press Loss 
 CABU.                      No:  Customer Abuse 
 TCS .hr                 87.68:  Time Ciculation Ended 
 CV  .mps                 3.10:  Crit Velocity 
 DD1 .          Rashad Habibov:  Direct Drillr 1 
 DD2 .         Rasim Ibrahimov:  Direct Drillr 2 
 DDSV.               Geo-Pilot:  DD Service 
 DEFF.%                  98.00:  % Det Eff 
 DLRX.°/30m               1.48:  Dogleg Rot Max 
 DLSO.°/30m               0.50:  Dogleg Oriented 
 DLSX.°/30m               1.48:  Dogleg Str Max 
 DRET.      06.18.56 19-Apr-20:  Drill End Time 
 DRST.      15.00.56 15-Apr-20:  Drill Start Tim 
 DTIM.hr                 51.73:  Time Drilling 
 EDEP.m                3410.01:  End Depth 
 ENG1.        Marcelo Sandoval:  Engineer 1 
 ENG2.        Davud Huseynzade:  Engineer 2 
 ENG3.          Ruslan Safarov:  Engineer 3 
 ETIM.      04.00.56 20-Apr-20:  End Time 
 FLOI.gpm              1000.00:  Flow In 
 FLON.gpm               600.00:  Flow In Min 
 FLOS.cptm                0.00:  Fluid Loss 
 FLOX.gpm              1200.00:  Flow In Max 
 HFLO.                      No:  High Flow 
 HPRE.                     Yes:  High Pressure 
 HTEM.                      No:  High Temp 
 HYDO.m                   1.80:  Hydro Offset 
 IFIN.deg                70.04:  Inc, Final 
 IMAX.deg                70.56:  Inc Max 
 IMIN.deg                69.85:  Inc Min 
 IMND.m                3103.24:  Inc Min Depth 
 IMXD.m                2876.63:  Inc Max Depth 
 JARR.                      No:  Jarring 
 LETM.      06.18.56 19-Apr-20:  Log End Time 
 LOST.hr                     0:  Lost Rig Time 
 LSTM.      15.00.56 15-Apr-20:  Log Start Time 
 MDCL.ppm             42000.00:  Mud Chlorides 
 MDES.     Inversion Oil/Synthetic:  Mud Desc 
 DFD .sg                  1.58:  Mud Density 
 MDMN.sg                  1.58:  Dens Mud Min 
 MDMX.sg                  1.58:  Dens Mud Max 
 MOIL.                      71:  Run Mud Oil % 
 MOWR.                   71:29:  Run Mud OWR 
 MSND.                       0:  Run Mud Sand % 
 MSOL.                    23.3:  Run Mud Solids% 
 DFV .spqt               84.00:  Mud Viscosity 
 MWOD.in                  9.50:  MWD Tool OD 
 MWSI.                      No:  Serv Intrp, MWD 
 OTIM.hr                139.62:  Time Operating 
 PMAX.psia             5364.69:  Press Op, Max 
 PV  .cP                 80.00:  Mud PV 
 RUN .                     700:  Run Number 
 ROPA.m/hr               25.00:  ROP Avg 
 ROPN.m/hr               11.00:  ROP Min 
 ROPX.m/hr               36.00:  ROP Max 
 RPMA.rpm               130.00:  RPM Surface Avg 
 RPMN.rpm               120.00:  RPM Surface Min 
 RPMX.rpm               140.00:  RPM Surface Max 
 RRUN.                    0700:  Rig Run Number 
 SAZI.deg               183.25:  Azm, Start 
 SDEP.m                2084.00:  Start Depth 
 SIDD.                      No:  Serv Intrp, DD 
 SINC.deg                70.38:  Inc, Start 
 SPPA.psig             4800.00:  SPP Avg 
 SPPN.psig             4400.00:  SPP Min 
 SPPX.psig             5350.00:  SPP Max 
 STIM.      16.30.56 14-Apr-20:  Start Time 
 SVCS.                 DD, MWD:  Services 
 SVER.                    9.20:  Sperry Version 
 TDAT.m                1326.00:  Tot Depth Attmp 
 TDDF.                      No:  Trip for DD 
 TDLG.m                1326.00:  Tot Depth Loggd 
 TFF .                      No:  Trip for Fail 
 TQAA.f-kp               19.00:  Torque Abs Avg 
 TQAN.f-kp                8.00:  Torque Abs Min 
 TQAX.f-kp               27.00:  Torque Abs Max 
 TRRT.°/30m               0.50:  Turn Rotating 
 MRT .                    HCIM:  Maximum Recorded Temperature 
 TTMX.degC               82.35:  Max Tool Temp 
 VS01.       905245875X1Z1W1C8:  Virtual Str1 SN 
 VS02.       90608022F11V7D1A9:  Virtual Str2 SN 
 VS03.            90605473R5C9:  Virtual Str3 SN 
 WBMN.klb                11.00:  WOB Min 
 WOBA.klb                21.00:  WOB Avg 
 WOBX.klb                30.00:  WOB Max 
 YP  .lhf2               45.00:  Yield Point 
~Curve Information Block
#MNEM.UNIT                 API CODE     Curve Description
#---------               -----------    ---------------------------
 TIME.HHMMSS            00 000 000 000:  GT Time & Date
 GTDEPTH.m              00 000 000 000:  GT Depth
 GTPQH.psia             00 000 000 000:  GT HR Quartz Pressure
 GTTQ.degC              00 000 000 000:  GT Quartz Temperature
 GTTN.NONE              00 000 000 000:  GT Test Number
 GTET.sec               00 000 000 000:  GT Elapsed Test Time
 GTTVD.m                00 000 000 000:  GT True Vertical Depth
#Other Information
#
#WARRANTY: Halliburton will use its best efforts to furnish customers with 
#accurate information and interpretations that are part of, and incident to, the services 
#provided.  However, Halliburton cannot and does not warrant the accuracy 
#or correctness of such information and interpretations.  Under no circumstances should any 
#such information or interpretation be relied upon as the sole basis for any drilling, 
#completion, production, or financial decision or any procedure involving any risk to the 
#safety of any drilling venture, drilling rig or its crew or any other third party.  The 
#Customer has full responsibility for all drilling, completion and production operation.  
#Halliburton makes no representations or warranties, either expressed or 
#implied, including, but not limited to, the implied warranties of merchantability or fitness 
#for a particular purpose, with respect to the services rendered.  In no event will 
#Halliburton be liable for failure to obtain any particular results or for 
#any damages, including, but not limited to, indirect, special or consequential damages, 
#resulting from the use of any information or interpretation provided by Halliburton.
#
~A           TIME           GTDEPTH  GTPQH  GTTQ  GTTN  GTET   GTTVD  
# ...
   08:52:47.394.18-Apr-2020 3032.52 3389.21 68.57 3.00 345.05 1949.78
   08:52:47.594.18-Apr-2020 3032.52 3389.23 68.57 3.00 345.25 1949.78
   08:52:47.794.18-Apr-2020 3032.52 3389.23 68.57 3.00 345.45 1949.78
   08:52:47.994.18-Apr-2020 3032.52 3389.23 68.57 3.00 345.65 1949.78
   08:52:48.194.18-Apr-2020 3032.52 3389.24 68.57 3.00 345.85 1949.78
   08:52:48.394.18-Apr-2020 3032.52 3389.22 68.57 3.00 346.05 1949.78
   08:52:48.594.18-Apr-2020 3032.52 3389.22 68.57 3.00 346.25 1949.78
   08:52:48.794.18-Apr-2020 3032.52 3389.22 68.57 3.00 346.45 1949.78
   08:52:48.994.18-Apr-2020 3032.52 3389.22 68.57 3.00 346.65 1949.78
   08:52:49.194.18-Apr-2020 3032.52 3389.22 68.57 3.00 346.85 1949.78
   08:52:49.394.18-Apr-2020 3032.52 3389.22 68.57 3.00 347.05 1949.78
   08:52:49.594.18-Apr-2020 3032.52 3389.22 68.57 3.00 347.25 1949.78
   08:52:49.794.18-Apr-2020 3032.52 3389.23 68.56 3.00 347.45 1949.78
   08:52:49.994.18-Apr-2020 3032.52 3389.21 68.56 3.00 347.65 1949.78
   08:52:50.194.18-Apr-2020 3032.52 3389.21 68.56 3.00 347.85 1949.78
   08:52:50.394.18-Apr-2020 3032.52 3389.24 68.56 3.00 348.05 1949.78
   08:52:50.594.18-Apr-2020 3032.52 3389.24 68.56 3.00 348.25 1949.78
   08:52:50.794.18-Apr-2020 3032.52 3389.23 68.56 3.00 348.45 1949.78
   08:52:50.994.18-Apr-2020 3032.52 3389.22 68.56 3.00 348.65 1949.78
   08:52:51.194.18-Apr-2020 3032.52 3389.22 68.56 3.00 348.85 1949.78
   08:52:51.394.18-Apr-2020 3032.52 3389.22 68.56 3.00 349.05 1949.78
   08:52:51.594.18-Apr-2020 3032.52 3389.22 68.56 3.00 349.25 1949.78
   08:52:51.794.18-Apr-2020 3032.52 3389.21 68.55 3.00 349.45 1949.78
   08:52:51.994.18-Apr-2020 3032.52 3389.21 68.55 3.00 349.65 1949.78
   08:52:52.194.18-Apr-2020 3032.52 3389.22 68.55 3.00 349.85 1949.78
   08:52:52.394.18-Apr-2020 3032.52 3389.22 68.55 3.00 350.05 1949.78
   08:52:52.594.18-Apr-2020 3032.52 3389.22 68.55 3.00 350.25 1949.78
   08:52:52.794.18-Apr-2020 3032.52 3389.20 68.55 3.00 350.45 1949.78
   08:52:52.994.18-Apr-2020 3032.52 3389.23 68.55 3.00 350.65 1949.78
   08:52:53.194.18-Apr-2020 3032.52 3389.23 68.55 3.00 350.85 1949.78
   08:52:53.394.18-Apr-2020 3032.52 3389.22 68.55 3.00 351.05 1949.78
   08:52:53.594.18-Apr-2020 3032.52 3389.22 68.55 3.00 351.25 1949.78
   08:52:53.794.18-Apr-2020 3032.52 3389.24 68.55 3.00 351.45 1949.78
   08:52:53.994.18-Apr-2020 3032.52 3389.23 68.54 3.00 351.65 1949.78
   08:52:54.195.18-Apr-2020 3032.52 3389.21 68.54 3.00 351.85 1949.78
   08:52:54.395.18-Apr-2020 3032.52 3389.21 68.54 3.00 352.05 1949.78
   08:52:54.595.18-Apr-2020 3032.52 3389.21 68.54 3.00 352.25 1949.78
   08:52:54.795.18-Apr-2020 3032.52 3389.22 68.54 3.00 352.45 1949.78
   08:52:54.995.18-Apr-2020 3032.52 3389.21 68.54 3.00 352.65 1949.78
   08:52:55.195.18-Apr-2020 3032.52 3389.20 68.54 3.00 352.85 1949.78
   08:52:55.395.18-Apr-2020 3032.52 3389.22 68.54 3.00 353.05 1949.78
   08:52:55.595.18-Apr-2020 3032.52 3389.23 68.54 3.00 353.25 1949.78
   08:52:55.795.18-Apr-2020 3032.52 3389.22 68.54 3.00 353.45 1949.78
   08:52:55.995.18-Apr-2020 3032.52 3389.22 68.54 3.00 353.65 1949.78
   08:52:56.195.18-Apr-2020 3032.52 3389.21 68.53 3.00 353.85 1949.78
   08:52:56.395.18-Apr-2020 3032.52 3389.25 68.53 3.00 354.05 1949.78
   08:52:56.595.18-Apr-2020 3032.52 3389.25 68.53 3.00 354.25 1949.78
   08:52:56.795.18-Apr-2020 3032.52 3389.22 68.53 3.00 354.45 1949.78
   08:52:56.995.18-Apr-2020 3032.52 3389.21 68.53 3.00 354.65 1949.78
   08:52:57.195.18-Apr-2020 3032.52 3389.23 68.53 3.00 354.85 1949.78
   08:52:57.395.18-Apr-2020 3032.52 3389.22 68.53 3.00 355.05 1949.78
   08:52:57.595.18-Apr-2020 3032.52 3389.22 68.53 3.00 355.25 1949.78
   08:52:57.795.18-Apr-2020 3032.52 3389.21 68.53 3.00 355.45 1949.78
   08:52:57.995.18-Apr-2020 3032.52 3389.20 68.53 3.00 355.65 1949.78
   08:52:58.195.18-Apr-2020 3032.52 3389.22 68.53 3.00 355.85 1949.78
   08:52:58.395.18-Apr-2020 3032.52 3389.21 68.52 3.00 356.05 1949.78
   08:52:58.595.18-Apr-2020 3032.52 3389.21 68.52 3.00 356.25 1949.78
   08:52:58.795.18-Apr-2020 3032.52 3389.21 68.52 3.00 356.45 1949.78
   08:52:58.995.18-Apr-2020 3032.52 3389.20 68.52 3.00 356.65 1949.78
   08:52:59.195.18-Apr-2020 3032.52 3389.20 68.52 3.00 356.85 1949.78
   08:52:59.395.18-Apr-2020 3032.52 3389.21 68.52 3.00 357.05 1949.78
   08:52:59.595.18-Apr-2020 3032.52 3389.22 68.52 3.00 357.25 1949.78
   08:52:59.795.18-Apr-2020 3032.52 3389.21 68.52 3.00 357.45 1949.78
   08:52:59.995.18-Apr-2020 3032.52 3389.22 68.52 3.00 357.65 1949.78
   08:53:00.195.18-Apr-2020 3032.52 3389.21 68.52 3.00 357.85 1949.78
   08:53:00.395.18-Apr-2020 3032.52 3389.21 68.52 3.00 358.05 1949.78
   08:53:00.595.18-Apr-2020 3032.52 3389.21 68.52 3.00 358.25 1949.78
   08:53:00.795.18-Apr-2020 3032.52 3389.22 68.51 3.00 358.45 1949.78
   08:53:00.995.18-Apr-2020 3032.52 3389.22 68.51 3.00 358.65 1949.78
   08:53:01.195.18-Apr-2020 3032.52 3389.21 68.51 3.00 358.85 1949.78
   08:53:01.395.18-Apr-2020 3032.52 3389.22 68.51 3.00 359.05 1949.78
   08:53:01.596.18-Apr-2020 3032.52 3389.22 68.51 3.00 359.25 1949.78
   08:53:01.796.18-Apr-2020 3032.52 3389.20 68.51 3.00 359.45 1949.78
   08:53:01.996.18-Apr-2020 3032.52 3389.22 68.51 3.00 359.65 1949.78
   08:53:02.196.18-Apr-2020 3032.52 3389.22 68.51 3.00 359.85 1949.78
   08:53:02.396.18-Apr-2020 3032.52 3389.21 68.51 3.00 360.05 1949.78
   08:53:02.596.18-Apr-2020 3032.52 3389.21 68.51 3.00 360.25 1949.78
   08:53:02.796.18-Apr-2020 3032.52 3389.22 68.50 3.00 360.45 1949.78
   08:53:02.996.18-Apr-2020 3032.52 3389.21 68.50 3.00 360.65 1949.78
   08:53:03.196.18-Apr-2020 3032.52 3389.21 68.50 3.00 360.85 1949.78
   08:53:03.396.18-Apr-2020 3032.52 3389.22 68.50 3.00 361.05 1949.78
   08:53:03.596.18-Apr-2020 3032.52 3389.22 68.50 3.00 361.25 1949.78
   08:53:03.796.18-Apr-2020 3032.52 3389.23 68.50 3.00 361.45 1949.78
   08:53:03.996.18-Apr-2020 3032.52 3389.21 68.50 3.00 361.65 1949.78
   08:53:04.196.18-Apr-2020 3032.52 3389.21 68.50 3.00 361.85 1949.78
   08:53:04.396.18-Apr-2020 3032.52 3389.24 68.50 3.00 362.05 1949.78
   08:53:04.596.18-Apr-2020 3032.52 3389.23 68.50 3.00 362.25 1949.78
   08:53:04.796.18-Apr-2020 3032.52 3389.23 68.50 3.00 362.45 1949.78
   08:53:04.996.18-Apr-2020 3032.52 3389.21 68.49 3.00 362.65 1949.78
   08:53:05.196.18-Apr-2020 3032.52 3389.21 68.49 3.00 362.85 1949.78
   08:53:05.396.18-Apr-2020 3032.52 3389.23 68.49 3.00 363.05 1949.78
   08:53:05.596.18-Apr-2020 3032.52 3389.23 68.49 3.00 363.25 1949.78
   08:53:05.796.18-Apr-2020 3032.52 3389.21 68.49 3.00 363.45 1949.78
   08:53:05.996.18-Apr-2020 3032.52 3389.22 68.49 3.00 363.65 1949.78
   08:53:06.196.18-Apr-2020 3032.52 3389.22 68.49 3.00 363.85 1949.78
   08:53:06.396.18-Apr-2020 3032.52 3389.21 68.49 3.00 364.05 1949.78
   08:53:06.596.18-Apr-2020 3032.52 3389.21 68.49 3.00 364.25 1949.78
   08:53:06.796.18-Apr-2020 3032.52 3389.21 68.49 3.00 364.45 1949.78
   08:53:06.996.18-Apr-2020 3032.52 3389.22 68.49 3.00 364.65 1949.78
   08:53:07.196.18-Apr-2020 3032.52 3389.22 68.49 3.00 364.85 1949.78
   08:53:07.396.18-Apr-2020 3032.52 3389.21 68.48 3.00 365.05 1949.78
   08:53:07.596.18-Apr-2020 3032.52 3389.22 68.48 3.00 365.25 1949.78
   08:53:07.796.18-Apr-2020 3032.52 3389.22 68.48 3.00 365.45 1949.78
   08:53:07.996.18-Apr-2020 3032.52 3389.21 68.48 3.00 365.65 1949.78
   08:53:08.196.18-Apr-2020 3032.52 3389.23 68.48 3.00 365.85 1949.78
   08:53:08.396.18-Apr-2020 3032.52 3389.23 68.48 3.00 366.05 1949.78
   08:53:08.596.18-Apr-2020 3032.52 3389.23 68.48 3.00 366.25 1949.78
   08:53:08.796.18-Apr-2020 3032.52 3389.21 68.48 3.00 366.45 1949.78
   08:53:08.997.18-Apr-2020 3032.52 3389.22 68.48 3.00 366.65 1949.78
   08:53:09.197.18-Apr-2020 3032.52 3389.21 68.48 3.00 366.85 1949.78
   08:53:09.397.18-Apr-2020 3032.52 3389.21 68.48 3.00 367.05 1949.78
   08:53:09.597.18-Apr-2020 3032.52 3389.21 68.48 3.00 367.25 1949.78
   08:53:09.797.18-Apr-2020 3032.52 3389.21 68.47 3.00 367.45 1949.78
   08:53:09.997.18-Apr-2020 3032.52 3389.21 68.47 3.00 367.65 1949.78
   08:53:10.197.18-Apr-2020 3032.52 3389.20 68.47 3.00 367.85 1949.78
