~Version Information
 VERS.                  2.0:   CWLS log ASCII Standard -VERSION 2.0
 WRAP.                   NO:   One line per depth step
~Well Information Block
#MNEM.UNIT     VALUE/NAME     DESCRIPTION
#---------     -----------    ---------------------------
 STRT.S             11:18:22 18-Apr-20: START TIME 11:18:22 18-Apr-20
 STOP.S             11:25:23 18-Apr-20: STOP TIME  11:25:23 18-Apr-20
 STEP.S                   0.00: STEP TIME
 NULL.                 -999.25: NULL VALUE
 DFWT.                        :  DIST FWL TEXT
 DFST.                        :  DIST FSL TEXT
 DMF .                        :  DRILL MEAS FROM
 STIM.      16.29.52 23-Mar-20:  START TIME
 DATE.      16.29.52 23-Mar-20:  END TIME
 SPUD.               23-Mar-20:  SPUD DATE
 NREF.                    Grid:  NORTH REFERENCE
 HPTY.       Minimum Curvature:  HOLE POS TYPE
 DMOD.             Drill Model:  DRILL MOD DESC
 SVYD.                  Survey:  SURVEY DESC
 ILTD.               Lithology:  INTERP LTH DESC
 FTOP.          Formation Tops:  FORM TOPS DESC
 SON .        AZ-XX-0906252240:  JOB NUMBER
 RIG .             West Chirag:  RIG NAME
 PDAT.          Mean Sea Level:  PERMANENT DATUM
 FLD .                     ACG:  FIELD NAME
 CTRY.              Azerbaijan:  COUNTRY NAME
 WELL.           J23 (Slot 07):  WELL NAME
 SRVC.          Turan Drilling:  CONTRACTOR
 COMP.     BP Exploration (Casoian Sea) Ltd:  COMPANY
 WTYP.                Deviated:  WELL TYPE
 MDS .        Operator Entered:  MAG DATA SOURCE
 UWI .                     N/A:  UNIQUE WELL IDENTIFIER
 API .                     N/A:  API NUMBER
 BASE.              Azerbaijan:  LOGGING EQUIPMENT BASE LOCATION
 REGN.                   EESSA:  REGION
 PROV.                    Baku:  PROVINCE
 STAT.                    Baku:  STATE NAME
 MWDS.                     N/A:  MWD SHOP
 JOBN.        AZ-XX-0906252240:  JOB TICKET NUMB
 DOE .                     N/A:  DOE NUMBER
 DCON.         Sperry Drilling:  DIRECTNL CONTR
 UNIT.                     N/A:  LOGGING EQUIPMENT ID
 CNTY.                        :  COUNTY
 LOC .                        :  LOCATION
 LMF .             Drill Floor:  LOG MEASURED FROM
 TVDS.m                  43.00:  TVDSS CORRECTN
 LATI.deg                40.13:  LATITUDE
 LONG.deg                51.22:  LONGITUDE
 WHNS.m                   9.43:  WELL HEAD N/S
 WHEW.m                  -8.91:  WELL HEAD E/W
 UTMX.m              519005.06:  UTM X
 UTMY.m             4443793.85:  UTM Y
 DFWL.m                   0.00:  DISTANCE FWL
 DFSL.m                   0.00:  DISTANCE FSL
 SDEP.m                   0.00:  START DEPTH
 TDD .m                   0.00:  TOTAL DEPTH (DRILLER)
 VSDR.deg               179.88:  VERT SEC DIRECT
 GVFD.g                   1.00:  GRAVITY FIELD
 MFLD.nT              50281.00:  MAGNETIC FIELD
 MDIP.deg                59.58:  MAGNETIC DIP
 MDEC.deg                 6.48:  MAGNETIC DECL
 GRDC.deg                 0.14:  GRID CORRECTION
 AZTC.deg                 6.34:  AZM TOTAL CORR
 EPD .m                   0.00:  ELEVATION
 EGL .m                   0.00:  GROUND ELEVATION
 WDMS.m                 169.80:  WD ELEV
 APD .m                  43.00:  DEPTH ABOVE PD
 DEP .m                 354.17:  DEPTH
 AGAP.m                  43.00:  AIR GAP
 VSEW.m                  -8.91:  VERT SEC E/W
 VSNS.m                   9.43:  VERT SEC N/S
 EKB .m                   0.00:  KB ELEVATION
 EDF .m                  43.00:  DF ELEVATION
 TDL .m                1326.00:  TOTAL DEPTH (LOGGER)
 VSC .                       0:  VS TO CLOSURE
 MAGU.                 1850704:  MAGUTM CHECKSUM
~Parameter Information Block
#MNEM.UNIT       Value        Description
#---------     -----------    ---------------------------
 AV  .mps                 1.17:  Ann Velocity 
 AZIF.deg               184.04:  Azm, Final 
 BHAT.        Rotary Steerable:  BHA Type 
 BREV.rev            620000.00:  Rev Bit Total 
 BROT.°/30m               0.20:  Build Rotating 
 BS  .in                 14.75:  Bit Size 
 BSZ .in                 14.75:  Bit Size 
 BTPL.psig              618.00:  Bit Press Loss 
 CABU.                      No:  Customer Abuse 
 TCS .hr                 87.68:  Time Ciculation Ended 
 CV  .mps                 3.10:  Crit Velocity 
 DD1 .          Rashad Habibov:  Direct Drillr 1 
 DD2 .         Rasim Ibrahimov:  Direct Drillr 2 
 DDSV.               Geo-Pilot:  DD Service 
 DEFF.%                  98.00:  % Det Eff 
 DLRX.°/30m               1.48:  Dogleg Rot Max 
 DLSO.°/30m               0.50:  Dogleg Oriented 
 DLSX.°/30m               1.48:  Dogleg Str Max 
 DRET.      06.18.56 19-Apr-20:  Drill End Time 
 DRST.      15.00.56 15-Apr-20:  Drill Start Tim 
 DTIM.hr                 51.73:  Time Drilling 
 EDEP.m                3410.01:  End Depth 
 ENG1.        Marcelo Sandoval:  Engineer 1 
 ENG2.        Davud Huseynzade:  Engineer 2 
 ENG3.          Ruslan Safarov:  Engineer 3 
 ETIM.      04.00.56 20-Apr-20:  End Time 
 FLOI.gpm              1000.00:  Flow In 
 FLON.gpm               600.00:  Flow In Min 
 FLOS.cptm                0.00:  Fluid Loss 
 FLOX.gpm              1200.00:  Flow In Max 
 HFLO.                      No:  High Flow 
 HPRE.                     Yes:  High Pressure 
 HTEM.                      No:  High Temp 
 HYDO.m                   1.80:  Hydro Offset 
 IFIN.deg                70.04:  Inc, Final 
 IMAX.deg                70.56:  Inc Max 
 IMIN.deg                69.85:  Inc Min 
 IMND.m                3103.24:  Inc Min Depth 
 IMXD.m                2876.63:  Inc Max Depth 
 JARR.                      No:  Jarring 
 LETM.      06.18.56 19-Apr-20:  Log End Time 
 LOST.hr                     0:  Lost Rig Time 
 LSTM.      15.00.56 15-Apr-20:  Log Start Time 
 MDCL.ppm             42000.00:  Mud Chlorides 
 MDES.     Inversion Oil/Synthetic:  Mud Desc 
 DFD .sg                  1.58:  Mud Density 
 MDMN.sg                  1.58:  Dens Mud Min 
 MDMX.sg                  1.58:  Dens Mud Max 
 MOIL.                      71:  Run Mud Oil % 
 MOWR.                   71:29:  Run Mud OWR 
 MSND.                       0:  Run Mud Sand % 
 MSOL.                    23.3:  Run Mud Solids% 
 DFV .spqt               84.00:  Mud Viscosity 
 MWOD.in                  9.50:  MWD Tool OD 
 MWSI.                      No:  Serv Intrp, MWD 
 OTIM.hr                139.62:  Time Operating 
 PMAX.psia             5364.69:  Press Op, Max 
 PV  .cP                 80.00:  Mud PV 
 RUN .                     700:  Run Number 
 ROPA.m/hr               25.00:  ROP Avg 
 ROPN.m/hr               11.00:  ROP Min 
 ROPX.m/hr               36.00:  ROP Max 
 RPMA.rpm               130.00:  RPM Surface Avg 
 RPMN.rpm               120.00:  RPM Surface Min 
 RPMX.rpm               140.00:  RPM Surface Max 
 RRUN.                    0700:  Rig Run Number 
 SAZI.deg               183.25:  Azm, Start 
 SDEP.m                2084.00:  Start Depth 
 SIDD.                      No:  Serv Intrp, DD 
 SINC.deg                70.38:  Inc, Start 
 SPPA.psig             4800.00:  SPP Avg 
 SPPN.psig             4400.00:  SPP Min 
 SPPX.psig             5350.00:  SPP Max 
 STIM.      16.30.56 14-Apr-20:  Start Time 
 SVCS.                 DD, MWD:  Services 
 SVER.                    9.20:  Sperry Version 
 TDAT.m                1326.00:  Tot Depth Attmp 
 TDDF.                      No:  Trip for DD 
 TDLG.m                1326.00:  Tot Depth Loggd 
 TFF .                      No:  Trip for Fail 
 TQAA.f-kp               19.00:  Torque Abs Avg 
 TQAN.f-kp                8.00:  Torque Abs Min 
 TQAX.f-kp               27.00:  Torque Abs Max 
 TRRT.°/30m               0.50:  Turn Rotating 
 MRT .                    HCIM:  Maximum Recorded Temperature 
 TTMX.degC               82.35:  Max Tool Temp 
 VS01.       905245875X1Z1W1C8:  Virtual Str1 SN 
 VS02.       90608022F11V7D1A9:  Virtual Str2 SN 
 VS03.            90605473R5C9:  Virtual Str3 SN 
 WBMN.klb                11.00:  WOB Min 
 WOBA.klb                21.00:  WOB Avg 
 WOBX.klb                30.00:  WOB Max 
 YP  .lhf2               45.00:  Yield Point 
~Curve Information Block
#MNEM.UNIT                 API CODE     Curve Description
#---------               -----------    ---------------------------
 TIME.HHMMSS            00 000 000 000:  GT Time & Date
 GTDEPTH.m              00 000 000 000:  GT Depth
 GTPQH.psia             00 000 000 000:  GT HR Quartz Pressure
 GTTQ.degC              00 000 000 000:  GT Quartz Temperature
 GTTN.NONE              00 000 000 000:  GT Test Number
 GTET.sec               00 000 000 000:  GT Elapsed Test Time
 GTTVD.m                00 000 000 000:  GT True Vertical Depth
#Other Information
#
#WARRANTY: Halliburton will use its best efforts to furnish customers with 
#accurate information and interpretations that are part of, and incident to, the services 
#provided.  However, Halliburton cannot and does not warrant the accuracy 
#or correctness of such information and interpretations.  Under no circumstances should any 
#such information or interpretation be relied upon as the sole basis for any drilling, 
#completion, production, or financial decision or any procedure involving any risk to the 
#safety of any drilling venture, drilling rig or its crew or any other third party.  The 
#Customer has full responsibility for all drilling, completion and production operation.  
#Halliburton makes no representations or warranties, either expressed or 
#implied, including, but not limited to, the implied warranties of merchantability or fitness 
#for a particular purpose, with respect to the services rendered.  In no event will 
#Halliburton be liable for failure to obtain any particular results or for 
#any damages, including, but not limited to, indirect, special or consequential damages, 
#resulting from the use of any information or interpretation provided by Halliburton.
#
~A           TIME           GTDEPTH  GTPQH  GTTQ  GTTN  GTET   GTTVD  
# ...
   11:21:49.596.18-Apr-2020 3074.89 3315.68 69.29 4.00 207.03 1964.21
   11:21:49.796.18-Apr-2020 3074.89 3315.68 69.29 4.00 207.23 1964.21
   11:21:49.996.18-Apr-2020 3074.89 3315.70 69.29 4.00 207.43 1964.21
   11:21:50.196.18-Apr-2020 3074.89 3315.70 69.29 4.00 207.63 1964.21
   11:21:50.396.18-Apr-2020 3074.89 3315.69 69.29 4.00 207.83 1964.21
   11:21:50.596.18-Apr-2020 3074.89 3315.67 69.29 4.00 208.03 1964.21
   11:21:50.796.18-Apr-2020 3074.89 3315.67 69.29 4.00 208.23 1964.21
   11:21:50.996.18-Apr-2020 3074.89 3315.70 69.29 4.00 208.43 1964.21
   11:21:51.196.18-Apr-2020 3074.89 3315.67 69.29 4.00 208.63 1964.21
   11:21:51.396.18-Apr-2020 3074.89 3315.72 69.29 4.00 208.83 1964.21
   11:21:51.597.18-Apr-2020 3074.89 3315.69 69.29 4.00 209.03 1964.21
   11:21:51.797.18-Apr-2020 3074.89 3315.69 69.29 4.00 209.23 1964.21
   11:21:51.997.18-Apr-2020 3074.89 3315.69 69.28 4.00 209.43 1964.21
   11:21:52.197.18-Apr-2020 3074.89 3315.70 69.28 4.00 209.63 1964.21
   11:21:52.397.18-Apr-2020 3074.89 3315.69 69.28 4.00 209.83 1964.21
   11:21:52.597.18-Apr-2020 3074.89 3315.69 69.28 4.00 210.03 1964.21
   11:21:52.797.18-Apr-2020 3074.89 3315.69 69.28 4.00 210.23 1964.21
   11:21:52.997.18-Apr-2020 3074.89 3315.69 69.28 4.00 210.43 1964.21
   11:21:53.197.18-Apr-2020 3074.89 3315.69 69.28 4.00 210.63 1964.21
   11:21:53.397.18-Apr-2020 3074.89 3315.68 69.28 4.00 210.83 1964.21
   11:21:53.597.18-Apr-2020 3074.89 3315.69 69.28 4.00 211.03 1964.21
   11:21:53.797.18-Apr-2020 3074.89 3315.69 69.28 4.00 211.23 1964.21
   11:21:53.997.18-Apr-2020 3074.89 3315.69 69.28 4.00 211.43 1964.21
   11:21:54.197.18-Apr-2020 3074.89 3315.67 69.27 4.00 211.63 1964.21
   11:21:54.397.18-Apr-2020 3074.89 3315.70 69.27 4.00 211.83 1964.21
   11:21:54.597.18-Apr-2020 3074.89 3315.69 69.27 4.00 212.03 1964.21
   11:21:54.797.18-Apr-2020 3074.89 3315.69 69.27 4.00 212.23 1964.21
   11:21:54.997.18-Apr-2020 3074.89 3315.69 69.27 4.00 212.43 1964.21
   11:21:55.197.18-Apr-2020 3074.89 3315.70 69.27 4.00 212.63 1964.21
   11:21:55.397.18-Apr-2020 3074.89 3315.69 69.27 4.00 212.83 1964.21
   11:21:55.597.18-Apr-2020 3074.89 3315.70 69.27 4.00 213.03 1964.21
   11:21:55.797.18-Apr-2020 3074.89 3315.70 69.27 4.00 213.23 1964.21
   11:21:55.997.18-Apr-2020 3074.89 3315.69 69.27 4.00 213.43 1964.21
   11:21:56.197.18-Apr-2020 3074.89 3315.69 69.27 4.00 213.63 1964.21
   11:21:56.397.18-Apr-2020 3074.89 3315.70 69.27 4.00 213.83 1964.21
   11:21:56.597.18-Apr-2020 3074.89 3315.69 69.26 4.00 214.03 1964.21
   11:21:56.797.18-Apr-2020 3074.89 3315.69 69.26 4.00 214.23 1964.21
   11:21:56.997.18-Apr-2020 3074.89 3315.71 69.26 4.00 214.43 1964.21
   11:21:57.197.18-Apr-2020 3074.89 3315.69 69.26 4.00 214.63 1964.21
   11:21:57.397.18-Apr-2020 3074.89 3315.68 69.26 4.00 214.83 1964.21
   11:21:57.597.18-Apr-2020 3074.89 3315.70 69.26 4.00 215.03 1964.21
   11:21:57.797.18-Apr-2020 3074.89 3315.70 69.26 4.00 215.23 1964.21
   11:21:57.997.18-Apr-2020 3074.89 3315.69 69.26 4.00 215.43 1964.21
   11:21:58.197.18-Apr-2020 3074.89 3315.69 69.26 4.00 215.63 1964.21
   11:21:58.397.18-Apr-2020 3074.89 3315.68 69.26 4.00 215.83 1964.21
   11:21:58.597.18-Apr-2020 3074.89 3315.68 69.26 4.00 216.03 1964.21
   11:21:58.797.18-Apr-2020 3074.89 3315.68 69.26 4.00 216.23 1964.21
   11:21:58.998.18-Apr-2020 3074.89 3315.69 69.25 4.00 216.43 1964.21
   11:21:59.198.18-Apr-2020 3074.89 3315.68 69.25 4.00 216.63 1964.21
   11:21:59.398.18-Apr-2020 3074.89 3315.68 69.25 4.00 216.83 1964.21
   11:21:59.598.18-Apr-2020 3074.89 3315.67 69.25 4.00 217.03 1964.21
   11:21:59.798.18-Apr-2020 3074.89 3315.67 69.25 4.00 217.23 1964.21
   11:21:59.998.18-Apr-2020 3074.89 3315.70 69.25 4.00 217.43 1964.21
   11:22:00.198.18-Apr-2020 3074.89 3315.66 69.25 4.00 217.63 1964.21
   11:22:00.398.18-Apr-2020 3074.89 3315.72 69.25 4.00 217.83 1964.21
   11:22:00.598.18-Apr-2020 3074.89 3315.70 69.25 4.00 218.03 1964.21
   11:22:00.798.18-Apr-2020 3074.89 3315.70 69.25 4.00 218.23 1964.21
   11:22:00.998.18-Apr-2020 3074.89 3315.70 69.24 4.00 218.43 1964.21
   11:22:01.198.18-Apr-2020 3074.89 3315.69 69.24 4.00 218.63 1964.21
   11:22:01.398.18-Apr-2020 3074.89 3315.67 69.24 4.00 218.83 1964.21
   11:22:01.598.18-Apr-2020 3074.89 3315.68 69.24 4.00 219.03 1964.21
   11:22:01.798.18-Apr-2020 3074.89 3315.68 69.24 4.00 219.23 1964.21
   11:22:01.998.18-Apr-2020 3074.89 3315.68 69.24 4.00 219.43 1964.21
   11:22:02.198.18-Apr-2020 3074.89 3315.69 69.24 4.00 219.63 1964.21
   11:22:02.398.18-Apr-2020 3074.89 3315.68 69.24 4.00 219.83 1964.21
   11:22:02.598.18-Apr-2020 3074.89 3315.68 69.24 4.00 220.03 1964.21
   11:22:02.798.18-Apr-2020 3074.89 3315.68 69.24 4.00 220.23 1964.21
   11:22:02.998.18-Apr-2020 3074.89 3315.68 69.24 4.00 220.43 1964.21
   11:22:03.198.18-Apr-2020 3074.89 3315.66 69.24 4.00 220.63 1964.21
   11:22:03.398.18-Apr-2020 3074.89 3315.69 69.23 4.00 220.83 1964.21
   11:22:03.598.18-Apr-2020 3074.89 3315.68 69.23 4.00 221.03 1964.21
   11:22:03.798.18-Apr-2020 3074.89 3315.68 69.23 4.00 221.23 1964.21
   11:22:03.998.18-Apr-2020 3074.89 3315.68 69.23 4.00 221.43 1964.21
   11:22:04.198.18-Apr-2020 3074.89 3315.69 69.23 4.00 221.63 1964.21
   11:22:04.398.18-Apr-2020 3074.89 3315.68 69.23 4.00 221.83 1964.21
   11:22:04.598.18-Apr-2020 3074.89 3315.69 69.23 4.00 222.03 1964.21
   11:22:04.798.18-Apr-2020 3074.89 3315.69 69.23 4.00 222.23 1964.21
   11:22:04.998.18-Apr-2020 3074.89 3315.68 69.23 4.00 222.43 1964.21
   11:22:05.198.18-Apr-2020 3074.89 3315.68 69.23 4.00 222.63 1964.21
   11:22:05.398.18-Apr-2020 3074.89 3315.68 69.23 4.00 222.83 1964.21
   11:22:05.598.18-Apr-2020 3074.89 3315.69 69.22 4.00 223.03 1964.21
   11:22:05.798.18-Apr-2020 3074.89 3315.69 69.22 4.00 223.23 1964.21
   11:22:05.998.18-Apr-2020 3074.89 3315.69 69.22 4.00 223.43 1964.21
   11:22:06.198.18-Apr-2020 3074.89 3315.69 69.22 4.00 223.63 1964.21
   11:22:06.399.18-Apr-2020 3074.89 3315.67 69.22 4.00 223.83 1964.21
   11:22:06.599.18-Apr-2020 3074.89 3315.70 69.22 4.00 224.03 1964.21
   11:22:06.799.18-Apr-2020 3074.89 3315.70 69.22 4.00 224.23 1964.21
   11:22:06.999.18-Apr-2020 3074.89 3315.68 69.22 4.00 224.43 1964.21
   11:22:07.199.18-Apr-2020 3074.89 3315.69 69.22 4.00 224.63 1964.21
   11:22:07.399.18-Apr-2020 3074.89 3315.68 69.22 4.00 224.83 1964.21
   11:22:07.599.18-Apr-2020 3074.89 3315.67 69.22 4.00 225.03 1964.21
   11:22:07.799.18-Apr-2020 3074.89 3315.67 69.22 4.00 225.23 1964.21
   11:22:07.999.18-Apr-2020 3074.89 3315.70 69.21 4.00 225.43 1964.21
   11:22:08.199.18-Apr-2020 3074.89 3315.68 69.21 4.00 225.63 1964.21
   11:22:08.399.18-Apr-2020 3074.89 3315.68 69.21 4.00 225.83 1964.21
   11:22:08.599.18-Apr-2020 3074.89 3315.65 69.21 4.00 226.03 1964.21
   11:22:08.799.18-Apr-2020 3074.89 3315.65 69.21 4.00 226.23 1964.21
   11:22:08.999.18-Apr-2020 3074.89 3315.68 69.21 4.00 226.43 1964.21
   11:22:09.199.18-Apr-2020 3074.89 3315.65 69.21 4.00 226.63 1964.21
   11:22:09.399.18-Apr-2020 3074.89 3315.71 69.21 4.00 226.83 1964.21
   11:22:09.599.18-Apr-2020 3074.89 3315.69 69.21 4.00 227.03 1964.21
   11:22:09.799.18-Apr-2020 3074.89 3315.69 69.21 4.00 227.23 1964.21
   11:22:09.999.18-Apr-2020 3074.89 3315.67 69.21 4.00 227.43 1964.21
   11:22:10.199.18-Apr-2020 3074.89 3315.68 69.20 4.00 227.63 1964.21
   11:22:10.399.18-Apr-2020 3074.89 3315.68 69.20 4.00 227.83 1964.21
   11:22:10.599.18-Apr-2020 3074.89 3315.67 69.20 4.00 228.03 1964.21
   11:22:10.799.18-Apr-2020 3074.89 3315.67 69.20 4.00 228.23 1964.21
   11:22:10.999.18-Apr-2020 3074.89 3315.68 69.20 4.00 228.43 1964.21
   11:22:11.199.18-Apr-2020 3074.89 3315.68 69.20 4.00 228.63 1964.21
   11:22:11.399.18-Apr-2020 3074.89 3315.68 69.20 4.00 228.83 1964.21
   11:22:11.599.18-Apr-2020 3074.89 3315.68 69.20 4.00 229.03 1964.21
   11:22:11.799.18-Apr-2020 3074.89 3315.68 69.20 4.00 229.23 1964.21
   11:22:11.999.18-Apr-2020 3074.89 3315.68 69.20 4.00 229.43 1964.21
   11:22:12.199.18-Apr-2020 3074.89 3315.67 69.20 4.00 229.63 1964.21
   11:22:12.399.18-Apr-2020 3074.89 3315.70 69.20 4.00 229.83 1964.21
