~Version Information
 VERS.                  2.0:   CWLS log ASCII Standard -VERSION 2.0
 WRAP.                   NO:   One line per depth step
~Well Information Block
#MNEM.UNIT     VALUE/NAME     DESCRIPTION
#---------     -----------    ---------------------------
 STRT.S             07:07:08 18-Apr-20: START TIME 07:07:08 18-Apr-20
 STOP.S             07:14:03 18-Apr-20: STOP TIME  07:14:03 18-Apr-20
 STEP.S                   0.00: STEP TIME
 NULL.                 -999.25: NULL VALUE
 DFWT.                        :  DIST FWL TEXT
 DFST.                        :  DIST FSL TEXT
 DMF .                        :  DRILL MEAS FROM
 STIM.      16.29.52 23-Mar-20:  START TIME
 DATE.      16.29.52 23-Mar-20:  END TIME
 SPUD.               23-Mar-20:  SPUD DATE
 NREF.                    Grid:  NORTH REFERENCE
 HPTY.       Minimum Curvature:  HOLE POS TYPE
 DMOD.             Drill Model:  DRILL MOD DESC
 SVYD.                  Survey:  SURVEY DESC
 ILTD.               Lithology:  INTERP LTH DESC
 FTOP.          Formation Tops:  FORM TOPS DESC
 SON .        AZ-XX-0906252240:  JOB NUMBER
 RIG .             West Chirag:  RIG NAME
 PDAT.          Mean Sea Level:  PERMANENT DATUM
 FLD .                     ACG:  FIELD NAME
 CTRY.              Azerbaijan:  COUNTRY NAME
 WELL.           J23 (Slot 07):  WELL NAME
 SRVC.          Turan Drilling:  CONTRACTOR
 COMP.     BP Exploration (Casoian Sea) Ltd:  COMPANY
 WTYP.                Deviated:  WELL TYPE
 MDS .        Operator Entered:  MAG DATA SOURCE
 UWI .                     N/A:  UNIQUE WELL IDENTIFIER
 API .                     N/A:  API NUMBER
 BASE.              Azerbaijan:  LOGGING EQUIPMENT BASE LOCATION
 REGN.                   EESSA:  REGION
 PROV.                    Baku:  PROVINCE
 STAT.                    Baku:  STATE NAME
 MWDS.                     N/A:  MWD SHOP
 JOBN.        AZ-XX-0906252240:  JOB TICKET NUMB
 DOE .                     N/A:  DOE NUMBER
 DCON.         Sperry Drilling:  DIRECTNL CONTR
 UNIT.                     N/A:  LOGGING EQUIPMENT ID
 CNTY.                        :  COUNTY
 LOC .                        :  LOCATION
 LMF .             Drill Floor:  LOG MEASURED FROM
 TVDS.m                  43.00:  TVDSS CORRECTN
 LATI.deg                40.13:  LATITUDE
 LONG.deg                51.22:  LONGITUDE
 WHNS.m                   9.43:  WELL HEAD N/S
 WHEW.m                  -8.91:  WELL HEAD E/W
 UTMX.m              519005.06:  UTM X
 UTMY.m             4443793.85:  UTM Y
 DFWL.m                   0.00:  DISTANCE FWL
 DFSL.m                   0.00:  DISTANCE FSL
 SDEP.m                   0.00:  START DEPTH
 TDD .m                   0.00:  TOTAL DEPTH (DRILLER)
 VSDR.deg               179.88:  VERT SEC DIRECT
 GVFD.g                   1.00:  GRAVITY FIELD
 MFLD.nT              50281.00:  MAGNETIC FIELD
 MDIP.deg                59.58:  MAGNETIC DIP
 MDEC.deg                 6.48:  MAGNETIC DECL
 GRDC.deg                 0.14:  GRID CORRECTION
 AZTC.deg                 6.34:  AZM TOTAL CORR
 EPD .m                   0.00:  ELEVATION
 EGL .m                   0.00:  GROUND ELEVATION
 WDMS.m                 169.80:  WD ELEV
 APD .m                  43.00:  DEPTH ABOVE PD
 DEP .m                 354.17:  DEPTH
 AGAP.m                  43.00:  AIR GAP
 VSEW.m                  -8.91:  VERT SEC E/W
 VSNS.m                   9.43:  VERT SEC N/S
 EKB .m                   0.00:  KB ELEVATION
 EDF .m                  43.00:  DF ELEVATION
 TDL .m                1326.00:  TOTAL DEPTH (LOGGER)
 VSC .                       0:  VS TO CLOSURE
 MAGU.                 1850704:  MAGUTM CHECKSUM
~Parameter Information Block
#MNEM.UNIT       Value        Description
#---------     -----------    ---------------------------
 AV  .mps                 1.17:  Ann Velocity 
 AZIF.deg               184.04:  Azm, Final 
 BHAT.        Rotary Steerable:  BHA Type 
 BREV.rev            620000.00:  Rev Bit Total 
 BROT.°/30m               0.20:  Build Rotating 
 BS  .in                 14.75:  Bit Size 
 BSZ .in                 14.75:  Bit Size 
 BTPL.psig              618.00:  Bit Press Loss 
 CABU.                      No:  Customer Abuse 
 COMM.                     îb:  Run Comments 1 
 TCS .hr                 87.68:  Time Ciculation Ended 
 CV  .mps                 3.10:  Crit Velocity 
 DD1 .          Rashad Habibov:  Direct Drillr 1 
 DD2 .         Rasim Ibrahimov:  Direct Drillr 2 
 DDSV.               Geo-Pilot:  DD Service 
 DEFF.%                  98.00:  % Det Eff 
 DLRX.°/30m               1.48:  Dogleg Rot Max 
 DLSO.°/30m               0.50:  Dogleg Oriented 
 DLSX.°/30m               1.48:  Dogleg Str Max 
 DRET.      06.18.56 19-Apr-20:  Drill End Time 
 DRST.      15.00.56 15-Apr-20:  Drill Start Tim 
 DTIM.hr                 51.73:  Time Drilling 
 EDEP.m                3410.01:  End Depth 
 ENG1.        Marcelo Sandoval:  Engineer 1 
 ENG2.        Davud Huseynzade:  Engineer 2 
 ENG3.          Ruslan Safarov:  Engineer 3 
 ETIM.      04.00.56 20-Apr-20:  End Time 
 FLOI.gpm              1000.00:  Flow In 
 FLON.gpm               600.00:  Flow In Min 
 FLOS.cptm                0.00:  Fluid Loss 
 FLOX.gpm              1200.00:  Flow In Max 
 HFLO.                      No:  High Flow 
 HPRE.                     Yes:  High Pressure 
 HTEM.                      No:  High Temp 
 HYDO.m                   1.80:  Hydro Offset 
 IFIN.deg                70.04:  Inc, Final 
 IMAX.deg                70.56:  Inc Max 
 IMIN.deg                69.85:  Inc Min 
 IMND.m                3103.24:  Inc Min Depth 
 IMXD.m                2876.63:  Inc Max Depth 
 JARR.                      No:  Jarring 
 LETM.      06.18.56 19-Apr-20:  Log End Time 
 LOST.hr                     0:  Lost Rig Time 
 LSTM.      15.00.56 15-Apr-20:  Log Start Time 
 MDCL.ppm             42000.00:  Mud Chlorides 
 MDES.     Inversion Oil/Synthetic:  Mud Desc 
 DFD .sg                  1.58:  Mud Density 
 MDMN.sg                  1.58:  Dens Mud Min 
 MDMX.sg                  1.58:  Dens Mud Max 
 MOIL.                      71:  Run Mud Oil % 
 MOWR.                   71:29:  Run Mud OWR 
 MSND.                       0:  Run Mud Sand % 
 MSOL.                    23.3:  Run Mud Solids% 
 DFV .spqt               84.00:  Mud Viscosity 
 MWOD.in                  9.50:  MWD Tool OD 
 MWSI.                      No:  Serv Intrp, MWD 
 OTIM.hr                139.62:  Time Operating 
 PMAX.psia             5364.69:  Press Op, Max 
 PV  .cP                 80.00:  Mud PV 
 RUN .                     700:  Run Number 
 ROPA.m/hr               25.00:  ROP Avg 
 ROPN.m/hr               11.00:  ROP Min 
 ROPX.m/hr               36.00:  ROP Max 
 RPMA.rpm               130.00:  RPM Surface Avg 
 RPMN.rpm               120.00:  RPM Surface Min 
 RPMX.rpm               140.00:  RPM Surface Max 
 RRUN.                    0700:  Rig Run Number 
 SAZI.deg               183.25:  Azm, Start 
 SDEP.m                2084.00:  Start Depth 
 SIDD.                      No:  Serv Intrp, DD 
 SINC.deg                70.38:  Inc, Start 
 SPPA.psig             4800.00:  SPP Avg 
 SPPN.psig             4400.00:  SPP Min 
 SPPX.psig             5350.00:  SPP Max 
 STIM.      16.30.56 14-Apr-20:  Start Time 
 SVCS.                 DD, MWD:  Services 
 SVER.                    9.20:  Sperry Version 
 TDAT.m                1326.00:  Tot Depth Attmp 
 TDDF.                      No:  Trip for DD 
 TDLG.m                1326.00:  Tot Depth Loggd 
 TFF .                      No:  Trip for Fail 
 TQAA.f-kp               19.00:  Torque Abs Avg 
 TQAN.f-kp                8.00:  Torque Abs Min 
 TQAX.f-kp               27.00:  Torque Abs Max 
 TRRT.°/30m               0.50:  Turn Rotating 
 MRT .                    HCIM:  Maximum Recorded Temperature 
 TTMX.degC               82.35:  Max Tool Temp 
 VS01.       905245875X1Z1W1C8:  Virtual Str1 SN 
 VS02.       90608022F11V7D1A9:  Virtual Str2 SN 
 VS03.            90605473R5C9:  Virtual Str3 SN 
 WBMN.klb                11.00:  WOB Min 
 WOBA.klb                21.00:  WOB Avg 
 WOBX.klb                30.00:  WOB Max 
 YP  .lhf2               45.00:  Yield Point 
~Curve Information Block
#MNEM.UNIT                 API CODE     Curve Description
#---------               -----------    ---------------------------
 TIME.HHMMSS            00 000 000 000:  GT Time & Date
 GTDEPTH.m              00 000 000 000:  GT Depth
 GTPQH.psia             00 000 000 000:  GT HR Quartz Pressure
 GTTQ.degC              00 000 000 000:  GT Quartz Temperature
 GTTN.NONE              00 000 000 000:  GT Test Number
 GTET.sec               00 000 000 000:  GT Elapsed Test Time
 GTTVD.m                00 000 000 000:  GT True Vertical Depth
#Other Information
#
#WARRANTY: Halliburton will use its best efforts to furnish customers with 
#accurate information and interpretations that are part of, and incident to, the services 
#provided.  However, Halliburton cannot and does not warrant the accuracy 
#or correctness of such information and interpretations.  Under no circumstances should any 
#such information or interpretation be relied upon as the sole basis for any drilling, 
#completion, production, or financial decision or any procedure involving any risk to the 
#safety of any drilling venture, drilling rig or its crew or any other third party.  The 
#Customer has full responsibility for all drilling, completion and production operation.  
#Halliburton makes no representations or warranties, either expressed or 
#implied, including, but not limited to, the implied warranties of merchantability or fitness 
#for a particular purpose, with respect to the services rendered.  In no event will 
#Halliburton be liable for failure to obtain any particular results or for 
#any damages, including, but not limited to, indirect, special or consequential damages, 
#resulting from the use of any information or interpretation provided by Halliburton.
#
~A           TIME           GTDEPTH  GTPQH  GTTQ  GTTN  GTET   GTTVD  
# ...
   07:10:12.655.18-Apr-2020 3016.07 3390.52 70.37 2.00 184.02 1944.23
   07:10:12.855.18-Apr-2020 3016.07 3390.52 70.37 2.00 184.22 1944.23
   07:10:13.055.18-Apr-2020 3016.07 3390.51 70.37 2.00 184.42 1944.23
   07:10:13.255.18-Apr-2020 3016.07 3390.52 70.37 2.00 184.62 1944.23
   07:10:13.455.18-Apr-2020 3016.07 3390.51 70.37 2.00 184.82 1944.23
   07:10:13.655.18-Apr-2020 3016.07 3390.51 70.37 2.00 185.02 1944.23
   07:10:13.855.18-Apr-2020 3016.07 3390.51 70.37 2.00 185.22 1944.23
   07:10:14.055.18-Apr-2020 3016.07 3390.49 70.37 2.00 185.42 1944.23
   07:10:14.255.18-Apr-2020 3016.07 3390.55 70.37 2.00 185.62 1944.23
   07:10:14.455.18-Apr-2020 3016.07 3390.53 70.36 2.00 185.82 1944.23
   07:10:14.655.18-Apr-2020 3016.07 3390.51 70.36 2.00 186.02 1944.23
   07:10:14.855.18-Apr-2020 3016.07 3390.51 70.36 2.00 186.22 1944.23
   07:10:15.055.18-Apr-2020 3016.07 3390.59 70.36 2.00 186.42 1944.23
   07:10:15.255.18-Apr-2020 3016.07 3390.57 70.36 2.00 186.62 1944.23
   07:10:15.455.18-Apr-2020 3016.07 3390.51 70.36 2.00 186.82 1944.23
   07:10:15.655.18-Apr-2020 3016.07 3390.51 70.36 2.00 187.02 1944.23
   07:10:15.855.18-Apr-2020 3016.07 3390.50 70.36 2.00 187.22 1944.23
   07:10:16.055.18-Apr-2020 3016.07 3390.48 70.36 2.00 187.42 1944.23
   07:10:16.255.18-Apr-2020 3016.07 3390.49 70.36 2.00 187.62 1944.23
   07:10:16.456.18-Apr-2020 3016.07 3390.50 70.36 2.00 187.82 1944.23
   07:10:16.656.18-Apr-2020 3016.07 3390.49 70.36 2.00 188.02 1944.23
   07:10:16.856.18-Apr-2020 3016.07 3390.49 70.36 2.00 188.22 1944.23
   07:10:17.056.18-Apr-2020 3016.07 3390.49 70.35 2.00 188.42 1944.23
   07:10:17.256.18-Apr-2020 3016.07 3390.66 70.35 2.00 188.62 1944.23
   07:10:17.456.18-Apr-2020 3016.07 3390.63 70.35 2.00 188.82 1944.23
   07:10:17.656.18-Apr-2020 3016.07 3390.52 70.35 2.00 189.02 1944.23
   07:10:17.856.18-Apr-2020 3016.07 3390.52 70.35 2.00 189.22 1944.23
   07:10:18.056.18-Apr-2020 3016.07 3390.50 70.35 2.00 189.42 1944.23
   07:10:18.256.18-Apr-2020 3016.07 3390.48 70.35 2.00 189.62 1944.23
   07:10:18.456.18-Apr-2020 3016.07 3390.46 70.35 2.00 189.82 1944.23
   07:10:18.656.18-Apr-2020 3016.07 3390.47 70.35 2.00 190.02 1944.23
   07:10:18.856.18-Apr-2020 3016.07 3390.47 70.35 2.00 190.22 1944.23
   07:10:19.056.18-Apr-2020 3016.07 3390.46 70.35 2.00 190.42 1944.23
   07:10:19.256.18-Apr-2020 3016.07 3390.46 70.35 2.00 190.62 1944.23
   07:10:19.456.18-Apr-2020 3016.07 3390.46 70.35 2.00 190.82 1944.23
   07:10:19.656.18-Apr-2020 3016.07 3390.47 70.34 2.00 191.02 1944.23
   07:10:19.856.18-Apr-2020 3016.07 3390.47 70.34 2.00 191.22 1944.23
   07:10:20.056.18-Apr-2020 3016.07 3390.45 70.34 2.00 191.42 1944.23
   07:10:20.256.18-Apr-2020 3016.07 3390.44 70.34 2.00 191.62 1944.23
   07:10:20.456.18-Apr-2020 3016.07 3390.45 70.34 2.00 191.82 1944.23
   07:10:20.656.18-Apr-2020 3016.07 3390.44 70.34 2.00 192.02 1944.23
   07:10:20.856.18-Apr-2020 3016.07 3390.44 70.34 2.00 192.22 1944.23
   07:10:21.056.18-Apr-2020 3016.07 3390.43 70.34 2.00 192.42 1944.23
   07:10:21.256.18-Apr-2020 3016.07 3390.42 70.34 2.00 192.62 1944.23
   07:10:21.456.18-Apr-2020 3016.07 3390.41 70.34 2.00 192.82 1944.23
   07:10:21.656.18-Apr-2020 3016.07 3390.44 70.34 2.00 193.02 1944.23
   07:10:21.856.18-Apr-2020 3016.07 3390.44 70.34 2.00 193.22 1944.23
   07:10:22.056.18-Apr-2020 3016.07 3390.43 70.34 2.00 193.42 1944.23
   07:10:22.256.18-Apr-2020 3016.07 3390.43 70.33 2.00 193.62 1944.23
   07:10:22.456.18-Apr-2020 3016.07 3390.42 70.33 2.00 193.82 1944.23
   07:10:22.656.18-Apr-2020 3016.07 3390.42 70.33 2.00 194.02 1944.23
   07:10:22.856.18-Apr-2020 3016.07 3390.42 70.33 2.00 194.22 1944.23
   07:10:23.056.18-Apr-2020 3016.07 3390.40 70.33 2.00 194.42 1944.23
   07:10:23.256.18-Apr-2020 3016.07 3390.42 70.33 2.00 194.62 1944.23
   07:10:23.456.18-Apr-2020 3016.07 3390.40 70.33 2.00 194.82 1944.23
   07:10:23.656.18-Apr-2020 3016.07 3390.41 70.33 2.00 195.02 1944.23
   07:10:23.856.18-Apr-2020 3016.07 3390.40 70.33 2.00 195.22 1944.23
   07:10:24.056.18-Apr-2020 3016.07 3390.38 70.33 2.00 195.42 1944.23
   07:10:24.256.18-Apr-2020 3016.07 3390.40 70.33 2.00 195.62 1944.23
   07:10:24.456.18-Apr-2020 3016.07 3390.40 70.33 2.00 195.82 1944.23
   07:10:24.656.18-Apr-2020 3016.07 3390.39 70.33 2.00 196.02 1944.23
   07:10:24.856.18-Apr-2020 3016.07 3390.39 70.33 2.00 196.22 1944.23
   07:10:25.056.18-Apr-2020 3016.07 3390.39 70.32 2.00 196.42 1944.23
   07:10:25.256.18-Apr-2020 3016.07 3390.40 70.32 2.00 196.62 1944.23
   07:10:25.456.18-Apr-2020 3016.07 3390.38 70.32 2.00 196.82 1944.23
   07:10:25.656.18-Apr-2020 3016.07 3390.39 70.32 2.00 197.02 1944.23
   07:10:25.857.18-Apr-2020 3016.07 3390.39 70.32 2.00 197.22 1944.23
   07:10:26.057.18-Apr-2020 3016.07 3390.39 70.32 2.00 197.42 1944.23
   07:10:26.257.18-Apr-2020 3016.07 3390.38 70.32 2.00 197.62 1944.23
   07:10:26.457.18-Apr-2020 3016.07 3390.40 70.32 2.00 197.82 1944.23
   07:10:26.657.18-Apr-2020 3016.07 3390.50 70.32 2.00 198.02 1944.23
   07:10:26.857.18-Apr-2020 3016.07 3390.50 70.32 2.00 198.22 1944.23
   07:10:27.057.18-Apr-2020 3016.07 3390.41 70.32 2.00 198.42 1944.23
   07:10:27.257.18-Apr-2020 3016.07 3390.39 70.32 2.00 198.62 1944.23
   07:10:27.457.18-Apr-2020 3016.07 3390.38 70.31 2.00 198.82 1944.23
   07:10:27.657.18-Apr-2020 3016.07 3390.38 70.31 2.00 199.02 1944.23
   07:10:27.857.18-Apr-2020 3016.07 3390.38 70.31 2.00 199.22 1944.23
   07:10:28.057.18-Apr-2020 3016.07 3390.37 70.31 2.00 199.42 1944.23
   07:10:28.257.18-Apr-2020 3016.07 3390.38 70.31 2.00 199.62 1944.23
   07:10:28.457.18-Apr-2020 3016.07 3390.38 70.31 2.00 199.82 1944.23
   07:10:28.657.18-Apr-2020 3016.07 3390.38 70.31 2.00 200.02 1944.23
   07:10:28.857.18-Apr-2020 3016.07 3390.38 70.31 2.00 200.22 1944.23
   07:10:29.057.18-Apr-2020 3016.07 3390.40 70.31 2.00 200.42 1944.23
   07:10:29.257.18-Apr-2020 3016.07 3390.42 70.31 2.00 200.62 1944.23
   07:10:29.457.18-Apr-2020 3016.07 3390.40 70.31 2.00 200.82 1944.23
   07:10:29.657.18-Apr-2020 3016.07 3390.37 70.31 2.00 201.02 1944.23
   07:10:29.857.18-Apr-2020 3016.07 3390.37 70.31 2.00 201.22 1944.23
   07:10:30.057.18-Apr-2020 3016.07 3390.36 70.30 2.00 201.42 1944.23
   07:10:30.257.18-Apr-2020 3016.07 3390.35 70.30 2.00 201.62 1944.23
   07:10:30.457.18-Apr-2020 3016.07 3390.35 70.30 2.00 201.82 1944.23
   07:10:30.657.18-Apr-2020 3016.07 3390.34 70.30 2.00 202.02 1944.23
   07:10:30.857.18-Apr-2020 3016.07 3390.38 70.30 2.00 202.22 1944.23
   07:10:31.057.18-Apr-2020 3016.07 3390.37 70.30 2.00 202.42 1944.23
   07:10:31.257.18-Apr-2020 3016.07 3390.36 70.30 2.00 202.62 1944.23
   07:10:31.457.18-Apr-2020 3016.07 3390.35 70.30 2.00 202.82 1944.23
   07:10:31.657.18-Apr-2020 3016.07 3390.35 70.30 2.00 203.02 1944.23
   07:10:31.857.18-Apr-2020 3016.07 3390.35 70.30 2.00 203.22 1944.23
   07:10:32.057.18-Apr-2020 3016.07 3390.34 70.30 2.00 203.42 1944.23
   07:10:32.257.18-Apr-2020 3016.07 3390.35 70.30 2.00 203.62 1944.23
   07:10:32.457.18-Apr-2020 3016.07 3390.35 70.30 2.00 203.82 1944.23
   07:10:32.657.18-Apr-2020 3016.07 3390.34 70.29 2.00 204.02 1944.23
   07:10:32.857.18-Apr-2020 3016.07 3390.34 70.29 2.00 204.22 1944.23
   07:10:33.057.18-Apr-2020 3016.07 3390.33 70.29 2.00 204.42 1944.23
   07:10:33.257.18-Apr-2020 3016.07 3390.35 70.29 2.00 204.62 1944.23
   07:10:33.457.18-Apr-2020 3016.07 3390.35 70.29 2.00 204.82 1944.23
   07:10:33.657.18-Apr-2020 3016.07 3390.34 70.29 2.00 205.02 1944.23
   07:10:33.857.18-Apr-2020 3016.07 3390.34 70.29 2.00 205.22 1944.23
   07:10:34.057.18-Apr-2020 3016.07 3390.34 70.29 2.00 205.42 1944.23
   07:10:34.257.18-Apr-2020 3016.07 3390.36 70.29 2.00 205.62 1944.23
   07:10:34.457.18-Apr-2020 3016.07 3390.33 70.29 2.00 205.82 1944.23
   07:10:34.657.18-Apr-2020 3016.07 3390.34 70.29 2.00 206.02 1944.23
   07:10:34.857.18-Apr-2020 3016.07 3390.34 70.29 2.00 206.22 1944.23
   07:10:35.057.18-Apr-2020 3016.07 3390.34 70.29 2.00 206.42 1944.23
   07:10:35.258.18-Apr-2020 3016.07 3390.32 70.28 2.00 206.62 1944.23
   07:10:35.458.18-Apr-2020 3016.07 3390.31 70.28 2.00 206.82 1944.23
