~Version Information
 VERS.                  2.0:   CWLS log ASCII Standard -VERSION 2.0
 WRAP.                   NO:   One line per depth step
~Well Information Block
#MNEM.UNIT     VALUE/NAME     DESCRIPTION
#---------     -----------    ---------------------------
 STRT.S             07:07:08 18-Apr-20: START TIME 07:07:08 18-Apr-20
 STOP.S             07:14:03 18-Apr-20: STOP TIME  07:14:03 18-Apr-20
 STEP.S                   0.00: STEP TIME
 NULL.                 -999.25: NULL VALUE
 DFWT.                        :  DIST FWL TEXT
 DFST.                        :  DIST FSL TEXT
 DMF .                        :  DRILL MEAS FROM
 STIM.      16.29.52 23-Mar-20:  START TIME
 DATE.      16.29.52 23-Mar-20:  END TIME
 SPUD.               23-Mar-20:  SPUD DATE
 NREF.                    Grid:  NORTH REFERENCE
 HPTY.       Minimum Curvature:  HOLE POS TYPE
 DMOD.             Drill Model:  DRILL MOD DESC
 SVYD.                  Survey:  SURVEY DESC
 ILTD.               Lithology:  INTERP LTH DESC
 FTOP.          Formation Tops:  FORM TOPS DESC
 SON .        AZ-XX-0906252240:  JOB NUMBER
 RIG .             West Chirag:  RIG NAME
 PDAT.          Mean Sea Level:  PERMANENT DATUM
 FLD .                     ACG:  FIELD NAME
 CTRY.              Azerbaijan:  COUNTRY NAME
 WELL.           J23 (Slot 07):  WELL NAME
 SRVC.          Turan Drilling:  CONTRACTOR
 COMP.     BP Exploration (Casoian Sea) Ltd:  COMPANY
 WTYP.                Deviated:  WELL TYPE
 MDS .        Operator Entered:  MAG DATA SOURCE
 UWI .                     N/A:  UNIQUE WELL IDENTIFIER
 API .                     N/A:  API NUMBER
 BASE.              Azerbaijan:  LOGGING EQUIPMENT BASE LOCATION
 REGN.                   EESSA:  REGION
 PROV.                    Baku:  PROVINCE
 STAT.                    Baku:  STATE NAME
 MWDS.                     N/A:  MWD SHOP
 JOBN.        AZ-XX-0906252240:  JOB TICKET NUMB
 DOE .                     N/A:  DOE NUMBER
 DCON.         Sperry Drilling:  DIRECTNL CONTR
 UNIT.                     N/A:  LOGGING EQUIPMENT ID
 CNTY.                        :  COUNTY
 LOC .                        :  LOCATION
 LMF .             Drill Floor:  LOG MEASURED FROM
 TVDS.m                  43.00:  TVDSS CORRECTN
 LATI.deg                40.13:  LATITUDE
 LONG.deg                51.22:  LONGITUDE
 WHNS.m                   9.43:  WELL HEAD N/S
 WHEW.m                  -8.91:  WELL HEAD E/W
 UTMX.m              519005.06:  UTM X
 UTMY.m             4443793.85:  UTM Y
 DFWL.m                   0.00:  DISTANCE FWL
 DFSL.m                   0.00:  DISTANCE FSL
 SDEP.m                   0.00:  START DEPTH
 TDD .m                   0.00:  TOTAL DEPTH (DRILLER)
 VSDR.deg               179.88:  VERT SEC DIRECT
 GVFD.g                   1.00:  GRAVITY FIELD
 MFLD.nT              50281.00:  MAGNETIC FIELD
 MDIP.deg                59.58:  MAGNETIC DIP
 MDEC.deg                 6.48:  MAGNETIC DECL
 GRDC.deg                 0.14:  GRID CORRECTION
 AZTC.deg                 6.34:  AZM TOTAL CORR
 EPD .m                   0.00:  ELEVATION
 EGL .m                   0.00:  GROUND ELEVATION
 WDMS.m                 169.80:  WD ELEV
 APD .m                  43.00:  DEPTH ABOVE PD
 DEP .m                 354.17:  DEPTH
 AGAP.m                  43.00:  AIR GAP
 VSEW.m                  -8.91:  VERT SEC E/W
 VSNS.m                   9.43:  VERT SEC N/S
 EKB .m                   0.00:  KB ELEVATION
 EDF .m                  43.00:  DF ELEVATION
 TDL .m                1326.00:  TOTAL DEPTH (LOGGER)
 VSC .                       0:  VS TO CLOSURE
 MAGU.                 1850704:  MAGUTM CHECKSUM
~Parameter Information Block
#MNEM.UNIT       Value        Description
#---------     -----------    ---------------------------
 AV  .mps                 1.17:  Ann Velocity 
 AZIF.deg               184.04:  Azm, Final 
 BHAT.        Rotary Steerable:  BHA Type 
 BREV.rev            620000.00:  Rev Bit Total 
 BROT.°/30m               0.20:  Build Rotating 
 BS  .in                 14.75:  Bit Size 
 BSZ .in                 14.75:  Bit Size 
 BTPL.psig              618.00:  Bit Press Loss 
 CABU.                      No:  Customer Abuse 
 COMM.                     îb:  Run Comments 1 
 TCS .hr                 87.68:  Time Ciculation Ended 
 CV  .mps                 3.10:  Crit Velocity 
 DD1 .          Rashad Habibov:  Direct Drillr 1 
 DD2 .         Rasim Ibrahimov:  Direct Drillr 2 
 DDSV.               Geo-Pilot:  DD Service 
 DEFF.%                  98.00:  % Det Eff 
 DLRX.°/30m               1.48:  Dogleg Rot Max 
 DLSO.°/30m               0.50:  Dogleg Oriented 
 DLSX.°/30m               1.48:  Dogleg Str Max 
 DRET.      06.18.56 19-Apr-20:  Drill End Time 
 DRST.      15.00.56 15-Apr-20:  Drill Start Tim 
 DTIM.hr                 51.73:  Time Drilling 
 EDEP.m                3410.01:  End Depth 
 ENG1.        Marcelo Sandoval:  Engineer 1 
 ENG2.        Davud Huseynzade:  Engineer 2 
 ENG3.          Ruslan Safarov:  Engineer 3 
 ETIM.      04.00.56 20-Apr-20:  End Time 
 FLOI.gpm              1000.00:  Flow In 
 FLON.gpm               600.00:  Flow In Min 
 FLOS.cptm                0.00:  Fluid Loss 
 FLOX.gpm              1200.00:  Flow In Max 
 HFLO.                      No:  High Flow 
 HPRE.                     Yes:  High Pressure 
 HTEM.                      No:  High Temp 
 HYDO.m                   1.80:  Hydro Offset 
 IFIN.deg                70.04:  Inc, Final 
 IMAX.deg                70.56:  Inc Max 
 IMIN.deg                69.85:  Inc Min 
 IMND.m                3103.24:  Inc Min Depth 
 IMXD.m                2876.63:  Inc Max Depth 
 JARR.                      No:  Jarring 
 LETM.      06.18.56 19-Apr-20:  Log End Time 
 LOST.hr                     0:  Lost Rig Time 
 LSTM.      15.00.56 15-Apr-20:  Log Start Time 
 MDCL.ppm             42000.00:  Mud Chlorides 
 MDES.     Inversion Oil/Synthetic:  Mud Desc 
 DFD .sg                  1.58:  Mud Density 
 MDMN.sg                  1.58:  Dens Mud Min 
 MDMX.sg                  1.58:  Dens Mud Max 
 MOIL.                      71:  Run Mud Oil % 
 MOWR.                   71:29:  Run Mud OWR 
 MSND.                       0:  Run Mud Sand % 
 MSOL.                    23.3:  Run Mud Solids% 
 DFV .spqt               84.00:  Mud Viscosity 
 MWOD.in                  9.50:  MWD Tool OD 
 MWSI.                      No:  Serv Intrp, MWD 
 OTIM.hr                139.62:  Time Operating 
 PMAX.psia             5364.69:  Press Op, Max 
 PV  .cP                 80.00:  Mud PV 
 RUN .                     700:  Run Number 
 ROPA.m/hr               25.00:  ROP Avg 
 ROPN.m/hr               11.00:  ROP Min 
 ROPX.m/hr               36.00:  ROP Max 
 RPMA.rpm               130.00:  RPM Surface Avg 
 RPMN.rpm               120.00:  RPM Surface Min 
 RPMX.rpm               140.00:  RPM Surface Max 
 RRUN.                    0700:  Rig Run Number 
 SAZI.deg               183.25:  Azm, Start 
 SDEP.m                2084.00:  Start Depth 
 SIDD.                      No:  Serv Intrp, DD 
 SINC.deg                70.38:  Inc, Start 
 SPPA.psig             4800.00:  SPP Avg 
 SPPN.psig             4400.00:  SPP Min 
 SPPX.psig             5350.00:  SPP Max 
 STIM.      16.30.56 14-Apr-20:  Start Time 
 SVCS.                 DD, MWD:  Services 
 SVER.                    9.20:  Sperry Version 
 TDAT.m                1326.00:  Tot Depth Attmp 
 TDDF.                      No:  Trip for DD 
 TDLG.m                1326.00:  Tot Depth Loggd 
 TFF .                      No:  Trip for Fail 
 TQAA.f-kp               19.00:  Torque Abs Avg 
 TQAN.f-kp                8.00:  Torque Abs Min 
 TQAX.f-kp               27.00:  Torque Abs Max 
 TRRT.°/30m               0.50:  Turn Rotating 
 MRT .                    HCIM:  Maximum Recorded Temperature 
 TTMX.degC               82.35:  Max Tool Temp 
 VS01.       905245875X1Z1W1C8:  Virtual Str1 SN 
 VS02.       90608022F11V7D1A9:  Virtual Str2 SN 
 VS03.            90605473R5C9:  Virtual Str3 SN 
 WBMN.klb                11.00:  WOB Min 
 WOBA.klb                21.00:  WOB Avg 
 WOBX.klb                30.00:  WOB Max 
 YP  .lhf2               45.00:  Yield Point 
~Curve Information Block
#MNEM.UNIT                 API CODE     Curve Description
#---------               -----------    ---------------------------
 TIME.HHMMSS            00 000 000 000:  GT Time & Date
 GTDEPTH.m              00 000 000 000:  GT Depth
 GTPQH.psia             00 000 000 000:  GT HR Quartz Pressure
 GTTQ.degC              00 000 000 000:  GT Quartz Temperature
 GTTN.NONE              00 000 000 000:  GT Test Number
 GTET.sec               00 000 000 000:  GT Elapsed Test Time
 GTTVD.m                00 000 000 000:  GT True Vertical Depth
#Other Information
#
#WARRANTY: Halliburton will use its best efforts to furnish customers with 
#accurate information and interpretations that are part of, and incident to, the services 
#provided.  However, Halliburton cannot and does not warrant the accuracy 
#or correctness of such information and interpretations.  Under no circumstances should any 
#such information or interpretation be relied upon as the sole basis for any drilling, 
#completion, production, or financial decision or any procedure involving any risk to the 
#safety of any drilling venture, drilling rig or its crew or any other third party.  The 
#Customer has full responsibility for all drilling, completion and production operation.  
#Halliburton makes no representations or warranties, either expressed or 
#implied, including, but not limited to, the implied warranties of merchantability or fitness 
#for a particular purpose, with respect to the services rendered.  In no event will 
#Halliburton be liable for failure to obtain any particular results or for 
#any damages, including, but not limited to, indirect, special or consequential damages, 
#resulting from the use of any information or interpretation provided by Halliburton.
#
~A           TIME           GTDEPTH  GTPQH  GTTQ  GTTN  GTET   GTTVD  
# ...
   07:07:54.640.18-Apr-2020 3016.07 4466.30 70.97 2.00  46.00 1944.23
   07:07:54.840.18-Apr-2020 3016.07 4466.30 70.97 2.00  46.20 1944.23
   07:07:55.040.18-Apr-2020 3016.07 4468.62 70.97 2.00  46.40 1944.23
   07:07:55.240.18-Apr-2020 3016.07 4466.64 70.97 2.00  46.60 1944.23
   07:07:55.440.18-Apr-2020 3016.07 4467.94 70.97 2.00  46.80 1944.23
   07:07:55.640.18-Apr-2020 3016.07 4468.14 70.97 2.00  47.01 1944.23
   07:07:55.841.18-Apr-2020 3016.07 4467.59 70.97 2.00  47.21 1944.23
   07:07:56.041.18-Apr-2020 3016.07 4467.16 70.97 2.00  47.41 1944.23
   07:07:56.241.18-Apr-2020 3016.07 4468.40 70.96 2.00  47.61 1944.23
   07:07:56.441.18-Apr-2020 3016.07 4468.22 70.96 2.00  47.81 1944.23
   07:07:56.641.18-Apr-2020 3016.07 4465.93 70.96 2.00  48.01 1944.23
   07:07:56.841.18-Apr-2020 3016.07 4465.93 70.96 2.00  48.21 1944.23
   07:07:57.041.18-Apr-2020 3016.07 4468.83 70.96 2.00  48.41 1944.23
   07:07:57.241.18-Apr-2020 3016.07 4469.25 70.96 2.00  48.61 1944.23
   07:07:57.441.18-Apr-2020 3016.07 4468.93 70.96 2.00  48.81 1944.23
   07:07:57.641.18-Apr-2020 3016.07 4468.44 70.96 2.00  49.01 1944.23
   07:07:57.841.18-Apr-2020 3016.07 4468.44 70.96 2.00  49.21 1944.23
   07:07:58.041.18-Apr-2020 3016.07 4468.35 70.96 2.00  49.41 1944.23
   07:07:58.241.18-Apr-2020 3016.07 4467.95 70.96 2.00  49.61 1944.23
   07:07:58.441.18-Apr-2020 3016.07 4467.48 70.95 2.00  49.81 1944.23
   07:07:58.641.18-Apr-2020 3016.07 4468.38 70.95 2.00  50.01 1944.23
   07:07:58.841.18-Apr-2020 3016.07 4468.38 70.95 2.00  50.21 1944.23
   07:07:59.041.18-Apr-2020 3016.07 4467.49 70.95 2.00  50.41 1944.23
   07:07:59.241.18-Apr-2020 3016.07 4467.77 70.95 2.00  50.61 1944.23
   07:07:59.441.18-Apr-2020 3016.07 4466.04 70.95 2.00  50.81 1944.23
   07:07:59.641.18-Apr-2020 3016.07 4468.19 70.95 2.00  51.01 1944.23
   07:07:59.841.18-Apr-2020 3016.07 4468.19 70.95 2.00  51.21 1944.23
   07:08:00.041.18-Apr-2020 3016.07 4468.94 70.95 2.00  51.41 1944.23
   07:08:00.241.18-Apr-2020 3016.07 4468.75 70.95 2.00  51.61 1944.23
   07:08:00.441.18-Apr-2020 3016.07 4468.91 70.94 2.00  51.81 1944.23
   07:08:00.641.18-Apr-2020 3016.07 4468.42 70.94 2.00  52.01 1944.23
   07:08:00.841.18-Apr-2020 3016.07 4468.42 70.94 2.00  52.21 1944.23
   07:08:01.041.18-Apr-2020 3016.07 4468.76 70.94 2.00  52.41 1944.23
   07:08:01.241.18-Apr-2020 3016.07 4468.42 70.94 2.00  52.61 1944.23
   07:08:01.441.18-Apr-2020 3016.07 4454.78 70.94 2.00  52.81 1944.23
   07:08:01.641.18-Apr-2020 3016.07 4496.52 70.94 2.00  53.01 1944.23
   07:08:01.841.18-Apr-2020 3016.07 4496.52 70.94 2.00  53.21 1944.23
   07:08:02.041.18-Apr-2020 3016.07 4656.02 70.94 2.00  53.41 1944.23
   07:08:02.241.18-Apr-2020 3016.07 4634.11 70.94 2.00  53.61 1944.23
   07:08:02.441.18-Apr-2020 3016.07 4604.80 70.94 2.00  53.81 1944.23
   07:08:02.641.18-Apr-2020 3016.07 4594.74 70.93 2.00  54.01 1944.23
   07:08:02.841.18-Apr-2020 3016.07 4594.74 70.93 2.00  54.21 1944.23
   07:08:03.041.18-Apr-2020 3016.07 4572.19 70.93 2.00  54.41 1944.23
   07:08:03.241.18-Apr-2020 3016.07 4541.12 70.93 2.00  54.61 1944.23
   07:08:03.441.18-Apr-2020 3016.07 4525.16 70.93 2.00  54.81 1944.23
   07:08:03.641.18-Apr-2020 3016.07 4524.57 70.93 2.00  55.01 1944.23
   07:08:03.841.18-Apr-2020 3016.07 4524.83 70.93 2.00  55.21 1944.23
   07:08:04.041.18-Apr-2020 3016.07 4522.27 70.93 2.00  55.41 1944.23
   07:08:04.241.18-Apr-2020 3016.07 4519.06 70.93 2.00  55.61 1944.23
   07:08:04.441.18-Apr-2020 3016.07 4518.31 70.93 2.00  55.81 1944.23
   07:08:04.641.18-Apr-2020 3016.07 4518.51 70.93 2.00  56.01 1944.23
   07:08:04.841.18-Apr-2020 3016.07 4518.51 70.93 2.00  56.21 1944.23
   07:08:05.042.18-Apr-2020 3016.07 4517.93 70.92 2.00  56.41 1944.23
   07:08:05.242.18-Apr-2020 3016.07 4517.04 70.92 2.00  56.61 1944.23
   07:08:05.442.18-Apr-2020 3016.07 4515.54 70.92 2.00  56.81 1944.23
   07:08:05.642.18-Apr-2020 3016.07 4517.20 70.92 2.00  57.01 1944.23
   07:08:05.842.18-Apr-2020 3016.07 4517.20 70.92 2.00  57.21 1944.23
   07:08:06.042.18-Apr-2020 3016.07 4516.78 70.92 2.00  57.41 1944.23
   07:08:06.242.18-Apr-2020 3016.07 4516.53 70.92 2.00  57.61 1944.23
   07:08:06.442.18-Apr-2020 3016.07 4517.33 70.92 2.00  57.81 1944.23
   07:08:06.642.18-Apr-2020 3016.07 4517.11 70.92 2.00  58.01 1944.23
   07:08:06.842.18-Apr-2020 3016.07 4517.11 70.92 2.00  58.21 1944.23
   07:08:07.042.18-Apr-2020 3016.07 4515.92 70.92 2.00  58.41 1944.23
   07:08:07.242.18-Apr-2020 3016.07 4515.85 70.91 2.00  58.61 1944.23
   07:08:07.442.18-Apr-2020 3016.07 4516.00 70.91 2.00  58.81 1944.23
   07:08:07.642.18-Apr-2020 3016.07 4516.12 70.91 2.00  59.01 1944.23
   07:08:07.842.18-Apr-2020 3016.07 4515.81 70.91 2.00  59.21 1944.23
   07:08:08.042.18-Apr-2020 3016.07 4515.50 70.91 2.00  59.41 1944.23
   07:08:08.242.18-Apr-2020 3016.07 4514.40 70.91 2.00  59.61 1944.23
   07:08:08.442.18-Apr-2020 3016.07 4515.88 70.91 2.00  59.81 1944.23
   07:08:08.642.18-Apr-2020 3016.07 4516.24 70.91 2.00  60.01 1944.23
   07:08:08.842.18-Apr-2020 3016.07 4516.24 70.91 2.00  60.21 1944.23
   07:08:09.042.18-Apr-2020 3016.07 4515.80 70.91 2.00  60.41 1944.23
   07:08:09.242.18-Apr-2020 3016.07 4516.09 70.91 2.00  60.61 1944.23
   07:08:09.442.18-Apr-2020 3016.07 4516.02 70.90 2.00  60.81 1944.23
   07:08:09.642.18-Apr-2020 3016.07 4675.33 70.90 2.00  61.01 1944.23
   07:08:09.842.18-Apr-2020 3016.07 4675.33 70.90 2.00  61.21 1944.23
   07:08:10.042.18-Apr-2020 3016.07 4489.62 70.90 2.00  61.41 1944.23
   07:08:10.242.18-Apr-2020 3016.07 4487.13 70.90 2.00  61.61 1944.23
   07:08:10.442.18-Apr-2020 3016.07 4485.89 70.90 2.00  61.81 1944.23
   07:08:10.642.18-Apr-2020 3016.07 4485.21 70.90 2.00  62.01 1944.23
   07:08:10.842.18-Apr-2020 3016.07 4485.21 70.90 2.00  62.21 1944.23
   07:08:11.042.18-Apr-2020 3016.07 4480.58 70.90 2.00  62.41 1944.23
   07:08:11.242.18-Apr-2020 3016.07 4481.11 70.90 2.00  62.61 1944.23
   07:08:11.442.18-Apr-2020 3016.07 4481.14 70.90 2.00  62.81 1944.23
   07:08:11.642.18-Apr-2020 3016.07 4479.61 70.89 2.00  63.01 1944.23
   07:08:11.842.18-Apr-2020 3016.07 4474.23 70.89 2.00  63.21 1944.23
   07:08:12.042.18-Apr-2020 3016.07 4356.26 70.89 2.00  63.41 1944.23
   07:08:12.242.18-Apr-2020 3016.07 4153.48 70.89 2.00  63.61 1944.23
   07:08:12.442.18-Apr-2020 3016.07 3867.57 70.89 2.00  63.81 1944.23
   07:08:12.642.18-Apr-2020 3016.07 3620.71 70.89 2.00  64.01 1944.23
   07:08:12.842.18-Apr-2020 3016.07 3620.71 70.89 2.00  64.21 1944.23
   07:08:13.042.18-Apr-2020 3016.07 3310.94 70.89 2.00  64.41 1944.23
   07:08:13.242.18-Apr-2020 3016.07 3300.74 70.89 2.00  64.61 1944.23
   07:08:13.442.18-Apr-2020 3016.07 3320.60 70.88 2.00  64.81 1944.23
   07:08:13.642.18-Apr-2020 3016.07 3323.78 70.88 2.00  65.01 1944.23
   07:08:13.842.18-Apr-2020 3016.07 3323.78 70.88 2.00  65.21 1944.23
   07:08:14.042.18-Apr-2020 3016.07 3325.25 70.88 2.00  65.41 1944.23
   07:08:14.242.18-Apr-2020 3016.07 3325.86 70.88 2.00  65.61 1944.23
   07:08:14.443.18-Apr-2020 3016.07 3325.85 70.88 2.00  65.81 1944.23
   07:08:14.643.18-Apr-2020 3016.07 3325.74 70.88 2.00  66.01 1944.23
   07:08:14.843.18-Apr-2020 3016.07 3325.74 70.88 2.00  66.21 1944.23
   07:08:15.043.18-Apr-2020 3016.07 3324.76 70.87 2.00  66.41 1944.23
   07:08:15.243.18-Apr-2020 3016.07 3325.81 70.87 2.00  66.61 1944.23
   07:08:15.443.18-Apr-2020 3016.07 3326.39 70.87 2.00  66.81 1944.23
   07:08:15.643.18-Apr-2020 3016.07 3326.77 70.87 2.00  67.01 1944.23
   07:08:15.843.18-Apr-2020 3016.07 3326.96 70.87 2.00  67.21 1944.23
   07:08:16.043.18-Apr-2020 3016.07 3327.78 70.86 2.00  67.41 1944.23
   07:08:16.243.18-Apr-2020 3016.07 3328.52 70.86 2.00  67.61 1944.23
   07:08:16.443.18-Apr-2020 3016.07 3328.90 70.86 2.00  67.81 1944.23
   07:08:16.643.18-Apr-2020 3016.07 3329.91 70.86 2.00  68.01 1944.23
   07:08:16.843.18-Apr-2020 3016.07 3329.91 70.86 2.00  68.21 1944.23
   07:08:17.043.18-Apr-2020 3016.07 3331.81 70.86 2.00  68.41 1944.23
   07:08:17.243.18-Apr-2020 3016.07 3332.33 70.85 2.00  68.61 1944.23
   07:08:17.443.18-Apr-2020 3016.07 3333.71 70.85 2.00  68.81 1944.23
