~Version Information
 VERS.                  2.0:   CWLS log ASCII Standard -VERSION 2.0
 WRAP.                   NO:   One line per depth step
~Well Information Block
#MNEM.UNIT     VALUE/NAME     DESCRIPTION
#---------     -----------    ---------------------------
 STRT.S             00:39:23 18-Apr-20: START TIME 00:39:23 18-Apr-20
 STOP.S             00:46:19 18-Apr-20: STOP TIME  00:46:19 18-Apr-20
 STEP.S                   0.00: STEP TIME
 NULL.                 -999.25: NULL VALUE
 DFWT.                        :  DIST FWL TEXT
 DFST.                        :  DIST FSL TEXT
 DMF .                        :  DRILL MEAS FROM
 STIM.      16.29.52 23-Mar-20:  START TIME
 DATE.      16.29.52 23-Mar-20:  END TIME
 SPUD.               23-Mar-20:  SPUD DATE
 NREF.                    Grid:  NORTH REFERENCE
 HPTY.       Minimum Curvature:  HOLE POS TYPE
 DMOD.             Drill Model:  DRILL MOD DESC
 SVYD.                  Survey:  SURVEY DESC
 ILTD.               Lithology:  INTERP LTH DESC
 FTOP.          Formation Tops:  FORM TOPS DESC
 SON .        AZ-XX-0906252240:  JOB NUMBER
 RIG .             West Chirag:  RIG NAME
 PDAT.          Mean Sea Level:  PERMANENT DATUM
 FLD .                     ACG:  FIELD NAME
 CTRY.              Azerbaijan:  COUNTRY NAME
 WELL.           J23 (Slot 07):  WELL NAME
 SRVC.          Turan Drilling:  CONTRACTOR
 COMP.     BP Exploration (Casoian Sea) Ltd:  COMPANY
 WTYP.                Deviated:  WELL TYPE
 MDS .        Operator Entered:  MAG DATA SOURCE
 UWI .                     N/A:  UNIQUE WELL IDENTIFIER
 API .                     N/A:  API NUMBER
 BASE.              Azerbaijan:  LOGGING EQUIPMENT BASE LOCATION
 REGN.                   EESSA:  REGION
 PROV.                    Baku:  PROVINCE
 STAT.                    Baku:  STATE NAME
 MWDS.                     N/A:  MWD SHOP
 JOBN.        AZ-XX-0906252240:  JOB TICKET NUMB
 DOE .                     N/A:  DOE NUMBER
 DCON.         Sperry Drilling:  DIRECTNL CONTR
 UNIT.                     N/A:  LOGGING EQUIPMENT ID
 CNTY.                        :  COUNTY
 LOC .                        :  LOCATION
 LMF .             Drill Floor:  LOG MEASURED FROM
 TVDS.m                  43.00:  TVDSS CORRECTN
 LATI.deg                40.13:  LATITUDE
 LONG.deg                51.22:  LONGITUDE
 WHNS.m                   9.43:  WELL HEAD N/S
 WHEW.m                  -8.91:  WELL HEAD E/W
 UTMX.m              519005.06:  UTM X
 UTMY.m             4443793.85:  UTM Y
 DFWL.m                   0.00:  DISTANCE FWL
 DFSL.m                   0.00:  DISTANCE FSL
 SDEP.m                   0.00:  START DEPTH
 TDD .m                   0.00:  TOTAL DEPTH (DRILLER)
 VSDR.deg               179.88:  VERT SEC DIRECT
 GVFD.g                   1.00:  GRAVITY FIELD
 MFLD.nT              50281.00:  MAGNETIC FIELD
 MDIP.deg                59.58:  MAGNETIC DIP
 MDEC.deg                 6.48:  MAGNETIC DECL
 GRDC.deg                 0.14:  GRID CORRECTION
 AZTC.deg                 6.34:  AZM TOTAL CORR
 EPD .m                   0.00:  ELEVATION
 EGL .m                   0.00:  GROUND ELEVATION
 WDMS.m                 169.80:  WD ELEV
 APD .m                  43.00:  DEPTH ABOVE PD
 DEP .m                 354.17:  DEPTH
 AGAP.m                  43.00:  AIR GAP
 VSEW.m                  -8.91:  VERT SEC E/W
 VSNS.m                   9.43:  VERT SEC N/S
 EKB .m                   0.00:  KB ELEVATION
 EDF .m                  43.00:  DF ELEVATION
 TDL .m                1326.00:  TOTAL DEPTH (LOGGER)
 VSC .                       0:  VS TO CLOSURE
 MAGU.                 1850704:  MAGUTM CHECKSUM
~Parameter Information Block
#MNEM.UNIT       Value        Description
#---------     -----------    ---------------------------
 AV  .mps                 1.17:  Ann Velocity 
 AZIF.deg               184.04:  Azm, Final 
 BHAT.        Rotary Steerable:  BHA Type 
 BREV.rev            620000.00:  Rev Bit Total 
 BROT.°/30m               0.20:  Build Rotating 
 BS  .in                 14.75:  Bit Size 
 BSZ .in                 14.75:  Bit Size 
 BTPL.psig              618.00:  Bit Press Loss 
 CABU.                      No:  Customer Abuse 
 COMM.                     TŠT:  Run Comments 1 
 TCS .hr                 87.68:  Time Ciculation Ended 
 CV  .mps                 3.10:  Crit Velocity 
 DD1 .          Rashad Habibov:  Direct Drillr 1 
 DD2 .         Rasim Ibrahimov:  Direct Drillr 2 
 DDSV.               Geo-Pilot:  DD Service 
 DEFF.%                  98.00:  % Det Eff 
 DLRX.°/30m               1.48:  Dogleg Rot Max 
 DLSO.°/30m               0.50:  Dogleg Oriented 
 DLSX.°/30m               1.48:  Dogleg Str Max 
 DRET.      06.18.56 19-Apr-20:  Drill End Time 
 DRST.      15.00.56 15-Apr-20:  Drill Start Tim 
 DTIM.hr                 51.73:  Time Drilling 
 EDEP.m                3410.01:  End Depth 
 ENG1.        Marcelo Sandoval:  Engineer 1 
 ENG2.        Davud Huseynzade:  Engineer 2 
 ENG3.          Ruslan Safarov:  Engineer 3 
 ETIM.      04.00.56 20-Apr-20:  End Time 
 FLOI.gpm              1000.00:  Flow In 
 FLON.gpm               600.00:  Flow In Min 
 FLOS.cptm                0.00:  Fluid Loss 
 FLOX.gpm              1200.00:  Flow In Max 
 HFLO.                      No:  High Flow 
 HPRE.                     Yes:  High Pressure 
 HTEM.                      No:  High Temp 
 HYDO.m                   1.80:  Hydro Offset 
 IFIN.deg                70.04:  Inc, Final 
 IMAX.deg                70.56:  Inc Max 
 IMIN.deg                69.85:  Inc Min 
 IMND.m                3103.24:  Inc Min Depth 
 IMXD.m                2876.63:  Inc Max Depth 
 JARR.                      No:  Jarring 
 LETM.      06.18.56 19-Apr-20:  Log End Time 
 LOST.hr                     0:  Lost Rig Time 
 LSTM.      15.00.56 15-Apr-20:  Log Start Time 
 MDCL.ppm             42000.00:  Mud Chlorides 
 MDES.     Inversion Oil/Synthetic:  Mud Desc 
 DFD .sg                  1.58:  Mud Density 
 MDMN.sg                  1.58:  Dens Mud Min 
 MDMX.sg                  1.58:  Dens Mud Max 
 MOIL.                      71:  Run Mud Oil % 
 MOWR.                   71:29:  Run Mud OWR 
 MSND.                       0:  Run Mud Sand % 
 MSOL.                    23.3:  Run Mud Solids% 
 DFV .spqt               84.00:  Mud Viscosity 
 MWOD.in                  9.50:  MWD Tool OD 
 MWSI.                      No:  Serv Intrp, MWD 
 OTIM.hr                139.62:  Time Operating 
 PMAX.psia             5364.69:  Press Op, Max 
 PV  .cP                 80.00:  Mud PV 
 RUN .                     700:  Run Number 
 ROPA.m/hr               25.00:  ROP Avg 
 ROPN.m/hr               11.00:  ROP Min 
 ROPX.m/hr               36.00:  ROP Max 
 RPMA.rpm               130.00:  RPM Surface Avg 
 RPMN.rpm               120.00:  RPM Surface Min 
 RPMX.rpm               140.00:  RPM Surface Max 
 RRUN.                    0700:  Rig Run Number 
 SAZI.deg               183.25:  Azm, Start 
 SDEP.m                2084.00:  Start Depth 
 SIDD.                      No:  Serv Intrp, DD 
 SINC.deg                70.38:  Inc, Start 
 SPPA.psig             4800.00:  SPP Avg 
 SPPN.psig             4400.00:  SPP Min 
 SPPX.psig             5350.00:  SPP Max 
 STIM.      16.30.56 14-Apr-20:  Start Time 
 SVCS.                 DD, MWD:  Services 
 SVER.                    9.20:  Sperry Version 
 TDAT.m                1326.00:  Tot Depth Attmp 
 TDDF.                      No:  Trip for DD 
 TDLG.m                1326.00:  Tot Depth Loggd 
 TFF .                      No:  Trip for Fail 
 TQAA.f-kp               19.00:  Torque Abs Avg 
 TQAN.f-kp                8.00:  Torque Abs Min 
 TQAX.f-kp               27.00:  Torque Abs Max 
 TRRT.°/30m               0.50:  Turn Rotating 
 MRT .                    HCIM:  Maximum Recorded Temperature 
 TTMX.degC               82.35:  Max Tool Temp 
 VS01.       905245875X1Z1W1C8:  Virtual Str1 SN 
 VS02.       90608022F11V7D1A9:  Virtual Str2 SN 
 VS03.            90605473R5C9:  Virtual Str3 SN 
 WBMN.klb                11.00:  WOB Min 
 WOBA.klb                21.00:  WOB Avg 
 WOBX.klb                30.00:  WOB Max 
 YP  .lhf2               45.00:  Yield Point 
~Curve Information Block
#MNEM.UNIT                 API CODE     Curve Description
#---------               -----------    ---------------------------
 TIME.HHMMSS            00 000 000 000:  GT Time & Date
 GTDEPTH.m              00 000 000 000:  GT Depth
 GTPQH.psia             00 000 000 000:  GT HR Quartz Pressure
 GTTQ.degC              00 000 000 000:  GT Quartz Temperature
 GTTN.NONE              00 000 000 000:  GT Test Number
 GTET.sec               00 000 000 000:  GT Elapsed Test Time
 GTTVD.m                00 000 000 000:  GT True Vertical Depth
#Other Information
#
#WARRANTY: Halliburton will use its best efforts to furnish customers with 
#accurate information and interpretations that are part of, and incident to, the services 
#provided.  However, Halliburton cannot and does not warrant the accuracy 
#or correctness of such information and interpretations.  Under no circumstances should any 
#such information or interpretation be relied upon as the sole basis for any drilling, 
#completion, production, or financial decision or any procedure involving any risk to the 
#safety of any drilling venture, drilling rig or its crew or any other third party.  The 
#Customer has full responsibility for all drilling, completion and production operation.  
#Halliburton makes no representations or warranties, either expressed or 
#implied, including, but not limited to, the implied warranties of merchantability or fitness 
#for a particular purpose, with respect to the services rendered.  In no event will 
#Halliburton be liable for failure to obtain any particular results or for 
#any damages, including, but not limited to, indirect, special or consequential damages, 
#resulting from the use of any information or interpretation provided by Halliburton.
#
~A           TIME           GTDEPTH  GTPQH  GTTQ  GTTN  GTET   GTTVD  
# ...
   00:42:50.342.18-Apr-2020 2932.07 3431.49 63.21 1.00 207.03 1915.77
   00:42:50.542.18-Apr-2020 2932.07 3431.49 63.21 1.00 207.23 1915.77
   00:42:50.742.18-Apr-2020 2932.07 3431.50 63.21 1.00 207.43 1915.77
   00:42:50.942.18-Apr-2020 2932.07 3431.50 63.21 1.00 207.63 1915.77
   00:42:51.142.18-Apr-2020 2932.07 3431.49 63.21 1.00 207.83 1915.77
   00:42:51.342.18-Apr-2020 2932.07 3431.48 63.21 1.00 208.03 1915.77
   00:42:51.542.18-Apr-2020 2932.07 3431.48 63.21 1.00 208.23 1915.77
   00:42:51.742.18-Apr-2020 2932.07 3431.49 63.21 1.00 208.43 1915.77
   00:42:51.942.18-Apr-2020 2932.07 3431.48 63.21 1.00 208.63 1915.77
   00:42:52.142.18-Apr-2020 2932.07 3431.48 63.21 1.00 208.83 1915.77
   00:42:52.342.18-Apr-2020 2932.07 3431.49 63.20 1.00 209.03 1915.77
   00:42:52.542.18-Apr-2020 2932.07 3431.49 63.20 1.00 209.23 1915.77
   00:42:52.742.18-Apr-2020 2932.07 3431.48 63.20 1.00 209.43 1915.77
   00:42:52.942.18-Apr-2020 2932.07 3431.49 63.20 1.00 209.63 1915.77
   00:42:53.142.18-Apr-2020 2932.07 3431.49 63.20 1.00 209.83 1915.77
   00:42:53.342.18-Apr-2020 2932.07 3431.48 63.20 1.00 210.03 1915.77
   00:42:53.542.18-Apr-2020 2932.07 3431.48 63.20 1.00 210.23 1915.77
   00:42:53.742.18-Apr-2020 2932.07 3431.49 63.20 1.00 210.43 1915.77
   00:42:53.942.18-Apr-2020 2932.07 3431.49 63.20 1.00 210.63 1915.77
   00:42:54.142.18-Apr-2020 2932.07 3431.48 63.20 1.00 210.83 1915.77
   00:42:54.342.18-Apr-2020 2932.07 3431.48 63.20 1.00 211.03 1915.77
   00:42:54.542.18-Apr-2020 2932.07 3431.48 63.20 1.00 211.23 1915.77
   00:42:54.742.18-Apr-2020 2932.07 3431.50 63.20 1.00 211.43 1915.77
   00:42:54.943.18-Apr-2020 2932.07 3431.47 63.20 1.00 211.63 1915.77
   00:42:55.143.18-Apr-2020 2932.07 3431.48 63.20 1.00 211.83 1915.77
   00:42:55.343.18-Apr-2020 2932.07 3431.47 63.20 1.00 212.03 1915.77
   00:42:55.543.18-Apr-2020 2932.07 3431.47 63.20 1.00 212.23 1915.77
   00:42:55.743.18-Apr-2020 2932.07 3431.47 63.20 1.00 212.43 1915.77
   00:42:55.943.18-Apr-2020 2932.07 3431.47 63.20 1.00 212.63 1915.77
   00:42:56.143.18-Apr-2020 2932.07 3431.47 63.20 1.00 212.83 1915.77
   00:42:56.343.18-Apr-2020 2932.07 3431.47 63.20 1.00 213.03 1915.77
   00:42:56.543.18-Apr-2020 2932.07 3431.47 63.20 1.00 213.23 1915.77
   00:42:56.743.18-Apr-2020 2932.07 3431.47 63.20 1.00 213.43 1915.77
   00:42:56.943.18-Apr-2020 2932.07 3431.47 63.20 1.00 213.63 1915.77
   00:42:57.143.18-Apr-2020 2932.07 3431.45 63.20 1.00 213.83 1915.77
   00:42:57.343.18-Apr-2020 2932.07 3431.48 63.20 1.00 214.03 1915.77
   00:42:57.543.18-Apr-2020 2932.07 3431.48 63.20 1.00 214.23 1915.77
   00:42:57.743.18-Apr-2020 2932.07 3431.47 63.20 1.00 214.43 1915.77
   00:42:57.943.18-Apr-2020 2932.07 3431.46 63.19 1.00 214.63 1915.77
   00:42:58.143.18-Apr-2020 2932.07 3431.46 63.19 1.00 214.83 1915.77
   00:42:58.343.18-Apr-2020 2932.07 3431.47 63.19 1.00 215.03 1915.77
   00:42:58.543.18-Apr-2020 2932.07 3431.47 63.19 1.00 215.23 1915.77
   00:42:58.743.18-Apr-2020 2932.07 3431.46 63.19 1.00 215.43 1915.77
   00:42:58.943.18-Apr-2020 2932.07 3431.46 63.19 1.00 215.63 1915.77
   00:42:59.143.18-Apr-2020 2932.07 3431.46 63.19 1.00 215.83 1915.77
   00:42:59.343.18-Apr-2020 2932.07 3431.46 63.19 1.00 216.03 1915.77
   00:42:59.543.18-Apr-2020 2932.07 3431.46 63.19 1.00 216.23 1915.77
   00:42:59.743.18-Apr-2020 2932.07 3431.45 63.19 1.00 216.43 1915.77
   00:42:59.943.18-Apr-2020 2932.07 3431.45 63.19 1.00 216.64 1915.77
   00:43:00.143.18-Apr-2020 2932.07 3431.45 63.19 1.00 216.84 1915.77
   00:43:00.343.18-Apr-2020 2932.07 3431.46 63.19 1.00 217.04 1915.77
   00:43:00.543.18-Apr-2020 2932.07 3431.46 63.19 1.00 217.24 1915.77
   00:43:00.743.18-Apr-2020 2932.07 3431.45 63.19 1.00 217.44 1915.77
   00:43:00.943.18-Apr-2020 2932.07 3431.45 63.19 1.00 217.64 1915.77
   00:43:01.144.18-Apr-2020 2932.07 3431.45 63.19 1.00 217.84 1915.77
   00:43:01.344.18-Apr-2020 2932.07 3431.45 63.19 1.00 218.04 1915.77
   00:43:01.544.18-Apr-2020 2932.07 3431.45 63.19 1.00 218.24 1915.77
   00:43:01.744.18-Apr-2020 2932.07 3431.45 63.19 1.00 218.44 1915.77
   00:43:01.944.18-Apr-2020 2932.07 3431.45 63.19 1.00 218.64 1915.77
   00:43:02.144.18-Apr-2020 2932.07 3431.46 63.19 1.00 218.84 1915.77
   00:43:02.344.18-Apr-2020 2932.07 3431.45 63.19 1.00 219.04 1915.77
   00:43:02.544.18-Apr-2020 2932.07 3431.45 63.19 1.00 219.24 1915.77
   00:43:02.744.18-Apr-2020 2932.07 3431.44 63.19 1.00 219.44 1915.77
   00:43:02.944.18-Apr-2020 2932.07 3431.45 63.19 1.00 219.64 1915.77
   00:43:03.144.18-Apr-2020 2932.07 3431.44 63.19 1.00 219.84 1915.77
   00:43:03.344.18-Apr-2020 2932.07 3431.46 63.18 1.00 220.04 1915.77
   00:43:03.544.18-Apr-2020 2932.07 3431.44 63.18 1.00 220.24 1915.77
   00:43:03.744.18-Apr-2020 2932.07 3431.43 63.18 1.00 220.44 1915.77
   00:43:03.944.18-Apr-2020 2932.07 3431.45 63.18 1.00 220.64 1915.77
   00:43:04.144.18-Apr-2020 2932.07 3431.44 63.18 1.00 220.84 1915.77
   00:43:04.344.18-Apr-2020 2932.07 3431.45 63.18 1.00 221.04 1915.77
   00:43:04.544.18-Apr-2020 2932.07 3431.44 63.18 1.00 221.24 1915.77
   00:43:04.744.18-Apr-2020 2932.07 3431.44 63.18 1.00 221.44 1915.77
   00:43:04.944.18-Apr-2020 2932.07 3431.43 63.18 1.00 221.64 1915.77
   00:43:05.144.18-Apr-2020 2932.07 3431.45 63.18 1.00 221.84 1915.77
   00:43:05.344.18-Apr-2020 2932.07 3431.44 63.18 1.00 222.04 1915.77
   00:43:05.544.18-Apr-2020 2932.07 3431.44 63.18 1.00 222.24 1915.77
   00:43:05.744.18-Apr-2020 2932.07 3431.45 63.18 1.00 222.44 1915.77
   00:43:05.944.18-Apr-2020 2932.07 3431.43 63.18 1.00 222.64 1915.77
   00:43:06.144.18-Apr-2020 2932.07 3431.45 63.18 1.00 222.84 1915.77
   00:43:06.344.18-Apr-2020 2932.07 3431.43 63.18 1.00 223.04 1915.77
   00:43:06.544.18-Apr-2020 2932.07 3431.44 63.18 1.00 223.24 1915.77
   00:43:06.744.18-Apr-2020 2932.07 3431.43 63.18 1.00 223.44 1915.77
   00:43:06.944.18-Apr-2020 2932.07 3431.42 63.18 1.00 223.64 1915.77
   00:43:07.144.18-Apr-2020 2932.07 3431.43 63.18 1.00 223.84 1915.77
   00:43:07.345.18-Apr-2020 2932.07 3431.44 63.18 1.00 224.04 1915.77
   00:43:07.545.18-Apr-2020 2932.07 3431.44 63.18 1.00 224.24 1915.77
   00:43:07.745.18-Apr-2020 2932.07 3431.42 63.18 1.00 224.44 1915.77
   00:43:07.945.18-Apr-2020 2932.07 3431.44 63.18 1.00 224.64 1915.77
   00:43:08.145.18-Apr-2020 2932.07 3431.43 63.18 1.00 224.84 1915.77
   00:43:08.345.18-Apr-2020 2932.07 3431.42 63.18 1.00 225.04 1915.77
   00:43:08.545.18-Apr-2020 2932.07 3431.42 63.18 1.00 225.24 1915.77
   00:43:08.745.18-Apr-2020 2932.07 3431.43 63.18 1.00 225.44 1915.77
   00:43:08.945.18-Apr-2020 2932.07 3431.43 63.17 1.00 225.64 1915.77
   00:43:09.145.18-Apr-2020 2932.07 3431.43 63.17 1.00 225.84 1915.77
   00:43:09.345.18-Apr-2020 2932.07 3431.43 63.17 1.00 226.04 1915.77
   00:43:09.545.18-Apr-2020 2932.07 3431.43 63.17 1.00 226.24 1915.77
   00:43:09.745.18-Apr-2020 2932.07 3431.43 63.17 1.00 226.44 1915.77
   00:43:09.945.18-Apr-2020 2932.07 3431.41 63.17 1.00 226.64 1915.77
   00:43:10.145.18-Apr-2020 2932.07 3431.41 63.17 1.00 226.84 1915.77
   00:43:10.345.18-Apr-2020 2932.07 3431.43 63.17 1.00 227.04 1915.77
   00:43:10.545.18-Apr-2020 2932.07 3431.43 63.17 1.00 227.24 1915.77
   00:43:10.745.18-Apr-2020 2932.07 3431.41 63.17 1.00 227.44 1915.77
   00:43:10.945.18-Apr-2020 2932.07 3431.41 63.17 1.00 227.64 1915.77
   00:43:11.145.18-Apr-2020 2932.07 3431.43 63.17 1.00 227.84 1915.77
   00:43:11.345.18-Apr-2020 2932.07 3431.41 63.17 1.00 228.04 1915.77
   00:43:11.545.18-Apr-2020 2932.07 3431.41 63.17 1.00 228.24 1915.77
   00:43:11.745.18-Apr-2020 2932.07 3431.40 63.17 1.00 228.44 1915.77
   00:43:11.945.18-Apr-2020 2932.07 3431.41 63.17 1.00 228.64 1915.77
   00:43:12.145.18-Apr-2020 2932.07 3431.41 63.17 1.00 228.84 1915.77
   00:43:12.345.18-Apr-2020 2932.07 3431.41 63.17 1.00 229.04 1915.77
   00:43:12.545.18-Apr-2020 2932.07 3431.41 63.17 1.00 229.24 1915.77
   00:43:12.745.18-Apr-2020 2932.07 3431.41 63.17 1.00 229.44 1915.77
   00:43:12.945.18-Apr-2020 2932.07 3431.40 63.17 1.00 229.64 1915.77
   00:43:13.145.18-Apr-2020 2932.07 3431.42 63.17 1.00 229.84 1915.77
