~Version Information
 VERS.                  2.0:   CWLS log ASCII Standard -VERSION 2.0
 WRAP.                   NO:   One line per depth step
~Well Information Block
#MNEM.UNIT     VALUE/NAME     DESCRIPTION
#---------     -----------    ---------------------------
 STRT.S             15:35:19 18-Apr-20: START TIME 15:35:19 18-Apr-20
 STOP.S             15:42:14 18-Apr-20: STOP TIME  15:42:14 18-Apr-20
 STEP.S                   0.00: STEP TIME
 NULL.                 -999.25: NULL VALUE
 DFWT.                        :  DIST FWL TEXT
 DFST.                        :  DIST FSL TEXT
 DMF .                        :  DRILL MEAS FROM
 STIM.      16.29.52 23-Mar-20:  START TIME
 DATE.      16.29.52 23-Mar-20:  END TIME
 SPUD.               23-Mar-20:  SPUD DATE
 NREF.                    Grid:  NORTH REFERENCE
 HPTY.       Minimum Curvature:  HOLE POS TYPE
 DMOD.             Drill Model:  DRILL MOD DESC
 SVYD.                  Survey:  SURVEY DESC
 ILTD.               Lithology:  INTERP LTH DESC
 FTOP.          Formation Tops:  FORM TOPS DESC
 SON .        AZ-XX-0906252240:  JOB NUMBER
 RIG .             West Chirag:  RIG NAME
 PDAT.          Mean Sea Level:  PERMANENT DATUM
 FLD .                     ACG:  FIELD NAME
 CTRY.              Azerbaijan:  COUNTRY NAME
 WELL.           J23 (Slot 07):  WELL NAME
 SRVC.          Turan Drilling:  CONTRACTOR
 COMP.     BP Exploration (Casoian Sea) Ltd:  COMPANY
 WTYP.                Deviated:  WELL TYPE
 MDS .        Operator Entered:  MAG DATA SOURCE
 UWI .                     N/A:  UNIQUE WELL IDENTIFIER
 API .                     N/A:  API NUMBER
 BASE.              Azerbaijan:  LOGGING EQUIPMENT BASE LOCATION
 REGN.                   EESSA:  REGION
 PROV.                    Baku:  PROVINCE
 STAT.                    Baku:  STATE NAME
 MWDS.                     N/A:  MWD SHOP
 JOBN.        AZ-XX-0906252240:  JOB TICKET NUMB
 DOE .                     N/A:  DOE NUMBER
 DCON.         Sperry Drilling:  DIRECTNL CONTR
 UNIT.                     N/A:  LOGGING EQUIPMENT ID
 CNTY.                        :  COUNTY
 LOC .                        :  LOCATION
 LMF .             Drill Floor:  LOG MEASURED FROM
 TVDS.m                  43.00:  TVDSS CORRECTN
 LATI.deg                40.13:  LATITUDE
 LONG.deg                51.22:  LONGITUDE
 WHNS.m                   9.43:  WELL HEAD N/S
 WHEW.m                  -8.91:  WELL HEAD E/W
 UTMX.m              519005.06:  UTM X
 UTMY.m             4443793.85:  UTM Y
 DFWL.m                   0.00:  DISTANCE FWL
 DFSL.m                   0.00:  DISTANCE FSL
 SDEP.m                   0.00:  START DEPTH
 TDD .m                   0.00:  TOTAL DEPTH (DRILLER)
 VSDR.deg               179.88:  VERT SEC DIRECT
 GVFD.g                   1.00:  GRAVITY FIELD
 MFLD.nT              50281.00:  MAGNETIC FIELD
 MDIP.deg                59.58:  MAGNETIC DIP
 MDEC.deg                 6.48:  MAGNETIC DECL
 GRDC.deg                 0.14:  GRID CORRECTION
 AZTC.deg                 6.34:  AZM TOTAL CORR
 EPD .m                   0.00:  ELEVATION
 EGL .m                   0.00:  GROUND ELEVATION
 WDMS.m                 169.80:  WD ELEV
 APD .m                  43.00:  DEPTH ABOVE PD
 DEP .m                 354.17:  DEPTH
 AGAP.m                  43.00:  AIR GAP
 VSEW.m                  -8.91:  VERT SEC E/W
 VSNS.m                   9.43:  VERT SEC N/S
 EKB .m                   0.00:  KB ELEVATION
 EDF .m                  43.00:  DF ELEVATION
 TDL .m                1326.00:  TOTAL DEPTH (LOGGER)
 VSC .                       0:  VS TO CLOSURE
 MAGU.                 1850704:  MAGUTM CHECKSUM
~Parameter Information Block
#MNEM.UNIT       Value        Description
#---------     -----------    ---------------------------
 AV  .mps                 1.17:  Ann Velocity 
 AZIF.deg               184.04:  Azm, Final 
 BHAT.        Rotary Steerable:  BHA Type 
 BREV.rev            620000.00:  Rev Bit Total 
 BROT.°/30m               0.20:  Build Rotating 
 BS  .in                 14.75:  Bit Size 
 BSZ .in                 14.75:  Bit Size 
 BTPL.psig              618.00:  Bit Press Loss 
 CABU.                      No:  Customer Abuse 
 COMM.                     ü—`:  Run Comments 1 
 TCS .hr                 87.68:  Time Ciculation Ended 
 CV  .mps                 3.10:  Crit Velocity 
 DD1 .          Rashad Habibov:  Direct Drillr 1 
 DD2 .         Rasim Ibrahimov:  Direct Drillr 2 
 DDSV.               Geo-Pilot:  DD Service 
 DEFF.%                  98.00:  % Det Eff 
 DLRX.°/30m               1.48:  Dogleg Rot Max 
 DLSO.°/30m               0.50:  Dogleg Oriented 
 DLSX.°/30m               1.48:  Dogleg Str Max 
 DRET.      06.18.56 19-Apr-20:  Drill End Time 
 DRST.      15.00.56 15-Apr-20:  Drill Start Tim 
 DTIM.hr                 51.73:  Time Drilling 
 EDEP.m                3410.01:  End Depth 
 ENG1.        Marcelo Sandoval:  Engineer 1 
 ENG2.        Davud Huseynzade:  Engineer 2 
 ENG3.          Ruslan Safarov:  Engineer 3 
 ETIM.      04.00.56 20-Apr-20:  End Time 
 FLOI.gpm              1000.00:  Flow In 
 FLON.gpm               600.00:  Flow In Min 
 FLOS.cptm                0.00:  Fluid Loss 
 FLOX.gpm              1200.00:  Flow In Max 
 HFLO.                      No:  High Flow 
 HPRE.                     Yes:  High Pressure 
 HTEM.                      No:  High Temp 
 HYDO.m                   1.80:  Hydro Offset 
 IFIN.deg                70.04:  Inc, Final 
 IMAX.deg                70.56:  Inc Max 
 IMIN.deg                69.85:  Inc Min 
 IMND.m                3103.24:  Inc Min Depth 
 IMXD.m                2876.63:  Inc Max Depth 
 JARR.                      No:  Jarring 
 LETM.      06.18.56 19-Apr-20:  Log End Time 
 LOST.hr                     0:  Lost Rig Time 
 LSTM.      15.00.56 15-Apr-20:  Log Start Time 
 MDCL.ppm             42000.00:  Mud Chlorides 
 MDES.     Inversion Oil/Synthetic:  Mud Desc 
 DFD .sg                  1.58:  Mud Density 
 MDMN.sg                  1.58:  Dens Mud Min 
 MDMX.sg                  1.58:  Dens Mud Max 
 MOIL.                      71:  Run Mud Oil % 
 MOWR.                   71:29:  Run Mud OWR 
 MSND.                       0:  Run Mud Sand % 
 MSOL.                    23.3:  Run Mud Solids% 
 DFV .spqt               84.00:  Mud Viscosity 
 MWOD.in                  9.50:  MWD Tool OD 
 MWSI.                      No:  Serv Intrp, MWD 
 OTIM.hr                139.62:  Time Operating 
 PMAX.psia             5364.69:  Press Op, Max 
 PV  .cP                 80.00:  Mud PV 
 RUN .                     700:  Run Number 
 ROPA.m/hr               25.00:  ROP Avg 
 ROPN.m/hr               11.00:  ROP Min 
 ROPX.m/hr               36.00:  ROP Max 
 RPMA.rpm               130.00:  RPM Surface Avg 
 RPMN.rpm               120.00:  RPM Surface Min 
 RPMX.rpm               140.00:  RPM Surface Max 
 RRUN.                    0700:  Rig Run Number 
 SAZI.deg               183.25:  Azm, Start 
 SDEP.m                2084.00:  Start Depth 
 SIDD.                      No:  Serv Intrp, DD 
 SINC.deg                70.38:  Inc, Start 
 SPPA.psig             4800.00:  SPP Avg 
 SPPN.psig             4400.00:  SPP Min 
 SPPX.psig             5350.00:  SPP Max 
 STIM.      16.30.56 14-Apr-20:  Start Time 
 SVCS.                 DD, MWD:  Services 
 SVER.                    9.20:  Sperry Version 
 TDAT.m                1326.00:  Tot Depth Attmp 
 TDDF.                      No:  Trip for DD 
 TDLG.m                1326.00:  Tot Depth Loggd 
 TFF .                      No:  Trip for Fail 
 TQAA.f-kp               19.00:  Torque Abs Avg 
 TQAN.f-kp                8.00:  Torque Abs Min 
 TQAX.f-kp               27.00:  Torque Abs Max 
 TRRT.°/30m               0.50:  Turn Rotating 
 MRT .                    HCIM:  Maximum Recorded Temperature 
 TTMX.degC               82.35:  Max Tool Temp 
 VS01.       905245875X1Z1W1C8:  Virtual Str1 SN 
 VS02.       90608022F11V7D1A9:  Virtual Str2 SN 
 VS03.            90605473R5C9:  Virtual Str3 SN 
 WBMN.klb                11.00:  WOB Min 
 WOBA.klb                21.00:  WOB Avg 
 WOBX.klb                30.00:  WOB Max 
 YP  .lhf2               45.00:  Yield Point 
~Curve Information Block
#MNEM.UNIT                 API CODE     Curve Description
#---------               -----------    ---------------------------
 TIME.HHMMSS            00 000 000 000:  GT Time & Date
 GTDEPTH.m              00 000 000 000:  GT Depth
 GTPQH.psia             00 000 000 000:  GT HR Quartz Pressure
 GTTQ.degC              00 000 000 000:  GT Quartz Temperature
 GTTN.NONE              00 000 000 000:  GT Test Number
 GTET.sec               00 000 000 000:  GT Elapsed Test Time
 GTTVD.m                00 000 000 000:  GT True Vertical Depth
#Other Information
#
#WARRANTY: Halliburton will use its best efforts to furnish customers with 
#accurate information and interpretations that are part of, and incident to, the services 
#provided.  However, Halliburton cannot and does not warrant the accuracy 
#or correctness of such information and interpretations.  Under no circumstances should any 
#such information or interpretation be relied upon as the sole basis for any drilling, 
#completion, production, or financial decision or any procedure involving any risk to the 
#safety of any drilling venture, drilling rig or its crew or any other third party.  The 
#Customer has full responsibility for all drilling, completion and production operation.  
#Halliburton makes no representations or warranties, either expressed or 
#implied, including, but not limited to, the implied warranties of merchantability or fitness 
#for a particular purpose, with respect to the services rendered.  In no event will 
#Halliburton be liable for failure to obtain any particular results or for 
#any damages, including, but not limited to, indirect, special or consequential damages, 
#resulting from the use of any information or interpretation provided by Halliburton.
#
~A           TIME           GTDEPTH  GTPQH  GTTQ  GTTN  GTET   GTTVD  
# ...
   15:36:28.350.18-Apr-2020 3140.87 2687.11 71.74 6.00  68.99 1986.80
   15:36:28.550.18-Apr-2020 3140.87 2646.89 71.74 6.00  69.19 1986.80
   15:36:28.750.18-Apr-2020 3140.87 2608.54 71.74 6.00  69.39 1986.80
   15:36:28.950.18-Apr-2020 3140.87 2571.73 71.73 6.00  69.59 1986.80
   15:36:29.150.18-Apr-2020 3140.87 2536.01 71.73 6.00  69.79 1986.80
   15:36:29.350.18-Apr-2020 3140.87 2501.89 71.73 6.00  69.99 1986.80
   15:36:29.550.18-Apr-2020 3140.87 2501.89 71.73 6.00  70.19 1986.80
   15:36:29.750.18-Apr-2020 3140.87 2437.23 71.73 6.00  70.39 1986.80
   15:36:29.950.18-Apr-2020 3140.87 2412.27 71.72 6.00  70.59 1986.80
   15:36:30.150.18-Apr-2020 3140.87 2425.00 71.72 6.00  70.79 1986.80
   15:36:30.350.18-Apr-2020 3140.87 2438.05 71.72 6.00  70.99 1986.80
   15:36:30.550.18-Apr-2020 3140.87 2438.05 71.72 6.00  71.19 1986.80
   15:36:30.750.18-Apr-2020 3140.87 2454.33 71.72 6.00  71.39 1986.80
   15:36:30.950.18-Apr-2020 3140.87 2459.81 71.71 6.00  71.59 1986.80
   15:36:31.150.18-Apr-2020 3140.87 2464.25 71.71 6.00  71.79 1986.80
   15:36:31.350.18-Apr-2020 3140.87 2467.90 71.71 6.00  71.99 1986.80
   15:36:31.550.18-Apr-2020 3140.87 2470.99 71.71 6.00  72.19 1986.80
   15:36:31.750.18-Apr-2020 3140.87 2473.60 71.71 6.00  72.39 1986.80
   15:36:31.950.18-Apr-2020 3140.87 2475.87 71.70 6.00  72.59 1986.80
   15:36:32.150.18-Apr-2020 3140.87 2477.87 71.70 6.00  72.79 1986.80
   15:36:32.350.18-Apr-2020 3140.87 2479.62 71.70 6.00  72.99 1986.80
   15:36:32.550.18-Apr-2020 3140.87 2481.16 71.70 6.00  73.19 1986.80
   15:36:32.750.18-Apr-2020 3140.87 2482.53 71.70 6.00  73.39 1986.80
   15:36:32.950.18-Apr-2020 3140.87 2483.77 71.70 6.00  73.59 1986.80
   15:36:33.150.18-Apr-2020 3140.87 2484.89 71.69 6.00  73.79 1986.80
   15:36:33.350.18-Apr-2020 3140.87 2485.91 71.69 6.00  73.99 1986.80
   15:36:33.550.18-Apr-2020 3140.87 2485.91 71.69 6.00  74.19 1986.80
   15:36:33.750.18-Apr-2020 3140.87 2487.70 71.69 6.00  74.39 1986.80
   15:36:33.950.18-Apr-2020 3140.87 2488.48 71.69 6.00  74.59 1986.80
   15:36:34.150.18-Apr-2020 3140.87 2489.19 71.69 6.00  74.79 1986.80
   15:36:34.349.18-Apr-2020 3140.87 2489.89 71.68 6.00  74.99 1986.80
   15:36:34.549.18-Apr-2020 3140.87 2489.89 71.68 6.00  75.19 1986.80
   15:36:34.749.18-Apr-2020 3140.87 2491.06 71.68 6.00  75.39 1986.80
   15:36:34.949.18-Apr-2020 3140.87 2491.61 71.68 6.00  75.59 1986.80
   15:36:35.149.18-Apr-2020 3140.87 2492.11 71.68 6.00  75.79 1986.80
   15:36:35.349.18-Apr-2020 3140.87 2492.58 71.68 6.00  75.99 1986.80
   15:36:35.549.18-Apr-2020 3140.87 2492.58 71.68 6.00  76.19 1986.80
   15:36:35.749.18-Apr-2020 3140.87 2493.43 71.67 6.00  76.39 1986.80
   15:36:35.949.18-Apr-2020 3140.87 2493.84 71.67 6.00  76.59 1986.80
   15:36:36.149.18-Apr-2020 3140.87 2494.20 71.67 6.00  76.79 1986.80
   15:36:36.349.18-Apr-2020 3140.87 2494.53 71.67 6.00  76.99 1986.80
   15:36:36.549.18-Apr-2020 3140.87 2494.53 71.67 6.00  77.19 1986.80
   15:36:36.749.18-Apr-2020 3140.87 2495.18 71.67 6.00  77.39 1986.80
   15:36:36.949.18-Apr-2020 3140.87 2495.48 71.67 6.00  77.59 1986.80
   15:36:37.149.18-Apr-2020 3140.87 2495.77 71.66 6.00  77.79 1986.80
   15:36:37.349.18-Apr-2020 3140.87 2496.03 71.66 6.00  77.99 1986.80
   15:36:37.549.18-Apr-2020 3140.87 2496.03 71.66 6.00  78.19 1986.80
   15:36:37.749.18-Apr-2020 3140.87 2496.52 71.66 6.00  78.39 1986.80
   15:36:37.949.18-Apr-2020 3140.87 2496.75 71.66 6.00  78.59 1986.80
   15:36:38.149.18-Apr-2020 3140.87 2496.95 71.66 6.00  78.79 1986.80
   15:36:38.349.18-Apr-2020 3140.87 2497.15 71.66 6.00  78.99 1986.80
   15:36:38.549.18-Apr-2020 3140.87 2497.15 71.66 6.00  79.19 1986.80
   15:36:38.749.18-Apr-2020 3140.87 2497.54 71.66 6.00  79.39 1986.80
   15:36:38.949.18-Apr-2020 3140.87 2497.70 71.65 6.00  79.59 1986.80
   15:36:39.149.18-Apr-2020 3140.87 2497.87 71.65 6.00  79.79 1986.80
   15:36:39.349.18-Apr-2020 3140.87 2498.02 71.65 6.00  79.99 1986.80
   15:36:39.549.18-Apr-2020 3140.87 2498.17 71.65 6.00  80.19 1986.80
   15:36:39.749.18-Apr-2020 3140.87 2498.33 71.65 6.00  80.39 1986.80
   15:36:39.949.18-Apr-2020 3140.87 2498.47 71.65 6.00  80.59 1986.80
   15:36:40.149.18-Apr-2020 3140.87 2498.60 71.65 6.00  80.79 1986.80
   15:36:40.349.18-Apr-2020 3140.87 2498.75 71.65 6.00  80.99 1986.80
   15:36:40.549.18-Apr-2020 3140.87 2498.75 71.65 6.00  81.19 1986.80
   15:36:40.749.18-Apr-2020 3140.87 2498.98 71.65 6.00  81.39 1986.80
   15:36:40.949.18-Apr-2020 3140.87 2499.09 71.64 6.00  81.59 1986.80
   15:36:41.149.18-Apr-2020 3140.87 2499.20 71.64 6.00  81.79 1986.80
   15:36:41.349.18-Apr-2020 3140.87 2499.30 71.64 6.00  81.99 1986.80
   15:36:41.549.18-Apr-2020 3140.87 2499.30 71.64 6.00  82.19 1986.80
   15:36:41.749.18-Apr-2020 3140.87 2499.51 71.64 6.00  82.39 1986.80
   15:36:41.949.18-Apr-2020 3140.87 2499.58 71.64 6.00  82.59 1986.80
   15:36:42.149.18-Apr-2020 3140.87 2499.66 71.64 6.00  82.79 1986.80
   15:36:42.349.18-Apr-2020 3140.87 2499.75 71.64 6.00  82.99 1986.80
   15:36:42.549.18-Apr-2020 3140.87 2499.75 71.64 6.00  83.19 1986.80
   15:36:42.749.18-Apr-2020 3140.87 2499.90 71.64 6.00  83.39 1986.80
   15:36:42.948.18-Apr-2020 3140.87 2500.02 71.63 6.00  83.59 1986.80
   15:36:43.148.18-Apr-2020 3140.87 2500.08 71.63 6.00  83.79 1986.80
   15:36:43.348.18-Apr-2020 3140.87 2500.15 71.63 6.00  83.99 1986.80
   15:36:43.548.18-Apr-2020 3140.87 2500.23 71.63 6.00  84.19 1986.80
   15:36:43.748.18-Apr-2020 3140.87 2500.28 71.63 6.00  84.39 1986.80
   15:36:43.948.18-Apr-2020 3140.87 2500.36 71.63 6.00  84.59 1986.80
   15:36:44.148.18-Apr-2020 3140.87 2500.41 71.63 6.00  84.79 1986.80
   15:36:44.348.18-Apr-2020 3140.87 2500.46 71.63 6.00  84.99 1986.80
   15:36:44.548.18-Apr-2020 3140.87 2500.52 71.63 6.00  85.19 1986.80
   15:36:44.748.18-Apr-2020 3140.87 2500.59 71.63 6.00  85.39 1986.80
   15:36:44.948.18-Apr-2020 3140.87 2500.64 71.63 6.00  85.59 1986.80
   15:36:45.148.18-Apr-2020 3140.87 2500.68 71.63 6.00  85.79 1986.80
   15:36:45.348.18-Apr-2020 3140.87 2500.73 71.62 6.00  85.99 1986.80
   15:36:45.548.18-Apr-2020 3140.87 2500.73 71.62 6.00  86.19 1986.80
   15:36:45.748.18-Apr-2020 3140.87 2500.85 71.62 6.00  86.39 1986.80
   15:36:45.948.18-Apr-2020 3140.87 2500.89 71.62 6.00  86.59 1986.80
   15:36:46.148.18-Apr-2020 3140.87 2500.95 71.62 6.00  86.79 1986.80
   15:36:46.348.18-Apr-2020 3140.87 2500.98 71.62 6.00  86.99 1986.80
   15:36:46.548.18-Apr-2020 3140.87 2500.98 71.62 6.00  87.19 1986.80
   15:36:46.748.18-Apr-2020 3140.87 2501.07 71.62 6.00  87.39 1986.80
   15:36:46.948.18-Apr-2020 3140.87 2501.12 71.62 6.00  87.59 1986.80
   15:36:47.148.18-Apr-2020 3140.87 2501.15 71.62 6.00  87.79 1986.80
   15:36:47.348.18-Apr-2020 3140.87 2501.18 71.62 6.00  87.99 1986.80
   15:36:47.548.18-Apr-2020 3140.87 2501.21 71.62 6.00  88.19 1986.80
   15:36:47.748.18-Apr-2020 3140.87 2501.25 71.62 6.00  88.39 1986.80
   15:36:47.948.18-Apr-2020 3140.87 2501.27 71.61 6.00  88.59 1986.80
   15:36:48.148.18-Apr-2020 3140.87 2501.29 71.61 6.00  88.79 1986.80
   15:36:48.348.18-Apr-2020 3140.87 2501.32 71.61 6.00  88.99 1986.80
   15:36:48.548.18-Apr-2020 3140.87 2501.36 71.61 6.00  89.19 1986.80
   15:36:48.748.18-Apr-2020 3140.87 2501.39 71.61 6.00  89.39 1986.80
   15:36:48.948.18-Apr-2020 3140.87 2501.40 71.61 6.00  89.59 1986.80
   15:36:49.148.18-Apr-2020 3140.87 2501.45 71.61 6.00  89.79 1986.80
   15:36:49.348.18-Apr-2020 3140.87 2501.47 71.61 6.00  89.99 1986.80
   15:36:49.548.18-Apr-2020 3140.87 2501.47 71.61 6.00  90.19 1986.80
   15:36:49.748.18-Apr-2020 3140.87 2501.51 71.61 6.00  90.39 1986.80
   15:36:49.948.18-Apr-2020 3140.87 2501.53 71.61 6.00  90.59 1986.80
   15:36:50.148.18-Apr-2020 3140.87 2501.55 71.61 6.00  90.79 1986.80
   15:36:50.348.18-Apr-2020 3140.87 2501.55 71.61 6.00  90.99 1986.80
   15:36:50.548.18-Apr-2020 3140.87 2501.55 71.61 6.00  91.19 1986.80
   15:36:50.748.18-Apr-2020 3140.87 2501.57 71.60 6.00  91.39 1986.80
   15:36:50.948.18-Apr-2020 3140.87 2501.58 71.60 6.00  91.59 1986.80
   15:36:51.148.18-Apr-2020 3140.87 2501.61 71.60 6.00  91.79 1986.80
