~Version Information
 VERS.                  2.0:   CWLS log ASCII Standard -VERSION 2.0
 WRAP.                   NO:   One line per depth step
~Well Information Block
#MNEM.UNIT     VALUE/NAME     DESCRIPTION
#---------     -----------    ---------------------------
 STRT.S             07:07:08 18-Apr-20: START TIME 07:07:08 18-Apr-20
 STOP.S             07:14:03 18-Apr-20: STOP TIME  07:14:03 18-Apr-20
 STEP.S                   0.00: STEP TIME
 NULL.                 -999.25: NULL VALUE
 DFWT.                        :  DIST FWL TEXT
 DFST.                        :  DIST FSL TEXT
 DMF .                        :  DRILL MEAS FROM
 STIM.      16.29.52 23-Mar-20:  START TIME
 DATE.      16.29.52 23-Mar-20:  END TIME
 SPUD.               23-Mar-20:  SPUD DATE
 NREF.                    Grid:  NORTH REFERENCE
 HPTY.       Minimum Curvature:  HOLE POS TYPE
 DMOD.             Drill Model:  DRILL MOD DESC
 SVYD.                  Survey:  SURVEY DESC
 ILTD.               Lithology:  INTERP LTH DESC
 FTOP.          Formation Tops:  FORM TOPS DESC
 SON .        AZ-XX-0906252240:  JOB NUMBER
 RIG .             West Chirag:  RIG NAME
 PDAT.          Mean Sea Level:  PERMANENT DATUM
 FLD .                     ACG:  FIELD NAME
 CTRY.              Azerbaijan:  COUNTRY NAME
 WELL.           J23 (Slot 07):  WELL NAME
 SRVC.          Turan Drilling:  CONTRACTOR
 COMP.     BP Exploration (Casoian Sea) Ltd:  COMPANY
 WTYP.                Deviated:  WELL TYPE
 MDS .        Operator Entered:  MAG DATA SOURCE
 UWI .                     N/A:  UNIQUE WELL IDENTIFIER
 API .                     N/A:  API NUMBER
 BASE.              Azerbaijan:  LOGGING EQUIPMENT BASE LOCATION
 REGN.                   EESSA:  REGION
 PROV.                    Baku:  PROVINCE
 STAT.                    Baku:  STATE NAME
 MWDS.                     N/A:  MWD SHOP
 JOBN.        AZ-XX-0906252240:  JOB TICKET NUMB
 DOE .                     N/A:  DOE NUMBER
 DCON.         Sperry Drilling:  DIRECTNL CONTR
 UNIT.                     N/A:  LOGGING EQUIPMENT ID
 CNTY.                        :  COUNTY
 LOC .                        :  LOCATION
 LMF .             Drill Floor:  LOG MEASURED FROM
 TVDS.m                  43.00:  TVDSS CORRECTN
 LATI.deg                40.13:  LATITUDE
 LONG.deg                51.22:  LONGITUDE
 WHNS.m                   9.43:  WELL HEAD N/S
 WHEW.m                  -8.91:  WELL HEAD E/W
 UTMX.m              519005.06:  UTM X
 UTMY.m             4443793.85:  UTM Y
 DFWL.m                   0.00:  DISTANCE FWL
 DFSL.m                   0.00:  DISTANCE FSL
 SDEP.m                   0.00:  START DEPTH
 TDD .m                   0.00:  TOTAL DEPTH (DRILLER)
 VSDR.deg               179.88:  VERT SEC DIRECT
 GVFD.g                   1.00:  GRAVITY FIELD
 MFLD.nT              50281.00:  MAGNETIC FIELD
 MDIP.deg                59.58:  MAGNETIC DIP
 MDEC.deg                 6.48:  MAGNETIC DECL
 GRDC.deg                 0.14:  GRID CORRECTION
 AZTC.deg                 6.34:  AZM TOTAL CORR
 EPD .m                   0.00:  ELEVATION
 EGL .m                   0.00:  GROUND ELEVATION
 WDMS.m                 169.80:  WD ELEV
 APD .m                  43.00:  DEPTH ABOVE PD
 DEP .m                 354.17:  DEPTH
 AGAP.m                  43.00:  AIR GAP
 VSEW.m                  -8.91:  VERT SEC E/W
 VSNS.m                   9.43:  VERT SEC N/S
 EKB .m                   0.00:  KB ELEVATION
 EDF .m                  43.00:  DF ELEVATION
 TDL .m                1326.00:  TOTAL DEPTH (LOGGER)
 VSC .                       0:  VS TO CLOSURE
 MAGU.                 1850704:  MAGUTM CHECKSUM
~Parameter Information Block
#MNEM.UNIT       Value        Description
#---------     -----------    ---------------------------
 AV  .mps                 1.17:  Ann Velocity 
 AZIF.deg               184.04:  Azm, Final 
 BHAT.        Rotary Steerable:  BHA Type 
 BREV.rev            620000.00:  Rev Bit Total 
 BROT.°/30m               0.20:  Build Rotating 
 BS  .in                 14.75:  Bit Size 
 BSZ .in                 14.75:  Bit Size 
 BTPL.psig              618.00:  Bit Press Loss 
 CABU.                      No:  Customer Abuse 
 COMM.                     îb:  Run Comments 1 
 TCS .hr                 87.68:  Time Ciculation Ended 
 CV  .mps                 3.10:  Crit Velocity 
 DD1 .          Rashad Habibov:  Direct Drillr 1 
 DD2 .         Rasim Ibrahimov:  Direct Drillr 2 
 DDSV.               Geo-Pilot:  DD Service 
 DEFF.%                  98.00:  % Det Eff 
 DLRX.°/30m               1.48:  Dogleg Rot Max 
 DLSO.°/30m               0.50:  Dogleg Oriented 
 DLSX.°/30m               1.48:  Dogleg Str Max 
 DRET.      06.18.56 19-Apr-20:  Drill End Time 
 DRST.      15.00.56 15-Apr-20:  Drill Start Tim 
 DTIM.hr                 51.73:  Time Drilling 
 EDEP.m                3410.01:  End Depth 
 ENG1.        Marcelo Sandoval:  Engineer 1 
 ENG2.        Davud Huseynzade:  Engineer 2 
 ENG3.          Ruslan Safarov:  Engineer 3 
 ETIM.      04.00.56 20-Apr-20:  End Time 
 FLOI.gpm              1000.00:  Flow In 
 FLON.gpm               600.00:  Flow In Min 
 FLOS.cptm                0.00:  Fluid Loss 
 FLOX.gpm              1200.00:  Flow In Max 
 HFLO.                      No:  High Flow 
 HPRE.                     Yes:  High Pressure 
 HTEM.                      No:  High Temp 
 HYDO.m                   1.80:  Hydro Offset 
 IFIN.deg                70.04:  Inc, Final 
 IMAX.deg                70.56:  Inc Max 
 IMIN.deg                69.85:  Inc Min 
 IMND.m                3103.24:  Inc Min Depth 
 IMXD.m                2876.63:  Inc Max Depth 
 JARR.                      No:  Jarring 
 LETM.      06.18.56 19-Apr-20:  Log End Time 
 LOST.hr                     0:  Lost Rig Time 
 LSTM.      15.00.56 15-Apr-20:  Log Start Time 
 MDCL.ppm             42000.00:  Mud Chlorides 
 MDES.     Inversion Oil/Synthetic:  Mud Desc 
 DFD .sg                  1.58:  Mud Density 
 MDMN.sg                  1.58:  Dens Mud Min 
 MDMX.sg                  1.58:  Dens Mud Max 
 MOIL.                      71:  Run Mud Oil % 
 MOWR.                   71:29:  Run Mud OWR 
 MSND.                       0:  Run Mud Sand % 
 MSOL.                    23.3:  Run Mud Solids% 
 DFV .spqt               84.00:  Mud Viscosity 
 MWOD.in                  9.50:  MWD Tool OD 
 MWSI.                      No:  Serv Intrp, MWD 
 OTIM.hr                139.62:  Time Operating 
 PMAX.psia             5364.69:  Press Op, Max 
 PV  .cP                 80.00:  Mud PV 
 RUN .                     700:  Run Number 
 ROPA.m/hr               25.00:  ROP Avg 
 ROPN.m/hr               11.00:  ROP Min 
 ROPX.m/hr               36.00:  ROP Max 
 RPMA.rpm               130.00:  RPM Surface Avg 
 RPMN.rpm               120.00:  RPM Surface Min 
 RPMX.rpm               140.00:  RPM Surface Max 
 RRUN.                    0700:  Rig Run Number 
 SAZI.deg               183.25:  Azm, Start 
 SDEP.m                2084.00:  Start Depth 
 SIDD.                      No:  Serv Intrp, DD 
 SINC.deg                70.38:  Inc, Start 
 SPPA.psig             4800.00:  SPP Avg 
 SPPN.psig             4400.00:  SPP Min 
 SPPX.psig             5350.00:  SPP Max 
 STIM.      16.30.56 14-Apr-20:  Start Time 
 SVCS.                 DD, MWD:  Services 
 SVER.                    9.20:  Sperry Version 
 TDAT.m                1326.00:  Tot Depth Attmp 
 TDDF.                      No:  Trip for DD 
 TDLG.m                1326.00:  Tot Depth Loggd 
 TFF .                      No:  Trip for Fail 
 TQAA.f-kp               19.00:  Torque Abs Avg 
 TQAN.f-kp                8.00:  Torque Abs Min 
 TQAX.f-kp               27.00:  Torque Abs Max 
 TRRT.°/30m               0.50:  Turn Rotating 
 MRT .                    HCIM:  Maximum Recorded Temperature 
 TTMX.degC               82.35:  Max Tool Temp 
 VS01.       905245875X1Z1W1C8:  Virtual Str1 SN 
 VS02.       90608022F11V7D1A9:  Virtual Str2 SN 
 VS03.            90605473R5C9:  Virtual Str3 SN 
 WBMN.klb                11.00:  WOB Min 
 WOBA.klb                21.00:  WOB Avg 
 WOBX.klb                30.00:  WOB Max 
 YP  .lhf2               45.00:  Yield Point 
~Curve Information Block
#MNEM.UNIT                 API CODE     Curve Description
#---------               -----------    ---------------------------
 TIME.HHMMSS            00 000 000 000:  GT Time & Date
 GTDEPTH.m              00 000 000 000:  GT Depth
 GTPQH.psia             00 000 000 000:  GT HR Quartz Pressure
 GTTQ.degC              00 000 000 000:  GT Quartz Temperature
 GTTN.NONE              00 000 000 000:  GT Test Number
 GTET.sec               00 000 000 000:  GT Elapsed Test Time
 GTTVD.m                00 000 000 000:  GT True Vertical Depth
#Other Information
#
#WARRANTY: Halliburton will use its best efforts to furnish customers with 
#accurate information and interpretations that are part of, and incident to, the services 
#provided.  However, Halliburton cannot and does not warrant the accuracy 
#or correctness of such information and interpretations.  Under no circumstances should any 
#such information or interpretation be relied upon as the sole basis for any drilling, 
#completion, production, or financial decision or any procedure involving any risk to the 
#safety of any drilling venture, drilling rig or its crew or any other third party.  The 
#Customer has full responsibility for all drilling, completion and production operation.  
#Halliburton makes no representations or warranties, either expressed or 
#implied, including, but not limited to, the implied warranties of merchantability or fitness 
#for a particular purpose, with respect to the services rendered.  In no event will 
#Halliburton be liable for failure to obtain any particular results or for 
#any damages, including, but not limited to, indirect, special or consequential damages, 
#resulting from the use of any information or interpretation provided by Halliburton.
#
~A           TIME           GTDEPTH  GTPQH  GTTQ  GTTN  GTET   GTTVD  
# ...
   07:11:21.662.18-Apr-2020 3016.07 3390.21 70.11 2.00 253.03 1944.23
   07:11:21.862.18-Apr-2020 3016.07 3390.21 70.11 2.00 253.23 1944.23
   07:11:22.063.18-Apr-2020 3016.07 3390.20 70.11 2.00 253.43 1944.23
   07:11:22.263.18-Apr-2020 3016.07 3390.20 70.11 2.00 253.63 1944.23
   07:11:22.463.18-Apr-2020 3016.07 3390.19 70.11 2.00 253.83 1944.23
   07:11:22.663.18-Apr-2020 3016.07 3390.18 70.10 2.00 254.03 1944.23
   07:11:22.863.18-Apr-2020 3016.07 3390.18 70.10 2.00 254.23 1944.23
   07:11:23.063.18-Apr-2020 3016.07 3390.20 70.10 2.00 254.43 1944.23
   07:11:23.263.18-Apr-2020 3016.07 3390.20 70.10 2.00 254.63 1944.23
   07:11:23.463.18-Apr-2020 3016.07 3390.18 70.10 2.00 254.83 1944.23
   07:11:23.663.18-Apr-2020 3016.07 3390.19 70.10 2.00 255.03 1944.23
   07:11:23.863.18-Apr-2020 3016.07 3390.19 70.10 2.00 255.23 1944.23
   07:11:24.063.18-Apr-2020 3016.07 3390.18 70.10 2.00 255.43 1944.23
   07:11:24.263.18-Apr-2020 3016.07 3390.18 70.10 2.00 255.63 1944.23
   07:11:24.463.18-Apr-2020 3016.07 3390.20 70.10 2.00 255.83 1944.23
   07:11:24.663.18-Apr-2020 3016.07 3390.22 70.10 2.00 256.03 1944.23
   07:11:24.863.18-Apr-2020 3016.07 3390.22 70.10 2.00 256.23 1944.23
   07:11:25.063.18-Apr-2020 3016.07 3390.21 70.10 2.00 256.43 1944.23
   07:11:25.263.18-Apr-2020 3016.07 3390.20 70.10 2.00 256.63 1944.23
   07:11:25.463.18-Apr-2020 3016.07 3390.20 70.09 2.00 256.83 1944.23
   07:11:25.663.18-Apr-2020 3016.07 3390.20 70.09 2.00 257.03 1944.23
   07:11:25.863.18-Apr-2020 3016.07 3390.20 70.09 2.00 257.23 1944.23
   07:11:26.063.18-Apr-2020 3016.07 3390.20 70.09 2.00 257.43 1944.23
   07:11:26.263.18-Apr-2020 3016.07 3390.20 70.09 2.00 257.63 1944.23
   07:11:26.463.18-Apr-2020 3016.07 3390.20 70.09 2.00 257.83 1944.23
   07:11:26.663.18-Apr-2020 3016.07 3390.20 70.09 2.00 258.03 1944.23
   07:11:26.863.18-Apr-2020 3016.07 3390.20 70.09 2.00 258.23 1944.23
   07:11:27.063.18-Apr-2020 3016.07 3390.22 70.09 2.00 258.43 1944.23
   07:11:27.263.18-Apr-2020 3016.07 3390.21 70.09 2.00 258.63 1944.23
   07:11:27.463.18-Apr-2020 3016.07 3390.19 70.09 2.00 258.83 1944.23
   07:11:27.663.18-Apr-2020 3016.07 3390.21 70.09 2.00 259.03 1944.23
   07:11:27.863.18-Apr-2020 3016.07 3390.20 70.09 2.00 259.23 1944.23
   07:11:28.063.18-Apr-2020 3016.07 3390.22 70.08 2.00 259.43 1944.23
   07:11:28.263.18-Apr-2020 3016.07 3390.20 70.08 2.00 259.63 1944.23
   07:11:28.463.18-Apr-2020 3016.07 3390.21 70.08 2.00 259.83 1944.23
   07:11:28.663.18-Apr-2020 3016.07 3390.21 70.08 2.00 260.03 1944.23
   07:11:28.863.18-Apr-2020 3016.07 3390.21 70.08 2.00 260.23 1944.23
   07:11:29.063.18-Apr-2020 3016.07 3390.18 70.08 2.00 260.43 1944.23
   07:11:29.263.18-Apr-2020 3016.07 3390.17 70.08 2.00 260.63 1944.23
   07:11:29.463.18-Apr-2020 3016.07 3390.22 70.08 2.00 260.83 1944.23
   07:11:29.663.18-Apr-2020 3016.07 3390.21 70.08 2.00 261.03 1944.23
   07:11:29.863.18-Apr-2020 3016.07 3390.21 70.08 2.00 261.23 1944.23
   07:11:30.063.18-Apr-2020 3016.07 3390.19 70.08 2.00 261.43 1944.23
   07:11:30.263.18-Apr-2020 3016.07 3390.20 70.08 2.00 261.63 1944.23
   07:11:30.463.18-Apr-2020 3016.07 3390.21 70.08 2.00 261.83 1944.23
   07:11:30.663.18-Apr-2020 3016.07 3390.20 70.07 2.00 262.03 1944.23
   07:11:30.863.18-Apr-2020 3016.07 3390.20 70.07 2.00 262.23 1944.23
   07:11:31.063.18-Apr-2020 3016.07 3390.21 70.07 2.00 262.43 1944.23
   07:11:31.263.18-Apr-2020 3016.07 3390.21 70.07 2.00 262.63 1944.23
   07:11:31.464.18-Apr-2020 3016.07 3390.20 70.07 2.00 262.83 1944.23
   07:11:31.664.18-Apr-2020 3016.07 3390.19 70.07 2.00 263.03 1944.23
   07:11:31.864.18-Apr-2020 3016.07 3390.19 70.07 2.00 263.23 1944.23
   07:11:32.064.18-Apr-2020 3016.07 3390.20 70.07 2.00 263.43 1944.23
   07:11:32.264.18-Apr-2020 3016.07 3390.20 70.07 2.00 263.63 1944.23
   07:11:32.464.18-Apr-2020 3016.07 3390.20 70.07 2.00 263.83 1944.23
   07:11:32.664.18-Apr-2020 3016.07 3390.20 70.07 2.00 264.03 1944.23
   07:11:32.864.18-Apr-2020 3016.07 3390.20 70.07 2.00 264.23 1944.23
   07:11:33.064.18-Apr-2020 3016.07 3390.20 70.07 2.00 264.43 1944.23
   07:11:33.264.18-Apr-2020 3016.07 3390.19 70.07 2.00 264.63 1944.23
   07:11:33.464.18-Apr-2020 3016.07 3390.22 70.06 2.00 264.83 1944.23
   07:11:33.664.18-Apr-2020 3016.07 3390.23 70.06 2.00 265.03 1944.23
   07:11:33.864.18-Apr-2020 3016.07 3390.23 70.06 2.00 265.23 1944.23
   07:11:34.064.18-Apr-2020 3016.07 3390.21 70.06 2.00 265.43 1944.23
   07:11:34.264.18-Apr-2020 3016.07 3390.22 70.06 2.00 265.63 1944.23
   07:11:34.464.18-Apr-2020 3016.07 3390.21 70.06 2.00 265.83 1944.23
   07:11:34.664.18-Apr-2020 3016.07 3390.20 70.06 2.00 266.03 1944.23
   07:11:34.864.18-Apr-2020 3016.07 3390.20 70.06 2.00 266.23 1944.23
   07:11:35.064.18-Apr-2020 3016.07 3390.21 70.06 2.00 266.43 1944.23
   07:11:35.264.18-Apr-2020 3016.07 3390.20 70.06 2.00 266.63 1944.23
   07:11:35.464.18-Apr-2020 3016.07 3390.21 70.06 2.00 266.83 1944.23
   07:11:35.664.18-Apr-2020 3016.07 3390.19 70.06 2.00 267.03 1944.23
   07:11:35.864.18-Apr-2020 3016.07 3390.19 70.06 2.00 267.23 1944.23
   07:11:36.064.18-Apr-2020 3016.07 3390.22 70.05 2.00 267.43 1944.23
   07:11:36.264.18-Apr-2020 3016.07 3390.22 70.05 2.00 267.63 1944.23
   07:11:36.464.18-Apr-2020 3016.07 3390.21 70.05 2.00 267.83 1944.23
   07:11:36.664.18-Apr-2020 3016.07 3390.22 70.05 2.00 268.03 1944.23
   07:11:36.864.18-Apr-2020 3016.07 3390.22 70.05 2.00 268.23 1944.23
   07:11:37.064.18-Apr-2020 3016.07 3390.23 70.05 2.00 268.43 1944.23
   07:11:37.264.18-Apr-2020 3016.07 3390.20 70.05 2.00 268.63 1944.23
   07:11:37.464.18-Apr-2020 3016.07 3390.21 70.05 2.00 268.83 1944.23
   07:11:37.664.18-Apr-2020 3016.07 3390.22 70.05 2.00 269.03 1944.23
   07:11:37.864.18-Apr-2020 3016.07 3390.22 70.05 2.00 269.23 1944.23
   07:11:38.064.18-Apr-2020 3016.07 3390.20 70.05 2.00 269.43 1944.23
   07:11:38.264.18-Apr-2020 3016.07 3390.19 70.05 2.00 269.63 1944.23
   07:11:38.464.18-Apr-2020 3016.07 3390.22 70.05 2.00 269.83 1944.23
   07:11:38.664.18-Apr-2020 3016.07 3390.22 70.05 2.00 270.03 1944.23
   07:11:38.864.18-Apr-2020 3016.07 3390.22 70.05 2.00 270.23 1944.23
   07:11:39.064.18-Apr-2020 3016.07 3390.20 70.04 2.00 270.43 1944.23
   07:11:39.264.18-Apr-2020 3016.07 3390.20 70.04 2.00 270.63 1944.23
   07:11:39.464.18-Apr-2020 3016.07 3390.22 70.04 2.00 270.83 1944.23
   07:11:39.664.18-Apr-2020 3016.07 3390.21 70.04 2.00 271.03 1944.23
   07:11:39.864.18-Apr-2020 3016.07 3390.21 70.04 2.00 271.23 1944.23
   07:11:40.064.18-Apr-2020 3016.07 3390.22 70.04 2.00 271.43 1944.23
   07:11:40.264.18-Apr-2020 3016.07 3390.21 70.04 2.00 271.63 1944.23
   07:11:40.464.18-Apr-2020 3016.07 3390.21 70.04 2.00 271.83 1944.23
   07:11:40.664.18-Apr-2020 3016.07 3390.20 70.04 2.00 272.03 1944.23
   07:11:40.865.18-Apr-2020 3016.07 3390.20 70.04 2.00 272.23 1944.23
   07:11:41.065.18-Apr-2020 3016.07 3390.22 70.04 2.00 272.43 1944.23
   07:11:41.265.18-Apr-2020 3016.07 3390.21 70.04 2.00 272.63 1944.23
   07:11:41.465.18-Apr-2020 3016.07 3390.21 70.03 2.00 272.83 1944.23
   07:11:41.665.18-Apr-2020 3016.07 3390.14 70.03 2.00 273.03 1944.23
   07:11:41.865.18-Apr-2020 3016.07 3390.14 70.03 2.00 273.23 1944.23
   07:11:42.065.18-Apr-2020 3016.07 3347.32 70.03 2.00 273.43 1944.23
   07:11:42.265.18-Apr-2020 3016.07 3343.74 70.03 2.00 273.63 1944.23
   07:11:42.465.18-Apr-2020 3016.07 3344.51 70.03 2.00 273.83 1944.23
   07:11:42.665.18-Apr-2020 3016.07 3345.57 70.03 2.00 274.03 1944.23
   07:11:42.865.18-Apr-2020 3016.07 3345.57 70.03 2.00 274.23 1944.23
   07:11:43.065.18-Apr-2020 3016.07 3346.63 70.03 2.00 274.43 1944.23
   07:11:43.265.18-Apr-2020 3016.07 3347.49 70.03 2.00 274.63 1944.23
   07:11:43.465.18-Apr-2020 3016.07 3347.84 70.03 2.00 274.83 1944.23
   07:11:43.665.18-Apr-2020 3016.07 3347.80 70.03 2.00 275.03 1944.23
   07:11:43.865.18-Apr-2020 3016.07 3347.86 70.03 2.00 275.23 1944.23
   07:11:44.065.18-Apr-2020 3016.07 3348.19 70.02 2.00 275.43 1944.23
   07:11:44.265.18-Apr-2020 3016.07 3348.24 70.02 2.00 275.63 1944.23
   07:11:44.465.18-Apr-2020 3016.07 3348.32 70.02 2.00 275.83 1944.23
