~Version Information
 VERS.                  2.0:   CWLS log ASCII Standard -VERSION 2.0
 WRAP.                   NO:   One line per depth step
~Well Information Block
#MNEM.UNIT     VALUE/NAME     DESCRIPTION
#---------     -----------    ---------------------------
 STRT.S             15:35:19 18-Apr-20: START TIME 15:35:19 18-Apr-20
 STOP.S             15:42:14 18-Apr-20: STOP TIME  15:42:14 18-Apr-20
 STEP.S                   0.00: STEP TIME
 NULL.                 -999.25: NULL VALUE
 DFWT.                        :  DIST FWL TEXT
 DFST.                        :  DIST FSL TEXT
 DMF .                        :  DRILL MEAS FROM
 STIM.      16.29.52 23-Mar-20:  START TIME
 DATE.      16.29.52 23-Mar-20:  END TIME
 SPUD.               23-Mar-20:  SPUD DATE
 NREF.                    Grid:  NORTH REFERENCE
 HPTY.       Minimum Curvature:  HOLE POS TYPE
 DMOD.             Drill Model:  DRILL MOD DESC
 SVYD.                  Survey:  SURVEY DESC
 ILTD.               Lithology:  INTERP LTH DESC
 FTOP.          Formation Tops:  FORM TOPS DESC
 SON .        AZ-XX-0906252240:  JOB NUMBER
 RIG .             West Chirag:  RIG NAME
 PDAT.          Mean Sea Level:  PERMANENT DATUM
 FLD .                     ACG:  FIELD NAME
 CTRY.              Azerbaijan:  COUNTRY NAME
 WELL.           J23 (Slot 07):  WELL NAME
 SRVC.          Turan Drilling:  CONTRACTOR
 COMP.     BP Exploration (Casoian Sea) Ltd:  COMPANY
 WTYP.                Deviated:  WELL TYPE
 MDS .        Operator Entered:  MAG DATA SOURCE
 UWI .                     N/A:  UNIQUE WELL IDENTIFIER
 API .                     N/A:  API NUMBER
 BASE.              Azerbaijan:  LOGGING EQUIPMENT BASE LOCATION
 REGN.                   EESSA:  REGION
 PROV.                    Baku:  PROVINCE
 STAT.                    Baku:  STATE NAME
 MWDS.                     N/A:  MWD SHOP
 JOBN.        AZ-XX-0906252240:  JOB TICKET NUMB
 DOE .                     N/A:  DOE NUMBER
 DCON.         Sperry Drilling:  DIRECTNL CONTR
 UNIT.                     N/A:  LOGGING EQUIPMENT ID
 CNTY.                        :  COUNTY
 LOC .                        :  LOCATION
 LMF .             Drill Floor:  LOG MEASURED FROM
 TVDS.m                  43.00:  TVDSS CORRECTN
 LATI.deg                40.13:  LATITUDE
 LONG.deg                51.22:  LONGITUDE
 WHNS.m                   9.43:  WELL HEAD N/S
 WHEW.m                  -8.91:  WELL HEAD E/W
 UTMX.m              519005.06:  UTM X
 UTMY.m             4443793.85:  UTM Y
 DFWL.m                   0.00:  DISTANCE FWL
 DFSL.m                   0.00:  DISTANCE FSL
 SDEP.m                   0.00:  START DEPTH
 TDD .m                   0.00:  TOTAL DEPTH (DRILLER)
 VSDR.deg               179.88:  VERT SEC DIRECT
 GVFD.g                   1.00:  GRAVITY FIELD
 MFLD.nT              50281.00:  MAGNETIC FIELD
 MDIP.deg                59.58:  MAGNETIC DIP
 MDEC.deg                 6.48:  MAGNETIC DECL
 GRDC.deg                 0.14:  GRID CORRECTION
 AZTC.deg                 6.34:  AZM TOTAL CORR
 EPD .m                   0.00:  ELEVATION
 EGL .m                   0.00:  GROUND ELEVATION
 WDMS.m                 169.80:  WD ELEV
 APD .m                  43.00:  DEPTH ABOVE PD
 DEP .m                 354.17:  DEPTH
 AGAP.m                  43.00:  AIR GAP
 VSEW.m                  -8.91:  VERT SEC E/W
 VSNS.m                   9.43:  VERT SEC N/S
 EKB .m                   0.00:  KB ELEVATION
 EDF .m                  43.00:  DF ELEVATION
 TDL .m                1326.00:  TOTAL DEPTH (LOGGER)
 VSC .                       0:  VS TO CLOSURE
 MAGU.                 1850704:  MAGUTM CHECKSUM
~Parameter Information Block
#MNEM.UNIT       Value        Description
#---------     -----------    ---------------------------
 AV  .mps                 1.17:  Ann Velocity 
 AZIF.deg               184.04:  Azm, Final 
 BHAT.        Rotary Steerable:  BHA Type 
 BREV.rev            620000.00:  Rev Bit Total 
 BROT.°/30m               0.20:  Build Rotating 
 BS  .in                 14.75:  Bit Size 
 BSZ .in                 14.75:  Bit Size 
 BTPL.psig              618.00:  Bit Press Loss 
 CABU.                      No:  Customer Abuse 
 COMM.                     ü—`:  Run Comments 1 
 TCS .hr                 87.68:  Time Ciculation Ended 
 CV  .mps                 3.10:  Crit Velocity 
 DD1 .          Rashad Habibov:  Direct Drillr 1 
 DD2 .         Rasim Ibrahimov:  Direct Drillr 2 
 DDSV.               Geo-Pilot:  DD Service 
 DEFF.%                  98.00:  % Det Eff 
 DLRX.°/30m               1.48:  Dogleg Rot Max 
 DLSO.°/30m               0.50:  Dogleg Oriented 
 DLSX.°/30m               1.48:  Dogleg Str Max 
 DRET.      06.18.56 19-Apr-20:  Drill End Time 
 DRST.      15.00.56 15-Apr-20:  Drill Start Tim 
 DTIM.hr                 51.73:  Time Drilling 
 EDEP.m                3410.01:  End Depth 
 ENG1.        Marcelo Sandoval:  Engineer 1 
 ENG2.        Davud Huseynzade:  Engineer 2 
 ENG3.          Ruslan Safarov:  Engineer 3 
 ETIM.      04.00.56 20-Apr-20:  End Time 
 FLOI.gpm              1000.00:  Flow In 
 FLON.gpm               600.00:  Flow In Min 
 FLOS.cptm                0.00:  Fluid Loss 
 FLOX.gpm              1200.00:  Flow In Max 
 HFLO.                      No:  High Flow 
 HPRE.                     Yes:  High Pressure 
 HTEM.                      No:  High Temp 
 HYDO.m                   1.80:  Hydro Offset 
 IFIN.deg                70.04:  Inc, Final 
 IMAX.deg                70.56:  Inc Max 
 IMIN.deg                69.85:  Inc Min 
 IMND.m                3103.24:  Inc Min Depth 
 IMXD.m                2876.63:  Inc Max Depth 
 JARR.                      No:  Jarring 
 LETM.      06.18.56 19-Apr-20:  Log End Time 
 LOST.hr                     0:  Lost Rig Time 
 LSTM.      15.00.56 15-Apr-20:  Log Start Time 
 MDCL.ppm             42000.00:  Mud Chlorides 
 MDES.     Inversion Oil/Synthetic:  Mud Desc 
 DFD .sg                  1.58:  Mud Density 
 MDMN.sg                  1.58:  Dens Mud Min 
 MDMX.sg                  1.58:  Dens Mud Max 
 MOIL.                      71:  Run Mud Oil % 
 MOWR.                   71:29:  Run Mud OWR 
 MSND.                       0:  Run Mud Sand % 
 MSOL.                    23.3:  Run Mud Solids% 
 DFV .spqt               84.00:  Mud Viscosity 
 MWOD.in                  9.50:  MWD Tool OD 
 MWSI.                      No:  Serv Intrp, MWD 
 OTIM.hr                139.62:  Time Operating 
 PMAX.psia             5364.69:  Press Op, Max 
 PV  .cP                 80.00:  Mud PV 
 RUN .                     700:  Run Number 
 ROPA.m/hr               25.00:  ROP Avg 
 ROPN.m/hr               11.00:  ROP Min 
 ROPX.m/hr               36.00:  ROP Max 
 RPMA.rpm               130.00:  RPM Surface Avg 
 RPMN.rpm               120.00:  RPM Surface Min 
 RPMX.rpm               140.00:  RPM Surface Max 
 RRUN.                    0700:  Rig Run Number 
 SAZI.deg               183.25:  Azm, Start 
 SDEP.m                2084.00:  Start Depth 
 SIDD.                      No:  Serv Intrp, DD 
 SINC.deg                70.38:  Inc, Start 
 SPPA.psig             4800.00:  SPP Avg 
 SPPN.psig             4400.00:  SPP Min 
 SPPX.psig             5350.00:  SPP Max 
 STIM.      16.30.56 14-Apr-20:  Start Time 
 SVCS.                 DD, MWD:  Services 
 SVER.                    9.20:  Sperry Version 
 TDAT.m                1326.00:  Tot Depth Attmp 
 TDDF.                      No:  Trip for DD 
 TDLG.m                1326.00:  Tot Depth Loggd 
 TFF .                      No:  Trip for Fail 
 TQAA.f-kp               19.00:  Torque Abs Avg 
 TQAN.f-kp                8.00:  Torque Abs Min 
 TQAX.f-kp               27.00:  Torque Abs Max 
 TRRT.°/30m               0.50:  Turn Rotating 
 MRT .                    HCIM:  Maximum Recorded Temperature 
 TTMX.degC               82.35:  Max Tool Temp 
 VS01.       905245875X1Z1W1C8:  Virtual Str1 SN 
 VS02.       90608022F11V7D1A9:  Virtual Str2 SN 
 VS03.            90605473R5C9:  Virtual Str3 SN 
 WBMN.klb                11.00:  WOB Min 
 WOBA.klb                21.00:  WOB Avg 
 WOBX.klb                30.00:  WOB Max 
 YP  .lhf2               45.00:  Yield Point 
~Curve Information Block
#MNEM.UNIT                 API CODE     Curve Description
#---------               -----------    ---------------------------
 TIME.HHMMSS            00 000 000 000:  GT Time & Date
 GTDEPTH.m              00 000 000 000:  GT Depth
 GTPQH.psia             00 000 000 000:  GT HR Quartz Pressure
 GTTQ.degC              00 000 000 000:  GT Quartz Temperature
 GTTN.NONE              00 000 000 000:  GT Test Number
 GTET.sec               00 000 000 000:  GT Elapsed Test Time
 GTTVD.m                00 000 000 000:  GT True Vertical Depth
#Other Information
#
#WARRANTY: Halliburton will use its best efforts to furnish customers with 
#accurate information and interpretations that are part of, and incident to, the services 
#provided.  However, Halliburton cannot and does not warrant the accuracy 
#or correctness of such information and interpretations.  Under no circumstances should any 
#such information or interpretation be relied upon as the sole basis for any drilling, 
#completion, production, or financial decision or any procedure involving any risk to the 
#safety of any drilling venture, drilling rig or its crew or any other third party.  The 
#Customer has full responsibility for all drilling, completion and production operation.  
#Halliburton makes no representations or warranties, either expressed or 
#implied, including, but not limited to, the implied warranties of merchantability or fitness 
#for a particular purpose, with respect to the services rendered.  In no event will 
#Halliburton be liable for failure to obtain any particular results or for 
#any damages, including, but not limited to, indirect, special or consequential damages, 
#resulting from the use of any information or interpretation provided by Halliburton.
#
~A           TIME           GTDEPTH  GTPQH  GTTQ  GTTN  GTET   GTTVD  
# ...
   15:40:41.321.18-Apr-2020 3140.87 1183.65 70.65 6.00 321.96 1986.80
   15:40:41.521.18-Apr-2020 3140.87 1183.65 70.65 6.00 322.16 1986.80
   15:40:41.721.18-Apr-2020 3140.87 1183.69 70.65 6.00 322.36 1986.80
   15:40:41.921.18-Apr-2020 3140.87 1183.71 70.64 6.00 322.56 1986.80
   15:40:42.121.18-Apr-2020 3140.87 1183.73 70.64 6.00 322.76 1986.80
   15:40:42.321.18-Apr-2020 3140.87 1183.74 70.64 6.00 322.96 1986.80
   15:40:42.521.18-Apr-2020 3140.87 1183.78 70.64 6.00 323.16 1986.80
   15:40:42.721.18-Apr-2020 3140.87 1183.80 70.64 6.00 323.36 1986.80
   15:40:42.921.18-Apr-2020 3140.87 1183.81 70.64 6.00 323.56 1986.80
   15:40:43.121.18-Apr-2020 3140.87 1183.83 70.64 6.00 323.76 1986.80
   15:40:43.321.18-Apr-2020 3140.87 1183.85 70.64 6.00 323.96 1986.80
   15:40:43.521.18-Apr-2020 3140.87 1183.87 70.64 6.00 324.16 1986.80
   15:40:43.721.18-Apr-2020 3140.87 1183.89 70.64 6.00 324.36 1986.80
   15:40:43.921.18-Apr-2020 3140.87 1183.90 70.64 6.00 324.56 1986.80
   15:40:44.121.18-Apr-2020 3140.87 1183.92 70.64 6.00 324.76 1986.80
   15:40:44.321.18-Apr-2020 3140.87 1183.94 70.63 6.00 324.96 1986.80
   15:40:44.520.18-Apr-2020 3140.87 1183.94 70.63 6.00 325.16 1986.80
   15:40:44.720.18-Apr-2020 3140.87 1183.97 70.63 6.00 325.36 1986.80
   15:40:44.920.18-Apr-2020 3140.87 1183.97 70.63 6.00 325.56 1986.80
   15:40:45.120.18-Apr-2020 3140.87 1184.01 70.63 6.00 325.76 1986.80
   15:40:45.320.18-Apr-2020 3140.87 1184.02 70.63 6.00 325.96 1986.80
   15:40:45.520.18-Apr-2020 3140.87 1184.02 70.63 6.00 326.16 1986.80
   15:40:45.720.18-Apr-2020 3140.87 1184.06 70.63 6.00 326.36 1986.80
   15:40:45.920.18-Apr-2020 3140.87 1184.08 70.63 6.00 326.56 1986.80
   15:40:46.120.18-Apr-2020 3140.87 1184.10 70.63 6.00 326.76 1986.80
   15:40:46.320.18-Apr-2020 3140.87 1184.11 70.63 6.00 326.96 1986.80
   15:40:46.520.18-Apr-2020 3140.87 1184.11 70.63 6.00 327.16 1986.80
   15:40:46.720.18-Apr-2020 3140.87 1184.15 70.63 6.00 327.36 1986.80
   15:40:46.920.18-Apr-2020 3140.87 1184.17 70.62 6.00 327.56 1986.80
   15:40:47.120.18-Apr-2020 3140.87 1184.19 70.62 6.00 327.76 1986.80
   15:40:47.320.18-Apr-2020 3140.87 1184.19 70.62 6.00 327.96 1986.80
   15:40:47.520.18-Apr-2020 3140.87 1184.21 70.62 6.00 328.16 1986.80
   15:40:47.720.18-Apr-2020 3140.87 1184.24 70.62 6.00 328.36 1986.80
   15:40:47.920.18-Apr-2020 3140.87 1184.25 70.62 6.00 328.56 1986.80
   15:40:48.120.18-Apr-2020 3140.87 1184.26 70.62 6.00 328.76 1986.80
   15:40:48.320.18-Apr-2020 3140.87 1184.28 70.62 6.00 328.96 1986.80
   15:40:48.520.18-Apr-2020 3140.87 1184.28 70.62 6.00 329.16 1986.80
   15:40:48.720.18-Apr-2020 3140.87 1184.32 70.62 6.00 329.36 1986.80
   15:40:48.920.18-Apr-2020 3140.87 1184.34 70.62 6.00 329.56 1986.80
   15:40:49.120.18-Apr-2020 3140.87 1184.35 70.62 6.00 329.76 1986.80
   15:40:49.320.18-Apr-2020 3140.87 1184.37 70.61 6.00 329.96 1986.80
   15:40:49.520.18-Apr-2020 3140.87 1184.37 70.61 6.00 330.16 1986.80
   15:40:49.720.18-Apr-2020 3140.87 1184.40 70.61 6.00 330.36 1986.80
   15:40:49.920.18-Apr-2020 3140.87 1184.42 70.61 6.00 330.56 1986.80
   15:40:50.120.18-Apr-2020 3140.87 1184.43 70.61 6.00 330.76 1986.80
   15:40:50.320.18-Apr-2020 3140.87 1184.44 70.61 6.00 330.96 1986.80
   15:40:50.520.18-Apr-2020 3140.87 1184.44 70.61 6.00 331.16 1986.80
   15:40:50.720.18-Apr-2020 3140.87 1184.47 70.61 6.00 331.36 1986.80
   15:40:50.920.18-Apr-2020 3140.87 1184.49 70.61 6.00 331.56 1986.80
   15:40:51.120.18-Apr-2020 3140.87 1184.49 70.61 6.00 331.76 1986.80
   15:40:51.320.18-Apr-2020 3140.87 1184.37 70.61 6.00 331.96 1986.80
   15:40:51.520.18-Apr-2020 3140.87 1184.51 70.61 6.00 332.16 1986.80
   15:40:51.720.18-Apr-2020 3140.87 1184.51 70.61 6.00 332.36 1986.80
   15:40:51.920.18-Apr-2020 3140.87 1184.55 70.60 6.00 332.56 1986.80
   15:40:52.120.18-Apr-2020 3140.87 1184.57 70.60 6.00 332.76 1986.80
   15:40:52.320.18-Apr-2020 3140.87 1184.59 70.60 6.00 332.96 1986.80
   15:40:52.520.18-Apr-2020 3140.87 1184.59 70.60 6.00 333.16 1986.80
   15:40:52.720.18-Apr-2020 3140.87 1184.62 70.60 6.00 333.36 1986.80
   15:40:52.920.18-Apr-2020 3140.87 1184.63 70.60 6.00 333.56 1986.80
   15:40:53.119.18-Apr-2020 3140.87 1184.64 70.60 6.00 333.76 1986.80
   15:40:53.319.18-Apr-2020 3140.87 1184.66 70.60 6.00 333.96 1986.80
   15:40:53.519.18-Apr-2020 3140.87 1184.66 70.60 6.00 334.16 1986.80
   15:40:53.719.18-Apr-2020 3140.87 1184.68 70.60 6.00 334.36 1986.80
   15:40:53.919.18-Apr-2020 3140.87 1184.68 70.60 6.00 334.56 1986.80
   15:40:54.119.18-Apr-2020 3140.87 1184.71 70.60 6.00 334.76 1986.80
   15:40:54.319.18-Apr-2020 3140.87 1184.73 70.59 6.00 334.96 1986.80
   15:40:54.519.18-Apr-2020 3140.87 1184.73 70.59 6.00 335.16 1986.80
   15:40:54.719.18-Apr-2020 3140.87 1184.75 70.59 6.00 335.36 1986.80
   15:40:54.919.18-Apr-2020 3140.87 1184.77 70.59 6.00 335.56 1986.80
   15:40:55.119.18-Apr-2020 3140.87 1184.78 70.59 6.00 335.76 1986.80
   15:40:55.319.18-Apr-2020 3140.87 1184.79 70.59 6.00 335.96 1986.80
   15:40:55.519.18-Apr-2020 3140.87 1184.79 70.59 6.00 336.16 1986.80
   15:40:55.719.18-Apr-2020 3140.87 1184.82 70.59 6.00 336.36 1986.80
   15:40:55.919.18-Apr-2020 3140.87 1184.84 70.59 6.00 336.56 1986.80
   15:40:56.119.18-Apr-2020 3140.87 1184.86 70.59 6.00 336.76 1986.80
   15:40:56.319.18-Apr-2020 3140.87 1184.85 70.59 6.00 336.96 1986.80
   15:40:56.519.18-Apr-2020 3140.87 1184.85 70.59 6.00 337.16 1986.80
   15:40:56.719.18-Apr-2020 3140.87 1184.90 70.58 6.00 337.36 1986.80
   15:40:56.919.18-Apr-2020 3140.87 1184.91 70.58 6.00 337.56 1986.80
   15:40:57.119.18-Apr-2020 3140.87 1184.92 70.58 6.00 337.76 1986.80
   15:40:57.319.18-Apr-2020 3140.87 1184.93 70.58 6.00 337.96 1986.80
   15:40:57.519.18-Apr-2020 3140.87 1184.93 70.58 6.00 338.16 1986.80
   15:40:57.719.18-Apr-2020 3140.87 1184.98 70.58 6.00 338.36 1986.80
   15:40:57.919.18-Apr-2020 3140.87 1184.99 70.58 6.00 338.56 1986.80
   15:40:58.119.18-Apr-2020 3140.87 1185.01 70.58 6.00 338.76 1986.80
   15:40:58.319.18-Apr-2020 3140.87 1185.02 70.58 6.00 338.96 1986.80
   15:40:58.519.18-Apr-2020 3140.87 1185.04 70.58 6.00 339.16 1986.80
   15:40:58.719.18-Apr-2020 3140.87 1185.05 70.58 6.00 339.36 1986.80
   15:40:58.919.18-Apr-2020 3140.87 1185.06 70.58 6.00 339.56 1986.80
   15:40:59.119.18-Apr-2020 3140.87 1185.07 70.57 6.00 339.76 1986.80
   15:40:59.319.18-Apr-2020 3140.87 1185.09 70.57 6.00 339.96 1986.80
   15:40:59.519.18-Apr-2020 3140.87 1185.09 70.57 6.00 340.16 1986.80
   15:40:59.719.18-Apr-2020 3140.87 1185.11 70.57 6.00 340.36 1986.80
   15:40:59.919.18-Apr-2020 3140.87 1185.13 70.57 6.00 340.56 1986.80
   15:41:00.119.18-Apr-2020 3140.87 1185.13 70.57 6.00 340.76 1986.80
   15:41:00.319.18-Apr-2020 3140.87 1185.17 70.57 6.00 340.96 1986.80
   15:41:00.519.18-Apr-2020 3140.87 1185.17 70.57 6.00 341.16 1986.80
   15:41:00.719.18-Apr-2020 3140.87 1185.20 70.57 6.00 341.36 1986.80
   15:41:00.919.18-Apr-2020 3140.87 1185.22 70.57 6.00 341.56 1986.80
   15:41:01.119.18-Apr-2020 3140.87 1185.23 70.57 6.00 341.76 1986.80
   15:41:01.319.18-Apr-2020 3140.87 1185.25 70.57 6.00 341.96 1986.80
   15:41:01.519.18-Apr-2020 3140.87 1185.25 70.57 6.00 342.16 1986.80
   15:41:01.718.18-Apr-2020 3140.87 1185.29 70.56 6.00 342.36 1986.80
   15:41:01.918.18-Apr-2020 3140.87 1185.31 70.56 6.00 342.56 1986.80
   15:41:02.118.18-Apr-2020 3140.87 1185.32 70.56 6.00 342.76 1986.80
   15:41:02.318.18-Apr-2020 3140.87 1185.34 70.56 6.00 342.96 1986.80
   15:41:02.518.18-Apr-2020 3140.87 1185.36 70.56 6.00 343.16 1986.80
   15:41:02.718.18-Apr-2020 3140.87 1185.35 70.56 6.00 343.36 1986.80
   15:41:02.918.18-Apr-2020 3140.87 1185.40 70.56 6.00 343.56 1986.80
   15:41:03.118.18-Apr-2020 3140.87 1185.41 70.56 6.00 343.76 1986.80
   15:41:03.318.18-Apr-2020 3140.87 1185.42 70.56 6.00 343.96 1986.80
   15:41:03.518.18-Apr-2020 3140.87 1185.44 70.56 6.00 344.16 1986.80
   15:41:03.718.18-Apr-2020 3140.87 1185.47 70.56 6.00 344.36 1986.80
   15:41:03.918.18-Apr-2020 3140.87 1185.48 70.56 6.00 344.56 1986.80
   15:41:04.118.18-Apr-2020 3140.87 1185.49 70.55 6.00 344.76 1986.80
