~Version Information
 VERS.                  2.0:   CWLS log ASCII Standard -VERSION 2.0
 WRAP.                   NO:   One line per depth step
~Well Information Block
#MNEM.UNIT     VALUE/NAME     DESCRIPTION
#---------     -----------    ---------------------------
 STRT.S             15:35:19 18-Apr-20: START TIME 15:35:19 18-Apr-20
 STOP.S             15:42:14 18-Apr-20: STOP TIME  15:42:14 18-Apr-20
 STEP.S                   0.00: STEP TIME
 NULL.                 -999.25: NULL VALUE
 DFWT.                        :  DIST FWL TEXT
 DFST.                        :  DIST FSL TEXT
 DMF .                        :  DRILL MEAS FROM
 STIM.      16.29.52 23-Mar-20:  START TIME
 DATE.      16.29.52 23-Mar-20:  END TIME
 SPUD.               23-Mar-20:  SPUD DATE
 NREF.                    Grid:  NORTH REFERENCE
 HPTY.       Minimum Curvature:  HOLE POS TYPE
 DMOD.             Drill Model:  DRILL MOD DESC
 SVYD.                  Survey:  SURVEY DESC
 ILTD.               Lithology:  INTERP LTH DESC
 FTOP.          Formation Tops:  FORM TOPS DESC
 SON .        AZ-XX-0906252240:  JOB NUMBER
 RIG .             West Chirag:  RIG NAME
 PDAT.          Mean Sea Level:  PERMANENT DATUM
 FLD .                     ACG:  FIELD NAME
 CTRY.              Azerbaijan:  COUNTRY NAME
 WELL.           J23 (Slot 07):  WELL NAME
 SRVC.          Turan Drilling:  CONTRACTOR
 COMP.     BP Exploration (Casoian Sea) Ltd:  COMPANY
 WTYP.                Deviated:  WELL TYPE
 MDS .        Operator Entered:  MAG DATA SOURCE
 UWI .                     N/A:  UNIQUE WELL IDENTIFIER
 API .                     N/A:  API NUMBER
 BASE.              Azerbaijan:  LOGGING EQUIPMENT BASE LOCATION
 REGN.                   EESSA:  REGION
 PROV.                    Baku:  PROVINCE
 STAT.                    Baku:  STATE NAME
 MWDS.                     N/A:  MWD SHOP
 JOBN.        AZ-XX-0906252240:  JOB TICKET NUMB
 DOE .                     N/A:  DOE NUMBER
 DCON.         Sperry Drilling:  DIRECTNL CONTR
 UNIT.                     N/A:  LOGGING EQUIPMENT ID
 CNTY.                        :  COUNTY
 LOC .                        :  LOCATION
 LMF .             Drill Floor:  LOG MEASURED FROM
 TVDS.m                  43.00:  TVDSS CORRECTN
 LATI.deg                40.13:  LATITUDE
 LONG.deg                51.22:  LONGITUDE
 WHNS.m                   9.43:  WELL HEAD N/S
 WHEW.m                  -8.91:  WELL HEAD E/W
 UTMX.m              519005.06:  UTM X
 UTMY.m             4443793.85:  UTM Y
 DFWL.m                   0.00:  DISTANCE FWL
 DFSL.m                   0.00:  DISTANCE FSL
 SDEP.m                   0.00:  START DEPTH
 TDD .m                   0.00:  TOTAL DEPTH (DRILLER)
 VSDR.deg               179.88:  VERT SEC DIRECT
 GVFD.g                   1.00:  GRAVITY FIELD
 MFLD.nT              50281.00:  MAGNETIC FIELD
 MDIP.deg                59.58:  MAGNETIC DIP
 MDEC.deg                 6.48:  MAGNETIC DECL
 GRDC.deg                 0.14:  GRID CORRECTION
 AZTC.deg                 6.34:  AZM TOTAL CORR
 EPD .m                   0.00:  ELEVATION
 EGL .m                   0.00:  GROUND ELEVATION
 WDMS.m                 169.80:  WD ELEV
 APD .m                  43.00:  DEPTH ABOVE PD
 DEP .m                 354.17:  DEPTH
 AGAP.m                  43.00:  AIR GAP
 VSEW.m                  -8.91:  VERT SEC E/W
 VSNS.m                   9.43:  VERT SEC N/S
 EKB .m                   0.00:  KB ELEVATION
 EDF .m                  43.00:  DF ELEVATION
 TDL .m                1326.00:  TOTAL DEPTH (LOGGER)
 VSC .                       0:  VS TO CLOSURE
 MAGU.                 1850704:  MAGUTM CHECKSUM
~Parameter Information Block
#MNEM.UNIT       Value        Description
#---------     -----------    ---------------------------
 AV  .mps                 1.17:  Ann Velocity 
 AZIF.deg               184.04:  Azm, Final 
 BHAT.        Rotary Steerable:  BHA Type 
 BREV.rev            620000.00:  Rev Bit Total 
 BROT.°/30m               0.20:  Build Rotating 
 BS  .in                 14.75:  Bit Size 
 BSZ .in                 14.75:  Bit Size 
 BTPL.psig              618.00:  Bit Press Loss 
 CABU.                      No:  Customer Abuse 
 COMM.                     ü—`:  Run Comments 1 
 TCS .hr                 87.68:  Time Ciculation Ended 
 CV  .mps                 3.10:  Crit Velocity 
 DD1 .          Rashad Habibov:  Direct Drillr 1 
 DD2 .         Rasim Ibrahimov:  Direct Drillr 2 
 DDSV.               Geo-Pilot:  DD Service 
 DEFF.%                  98.00:  % Det Eff 
 DLRX.°/30m               1.48:  Dogleg Rot Max 
 DLSO.°/30m               0.50:  Dogleg Oriented 
 DLSX.°/30m               1.48:  Dogleg Str Max 
 DRET.      06.18.56 19-Apr-20:  Drill End Time 
 DRST.      15.00.56 15-Apr-20:  Drill Start Tim 
 DTIM.hr                 51.73:  Time Drilling 
 EDEP.m                3410.01:  End Depth 
 ENG1.        Marcelo Sandoval:  Engineer 1 
 ENG2.        Davud Huseynzade:  Engineer 2 
 ENG3.          Ruslan Safarov:  Engineer 3 
 ETIM.      04.00.56 20-Apr-20:  End Time 
 FLOI.gpm              1000.00:  Flow In 
 FLON.gpm               600.00:  Flow In Min 
 FLOS.cptm                0.00:  Fluid Loss 
 FLOX.gpm              1200.00:  Flow In Max 
 HFLO.                      No:  High Flow 
 HPRE.                     Yes:  High Pressure 
 HTEM.                      No:  High Temp 
 HYDO.m                   1.80:  Hydro Offset 
 IFIN.deg                70.04:  Inc, Final 
 IMAX.deg                70.56:  Inc Max 
 IMIN.deg                69.85:  Inc Min 
 IMND.m                3103.24:  Inc Min Depth 
 IMXD.m                2876.63:  Inc Max Depth 
 JARR.                      No:  Jarring 
 LETM.      06.18.56 19-Apr-20:  Log End Time 
 LOST.hr                     0:  Lost Rig Time 
 LSTM.      15.00.56 15-Apr-20:  Log Start Time 
 MDCL.ppm             42000.00:  Mud Chlorides 
 MDES.     Inversion Oil/Synthetic:  Mud Desc 
 DFD .sg                  1.58:  Mud Density 
 MDMN.sg                  1.58:  Dens Mud Min 
 MDMX.sg                  1.58:  Dens Mud Max 
 MOIL.                      71:  Run Mud Oil % 
 MOWR.                   71:29:  Run Mud OWR 
 MSND.                       0:  Run Mud Sand % 
 MSOL.                    23.3:  Run Mud Solids% 
 DFV .spqt               84.00:  Mud Viscosity 
 MWOD.in                  9.50:  MWD Tool OD 
 MWSI.                      No:  Serv Intrp, MWD 
 OTIM.hr                139.62:  Time Operating 
 PMAX.psia             5364.69:  Press Op, Max 
 PV  .cP                 80.00:  Mud PV 
 RUN .                     700:  Run Number 
 ROPA.m/hr               25.00:  ROP Avg 
 ROPN.m/hr               11.00:  ROP Min 
 ROPX.m/hr               36.00:  ROP Max 
 RPMA.rpm               130.00:  RPM Surface Avg 
 RPMN.rpm               120.00:  RPM Surface Min 
 RPMX.rpm               140.00:  RPM Surface Max 
 RRUN.                    0700:  Rig Run Number 
 SAZI.deg               183.25:  Azm, Start 
 SDEP.m                2084.00:  Start Depth 
 SIDD.                      No:  Serv Intrp, DD 
 SINC.deg                70.38:  Inc, Start 
 SPPA.psig             4800.00:  SPP Avg 
 SPPN.psig             4400.00:  SPP Min 
 SPPX.psig             5350.00:  SPP Max 
 STIM.      16.30.56 14-Apr-20:  Start Time 
 SVCS.                 DD, MWD:  Services 
 SVER.                    9.20:  Sperry Version 
 TDAT.m                1326.00:  Tot Depth Attmp 
 TDDF.                      No:  Trip for DD 
 TDLG.m                1326.00:  Tot Depth Loggd 
 TFF .                      No:  Trip for Fail 
 TQAA.f-kp               19.00:  Torque Abs Avg 
 TQAN.f-kp                8.00:  Torque Abs Min 
 TQAX.f-kp               27.00:  Torque Abs Max 
 TRRT.°/30m               0.50:  Turn Rotating 
 MRT .                    HCIM:  Maximum Recorded Temperature 
 TTMX.degC               82.35:  Max Tool Temp 
 VS01.       905245875X1Z1W1C8:  Virtual Str1 SN 
 VS02.       90608022F11V7D1A9:  Virtual Str2 SN 
 VS03.            90605473R5C9:  Virtual Str3 SN 
 WBMN.klb                11.00:  WOB Min 
 WOBA.klb                21.00:  WOB Avg 
 WOBX.klb                30.00:  WOB Max 
 YP  .lhf2               45.00:  Yield Point 
~Curve Information Block
#MNEM.UNIT                 API CODE     Curve Description
#---------               -----------    ---------------------------
 TIME.HHMMSS            00 000 000 000:  GT Time & Date
 GTDEPTH.m              00 000 000 000:  GT Depth
 GTPQH.psia             00 000 000 000:  GT HR Quartz Pressure
 GTTQ.degC              00 000 000 000:  GT Quartz Temperature
 GTTN.NONE              00 000 000 000:  GT Test Number
 GTET.sec               00 000 000 000:  GT Elapsed Test Time
 GTTVD.m                00 000 000 000:  GT True Vertical Depth
#Other Information
#
#WARRANTY: Halliburton will use its best efforts to furnish customers with 
#accurate information and interpretations that are part of, and incident to, the services 
#provided.  However, Halliburton cannot and does not warrant the accuracy 
#or correctness of such information and interpretations.  Under no circumstances should any 
#such information or interpretation be relied upon as the sole basis for any drilling, 
#completion, production, or financial decision or any procedure involving any risk to the 
#safety of any drilling venture, drilling rig or its crew or any other third party.  The 
#Customer has full responsibility for all drilling, completion and production operation.  
#Halliburton makes no representations or warranties, either expressed or 
#implied, including, but not limited to, the implied warranties of merchantability or fitness 
#for a particular purpose, with respect to the services rendered.  In no event will 
#Halliburton be liable for failure to obtain any particular results or for 
#any damages, including, but not limited to, indirect, special or consequential damages, 
#resulting from the use of any information or interpretation provided by Halliburton.
#
~A           TIME           GTDEPTH  GTPQH  GTTQ  GTTN  GTET   GTTVD  
# ...
   15:38:23.337.18-Apr-2020 3140.87 1501.42 71.21 6.00 183.98 1986.80
   15:38:23.537.18-Apr-2020 3140.87 1501.77 71.21 6.00 184.18 1986.80
   15:38:23.737.18-Apr-2020 3140.87 1502.10 71.21 6.00 184.38 1986.80
   15:38:23.937.18-Apr-2020 3140.87 1502.46 71.21 6.00 184.58 1986.80
   15:38:24.137.18-Apr-2020 3140.87 1502.79 71.21 6.00 184.78 1986.80
   15:38:24.337.18-Apr-2020 3140.87 1503.12 71.21 6.00 184.98 1986.80
   15:38:24.537.18-Apr-2020 3140.87 1503.41 71.21 6.00 185.18 1986.80
   15:38:24.737.18-Apr-2020 3140.87 1503.75 71.21 6.00 185.38 1986.80
   15:38:24.937.18-Apr-2020 3140.87 1504.07 71.21 6.00 185.58 1986.80
   15:38:25.137.18-Apr-2020 3140.87 1504.38 71.21 6.00 185.78 1986.80
   15:38:25.337.18-Apr-2020 3140.87 1504.70 71.21 6.00 185.98 1986.80
   15:38:25.537.18-Apr-2020 3140.87 1504.70 71.21 6.00 186.18 1986.80
   15:38:25.737.18-Apr-2020 3140.87 1505.30 71.20 6.00 186.38 1986.80
   15:38:25.937.18-Apr-2020 3140.87 1505.58 71.20 6.00 186.58 1986.80
   15:38:26.137.18-Apr-2020 3140.87 1505.86 71.20 6.00 186.78 1986.80
   15:38:26.337.18-Apr-2020 3140.87 1506.14 71.20 6.00 186.98 1986.80
   15:38:26.536.18-Apr-2020 3140.87 1506.14 71.20 6.00 187.18 1986.80
   15:38:26.736.18-Apr-2020 3140.87 1506.68 71.20 6.00 187.38 1986.80
   15:38:26.936.18-Apr-2020 3140.87 1506.94 71.20 6.00 187.58 1986.80
   15:38:27.136.18-Apr-2020 3140.87 1507.18 71.20 6.00 187.78 1986.80
   15:38:27.336.18-Apr-2020 3140.87 1507.41 71.20 6.00 187.98 1986.80
   15:38:27.536.18-Apr-2020 3140.87 1507.67 71.20 6.00 188.18 1986.80
   15:38:27.736.18-Apr-2020 3140.87 1507.92 71.20 6.00 188.38 1986.80
   15:38:27.936.18-Apr-2020 3140.87 1508.16 71.19 6.00 188.58 1986.80
   15:38:28.136.18-Apr-2020 3140.87 1508.39 71.19 6.00 188.78 1986.80
   15:38:28.336.18-Apr-2020 3140.87 1508.60 71.19 6.00 188.98 1986.80
   15:38:28.536.18-Apr-2020 3140.87 1508.80 71.19 6.00 189.18 1986.80
   15:38:28.736.18-Apr-2020 3140.87 1509.00 71.19 6.00 189.38 1986.80
   15:38:28.936.18-Apr-2020 3140.87 1509.19 71.19 6.00 189.58 1986.80
   15:38:29.136.18-Apr-2020 3140.87 1509.38 71.19 6.00 189.78 1986.80
   15:38:29.336.18-Apr-2020 3140.87 1509.54 71.19 6.00 189.98 1986.80
   15:38:29.536.18-Apr-2020 3140.87 1509.54 71.19 6.00 190.18 1986.80
   15:38:29.736.18-Apr-2020 3140.87 1509.88 71.19 6.00 190.38 1986.80
   15:38:29.936.18-Apr-2020 3140.87 1510.03 71.19 6.00 190.58 1986.80
   15:38:30.136.18-Apr-2020 3140.87 1510.20 71.19 6.00 190.78 1986.80
   15:38:30.336.18-Apr-2020 3140.87 1510.38 71.18 6.00 190.98 1986.80
   15:38:30.536.18-Apr-2020 3140.87 1510.38 71.18 6.00 191.18 1986.80
   15:38:30.736.18-Apr-2020 3140.87 1510.71 71.18 6.00 191.38 1986.80
   15:38:30.936.18-Apr-2020 3140.87 1510.95 71.18 6.00 191.58 1986.80
   15:38:31.136.18-Apr-2020 3140.87 1511.17 71.18 6.00 191.78 1986.80
   15:38:31.336.18-Apr-2020 3140.87 1511.41 71.18 6.00 191.98 1986.80
   15:38:31.536.18-Apr-2020 3140.87 1511.62 71.18 6.00 192.18 1986.80
   15:38:31.736.18-Apr-2020 3140.87 1511.86 71.18 6.00 192.38 1986.80
   15:38:31.936.18-Apr-2020 3140.87 1512.14 71.18 6.00 192.58 1986.80
   15:38:32.136.18-Apr-2020 3140.87 1512.40 71.18 6.00 192.78 1986.80
   15:38:32.336.18-Apr-2020 3140.87 1512.63 71.18 6.00 192.98 1986.80
   15:38:32.536.18-Apr-2020 3140.87 1512.85 71.18 6.00 193.18 1986.80
   15:38:32.736.18-Apr-2020 3140.87 1513.00 71.18 6.00 193.38 1986.80
   15:38:32.936.18-Apr-2020 3140.87 1513.25 71.17 6.00 193.58 1986.80
   15:38:33.136.18-Apr-2020 3140.87 1513.51 71.17 6.00 193.78 1986.80
   15:38:33.336.18-Apr-2020 3140.87 1513.71 71.17 6.00 193.98 1986.80
   15:38:33.536.18-Apr-2020 3140.87 1513.71 71.17 6.00 194.18 1986.80
   15:38:33.736.18-Apr-2020 3140.87 1514.23 71.17 6.00 194.38 1986.80
   15:38:33.936.18-Apr-2020 3140.87 1514.50 71.17 6.00 194.58 1986.80
   15:38:34.136.18-Apr-2020 3140.87 1514.72 71.17 6.00 194.78 1986.80
   15:38:34.336.18-Apr-2020 3140.87 1514.97 71.17 6.00 194.98 1986.80
   15:38:34.536.18-Apr-2020 3140.87 1514.97 71.17 6.00 195.18 1986.80
   15:38:34.736.18-Apr-2020 3140.87 1515.55 71.17 6.00 195.38 1986.80
   15:38:34.936.18-Apr-2020 3140.87 1515.89 71.17 6.00 195.58 1986.80
   15:38:35.135.18-Apr-2020 3140.87 1516.19 71.17 6.00 195.78 1986.80
   15:38:35.335.18-Apr-2020 3140.87 1516.37 71.17 6.00 195.98 1986.80
   15:38:35.535.18-Apr-2020 3140.87 1516.37 71.17 6.00 196.18 1986.80
   15:38:35.735.18-Apr-2020 3140.87 1516.67 71.16 6.00 196.38 1986.80
   15:38:35.935.18-Apr-2020 3140.87 1516.81 71.16 6.00 196.58 1986.80
   15:38:36.135.18-Apr-2020 3140.87 1516.90 71.16 6.00 196.78 1986.80
   15:38:36.335.18-Apr-2020 3140.87 1517.01 71.16 6.00 196.98 1986.80
   15:38:36.535.18-Apr-2020 3140.87 1517.01 71.16 6.00 197.18 1986.80
   15:38:36.735.18-Apr-2020 3140.87 1517.31 71.16 6.00 197.38 1986.80
   15:38:36.935.18-Apr-2020 3140.87 1517.44 71.16 6.00 197.58 1986.80
   15:38:37.135.18-Apr-2020 3140.87 1517.60 71.16 6.00 197.78 1986.80
   15:38:37.335.18-Apr-2020 3140.87 1517.72 71.16 6.00 197.98 1986.80
   15:38:37.535.18-Apr-2020 3140.87 1517.72 71.16 6.00 198.18 1986.80
   15:38:37.735.18-Apr-2020 3140.87 1517.96 71.16 6.00 198.38 1986.80
   15:38:37.935.18-Apr-2020 3140.87 1518.09 71.16 6.00 198.58 1986.80
   15:38:38.135.18-Apr-2020 3140.87 1518.20 71.15 6.00 198.78 1986.80
   15:38:38.335.18-Apr-2020 3140.87 1518.29 71.15 6.00 198.98 1986.80
   15:38:38.535.18-Apr-2020 3140.87 1518.39 71.15 6.00 199.18 1986.80
   15:38:38.735.18-Apr-2020 3140.87 1518.48 71.15 6.00 199.38 1986.80
   15:38:38.935.18-Apr-2020 3140.87 1518.57 71.15 6.00 199.58 1986.80
   15:38:39.135.18-Apr-2020 3140.87 1518.71 71.15 6.00 199.78 1986.80
   15:38:39.335.18-Apr-2020 3140.87 1518.82 71.15 6.00 199.98 1986.80
   15:38:39.535.18-Apr-2020 3140.87 1518.92 71.15 6.00 200.18 1986.80
   15:38:39.735.18-Apr-2020 3140.87 1519.10 71.15 6.00 200.38 1986.80
   15:38:39.935.18-Apr-2020 3140.87 1519.26 71.15 6.00 200.58 1986.80
   15:38:40.135.18-Apr-2020 3140.87 1519.38 71.15 6.00 200.78 1986.80
   15:38:40.335.18-Apr-2020 3140.87 1519.50 71.15 6.00 200.98 1986.80
   15:38:40.535.18-Apr-2020 3140.87 1519.50 71.15 6.00 201.18 1986.80
   15:38:40.735.18-Apr-2020 3140.87 1519.70 71.14 6.00 201.38 1986.80
   15:38:40.935.18-Apr-2020 3140.87 1519.91 71.14 6.00 201.58 1986.80
   15:38:41.135.18-Apr-2020 3140.87 1520.06 71.14 6.00 201.78 1986.80
   15:38:41.335.18-Apr-2020 3140.87 1520.15 71.14 6.00 201.98 1986.80
   15:38:41.535.18-Apr-2020 3140.87 1520.15 71.14 6.00 202.18 1986.80
   15:38:41.735.18-Apr-2020 3140.87 1520.31 71.14 6.00 202.38 1986.80
   15:38:41.935.18-Apr-2020 3140.87 1520.40 71.14 6.00 202.58 1986.80
   15:38:42.135.18-Apr-2020 3140.87 1520.49 71.14 6.00 202.78 1986.80
   15:38:42.335.18-Apr-2020 3140.87 1520.56 71.14 6.00 202.98 1986.80
   15:38:42.535.18-Apr-2020 3140.87 1520.56 71.14 6.00 203.18 1986.80
   15:38:42.735.18-Apr-2020 3140.87 1520.67 71.14 6.00 203.38 1986.80
   15:38:42.935.18-Apr-2020 3140.87 1520.76 71.14 6.00 203.58 1986.80
   15:38:43.135.18-Apr-2020 3140.87 1520.83 71.14 6.00 203.78 1986.80
   15:38:43.335.18-Apr-2020 3140.87 1520.91 71.13 6.00 203.98 1986.80
   15:38:43.535.18-Apr-2020 3140.87 1520.97 71.13 6.00 204.18 1986.80
   15:38:43.734.18-Apr-2020 3140.87 1521.04 71.13 6.00 204.38 1986.80
   15:38:43.934.18-Apr-2020 3140.87 1521.09 71.13 6.00 204.58 1986.80
   15:38:44.134.18-Apr-2020 3140.87 1521.15 71.13 6.00 204.78 1986.80
   15:38:44.334.18-Apr-2020 3140.87 1521.20 71.13 6.00 204.98 1986.80
   15:38:44.534.18-Apr-2020 3140.87 1521.24 71.13 6.00 205.18 1986.80
   15:38:44.734.18-Apr-2020 3140.87 1521.29 71.13 6.00 205.38 1986.80
   15:38:44.934.18-Apr-2020 3140.87 1521.33 71.13 6.00 205.58 1986.80
   15:38:45.134.18-Apr-2020 3140.87 1521.37 71.13 6.00 205.78 1986.80
   15:38:45.334.18-Apr-2020 3140.87 1521.42 71.13 6.00 205.98 1986.80
   15:38:45.534.18-Apr-2020 3140.87 1521.42 71.13 6.00 206.18 1986.80
   15:38:45.734.18-Apr-2020 3140.87 1521.50 71.13 6.00 206.38 1986.80
   15:38:45.934.18-Apr-2020 3140.87 1521.55 71.12 6.00 206.58 1986.80
   15:38:46.134.18-Apr-2020 3140.87 1521.60 71.12 6.00 206.78 1986.80
