~Version Information
 VERS.                  2.0:   CWLS log ASCII Standard -VERSION 2.0
 WRAP.                   NO:   One line per depth step
~Well Information Block
#MNEM.UNIT     VALUE/NAME     DESCRIPTION
#---------     -----------    ---------------------------
 STRT.S             13:35:33 18-Apr-20: START TIME 13:35:33 18-Apr-20
 STOP.S             13:42:31 18-Apr-20: STOP TIME  13:42:31 18-Apr-20
 STEP.S                   0.00: STEP TIME
 NULL.                 -999.25: NULL VALUE
 DFWT.                        :  DIST FWL TEXT
 DFST.                        :  DIST FSL TEXT
 DMF .                        :  DRILL MEAS FROM
 STIM.      16.29.52 23-Mar-20:  START TIME
 DATE.      16.29.52 23-Mar-20:  END TIME
 SPUD.               23-Mar-20:  SPUD DATE
 NREF.                    Grid:  NORTH REFERENCE
 HPTY.       Minimum Curvature:  HOLE POS TYPE
 DMOD.             Drill Model:  DRILL MOD DESC
 SVYD.                  Survey:  SURVEY DESC
 ILTD.               Lithology:  INTERP LTH DESC
 FTOP.          Formation Tops:  FORM TOPS DESC
 SON .        AZ-XX-0906252240:  JOB NUMBER
 RIG .             West Chirag:  RIG NAME
 PDAT.          Mean Sea Level:  PERMANENT DATUM
 FLD .                     ACG:  FIELD NAME
 CTRY.              Azerbaijan:  COUNTRY NAME
 WELL.           J23 (Slot 07):  WELL NAME
 SRVC.          Turan Drilling:  CONTRACTOR
 COMP.     BP Exploration (Casoian Sea) Ltd:  COMPANY
 WTYP.                Deviated:  WELL TYPE
 MDS .        Operator Entered:  MAG DATA SOURCE
 UWI .                     N/A:  UNIQUE WELL IDENTIFIER
 API .                     N/A:  API NUMBER
 BASE.              Azerbaijan:  LOGGING EQUIPMENT BASE LOCATION
 REGN.                   EESSA:  REGION
 PROV.                    Baku:  PROVINCE
 STAT.                    Baku:  STATE NAME
 MWDS.                     N/A:  MWD SHOP
 JOBN.        AZ-XX-0906252240:  JOB TICKET NUMB
 DOE .                     N/A:  DOE NUMBER
 DCON.         Sperry Drilling:  DIRECTNL CONTR
 UNIT.                     N/A:  LOGGING EQUIPMENT ID
 CNTY.                        :  COUNTY
 LOC .                        :  LOCATION
 LMF .             Drill Floor:  LOG MEASURED FROM
 TVDS.m                  43.00:  TVDSS CORRECTN
 LATI.deg                40.13:  LATITUDE
 LONG.deg                51.22:  LONGITUDE
 WHNS.m                   9.43:  WELL HEAD N/S
 WHEW.m                  -8.91:  WELL HEAD E/W
 UTMX.m              519005.06:  UTM X
 UTMY.m             4443793.85:  UTM Y
 DFWL.m                   0.00:  DISTANCE FWL
 DFSL.m                   0.00:  DISTANCE FSL
 SDEP.m                   0.00:  START DEPTH
 TDD .m                   0.00:  TOTAL DEPTH (DRILLER)
 VSDR.deg               179.88:  VERT SEC DIRECT
 GVFD.g                   1.00:  GRAVITY FIELD
 MFLD.nT              50281.00:  MAGNETIC FIELD
 MDIP.deg                59.58:  MAGNETIC DIP
 MDEC.deg                 6.48:  MAGNETIC DECL
 GRDC.deg                 0.14:  GRID CORRECTION
 AZTC.deg                 6.34:  AZM TOTAL CORR
 EPD .m                   0.00:  ELEVATION
 EGL .m                   0.00:  GROUND ELEVATION
 WDMS.m                 169.80:  WD ELEV
 APD .m                  43.00:  DEPTH ABOVE PD
 DEP .m                 354.17:  DEPTH
 AGAP.m                  43.00:  AIR GAP
 VSEW.m                  -8.91:  VERT SEC E/W
 VSNS.m                   9.43:  VERT SEC N/S
 EKB .m                   0.00:  KB ELEVATION
 EDF .m                  43.00:  DF ELEVATION
 TDL .m                1326.00:  TOTAL DEPTH (LOGGER)
 VSC .                       0:  VS TO CLOSURE
 MAGU.                 1850704:  MAGUTM CHECKSUM
~Parameter Information Block
#MNEM.UNIT       Value        Description
#---------     -----------    ---------------------------
 AV  .mps                 1.17:  Ann Velocity 
 AZIF.deg               184.04:  Azm, Final 
 BHAT.        Rotary Steerable:  BHA Type 
 BREV.rev            620000.00:  Rev Bit Total 
 BROT.°/30m               0.20:  Build Rotating 
 BS  .in                 14.75:  Bit Size 
 BSZ .in                 14.75:  Bit Size 
 BTPL.psig              618.00:  Bit Press Loss 
 CABU.                      No:  Customer Abuse 
 COMM.                     ôÎT:  Run Comments 1 
 TCS .hr                 87.68:  Time Ciculation Ended 
 CV  .mps                 3.10:  Crit Velocity 
 DD1 .          Rashad Habibov:  Direct Drillr 1 
 DD2 .         Rasim Ibrahimov:  Direct Drillr 2 
 DDSV.               Geo-Pilot:  DD Service 
 DEFF.%                  98.00:  % Det Eff 
 DLRX.°/30m               1.48:  Dogleg Rot Max 
 DLSO.°/30m               0.50:  Dogleg Oriented 
 DLSX.°/30m               1.48:  Dogleg Str Max 
 DRET.      06.18.56 19-Apr-20:  Drill End Time 
 DRST.      15.00.56 15-Apr-20:  Drill Start Tim 
 DTIM.hr                 51.73:  Time Drilling 
 EDEP.m                3410.01:  End Depth 
 ENG1.        Marcelo Sandoval:  Engineer 1 
 ENG2.        Davud Huseynzade:  Engineer 2 
 ENG3.          Ruslan Safarov:  Engineer 3 
 ETIM.      04.00.56 20-Apr-20:  End Time 
 FLOI.gpm              1000.00:  Flow In 
 FLON.gpm               600.00:  Flow In Min 
 FLOS.cptm                0.00:  Fluid Loss 
 FLOX.gpm              1200.00:  Flow In Max 
 HFLO.                      No:  High Flow 
 HPRE.                     Yes:  High Pressure 
 HTEM.                      No:  High Temp 
 HYDO.m                   1.80:  Hydro Offset 
 IFIN.deg                70.04:  Inc, Final 
 IMAX.deg                70.56:  Inc Max 
 IMIN.deg                69.85:  Inc Min 
 IMND.m                3103.24:  Inc Min Depth 
 IMXD.m                2876.63:  Inc Max Depth 
 JARR.                      No:  Jarring 
 LETM.      06.18.56 19-Apr-20:  Log End Time 
 LOST.hr                     0:  Lost Rig Time 
 LSTM.      15.00.56 15-Apr-20:  Log Start Time 
 MDCL.ppm             42000.00:  Mud Chlorides 
 MDES.     Inversion Oil/Synthetic:  Mud Desc 
 DFD .sg                  1.58:  Mud Density 
 MDMN.sg                  1.58:  Dens Mud Min 
 MDMX.sg                  1.58:  Dens Mud Max 
 MOIL.                      71:  Run Mud Oil % 
 MOWR.                   71:29:  Run Mud OWR 
 MSND.                       0:  Run Mud Sand % 
 MSOL.                    23.3:  Run Mud Solids% 
 DFV .spqt               84.00:  Mud Viscosity 
 MWOD.in                  9.50:  MWD Tool OD 
 MWSI.                      No:  Serv Intrp, MWD 
 OTIM.hr                139.62:  Time Operating 
 PMAX.psia             5364.69:  Press Op, Max 
 PV  .cP                 80.00:  Mud PV 
 RUN .                     700:  Run Number 
 ROPA.m/hr               25.00:  ROP Avg 
 ROPN.m/hr               11.00:  ROP Min 
 ROPX.m/hr               36.00:  ROP Max 
 RPMA.rpm               130.00:  RPM Surface Avg 
 RPMN.rpm               120.00:  RPM Surface Min 
 RPMX.rpm               140.00:  RPM Surface Max 
 RRUN.                    0700:  Rig Run Number 
 SAZI.deg               183.25:  Azm, Start 
 SDEP.m                2084.00:  Start Depth 
 SIDD.                      No:  Serv Intrp, DD 
 SINC.deg                70.38:  Inc, Start 
 SPPA.psig             4800.00:  SPP Avg 
 SPPN.psig             4400.00:  SPP Min 
 SPPX.psig             5350.00:  SPP Max 
 STIM.      16.30.56 14-Apr-20:  Start Time 
 SVCS.                 DD, MWD:  Services 
 SVER.                    9.20:  Sperry Version 
 TDAT.m                1326.00:  Tot Depth Attmp 
 TDDF.                      No:  Trip for DD 
 TDLG.m                1326.00:  Tot Depth Loggd 
 TFF .                      No:  Trip for Fail 
 TQAA.f-kp               19.00:  Torque Abs Avg 
 TQAN.f-kp                8.00:  Torque Abs Min 
 TQAX.f-kp               27.00:  Torque Abs Max 
 TRRT.°/30m               0.50:  Turn Rotating 
 MRT .                    HCIM:  Maximum Recorded Temperature 
 TTMX.degC               82.35:  Max Tool Temp 
 VS01.       905245875X1Z1W1C8:  Virtual Str1 SN 
 VS02.       90608022F11V7D1A9:  Virtual Str2 SN 
 VS03.            90605473R5C9:  Virtual Str3 SN 
 WBMN.klb                11.00:  WOB Min 
 WOBA.klb                21.00:  WOB Avg 
 WOBX.klb                30.00:  WOB Max 
 YP  .lhf2               45.00:  Yield Point 
~Curve Information Block
#MNEM.UNIT                 API CODE     Curve Description
#---------               -----------    ---------------------------
 TIME.HHMMSS            00 000 000 000:  GT Time & Date
 GTDEPTH.m              00 000 000 000:  GT Depth
 GTPQH.psia             00 000 000 000:  GT HR Quartz Pressure
 GTTQ.degC              00 000 000 000:  GT Quartz Temperature
 GTTN.NONE              00 000 000 000:  GT Test Number
 GTET.sec               00 000 000 000:  GT Elapsed Test Time
 GTTVD.m                00 000 000 000:  GT True Vertical Depth
#Other Information
#
#WARRANTY: Halliburton will use its best efforts to furnish customers with 
#accurate information and interpretations that are part of, and incident to, the services 
#provided.  However, Halliburton cannot and does not warrant the accuracy 
#or correctness of such information and interpretations.  Under no circumstances should any 
#such information or interpretation be relied upon as the sole basis for any drilling, 
#completion, production, or financial decision or any procedure involving any risk to the 
#safety of any drilling venture, drilling rig or its crew or any other third party.  The 
#Customer has full responsibility for all drilling, completion and production operation.  
#Halliburton makes no representations or warranties, either expressed or 
#implied, including, but not limited to, the implied warranties of merchantability or fitness 
#for a particular purpose, with respect to the services rendered.  In no event will 
#Halliburton be liable for failure to obtain any particular results or for 
#any damages, including, but not limited to, indirect, special or consequential damages, 
#resulting from the use of any information or interpretation provided by Halliburton.
#
~A           TIME           GTDEPTH  GTPQH  GTTQ  GTTN  GTET   GTTVD  
# ...
   13:42:04.433.18-Apr-2020 3111.02 4541.58 69.27 5.00 391.18 1976.62
   13:42:04.633.18-Apr-2020 3111.02 4541.58 69.27 5.00 391.38 1976.62
   13:42:04.833.18-Apr-2020 3111.02 4540.81 69.27 5.00 391.58 1976.62
   13:42:05.033.18-Apr-2020 3111.02 4541.07 69.27 5.00 391.78 1976.62
   13:42:05.233.18-Apr-2020 3111.02 4540.96 69.27 5.00 391.98 1976.62
   13:42:05.434.18-Apr-2020 3111.02 4540.97 69.27 5.00 392.18 1976.62
   13:42:05.634.18-Apr-2020 3111.02 4540.97 69.27 5.00 392.38 1976.62
   13:42:05.834.18-Apr-2020 3111.02 4538.06 69.27 5.00 392.58 1976.62
   13:42:06.034.18-Apr-2020 3111.02 4541.01 69.27 5.00 392.78 1976.62
   13:42:06.234.18-Apr-2020 3111.02 4540.86 69.26 5.00 392.98 1976.62
   13:42:06.434.18-Apr-2020 3111.02 4537.95 69.26 5.00 393.18 1976.62
   13:42:06.634.18-Apr-2020 3111.02 4537.95 69.26 5.00 393.38 1976.62
   13:42:06.834.18-Apr-2020 3111.02 4541.85 69.26 5.00 393.58 1976.62
   13:42:07.034.18-Apr-2020 3111.02 4541.28 69.26 5.00 393.78 1976.62
   13:42:07.234.18-Apr-2020 3111.02 4538.73 69.26 5.00 393.98 1976.62
   13:42:07.434.18-Apr-2020 3111.02 4542.10 69.26 5.00 394.18 1976.62
   13:42:07.635.18-Apr-2020 3111.02 4542.10 69.26 5.00 394.38 1976.62
   13:42:07.835.18-Apr-2020 3111.02 4541.00 69.26 5.00 394.58 1976.62
   13:42:08.035.18-Apr-2020 3111.02 4540.96 69.26 5.00 394.78 1976.62
   13:42:08.235.18-Apr-2020 3111.02 4538.25 69.26 5.00 394.98 1976.62
   13:42:08.435.18-Apr-2020 3111.02 4540.62 69.25 5.00 395.18 1976.62
   13:42:08.635.18-Apr-2020 3111.02 4540.62 69.25 5.00 395.38 1976.62
   13:42:08.835.18-Apr-2020 3111.02 4540.16 69.25 5.00 395.58 1976.62
   13:42:09.035.18-Apr-2020 3111.02 4540.20 69.25 5.00 395.78 1976.62
   13:42:09.235.18-Apr-2020 3111.02 4537.67 69.25 5.00 395.98 1976.62
   13:42:09.435.18-Apr-2020 3111.02 4540.65 69.25 5.00 396.18 1976.62
   13:42:09.635.18-Apr-2020 3111.02 4540.65 69.25 5.00 396.38 1976.62
   13:42:09.835.18-Apr-2020 3111.02 4539.78 69.25 5.00 396.58 1976.62
   13:42:10.036.18-Apr-2020 3111.02 4540.51 69.25 5.00 396.78 1976.62
   13:42:10.236.18-Apr-2020 3111.02 4541.21 69.25 5.00 396.98 1976.62
   13:42:10.436.18-Apr-2020 3111.02 4541.49 69.24 5.00 397.18 1976.62
   13:42:10.636.18-Apr-2020 3111.02 4541.49 69.24 5.00 397.38 1976.62
   13:42:10.836.18-Apr-2020 3111.02 4540.32 69.24 5.00 397.58 1976.62
   13:42:11.036.18-Apr-2020 3111.02 4540.02 69.24 5.00 397.78 1976.62
   13:42:11.236.18-Apr-2020 3111.02 4540.16 69.24 5.00 397.98 1976.62
   13:42:11.436.18-Apr-2020 3111.02 4540.23 69.24 5.00 398.18 1976.62
   13:42:11.636.18-Apr-2020 3111.02 4540.23 69.24 5.00 398.38 1976.62
   13:42:11.836.18-Apr-2020 3111.02 4539.54 69.24 5.00 398.58 1976.62
   13:42:12.036.18-Apr-2020 3111.02 4537.15 69.24 5.00 398.78 1976.62
   13:42:12.237.18-Apr-2020 3111.02 4540.66 69.24 5.00 398.98 1976.62
   13:42:12.437.18-Apr-2020 3111.02 4540.10 69.23 5.00 399.18 1976.62
   13:42:12.637.18-Apr-2020 3111.02 4540.10 69.23 5.00 399.38 1976.62
   13:42:12.837.18-Apr-2020 3111.02 4540.55 69.23 5.00 399.58 1976.62
   13:42:13.037.18-Apr-2020 3111.02 4541.12 69.23 5.00 399.78 1976.62
   13:42:13.237.18-Apr-2020 3111.02 4541.08 69.23 5.00 399.98 1976.62
   13:42:13.437.18-Apr-2020 3111.02 4540.57 69.23 5.00 400.18 1976.62
   13:42:13.637.18-Apr-2020 3111.02 4540.57 69.23 5.00 400.38 1976.62
   13:42:13.837.18-Apr-2020 3111.02 4540.87 69.23 5.00 400.58 1976.62
   13:42:14.037.18-Apr-2020 3111.02 4540.43 69.23 5.00 400.78 1976.62
   13:42:14.237.18-Apr-2020 3111.02 4540.27 69.22 5.00 400.98 1976.62
   13:42:14.438.18-Apr-2020 3111.02 4540.37 69.22 5.00 401.18 1976.62
   13:42:14.638.18-Apr-2020 3111.02 4540.37 69.22 5.00 401.38 1976.62
   13:42:14.838.18-Apr-2020 3111.02 4538.32 69.22 5.00 401.58 1976.62
   13:42:15.038.18-Apr-2020 3111.02 4540.19 69.22 5.00 401.78 1976.62
   13:42:15.238.18-Apr-2020 3111.02 4539.93 69.22 5.00 401.98 1976.62
   13:42:15.438.18-Apr-2020 3111.02 4537.77 69.22 5.00 402.18 1976.62
   13:42:15.638.18-Apr-2020 3111.02 4537.77 69.22 5.00 402.38 1976.62
   13:42:15.838.18-Apr-2020 3111.02 4540.81 69.22 5.00 402.58 1976.62
   13:42:16.038.18-Apr-2020 3111.02 4540.22 69.21 5.00 402.78 1976.62
   13:42:16.238.18-Apr-2020 3111.02 4540.81 69.21 5.00 402.98 1976.62
   13:42:16.438.18-Apr-2020 3111.02 4540.83 69.21 5.00 403.18 1976.62
   13:42:16.639.18-Apr-2020 3111.02 4540.83 69.21 5.00 403.38 1976.62
   13:42:16.839.18-Apr-2020 3111.02 4540.60 69.21 5.00 403.58 1976.62
   13:42:17.039.18-Apr-2020 3111.02 4540.31 69.21 5.00 403.78 1976.62
   13:42:17.239.18-Apr-2020 3111.02 4539.88 69.21 5.00 403.98 1976.62
   13:42:17.439.18-Apr-2020 3111.02 4537.42 69.21 5.00 404.18 1976.62
   13:42:17.639.18-Apr-2020 3111.02 4537.42 69.21 5.00 404.38 1976.62
   13:42:17.839.18-Apr-2020 3111.02 4540.05 69.20 5.00 404.58 1976.62
   13:42:18.039.18-Apr-2020 3111.02 4539.17 69.20 5.00 404.78 1976.62
   13:42:18.239.18-Apr-2020 3111.02 4540.24 69.20 5.00 404.98 1976.62
   13:42:18.439.18-Apr-2020 3111.02 4538.80 69.20 5.00 405.18 1976.62
   13:42:18.639.18-Apr-2020 3111.02 4538.80 69.20 5.00 405.38 1976.62
   13:42:18.840.18-Apr-2020 3111.02 4540.81 69.20 5.00 405.58 1976.62
   13:42:19.040.18-Apr-2020 3111.02 4541.21 69.20 5.00 405.78 1976.62
   13:42:19.240.18-Apr-2020 3111.02 4541.10 69.20 5.00 405.98 1976.62
   13:42:19.440.18-Apr-2020 3111.02 4541.25 69.20 5.00 406.18 1976.62
   13:42:19.640.18-Apr-2020 3111.02 4541.25 69.20 5.00 406.38 1976.62
   13:42:19.840.18-Apr-2020 3111.02 4540.66 69.19 5.00 406.58 1976.62
   13:42:20.040.18-Apr-2020 3111.02 4540.15 69.19 5.00 406.78 1976.62
   13:42:20.240.18-Apr-2020 3111.02 4539.95 69.19 5.00 406.98 1976.62
   13:42:20.440.18-Apr-2020 3111.02 4540.58 69.19 5.00 407.18 1976.62
   13:42:20.640.18-Apr-2020 3111.02 4540.58 69.19 5.00 407.38 1976.62
   13:42:20.840.18-Apr-2020 3111.02 4539.92 69.19 5.00 407.58 1976.62
   13:42:21.041.18-Apr-2020 3111.02 4540.18 69.19 5.00 407.78 1976.62
   13:42:21.241.18-Apr-2020 3111.02 4538.99 69.19 5.00 407.98 1976.62
   13:42:21.441.18-Apr-2020 3111.02 4538.54 69.18 5.00 408.18 1976.62
   13:42:21.641.18-Apr-2020 3111.02 4538.54 69.18 5.00 408.38 1976.62
   13:42:21.841.18-Apr-2020 3111.02 4540.56 69.18 5.00 408.58 1976.62
   13:42:22.041.18-Apr-2020 3111.02 4540.80 69.18 5.00 408.78 1976.62
   13:42:22.241.18-Apr-2020 3111.02 4541.39 69.18 5.00 408.98 1976.62
   13:42:22.441.18-Apr-2020 3111.02 4541.13 69.18 5.00 409.18 1976.62
   13:42:22.641.18-Apr-2020 3111.02 4541.13 69.18 5.00 409.38 1976.62
   13:42:22.841.18-Apr-2020 3111.02 4540.55 69.18 5.00 409.58 1976.62
   13:42:23.041.18-Apr-2020 3111.02 4540.45 69.18 5.00 409.78 1976.62
   13:42:23.242.18-Apr-2020 3111.02 4540.41 69.17 5.00 409.98 1976.62
   13:42:23.442.18-Apr-2020 3111.02 4540.01 69.17 5.00 410.18 1976.62
   13:42:23.642.18-Apr-2020 3111.02 4540.01 69.17 5.00 410.38 1976.62
   13:42:23.842.18-Apr-2020 3111.02 4540.27 69.17 5.00 410.58 1976.62
   13:42:24.042.18-Apr-2020 3111.02 4537.16 69.17 5.00 410.78 1976.62
   13:42:24.242.18-Apr-2020 3111.02 4540.39 69.17 5.00 410.98 1976.62
   13:42:24.442.18-Apr-2020 3111.02 4540.24 69.17 5.00 411.18 1976.62
   13:42:24.642.18-Apr-2020 3111.02 4540.24 69.17 5.00 411.39 1976.62
   13:42:24.842.18-Apr-2020 3111.02 4540.47 69.17 5.00 411.59 1976.62
   13:42:25.042.18-Apr-2020 3111.02 4540.74 69.16 5.00 411.79 1976.62
   13:42:25.242.18-Apr-2020 3111.02 4540.68 69.16 5.00 411.99 1976.62
   13:42:25.443.18-Apr-2020 3111.02 4540.14 69.16 5.00 412.19 1976.62
   13:42:25.643.18-Apr-2020 3111.02 4540.14 69.16 5.00 412.39 1976.62
   13:42:25.843.18-Apr-2020 3111.02 4538.38 69.16 5.00 412.59 1976.62
   13:42:26.043.18-Apr-2020 3111.02 4541.06 69.16 5.00 412.79 1976.62
   13:42:26.243.18-Apr-2020 3111.02 4540.08 69.16 5.00 412.99 1976.62
   13:42:26.443.18-Apr-2020 3111.02 4539.92 69.16 5.00 413.19 1976.62
   13:42:26.643.18-Apr-2020 3111.02 4539.92 69.16 5.00 413.39 1976.62
   13:42:26.843.18-Apr-2020 3111.02 4539.65 69.15 5.00 413.59 1976.62
   13:42:27.043.18-Apr-2020 3111.02 4540.37 69.15 5.00 413.79 1976.62
   13:42:27.243.18-Apr-2020 3111.02 4540.22 69.15 5.00 413.99 1976.62
