~Version Information
 VERS.                  2.0:   CWLS log ASCII Standard -VERSION 2.0
 WRAP.                   NO:   One line per depth step
~Well Information Block
#MNEM.UNIT     VALUE/NAME     DESCRIPTION
#---------     -----------    ---------------------------
 STRT.S             08:47:02 18-Apr-20: START TIME 08:47:02 18-Apr-20
 STOP.S             08:53:58 18-Apr-20: STOP TIME  08:53:58 18-Apr-20
 STEP.S                   0.00: STEP TIME
 NULL.                 -999.25: NULL VALUE
 DFWT.                        :  DIST FWL TEXT
 DFST.                        :  DIST FSL TEXT
 DMF .                        :  DRILL MEAS FROM
 STIM.      16.29.52 23-Mar-20:  START TIME
 DATE.      16.29.52 23-Mar-20:  END TIME
 SPUD.               23-Mar-20:  SPUD DATE
 NREF.                    Grid:  NORTH REFERENCE
 HPTY.       Minimum Curvature:  HOLE POS TYPE
 DMOD.             Drill Model:  DRILL MOD DESC
 SVYD.                  Survey:  SURVEY DESC
 ILTD.               Lithology:  INTERP LTH DESC
 FTOP.          Formation Tops:  FORM TOPS DESC
 SON .        AZ-XX-0906252240:  JOB NUMBER
 RIG .             West Chirag:  RIG NAME
 PDAT.          Mean Sea Level:  PERMANENT DATUM
 FLD .                     ACG:  FIELD NAME
 CTRY.              Azerbaijan:  COUNTRY NAME
 WELL.           J23 (Slot 07):  WELL NAME
 SRVC.          Turan Drilling:  CONTRACTOR
 COMP.     BP Exploration (Casoian Sea) Ltd:  COMPANY
 WTYP.                Deviated:  WELL TYPE
 MDS .        Operator Entered:  MAG DATA SOURCE
 UWI .                     N/A:  UNIQUE WELL IDENTIFIER
 API .                     N/A:  API NUMBER
 BASE.              Azerbaijan:  LOGGING EQUIPMENT BASE LOCATION
 REGN.                   EESSA:  REGION
 PROV.                    Baku:  PROVINCE
 STAT.                    Baku:  STATE NAME
 MWDS.                     N/A:  MWD SHOP
 JOBN.        AZ-XX-0906252240:  JOB TICKET NUMB
 DOE .                     N/A:  DOE NUMBER
 DCON.         Sperry Drilling:  DIRECTNL CONTR
 UNIT.                     N/A:  LOGGING EQUIPMENT ID
 CNTY.                        :  COUNTY
 LOC .                        :  LOCATION
 LMF .             Drill Floor:  LOG MEASURED FROM
 TVDS.m                  43.00:  TVDSS CORRECTN
 LATI.deg                40.13:  LATITUDE
 LONG.deg                51.22:  LONGITUDE
 WHNS.m                   9.43:  WELL HEAD N/S
 WHEW.m                  -8.91:  WELL HEAD E/W
 UTMX.m              519005.06:  UTM X
 UTMY.m             4443793.85:  UTM Y
 DFWL.m                   0.00:  DISTANCE FWL
 DFSL.m                   0.00:  DISTANCE FSL
 SDEP.m                   0.00:  START DEPTH
 TDD .m                   0.00:  TOTAL DEPTH (DRILLER)
 VSDR.deg               179.88:  VERT SEC DIRECT
 GVFD.g                   1.00:  GRAVITY FIELD
 MFLD.nT              50281.00:  MAGNETIC FIELD
 MDIP.deg                59.58:  MAGNETIC DIP
 MDEC.deg                 6.48:  MAGNETIC DECL
 GRDC.deg                 0.14:  GRID CORRECTION
 AZTC.deg                 6.34:  AZM TOTAL CORR
 EPD .m                   0.00:  ELEVATION
 EGL .m                   0.00:  GROUND ELEVATION
 WDMS.m                 169.80:  WD ELEV
 APD .m                  43.00:  DEPTH ABOVE PD
 DEP .m                 354.17:  DEPTH
 AGAP.m                  43.00:  AIR GAP
 VSEW.m                  -8.91:  VERT SEC E/W
 VSNS.m                   9.43:  VERT SEC N/S
 EKB .m                   0.00:  KB ELEVATION
 EDF .m                  43.00:  DF ELEVATION
 TDL .m                1326.00:  TOTAL DEPTH (LOGGER)
 VSC .                       0:  VS TO CLOSURE
 MAGU.                 1850704:  MAGUTM CHECKSUM
~Parameter Information Block
#MNEM.UNIT       Value        Description
#---------     -----------    ---------------------------
 AV  .mps                 1.17:  Ann Velocity 
 AZIF.deg               184.04:  Azm, Final 
 BHAT.        Rotary Steerable:  BHA Type 
 BREV.rev            620000.00:  Rev Bit Total 
 BROT.°/30m               0.20:  Build Rotating 
 BS  .in                 14.75:  Bit Size 
 BSZ .in                 14.75:  Bit Size 
 BTPL.psig              618.00:  Bit Press Loss 
 CABU.                      No:  Customer Abuse 
 TCS .hr                 87.68:  Time Ciculation Ended 
 CV  .mps                 3.10:  Crit Velocity 
 DD1 .          Rashad Habibov:  Direct Drillr 1 
 DD2 .         Rasim Ibrahimov:  Direct Drillr 2 
 DDSV.               Geo-Pilot:  DD Service 
 DEFF.%                  98.00:  % Det Eff 
 DLRX.°/30m               1.48:  Dogleg Rot Max 
 DLSO.°/30m               0.50:  Dogleg Oriented 
 DLSX.°/30m               1.48:  Dogleg Str Max 
 DRET.      06.18.56 19-Apr-20:  Drill End Time 
 DRST.      15.00.56 15-Apr-20:  Drill Start Tim 
 DTIM.hr                 51.73:  Time Drilling 
 EDEP.m                3410.01:  End Depth 
 ENG1.        Marcelo Sandoval:  Engineer 1 
 ENG2.        Davud Huseynzade:  Engineer 2 
 ENG3.          Ruslan Safarov:  Engineer 3 
 ETIM.      04.00.56 20-Apr-20:  End Time 
 FLOI.gpm              1000.00:  Flow In 
 FLON.gpm               600.00:  Flow In Min 
 FLOS.cptm                0.00:  Fluid Loss 
 FLOX.gpm              1200.00:  Flow In Max 
 HFLO.                      No:  High Flow 
 HPRE.                     Yes:  High Pressure 
 HTEM.                      No:  High Temp 
 HYDO.m                   1.80:  Hydro Offset 
 IFIN.deg                70.04:  Inc, Final 
 IMAX.deg                70.56:  Inc Max 
 IMIN.deg                69.85:  Inc Min 
 IMND.m                3103.24:  Inc Min Depth 
 IMXD.m                2876.63:  Inc Max Depth 
 JARR.                      No:  Jarring 
 LETM.      06.18.56 19-Apr-20:  Log End Time 
 LOST.hr                     0:  Lost Rig Time 
 LSTM.      15.00.56 15-Apr-20:  Log Start Time 
 MDCL.ppm             42000.00:  Mud Chlorides 
 MDES.     Inversion Oil/Synthetic:  Mud Desc 
 DFD .sg                  1.58:  Mud Density 
 MDMN.sg                  1.58:  Dens Mud Min 
 MDMX.sg                  1.58:  Dens Mud Max 
 MOIL.                      71:  Run Mud Oil % 
 MOWR.                   71:29:  Run Mud OWR 
 MSND.                       0:  Run Mud Sand % 
 MSOL.                    23.3:  Run Mud Solids% 
 DFV .spqt               84.00:  Mud Viscosity 
 MWOD.in                  9.50:  MWD Tool OD 
 MWSI.                      No:  Serv Intrp, MWD 
 OTIM.hr                139.62:  Time Operating 
 PMAX.psia             5364.69:  Press Op, Max 
 PV  .cP                 80.00:  Mud PV 
 RUN .                     700:  Run Number 
 ROPA.m/hr               25.00:  ROP Avg 
 ROPN.m/hr               11.00:  ROP Min 
 ROPX.m/hr               36.00:  ROP Max 
 RPMA.rpm               130.00:  RPM Surface Avg 
 RPMN.rpm               120.00:  RPM Surface Min 
 RPMX.rpm               140.00:  RPM Surface Max 
 RRUN.                    0700:  Rig Run Number 
 SAZI.deg               183.25:  Azm, Start 
 SDEP.m                2084.00:  Start Depth 
 SIDD.                      No:  Serv Intrp, DD 
 SINC.deg                70.38:  Inc, Start 
 SPPA.psig             4800.00:  SPP Avg 
 SPPN.psig             4400.00:  SPP Min 
 SPPX.psig             5350.00:  SPP Max 
 STIM.      16.30.56 14-Apr-20:  Start Time 
 SVCS.                 DD, MWD:  Services 
 SVER.                    9.20:  Sperry Version 
 TDAT.m                1326.00:  Tot Depth Attmp 
 TDDF.                      No:  Trip for DD 
 TDLG.m                1326.00:  Tot Depth Loggd 
 TFF .                      No:  Trip for Fail 
 TQAA.f-kp               19.00:  Torque Abs Avg 
 TQAN.f-kp                8.00:  Torque Abs Min 
 TQAX.f-kp               27.00:  Torque Abs Max 
 TRRT.°/30m               0.50:  Turn Rotating 
 MRT .                    HCIM:  Maximum Recorded Temperature 
 TTMX.degC               82.35:  Max Tool Temp 
 VS01.       905245875X1Z1W1C8:  Virtual Str1 SN 
 VS02.       90608022F11V7D1A9:  Virtual Str2 SN 
 VS03.            90605473R5C9:  Virtual Str3 SN 
 WBMN.klb                11.00:  WOB Min 
 WOBA.klb                21.00:  WOB Avg 
 WOBX.klb                30.00:  WOB Max 
 YP  .lhf2               45.00:  Yield Point 
~Curve Information Block
#MNEM.UNIT                 API CODE     Curve Description
#---------               -----------    ---------------------------
 TIME.HHMMSS            00 000 000 000:  GT Time & Date
 GTDEPTH.m              00 000 000 000:  GT Depth
 GTPQH.psia             00 000 000 000:  GT HR Quartz Pressure
 GTTQ.degC              00 000 000 000:  GT Quartz Temperature
 GTTN.NONE              00 000 000 000:  GT Test Number
 GTET.sec               00 000 000 000:  GT Elapsed Test Time
 GTTVD.m                00 000 000 000:  GT True Vertical Depth
#Other Information
#
#WARRANTY: Halliburton will use its best efforts to furnish customers with 
#accurate information and interpretations that are part of, and incident to, the services 
#provided.  However, Halliburton cannot and does not warrant the accuracy 
#or correctness of such information and interpretations.  Under no circumstances should any 
#such information or interpretation be relied upon as the sole basis for any drilling, 
#completion, production, or financial decision or any procedure involving any risk to the 
#safety of any drilling venture, drilling rig or its crew or any other third party.  The 
#Customer has full responsibility for all drilling, completion and production operation.  
#Halliburton makes no representations or warranties, either expressed or 
#implied, including, but not limited to, the implied warranties of merchantability or fitness 
#for a particular purpose, with respect to the services rendered.  In no event will 
#Halliburton be liable for failure to obtain any particular results or for 
#any damages, including, but not limited to, indirect, special or consequential damages, 
#resulting from the use of any information or interpretation provided by Halliburton.
#
~A           TIME           GTDEPTH  GTPQH  GTTQ  GTTN  GTET   GTTVD  
# ...
   08:50:06.372.18-Apr-2020 3032.52 3389.25 69.35 3.00 184.02 1949.78
   08:50:06.572.18-Apr-2020 3032.52 3389.25 69.35 3.00 184.22 1949.78
   08:50:06.772.18-Apr-2020 3032.52 3389.23 69.35 3.00 184.42 1949.78
   08:50:06.972.18-Apr-2020 3032.52 3389.25 69.35 3.00 184.62 1949.78
   08:50:07.172.18-Apr-2020 3032.52 3389.24 69.34 3.00 184.82 1949.78
   08:50:07.372.18-Apr-2020 3032.52 3389.26 69.34 3.00 185.02 1949.78
   08:50:07.572.18-Apr-2020 3032.52 3389.25 69.34 3.00 185.22 1949.78
   08:50:07.772.18-Apr-2020 3032.52 3389.26 69.34 3.00 185.42 1949.78
   08:50:07.972.18-Apr-2020 3032.52 3389.24 69.34 3.00 185.63 1949.78
   08:50:08.172.18-Apr-2020 3032.52 3389.24 69.34 3.00 185.83 1949.78
   08:50:08.372.18-Apr-2020 3032.52 3389.24 69.34 3.00 186.03 1949.78
   08:50:08.572.18-Apr-2020 3032.52 3389.24 69.34 3.00 186.23 1949.78
   08:50:08.772.18-Apr-2020 3032.52 3389.24 69.34 3.00 186.43 1949.78
   08:50:08.972.18-Apr-2020 3032.52 3389.24 69.34 3.00 186.63 1949.78
   08:50:09.172.18-Apr-2020 3032.52 3389.23 69.33 3.00 186.83 1949.78
   08:50:09.372.18-Apr-2020 3032.52 3389.23 69.33 3.00 187.03 1949.78
   08:50:09.572.18-Apr-2020 3032.52 3389.23 69.33 3.00 187.23 1949.78
   08:50:09.772.18-Apr-2020 3032.52 3389.22 69.33 3.00 187.43 1949.78
   08:50:09.972.18-Apr-2020 3032.52 3389.26 69.33 3.00 187.63 1949.78
   08:50:10.172.18-Apr-2020 3032.52 3389.25 69.33 3.00 187.83 1949.78
   08:50:10.372.18-Apr-2020 3032.52 3389.25 69.33 3.00 188.03 1949.78
   08:50:10.572.18-Apr-2020 3032.52 3389.25 69.33 3.00 188.23 1949.78
   08:50:10.772.18-Apr-2020 3032.52 3389.25 69.33 3.00 188.43 1949.78
   08:50:10.973.18-Apr-2020 3032.52 3389.25 69.33 3.00 188.63 1949.78
   08:50:11.173.18-Apr-2020 3032.52 3389.24 69.32 3.00 188.83 1949.78
   08:50:11.373.18-Apr-2020 3032.52 3389.24 69.32 3.00 189.03 1949.78
   08:50:11.573.18-Apr-2020 3032.52 3389.25 69.32 3.00 189.23 1949.78
   08:50:11.773.18-Apr-2020 3032.52 3389.25 69.32 3.00 189.43 1949.78
   08:50:11.973.18-Apr-2020 3032.52 3389.24 69.32 3.00 189.63 1949.78
   08:50:12.173.18-Apr-2020 3032.52 3389.23 69.32 3.00 189.83 1949.78
   08:50:12.373.18-Apr-2020 3032.52 3389.23 69.32 3.00 190.03 1949.78
   08:50:12.573.18-Apr-2020 3032.52 3389.23 69.32 3.00 190.23 1949.78
   08:50:12.773.18-Apr-2020 3032.52 3389.25 69.32 3.00 190.43 1949.78
   08:50:12.973.18-Apr-2020 3032.52 3389.24 69.32 3.00 190.63 1949.78
   08:50:13.173.18-Apr-2020 3032.52 3389.25 69.31 3.00 190.83 1949.78
   08:50:13.373.18-Apr-2020 3032.52 3389.25 69.31 3.00 191.03 1949.78
   08:50:13.573.18-Apr-2020 3032.52 3389.25 69.31 3.00 191.23 1949.78
   08:50:13.773.18-Apr-2020 3032.52 3389.24 69.31 3.00 191.43 1949.78
   08:50:13.973.18-Apr-2020 3032.52 3389.26 69.31 3.00 191.63 1949.78
   08:50:14.173.18-Apr-2020 3032.52 3389.27 69.31 3.00 191.83 1949.78
   08:50:14.373.18-Apr-2020 3032.52 3389.25 69.31 3.00 192.03 1949.78
   08:50:14.573.18-Apr-2020 3032.52 3389.25 69.31 3.00 192.23 1949.78
   08:50:14.773.18-Apr-2020 3032.52 3389.23 69.31 3.00 192.43 1949.78
   08:50:14.973.18-Apr-2020 3032.52 3389.27 69.31 3.00 192.63 1949.78
   08:50:15.173.18-Apr-2020 3032.52 3389.27 69.30 3.00 192.83 1949.78
   08:50:15.373.18-Apr-2020 3032.52 3389.25 69.30 3.00 193.03 1949.78
   08:50:15.573.18-Apr-2020 3032.52 3389.23 69.30 3.00 193.23 1949.78
   08:50:15.773.18-Apr-2020 3032.52 3389.23 69.30 3.00 193.43 1949.78
   08:50:15.973.18-Apr-2020 3032.52 3389.26 69.30 3.00 193.63 1949.78
   08:50:16.173.18-Apr-2020 3032.52 3389.25 69.30 3.00 193.83 1949.78
   08:50:16.373.18-Apr-2020 3032.52 3389.23 69.30 3.00 194.03 1949.78
   08:50:16.573.18-Apr-2020 3032.52 3389.23 69.30 3.00 194.23 1949.78
   08:50:16.773.18-Apr-2020 3032.52 3389.24 69.30 3.00 194.43 1949.78
   08:50:16.973.18-Apr-2020 3032.52 3389.24 69.30 3.00 194.63 1949.78
   08:50:17.173.18-Apr-2020 3032.52 3389.23 69.29 3.00 194.83 1949.78
   08:50:17.373.18-Apr-2020 3032.52 3389.24 69.29 3.00 195.03 1949.78
   08:50:17.573.18-Apr-2020 3032.52 3389.24 69.29 3.00 195.23 1949.78
   08:50:17.773.18-Apr-2020 3032.52 3389.24 69.29 3.00 195.43 1949.78
   08:50:17.973.18-Apr-2020 3032.52 3389.23 69.29 3.00 195.63 1949.78
   08:50:18.173.18-Apr-2020 3032.52 3389.24 69.29 3.00 195.83 1949.78
   08:50:18.374.18-Apr-2020 3032.52 3389.24 69.29 3.00 196.03 1949.78
   08:50:18.574.18-Apr-2020 3032.52 3389.24 69.29 3.00 196.23 1949.78
   08:50:18.774.18-Apr-2020 3032.52 3389.26 69.29 3.00 196.43 1949.78
   08:50:18.974.18-Apr-2020 3032.52 3389.26 69.29 3.00 196.63 1949.78
   08:50:19.174.18-Apr-2020 3032.52 3389.25 69.28 3.00 196.83 1949.78
   08:50:19.374.18-Apr-2020 3032.52 3389.25 69.28 3.00 197.03 1949.78
   08:50:19.574.18-Apr-2020 3032.52 3389.25 69.28 3.00 197.23 1949.78
   08:50:19.774.18-Apr-2020 3032.52 3389.25 69.28 3.00 197.43 1949.78
   08:50:19.974.18-Apr-2020 3032.52 3389.25 69.28 3.00 197.63 1949.78
   08:50:20.174.18-Apr-2020 3032.52 3389.24 69.28 3.00 197.83 1949.78
   08:50:20.374.18-Apr-2020 3032.52 3389.24 69.28 3.00 198.03 1949.78
   08:50:20.574.18-Apr-2020 3032.52 3389.24 69.28 3.00 198.23 1949.78
   08:50:20.774.18-Apr-2020 3032.52 3389.24 69.28 3.00 198.43 1949.78
   08:50:20.974.18-Apr-2020 3032.52 3389.24 69.28 3.00 198.63 1949.78
   08:50:21.174.18-Apr-2020 3032.52 3389.23 69.27 3.00 198.83 1949.78
   08:50:21.374.18-Apr-2020 3032.52 3389.25 69.27 3.00 199.03 1949.78
   08:50:21.574.18-Apr-2020 3032.52 3389.25 69.27 3.00 199.23 1949.78
   08:50:21.774.18-Apr-2020 3032.52 3389.25 69.27 3.00 199.43 1949.78
   08:50:21.974.18-Apr-2020 3032.52 3389.23 69.27 3.00 199.63 1949.78
   08:50:22.174.18-Apr-2020 3032.52 3389.27 69.27 3.00 199.83 1949.78
   08:50:22.374.18-Apr-2020 3032.52 3389.26 69.27 3.00 200.03 1949.78
   08:50:22.574.18-Apr-2020 3032.52 3389.26 69.27 3.00 200.23 1949.78
   08:50:22.774.18-Apr-2020 3032.52 3389.23 69.27 3.00 200.43 1949.78
   08:50:22.974.18-Apr-2020 3032.52 3389.26 69.27 3.00 200.63 1949.78
   08:50:23.174.18-Apr-2020 3032.52 3389.26 69.26 3.00 200.83 1949.78
   08:50:23.374.18-Apr-2020 3032.52 3389.25 69.26 3.00 201.03 1949.78
   08:50:23.574.18-Apr-2020 3032.52 3389.25 69.26 3.00 201.23 1949.78
   08:50:23.774.18-Apr-2020 3032.52 3389.25 69.26 3.00 201.43 1949.78
   08:50:23.974.18-Apr-2020 3032.52 3389.26 69.26 3.00 201.63 1949.78
   08:50:24.174.18-Apr-2020 3032.52 3389.25 69.26 3.00 201.83 1949.78
   08:50:24.374.18-Apr-2020 3032.52 3389.25 69.26 3.00 202.03 1949.78
   08:50:24.574.18-Apr-2020 3032.52 3389.25 69.26 3.00 202.23 1949.78
   08:50:24.774.18-Apr-2020 3032.52 3389.27 69.26 3.00 202.43 1949.78
   08:50:24.974.18-Apr-2020 3032.52 3389.26 69.26 3.00 202.63 1949.78
   08:50:25.174.18-Apr-2020 3032.52 3389.25 69.25 3.00 202.83 1949.78
   08:50:25.374.18-Apr-2020 3032.52 3389.25 69.25 3.00 203.03 1949.78
   08:50:25.574.18-Apr-2020 3032.52 3389.25 69.25 3.00 203.23 1949.78
   08:50:25.775.18-Apr-2020 3032.52 3389.26 69.25 3.00 203.43 1949.78
   08:50:25.975.18-Apr-2020 3032.52 3389.25 69.25 3.00 203.63 1949.78
   08:50:26.175.18-Apr-2020 3032.52 3389.24 69.25 3.00 203.83 1949.78
   08:50:26.375.18-Apr-2020 3032.52 3389.25 69.25 3.00 204.03 1949.78
   08:50:26.575.18-Apr-2020 3032.52 3389.25 69.25 3.00 204.23 1949.78
   08:50:26.775.18-Apr-2020 3032.52 3389.24 69.25 3.00 204.43 1949.78
   08:50:26.975.18-Apr-2020 3032.52 3389.24 69.25 3.00 204.63 1949.78
   08:50:27.175.18-Apr-2020 3032.52 3389.24 69.24 3.00 204.83 1949.78
   08:50:27.375.18-Apr-2020 3032.52 3389.24 69.24 3.00 205.03 1949.78
   08:50:27.575.18-Apr-2020 3032.52 3389.23 69.24 3.00 205.23 1949.78
   08:50:27.775.18-Apr-2020 3032.52 3389.25 69.24 3.00 205.43 1949.78
   08:50:27.975.18-Apr-2020 3032.52 3389.25 69.24 3.00 205.63 1949.78
   08:50:28.175.18-Apr-2020 3032.52 3389.25 69.24 3.00 205.83 1949.78
   08:50:28.375.18-Apr-2020 3032.52 3389.24 69.24 3.00 206.03 1949.78
   08:50:28.575.18-Apr-2020 3032.52 3389.24 69.24 3.00 206.23 1949.78
   08:50:28.775.18-Apr-2020 3032.52 3389.24 69.24 3.00 206.43 1949.78
   08:50:28.975.18-Apr-2020 3032.52 3389.25 69.24 3.00 206.63 1949.78
   08:50:29.175.18-Apr-2020 3032.52 3389.25 69.23 3.00 206.83 1949.78
