~Version Information
 VERS.                  2.0:   CWLS log ASCII Standard -VERSION 2.0
 WRAP.                   NO:   One line per depth step
~Well Information Block
#MNEM.UNIT     VALUE/NAME     DESCRIPTION
#---------     -----------    ---------------------------
 STRT.S             07:07:08 18-Apr-20: START TIME 07:07:08 18-Apr-20
 STOP.S             07:14:03 18-Apr-20: STOP TIME  07:14:03 18-Apr-20
 STEP.S                   0.00: STEP TIME
 NULL.                 -999.25: NULL VALUE
 DFWT.                        :  DIST FWL TEXT
 DFST.                        :  DIST FSL TEXT
 DMF .                        :  DRILL MEAS FROM
 STIM.      16.29.52 23-Mar-20:  START TIME
 DATE.      16.29.52 23-Mar-20:  END TIME
 SPUD.               23-Mar-20:  SPUD DATE
 NREF.                    Grid:  NORTH REFERENCE
 HPTY.       Minimum Curvature:  HOLE POS TYPE
 DMOD.             Drill Model:  DRILL MOD DESC
 SVYD.                  Survey:  SURVEY DESC
 ILTD.               Lithology:  INTERP LTH DESC
 FTOP.          Formation Tops:  FORM TOPS DESC
 SON .        AZ-XX-0906252240:  JOB NUMBER
 RIG .             West Chirag:  RIG NAME
 PDAT.          Mean Sea Level:  PERMANENT DATUM
 FLD .                     ACG:  FIELD NAME
 CTRY.              Azerbaijan:  COUNTRY NAME
 WELL.           J23 (Slot 07):  WELL NAME
 SRVC.          Turan Drilling:  CONTRACTOR
 COMP.     BP Exploration (Casoian Sea) Ltd:  COMPANY
 WTYP.                Deviated:  WELL TYPE
 MDS .        Operator Entered:  MAG DATA SOURCE
 UWI .                     N/A:  UNIQUE WELL IDENTIFIER
 API .                     N/A:  API NUMBER
 BASE.              Azerbaijan:  LOGGING EQUIPMENT BASE LOCATION
 REGN.                   EESSA:  REGION
 PROV.                    Baku:  PROVINCE
 STAT.                    Baku:  STATE NAME
 MWDS.                     N/A:  MWD SHOP
 JOBN.        AZ-XX-0906252240:  JOB TICKET NUMB
 DOE .                     N/A:  DOE NUMBER
 DCON.         Sperry Drilling:  DIRECTNL CONTR
 UNIT.                     N/A:  LOGGING EQUIPMENT ID
 CNTY.                        :  COUNTY
 LOC .                        :  LOCATION
 LMF .             Drill Floor:  LOG MEASURED FROM
 TVDS.m                  43.00:  TVDSS CORRECTN
 LATI.deg                40.13:  LATITUDE
 LONG.deg                51.22:  LONGITUDE
 WHNS.m                   9.43:  WELL HEAD N/S
 WHEW.m                  -8.91:  WELL HEAD E/W
 UTMX.m              519005.06:  UTM X
 UTMY.m             4443793.85:  UTM Y
 DFWL.m                   0.00:  DISTANCE FWL
 DFSL.m                   0.00:  DISTANCE FSL
 SDEP.m                   0.00:  START DEPTH
 TDD .m                   0.00:  TOTAL DEPTH (DRILLER)
 VSDR.deg               179.88:  VERT SEC DIRECT
 GVFD.g                   1.00:  GRAVITY FIELD
 MFLD.nT              50281.00:  MAGNETIC FIELD
 MDIP.deg                59.58:  MAGNETIC DIP
 MDEC.deg                 6.48:  MAGNETIC DECL
 GRDC.deg                 0.14:  GRID CORRECTION
 AZTC.deg                 6.34:  AZM TOTAL CORR
 EPD .m                   0.00:  ELEVATION
 EGL .m                   0.00:  GROUND ELEVATION
 WDMS.m                 169.80:  WD ELEV
 APD .m                  43.00:  DEPTH ABOVE PD
 DEP .m                 354.17:  DEPTH
 AGAP.m                  43.00:  AIR GAP
 VSEW.m                  -8.91:  VERT SEC E/W
 VSNS.m                   9.43:  VERT SEC N/S
 EKB .m                   0.00:  KB ELEVATION
 EDF .m                  43.00:  DF ELEVATION
 TDL .m                1326.00:  TOTAL DEPTH (LOGGER)
 VSC .                       0:  VS TO CLOSURE
 MAGU.                 1850704:  MAGUTM CHECKSUM
~Parameter Information Block
#MNEM.UNIT       Value        Description
#---------     -----------    ---------------------------
 AV  .mps                 1.17:  Ann Velocity 
 AZIF.deg               184.04:  Azm, Final 
 BHAT.        Rotary Steerable:  BHA Type 
 BREV.rev            620000.00:  Rev Bit Total 
 BROT.°/30m               0.20:  Build Rotating 
 BS  .in                 14.75:  Bit Size 
 BSZ .in                 14.75:  Bit Size 
 BTPL.psig              618.00:  Bit Press Loss 
 CABU.                      No:  Customer Abuse 
 COMM.                     îb:  Run Comments 1 
 TCS .hr                 87.68:  Time Ciculation Ended 
 CV  .mps                 3.10:  Crit Velocity 
 DD1 .          Rashad Habibov:  Direct Drillr 1 
 DD2 .         Rasim Ibrahimov:  Direct Drillr 2 
 DDSV.               Geo-Pilot:  DD Service 
 DEFF.%                  98.00:  % Det Eff 
 DLRX.°/30m               1.48:  Dogleg Rot Max 
 DLSO.°/30m               0.50:  Dogleg Oriented 
 DLSX.°/30m               1.48:  Dogleg Str Max 
 DRET.      06.18.56 19-Apr-20:  Drill End Time 
 DRST.      15.00.56 15-Apr-20:  Drill Start Tim 
 DTIM.hr                 51.73:  Time Drilling 
 EDEP.m                3410.01:  End Depth 
 ENG1.        Marcelo Sandoval:  Engineer 1 
 ENG2.        Davud Huseynzade:  Engineer 2 
 ENG3.          Ruslan Safarov:  Engineer 3 
 ETIM.      04.00.56 20-Apr-20:  End Time 
 FLOI.gpm              1000.00:  Flow In 
 FLON.gpm               600.00:  Flow In Min 
 FLOS.cptm                0.00:  Fluid Loss 
 FLOX.gpm              1200.00:  Flow In Max 
 HFLO.                      No:  High Flow 
 HPRE.                     Yes:  High Pressure 
 HTEM.                      No:  High Temp 
 HYDO.m                   1.80:  Hydro Offset 
 IFIN.deg                70.04:  Inc, Final 
 IMAX.deg                70.56:  Inc Max 
 IMIN.deg                69.85:  Inc Min 
 IMND.m                3103.24:  Inc Min Depth 
 IMXD.m                2876.63:  Inc Max Depth 
 JARR.                      No:  Jarring 
 LETM.      06.18.56 19-Apr-20:  Log End Time 
 LOST.hr                     0:  Lost Rig Time 
 LSTM.      15.00.56 15-Apr-20:  Log Start Time 
 MDCL.ppm             42000.00:  Mud Chlorides 
 MDES.     Inversion Oil/Synthetic:  Mud Desc 
 DFD .sg                  1.58:  Mud Density 
 MDMN.sg                  1.58:  Dens Mud Min 
 MDMX.sg                  1.58:  Dens Mud Max 
 MOIL.                      71:  Run Mud Oil % 
 MOWR.                   71:29:  Run Mud OWR 
 MSND.                       0:  Run Mud Sand % 
 MSOL.                    23.3:  Run Mud Solids% 
 DFV .spqt               84.00:  Mud Viscosity 
 MWOD.in                  9.50:  MWD Tool OD 
 MWSI.                      No:  Serv Intrp, MWD 
 OTIM.hr                139.62:  Time Operating 
 PMAX.psia             5364.69:  Press Op, Max 
 PV  .cP                 80.00:  Mud PV 
 RUN .                     700:  Run Number 
 ROPA.m/hr               25.00:  ROP Avg 
 ROPN.m/hr               11.00:  ROP Min 
 ROPX.m/hr               36.00:  ROP Max 
 RPMA.rpm               130.00:  RPM Surface Avg 
 RPMN.rpm               120.00:  RPM Surface Min 
 RPMX.rpm               140.00:  RPM Surface Max 
 RRUN.                    0700:  Rig Run Number 
 SAZI.deg               183.25:  Azm, Start 
 SDEP.m                2084.00:  Start Depth 
 SIDD.                      No:  Serv Intrp, DD 
 SINC.deg                70.38:  Inc, Start 
 SPPA.psig             4800.00:  SPP Avg 
 SPPN.psig             4400.00:  SPP Min 
 SPPX.psig             5350.00:  SPP Max 
 STIM.      16.30.56 14-Apr-20:  Start Time 
 SVCS.                 DD, MWD:  Services 
 SVER.                    9.20:  Sperry Version 
 TDAT.m                1326.00:  Tot Depth Attmp 
 TDDF.                      No:  Trip for DD 
 TDLG.m                1326.00:  Tot Depth Loggd 
 TFF .                      No:  Trip for Fail 
 TQAA.f-kp               19.00:  Torque Abs Avg 
 TQAN.f-kp                8.00:  Torque Abs Min 
 TQAX.f-kp               27.00:  Torque Abs Max 
 TRRT.°/30m               0.50:  Turn Rotating 
 MRT .                    HCIM:  Maximum Recorded Temperature 
 TTMX.degC               82.35:  Max Tool Temp 
 VS01.       905245875X1Z1W1C8:  Virtual Str1 SN 
 VS02.       90608022F11V7D1A9:  Virtual Str2 SN 
 VS03.            90605473R5C9:  Virtual Str3 SN 
 WBMN.klb                11.00:  WOB Min 
 WOBA.klb                21.00:  WOB Avg 
 WOBX.klb                30.00:  WOB Max 
 YP  .lhf2               45.00:  Yield Point 
~Curve Information Block
#MNEM.UNIT                 API CODE     Curve Description
#---------               -----------    ---------------------------
 TIME.HHMMSS            00 000 000 000:  GT Time & Date
 GTDEPTH.m              00 000 000 000:  GT Depth
 GTPQH.psia             00 000 000 000:  GT HR Quartz Pressure
 GTTQ.degC              00 000 000 000:  GT Quartz Temperature
 GTTN.NONE              00 000 000 000:  GT Test Number
 GTET.sec               00 000 000 000:  GT Elapsed Test Time
 GTTVD.m                00 000 000 000:  GT True Vertical Depth
#Other Information
#
#WARRANTY: Halliburton will use its best efforts to furnish customers with 
#accurate information and interpretations that are part of, and incident to, the services 
#provided.  However, Halliburton cannot and does not warrant the accuracy 
#or correctness of such information and interpretations.  Under no circumstances should any 
#such information or interpretation be relied upon as the sole basis for any drilling, 
#completion, production, or financial decision or any procedure involving any risk to the 
#safety of any drilling venture, drilling rig or its crew or any other third party.  The 
#Customer has full responsibility for all drilling, completion and production operation.  
#Halliburton makes no representations or warranties, either expressed or 
#implied, including, but not limited to, the implied warranties of merchantability or fitness 
#for a particular purpose, with respect to the services rendered.  In no event will 
#Halliburton be liable for failure to obtain any particular results or for 
#any damages, including, but not limited to, indirect, special or consequential damages, 
#resulting from the use of any information or interpretation provided by Halliburton.
#
~A           TIME           GTDEPTH  GTPQH  GTTQ  GTTN  GTET   GTTVD  
# ...
   07:11:44.665.18-Apr-2020 3016.07 3348.61 70.02 2.00 276.03 1944.23
   07:11:44.865.18-Apr-2020 3016.07 3348.61 70.02 2.00 276.23 1944.23
   07:11:45.065.18-Apr-2020 3016.07 3348.77 70.02 2.00 276.43 1944.23
   07:11:45.265.18-Apr-2020 3016.07 3349.05 70.02 2.00 276.63 1944.23
   07:11:45.465.18-Apr-2020 3016.07 3348.81 70.02 2.00 276.83 1944.23
   07:11:45.665.18-Apr-2020 3016.07 3348.86 70.02 2.00 277.03 1944.23
   07:11:45.865.18-Apr-2020 3016.07 3348.86 70.02 2.00 277.23 1944.23
   07:11:46.065.18-Apr-2020 3016.07 3349.37 70.02 2.00 277.43 1944.23
   07:11:46.265.18-Apr-2020 3016.07 3349.29 70.02 2.00 277.63 1944.23
   07:11:46.465.18-Apr-2020 3016.07 3349.25 70.02 2.00 277.83 1944.23
   07:11:46.665.18-Apr-2020 3016.07 3349.28 70.01 2.00 278.03 1944.23
   07:11:46.865.18-Apr-2020 3016.07 3349.28 70.01 2.00 278.23 1944.23
   07:11:47.065.18-Apr-2020 3016.07 3349.32 70.01 2.00 278.43 1944.23
   07:11:47.265.18-Apr-2020 3016.07 3349.10 70.01 2.00 278.63 1944.23
   07:11:47.465.18-Apr-2020 3016.07 3349.62 70.01 2.00 278.83 1944.23
   07:11:47.665.18-Apr-2020 3016.07 3349.73 70.01 2.00 279.03 1944.23
   07:11:47.865.18-Apr-2020 3016.07 3349.56 70.01 2.00 279.23 1944.23
   07:11:48.065.18-Apr-2020 3016.07 3349.62 70.01 2.00 279.43 1944.23
   07:11:48.265.18-Apr-2020 3016.07 3349.36 70.01 2.00 279.63 1944.23
   07:11:48.465.18-Apr-2020 3016.07 3349.41 70.01 2.00 279.83 1944.23
   07:11:48.665.18-Apr-2020 3016.07 3349.70 70.01 2.00 280.03 1944.23
   07:11:48.865.18-Apr-2020 3016.07 3349.70 70.01 2.00 280.23 1944.23
   07:11:49.065.18-Apr-2020 3016.07 3349.89 70.01 2.00 280.43 1944.23
   07:11:49.265.18-Apr-2020 3016.07 3349.73 70.01 2.00 280.63 1944.23
   07:11:49.465.18-Apr-2020 3016.07 3349.68 70.00 2.00 280.83 1944.23
   07:11:49.665.18-Apr-2020 3016.07 3349.48 70.00 2.00 281.03 1944.23
   07:11:49.865.18-Apr-2020 3016.07 3349.48 70.00 2.00 281.23 1944.23
   07:11:50.065.18-Apr-2020 3016.07 3349.74 70.00 2.00 281.43 1944.23
   07:11:50.266.18-Apr-2020 3016.07 3352.71 70.00 2.00 281.63 1944.23
   07:11:50.466.18-Apr-2020 3016.07 3375.56 70.00 2.00 281.83 1944.23
   07:11:50.666.18-Apr-2020 3016.07 3386.42 70.00 2.00 282.03 1944.23
   07:11:50.866.18-Apr-2020 3016.07 3386.42 70.00 2.00 282.23 1944.23
   07:11:51.066.18-Apr-2020 3016.07 3389.97 70.00 2.00 282.43 1944.23
   07:11:51.266.18-Apr-2020 3016.07 3390.16 70.00 2.00 282.63 1944.23
   07:11:51.466.18-Apr-2020 3016.07 3390.25 70.00 2.00 282.83 1944.23
   07:11:51.666.18-Apr-2020 3016.07 3390.29 70.00 2.00 283.03 1944.23
   07:11:51.866.18-Apr-2020 3016.07 3390.33 70.00 2.00 283.23 1944.23
   07:11:52.066.18-Apr-2020 3016.07 3390.36 69.99 2.00 283.43 1944.23
   07:11:52.266.18-Apr-2020 3016.07 3390.39 69.99 2.00 283.63 1944.23
   07:11:52.466.18-Apr-2020 3016.07 3390.42 69.99 2.00 283.83 1944.23
   07:11:52.666.18-Apr-2020 3016.07 3390.42 69.99 2.00 284.03 1944.23
   07:11:52.866.18-Apr-2020 3016.07 3390.42 69.99 2.00 284.23 1944.23
   07:11:53.066.18-Apr-2020 3016.07 3390.44 69.99 2.00 284.43 1944.23
   07:11:53.266.18-Apr-2020 3016.07 3390.46 69.99 2.00 284.63 1944.23
   07:11:53.466.18-Apr-2020 3016.07 3390.47 69.99 2.00 284.83 1944.23
   07:11:53.666.18-Apr-2020 3016.07 3390.48 69.99 2.00 285.03 1944.23
   07:11:53.866.18-Apr-2020 3016.07 3390.48 69.99 2.00 285.23 1944.23
   07:11:54.066.18-Apr-2020 3016.07 3390.51 69.99 2.00 285.43 1944.23
   07:11:54.266.18-Apr-2020 3016.07 3390.51 69.99 2.00 285.63 1944.23
   07:11:54.466.18-Apr-2020 3016.07 3390.50 69.99 2.00 285.83 1944.23
   07:11:54.666.18-Apr-2020 3016.07 3390.51 69.99 2.00 286.03 1944.23
   07:11:54.866.18-Apr-2020 3016.07 3390.51 69.99 2.00 286.23 1944.23
   07:11:55.066.18-Apr-2020 3016.07 3390.51 69.98 2.00 286.43 1944.23
   07:11:55.266.18-Apr-2020 3016.07 3390.55 69.98 2.00 286.63 1944.23
   07:11:55.466.18-Apr-2020 3016.07 3390.55 69.98 2.00 286.83 1944.23
   07:11:55.666.18-Apr-2020 3016.07 3390.54 69.98 2.00 287.03 1944.23
   07:11:55.866.18-Apr-2020 3016.07 3390.51 69.98 2.00 287.23 1944.23
   07:11:56.066.18-Apr-2020 3016.07 3390.54 69.98 2.00 287.43 1944.23
   07:11:56.266.18-Apr-2020 3016.07 3390.53 69.98 2.00 287.63 1944.23
   07:11:56.466.18-Apr-2020 3016.07 3390.52 69.98 2.00 287.83 1944.23
   07:11:56.666.18-Apr-2020 3016.07 3390.55 69.98 2.00 288.03 1944.23
   07:11:56.866.18-Apr-2020 3016.07 3390.55 69.98 2.00 288.23 1944.23
   07:11:57.066.18-Apr-2020 3016.07 3390.54 69.98 2.00 288.43 1944.23
   07:11:57.266.18-Apr-2020 3016.07 3390.54 69.98 2.00 288.63 1944.23
   07:11:57.466.18-Apr-2020 3016.07 3390.53 69.98 2.00 288.83 1944.23
   07:11:57.666.18-Apr-2020 3016.07 3390.53 69.97 2.00 289.03 1944.23
   07:11:57.866.18-Apr-2020 3016.07 3390.53 69.97 2.00 289.23 1944.23
   07:11:58.066.18-Apr-2020 3016.07 3390.55 69.97 2.00 289.43 1944.23
   07:11:58.266.18-Apr-2020 3016.07 3390.54 69.97 2.00 289.63 1944.23
   07:11:58.466.18-Apr-2020 3016.07 3390.55 69.97 2.00 289.83 1944.23
   07:11:58.666.18-Apr-2020 3016.07 3390.54 69.97 2.00 290.03 1944.23
   07:11:58.866.18-Apr-2020 3016.07 3390.54 69.97 2.00 290.23 1944.23
   07:11:59.066.18-Apr-2020 3016.07 3390.53 69.97 2.00 290.43 1944.23
   07:11:59.266.18-Apr-2020 3016.07 3390.53 69.97 2.00 290.63 1944.23
   07:11:59.467.18-Apr-2020 3016.07 3390.52 69.97 2.00 290.83 1944.23
   07:11:59.667.18-Apr-2020 3016.07 3390.54 69.97 2.00 291.03 1944.23
   07:11:59.867.18-Apr-2020 3016.07 3390.54 69.97 2.00 291.23 1944.23
   07:12:00.067.18-Apr-2020 3016.07 3390.53 69.97 2.00 291.43 1944.23
   07:12:00.267.18-Apr-2020 3016.07 3390.53 69.97 2.00 291.63 1944.23
   07:12:00.467.18-Apr-2020 3016.07 3390.53 69.96 2.00 291.83 1944.23
   07:12:00.667.18-Apr-2020 3016.07 3390.53 69.96 2.00 292.03 1944.23
   07:12:00.867.18-Apr-2020 3016.07 3390.53 69.96 2.00 292.23 1944.23
   07:12:01.067.18-Apr-2020 3016.07 3390.53 69.96 2.00 292.43 1944.23
   07:12:01.267.18-Apr-2020 3016.07 3390.53 69.96 2.00 292.63 1944.23
   07:12:01.467.18-Apr-2020 3016.07 3390.53 69.96 2.00 292.83 1944.23
   07:12:01.667.18-Apr-2020 3016.07 3390.52 69.96 2.00 293.03 1944.23
   07:12:01.867.18-Apr-2020 3016.07 3390.52 69.96 2.00 293.23 1944.23
   07:12:02.067.18-Apr-2020 3016.07 3390.50 69.96 2.00 293.43 1944.23
   07:12:02.267.18-Apr-2020 3016.07 3390.53 69.96 2.00 293.63 1944.23
   07:12:02.467.18-Apr-2020 3016.07 3390.53 69.96 2.00 293.83 1944.23
   07:12:02.667.18-Apr-2020 3016.07 3390.51 69.96 2.00 294.03 1944.23
   07:12:02.867.18-Apr-2020 3016.07 3390.51 69.96 2.00 294.23 1944.23
   07:12:03.067.18-Apr-2020 3016.07 3390.53 69.96 2.00 294.43 1944.23
   07:12:03.267.18-Apr-2020 3016.07 3390.53 69.95 2.00 294.63 1944.23
   07:12:03.467.18-Apr-2020 3016.07 3390.53 69.95 2.00 294.83 1944.23
   07:12:03.667.18-Apr-2020 3016.07 3390.51 69.95 2.00 295.03 1944.23
   07:12:03.867.18-Apr-2020 3016.07 3390.54 69.95 2.00 295.23 1944.23
   07:12:04.067.18-Apr-2020 3016.07 3390.53 69.95 2.00 295.43 1944.23
   07:12:04.267.18-Apr-2020 3016.07 3390.51 69.95 2.00 295.63 1944.23
   07:12:04.467.18-Apr-2020 3016.07 3390.51 69.95 2.00 295.83 1944.23
   07:12:04.667.18-Apr-2020 3016.07 3390.53 69.95 2.00 296.03 1944.23
   07:12:04.867.18-Apr-2020 3016.07 3390.53 69.95 2.00 296.23 1944.23
   07:12:05.067.18-Apr-2020 3016.07 3390.52 69.95 2.00 296.43 1944.23
   07:12:05.267.18-Apr-2020 3016.07 3390.51 69.95 2.00 296.63 1944.23
   07:12:05.467.18-Apr-2020 3016.07 3390.49 69.95 2.00 296.83 1944.23
   07:12:05.667.18-Apr-2020 3016.07 3390.52 69.95 2.00 297.03 1944.23
   07:12:05.867.18-Apr-2020 3016.07 3390.52 69.95 2.00 297.23 1944.23
   07:12:06.067.18-Apr-2020 3016.07 3390.52 69.94 2.00 297.43 1944.23
   07:12:06.267.18-Apr-2020 3016.07 3390.51 69.94 2.00 297.63 1944.23
   07:12:06.467.18-Apr-2020 3016.07 3390.51 69.94 2.00 297.83 1944.23
   07:12:06.667.18-Apr-2020 3016.07 3390.50 69.94 2.00 298.03 1944.23
   07:12:06.867.18-Apr-2020 3016.07 3390.50 69.94 2.00 298.23 1944.23
   07:12:07.067.18-Apr-2020 3016.07 3390.49 69.94 2.00 298.43 1944.23
   07:12:07.267.18-Apr-2020 3016.07 3390.48 69.94 2.00 298.63 1944.23
   07:12:07.467.18-Apr-2020 3016.07 3390.49 69.94 2.00 298.83 1944.23
