~Version Information
 VERS.                  2.0:   CWLS log ASCII Standard -VERSION 2.0
 WRAP.                   NO:   One line per depth step
~Well Information Block
#MNEM.UNIT     VALUE/NAME     DESCRIPTION
#---------     -----------    ---------------------------
 STRT.S             11:18:22 18-Apr-20: START TIME 11:18:22 18-Apr-20
 STOP.S             11:25:23 18-Apr-20: STOP TIME  11:25:23 18-Apr-20
 STEP.S                   0.00: STEP TIME
 NULL.                 -999.25: NULL VALUE
 DFWT.                        :  DIST FWL TEXT
 DFST.                        :  DIST FSL TEXT
 DMF .                        :  DRILL MEAS FROM
 STIM.      16.29.52 23-Mar-20:  START TIME
 DATE.      16.29.52 23-Mar-20:  END TIME
 SPUD.               23-Mar-20:  SPUD DATE
 NREF.                    Grid:  NORTH REFERENCE
 HPTY.       Minimum Curvature:  HOLE POS TYPE
 DMOD.             Drill Model:  DRILL MOD DESC
 SVYD.                  Survey:  SURVEY DESC
 ILTD.               Lithology:  INTERP LTH DESC
 FTOP.          Formation Tops:  FORM TOPS DESC
 SON .        AZ-XX-0906252240:  JOB NUMBER
 RIG .             West Chirag:  RIG NAME
 PDAT.          Mean Sea Level:  PERMANENT DATUM
 FLD .                     ACG:  FIELD NAME
 CTRY.              Azerbaijan:  COUNTRY NAME
 WELL.           J23 (Slot 07):  WELL NAME
 SRVC.          Turan Drilling:  CONTRACTOR
 COMP.     BP Exploration (Casoian Sea) Ltd:  COMPANY
 WTYP.                Deviated:  WELL TYPE
 MDS .        Operator Entered:  MAG DATA SOURCE
 UWI .                     N/A:  UNIQUE WELL IDENTIFIER
 API .                     N/A:  API NUMBER
 BASE.              Azerbaijan:  LOGGING EQUIPMENT BASE LOCATION
 REGN.                   EESSA:  REGION
 PROV.                    Baku:  PROVINCE
 STAT.                    Baku:  STATE NAME
 MWDS.                     N/A:  MWD SHOP
 JOBN.        AZ-XX-0906252240:  JOB TICKET NUMB
 DOE .                     N/A:  DOE NUMBER
 DCON.         Sperry Drilling:  DIRECTNL CONTR
 UNIT.                     N/A:  LOGGING EQUIPMENT ID
 CNTY.                        :  COUNTY
 LOC .                        :  LOCATION
 LMF .             Drill Floor:  LOG MEASURED FROM
 TVDS.m                  43.00:  TVDSS CORRECTN
 LATI.deg                40.13:  LATITUDE
 LONG.deg                51.22:  LONGITUDE
 WHNS.m                   9.43:  WELL HEAD N/S
 WHEW.m                  -8.91:  WELL HEAD E/W
 UTMX.m              519005.06:  UTM X
 UTMY.m             4443793.85:  UTM Y
 DFWL.m                   0.00:  DISTANCE FWL
 DFSL.m                   0.00:  DISTANCE FSL
 SDEP.m                   0.00:  START DEPTH
 TDD .m                   0.00:  TOTAL DEPTH (DRILLER)
 VSDR.deg               179.88:  VERT SEC DIRECT
 GVFD.g                   1.00:  GRAVITY FIELD
 MFLD.nT              50281.00:  MAGNETIC FIELD
 MDIP.deg                59.58:  MAGNETIC DIP
 MDEC.deg                 6.48:  MAGNETIC DECL
 GRDC.deg                 0.14:  GRID CORRECTION
 AZTC.deg                 6.34:  AZM TOTAL CORR
 EPD .m                   0.00:  ELEVATION
 EGL .m                   0.00:  GROUND ELEVATION
 WDMS.m                 169.80:  WD ELEV
 APD .m                  43.00:  DEPTH ABOVE PD
 DEP .m                 354.17:  DEPTH
 AGAP.m                  43.00:  AIR GAP
 VSEW.m                  -8.91:  VERT SEC E/W
 VSNS.m                   9.43:  VERT SEC N/S
 EKB .m                   0.00:  KB ELEVATION
 EDF .m                  43.00:  DF ELEVATION
 TDL .m                1326.00:  TOTAL DEPTH (LOGGER)
 VSC .                       0:  VS TO CLOSURE
 MAGU.                 1850704:  MAGUTM CHECKSUM
~Parameter Information Block
#MNEM.UNIT       Value        Description
#---------     -----------    ---------------------------
 AV  .mps                 1.17:  Ann Velocity 
 AZIF.deg               184.04:  Azm, Final 
 BHAT.        Rotary Steerable:  BHA Type 
 BREV.rev            620000.00:  Rev Bit Total 
 BROT.°/30m               0.20:  Build Rotating 
 BS  .in                 14.75:  Bit Size 
 BSZ .in                 14.75:  Bit Size 
 BTPL.psig              618.00:  Bit Press Loss 
 CABU.                      No:  Customer Abuse 
 TCS .hr                 87.68:  Time Ciculation Ended 
 CV  .mps                 3.10:  Crit Velocity 
 DD1 .          Rashad Habibov:  Direct Drillr 1 
 DD2 .         Rasim Ibrahimov:  Direct Drillr 2 
 DDSV.               Geo-Pilot:  DD Service 
 DEFF.%                  98.00:  % Det Eff 
 DLRX.°/30m               1.48:  Dogleg Rot Max 
 DLSO.°/30m               0.50:  Dogleg Oriented 
 DLSX.°/30m               1.48:  Dogleg Str Max 
 DRET.      06.18.56 19-Apr-20:  Drill End Time 
 DRST.      15.00.56 15-Apr-20:  Drill Start Tim 
 DTIM.hr                 51.73:  Time Drilling 
 EDEP.m                3410.01:  End Depth 
 ENG1.        Marcelo Sandoval:  Engineer 1 
 ENG2.        Davud Huseynzade:  Engineer 2 
 ENG3.          Ruslan Safarov:  Engineer 3 
 ETIM.      04.00.56 20-Apr-20:  End Time 
 FLOI.gpm              1000.00:  Flow In 
 FLON.gpm               600.00:  Flow In Min 
 FLOS.cptm                0.00:  Fluid Loss 
 FLOX.gpm              1200.00:  Flow In Max 
 HFLO.                      No:  High Flow 
 HPRE.                     Yes:  High Pressure 
 HTEM.                      No:  High Temp 
 HYDO.m                   1.80:  Hydro Offset 
 IFIN.deg                70.04:  Inc, Final 
 IMAX.deg                70.56:  Inc Max 
 IMIN.deg                69.85:  Inc Min 
 IMND.m                3103.24:  Inc Min Depth 
 IMXD.m                2876.63:  Inc Max Depth 
 JARR.                      No:  Jarring 
 LETM.      06.18.56 19-Apr-20:  Log End Time 
 LOST.hr                     0:  Lost Rig Time 
 LSTM.      15.00.56 15-Apr-20:  Log Start Time 
 MDCL.ppm             42000.00:  Mud Chlorides 
 MDES.     Inversion Oil/Synthetic:  Mud Desc 
 DFD .sg                  1.58:  Mud Density 
 MDMN.sg                  1.58:  Dens Mud Min 
 MDMX.sg                  1.58:  Dens Mud Max 
 MOIL.                      71:  Run Mud Oil % 
 MOWR.                   71:29:  Run Mud OWR 
 MSND.                       0:  Run Mud Sand % 
 MSOL.                    23.3:  Run Mud Solids% 
 DFV .spqt               84.00:  Mud Viscosity 
 MWOD.in                  9.50:  MWD Tool OD 
 MWSI.                      No:  Serv Intrp, MWD 
 OTIM.hr                139.62:  Time Operating 
 PMAX.psia             5364.69:  Press Op, Max 
 PV  .cP                 80.00:  Mud PV 
 RUN .                     700:  Run Number 
 ROPA.m/hr               25.00:  ROP Avg 
 ROPN.m/hr               11.00:  ROP Min 
 ROPX.m/hr               36.00:  ROP Max 
 RPMA.rpm               130.00:  RPM Surface Avg 
 RPMN.rpm               120.00:  RPM Surface Min 
 RPMX.rpm               140.00:  RPM Surface Max 
 RRUN.                    0700:  Rig Run Number 
 SAZI.deg               183.25:  Azm, Start 
 SDEP.m                2084.00:  Start Depth 
 SIDD.                      No:  Serv Intrp, DD 
 SINC.deg                70.38:  Inc, Start 
 SPPA.psig             4800.00:  SPP Avg 
 SPPN.psig             4400.00:  SPP Min 
 SPPX.psig             5350.00:  SPP Max 
 STIM.      16.30.56 14-Apr-20:  Start Time 
 SVCS.                 DD, MWD:  Services 
 SVER.                    9.20:  Sperry Version 
 TDAT.m                1326.00:  Tot Depth Attmp 
 TDDF.                      No:  Trip for DD 
 TDLG.m                1326.00:  Tot Depth Loggd 
 TFF .                      No:  Trip for Fail 
 TQAA.f-kp               19.00:  Torque Abs Avg 
 TQAN.f-kp                8.00:  Torque Abs Min 
 TQAX.f-kp               27.00:  Torque Abs Max 
 TRRT.°/30m               0.50:  Turn Rotating 
 MRT .                    HCIM:  Maximum Recorded Temperature 
 TTMX.degC               82.35:  Max Tool Temp 
 VS01.       905245875X1Z1W1C8:  Virtual Str1 SN 
 VS02.       90608022F11V7D1A9:  Virtual Str2 SN 
 VS03.            90605473R5C9:  Virtual Str3 SN 
 WBMN.klb                11.00:  WOB Min 
 WOBA.klb                21.00:  WOB Avg 
 WOBX.klb                30.00:  WOB Max 
 YP  .lhf2               45.00:  Yield Point 
~Curve Information Block
#MNEM.UNIT                 API CODE     Curve Description
#---------               -----------    ---------------------------
 TIME.HHMMSS            00 000 000 000:  GT Time & Date
 GTDEPTH.m              00 000 000 000:  GT Depth
 GTPQH.psia             00 000 000 000:  GT HR Quartz Pressure
 GTTQ.degC              00 000 000 000:  GT Quartz Temperature
 GTTN.NONE              00 000 000 000:  GT Test Number
 GTET.sec               00 000 000 000:  GT Elapsed Test Time
 GTTVD.m                00 000 000 000:  GT True Vertical Depth
#Other Information
#
#WARRANTY: Halliburton will use its best efforts to furnish customers with 
#accurate information and interpretations that are part of, and incident to, the services 
#provided.  However, Halliburton cannot and does not warrant the accuracy 
#or correctness of such information and interpretations.  Under no circumstances should any 
#such information or interpretation be relied upon as the sole basis for any drilling, 
#completion, production, or financial decision or any procedure involving any risk to the 
#safety of any drilling venture, drilling rig or its crew or any other third party.  The 
#Customer has full responsibility for all drilling, completion and production operation.  
#Halliburton makes no representations or warranties, either expressed or 
#implied, including, but not limited to, the implied warranties of merchantability or fitness 
#for a particular purpose, with respect to the services rendered.  In no event will 
#Halliburton be liable for failure to obtain any particular results or for 
#any damages, including, but not limited to, indirect, special or consequential damages, 
#resulting from the use of any information or interpretation provided by Halliburton.
#
~A           TIME           GTDEPTH  GTPQH  GTTQ  GTTN  GTET   GTTVD  
# ...
   11:20:17.584.18-Apr-2020 3074.89 3315.74 69.68 4.00 115.02 1964.21
   11:20:17.784.18-Apr-2020 3074.89 3315.74 69.68 4.00 115.22 1964.21
   11:20:17.984.18-Apr-2020 3074.89 3315.77 69.68 4.00 115.42 1964.21
   11:20:18.184.18-Apr-2020 3074.89 3315.73 69.68 4.00 115.62 1964.21
   11:20:18.384.18-Apr-2020 3074.89 3315.80 69.68 4.00 115.82 1964.21
   11:20:18.584.18-Apr-2020 3074.89 3315.78 69.68 4.00 116.02 1964.21
   11:20:18.784.18-Apr-2020 3074.89 3315.78 69.68 4.00 116.22 1964.21
   11:20:18.984.18-Apr-2020 3074.89 3315.77 69.68 4.00 116.42 1964.21
   11:20:19.184.18-Apr-2020 3074.89 3315.75 69.68 4.00 116.62 1964.21
   11:20:19.384.18-Apr-2020 3074.89 3315.77 69.68 4.00 116.82 1964.21
   11:20:19.584.18-Apr-2020 3074.89 3315.78 69.67 4.00 117.02 1964.21
   11:20:19.784.18-Apr-2020 3074.89 3315.78 69.67 4.00 117.22 1964.21
   11:20:19.984.18-Apr-2020 3074.89 3315.76 69.67 4.00 117.42 1964.21
   11:20:20.184.18-Apr-2020 3074.89 3315.76 69.67 4.00 117.62 1964.21
   11:20:20.384.18-Apr-2020 3074.89 3315.73 69.67 4.00 117.82 1964.21
   11:20:20.584.18-Apr-2020 3074.89 3315.79 69.67 4.00 118.02 1964.21
   11:20:20.784.18-Apr-2020 3074.89 3315.79 69.67 4.00 118.22 1964.21
   11:20:20.984.18-Apr-2020 3074.89 3315.74 69.67 4.00 118.42 1964.21
   11:20:21.184.18-Apr-2020 3074.89 3315.78 69.67 4.00 118.62 1964.21
   11:20:21.384.18-Apr-2020 3074.89 3315.76 69.67 4.00 118.82 1964.21
   11:20:21.584.18-Apr-2020 3074.89 3315.78 69.67 4.00 119.02 1964.21
   11:20:21.784.18-Apr-2020 3074.89 3315.78 69.67 4.00 119.22 1964.21
   11:20:21.984.18-Apr-2020 3074.89 3315.75 69.67 4.00 119.42 1964.21
   11:20:22.185.18-Apr-2020 3074.89 3315.77 69.66 4.00 119.62 1964.21
   11:20:22.385.18-Apr-2020 3074.89 3315.76 69.66 4.00 119.82 1964.21
   11:20:22.585.18-Apr-2020 3074.89 3315.76 69.66 4.00 120.02 1964.21
   11:20:22.785.18-Apr-2020 3074.89 3315.76 69.66 4.00 120.22 1964.21
   11:20:22.985.18-Apr-2020 3074.89 3315.75 69.66 4.00 120.42 1964.21
   11:20:23.185.18-Apr-2020 3074.89 3315.77 69.66 4.00 120.62 1964.21
   11:20:23.385.18-Apr-2020 3074.89 3315.76 69.66 4.00 120.82 1964.21
   11:20:23.585.18-Apr-2020 3074.89 3315.75 69.66 4.00 121.02 1964.21
   11:20:23.785.18-Apr-2020 3074.89 3315.75 69.66 4.00 121.22 1964.21
   11:20:23.985.18-Apr-2020 3074.89 3315.73 69.66 4.00 121.42 1964.21
   11:20:24.185.18-Apr-2020 3074.89 3315.77 69.66 4.00 121.62 1964.21
   11:20:24.385.18-Apr-2020 3074.89 3315.77 69.66 4.00 121.82 1964.21
   11:20:24.585.18-Apr-2020 3074.89 3315.77 69.65 4.00 122.02 1964.21
   11:20:24.785.18-Apr-2020 3074.89 3315.77 69.65 4.00 122.22 1964.21
   11:20:24.985.18-Apr-2020 3074.89 3315.76 69.65 4.00 122.42 1964.21
   11:20:25.185.18-Apr-2020 3074.89 3315.77 69.65 4.00 122.62 1964.21
   11:20:25.385.18-Apr-2020 3074.89 3315.76 69.65 4.00 122.82 1964.21
   11:20:25.585.18-Apr-2020 3074.89 3315.75 69.65 4.00 123.02 1964.21
   11:20:25.785.18-Apr-2020 3074.89 3315.75 69.65 4.00 123.22 1964.21
   11:20:25.985.18-Apr-2020 3074.89 3315.77 69.65 4.00 123.42 1964.21
   11:20:26.185.18-Apr-2020 3074.89 3315.76 69.65 4.00 123.62 1964.21
   11:20:26.385.18-Apr-2020 3074.89 3315.76 69.65 4.00 123.82 1964.21
   11:20:26.585.18-Apr-2020 3074.89 3315.74 69.65 4.00 124.02 1964.21
   11:20:26.785.18-Apr-2020 3074.89 3315.74 69.65 4.00 124.22 1964.21
   11:20:26.985.18-Apr-2020 3074.89 3315.76 69.64 4.00 124.42 1964.21
   11:20:27.185.18-Apr-2020 3074.89 3315.75 69.64 4.00 124.62 1964.21
   11:20:27.385.18-Apr-2020 3074.89 3315.78 69.64 4.00 124.82 1964.21
   11:20:27.585.18-Apr-2020 3074.89 3315.77 69.64 4.00 125.02 1964.21
   11:20:27.785.18-Apr-2020 3074.89 3315.77 69.64 4.00 125.22 1964.21
   11:20:27.985.18-Apr-2020 3074.89 3315.76 69.64 4.00 125.42 1964.21
   11:20:28.185.18-Apr-2020 3074.89 3315.74 69.64 4.00 125.62 1964.21
   11:20:28.385.18-Apr-2020 3074.89 3315.74 69.64 4.00 125.82 1964.21
   11:20:28.585.18-Apr-2020 3074.89 3315.76 69.64 4.00 126.02 1964.21
   11:20:28.785.18-Apr-2020 3074.89 3315.76 69.64 4.00 126.22 1964.21
   11:20:28.985.18-Apr-2020 3074.89 3315.74 69.64 4.00 126.42 1964.21
   11:20:29.185.18-Apr-2020 3074.89 3315.75 69.64 4.00 126.62 1964.21
   11:20:29.385.18-Apr-2020 3074.89 3315.74 69.63 4.00 126.82 1964.21
   11:20:29.586.18-Apr-2020 3074.89 3315.75 69.63 4.00 127.02 1964.21
   11:20:29.786.18-Apr-2020 3074.89 3315.75 69.63 4.00 127.22 1964.21
   11:20:29.986.18-Apr-2020 3074.89 3315.73 69.63 4.00 127.42 1964.21
   11:20:30.186.18-Apr-2020 3074.89 3315.76 69.63 4.00 127.62 1964.21
   11:20:30.386.18-Apr-2020 3074.89 3315.76 69.63 4.00 127.82 1964.21
   11:20:30.586.18-Apr-2020 3074.89 3315.76 69.63 4.00 128.02 1964.21
   11:20:30.786.18-Apr-2020 3074.89 3315.76 69.63 4.00 128.22 1964.21
   11:20:30.986.18-Apr-2020 3074.89 3315.76 69.63 4.00 128.42 1964.21
   11:20:31.186.18-Apr-2020 3074.89 3315.76 69.63 4.00 128.62 1964.21
   11:20:31.386.18-Apr-2020 3074.89 3315.75 69.63 4.00 128.82 1964.21
   11:20:31.586.18-Apr-2020 3074.89 3315.75 69.63 4.00 129.02 1964.21
   11:20:31.786.18-Apr-2020 3074.89 3315.75 69.63 4.00 129.22 1964.21
   11:20:31.986.18-Apr-2020 3074.89 3315.76 69.62 4.00 129.42 1964.21
   11:20:32.186.18-Apr-2020 3074.89 3315.74 69.62 4.00 129.62 1964.21
   11:20:32.386.18-Apr-2020 3074.89 3315.76 69.62 4.00 129.82 1964.21
   11:20:32.586.18-Apr-2020 3074.89 3315.75 69.62 4.00 130.02 1964.21
   11:20:32.786.18-Apr-2020 3074.89 3315.75 69.62 4.00 130.22 1964.21
   11:20:32.986.18-Apr-2020 3074.89 3315.74 69.62 4.00 130.42 1964.21
   11:20:33.186.18-Apr-2020 3074.89 3315.76 69.62 4.00 130.62 1964.21
   11:20:33.386.18-Apr-2020 3074.89 3315.76 69.62 4.00 130.82 1964.21
   11:20:33.586.18-Apr-2020 3074.89 3315.77 69.62 4.00 131.02 1964.21
   11:20:33.786.18-Apr-2020 3074.89 3315.77 69.62 4.00 131.22 1964.21
   11:20:33.986.18-Apr-2020 3074.89 3315.76 69.62 4.00 131.42 1964.21
   11:20:34.186.18-Apr-2020 3074.89 3315.75 69.61 4.00 131.62 1964.21
   11:20:34.386.18-Apr-2020 3074.89 3315.75 69.61 4.00 131.82 1964.21
   11:20:34.586.18-Apr-2020 3074.89 3315.76 69.61 4.00 132.02 1964.21
   11:20:34.786.18-Apr-2020 3074.89 3315.75 69.61 4.00 132.22 1964.21
   11:20:34.986.18-Apr-2020 3074.89 3315.74 69.61 4.00 132.42 1964.21
   11:20:35.186.18-Apr-2020 3074.89 3315.75 69.61 4.00 132.62 1964.21
   11:20:35.386.18-Apr-2020 3074.89 3315.74 69.61 4.00 132.82 1964.21
   11:20:35.586.18-Apr-2020 3074.89 3315.74 69.61 4.00 133.02 1964.21
   11:20:35.786.18-Apr-2020 3074.89 3315.74 69.61 4.00 133.22 1964.21
   11:20:35.986.18-Apr-2020 3074.89 3315.75 69.61 4.00 133.42 1964.21
   11:20:36.186.18-Apr-2020 3074.89 3315.73 69.61 4.00 133.62 1964.21
   11:20:36.386.18-Apr-2020 3074.89 3315.76 69.61 4.00 133.82 1964.21
   11:20:36.586.18-Apr-2020 3074.89 3315.76 69.60 4.00 134.02 1964.21
   11:20:36.786.18-Apr-2020 3074.89 3315.76 69.60 4.00 134.22 1964.21
   11:20:36.987.18-Apr-2020 3074.89 3315.76 69.60 4.00 134.42 1964.21
   11:20:37.187.18-Apr-2020 3074.89 3315.73 69.60 4.00 134.62 1964.21
   11:20:37.387.18-Apr-2020 3074.89 3315.74 69.60 4.00 134.82 1964.21
   11:20:37.587.18-Apr-2020 3074.89 3315.76 69.60 4.00 135.02 1964.21
   11:20:37.787.18-Apr-2020 3074.89 3315.76 69.60 4.00 135.22 1964.21
   11:20:37.987.18-Apr-2020 3074.89 3315.74 69.60 4.00 135.42 1964.21
   11:20:38.187.18-Apr-2020 3074.89 3315.74 69.60 4.00 135.62 1964.21
   11:20:38.387.18-Apr-2020 3074.89 3315.72 69.60 4.00 135.82 1964.21
   11:20:38.587.18-Apr-2020 3074.89 3315.75 69.60 4.00 136.02 1964.21
   11:20:38.787.18-Apr-2020 3074.89 3315.75 69.60 4.00 136.22 1964.21
   11:20:38.987.18-Apr-2020 3074.89 3315.72 69.59 4.00 136.42 1964.21
   11:20:39.187.18-Apr-2020 3074.89 3315.75 69.59 4.00 136.62 1964.21
   11:20:39.387.18-Apr-2020 3074.89 3315.74 69.59 4.00 136.82 1964.21
   11:20:39.587.18-Apr-2020 3074.89 3315.75 69.59 4.00 137.02 1964.21
   11:20:39.787.18-Apr-2020 3074.89 3315.75 69.59 4.00 137.22 1964.21
   11:20:39.987.18-Apr-2020 3074.89 3315.74 69.59 4.00 137.42 1964.21
   11:20:40.187.18-Apr-2020 3074.89 3315.73 69.59 4.00 137.62 1964.21
   11:20:40.387.18-Apr-2020 3074.89 3315.74 69.59 4.00 137.82 1964.21
