~Version Information
 VERS.                  2.0:   CWLS log ASCII Standard -VERSION 2.0
 WRAP.                   NO:   One line per depth step
~Well Information Block
#MNEM.UNIT     VALUE/NAME     DESCRIPTION
#---------     -----------    ---------------------------
 STRT.S             00:39:23 18-Apr-20: START TIME 00:39:23 18-Apr-20
 STOP.S             00:46:19 18-Apr-20: STOP TIME  00:46:19 18-Apr-20
 STEP.S                   0.00: STEP TIME
 NULL.                 -999.25: NULL VALUE
 DFWT.                        :  DIST FWL TEXT
 DFST.                        :  DIST FSL TEXT
 DMF .                        :  DRILL MEAS FROM
 STIM.      16.29.52 23-Mar-20:  START TIME
 DATE.      16.29.52 23-Mar-20:  END TIME
 SPUD.               23-Mar-20:  SPUD DATE
 NREF.                    Grid:  NORTH REFERENCE
 HPTY.       Minimum Curvature:  HOLE POS TYPE
 DMOD.             Drill Model:  DRILL MOD DESC
 SVYD.                  Survey:  SURVEY DESC
 ILTD.               Lithology:  INTERP LTH DESC
 FTOP.          Formation Tops:  FORM TOPS DESC
 SON .        AZ-XX-0906252240:  JOB NUMBER
 RIG .             West Chirag:  RIG NAME
 PDAT.          Mean Sea Level:  PERMANENT DATUM
 FLD .                     ACG:  FIELD NAME
 CTRY.              Azerbaijan:  COUNTRY NAME
 WELL.           J23 (Slot 07):  WELL NAME
 SRVC.          Turan Drilling:  CONTRACTOR
 COMP.     BP Exploration (Casoian Sea) Ltd:  COMPANY
 WTYP.                Deviated:  WELL TYPE
 MDS .        Operator Entered:  MAG DATA SOURCE
 UWI .                     N/A:  UNIQUE WELL IDENTIFIER
 API .                     N/A:  API NUMBER
 BASE.              Azerbaijan:  LOGGING EQUIPMENT BASE LOCATION
 REGN.                   EESSA:  REGION
 PROV.                    Baku:  PROVINCE
 STAT.                    Baku:  STATE NAME
 MWDS.                     N/A:  MWD SHOP
 JOBN.        AZ-XX-0906252240:  JOB TICKET NUMB
 DOE .                     N/A:  DOE NUMBER
 DCON.         Sperry Drilling:  DIRECTNL CONTR
 UNIT.                     N/A:  LOGGING EQUIPMENT ID
 CNTY.                        :  COUNTY
 LOC .                        :  LOCATION
 LMF .             Drill Floor:  LOG MEASURED FROM
 TVDS.m                  43.00:  TVDSS CORRECTN
 LATI.deg                40.13:  LATITUDE
 LONG.deg                51.22:  LONGITUDE
 WHNS.m                   9.43:  WELL HEAD N/S
 WHEW.m                  -8.91:  WELL HEAD E/W
 UTMX.m              519005.06:  UTM X
 UTMY.m             4443793.85:  UTM Y
 DFWL.m                   0.00:  DISTANCE FWL
 DFSL.m                   0.00:  DISTANCE FSL
 SDEP.m                   0.00:  START DEPTH
 TDD .m                   0.00:  TOTAL DEPTH (DRILLER)
 VSDR.deg               179.88:  VERT SEC DIRECT
 GVFD.g                   1.00:  GRAVITY FIELD
 MFLD.nT              50281.00:  MAGNETIC FIELD
 MDIP.deg                59.58:  MAGNETIC DIP
 MDEC.deg                 6.48:  MAGNETIC DECL
 GRDC.deg                 0.14:  GRID CORRECTION
 AZTC.deg                 6.34:  AZM TOTAL CORR
 EPD .m                   0.00:  ELEVATION
 EGL .m                   0.00:  GROUND ELEVATION
 WDMS.m                 169.80:  WD ELEV
 APD .m                  43.00:  DEPTH ABOVE PD
 DEP .m                 354.17:  DEPTH
 AGAP.m                  43.00:  AIR GAP
 VSEW.m                  -8.91:  VERT SEC E/W
 VSNS.m                   9.43:  VERT SEC N/S
 EKB .m                   0.00:  KB ELEVATION
 EDF .m                  43.00:  DF ELEVATION
 TDL .m                1326.00:  TOTAL DEPTH (LOGGER)
 VSC .                       0:  VS TO CLOSURE
 MAGU.                 1850704:  MAGUTM CHECKSUM
~Parameter Information Block
#MNEM.UNIT       Value        Description
#---------     -----------    ---------------------------
 AV  .mps                 1.17:  Ann Velocity 
 AZIF.deg               184.04:  Azm, Final 
 BHAT.        Rotary Steerable:  BHA Type 
 BREV.rev            620000.00:  Rev Bit Total 
 BROT.°/30m               0.20:  Build Rotating 
 BS  .in                 14.75:  Bit Size 
 BSZ .in                 14.75:  Bit Size 
 BTPL.psig              618.00:  Bit Press Loss 
 CABU.                      No:  Customer Abuse 
 COMM.                     TŠT:  Run Comments 1 
 TCS .hr                 87.68:  Time Ciculation Ended 
 CV  .mps                 3.10:  Crit Velocity 
 DD1 .          Rashad Habibov:  Direct Drillr 1 
 DD2 .         Rasim Ibrahimov:  Direct Drillr 2 
 DDSV.               Geo-Pilot:  DD Service 
 DEFF.%                  98.00:  % Det Eff 
 DLRX.°/30m               1.48:  Dogleg Rot Max 
 DLSO.°/30m               0.50:  Dogleg Oriented 
 DLSX.°/30m               1.48:  Dogleg Str Max 
 DRET.      06.18.56 19-Apr-20:  Drill End Time 
 DRST.      15.00.56 15-Apr-20:  Drill Start Tim 
 DTIM.hr                 51.73:  Time Drilling 
 EDEP.m                3410.01:  End Depth 
 ENG1.        Marcelo Sandoval:  Engineer 1 
 ENG2.        Davud Huseynzade:  Engineer 2 
 ENG3.          Ruslan Safarov:  Engineer 3 
 ETIM.      04.00.56 20-Apr-20:  End Time 
 FLOI.gpm              1000.00:  Flow In 
 FLON.gpm               600.00:  Flow In Min 
 FLOS.cptm                0.00:  Fluid Loss 
 FLOX.gpm              1200.00:  Flow In Max 
 HFLO.                      No:  High Flow 
 HPRE.                     Yes:  High Pressure 
 HTEM.                      No:  High Temp 
 HYDO.m                   1.80:  Hydro Offset 
 IFIN.deg                70.04:  Inc, Final 
 IMAX.deg                70.56:  Inc Max 
 IMIN.deg                69.85:  Inc Min 
 IMND.m                3103.24:  Inc Min Depth 
 IMXD.m                2876.63:  Inc Max Depth 
 JARR.                      No:  Jarring 
 LETM.      06.18.56 19-Apr-20:  Log End Time 
 LOST.hr                     0:  Lost Rig Time 
 LSTM.      15.00.56 15-Apr-20:  Log Start Time 
 MDCL.ppm             42000.00:  Mud Chlorides 
 MDES.     Inversion Oil/Synthetic:  Mud Desc 
 DFD .sg                  1.58:  Mud Density 
 MDMN.sg                  1.58:  Dens Mud Min 
 MDMX.sg                  1.58:  Dens Mud Max 
 MOIL.                      71:  Run Mud Oil % 
 MOWR.                   71:29:  Run Mud OWR 
 MSND.                       0:  Run Mud Sand % 
 MSOL.                    23.3:  Run Mud Solids% 
 DFV .spqt               84.00:  Mud Viscosity 
 MWOD.in                  9.50:  MWD Tool OD 
 MWSI.                      No:  Serv Intrp, MWD 
 OTIM.hr                139.62:  Time Operating 
 PMAX.psia             5364.69:  Press Op, Max 
 PV  .cP                 80.00:  Mud PV 
 RUN .                     700:  Run Number 
 ROPA.m/hr               25.00:  ROP Avg 
 ROPN.m/hr               11.00:  ROP Min 
 ROPX.m/hr               36.00:  ROP Max 
 RPMA.rpm               130.00:  RPM Surface Avg 
 RPMN.rpm               120.00:  RPM Surface Min 
 RPMX.rpm               140.00:  RPM Surface Max 
 RRUN.                    0700:  Rig Run Number 
 SAZI.deg               183.25:  Azm, Start 
 SDEP.m                2084.00:  Start Depth 
 SIDD.                      No:  Serv Intrp, DD 
 SINC.deg                70.38:  Inc, Start 
 SPPA.psig             4800.00:  SPP Avg 
 SPPN.psig             4400.00:  SPP Min 
 SPPX.psig             5350.00:  SPP Max 
 STIM.      16.30.56 14-Apr-20:  Start Time 
 SVCS.                 DD, MWD:  Services 
 SVER.                    9.20:  Sperry Version 
 TDAT.m                1326.00:  Tot Depth Attmp 
 TDDF.                      No:  Trip for DD 
 TDLG.m                1326.00:  Tot Depth Loggd 
 TFF .                      No:  Trip for Fail 
 TQAA.f-kp               19.00:  Torque Abs Avg 
 TQAN.f-kp                8.00:  Torque Abs Min 
 TQAX.f-kp               27.00:  Torque Abs Max 
 TRRT.°/30m               0.50:  Turn Rotating 
 MRT .                    HCIM:  Maximum Recorded Temperature 
 TTMX.degC               82.35:  Max Tool Temp 
 VS01.       905245875X1Z1W1C8:  Virtual Str1 SN 
 VS02.       90608022F11V7D1A9:  Virtual Str2 SN 
 VS03.            90605473R5C9:  Virtual Str3 SN 
 WBMN.klb                11.00:  WOB Min 
 WOBA.klb                21.00:  WOB Avg 
 WOBX.klb                30.00:  WOB Max 
 YP  .lhf2               45.00:  Yield Point 
~Curve Information Block
#MNEM.UNIT                 API CODE     Curve Description
#---------               -----------    ---------------------------
 TIME.HHMMSS            00 000 000 000:  GT Time & Date
 GTDEPTH.m              00 000 000 000:  GT Depth
 GTPQH.psia             00 000 000 000:  GT HR Quartz Pressure
 GTTQ.degC              00 000 000 000:  GT Quartz Temperature
 GTTN.NONE              00 000 000 000:  GT Test Number
 GTET.sec               00 000 000 000:  GT Elapsed Test Time
 GTTVD.m                00 000 000 000:  GT True Vertical Depth
#Other Information
#
#WARRANTY: Halliburton will use its best efforts to furnish customers with 
#accurate information and interpretations that are part of, and incident to, the services 
#provided.  However, Halliburton cannot and does not warrant the accuracy 
#or correctness of such information and interpretations.  Under no circumstances should any 
#such information or interpretation be relied upon as the sole basis for any drilling, 
#completion, production, or financial decision or any procedure involving any risk to the 
#safety of any drilling venture, drilling rig or its crew or any other third party.  The 
#Customer has full responsibility for all drilling, completion and production operation.  
#Halliburton makes no representations or warranties, either expressed or 
#implied, including, but not limited to, the implied warranties of merchantability or fitness 
#for a particular purpose, with respect to the services rendered.  In no event will 
#Halliburton be liable for failure to obtain any particular results or for 
#any damages, including, but not limited to, indirect, special or consequential damages, 
#resulting from the use of any information or interpretation provided by Halliburton.
#
~A           TIME           GTDEPTH  GTPQH  GTTQ  GTTN  GTET   GTTVD  
# ...
   00:45:54.372.18-Apr-2020 2932.07 4418.36 62.88 1.00 391.06 1915.77
   00:45:54.572.18-Apr-2020 2932.07 4418.36 62.88 1.00 391.26 1915.77
   00:45:54.772.18-Apr-2020 2932.07 4418.92 62.88 1.00 391.46 1915.77
   00:45:54.972.18-Apr-2020 2932.07 4418.58 62.88 1.00 391.66 1915.77
   00:45:55.172.18-Apr-2020 2932.07 4418.80 62.88 1.00 391.86 1915.77
   00:45:55.372.18-Apr-2020 2932.07 4417.75 62.88 1.00 392.06 1915.77
   00:45:55.572.18-Apr-2020 2932.07 4417.75 62.88 1.00 392.26 1915.77
   00:45:55.772.18-Apr-2020 2932.07 4418.50 62.88 1.00 392.46 1915.77
   00:45:55.972.18-Apr-2020 2932.07 4418.52 62.88 1.00 392.66 1915.77
   00:45:56.172.18-Apr-2020 2932.07 4418.65 62.88 1.00 392.86 1915.77
   00:45:56.372.18-Apr-2020 2932.07 4418.18 62.88 1.00 393.06 1915.77
   00:45:56.572.18-Apr-2020 2932.07 4417.13 62.88 1.00 393.26 1915.77
   00:45:56.772.18-Apr-2020 2932.07 4419.24 62.88 1.00 393.46 1915.77
   00:45:56.972.18-Apr-2020 2932.07 4418.93 62.88 1.00 393.66 1915.77
   00:45:57.172.18-Apr-2020 2932.07 4418.58 62.88 1.00 393.86 1915.77
   00:45:57.372.18-Apr-2020 2932.07 4418.44 62.88 1.00 394.06 1915.77
   00:45:57.572.18-Apr-2020 2932.07 4418.44 62.88 1.00 394.26 1915.77
   00:45:57.772.18-Apr-2020 2932.07 4418.34 62.88 1.00 394.46 1915.77
   00:45:57.972.18-Apr-2020 2932.07 4418.57 62.88 1.00 394.66 1915.77
   00:45:58.172.18-Apr-2020 2932.07 4418.30 62.88 1.00 394.86 1915.77
   00:45:58.372.18-Apr-2020 2932.07 4418.42 62.88 1.00 395.06 1915.77
   00:45:58.572.18-Apr-2020 2932.07 4418.42 62.88 1.00 395.26 1915.77
   00:45:58.772.18-Apr-2020 2932.07 4417.80 62.88 1.00 395.46 1915.77
   00:45:58.972.18-Apr-2020 2932.07 4418.51 62.88 1.00 395.66 1915.77
   00:45:59.172.18-Apr-2020 2932.07 4418.62 62.88 1.00 395.86 1915.77
   00:45:59.372.18-Apr-2020 2932.07 4417.01 62.88 1.00 396.06 1915.77
   00:45:59.572.18-Apr-2020 2932.07 4417.01 62.88 1.00 396.26 1915.77
   00:45:59.772.18-Apr-2020 2932.07 4418.65 62.88 1.00 396.46 1915.77
   00:45:59.972.18-Apr-2020 2932.07 4418.92 62.88 1.00 396.66 1915.77
   00:46:00.172.18-Apr-2020 2932.07 4418.91 62.88 1.00 396.86 1915.77
   00:46:00.372.18-Apr-2020 2932.07 4419.15 62.88 1.00 397.06 1915.77
   00:46:00.573.18-Apr-2020 2932.07 4418.50 62.88 1.00 397.26 1915.77
   00:46:00.773.18-Apr-2020 2932.07 4418.56 62.88 1.00 397.46 1915.77
   00:46:00.973.18-Apr-2020 2932.07 4418.86 62.88 1.00 397.66 1915.77
   00:46:01.173.18-Apr-2020 2932.07 4418.67 62.87 1.00 397.86 1915.77
   00:46:01.373.18-Apr-2020 2932.07 4418.42 62.87 1.00 398.06 1915.77
   00:46:01.573.18-Apr-2020 2932.07 4418.42 62.87 1.00 398.26 1915.77
   00:46:01.773.18-Apr-2020 2932.07 4418.44 62.87 1.00 398.46 1915.77
   00:46:01.973.18-Apr-2020 2932.07 4417.56 62.87 1.00 398.66 1915.77
   00:46:02.173.18-Apr-2020 2932.07 4418.03 62.87 1.00 398.86 1915.77
   00:46:02.373.18-Apr-2020 2932.07 4418.65 62.87 1.00 399.06 1915.77
   00:46:02.573.18-Apr-2020 2932.07 4418.65 62.87 1.00 399.26 1915.77
   00:46:02.773.18-Apr-2020 2932.07 4416.85 62.87 1.00 399.46 1915.77
   00:46:02.973.18-Apr-2020 2932.07 4418.93 62.87 1.00 399.66 1915.77
   00:46:03.173.18-Apr-2020 2932.07 4418.76 62.87 1.00 399.86 1915.77
   00:46:03.373.18-Apr-2020 2932.07 4416.86 62.87 1.00 400.06 1915.77
   00:46:03.573.18-Apr-2020 2932.07 4416.86 62.87 1.00 400.26 1915.77
   00:46:03.773.18-Apr-2020 2932.07 4418.12 62.87 1.00 400.46 1915.77
   00:46:03.973.18-Apr-2020 2932.07 4418.15 62.87 1.00 400.66 1915.77
   00:46:04.173.18-Apr-2020 2932.07 4417.92 62.87 1.00 400.86 1915.77
   00:46:04.373.18-Apr-2020 2932.07 4417.17 62.87 1.00 401.06 1915.77
   00:46:04.573.18-Apr-2020 2932.07 4418.42 62.87 1.00 401.26 1915.77
   00:46:04.773.18-Apr-2020 2932.07 4418.14 62.87 1.00 401.46 1915.77
   00:46:04.973.18-Apr-2020 2932.07 4417.82 62.87 1.00 401.66 1915.77
   00:46:05.173.18-Apr-2020 2932.07 4416.27 62.87 1.00 401.86 1915.77
   00:46:05.373.18-Apr-2020 2932.07 4418.62 62.87 1.00 402.06 1915.77
   00:46:05.573.18-Apr-2020 2932.07 4418.62 62.87 1.00 402.27 1915.77
   00:46:05.773.18-Apr-2020 2932.07 4418.70 62.87 1.00 402.47 1915.77
   00:46:05.973.18-Apr-2020 2932.07 4418.39 62.87 1.00 402.67 1915.77
   00:46:06.173.18-Apr-2020 2932.07 4419.34 62.86 1.00 402.87 1915.77
   00:46:06.373.18-Apr-2020 2932.07 4419.10 62.86 1.00 403.07 1915.77
   00:46:06.574.18-Apr-2020 2932.07 4419.10 62.86 1.00 403.27 1915.77
   00:46:06.774.18-Apr-2020 2932.07 4419.05 62.86 1.00 403.47 1915.77
   00:46:06.974.18-Apr-2020 2932.07 4418.93 62.86 1.00 403.67 1915.77
   00:46:07.174.18-Apr-2020 2932.07 4418.45 62.86 1.00 403.87 1915.77
   00:46:07.374.18-Apr-2020 2932.07 4418.18 62.86 1.00 404.07 1915.77
   00:46:07.574.18-Apr-2020 2932.07 4418.18 62.86 1.00 404.27 1915.77
   00:46:07.774.18-Apr-2020 2932.07 4418.76 62.86 1.00 404.47 1915.77
   00:46:07.974.18-Apr-2020 2932.07 4417.47 62.86 1.00 404.67 1915.77
   00:46:08.174.18-Apr-2020 2932.07 4418.22 62.86 1.00 404.87 1915.77
   00:46:08.374.18-Apr-2020 2932.07 4419.22 62.86 1.00 405.07 1915.77
   00:46:08.574.18-Apr-2020 2932.07 4418.92 62.86 1.00 405.27 1915.77
   00:46:08.774.18-Apr-2020 2932.07 4419.24 62.86 1.00 405.47 1915.77
   00:46:08.974.18-Apr-2020 2932.07 4419.41 62.86 1.00 405.67 1915.77
   00:46:09.174.18-Apr-2020 2932.07 4419.06 62.86 1.00 405.87 1915.77
   00:46:09.374.18-Apr-2020 2932.07 4419.29 62.86 1.00 406.07 1915.77
   00:46:09.574.18-Apr-2020 2932.07 4419.29 62.86 1.00 406.27 1915.77
   00:46:09.774.18-Apr-2020 2932.07 4418.54 62.86 1.00 406.47 1915.77
   00:46:09.974.18-Apr-2020 2932.07 4418.81 62.86 1.00 406.67 1915.77
   00:46:10.174.18-Apr-2020 2932.07 4418.50 62.86 1.00 406.87 1915.77
   00:46:10.374.18-Apr-2020 2932.07 4418.28 62.86 1.00 407.07 1915.77
   00:46:10.574.18-Apr-2020 2932.07 4418.41 62.86 1.00 407.27 1915.77
   00:46:10.774.18-Apr-2020 2932.07 4416.62 62.86 1.00 407.47 1915.77
   00:46:10.974.18-Apr-2020 2932.07 4418.99 62.85 1.00 407.67 1915.77
   00:46:11.174.18-Apr-2020 2932.07 4418.46 62.85 1.00 407.87 1915.77
   00:46:11.374.18-Apr-2020 2932.07 4416.72 62.85 1.00 408.07 1915.77
   00:46:11.574.18-Apr-2020 2932.07 4416.72 62.85 1.00 408.27 1915.77
   00:46:11.774.18-Apr-2020 2932.07 4418.98 62.85 1.00 408.47 1915.77
   00:46:11.974.18-Apr-2020 2932.07 4417.84 62.85 1.00 408.67 1915.77
   00:46:12.174.18-Apr-2020 2932.07 4418.13 62.85 1.00 408.87 1915.77
   00:46:12.374.18-Apr-2020 2932.07 4418.78 62.85 1.00 409.07 1915.77
   00:46:12.574.18-Apr-2020 2932.07 4418.78 62.85 1.00 409.27 1915.77
   00:46:12.775.18-Apr-2020 2932.07 4417.92 62.85 1.00 409.47 1915.77
   00:46:12.975.18-Apr-2020 2932.07 4416.28 62.85 1.00 409.67 1915.77
   00:46:13.175.18-Apr-2020 2932.07 4418.82 62.85 1.00 409.87 1915.77
   00:46:13.375.18-Apr-2020 2932.07 4418.25 62.85 1.00 410.07 1915.77
   00:46:13.575.18-Apr-2020 2932.07 4418.25 62.85 1.00 410.27 1915.77
   00:46:13.775.18-Apr-2020 2932.07 4418.10 62.85 1.00 410.47 1915.77
   00:46:13.975.18-Apr-2020 2932.07 4416.71 62.85 1.00 410.67 1915.77
   00:46:14.175.18-Apr-2020 2932.07 4418.76 62.85 1.00 410.87 1915.77
   00:46:14.375.18-Apr-2020 2932.07 4418.48 62.85 1.00 411.07 1915.77
   00:46:14.575.18-Apr-2020 2932.07 4418.48 62.85 1.00 411.27 1915.77
   00:46:14.775.18-Apr-2020 2932.07 4419.12 62.85 1.00 411.47 1915.77
   00:46:14.975.18-Apr-2020 2932.07 4418.77 62.85 1.00 411.67 1915.77
   00:46:15.175.18-Apr-2020 2932.07 4418.37 62.85 1.00 411.87 1915.77
   00:46:15.375.18-Apr-2020 2932.07 4418.77 62.85 1.00 412.07 1915.77
   00:46:15.575.18-Apr-2020 2932.07 4418.77 62.84 1.00 412.27 1915.77
   00:46:15.775.18-Apr-2020 2932.07 4418.65 62.84 1.00 412.47 1915.77
   00:46:15.975.18-Apr-2020 2932.07 4418.19 62.84 1.00 412.67 1915.77
   00:46:16.175.18-Apr-2020 2932.07 4417.74 62.84 1.00 412.87 1915.77
   00:46:16.375.18-Apr-2020 2932.07 4417.84 62.84 1.00 413.07 1915.77
   00:46:16.575.18-Apr-2020 2932.07 4418.02 62.84 1.00 413.27 1915.77
   00:46:16.775.18-Apr-2020 2932.07 4415.82 62.84 1.00 413.47 1915.77
   00:46:16.975.18-Apr-2020 2932.07 4418.43 62.84 1.00 413.67 1915.77
   00:46:17.175.18-Apr-2020 2932.07 4418.38 62.84 1.00 413.87 1915.77
