~Version Information
 VERS.                  2.0:   CWLS log ASCII Standard -VERSION 2.0
 WRAP.                   NO:   One line per depth step
~Well Information Block
#MNEM.UNIT     VALUE/NAME     DESCRIPTION
#---------     -----------    ---------------------------
 STRT.S             15:57:21 18-Apr-20: START TIME 15:57:21 18-Apr-20
 STOP.S             16:04:15 18-Apr-20: STOP TIME  16:04:15 18-Apr-20
 STEP.S                   0.00: STEP TIME
 NULL.                 -999.25: NULL VALUE
 DFWT.                        :  DIST FWL TEXT
 DFST.                        :  DIST FSL TEXT
 DMF .                        :  DRILL MEAS FROM
 STIM.      16.29.52 23-Mar-20:  START TIME
 DATE.      16.29.52 23-Mar-20:  END TIME
 SPUD.               23-Mar-20:  SPUD DATE
 NREF.                    Grid:  NORTH REFERENCE
 HPTY.       Minimum Curvature:  HOLE POS TYPE
 DMOD.             Drill Model:  DRILL MOD DESC
 SVYD.                  Survey:  SURVEY DESC
 ILTD.               Lithology:  INTERP LTH DESC
 FTOP.          Formation Tops:  FORM TOPS DESC
 SON .        AZ-XX-0906252240:  JOB NUMBER
 RIG .             West Chirag:  RIG NAME
 PDAT.          Mean Sea Level:  PERMANENT DATUM
 FLD .                     ACG:  FIELD NAME
 CTRY.              Azerbaijan:  COUNTRY NAME
 WELL.           J23 (Slot 07):  WELL NAME
 SRVC.          Turan Drilling:  CONTRACTOR
 COMP.     BP Exploration (Casoian Sea) Ltd:  COMPANY
 WTYP.                Deviated:  WELL TYPE
 MDS .        Operator Entered:  MAG DATA SOURCE
 UWI .                     N/A:  UNIQUE WELL IDENTIFIER
 API .                     N/A:  API NUMBER
 BASE.              Azerbaijan:  LOGGING EQUIPMENT BASE LOCATION
 REGN.                   EESSA:  REGION
 PROV.                    Baku:  PROVINCE
 STAT.                    Baku:  STATE NAME
 MWDS.                     N/A:  MWD SHOP
 JOBN.        AZ-XX-0906252240:  JOB TICKET NUMB
 DOE .                     N/A:  DOE NUMBER
 DCON.         Sperry Drilling:  DIRECTNL CONTR
 UNIT.                     N/A:  LOGGING EQUIPMENT ID
 CNTY.                        :  COUNTY
 LOC .                        :  LOCATION
 LMF .             Drill Floor:  LOG MEASURED FROM
 TVDS.m                  43.00:  TVDSS CORRECTN
 LATI.deg                40.13:  LATITUDE
 LONG.deg                51.22:  LONGITUDE
 WHNS.m                   9.43:  WELL HEAD N/S
 WHEW.m                  -8.91:  WELL HEAD E/W
 UTMX.m              519005.06:  UTM X
 UTMY.m             4443793.85:  UTM Y
 DFWL.m                   0.00:  DISTANCE FWL
 DFSL.m                   0.00:  DISTANCE FSL
 SDEP.m                   0.00:  START DEPTH
 TDD .m                   0.00:  TOTAL DEPTH (DRILLER)
 VSDR.deg               179.88:  VERT SEC DIRECT
 GVFD.g                   1.00:  GRAVITY FIELD
 MFLD.nT              50281.00:  MAGNETIC FIELD
 MDIP.deg                59.58:  MAGNETIC DIP
 MDEC.deg                 6.48:  MAGNETIC DECL
 GRDC.deg                 0.14:  GRID CORRECTION
 AZTC.deg                 6.34:  AZM TOTAL CORR
 EPD .m                   0.00:  ELEVATION
 EGL .m                   0.00:  GROUND ELEVATION
 WDMS.m                 169.80:  WD ELEV
 APD .m                  43.00:  DEPTH ABOVE PD
 DEP .m                 354.17:  DEPTH
 AGAP.m                  43.00:  AIR GAP
 VSEW.m                  -8.91:  VERT SEC E/W
 VSNS.m                   9.43:  VERT SEC N/S
 EKB .m                   0.00:  KB ELEVATION
 EDF .m                  43.00:  DF ELEVATION
 TDL .m                1326.00:  TOTAL DEPTH (LOGGER)
 VSC .                       0:  VS TO CLOSURE
 MAGU.                 1850704:  MAGUTM CHECKSUM
~Parameter Information Block
#MNEM.UNIT       Value        Description
#---------     -----------    ---------------------------
 AV  .mps                 1.17:  Ann Velocity 
 AZIF.deg               184.04:  Azm, Final 
 BHAT.        Rotary Steerable:  BHA Type 
 BREV.rev            620000.00:  Rev Bit Total 
 BROT.°/30m               0.20:  Build Rotating 
 BS  .in                 14.75:  Bit Size 
 BSZ .in                 14.75:  Bit Size 
 BTPL.psig              618.00:  Bit Press Loss 
 CABU.                      No:  Customer Abuse 
 COMM.                     ¬)g:  Run Comments 1 
 TCS .hr                 87.68:  Time Ciculation Ended 
 CV  .mps                 3.10:  Crit Velocity 
 DD1 .          Rashad Habibov:  Direct Drillr 1 
 DD2 .         Rasim Ibrahimov:  Direct Drillr 2 
 DDSV.               Geo-Pilot:  DD Service 
 DEFF.%                  98.00:  % Det Eff 
 DLRX.°/30m               1.48:  Dogleg Rot Max 
 DLSO.°/30m               0.50:  Dogleg Oriented 
 DLSX.°/30m               1.48:  Dogleg Str Max 
 DRET.      06.18.56 19-Apr-20:  Drill End Time 
 DRST.      15.00.56 15-Apr-20:  Drill Start Tim 
 DTIM.hr                 51.73:  Time Drilling 
 EDEP.m                3410.01:  End Depth 
 ENG1.        Marcelo Sandoval:  Engineer 1 
 ENG2.        Davud Huseynzade:  Engineer 2 
 ENG3.          Ruslan Safarov:  Engineer 3 
 ETIM.      04.00.56 20-Apr-20:  End Time 
 FLOI.gpm              1000.00:  Flow In 
 FLON.gpm               600.00:  Flow In Min 
 FLOS.cptm                0.00:  Fluid Loss 
 FLOX.gpm              1200.00:  Flow In Max 
 HFLO.                      No:  High Flow 
 HPRE.                     Yes:  High Pressure 
 HTEM.                      No:  High Temp 
 HYDO.m                   1.80:  Hydro Offset 
 IFIN.deg                70.04:  Inc, Final 
 IMAX.deg                70.56:  Inc Max 
 IMIN.deg                69.85:  Inc Min 
 IMND.m                3103.24:  Inc Min Depth 
 IMXD.m                2876.63:  Inc Max Depth 
 JARR.                      No:  Jarring 
 LETM.      06.18.56 19-Apr-20:  Log End Time 
 LOST.hr                     0:  Lost Rig Time 
 LSTM.      15.00.56 15-Apr-20:  Log Start Time 
 MDCL.ppm             42000.00:  Mud Chlorides 
 MDES.     Inversion Oil/Synthetic:  Mud Desc 
 DFD .sg                  1.58:  Mud Density 
 MDMN.sg                  1.58:  Dens Mud Min 
 MDMX.sg                  1.58:  Dens Mud Max 
 MOIL.                      71:  Run Mud Oil % 
 MOWR.                   71:29:  Run Mud OWR 
 MSND.                       0:  Run Mud Sand % 
 MSOL.                    23.3:  Run Mud Solids% 
 DFV .spqt               84.00:  Mud Viscosity 
 MWOD.in                  9.50:  MWD Tool OD 
 MWSI.                      No:  Serv Intrp, MWD 
 OTIM.hr                139.62:  Time Operating 
 PMAX.psia             5364.69:  Press Op, Max 
 PV  .cP                 80.00:  Mud PV 
 RUN .                     700:  Run Number 
 ROPA.m/hr               25.00:  ROP Avg 
 ROPN.m/hr               11.00:  ROP Min 
 ROPX.m/hr               36.00:  ROP Max 
 RPMA.rpm               130.00:  RPM Surface Avg 
 RPMN.rpm               120.00:  RPM Surface Min 
 RPMX.rpm               140.00:  RPM Surface Max 
 RRUN.                    0700:  Rig Run Number 
 SAZI.deg               183.25:  Azm, Start 
 SDEP.m                2084.00:  Start Depth 
 SIDD.                      No:  Serv Intrp, DD 
 SINC.deg                70.38:  Inc, Start 
 SPPA.psig             4800.00:  SPP Avg 
 SPPN.psig             4400.00:  SPP Min 
 SPPX.psig             5350.00:  SPP Max 
 STIM.      16.30.56 14-Apr-20:  Start Time 
 SVCS.                 DD, MWD:  Services 
 SVER.                    9.20:  Sperry Version 
 TDAT.m                1326.00:  Tot Depth Attmp 
 TDDF.                      No:  Trip for DD 
 TDLG.m                1326.00:  Tot Depth Loggd 
 TFF .                      No:  Trip for Fail 
 TQAA.f-kp               19.00:  Torque Abs Avg 
 TQAN.f-kp                8.00:  Torque Abs Min 
 TQAX.f-kp               27.00:  Torque Abs Max 
 TRRT.°/30m               0.50:  Turn Rotating 
 MRT .                    HCIM:  Maximum Recorded Temperature 
 TTMX.degC               82.35:  Max Tool Temp 
 VS01.       905245875X1Z1W1C8:  Virtual Str1 SN 
 VS02.       90608022F11V7D1A9:  Virtual Str2 SN 
 VS03.            90605473R5C9:  Virtual Str3 SN 
 WBMN.klb                11.00:  WOB Min 
 WOBA.klb                21.00:  WOB Avg 
 WOBX.klb                30.00:  WOB Max 
 YP  .lhf2               45.00:  Yield Point 
~Curve Information Block
#MNEM.UNIT                 API CODE     Curve Description
#---------               -----------    ---------------------------
 TIME.HHMMSS            00 000 000 000:  GT Time & Date
 GTDEPTH.m              00 000 000 000:  GT Depth
 GTPQH.psia             00 000 000 000:  GT HR Quartz Pressure
 GTTQ.degC              00 000 000 000:  GT Quartz Temperature
 GTTN.NONE              00 000 000 000:  GT Test Number
 GTET.sec               00 000 000 000:  GT Elapsed Test Time
 GTTVD.m                00 000 000 000:  GT True Vertical Depth
#Other Information
#
#WARRANTY: Halliburton will use its best efforts to furnish customers with 
#accurate information and interpretations that are part of, and incident to, the services 
#provided.  However, Halliburton cannot and does not warrant the accuracy 
#or correctness of such information and interpretations.  Under no circumstances should any 
#such information or interpretation be relied upon as the sole basis for any drilling, 
#completion, production, or financial decision or any procedure involving any risk to the 
#safety of any drilling venture, drilling rig or its crew or any other third party.  The 
#Customer has full responsibility for all drilling, completion and production operation.  
#Halliburton makes no representations or warranties, either expressed or 
#implied, including, but not limited to, the implied warranties of merchantability or fitness 
#for a particular purpose, with respect to the services rendered.  In no event will 
#Halliburton be liable for failure to obtain any particular results or for 
#any damages, including, but not limited to, indirect, special or consequential damages, 
#resulting from the use of any information or interpretation provided by Halliburton.
#
~A           TIME           GTDEPTH  GTPQH  GTTQ  GTTN  GTET   GTTVD  
# ...
   16:00:02.186.18-Apr-2020 3140.11 3320.41 67.56 7.00 160.98 1986.54
   16:00:02.386.18-Apr-2020 3140.11 3320.41 67.56 7.00 161.18 1986.54
   16:00:02.586.18-Apr-2020 3140.11 3320.43 67.56 7.00 161.38 1986.54
   16:00:02.786.18-Apr-2020 3140.11 3320.42 67.56 7.00 161.58 1986.54
   16:00:02.986.18-Apr-2020 3140.11 3320.43 67.56 7.00 161.78 1986.54
   16:00:03.186.18-Apr-2020 3140.11 3320.45 67.56 7.00 161.98 1986.54
   16:00:03.386.18-Apr-2020 3140.11 3320.45 67.56 7.00 162.18 1986.54
   16:00:03.586.18-Apr-2020 3140.11 3320.43 67.56 7.00 162.38 1986.54
   16:00:03.786.18-Apr-2020 3140.11 3320.42 67.56 7.00 162.58 1986.54
   16:00:03.986.18-Apr-2020 3140.11 3320.43 67.56 7.00 162.78 1986.54
   16:00:04.186.18-Apr-2020 3140.11 3320.43 67.56 7.00 162.98 1986.54
   16:00:04.386.18-Apr-2020 3140.11 3320.42 67.56 7.00 163.18 1986.54
   16:00:04.586.18-Apr-2020 3140.11 3320.42 67.56 7.00 163.38 1986.54
   16:00:04.786.18-Apr-2020 3140.11 3320.42 67.56 7.00 163.58 1986.54
   16:00:04.986.18-Apr-2020 3140.11 3320.42 67.56 7.00 163.78 1986.54
   16:00:05.186.18-Apr-2020 3140.11 3320.42 67.56 7.00 163.98 1986.54
   16:00:05.386.18-Apr-2020 3140.11 3320.42 67.56 7.00 164.18 1986.54
   16:00:05.586.18-Apr-2020 3140.11 3320.42 67.56 7.00 164.38 1986.54
   16:00:05.786.18-Apr-2020 3140.11 3320.45 67.56 7.00 164.58 1986.54
   16:00:05.986.18-Apr-2020 3140.11 3320.43 67.56 7.00 164.78 1986.54
   16:00:06.186.18-Apr-2020 3140.11 3320.42 67.56 7.00 164.98 1986.54
   16:00:06.386.18-Apr-2020 3140.11 3320.42 67.56 7.00 165.18 1986.54
   16:00:06.586.18-Apr-2020 3140.11 3320.44 67.56 7.00 165.38 1986.54
   16:00:06.786.18-Apr-2020 3140.11 3320.43 67.56 7.00 165.58 1986.54
   16:00:06.986.18-Apr-2020 3140.11 3320.42 67.56 7.00 165.78 1986.54
   16:00:07.186.18-Apr-2020 3140.11 3320.43 67.56 7.00 165.98 1986.54
   16:00:07.386.18-Apr-2020 3140.11 3320.43 67.56 7.00 166.18 1986.54
   16:00:07.586.18-Apr-2020 3140.11 3320.43 67.56 7.00 166.38 1986.54
   16:00:07.786.18-Apr-2020 3140.11 3320.42 67.56 7.00 166.58 1986.54
   16:00:07.986.18-Apr-2020 3140.11 3293.66 67.56 7.00 166.78 1986.54
   16:00:08.186.18-Apr-2020 3140.11 3237.00 67.56 7.00 166.98 1986.54
   16:00:08.386.18-Apr-2020 3140.11 3205.08 67.56 7.00 167.18 1986.54
   16:00:08.586.18-Apr-2020 3140.11 3182.62 67.55 7.00 167.38 1986.54
   16:00:08.786.18-Apr-2020 3140.11 3166.95 67.55 7.00 167.58 1986.54
   16:00:08.986.18-Apr-2020 3140.11 3156.08 67.55 7.00 167.78 1986.54
   16:00:09.186.18-Apr-2020 3140.11 3149.71 67.55 7.00 167.98 1986.54
   16:00:09.386.18-Apr-2020 3140.11 3149.71 67.55 7.00 168.18 1986.54
   16:00:09.586.18-Apr-2020 3140.11 3141.22 67.55 7.00 168.38 1986.54
   16:00:09.785.18-Apr-2020 3140.11 3139.08 67.55 7.00 168.58 1986.54
   16:00:09.985.18-Apr-2020 3140.11 3138.11 67.55 7.00 168.78 1986.54
   16:00:10.185.18-Apr-2020 3140.11 3137.25 67.55 7.00 168.98 1986.54
   16:00:10.385.18-Apr-2020 3140.11 3137.25 67.55 7.00 169.18 1986.54
   16:00:10.585.18-Apr-2020 3140.11 3136.56 67.55 7.00 169.38 1986.54
   16:00:10.785.18-Apr-2020 3140.11 3136.31 67.55 7.00 169.58 1986.54
   16:00:10.985.18-Apr-2020 3140.11 3136.93 67.55 7.00 169.78 1986.54
   16:00:11.185.18-Apr-2020 3140.11 3138.12 67.55 7.00 169.98 1986.54
   16:00:11.385.18-Apr-2020 3140.11 3138.12 67.55 7.00 170.18 1986.54
   16:00:11.585.18-Apr-2020 3140.11 3139.54 67.55 7.00 170.38 1986.54
   16:00:11.785.18-Apr-2020 3140.11 3140.21 67.55 7.00 170.58 1986.54
   16:00:11.985.18-Apr-2020 3140.11 3140.49 67.55 7.00 170.78 1986.54
   16:00:12.185.18-Apr-2020 3140.11 3141.66 67.55 7.00 170.98 1986.54
   16:00:12.385.18-Apr-2020 3140.11 3142.65 67.55 7.00 171.18 1986.54
   16:00:12.585.18-Apr-2020 3140.11 3142.86 67.55 7.00 171.38 1986.54
   16:00:12.785.18-Apr-2020 3140.11 3143.41 67.55 7.00 171.58 1986.54
   16:00:12.985.18-Apr-2020 3140.11 3144.11 67.55 7.00 171.78 1986.54
   16:00:13.185.18-Apr-2020 3140.11 3144.75 67.55 7.00 171.98 1986.54
   16:00:13.385.18-Apr-2020 3140.11 3144.75 67.55 7.00 172.18 1986.54
   16:00:13.585.18-Apr-2020 3140.11 3146.14 67.55 7.00 172.38 1986.54
   16:00:13.785.18-Apr-2020 3140.11 3146.98 67.55 7.00 172.58 1986.54
   16:00:13.985.18-Apr-2020 3140.11 3147.71 67.55 7.00 172.78 1986.54
   16:00:14.185.18-Apr-2020 3140.11 3148.14 67.55 7.00 172.98 1986.54
   16:00:14.385.18-Apr-2020 3140.11 3148.14 67.55 7.00 173.18 1986.54
   16:00:14.585.18-Apr-2020 3140.11 3149.31 67.55 7.00 173.38 1986.54
   16:00:14.785.18-Apr-2020 3140.11 3149.78 67.55 7.00 173.58 1986.54
   16:00:14.985.18-Apr-2020 3140.11 3150.34 67.55 7.00 173.78 1986.54
   16:00:15.185.18-Apr-2020 3140.11 3150.83 67.55 7.00 173.98 1986.54
   16:00:15.385.18-Apr-2020 3140.11 3150.83 67.55 7.00 174.18 1986.54
   16:00:15.585.18-Apr-2020 3140.11 3151.34 67.55 7.00 174.38 1986.54
   16:00:15.785.18-Apr-2020 3140.11 3151.80 67.55 7.00 174.58 1986.54
   16:00:15.985.18-Apr-2020 3140.11 3152.28 67.55 7.00 174.78 1986.54
   16:00:16.185.18-Apr-2020 3140.11 3153.05 67.54 7.00 174.98 1986.54
   16:00:16.385.18-Apr-2020 3140.11 3153.72 67.54 7.00 175.18 1986.54
   16:00:16.585.18-Apr-2020 3140.11 3154.00 67.54 7.00 175.38 1986.54
   16:00:16.785.18-Apr-2020 3140.11 3154.42 67.54 7.00 175.58 1986.54
   16:00:16.985.18-Apr-2020 3140.11 3154.99 67.54 7.00 175.78 1986.54
   16:00:17.185.18-Apr-2020 3140.11 3155.29 67.54 7.00 175.98 1986.54
   16:00:17.385.18-Apr-2020 3140.11 3155.29 67.54 7.00 176.18 1986.54
   16:00:17.585.18-Apr-2020 3140.11 3156.40 67.54 7.00 176.38 1986.54
   16:00:17.785.18-Apr-2020 3140.11 3156.87 67.54 7.00 176.58 1986.54
   16:00:17.985.18-Apr-2020 3140.11 3157.37 67.54 7.00 176.78 1986.54
   16:00:18.185.18-Apr-2020 3140.11 3157.65 67.54 7.00 176.98 1986.54
   16:00:18.384.18-Apr-2020 3140.11 3157.65 67.54 7.00 177.18 1986.54
   16:00:18.584.18-Apr-2020 3140.11 3182.48 67.54 7.00 177.38 1986.54
   16:00:18.784.18-Apr-2020 3140.11 3224.15 67.54 7.00 177.58 1986.54
   16:00:18.984.18-Apr-2020 3140.11 3254.37 67.54 7.00 177.78 1986.54
   16:00:19.184.18-Apr-2020 3140.11 3275.71 67.54 7.00 177.98 1986.54
   16:00:19.384.18-Apr-2020 3140.11 3275.71 67.54 7.00 178.18 1986.54
   16:00:19.584.18-Apr-2020 3140.11 3299.98 67.54 7.00 178.38 1986.54
   16:00:19.784.18-Apr-2020 3140.11 3306.17 67.54 7.00 178.58 1986.54
   16:00:19.984.18-Apr-2020 3140.11 3310.07 67.54 7.00 178.78 1986.54
   16:00:20.184.18-Apr-2020 3140.11 3312.53 67.54 7.00 178.98 1986.54
   16:00:20.384.18-Apr-2020 3140.11 3314.09 67.54 7.00 179.18 1986.54
   16:00:20.584.18-Apr-2020 3140.11 3315.13 67.54 7.00 179.38 1986.54
   16:00:20.784.18-Apr-2020 3140.11 3315.86 67.54 7.00 179.58 1986.54
   16:00:20.984.18-Apr-2020 3140.11 3316.38 67.54 7.00 179.78 1986.54
   16:00:21.184.18-Apr-2020 3140.11 3316.81 67.54 7.00 179.98 1986.54
   16:00:21.384.18-Apr-2020 3140.11 3316.81 67.54 7.00 180.18 1986.54
   16:00:21.584.18-Apr-2020 3140.11 3317.39 67.54 7.00 180.38 1986.54
   16:00:21.784.18-Apr-2020 3140.11 3317.63 67.54 7.00 180.58 1986.54
   16:00:21.984.18-Apr-2020 3140.11 3317.84 67.54 7.00 180.78 1986.54
   16:00:22.184.18-Apr-2020 3140.11 3318.03 67.54 7.00 180.98 1986.54
   16:00:22.384.18-Apr-2020 3140.11 3318.03 67.54 7.00 181.18 1986.54
   16:00:22.584.18-Apr-2020 3140.11 3318.35 67.54 7.00 181.38 1986.54
   16:00:22.784.18-Apr-2020 3140.11 3318.51 67.54 7.00 181.58 1986.54
   16:00:22.984.18-Apr-2020 3140.11 3318.63 67.54 7.00 181.78 1986.54
   16:00:23.184.18-Apr-2020 3140.11 3318.74 67.54 7.00 181.98 1986.54
   16:00:23.384.18-Apr-2020 3140.11 3318.74 67.54 7.00 182.18 1986.54
   16:00:23.584.18-Apr-2020 3140.11 3318.95 67.54 7.00 182.38 1986.54
   16:00:23.784.18-Apr-2020 3140.11 3319.03 67.54 7.00 182.58 1986.54
   16:00:23.984.18-Apr-2020 3140.11 3319.11 67.54 7.00 182.78 1986.54
   16:00:24.184.18-Apr-2020 3140.11 3319.18 67.54 7.00 182.98 1986.54
   16:00:24.384.18-Apr-2020 3140.11 3319.25 67.54 7.00 183.18 1986.54
   16:00:24.584.18-Apr-2020 3140.11 3319.31 67.54 7.00 183.38 1986.54
   16:00:24.784.18-Apr-2020 3140.11 3319.35 67.54 7.00 183.58 1986.54
   16:00:24.984.18-Apr-2020 3140.11 3319.40 67.54 7.00 183.78 1986.54
