~Version Information
 VERS.                  2.0:   CWLS log ASCII Standard -VERSION 2.0
 WRAP.                   NO:   One line per depth step
~Well Information Block
#MNEM.UNIT     VALUE/NAME     DESCRIPTION
#---------     -----------    ---------------------------
 STRT.S             15:57:21 18-Apr-20: START TIME 15:57:21 18-Apr-20
 STOP.S             16:04:15 18-Apr-20: STOP TIME  16:04:15 18-Apr-20
 STEP.S                   0.00: STEP TIME
 NULL.                 -999.25: NULL VALUE
 DFWT.                        :  DIST FWL TEXT
 DFST.                        :  DIST FSL TEXT
 DMF .                        :  DRILL MEAS FROM
 STIM.      16.29.52 23-Mar-20:  START TIME
 DATE.      16.29.52 23-Mar-20:  END TIME
 SPUD.               23-Mar-20:  SPUD DATE
 NREF.                    Grid:  NORTH REFERENCE
 HPTY.       Minimum Curvature:  HOLE POS TYPE
 DMOD.             Drill Model:  DRILL MOD DESC
 SVYD.                  Survey:  SURVEY DESC
 ILTD.               Lithology:  INTERP LTH DESC
 FTOP.          Formation Tops:  FORM TOPS DESC
 SON .        AZ-XX-0906252240:  JOB NUMBER
 RIG .             West Chirag:  RIG NAME
 PDAT.          Mean Sea Level:  PERMANENT DATUM
 FLD .                     ACG:  FIELD NAME
 CTRY.              Azerbaijan:  COUNTRY NAME
 WELL.           J23 (Slot 07):  WELL NAME
 SRVC.          Turan Drilling:  CONTRACTOR
 COMP.     BP Exploration (Casoian Sea) Ltd:  COMPANY
 WTYP.                Deviated:  WELL TYPE
 MDS .        Operator Entered:  MAG DATA SOURCE
 UWI .                     N/A:  UNIQUE WELL IDENTIFIER
 API .                     N/A:  API NUMBER
 BASE.              Azerbaijan:  LOGGING EQUIPMENT BASE LOCATION
 REGN.                   EESSA:  REGION
 PROV.                    Baku:  PROVINCE
 STAT.                    Baku:  STATE NAME
 MWDS.                     N/A:  MWD SHOP
 JOBN.        AZ-XX-0906252240:  JOB TICKET NUMB
 DOE .                     N/A:  DOE NUMBER
 DCON.         Sperry Drilling:  DIRECTNL CONTR
 UNIT.                     N/A:  LOGGING EQUIPMENT ID
 CNTY.                        :  COUNTY
 LOC .                        :  LOCATION
 LMF .             Drill Floor:  LOG MEASURED FROM
 TVDS.m                  43.00:  TVDSS CORRECTN
 LATI.deg                40.13:  LATITUDE
 LONG.deg                51.22:  LONGITUDE
 WHNS.m                   9.43:  WELL HEAD N/S
 WHEW.m                  -8.91:  WELL HEAD E/W
 UTMX.m              519005.06:  UTM X
 UTMY.m             4443793.85:  UTM Y
 DFWL.m                   0.00:  DISTANCE FWL
 DFSL.m                   0.00:  DISTANCE FSL
 SDEP.m                   0.00:  START DEPTH
 TDD .m                   0.00:  TOTAL DEPTH (DRILLER)
 VSDR.deg               179.88:  VERT SEC DIRECT
 GVFD.g                   1.00:  GRAVITY FIELD
 MFLD.nT              50281.00:  MAGNETIC FIELD
 MDIP.deg                59.58:  MAGNETIC DIP
 MDEC.deg                 6.48:  MAGNETIC DECL
 GRDC.deg                 0.14:  GRID CORRECTION
 AZTC.deg                 6.34:  AZM TOTAL CORR
 EPD .m                   0.00:  ELEVATION
 EGL .m                   0.00:  GROUND ELEVATION
 WDMS.m                 169.80:  WD ELEV
 APD .m                  43.00:  DEPTH ABOVE PD
 DEP .m                 354.17:  DEPTH
 AGAP.m                  43.00:  AIR GAP
 VSEW.m                  -8.91:  VERT SEC E/W
 VSNS.m                   9.43:  VERT SEC N/S
 EKB .m                   0.00:  KB ELEVATION
 EDF .m                  43.00:  DF ELEVATION
 TDL .m                1326.00:  TOTAL DEPTH (LOGGER)
 VSC .                       0:  VS TO CLOSURE
 MAGU.                 1850704:  MAGUTM CHECKSUM
~Parameter Information Block
#MNEM.UNIT       Value        Description
#---------     -----------    ---------------------------
 AV  .mps                 1.17:  Ann Velocity 
 AZIF.deg               184.04:  Azm, Final 
 BHAT.        Rotary Steerable:  BHA Type 
 BREV.rev            620000.00:  Rev Bit Total 
 BROT.°/30m               0.20:  Build Rotating 
 BS  .in                 14.75:  Bit Size 
 BSZ .in                 14.75:  Bit Size 
 BTPL.psig              618.00:  Bit Press Loss 
 CABU.                      No:  Customer Abuse 
 COMM.                     ¬)g:  Run Comments 1 
 TCS .hr                 87.68:  Time Ciculation Ended 
 CV  .mps                 3.10:  Crit Velocity 
 DD1 .          Rashad Habibov:  Direct Drillr 1 
 DD2 .         Rasim Ibrahimov:  Direct Drillr 2 
 DDSV.               Geo-Pilot:  DD Service 
 DEFF.%                  98.00:  % Det Eff 
 DLRX.°/30m               1.48:  Dogleg Rot Max 
 DLSO.°/30m               0.50:  Dogleg Oriented 
 DLSX.°/30m               1.48:  Dogleg Str Max 
 DRET.      06.18.56 19-Apr-20:  Drill End Time 
 DRST.      15.00.56 15-Apr-20:  Drill Start Tim 
 DTIM.hr                 51.73:  Time Drilling 
 EDEP.m                3410.01:  End Depth 
 ENG1.        Marcelo Sandoval:  Engineer 1 
 ENG2.        Davud Huseynzade:  Engineer 2 
 ENG3.          Ruslan Safarov:  Engineer 3 
 ETIM.      04.00.56 20-Apr-20:  End Time 
 FLOI.gpm              1000.00:  Flow In 
 FLON.gpm               600.00:  Flow In Min 
 FLOS.cptm                0.00:  Fluid Loss 
 FLOX.gpm              1200.00:  Flow In Max 
 HFLO.                      No:  High Flow 
 HPRE.                     Yes:  High Pressure 
 HTEM.                      No:  High Temp 
 HYDO.m                   1.80:  Hydro Offset 
 IFIN.deg                70.04:  Inc, Final 
 IMAX.deg                70.56:  Inc Max 
 IMIN.deg                69.85:  Inc Min 
 IMND.m                3103.24:  Inc Min Depth 
 IMXD.m                2876.63:  Inc Max Depth 
 JARR.                      No:  Jarring 
 LETM.      06.18.56 19-Apr-20:  Log End Time 
 LOST.hr                     0:  Lost Rig Time 
 LSTM.      15.00.56 15-Apr-20:  Log Start Time 
 MDCL.ppm             42000.00:  Mud Chlorides 
 MDES.     Inversion Oil/Synthetic:  Mud Desc 
 DFD .sg                  1.58:  Mud Density 
 MDMN.sg                  1.58:  Dens Mud Min 
 MDMX.sg                  1.58:  Dens Mud Max 
 MOIL.                      71:  Run Mud Oil % 
 MOWR.                   71:29:  Run Mud OWR 
 MSND.                       0:  Run Mud Sand % 
 MSOL.                    23.3:  Run Mud Solids% 
 DFV .spqt               84.00:  Mud Viscosity 
 MWOD.in                  9.50:  MWD Tool OD 
 MWSI.                      No:  Serv Intrp, MWD 
 OTIM.hr                139.62:  Time Operating 
 PMAX.psia             5364.69:  Press Op, Max 
 PV  .cP                 80.00:  Mud PV 
 RUN .                     700:  Run Number 
 ROPA.m/hr               25.00:  ROP Avg 
 ROPN.m/hr               11.00:  ROP Min 
 ROPX.m/hr               36.00:  ROP Max 
 RPMA.rpm               130.00:  RPM Surface Avg 
 RPMN.rpm               120.00:  RPM Surface Min 
 RPMX.rpm               140.00:  RPM Surface Max 
 RRUN.                    0700:  Rig Run Number 
 SAZI.deg               183.25:  Azm, Start 
 SDEP.m                2084.00:  Start Depth 
 SIDD.                      No:  Serv Intrp, DD 
 SINC.deg                70.38:  Inc, Start 
 SPPA.psig             4800.00:  SPP Avg 
 SPPN.psig             4400.00:  SPP Min 
 SPPX.psig             5350.00:  SPP Max 
 STIM.      16.30.56 14-Apr-20:  Start Time 
 SVCS.                 DD, MWD:  Services 
 SVER.                    9.20:  Sperry Version 
 TDAT.m                1326.00:  Tot Depth Attmp 
 TDDF.                      No:  Trip for DD 
 TDLG.m                1326.00:  Tot Depth Loggd 
 TFF .                      No:  Trip for Fail 
 TQAA.f-kp               19.00:  Torque Abs Avg 
 TQAN.f-kp                8.00:  Torque Abs Min 
 TQAX.f-kp               27.00:  Torque Abs Max 
 TRRT.°/30m               0.50:  Turn Rotating 
 MRT .                    HCIM:  Maximum Recorded Temperature 
 TTMX.degC               82.35:  Max Tool Temp 
 VS01.       905245875X1Z1W1C8:  Virtual Str1 SN 
 VS02.       90608022F11V7D1A9:  Virtual Str2 SN 
 VS03.            90605473R5C9:  Virtual Str3 SN 
 WBMN.klb                11.00:  WOB Min 
 WOBA.klb                21.00:  WOB Avg 
 WOBX.klb                30.00:  WOB Max 
 YP  .lhf2               45.00:  Yield Point 
~Curve Information Block
#MNEM.UNIT                 API CODE     Curve Description
#---------               -----------    ---------------------------
 TIME.HHMMSS            00 000 000 000:  GT Time & Date
 GTDEPTH.m              00 000 000 000:  GT Depth
 GTPQH.psia             00 000 000 000:  GT HR Quartz Pressure
 GTTQ.degC              00 000 000 000:  GT Quartz Temperature
 GTTN.NONE              00 000 000 000:  GT Test Number
 GTET.sec               00 000 000 000:  GT Elapsed Test Time
 GTTVD.m                00 000 000 000:  GT True Vertical Depth
#Other Information
#
#WARRANTY: Halliburton will use its best efforts to furnish customers with 
#accurate information and interpretations that are part of, and incident to, the services 
#provided.  However, Halliburton cannot and does not warrant the accuracy 
#or correctness of such information and interpretations.  Under no circumstances should any 
#such information or interpretation be relied upon as the sole basis for any drilling, 
#completion, production, or financial decision or any procedure involving any risk to the 
#safety of any drilling venture, drilling rig or its crew or any other third party.  The 
#Customer has full responsibility for all drilling, completion and production operation.  
#Halliburton makes no representations or warranties, either expressed or 
#implied, including, but not limited to, the implied warranties of merchantability or fitness 
#for a particular purpose, with respect to the services rendered.  In no event will 
#Halliburton be liable for failure to obtain any particular results or for 
#any damages, including, but not limited to, indirect, special or consequential damages, 
#resulting from the use of any information or interpretation provided by Halliburton.
#
~A           TIME           GTDEPTH  GTPQH  GTTQ  GTTN  GTET   GTTVD  
# ...
   15:58:30.197.18-Apr-2020 3140.11 2964.05 67.67 7.00  68.99 1986.54
   15:58:30.397.18-Apr-2020 3140.11 2964.05 67.67 7.00  69.19 1986.54
   15:58:30.597.18-Apr-2020 3140.11 3008.69 67.67 7.00  69.39 1986.54
   15:58:30.797.18-Apr-2020 3140.11 3024.55 67.67 7.00  69.59 1986.54
   15:58:30.997.18-Apr-2020 3140.11 3038.09 67.66 7.00  69.79 1986.54
   15:58:31.197.18-Apr-2020 3140.11 3049.69 67.66 7.00  69.99 1986.54
   15:58:31.397.18-Apr-2020 3140.11 3049.69 67.66 7.00  70.19 1986.54
   15:58:31.597.18-Apr-2020 3140.11 3081.34 67.66 7.00  70.39 1986.54
   15:58:31.797.18-Apr-2020 3140.11 3157.33 67.66 7.00  70.59 1986.54
   15:58:31.997.18-Apr-2020 3140.11 3213.80 67.66 7.00  70.79 1986.54
   15:58:32.197.18-Apr-2020 3140.11 3250.52 67.66 7.00  70.99 1986.54
   15:58:32.397.18-Apr-2020 3140.11 3273.98 67.66 7.00  71.19 1986.54
   15:58:32.597.18-Apr-2020 3140.11 3288.50 67.66 7.00  71.39 1986.54
   15:58:32.797.18-Apr-2020 3140.11 3297.34 67.66 7.00  71.59 1986.54
   15:58:32.997.18-Apr-2020 3140.11 3302.77 67.66 7.00  71.79 1986.54
   15:58:33.197.18-Apr-2020 3140.11 3306.18 67.65 7.00  71.99 1986.54
   15:58:33.397.18-Apr-2020 3140.11 3306.18 67.65 7.00  72.19 1986.54
   15:58:33.597.18-Apr-2020 3140.11 3310.16 67.65 7.00  72.39 1986.54
   15:58:33.797.18-Apr-2020 3140.11 3311.46 67.65 7.00  72.59 1986.54
   15:58:33.997.18-Apr-2020 3140.11 3312.51 67.65 7.00  72.79 1986.54
   15:58:34.197.18-Apr-2020 3140.11 3313.38 67.65 7.00  72.99 1986.54
   15:58:34.397.18-Apr-2020 3140.11 3313.38 67.65 7.00  73.19 1986.54
   15:58:34.597.18-Apr-2020 3140.11 3314.73 67.65 7.00  73.39 1986.54
   15:58:34.796.18-Apr-2020 3140.11 3315.27 67.65 7.00  73.59 1986.54
   15:58:34.996.18-Apr-2020 3140.11 3315.77 67.65 7.00  73.79 1986.54
   15:58:35.196.18-Apr-2020 3140.11 3316.15 67.65 7.00  73.99 1986.54
   15:58:35.396.18-Apr-2020 3140.11 3316.15 67.65 7.00  74.19 1986.54
   15:58:35.596.18-Apr-2020 3140.11 3316.82 67.65 7.00  74.39 1986.54
   15:58:35.796.18-Apr-2020 3140.11 3317.11 67.65 7.00  74.59 1986.54
   15:58:35.996.18-Apr-2020 3140.11 3317.34 67.65 7.00  74.79 1986.54
   15:58:36.196.18-Apr-2020 3140.11 3317.57 67.65 7.00  74.99 1986.54
   15:58:36.396.18-Apr-2020 3140.11 3317.77 67.65 7.00  75.19 1986.54
   15:58:36.596.18-Apr-2020 3140.11 3317.96 67.65 7.00  75.39 1986.54
   15:58:36.796.18-Apr-2020 3140.11 3318.10 67.65 7.00  75.59 1986.54
   15:58:36.996.18-Apr-2020 3140.11 3318.26 67.65 7.00  75.79 1986.54
   15:58:37.196.18-Apr-2020 3140.11 3318.41 67.65 7.00  75.99 1986.54
   15:58:37.396.18-Apr-2020 3140.11 3318.41 67.65 7.00  76.19 1986.54
   15:58:37.596.18-Apr-2020 3140.11 3318.63 67.65 7.00  76.39 1986.54
   15:58:37.796.18-Apr-2020 3140.11 3318.72 67.65 7.00  76.59 1986.54
   15:58:37.996.18-Apr-2020 3140.11 3318.81 67.65 7.00  76.79 1986.54
   15:58:38.196.18-Apr-2020 3140.11 3318.89 67.65 7.00  76.99 1986.54
   15:58:38.396.18-Apr-2020 3140.11 3318.89 67.65 7.00  77.19 1986.54
   15:58:38.596.18-Apr-2020 3140.11 3319.06 67.64 7.00  77.39 1986.54
   15:58:38.796.18-Apr-2020 3140.11 3319.12 67.64 7.00  77.59 1986.54
   15:58:38.996.18-Apr-2020 3140.11 3319.18 67.64 7.00  77.79 1986.54
   15:58:39.196.18-Apr-2020 3140.11 3319.23 67.64 7.00  77.99 1986.54
   15:58:39.396.18-Apr-2020 3140.11 3319.23 67.64 7.00  78.19 1986.54
   15:58:39.596.18-Apr-2020 3140.11 3319.34 67.64 7.00  78.39 1986.54
   15:58:39.796.18-Apr-2020 3140.11 3319.37 67.64 7.00  78.59 1986.54
   15:58:39.996.18-Apr-2020 3140.11 3319.42 67.64 7.00  78.79 1986.54
   15:58:40.196.18-Apr-2020 3140.11 3319.45 67.64 7.00  78.99 1986.54
   15:58:40.396.18-Apr-2020 3140.11 3319.50 67.64 7.00  79.19 1986.54
   15:58:40.596.18-Apr-2020 3140.11 3319.53 67.64 7.00  79.39 1986.54
   15:58:40.796.18-Apr-2020 3140.11 3319.53 67.64 7.00  79.59 1986.54
   15:58:40.996.18-Apr-2020 3140.11 3319.61 67.64 7.00  79.79 1986.54
   15:58:41.196.18-Apr-2020 3140.11 3319.63 67.64 7.00  79.99 1986.54
   15:58:41.396.18-Apr-2020 3140.11 3319.63 67.64 7.00  80.19 1986.54
   15:58:41.596.18-Apr-2020 3140.11 3319.69 67.64 7.00  80.39 1986.54
   15:58:41.796.18-Apr-2020 3140.11 3319.71 67.64 7.00  80.59 1986.54
   15:58:41.996.18-Apr-2020 3140.11 3319.74 67.64 7.00  80.79 1986.54
   15:58:42.196.18-Apr-2020 3140.11 3319.76 67.64 7.00  80.99 1986.54
   15:58:42.396.18-Apr-2020 3140.11 3319.76 67.64 7.00  81.19 1986.54
   15:58:42.596.18-Apr-2020 3140.11 3319.80 67.64 7.00  81.39 1986.54
   15:58:42.796.18-Apr-2020 3140.11 3319.82 67.64 7.00  81.59 1986.54
   15:58:42.996.18-Apr-2020 3140.11 3319.83 67.64 7.00  81.79 1986.54
   15:58:43.196.18-Apr-2020 3140.11 3319.86 67.64 7.00  81.99 1986.54
   15:58:43.395.18-Apr-2020 3140.11 3319.86 67.64 7.00  82.19 1986.54
   15:58:43.595.18-Apr-2020 3140.11 3319.88 67.64 7.00  82.39 1986.54
   15:58:43.795.18-Apr-2020 3140.11 3319.91 67.64 7.00  82.59 1986.54
   15:58:43.995.18-Apr-2020 3140.11 3319.89 67.64 7.00  82.79 1986.54
   15:58:44.195.18-Apr-2020 3140.11 3319.90 67.64 7.00  82.99 1986.54
   15:58:44.395.18-Apr-2020 3140.11 3319.90 67.64 7.00  83.19 1986.54
   15:58:44.595.18-Apr-2020 3140.11 3319.95 67.64 7.00  83.39 1986.54
   15:58:44.795.18-Apr-2020 3140.11 3319.97 67.64 7.00  83.59 1986.54
   15:58:44.995.18-Apr-2020 3140.11 3319.96 67.64 7.00  83.79 1986.54
   15:58:45.195.18-Apr-2020 3140.11 3319.99 67.64 7.00  83.99 1986.54
   15:58:45.395.18-Apr-2020 3140.11 3319.99 67.64 7.00  84.19 1986.54
   15:58:45.595.18-Apr-2020 3140.11 3320.01 67.64 7.00  84.39 1986.54
   15:58:45.795.18-Apr-2020 3140.11 3320.01 67.64 7.00  84.59 1986.54
   15:58:45.995.18-Apr-2020 3140.11 3320.02 67.64 7.00  84.79 1986.54
   15:58:46.195.18-Apr-2020 3140.11 3320.03 67.64 7.00  84.99 1986.54
   15:58:46.395.18-Apr-2020 3140.11 3320.03 67.64 7.00  85.19 1986.54
   15:58:46.595.18-Apr-2020 3140.11 3320.04 67.64 7.00  85.39 1986.54
   15:58:46.795.18-Apr-2020 3140.11 3320.05 67.64 7.00  85.59 1986.54
   15:58:46.995.18-Apr-2020 3140.11 3320.08 67.64 7.00  85.79 1986.54
   15:58:47.195.18-Apr-2020 3140.11 3320.07 67.64 7.00  85.99 1986.54
   15:58:47.395.18-Apr-2020 3140.11 3320.07 67.64 7.00  86.19 1986.54
   15:58:47.595.18-Apr-2020 3140.11 3320.09 67.63 7.00  86.39 1986.54
   15:58:47.795.18-Apr-2020 3140.11 3320.09 67.63 7.00  86.59 1986.54
   15:58:47.995.18-Apr-2020 3140.11 3320.10 67.63 7.00  86.79 1986.54
   15:58:48.195.18-Apr-2020 3140.11 3320.11 67.63 7.00  86.99 1986.54
   15:58:48.395.18-Apr-2020 3140.11 3320.10 67.63 7.00  87.19 1986.54
   15:58:48.595.18-Apr-2020 3140.11 3320.12 67.63 7.00  87.39 1986.54
   15:58:48.795.18-Apr-2020 3140.11 3320.12 67.63 7.00  87.59 1986.54
   15:58:48.995.18-Apr-2020 3140.11 3320.12 67.63 7.00  87.79 1986.54
   15:58:49.195.18-Apr-2020 3140.11 3320.12 67.63 7.00  87.99 1986.54
   15:58:49.395.18-Apr-2020 3140.11 3320.12 67.63 7.00  88.19 1986.54
   15:58:49.595.18-Apr-2020 3140.11 3320.15 67.63 7.00  88.39 1986.54
   15:58:49.795.18-Apr-2020 3140.11 3320.14 67.63 7.00  88.59 1986.54
   15:58:49.995.18-Apr-2020 3140.11 3320.15 67.63 7.00  88.79 1986.54
   15:58:50.195.18-Apr-2020 3140.11 3320.14 67.63 7.00  88.99 1986.54
   15:58:50.395.18-Apr-2020 3140.11 3320.14 67.63 7.00  89.19 1986.54
   15:58:50.595.18-Apr-2020 3140.11 3320.17 67.63 7.00  89.39 1986.54
   15:58:50.795.18-Apr-2020 3140.11 3320.17 67.63 7.00  89.59 1986.54
   15:58:50.995.18-Apr-2020 3140.11 3320.17 67.63 7.00  89.79 1986.54
   15:58:51.195.18-Apr-2020 3140.11 3320.17 67.63 7.00  89.99 1986.54
   15:58:51.395.18-Apr-2020 3140.11 3320.17 67.63 7.00  90.19 1986.54
   15:58:51.595.18-Apr-2020 3140.11 3320.18 67.63 7.00  90.39 1986.54
   15:58:51.795.18-Apr-2020 3140.11 3320.17 67.63 7.00  90.59 1986.54
   15:58:51.994.18-Apr-2020 3140.11 3320.18 67.63 7.00  90.79 1986.54
   15:58:52.194.18-Apr-2020 3140.11 3320.17 67.63 7.00  90.99 1986.54
   15:58:52.394.18-Apr-2020 3140.11 3320.18 67.63 7.00  91.19 1986.54
   15:58:52.594.18-Apr-2020 3140.11 3320.20 67.63 7.00  91.39 1986.54
   15:58:52.794.18-Apr-2020 3140.11 3320.18 67.63 7.00  91.59 1986.54
   15:58:52.994.18-Apr-2020 3140.11 3320.19 67.63 7.00  91.79 1986.54
