~Version Information
 VERS.                  2.0:   CWLS log ASCII Standard -VERSION 2.0
 WRAP.                   NO:   One line per depth step
~Well Information Block
#MNEM.UNIT     VALUE/NAME     DESCRIPTION
#---------     -----------    ---------------------------
 STRT.S             13:35:33 18-Apr-20: START TIME 13:35:33 18-Apr-20
 STOP.S             13:42:31 18-Apr-20: STOP TIME  13:42:31 18-Apr-20
 STEP.S                   0.00: STEP TIME
 NULL.                 -999.25: NULL VALUE
 DFWT.                        :  DIST FWL TEXT
 DFST.                        :  DIST FSL TEXT
 DMF .                        :  DRILL MEAS FROM
 STIM.      16.29.52 23-Mar-20:  START TIME
 DATE.      16.29.52 23-Mar-20:  END TIME
 SPUD.               23-Mar-20:  SPUD DATE
 NREF.                    Grid:  NORTH REFERENCE
 HPTY.       Minimum Curvature:  HOLE POS TYPE
 DMOD.             Drill Model:  DRILL MOD DESC
 SVYD.                  Survey:  SURVEY DESC
 ILTD.               Lithology:  INTERP LTH DESC
 FTOP.          Formation Tops:  FORM TOPS DESC
 SON .        AZ-XX-0906252240:  JOB NUMBER
 RIG .             West Chirag:  RIG NAME
 PDAT.          Mean Sea Level:  PERMANENT DATUM
 FLD .                     ACG:  FIELD NAME
 CTRY.              Azerbaijan:  COUNTRY NAME
 WELL.           J23 (Slot 07):  WELL NAME
 SRVC.          Turan Drilling:  CONTRACTOR
 COMP.     BP Exploration (Casoian Sea) Ltd:  COMPANY
 WTYP.                Deviated:  WELL TYPE
 MDS .        Operator Entered:  MAG DATA SOURCE
 UWI .                     N/A:  UNIQUE WELL IDENTIFIER
 API .                     N/A:  API NUMBER
 BASE.              Azerbaijan:  LOGGING EQUIPMENT BASE LOCATION
 REGN.                   EESSA:  REGION
 PROV.                    Baku:  PROVINCE
 STAT.                    Baku:  STATE NAME
 MWDS.                     N/A:  MWD SHOP
 JOBN.        AZ-XX-0906252240:  JOB TICKET NUMB
 DOE .                     N/A:  DOE NUMBER
 DCON.         Sperry Drilling:  DIRECTNL CONTR
 UNIT.                     N/A:  LOGGING EQUIPMENT ID
 CNTY.                        :  COUNTY
 LOC .                        :  LOCATION
 LMF .             Drill Floor:  LOG MEASURED FROM
 TVDS.m                  43.00:  TVDSS CORRECTN
 LATI.deg                40.13:  LATITUDE
 LONG.deg                51.22:  LONGITUDE
 WHNS.m                   9.43:  WELL HEAD N/S
 WHEW.m                  -8.91:  WELL HEAD E/W
 UTMX.m              519005.06:  UTM X
 UTMY.m             4443793.85:  UTM Y
 DFWL.m                   0.00:  DISTANCE FWL
 DFSL.m                   0.00:  DISTANCE FSL
 SDEP.m                   0.00:  START DEPTH
 TDD .m                   0.00:  TOTAL DEPTH (DRILLER)
 VSDR.deg               179.88:  VERT SEC DIRECT
 GVFD.g                   1.00:  GRAVITY FIELD
 MFLD.nT              50281.00:  MAGNETIC FIELD
 MDIP.deg                59.58:  MAGNETIC DIP
 MDEC.deg                 6.48:  MAGNETIC DECL
 GRDC.deg                 0.14:  GRID CORRECTION
 AZTC.deg                 6.34:  AZM TOTAL CORR
 EPD .m                   0.00:  ELEVATION
 EGL .m                   0.00:  GROUND ELEVATION
 WDMS.m                 169.80:  WD ELEV
 APD .m                  43.00:  DEPTH ABOVE PD
 DEP .m                 354.17:  DEPTH
 AGAP.m                  43.00:  AIR GAP
 VSEW.m                  -8.91:  VERT SEC E/W
 VSNS.m                   9.43:  VERT SEC N/S
 EKB .m                   0.00:  KB ELEVATION
 EDF .m                  43.00:  DF ELEVATION
 TDL .m                1326.00:  TOTAL DEPTH (LOGGER)
 VSC .                       0:  VS TO CLOSURE
 MAGU.                 1850704:  MAGUTM CHECKSUM
~Parameter Information Block
#MNEM.UNIT       Value        Description
#---------     -----------    ---------------------------
 AV  .mps                 1.17:  Ann Velocity 
 AZIF.deg               184.04:  Azm, Final 
 BHAT.        Rotary Steerable:  BHA Type 
 BREV.rev            620000.00:  Rev Bit Total 
 BROT.°/30m               0.20:  Build Rotating 
 BS  .in                 14.75:  Bit Size 
 BSZ .in                 14.75:  Bit Size 
 BTPL.psig              618.00:  Bit Press Loss 
 CABU.                      No:  Customer Abuse 
 COMM.                     ôÎT:  Run Comments 1 
 TCS .hr                 87.68:  Time Ciculation Ended 
 CV  .mps                 3.10:  Crit Velocity 
 DD1 .          Rashad Habibov:  Direct Drillr 1 
 DD2 .         Rasim Ibrahimov:  Direct Drillr 2 
 DDSV.               Geo-Pilot:  DD Service 
 DEFF.%                  98.00:  % Det Eff 
 DLRX.°/30m               1.48:  Dogleg Rot Max 
 DLSO.°/30m               0.50:  Dogleg Oriented 
 DLSX.°/30m               1.48:  Dogleg Str Max 
 DRET.      06.18.56 19-Apr-20:  Drill End Time 
 DRST.      15.00.56 15-Apr-20:  Drill Start Tim 
 DTIM.hr                 51.73:  Time Drilling 
 EDEP.m                3410.01:  End Depth 
 ENG1.        Marcelo Sandoval:  Engineer 1 
 ENG2.        Davud Huseynzade:  Engineer 2 
 ENG3.          Ruslan Safarov:  Engineer 3 
 ETIM.      04.00.56 20-Apr-20:  End Time 
 FLOI.gpm              1000.00:  Flow In 
 FLON.gpm               600.00:  Flow In Min 
 FLOS.cptm                0.00:  Fluid Loss 
 FLOX.gpm              1200.00:  Flow In Max 
 HFLO.                      No:  High Flow 
 HPRE.                     Yes:  High Pressure 
 HTEM.                      No:  High Temp 
 HYDO.m                   1.80:  Hydro Offset 
 IFIN.deg                70.04:  Inc, Final 
 IMAX.deg                70.56:  Inc Max 
 IMIN.deg                69.85:  Inc Min 
 IMND.m                3103.24:  Inc Min Depth 
 IMXD.m                2876.63:  Inc Max Depth 
 JARR.                      No:  Jarring 
 LETM.      06.18.56 19-Apr-20:  Log End Time 
 LOST.hr                     0:  Lost Rig Time 
 LSTM.      15.00.56 15-Apr-20:  Log Start Time 
 MDCL.ppm             42000.00:  Mud Chlorides 
 MDES.     Inversion Oil/Synthetic:  Mud Desc 
 DFD .sg                  1.58:  Mud Density 
 MDMN.sg                  1.58:  Dens Mud Min 
 MDMX.sg                  1.58:  Dens Mud Max 
 MOIL.                      71:  Run Mud Oil % 
 MOWR.                   71:29:  Run Mud OWR 
 MSND.                       0:  Run Mud Sand % 
 MSOL.                    23.3:  Run Mud Solids% 
 DFV .spqt               84.00:  Mud Viscosity 
 MWOD.in                  9.50:  MWD Tool OD 
 MWSI.                      No:  Serv Intrp, MWD 
 OTIM.hr                139.62:  Time Operating 
 PMAX.psia             5364.69:  Press Op, Max 
 PV  .cP                 80.00:  Mud PV 
 RUN .                     700:  Run Number 
 ROPA.m/hr               25.00:  ROP Avg 
 ROPN.m/hr               11.00:  ROP Min 
 ROPX.m/hr               36.00:  ROP Max 
 RPMA.rpm               130.00:  RPM Surface Avg 
 RPMN.rpm               120.00:  RPM Surface Min 
 RPMX.rpm               140.00:  RPM Surface Max 
 RRUN.                    0700:  Rig Run Number 
 SAZI.deg               183.25:  Azm, Start 
 SDEP.m                2084.00:  Start Depth 
 SIDD.                      No:  Serv Intrp, DD 
 SINC.deg                70.38:  Inc, Start 
 SPPA.psig             4800.00:  SPP Avg 
 SPPN.psig             4400.00:  SPP Min 
 SPPX.psig             5350.00:  SPP Max 
 STIM.      16.30.56 14-Apr-20:  Start Time 
 SVCS.                 DD, MWD:  Services 
 SVER.                    9.20:  Sperry Version 
 TDAT.m                1326.00:  Tot Depth Attmp 
 TDDF.                      No:  Trip for DD 
 TDLG.m                1326.00:  Tot Depth Loggd 
 TFF .                      No:  Trip for Fail 
 TQAA.f-kp               19.00:  Torque Abs Avg 
 TQAN.f-kp                8.00:  Torque Abs Min 
 TQAX.f-kp               27.00:  Torque Abs Max 
 TRRT.°/30m               0.50:  Turn Rotating 
 MRT .                    HCIM:  Maximum Recorded Temperature 
 TTMX.degC               82.35:  Max Tool Temp 
 VS01.       905245875X1Z1W1C8:  Virtual Str1 SN 
 VS02.       90608022F11V7D1A9:  Virtual Str2 SN 
 VS03.            90605473R5C9:  Virtual Str3 SN 
 WBMN.klb                11.00:  WOB Min 
 WOBA.klb                21.00:  WOB Avg 
 WOBX.klb                30.00:  WOB Max 
 YP  .lhf2               45.00:  Yield Point 
~Curve Information Block
#MNEM.UNIT                 API CODE     Curve Description
#---------               -----------    ---------------------------
 TIME.HHMMSS            00 000 000 000:  GT Time & Date
 GTDEPTH.m              00 000 000 000:  GT Depth
 GTPQH.psia             00 000 000 000:  GT HR Quartz Pressure
 GTTQ.degC              00 000 000 000:  GT Quartz Temperature
 GTTN.NONE              00 000 000 000:  GT Test Number
 GTET.sec               00 000 000 000:  GT Elapsed Test Time
 GTTVD.m                00 000 000 000:  GT True Vertical Depth
#Other Information
#
#WARRANTY: Halliburton will use its best efforts to furnish customers with 
#accurate information and interpretations that are part of, and incident to, the services 
#provided.  However, Halliburton cannot and does not warrant the accuracy 
#or correctness of such information and interpretations.  Under no circumstances should any 
#such information or interpretation be relied upon as the sole basis for any drilling, 
#completion, production, or financial decision or any procedure involving any risk to the 
#safety of any drilling venture, drilling rig or its crew or any other third party.  The 
#Customer has full responsibility for all drilling, completion and production operation.  
#Halliburton makes no representations or warranties, either expressed or 
#implied, including, but not limited to, the implied warranties of merchantability or fitness 
#for a particular purpose, with respect to the services rendered.  In no event will 
#Halliburton be liable for failure to obtain any particular results or for 
#any damages, including, but not limited to, indirect, special or consequential damages, 
#resulting from the use of any information or interpretation provided by Halliburton.
#
~A           TIME           GTDEPTH  GTPQH  GTTQ  GTTN  GTET   GTTVD  
# ...
   13:36:19.278.18-Apr-2020 3111.02 4541.73 71.08 5.00  46.02 1976.62
   13:36:19.478.18-Apr-2020 3111.02 4541.73 71.08 5.00  46.22 1976.62
   13:36:19.678.18-Apr-2020 3111.02 4542.33 71.08 5.00  46.42 1976.62
   13:36:19.878.18-Apr-2020 3111.02 4542.25 71.08 5.00  46.62 1976.62
   13:36:20.078.18-Apr-2020 3111.02 4541.05 71.07 5.00  46.82 1976.62
   13:36:20.278.18-Apr-2020 3111.02 4539.68 71.07 5.00  47.02 1976.62
   13:36:20.478.18-Apr-2020 3111.02 4539.68 71.07 5.00  47.22 1976.62
   13:36:20.678.18-Apr-2020 3111.02 4542.40 71.07 5.00  47.42 1976.62
   13:36:20.879.18-Apr-2020 3111.02 4542.14 71.07 5.00  47.62 1976.62
   13:36:21.079.18-Apr-2020 3111.02 4543.62 71.07 5.00  47.82 1976.62
   13:36:21.279.18-Apr-2020 3111.02 4543.57 71.07 5.00  48.02 1976.62
   13:36:21.479.18-Apr-2020 3111.02 4543.57 71.07 5.00  48.22 1976.62
   13:36:21.679.18-Apr-2020 3111.02 4542.89 71.07 5.00  48.42 1976.62
   13:36:21.879.18-Apr-2020 3111.02 4543.23 71.06 5.00  48.62 1976.62
   13:36:22.079.18-Apr-2020 3111.02 4543.12 71.06 5.00  48.82 1976.62
   13:36:22.279.18-Apr-2020 3111.02 4542.84 71.06 5.00  49.02 1976.62
   13:36:22.479.18-Apr-2020 3111.02 4542.84 71.06 5.00  49.22 1976.62
   13:36:22.679.18-Apr-2020 3111.02 4543.36 71.06 5.00  49.42 1976.62
   13:36:22.879.18-Apr-2020 3111.02 4540.81 71.06 5.00  49.62 1976.62
   13:36:23.080.18-Apr-2020 3111.02 4542.68 71.06 5.00  49.82 1976.62
   13:36:23.280.18-Apr-2020 3111.02 4543.81 71.06 5.00  50.02 1976.62
   13:36:23.480.18-Apr-2020 3111.02 4543.81 71.06 5.00  50.22 1976.62
   13:36:23.680.18-Apr-2020 3111.02 4541.36 71.06 5.00  50.42 1976.62
   13:36:23.880.18-Apr-2020 3111.02 4544.46 71.05 5.00  50.62 1976.62
   13:36:24.080.18-Apr-2020 3111.02 4544.22 71.05 5.00  50.82 1976.62
   13:36:24.280.18-Apr-2020 3111.02 4543.19 71.05 5.00  51.02 1976.62
   13:36:24.480.18-Apr-2020 3111.02 4543.19 71.05 5.00  51.22 1976.62
   13:36:24.680.18-Apr-2020 3111.02 4545.09 71.05 5.00  51.42 1976.62
   13:36:24.880.18-Apr-2020 3111.02 4543.90 71.05 5.00  51.62 1976.62
   13:36:25.080.18-Apr-2020 3111.02 4543.64 71.05 5.00  51.82 1976.62
   13:36:25.281.18-Apr-2020 3111.02 4543.45 71.05 5.00  52.02 1976.62
   13:36:25.481.18-Apr-2020 3111.02 4543.45 71.05 5.00  52.22 1976.62
   13:36:25.681.18-Apr-2020 3111.02 4543.15 71.04 5.00  52.42 1976.62
   13:36:25.881.18-Apr-2020 3111.02 4543.69 71.04 5.00  52.62 1976.62
   13:36:26.081.18-Apr-2020 3111.02 4543.49 71.04 5.00  52.82 1976.62
   13:36:26.281.18-Apr-2020 3111.02 4543.44 71.04 5.00  53.02 1976.62
   13:36:26.481.18-Apr-2020 3111.02 4543.44 71.04 5.00  53.22 1976.62
   13:36:26.681.18-Apr-2020 3111.02 4454.84 71.04 5.00  53.42 1976.62
   13:36:26.881.18-Apr-2020 3111.02 4490.80 71.04 5.00  53.62 1976.62
   13:36:27.081.18-Apr-2020 3111.02 4602.13 71.04 5.00  53.82 1976.62
   13:36:27.281.18-Apr-2020 3111.02 4654.19 71.04 5.00  54.02 1976.62
   13:36:27.482.18-Apr-2020 3111.02 4654.19 71.04 5.00  54.22 1976.62
   13:36:27.682.18-Apr-2020 3111.02 4673.31 71.03 5.00  54.42 1976.62
   13:36:27.882.18-Apr-2020 3111.02 4651.98 71.03 5.00  54.62 1976.62
   13:36:28.082.18-Apr-2020 3111.02 4654.46 71.03 5.00  54.82 1976.62
   13:36:28.282.18-Apr-2020 3111.02 4648.50 71.03 5.00  55.02 1976.62
   13:36:28.482.18-Apr-2020 3111.02 4648.50 71.03 5.00  55.22 1976.62
   13:36:28.682.18-Apr-2020 3111.02 4631.12 71.03 5.00  55.42 1976.62
   13:36:28.882.18-Apr-2020 3111.02 4596.09 71.03 5.00  55.63 1976.62
   13:36:29.082.18-Apr-2020 3111.02 4596.08 71.03 5.00  55.83 1976.62
   13:36:29.282.18-Apr-2020 3111.02 4597.17 71.03 5.00  56.03 1976.62
   13:36:29.482.18-Apr-2020 3111.02 4597.17 71.03 5.00  56.23 1976.62
   13:36:29.683.18-Apr-2020 3111.02 4594.12 71.02 5.00  56.43 1976.62
   13:36:29.883.18-Apr-2020 3111.02 4592.85 71.02 5.00  56.63 1976.62
   13:36:30.083.18-Apr-2020 3111.02 4593.52 71.02 5.00  56.83 1976.62
   13:36:30.283.18-Apr-2020 3111.02 4593.91 71.02 5.00  57.03 1976.62
   13:36:30.483.18-Apr-2020 3111.02 4593.91 71.02 5.00  57.23 1976.62
   13:36:30.683.18-Apr-2020 3111.02 4591.68 71.02 5.00  57.43 1976.62
   13:36:30.883.18-Apr-2020 3111.02 4591.99 71.02 5.00  57.63 1976.62
   13:36:31.083.18-Apr-2020 3111.02 4591.58 71.02 5.00  57.83 1976.62
   13:36:31.283.18-Apr-2020 3111.02 4591.15 71.02 5.00  58.03 1976.62
   13:36:31.483.18-Apr-2020 3111.02 4591.15 71.02 5.00  58.23 1976.62
   13:36:31.683.18-Apr-2020 3111.02 4591.14 71.01 5.00  58.43 1976.62
   13:36:31.884.18-Apr-2020 3111.02 4590.88 71.01 5.00  58.63 1976.62
   13:36:32.084.18-Apr-2020 3111.02 4589.54 71.01 5.00  58.83 1976.62
   13:36:32.284.18-Apr-2020 3111.02 4591.19 71.01 5.00  59.03 1976.62
   13:36:32.484.18-Apr-2020 3111.02 4591.19 71.01 5.00  59.23 1976.62
   13:36:32.684.18-Apr-2020 3111.02 4589.65 71.01 5.00  59.43 1976.62
   13:36:32.884.18-Apr-2020 3111.02 4591.46 71.01 5.00  59.63 1976.62
   13:36:33.084.18-Apr-2020 3111.02 4591.28 71.01 5.00  59.83 1976.62
   13:36:33.284.18-Apr-2020 3111.02 4590.98 71.01 5.00  60.03 1976.62
   13:36:33.484.18-Apr-2020 3111.02 4590.98 71.01 5.00  60.23 1976.62
   13:36:33.684.18-Apr-2020 3111.02 4591.30 71.00 5.00  60.43 1976.62
   13:36:33.884.18-Apr-2020 3111.02 4590.08 71.00 5.00  60.63 1976.62
   13:36:34.085.18-Apr-2020 3111.02 4591.58 71.00 5.00  60.83 1976.62
   13:36:34.285.18-Apr-2020 3111.02 4591.42 71.00 5.00  61.03 1976.62
   13:36:34.485.18-Apr-2020 3111.02 4591.42 71.00 5.00  61.23 1976.62
   13:36:34.685.18-Apr-2020 3111.02 4589.86 71.00 5.00  61.43 1976.62
   13:36:34.885.18-Apr-2020 3111.02 4590.45 71.00 5.00  61.63 1976.62
   13:36:35.085.18-Apr-2020 3111.02 4591.37 71.00 5.00  61.83 1976.62
   13:36:35.285.18-Apr-2020 3111.02 4591.31 71.00 5.00  62.03 1976.62
   13:36:35.485.18-Apr-2020 3111.02 4591.31 71.00 5.00  62.23 1976.62
   13:36:35.685.18-Apr-2020 3111.02 4718.51 70.99 5.00  62.43 1976.62
   13:36:35.885.18-Apr-2020 3111.02 4570.55 70.99 5.00  62.63 1976.62
   13:36:36.085.18-Apr-2020 3111.02 4561.53 70.99 5.00  62.83 1976.62
   13:36:36.285.18-Apr-2020 3111.02 4559.90 70.99 5.00  63.03 1976.62
   13:36:36.486.18-Apr-2020 3111.02 4559.90 70.99 5.00  63.23 1976.62
   13:36:36.686.18-Apr-2020 3111.02 4558.46 70.99 5.00  63.43 1976.62
   13:36:36.886.18-Apr-2020 3111.02 4558.82 70.99 5.00  63.63 1976.62
   13:36:37.086.18-Apr-2020 3111.02 4558.91 70.99 5.00  63.83 1976.62
   13:36:37.286.18-Apr-2020 3111.02 4559.55 70.98 5.00  64.03 1976.62
   13:36:37.486.18-Apr-2020 3111.02 4559.55 70.98 5.00  64.23 1976.62
   13:36:37.686.18-Apr-2020 3111.02 4559.08 70.98 5.00  64.43 1976.62
   13:36:37.886.18-Apr-2020 3111.02 4505.58 70.98 5.00  64.63 1976.62
   13:36:38.086.18-Apr-2020 3111.02 4366.52 70.98 5.00  64.83 1976.62
   13:36:38.286.18-Apr-2020 3111.02 4201.05 70.98 5.00  65.03 1976.62
   13:36:38.486.18-Apr-2020 3111.02 4201.05 70.98 5.00  65.23 1976.62
   13:36:38.687.18-Apr-2020 3111.02 3924.59 70.98 5.00  65.43 1976.62
   13:36:38.887.18-Apr-2020 3111.02 3815.42 70.98 5.00  65.63 1976.62
   13:36:39.087.18-Apr-2020 3111.02 3715.40 70.98 5.00  65.83 1976.62
   13:36:39.287.18-Apr-2020 3111.02 3619.47 70.97 5.00  66.03 1976.62
   13:36:39.487.18-Apr-2020 3111.02 3619.47 70.97 5.00  66.23 1976.62
   13:36:39.687.18-Apr-2020 3111.02 3444.68 70.97 5.00  66.43 1976.62
   13:36:39.887.18-Apr-2020 3111.02 3366.86 70.97 5.00  66.63 1976.62
   13:36:40.087.18-Apr-2020 3111.02 3295.73 70.97 5.00  66.83 1976.62
   13:36:40.287.18-Apr-2020 3111.02 3232.45 70.97 5.00  67.03 1976.62
   13:36:40.487.18-Apr-2020 3111.02 3232.45 70.97 5.00  67.23 1976.62
   13:36:40.687.18-Apr-2020 3111.02 3161.42 70.96 5.00  67.43 1976.62
   13:36:40.888.18-Apr-2020 3111.02 3270.56 70.96 5.00  67.63 1976.62
   13:36:41.088.18-Apr-2020 3111.02 3306.87 70.96 5.00  67.83 1976.62
   13:36:41.288.18-Apr-2020 3111.02 3308.53 70.96 5.00  68.03 1976.62
   13:36:41.488.18-Apr-2020 3111.02 3308.53 70.96 5.00  68.23 1976.62
   13:36:41.688.18-Apr-2020 3111.02 3310.11 70.95 5.00  68.43 1976.62
   13:36:41.888.18-Apr-2020 3111.02 3310.46 70.95 5.00  68.63 1976.62
   13:36:42.088.18-Apr-2020 3111.02 3310.80 70.95 5.00  68.83 1976.62
