~Version Information
 VERS.                  2.0:   CWLS log ASCII Standard -VERSION 2.0
 WRAP.                   NO:   One line per depth step
~Well Information Block
#MNEM.UNIT     VALUE/NAME     DESCRIPTION
#---------     -----------    ---------------------------
 STRT.S             15:35:19 18-Apr-20: START TIME 15:35:19 18-Apr-20
 STOP.S             15:42:14 18-Apr-20: STOP TIME  15:42:14 18-Apr-20
 STEP.S                   0.00: STEP TIME
 NULL.                 -999.25: NULL VALUE
 DFWT.                        :  DIST FWL TEXT
 DFST.                        :  DIST FSL TEXT
 DMF .                        :  DRILL MEAS FROM
 STIM.      16.29.52 23-Mar-20:  START TIME
 DATE.      16.29.52 23-Mar-20:  END TIME
 SPUD.               23-Mar-20:  SPUD DATE
 NREF.                    Grid:  NORTH REFERENCE
 HPTY.       Minimum Curvature:  HOLE POS TYPE
 DMOD.             Drill Model:  DRILL MOD DESC
 SVYD.                  Survey:  SURVEY DESC
 ILTD.               Lithology:  INTERP LTH DESC
 FTOP.          Formation Tops:  FORM TOPS DESC
 SON .        AZ-XX-0906252240:  JOB NUMBER
 RIG .             West Chirag:  RIG NAME
 PDAT.          Mean Sea Level:  PERMANENT DATUM
 FLD .                     ACG:  FIELD NAME
 CTRY.              Azerbaijan:  COUNTRY NAME
 WELL.           J23 (Slot 07):  WELL NAME
 SRVC.          Turan Drilling:  CONTRACTOR
 COMP.     BP Exploration (Casoian Sea) Ltd:  COMPANY
 WTYP.                Deviated:  WELL TYPE
 MDS .        Operator Entered:  MAG DATA SOURCE
 UWI .                     N/A:  UNIQUE WELL IDENTIFIER
 API .                     N/A:  API NUMBER
 BASE.              Azerbaijan:  LOGGING EQUIPMENT BASE LOCATION
 REGN.                   EESSA:  REGION
 PROV.                    Baku:  PROVINCE
 STAT.                    Baku:  STATE NAME
 MWDS.                     N/A:  MWD SHOP
 JOBN.        AZ-XX-0906252240:  JOB TICKET NUMB
 DOE .                     N/A:  DOE NUMBER
 DCON.         Sperry Drilling:  DIRECTNL CONTR
 UNIT.                     N/A:  LOGGING EQUIPMENT ID
 CNTY.                        :  COUNTY
 LOC .                        :  LOCATION
 LMF .             Drill Floor:  LOG MEASURED FROM
 TVDS.m                  43.00:  TVDSS CORRECTN
 LATI.deg                40.13:  LATITUDE
 LONG.deg                51.22:  LONGITUDE
 WHNS.m                   9.43:  WELL HEAD N/S
 WHEW.m                  -8.91:  WELL HEAD E/W
 UTMX.m              519005.06:  UTM X
 UTMY.m             4443793.85:  UTM Y
 DFWL.m                   0.00:  DISTANCE FWL
 DFSL.m                   0.00:  DISTANCE FSL
 SDEP.m                   0.00:  START DEPTH
 TDD .m                   0.00:  TOTAL DEPTH (DRILLER)
 VSDR.deg               179.88:  VERT SEC DIRECT
 GVFD.g                   1.00:  GRAVITY FIELD
 MFLD.nT              50281.00:  MAGNETIC FIELD
 MDIP.deg                59.58:  MAGNETIC DIP
 MDEC.deg                 6.48:  MAGNETIC DECL
 GRDC.deg                 0.14:  GRID CORRECTION
 AZTC.deg                 6.34:  AZM TOTAL CORR
 EPD .m                   0.00:  ELEVATION
 EGL .m                   0.00:  GROUND ELEVATION
 WDMS.m                 169.80:  WD ELEV
 APD .m                  43.00:  DEPTH ABOVE PD
 DEP .m                 354.17:  DEPTH
 AGAP.m                  43.00:  AIR GAP
 VSEW.m                  -8.91:  VERT SEC E/W
 VSNS.m                   9.43:  VERT SEC N/S
 EKB .m                   0.00:  KB ELEVATION
 EDF .m                  43.00:  DF ELEVATION
 TDL .m                1326.00:  TOTAL DEPTH (LOGGER)
 VSC .                       0:  VS TO CLOSURE
 MAGU.                 1850704:  MAGUTM CHECKSUM
~Parameter Information Block
#MNEM.UNIT       Value        Description
#---------     -----------    ---------------------------
 AV  .mps                 1.17:  Ann Velocity 
 AZIF.deg               184.04:  Azm, Final 
 BHAT.        Rotary Steerable:  BHA Type 
 BREV.rev            620000.00:  Rev Bit Total 
 BROT.°/30m               0.20:  Build Rotating 
 BS  .in                 14.75:  Bit Size 
 BSZ .in                 14.75:  Bit Size 
 BTPL.psig              618.00:  Bit Press Loss 
 CABU.                      No:  Customer Abuse 
 COMM.                     ü—`:  Run Comments 1 
 TCS .hr                 87.68:  Time Ciculation Ended 
 CV  .mps                 3.10:  Crit Velocity 
 DD1 .          Rashad Habibov:  Direct Drillr 1 
 DD2 .         Rasim Ibrahimov:  Direct Drillr 2 
 DDSV.               Geo-Pilot:  DD Service 
 DEFF.%                  98.00:  % Det Eff 
 DLRX.°/30m               1.48:  Dogleg Rot Max 
 DLSO.°/30m               0.50:  Dogleg Oriented 
 DLSX.°/30m               1.48:  Dogleg Str Max 
 DRET.      06.18.56 19-Apr-20:  Drill End Time 
 DRST.      15.00.56 15-Apr-20:  Drill Start Tim 
 DTIM.hr                 51.73:  Time Drilling 
 EDEP.m                3410.01:  End Depth 
 ENG1.        Marcelo Sandoval:  Engineer 1 
 ENG2.        Davud Huseynzade:  Engineer 2 
 ENG3.          Ruslan Safarov:  Engineer 3 
 ETIM.      04.00.56 20-Apr-20:  End Time 
 FLOI.gpm              1000.00:  Flow In 
 FLON.gpm               600.00:  Flow In Min 
 FLOS.cptm                0.00:  Fluid Loss 
 FLOX.gpm              1200.00:  Flow In Max 
 HFLO.                      No:  High Flow 
 HPRE.                     Yes:  High Pressure 
 HTEM.                      No:  High Temp 
 HYDO.m                   1.80:  Hydro Offset 
 IFIN.deg                70.04:  Inc, Final 
 IMAX.deg                70.56:  Inc Max 
 IMIN.deg                69.85:  Inc Min 
 IMND.m                3103.24:  Inc Min Depth 
 IMXD.m                2876.63:  Inc Max Depth 
 JARR.                      No:  Jarring 
 LETM.      06.18.56 19-Apr-20:  Log End Time 
 LOST.hr                     0:  Lost Rig Time 
 LSTM.      15.00.56 15-Apr-20:  Log Start Time 
 MDCL.ppm             42000.00:  Mud Chlorides 
 MDES.     Inversion Oil/Synthetic:  Mud Desc 
 DFD .sg                  1.58:  Mud Density 
 MDMN.sg                  1.58:  Dens Mud Min 
 MDMX.sg                  1.58:  Dens Mud Max 
 MOIL.                      71:  Run Mud Oil % 
 MOWR.                   71:29:  Run Mud OWR 
 MSND.                       0:  Run Mud Sand % 
 MSOL.                    23.3:  Run Mud Solids% 
 DFV .spqt               84.00:  Mud Viscosity 
 MWOD.in                  9.50:  MWD Tool OD 
 MWSI.                      No:  Serv Intrp, MWD 
 OTIM.hr                139.62:  Time Operating 
 PMAX.psia             5364.69:  Press Op, Max 
 PV  .cP                 80.00:  Mud PV 
 RUN .                     700:  Run Number 
 ROPA.m/hr               25.00:  ROP Avg 
 ROPN.m/hr               11.00:  ROP Min 
 ROPX.m/hr               36.00:  ROP Max 
 RPMA.rpm               130.00:  RPM Surface Avg 
 RPMN.rpm               120.00:  RPM Surface Min 
 RPMX.rpm               140.00:  RPM Surface Max 
 RRUN.                    0700:  Rig Run Number 
 SAZI.deg               183.25:  Azm, Start 
 SDEP.m                2084.00:  Start Depth 
 SIDD.                      No:  Serv Intrp, DD 
 SINC.deg                70.38:  Inc, Start 
 SPPA.psig             4800.00:  SPP Avg 
 SPPN.psig             4400.00:  SPP Min 
 SPPX.psig             5350.00:  SPP Max 
 STIM.      16.30.56 14-Apr-20:  Start Time 
 SVCS.                 DD, MWD:  Services 
 SVER.                    9.20:  Sperry Version 
 TDAT.m                1326.00:  Tot Depth Attmp 
 TDDF.                      No:  Trip for DD 
 TDLG.m                1326.00:  Tot Depth Loggd 
 TFF .                      No:  Trip for Fail 
 TQAA.f-kp               19.00:  Torque Abs Avg 
 TQAN.f-kp                8.00:  Torque Abs Min 
 TQAX.f-kp               27.00:  Torque Abs Max 
 TRRT.°/30m               0.50:  Turn Rotating 
 MRT .                    HCIM:  Maximum Recorded Temperature 
 TTMX.degC               82.35:  Max Tool Temp 
 VS01.       905245875X1Z1W1C8:  Virtual Str1 SN 
 VS02.       90608022F11V7D1A9:  Virtual Str2 SN 
 VS03.            90605473R5C9:  Virtual Str3 SN 
 WBMN.klb                11.00:  WOB Min 
 WOBA.klb                21.00:  WOB Avg 
 WOBX.klb                30.00:  WOB Max 
 YP  .lhf2               45.00:  Yield Point 
~Curve Information Block
#MNEM.UNIT                 API CODE     Curve Description
#---------               -----------    ---------------------------
 TIME.HHMMSS            00 000 000 000:  GT Time & Date
 GTDEPTH.m              00 000 000 000:  GT Depth
 GTPQH.psia             00 000 000 000:  GT HR Quartz Pressure
 GTTQ.degC              00 000 000 000:  GT Quartz Temperature
 GTTN.NONE              00 000 000 000:  GT Test Number
 GTET.sec               00 000 000 000:  GT Elapsed Test Time
 GTTVD.m                00 000 000 000:  GT True Vertical Depth
#Other Information
#
#WARRANTY: Halliburton will use its best efforts to furnish customers with 
#accurate information and interpretations that are part of, and incident to, the services 
#provided.  However, Halliburton cannot and does not warrant the accuracy 
#or correctness of such information and interpretations.  Under no circumstances should any 
#such information or interpretation be relied upon as the sole basis for any drilling, 
#completion, production, or financial decision or any procedure involving any risk to the 
#safety of any drilling venture, drilling rig or its crew or any other third party.  The 
#Customer has full responsibility for all drilling, completion and production operation.  
#Halliburton makes no representations or warranties, either expressed or 
#implied, including, but not limited to, the implied warranties of merchantability or fitness 
#for a particular purpose, with respect to the services rendered.  In no event will 
#Halliburton be liable for failure to obtain any particular results or for 
#any damages, including, but not limited to, indirect, special or consequential damages, 
#resulting from the use of any information or interpretation provided by Halliburton.
#
~A           TIME           GTDEPTH  GTPQH  GTTQ  GTTN  GTET   GTTVD  
# ...
   15:38:00.340.18-Apr-2020 3140.87 2494.99 71.33 6.00 160.98 1986.80
   15:38:00.539.18-Apr-2020 3140.87 2494.99 71.33 6.00 161.18 1986.80
   15:38:00.739.18-Apr-2020 3140.87 2494.97 71.33 6.00 161.38 1986.80
   15:38:00.939.18-Apr-2020 3140.87 2494.96 71.33 6.00 161.58 1986.80
   15:38:01.139.18-Apr-2020 3140.87 2494.94 71.33 6.00 161.78 1986.80
   15:38:01.339.18-Apr-2020 3140.87 2494.93 71.33 6.00 161.98 1986.80
   15:38:01.539.18-Apr-2020 3140.87 2494.93 71.33 6.00 162.18 1986.80
   15:38:01.739.18-Apr-2020 3140.87 2494.88 71.33 6.00 162.38 1986.80
   15:38:01.939.18-Apr-2020 3140.87 2494.86 71.33 6.00 162.58 1986.80
   15:38:02.139.18-Apr-2020 3140.87 2494.85 71.33 6.00 162.78 1986.80
   15:38:02.339.18-Apr-2020 3140.87 2494.82 71.32 6.00 162.98 1986.80
   15:38:02.539.18-Apr-2020 3140.87 2494.82 71.32 6.00 163.18 1986.80
   15:38:02.739.18-Apr-2020 3140.87 2494.78 71.32 6.00 163.38 1986.80
   15:38:02.939.18-Apr-2020 3140.87 2494.74 71.32 6.00 163.58 1986.80
   15:38:03.139.18-Apr-2020 3140.87 2494.76 71.32 6.00 163.78 1986.80
   15:38:03.339.18-Apr-2020 3140.87 2494.74 71.32 6.00 163.98 1986.80
   15:38:03.539.18-Apr-2020 3140.87 2494.69 71.32 6.00 164.18 1986.80
   15:38:03.739.18-Apr-2020 3140.87 2494.70 71.32 6.00 164.38 1986.80
   15:38:03.939.18-Apr-2020 3140.87 2494.70 71.32 6.00 164.58 1986.80
   15:38:04.139.18-Apr-2020 3140.87 2494.67 71.32 6.00 164.78 1986.80
   15:38:04.339.18-Apr-2020 3140.87 2494.64 71.32 6.00 164.98 1986.80
   15:38:04.539.18-Apr-2020 3140.87 2494.63 71.32 6.00 165.18 1986.80
   15:38:04.739.18-Apr-2020 3140.87 2494.58 71.31 6.00 165.38 1986.80
   15:38:04.939.18-Apr-2020 3140.87 2494.58 71.31 6.00 165.58 1986.80
   15:38:05.139.18-Apr-2020 3140.87 2494.57 71.31 6.00 165.78 1986.80
   15:38:05.339.18-Apr-2020 3140.87 2494.55 71.31 6.00 165.98 1986.80
   15:38:05.539.18-Apr-2020 3140.87 2494.55 71.31 6.00 166.18 1986.80
   15:38:05.739.18-Apr-2020 3140.87 2494.51 71.31 6.00 166.38 1986.80
   15:38:05.939.18-Apr-2020 3140.87 2494.49 71.31 6.00 166.58 1986.80
   15:38:06.139.18-Apr-2020 3140.87 2494.48 71.31 6.00 166.78 1986.80
   15:38:06.339.18-Apr-2020 3140.87 2485.57 71.31 6.00 166.98 1986.80
   15:38:06.539.18-Apr-2020 3140.87 2485.57 71.31 6.00 167.18 1986.80
   15:38:06.739.18-Apr-2020 3140.87 2390.94 71.31 6.00 167.38 1986.80
   15:38:06.939.18-Apr-2020 3140.87 2349.69 71.31 6.00 167.58 1986.80
   15:38:07.139.18-Apr-2020 3140.87 2311.76 71.30 6.00 167.78 1986.80
   15:38:07.339.18-Apr-2020 3140.87 2276.41 71.30 6.00 167.98 1986.80
   15:38:07.539.18-Apr-2020 3140.87 2243.55 71.30 6.00 168.18 1986.80
   15:38:07.739.18-Apr-2020 3140.87 2213.18 71.30 6.00 168.38 1986.80
   15:38:07.939.18-Apr-2020 3140.87 2184.78 71.30 6.00 168.58 1986.80
   15:38:08.139.18-Apr-2020 3140.87 2157.92 71.30 6.00 168.78 1986.80
   15:38:08.339.18-Apr-2020 3140.87 2132.76 71.30 6.00 168.98 1986.80
   15:38:08.539.18-Apr-2020 3140.87 2108.51 71.30 6.00 169.18 1986.80
   15:38:08.739.18-Apr-2020 3140.87 2085.01 71.30 6.00 169.38 1986.80
   15:38:08.939.18-Apr-2020 3140.87 2062.38 71.30 6.00 169.58 1986.80
   15:38:09.138.18-Apr-2020 3140.87 2040.26 71.30 6.00 169.78 1986.80
   15:38:09.338.18-Apr-2020 3140.87 2018.62 71.29 6.00 169.98 1986.80
   15:38:09.538.18-Apr-2020 3140.87 2018.62 71.29 6.00 170.18 1986.80
   15:38:09.738.18-Apr-2020 3140.87 1977.01 71.29 6.00 170.38 1986.80
   15:38:09.938.18-Apr-2020 3140.87 1957.18 71.29 6.00 170.58 1986.80
   15:38:10.138.18-Apr-2020 3140.87 1937.63 71.29 6.00 170.78 1986.80
   15:38:10.338.18-Apr-2020 3140.87 1918.43 71.29 6.00 170.98 1986.80
   15:38:10.538.18-Apr-2020 3140.87 1918.43 71.29 6.00 171.18 1986.80
   15:38:10.738.18-Apr-2020 3140.87 1881.20 71.29 6.00 171.38 1986.80
   15:38:10.938.18-Apr-2020 3140.87 1863.13 71.29 6.00 171.58 1986.80
   15:38:11.138.18-Apr-2020 3140.87 1845.35 71.28 6.00 171.78 1986.80
   15:38:11.338.18-Apr-2020 3140.87 1827.89 71.28 6.00 171.98 1986.80
   15:38:11.538.18-Apr-2020 3140.87 1811.04 71.28 6.00 172.18 1986.80
   15:38:11.738.18-Apr-2020 3140.87 1794.52 71.28 6.00 172.38 1986.80
   15:38:11.938.18-Apr-2020 3140.87 1778.20 71.28 6.00 172.58 1986.80
   15:38:12.138.18-Apr-2020 3140.87 1762.40 71.28 6.00 172.78 1986.80
   15:38:12.338.18-Apr-2020 3140.87 1746.83 71.28 6.00 172.98 1986.80
   15:38:12.538.18-Apr-2020 3140.87 1731.84 71.28 6.00 173.18 1986.80
   15:38:12.738.18-Apr-2020 3140.87 1717.10 71.28 6.00 173.38 1986.80
   15:38:12.938.18-Apr-2020 3140.87 1702.53 71.27 6.00 173.58 1986.80
   15:38:13.138.18-Apr-2020 3140.87 1688.29 71.27 6.00 173.78 1986.80
   15:38:13.338.18-Apr-2020 3140.87 1674.28 71.27 6.00 173.98 1986.80
   15:38:13.538.18-Apr-2020 3140.87 1674.28 71.27 6.00 174.18 1986.80
   15:38:13.738.18-Apr-2020 3140.87 1647.38 71.27 6.00 174.38 1986.80
   15:38:13.938.18-Apr-2020 3140.87 1634.03 71.27 6.00 174.58 1986.80
   15:38:14.138.18-Apr-2020 3140.87 1620.89 71.27 6.00 174.78 1986.80
   15:38:14.338.18-Apr-2020 3140.87 1608.15 71.27 6.00 174.98 1986.80
   15:38:14.538.18-Apr-2020 3140.87 1608.15 71.27 6.00 175.18 1986.80
   15:38:14.738.18-Apr-2020 3140.87 1583.30 71.26 6.00 175.38 1986.80
   15:38:14.938.18-Apr-2020 3140.87 1571.06 71.26 6.00 175.58 1986.80
   15:38:15.138.18-Apr-2020 3140.87 1559.32 71.26 6.00 175.78 1986.80
   15:38:15.338.18-Apr-2020 3140.87 1547.62 71.26 6.00 175.98 1986.80
   15:38:15.538.18-Apr-2020 3140.87 1547.62 71.26 6.00 176.18 1986.80
   15:38:15.738.18-Apr-2020 3140.87 1524.83 71.26 6.00 176.38 1986.80
   15:38:15.938.18-Apr-2020 3140.87 1513.68 71.26 6.00 176.58 1986.80
   15:38:16.138.18-Apr-2020 3140.87 1502.78 71.25 6.00 176.78 1986.80
   15:38:16.338.18-Apr-2020 3140.87 1492.12 71.25 6.00 176.98 1986.80
   15:38:16.538.18-Apr-2020 3140.87 1492.12 71.25 6.00 177.18 1986.80
   15:38:16.738.18-Apr-2020 3140.87 1470.98 71.25 6.00 177.38 1986.80
   15:38:16.938.18-Apr-2020 3140.87 1467.32 71.25 6.00 177.58 1986.80
   15:38:17.138.18-Apr-2020 3140.87 1471.24 71.25 6.00 177.78 1986.80
   15:38:17.338.18-Apr-2020 3140.87 1474.32 71.25 6.00 177.98 1986.80
   15:38:17.538.18-Apr-2020 3140.87 1474.32 71.25 6.00 178.18 1986.80
   15:38:17.737.18-Apr-2020 3140.87 1479.02 71.24 6.00 178.38 1986.80
   15:38:17.937.18-Apr-2020 3140.87 1480.91 71.24 6.00 178.58 1986.80
   15:38:18.137.18-Apr-2020 3140.87 1482.60 71.24 6.00 178.78 1986.80
   15:38:18.337.18-Apr-2020 3140.87 1484.08 71.24 6.00 178.98 1986.80
   15:38:18.537.18-Apr-2020 3140.87 1484.08 71.24 6.00 179.18 1986.80
   15:38:18.737.18-Apr-2020 3140.87 1486.68 71.24 6.00 179.38 1986.80
   15:38:18.937.18-Apr-2020 3140.87 1487.84 71.24 6.00 179.58 1986.80
   15:38:19.137.18-Apr-2020 3140.87 1488.91 71.24 6.00 179.78 1986.80
   15:38:19.337.18-Apr-2020 3140.87 1489.91 71.23 6.00 179.98 1986.80
   15:38:19.537.18-Apr-2020 3140.87 1490.82 71.23 6.00 180.18 1986.80
   15:38:19.737.18-Apr-2020 3140.87 1491.69 71.23 6.00 180.38 1986.80
   15:38:19.937.18-Apr-2020 3140.87 1492.49 71.23 6.00 180.58 1986.80
   15:38:20.137.18-Apr-2020 3140.87 1493.25 71.23 6.00 180.78 1986.80
   15:38:20.337.18-Apr-2020 3140.87 1493.97 71.23 6.00 180.98 1986.80
   15:38:20.537.18-Apr-2020 3140.87 1493.97 71.23 6.00 181.18 1986.80
   15:38:20.737.18-Apr-2020 3140.87 1495.28 71.23 6.00 181.38 1986.80
   15:38:20.937.18-Apr-2020 3140.87 1495.89 71.23 6.00 181.58 1986.80
   15:38:21.137.18-Apr-2020 3140.87 1496.46 71.23 6.00 181.78 1986.80
   15:38:21.337.18-Apr-2020 3140.87 1497.01 71.22 6.00 181.98 1986.80
   15:38:21.537.18-Apr-2020 3140.87 1497.01 71.22 6.00 182.18 1986.80
   15:38:21.737.18-Apr-2020 3140.87 1498.04 71.22 6.00 182.38 1986.80
   15:38:21.937.18-Apr-2020 3140.87 1498.53 71.22 6.00 182.58 1986.80
   15:38:22.137.18-Apr-2020 3140.87 1498.97 71.22 6.00 182.78 1986.80
   15:38:22.337.18-Apr-2020 3140.87 1499.43 71.22 6.00 182.98 1986.80
   15:38:22.537.18-Apr-2020 3140.87 1499.43 71.22 6.00 183.18 1986.80
   15:38:22.737.18-Apr-2020 3140.87 1500.26 71.22 6.00 183.38 1986.80
   15:38:22.937.18-Apr-2020 3140.87 1500.65 71.22 6.00 183.58 1986.80
   15:38:23.137.18-Apr-2020 3140.87 1501.06 71.22 6.00 183.78 1986.80
