~Version Information
 VERS.                  2.0:   CWLS log ASCII Standard -VERSION 2.0
 WRAP.                   NO:   One line per depth step
~Well Information Block
#MNEM.UNIT     VALUE/NAME     DESCRIPTION
#---------     -----------    ---------------------------
 STRT.S             15:57:21 18-Apr-20: START TIME 15:57:21 18-Apr-20
 STOP.S             16:04:15 18-Apr-20: STOP TIME  16:04:15 18-Apr-20
 STEP.S                   0.00: STEP TIME
 NULL.                 -999.25: NULL VALUE
 DFWT.                        :  DIST FWL TEXT
 DFST.                        :  DIST FSL TEXT
 DMF .                        :  DRILL MEAS FROM
 STIM.      16.29.52 23-Mar-20:  START TIME
 DATE.      16.29.52 23-Mar-20:  END TIME
 SPUD.               23-Mar-20:  SPUD DATE
 NREF.                    Grid:  NORTH REFERENCE
 HPTY.       Minimum Curvature:  HOLE POS TYPE
 DMOD.             Drill Model:  DRILL MOD DESC
 SVYD.                  Survey:  SURVEY DESC
 ILTD.               Lithology:  INTERP LTH DESC
 FTOP.          Formation Tops:  FORM TOPS DESC
 SON .        AZ-XX-0906252240:  JOB NUMBER
 RIG .             West Chirag:  RIG NAME
 PDAT.          Mean Sea Level:  PERMANENT DATUM
 FLD .                     ACG:  FIELD NAME
 CTRY.              Azerbaijan:  COUNTRY NAME
 WELL.           J23 (Slot 07):  WELL NAME
 SRVC.          Turan Drilling:  CONTRACTOR
 COMP.     BP Exploration (Casoian Sea) Ltd:  COMPANY
 WTYP.                Deviated:  WELL TYPE
 MDS .        Operator Entered:  MAG DATA SOURCE
 UWI .                     N/A:  UNIQUE WELL IDENTIFIER
 API .                     N/A:  API NUMBER
 BASE.              Azerbaijan:  LOGGING EQUIPMENT BASE LOCATION
 REGN.                   EESSA:  REGION
 PROV.                    Baku:  PROVINCE
 STAT.                    Baku:  STATE NAME
 MWDS.                     N/A:  MWD SHOP
 JOBN.        AZ-XX-0906252240:  JOB TICKET NUMB
 DOE .                     N/A:  DOE NUMBER
 DCON.         Sperry Drilling:  DIRECTNL CONTR
 UNIT.                     N/A:  LOGGING EQUIPMENT ID
 CNTY.                        :  COUNTY
 LOC .                        :  LOCATION
 LMF .             Drill Floor:  LOG MEASURED FROM
 TVDS.m                  43.00:  TVDSS CORRECTN
 LATI.deg                40.13:  LATITUDE
 LONG.deg                51.22:  LONGITUDE
 WHNS.m                   9.43:  WELL HEAD N/S
 WHEW.m                  -8.91:  WELL HEAD E/W
 UTMX.m              519005.06:  UTM X
 UTMY.m             4443793.85:  UTM Y
 DFWL.m                   0.00:  DISTANCE FWL
 DFSL.m                   0.00:  DISTANCE FSL
 SDEP.m                   0.00:  START DEPTH
 TDD .m                   0.00:  TOTAL DEPTH (DRILLER)
 VSDR.deg               179.88:  VERT SEC DIRECT
 GVFD.g                   1.00:  GRAVITY FIELD
 MFLD.nT              50281.00:  MAGNETIC FIELD
 MDIP.deg                59.58:  MAGNETIC DIP
 MDEC.deg                 6.48:  MAGNETIC DECL
 GRDC.deg                 0.14:  GRID CORRECTION
 AZTC.deg                 6.34:  AZM TOTAL CORR
 EPD .m                   0.00:  ELEVATION
 EGL .m                   0.00:  GROUND ELEVATION
 WDMS.m                 169.80:  WD ELEV
 APD .m                  43.00:  DEPTH ABOVE PD
 DEP .m                 354.17:  DEPTH
 AGAP.m                  43.00:  AIR GAP
 VSEW.m                  -8.91:  VERT SEC E/W
 VSNS.m                   9.43:  VERT SEC N/S
 EKB .m                   0.00:  KB ELEVATION
 EDF .m                  43.00:  DF ELEVATION
 TDL .m                1326.00:  TOTAL DEPTH (LOGGER)
 VSC .                       0:  VS TO CLOSURE
 MAGU.                 1850704:  MAGUTM CHECKSUM
~Parameter Information Block
#MNEM.UNIT       Value        Description
#---------     -----------    ---------------------------
 AV  .mps                 1.17:  Ann Velocity 
 AZIF.deg               184.04:  Azm, Final 
 BHAT.        Rotary Steerable:  BHA Type 
 BREV.rev            620000.00:  Rev Bit Total 
 BROT.°/30m               0.20:  Build Rotating 
 BS  .in                 14.75:  Bit Size 
 BSZ .in                 14.75:  Bit Size 
 BTPL.psig              618.00:  Bit Press Loss 
 CABU.                      No:  Customer Abuse 
 COMM.                     ¬)g:  Run Comments 1 
 TCS .hr                 87.68:  Time Ciculation Ended 
 CV  .mps                 3.10:  Crit Velocity 
 DD1 .          Rashad Habibov:  Direct Drillr 1 
 DD2 .         Rasim Ibrahimov:  Direct Drillr 2 
 DDSV.               Geo-Pilot:  DD Service 
 DEFF.%                  98.00:  % Det Eff 
 DLRX.°/30m               1.48:  Dogleg Rot Max 
 DLSO.°/30m               0.50:  Dogleg Oriented 
 DLSX.°/30m               1.48:  Dogleg Str Max 
 DRET.      06.18.56 19-Apr-20:  Drill End Time 
 DRST.      15.00.56 15-Apr-20:  Drill Start Tim 
 DTIM.hr                 51.73:  Time Drilling 
 EDEP.m                3410.01:  End Depth 
 ENG1.        Marcelo Sandoval:  Engineer 1 
 ENG2.        Davud Huseynzade:  Engineer 2 
 ENG3.          Ruslan Safarov:  Engineer 3 
 ETIM.      04.00.56 20-Apr-20:  End Time 
 FLOI.gpm              1000.00:  Flow In 
 FLON.gpm               600.00:  Flow In Min 
 FLOS.cptm                0.00:  Fluid Loss 
 FLOX.gpm              1200.00:  Flow In Max 
 HFLO.                      No:  High Flow 
 HPRE.                     Yes:  High Pressure 
 HTEM.                      No:  High Temp 
 HYDO.m                   1.80:  Hydro Offset 
 IFIN.deg                70.04:  Inc, Final 
 IMAX.deg                70.56:  Inc Max 
 IMIN.deg                69.85:  Inc Min 
 IMND.m                3103.24:  Inc Min Depth 
 IMXD.m                2876.63:  Inc Max Depth 
 JARR.                      No:  Jarring 
 LETM.      06.18.56 19-Apr-20:  Log End Time 
 LOST.hr                     0:  Lost Rig Time 
 LSTM.      15.00.56 15-Apr-20:  Log Start Time 
 MDCL.ppm             42000.00:  Mud Chlorides 
 MDES.     Inversion Oil/Synthetic:  Mud Desc 
 DFD .sg                  1.58:  Mud Density 
 MDMN.sg                  1.58:  Dens Mud Min 
 MDMX.sg                  1.58:  Dens Mud Max 
 MOIL.                      71:  Run Mud Oil % 
 MOWR.                   71:29:  Run Mud OWR 
 MSND.                       0:  Run Mud Sand % 
 MSOL.                    23.3:  Run Mud Solids% 
 DFV .spqt               84.00:  Mud Viscosity 
 MWOD.in                  9.50:  MWD Tool OD 
 MWSI.                      No:  Serv Intrp, MWD 
 OTIM.hr                139.62:  Time Operating 
 PMAX.psia             5364.69:  Press Op, Max 
 PV  .cP                 80.00:  Mud PV 
 RUN .                     700:  Run Number 
 ROPA.m/hr               25.00:  ROP Avg 
 ROPN.m/hr               11.00:  ROP Min 
 ROPX.m/hr               36.00:  ROP Max 
 RPMA.rpm               130.00:  RPM Surface Avg 
 RPMN.rpm               120.00:  RPM Surface Min 
 RPMX.rpm               140.00:  RPM Surface Max 
 RRUN.                    0700:  Rig Run Number 
 SAZI.deg               183.25:  Azm, Start 
 SDEP.m                2084.00:  Start Depth 
 SIDD.                      No:  Serv Intrp, DD 
 SINC.deg                70.38:  Inc, Start 
 SPPA.psig             4800.00:  SPP Avg 
 SPPN.psig             4400.00:  SPP Min 
 SPPX.psig             5350.00:  SPP Max 
 STIM.      16.30.56 14-Apr-20:  Start Time 
 SVCS.                 DD, MWD:  Services 
 SVER.                    9.20:  Sperry Version 
 TDAT.m                1326.00:  Tot Depth Attmp 
 TDDF.                      No:  Trip for DD 
 TDLG.m                1326.00:  Tot Depth Loggd 
 TFF .                      No:  Trip for Fail 
 TQAA.f-kp               19.00:  Torque Abs Avg 
 TQAN.f-kp                8.00:  Torque Abs Min 
 TQAX.f-kp               27.00:  Torque Abs Max 
 TRRT.°/30m               0.50:  Turn Rotating 
 MRT .                    HCIM:  Maximum Recorded Temperature 
 TTMX.degC               82.35:  Max Tool Temp 
 VS01.       905245875X1Z1W1C8:  Virtual Str1 SN 
 VS02.       90608022F11V7D1A9:  Virtual Str2 SN 
 VS03.            90605473R5C9:  Virtual Str3 SN 
 WBMN.klb                11.00:  WOB Min 
 WOBA.klb                21.00:  WOB Avg 
 WOBX.klb                30.00:  WOB Max 
 YP  .lhf2               45.00:  Yield Point 
~Curve Information Block
#MNEM.UNIT                 API CODE     Curve Description
#---------               -----------    ---------------------------
 TIME.HHMMSS            00 000 000 000:  GT Time & Date
 GTDEPTH.m              00 000 000 000:  GT Depth
 GTPQH.psia             00 000 000 000:  GT HR Quartz Pressure
 GTTQ.degC              00 000 000 000:  GT Quartz Temperature
 GTTN.NONE              00 000 000 000:  GT Test Number
 GTET.sec               00 000 000 000:  GT Elapsed Test Time
 GTTVD.m                00 000 000 000:  GT True Vertical Depth
#Other Information
#
#WARRANTY: Halliburton will use its best efforts to furnish customers with 
#accurate information and interpretations that are part of, and incident to, the services 
#provided.  However, Halliburton cannot and does not warrant the accuracy 
#or correctness of such information and interpretations.  Under no circumstances should any 
#such information or interpretation be relied upon as the sole basis for any drilling, 
#completion, production, or financial decision or any procedure involving any risk to the 
#safety of any drilling venture, drilling rig or its crew or any other third party.  The 
#Customer has full responsibility for all drilling, completion and production operation.  
#Halliburton makes no representations or warranties, either expressed or 
#implied, including, but not limited to, the implied warranties of merchantability or fitness 
#for a particular purpose, with respect to the services rendered.  In no event will 
#Halliburton be liable for failure to obtain any particular results or for 
#any damages, including, but not limited to, indirect, special or consequential damages, 
#resulting from the use of any information or interpretation provided by Halliburton.
#
~A           TIME           GTDEPTH  GTPQH  GTTQ  GTTN  GTET   GTTVD  
   15:57:21.205.18-Apr-2020 3140.11 4569.04 67.82 7.00   0.00 1986.54
   15:57:21.405.18-Apr-2020 3140.11 4569.04 67.82 7.00   0.20 1986.54
   15:57:21.605.18-Apr-2020 3140.11 4569.60 67.82 7.00   0.40 1986.54
   15:57:21.805.18-Apr-2020 3140.11 4568.45 67.82 7.00   0.60 1986.54
   15:57:22.005.18-Apr-2020 3140.11 4565.42 67.82 7.00   0.80 1986.54
   15:57:22.205.18-Apr-2020 3140.11 4567.30 67.82 7.00   1.00 1986.54
   15:57:22.405.18-Apr-2020 3140.11 4567.30 67.82 7.00   1.20 1986.54
   15:57:22.605.18-Apr-2020 3140.11 4565.99 67.82 7.00   1.40 1986.54
   15:57:22.805.18-Apr-2020 3140.11 4565.00 67.81 7.00   1.60 1986.54
   15:57:23.005.18-Apr-2020 3140.11 4567.31 67.81 7.00   1.80 1986.54
   15:57:23.205.18-Apr-2020 3140.11 4567.55 67.81 7.00   2.00 1986.54
   15:57:23.405.18-Apr-2020 3140.11 4567.55 67.81 7.00   2.20 1986.54
   15:57:23.605.18-Apr-2020 3140.11 4568.96 67.81 7.00   2.40 1986.54
   15:57:23.805.18-Apr-2020 3140.11 4568.24 67.81 7.00   2.60 1986.54
   15:57:24.005.18-Apr-2020 3140.11 4569.81 67.81 7.00   2.80 1986.54
   15:57:24.205.18-Apr-2020 3140.11 4570.42 67.81 7.00   3.00 1986.54
   15:57:24.405.18-Apr-2020 3140.11 4568.29 67.81 7.00   3.20 1986.54
   15:57:24.605.18-Apr-2020 3140.11 4570.03 67.81 7.00   3.40 1986.54
   15:57:24.805.18-Apr-2020 3140.11 4569.44 67.81 7.00   3.60 1986.54
   15:57:25.005.18-Apr-2020 3140.11 4569.04 67.81 7.00   3.80 1986.54
   15:57:25.205.18-Apr-2020 3140.11 4568.29 67.81 7.00   4.00 1986.54
   15:57:25.405.18-Apr-2020 3140.11 4568.29 67.81 7.00   4.20 1986.54
   15:57:25.605.18-Apr-2020 3140.11 4566.90 67.81 7.00   4.40 1986.54
   15:57:25.804.18-Apr-2020 3140.11 4566.12 67.81 7.00   4.60 1986.54
   15:57:26.004.18-Apr-2020 3140.11 4565.57 67.81 7.00   4.80 1986.54
   15:57:26.204.18-Apr-2020 3140.11 4565.43 67.81 7.00   5.00 1986.54
   15:57:26.404.18-Apr-2020 3140.11 4565.43 67.81 7.00   5.20 1986.54
   15:57:26.604.18-Apr-2020 3140.11 4563.31 67.81 7.00   5.40 1986.54
   15:57:26.804.18-Apr-2020 3140.11 4562.96 67.81 7.00   5.60 1986.54
   15:57:27.004.18-Apr-2020 3140.11 4562.60 67.81 7.00   5.80 1986.54
   15:57:27.204.18-Apr-2020 3140.11 4568.29 67.81 7.00   6.00 1986.54
   15:57:27.404.18-Apr-2020 3140.11 4561.30 67.81 7.00   6.20 1986.54
   15:57:27.604.18-Apr-2020 3140.11 4561.30 67.81 7.00   6.40 1986.54
   15:57:27.804.18-Apr-2020 3140.11 4559.98 67.80 7.00   6.60 1986.54
   15:57:28.004.18-Apr-2020 3140.11 4558.98 67.80 7.00   6.80 1986.54
   15:57:28.204.18-Apr-2020 3140.11 4556.02 67.80 7.00   7.00 1986.54
   15:57:28.404.18-Apr-2020 3140.11 4558.23 67.80 7.00   7.20 1986.54
   15:57:28.604.18-Apr-2020 3140.11 4558.73 67.80 7.00   7.40 1986.54
   15:57:28.804.18-Apr-2020 3140.11 4558.32 67.80 7.00   7.60 1986.54
   15:57:29.004.18-Apr-2020 3140.11 4558.19 67.80 7.00   7.80 1986.54
   15:57:29.204.18-Apr-2020 3140.11 4559.13 67.80 7.00   8.00 1986.54
   15:57:29.404.18-Apr-2020 3140.11 4559.13 67.80 7.00   8.20 1986.54
   15:57:29.604.18-Apr-2020 3140.11 4559.25 67.80 7.00   8.40 1986.54
   15:57:29.804.18-Apr-2020 3140.11 4559.04 67.80 7.00   8.60 1986.54
   15:57:30.004.18-Apr-2020 3140.11 4558.73 67.80 7.00   8.80 1986.54
   15:57:30.204.18-Apr-2020 3140.11 4558.72 67.80 7.00   9.00 1986.54
   15:57:30.404.18-Apr-2020 3140.11 4558.72 67.80 7.00   9.20 1986.54
   15:57:30.604.18-Apr-2020 3140.11 4557.37 67.80 7.00   9.40 1986.54
   15:57:30.804.18-Apr-2020 3140.11 4556.65 67.80 7.00   9.60 1986.54
   15:57:31.004.18-Apr-2020 3140.11 4556.12 67.80 7.00   9.80 1986.54
   15:57:31.204.18-Apr-2020 3140.11 4554.91 67.80 7.00  10.00 1986.54
   15:57:31.404.18-Apr-2020 3140.11 4554.91 67.80 7.00  10.20 1986.54
   15:57:31.604.18-Apr-2020 3140.11 4555.10 67.80 7.00  10.40 1986.54
   15:57:31.804.18-Apr-2020 3140.11 4555.04 67.80 7.00  10.60 1986.54
   15:57:32.004.18-Apr-2020 3140.11 4552.51 67.80 7.00  10.80 1986.54
   15:57:32.204.18-Apr-2020 3140.11 4556.01 67.80 7.00  11.00 1986.54
   15:57:32.404.18-Apr-2020 3140.11 4555.68 67.80 7.00  11.20 1986.54
   15:57:32.604.18-Apr-2020 3140.11 4555.79 67.79 7.00  11.40 1986.54
   15:57:32.804.18-Apr-2020 3140.11 4554.79 67.79 7.00  11.60 1986.54
   15:57:33.004.18-Apr-2020 3140.11 4557.12 67.79 7.00  11.80 1986.54
   15:57:33.204.18-Apr-2020 3140.11 4556.95 67.79 7.00  12.00 1986.54
   15:57:33.404.18-Apr-2020 3140.11 4556.95 67.79 7.00  12.20 1986.54
   15:57:33.604.18-Apr-2020 3140.11 4557.84 67.79 7.00  12.40 1986.54
   15:57:33.804.18-Apr-2020 3140.11 4558.18 67.79 7.00  12.60 1986.54
   15:57:34.004.18-Apr-2020 3140.11 4555.58 67.79 7.00  12.80 1986.54
   15:57:34.204.18-Apr-2020 3140.11 4558.70 67.79 7.00  13.00 1986.54
   15:57:34.403.18-Apr-2020 3140.11 4558.70 67.79 7.00  13.20 1986.54
   15:57:34.603.18-Apr-2020 3140.11 4558.70 67.79 7.00  13.40 1986.54
   15:57:34.803.18-Apr-2020 3140.11 4557.83 67.79 7.00  13.60 1986.54
   15:57:35.003.18-Apr-2020 3140.11 4559.47 67.79 7.00  13.80 1986.54
   15:57:35.203.18-Apr-2020 3140.11 4559.86 67.79 7.00  14.00 1986.54
   15:57:35.403.18-Apr-2020 3140.11 4559.86 67.79 7.00  14.20 1986.54
   15:57:35.603.18-Apr-2020 3140.11 4560.64 67.79 7.00  14.40 1986.54
   15:57:35.803.18-Apr-2020 3140.11 4561.19 67.79 7.00  14.60 1986.54
   15:57:36.003.18-Apr-2020 3140.11 4560.59 67.79 7.00  14.80 1986.54
   15:57:36.203.18-Apr-2020 3140.11 4560.02 67.79 7.00  15.00 1986.54
   15:57:36.403.18-Apr-2020 3140.11 4560.72 67.79 7.00  15.20 1986.54
   15:57:36.603.18-Apr-2020 3140.11 4560.72 67.79 7.00  15.40 1986.54
   15:57:36.803.18-Apr-2020 3140.11 4560.04 67.79 7.00  15.60 1986.54
   15:57:37.003.18-Apr-2020 3140.11 4560.64 67.79 7.00  15.80 1986.54
   15:57:37.203.18-Apr-2020 3140.11 4561.01 67.79 7.00  16.00 1986.54
   15:57:37.403.18-Apr-2020 3140.11 4561.01 67.79 7.00  16.20 1986.54
   15:57:37.603.18-Apr-2020 3140.11 4559.05 67.78 7.00  16.40 1986.54
   15:57:37.803.18-Apr-2020 3140.11 4562.02 67.78 7.00  16.60 1986.54
   15:57:38.003.18-Apr-2020 3140.11 4562.34 67.78 7.00  16.80 1986.54
   15:57:38.203.18-Apr-2020 3140.11 4562.21 67.78 7.00  17.00 1986.54
   15:57:38.403.18-Apr-2020 3140.11 4562.21 67.78 7.00  17.20 1986.54
   15:57:38.603.18-Apr-2020 3140.11 4564.46 67.78 7.00  17.40 1986.54
   15:57:38.803.18-Apr-2020 3140.11 4564.44 67.78 7.00  17.60 1986.54
   15:57:39.003.18-Apr-2020 3140.11 4564.40 67.78 7.00  17.80 1986.54
   15:57:39.203.18-Apr-2020 3140.11 4564.72 67.78 7.00  18.00 1986.54
   15:57:39.403.18-Apr-2020 3140.11 4564.72 67.78 7.00  18.20 1986.54
   15:57:39.603.18-Apr-2020 3140.11 4564.37 67.78 7.00  18.40 1986.54
   15:57:39.803.18-Apr-2020 3140.11 4564.21 67.78 7.00  18.60 1986.54
   15:57:40.003.18-Apr-2020 3140.11 4564.70 67.78 7.00  18.80 1986.54
   15:57:40.203.18-Apr-2020 3140.11 4561.82 67.78 7.00  19.00 1986.54
   15:57:40.403.18-Apr-2020 3140.11 4563.22 67.78 7.00  19.20 1986.54
   15:57:40.603.18-Apr-2020 3140.11 4563.92 67.78 7.00  19.40 1986.54
   15:57:40.803.18-Apr-2020 3140.11 4562.69 67.78 7.00  19.60 1986.54
   15:57:41.003.18-Apr-2020 3140.11 4561.48 67.78 7.00  19.80 1986.54
   15:57:41.203.18-Apr-2020 3140.11 4563.91 67.78 7.00  20.00 1986.54
   15:57:41.403.18-Apr-2020 3140.11 4563.91 67.78 7.00  20.20 1986.54
   15:57:41.603.18-Apr-2020 3140.11 4562.79 67.78 7.00  20.40 1986.54
   15:57:41.803.18-Apr-2020 3140.11 4563.03 67.78 7.00  20.60 1986.54
   15:57:42.003.18-Apr-2020 3140.11 4561.56 67.78 7.00  20.80 1986.54
   15:57:42.203.18-Apr-2020 3140.11 4563.31 67.78 7.00  21.00 1986.54
   15:57:42.403.18-Apr-2020 3140.11 4563.31 67.78 7.00  21.20 1986.54
   15:57:42.603.18-Apr-2020 3140.11 4561.94 67.77 7.00  21.40 1986.54
   15:57:42.803.18-Apr-2020 3140.11 4562.49 67.77 7.00  21.60 1986.54
   15:57:43.002.18-Apr-2020 3140.11 4559.86 67.77 7.00  21.80 1986.54
   15:57:43.202.18-Apr-2020 3140.11 4561.68 67.77 7.00  22.00 1986.54
   15:57:43.402.18-Apr-2020 3140.11 4561.68 67.77 7.00  22.20 1986.54
   15:57:43.602.18-Apr-2020 3140.11 4559.87 67.77 7.00  22.40 1986.54
   15:57:43.802.18-Apr-2020 3140.11 4559.83 67.77 7.00  22.60 1986.54
   15:57:44.002.18-Apr-2020 3140.11 4561.69 67.77 7.00  22.80 1986.54
