~Version Information
 VERS.                  2.0:   CWLS log ASCII Standard -VERSION 2.0
 WRAP.                   NO:   One line per depth step
~Well Information Block
#MNEM.UNIT     VALUE/NAME     DESCRIPTION
#---------     -----------    ---------------------------
 STRT.S             08:47:02 18-Apr-20: START TIME 08:47:02 18-Apr-20
 STOP.S             08:53:58 18-Apr-20: STOP TIME  08:53:58 18-Apr-20
 STEP.S                   0.00: STEP TIME
 NULL.                 -999.25: NULL VALUE
 DFWT.                        :  DIST FWL TEXT
 DFST.                        :  DIST FSL TEXT
 DMF .                        :  DRILL MEAS FROM
 STIM.      16.29.52 23-Mar-20:  START TIME
 DATE.      16.29.52 23-Mar-20:  END TIME
 SPUD.               23-Mar-20:  SPUD DATE
 NREF.                    Grid:  NORTH REFERENCE
 HPTY.       Minimum Curvature:  HOLE POS TYPE
 DMOD.             Drill Model:  DRILL MOD DESC
 SVYD.                  Survey:  SURVEY DESC
 ILTD.               Lithology:  INTERP LTH DESC
 FTOP.          Formation Tops:  FORM TOPS DESC
 SON .        AZ-XX-0906252240:  JOB NUMBER
 RIG .             West Chirag:  RIG NAME
 PDAT.          Mean Sea Level:  PERMANENT DATUM
 FLD .                     ACG:  FIELD NAME
 CTRY.              Azerbaijan:  COUNTRY NAME
 WELL.           J23 (Slot 07):  WELL NAME
 SRVC.          Turan Drilling:  CONTRACTOR
 COMP.     BP Exploration (Casoian Sea) Ltd:  COMPANY
 WTYP.                Deviated:  WELL TYPE
 MDS .        Operator Entered:  MAG DATA SOURCE
 UWI .                     N/A:  UNIQUE WELL IDENTIFIER
 API .                     N/A:  API NUMBER
 BASE.              Azerbaijan:  LOGGING EQUIPMENT BASE LOCATION
 REGN.                   EESSA:  REGION
 PROV.                    Baku:  PROVINCE
 STAT.                    Baku:  STATE NAME
 MWDS.                     N/A:  MWD SHOP
 JOBN.        AZ-XX-0906252240:  JOB TICKET NUMB
 DOE .                     N/A:  DOE NUMBER
 DCON.         Sperry Drilling:  DIRECTNL CONTR
 UNIT.                     N/A:  LOGGING EQUIPMENT ID
 CNTY.                        :  COUNTY
 LOC .                        :  LOCATION
 LMF .             Drill Floor:  LOG MEASURED FROM
 TVDS.m                  43.00:  TVDSS CORRECTN
 LATI.deg                40.13:  LATITUDE
 LONG.deg                51.22:  LONGITUDE
 WHNS.m                   9.43:  WELL HEAD N/S
 WHEW.m                  -8.91:  WELL HEAD E/W
 UTMX.m              519005.06:  UTM X
 UTMY.m             4443793.85:  UTM Y
 DFWL.m                   0.00:  DISTANCE FWL
 DFSL.m                   0.00:  DISTANCE FSL
 SDEP.m                   0.00:  START DEPTH
 TDD .m                   0.00:  TOTAL DEPTH (DRILLER)
 VSDR.deg               179.88:  VERT SEC DIRECT
 GVFD.g                   1.00:  GRAVITY FIELD
 MFLD.nT              50281.00:  MAGNETIC FIELD
 MDIP.deg                59.58:  MAGNETIC DIP
 MDEC.deg                 6.48:  MAGNETIC DECL
 GRDC.deg                 0.14:  GRID CORRECTION
 AZTC.deg                 6.34:  AZM TOTAL CORR
 EPD .m                   0.00:  ELEVATION
 EGL .m                   0.00:  GROUND ELEVATION
 WDMS.m                 169.80:  WD ELEV
 APD .m                  43.00:  DEPTH ABOVE PD
 DEP .m                 354.17:  DEPTH
 AGAP.m                  43.00:  AIR GAP
 VSEW.m                  -8.91:  VERT SEC E/W
 VSNS.m                   9.43:  VERT SEC N/S
 EKB .m                   0.00:  KB ELEVATION
 EDF .m                  43.00:  DF ELEVATION
 TDL .m                1326.00:  TOTAL DEPTH (LOGGER)
 VSC .                       0:  VS TO CLOSURE
 MAGU.                 1850704:  MAGUTM CHECKSUM
~Parameter Information Block
#MNEM.UNIT       Value        Description
#---------     -----------    ---------------------------
 AV  .mps                 1.17:  Ann Velocity 
 AZIF.deg               184.04:  Azm, Final 
 BHAT.        Rotary Steerable:  BHA Type 
 BREV.rev            620000.00:  Rev Bit Total 
 BROT.°/30m               0.20:  Build Rotating 
 BS  .in                 14.75:  Bit Size 
 BSZ .in                 14.75:  Bit Size 
 BTPL.psig              618.00:  Bit Press Loss 
 CABU.                      No:  Customer Abuse 
 TCS .hr                 87.68:  Time Ciculation Ended 
 CV  .mps                 3.10:  Crit Velocity 
 DD1 .          Rashad Habibov:  Direct Drillr 1 
 DD2 .         Rasim Ibrahimov:  Direct Drillr 2 
 DDSV.               Geo-Pilot:  DD Service 
 DEFF.%                  98.00:  % Det Eff 
 DLRX.°/30m               1.48:  Dogleg Rot Max 
 DLSO.°/30m               0.50:  Dogleg Oriented 
 DLSX.°/30m               1.48:  Dogleg Str Max 
 DRET.      06.18.56 19-Apr-20:  Drill End Time 
 DRST.      15.00.56 15-Apr-20:  Drill Start Tim 
 DTIM.hr                 51.73:  Time Drilling 
 EDEP.m                3410.01:  End Depth 
 ENG1.        Marcelo Sandoval:  Engineer 1 
 ENG2.        Davud Huseynzade:  Engineer 2 
 ENG3.          Ruslan Safarov:  Engineer 3 
 ETIM.      04.00.56 20-Apr-20:  End Time 
 FLOI.gpm              1000.00:  Flow In 
 FLON.gpm               600.00:  Flow In Min 
 FLOS.cptm                0.00:  Fluid Loss 
 FLOX.gpm              1200.00:  Flow In Max 
 HFLO.                      No:  High Flow 
 HPRE.                     Yes:  High Pressure 
 HTEM.                      No:  High Temp 
 HYDO.m                   1.80:  Hydro Offset 
 IFIN.deg                70.04:  Inc, Final 
 IMAX.deg                70.56:  Inc Max 
 IMIN.deg                69.85:  Inc Min 
 IMND.m                3103.24:  Inc Min Depth 
 IMXD.m                2876.63:  Inc Max Depth 
 JARR.                      No:  Jarring 
 LETM.      06.18.56 19-Apr-20:  Log End Time 
 LOST.hr                     0:  Lost Rig Time 
 LSTM.      15.00.56 15-Apr-20:  Log Start Time 
 MDCL.ppm             42000.00:  Mud Chlorides 
 MDES.     Inversion Oil/Synthetic:  Mud Desc 
 DFD .sg                  1.58:  Mud Density 
 MDMN.sg                  1.58:  Dens Mud Min 
 MDMX.sg                  1.58:  Dens Mud Max 
 MOIL.                      71:  Run Mud Oil % 
 MOWR.                   71:29:  Run Mud OWR 
 MSND.                       0:  Run Mud Sand % 
 MSOL.                    23.3:  Run Mud Solids% 
 DFV .spqt               84.00:  Mud Viscosity 
 MWOD.in                  9.50:  MWD Tool OD 
 MWSI.                      No:  Serv Intrp, MWD 
 OTIM.hr                139.62:  Time Operating 
 PMAX.psia             5364.69:  Press Op, Max 
 PV  .cP                 80.00:  Mud PV 
 RUN .                     700:  Run Number 
 ROPA.m/hr               25.00:  ROP Avg 
 ROPN.m/hr               11.00:  ROP Min 
 ROPX.m/hr               36.00:  ROP Max 
 RPMA.rpm               130.00:  RPM Surface Avg 
 RPMN.rpm               120.00:  RPM Surface Min 
 RPMX.rpm               140.00:  RPM Surface Max 
 RRUN.                    0700:  Rig Run Number 
 SAZI.deg               183.25:  Azm, Start 
 SDEP.m                2084.00:  Start Depth 
 SIDD.                      No:  Serv Intrp, DD 
 SINC.deg                70.38:  Inc, Start 
 SPPA.psig             4800.00:  SPP Avg 
 SPPN.psig             4400.00:  SPP Min 
 SPPX.psig             5350.00:  SPP Max 
 STIM.      16.30.56 14-Apr-20:  Start Time 
 SVCS.                 DD, MWD:  Services 
 SVER.                    9.20:  Sperry Version 
 TDAT.m                1326.00:  Tot Depth Attmp 
 TDDF.                      No:  Trip for DD 
 TDLG.m                1326.00:  Tot Depth Loggd 
 TFF .                      No:  Trip for Fail 
 TQAA.f-kp               19.00:  Torque Abs Avg 
 TQAN.f-kp                8.00:  Torque Abs Min 
 TQAX.f-kp               27.00:  Torque Abs Max 
 TRRT.°/30m               0.50:  Turn Rotating 
 MRT .                    HCIM:  Maximum Recorded Temperature 
 TTMX.degC               82.35:  Max Tool Temp 
 VS01.       905245875X1Z1W1C8:  Virtual Str1 SN 
 VS02.       90608022F11V7D1A9:  Virtual Str2 SN 
 VS03.            90605473R5C9:  Virtual Str3 SN 
 WBMN.klb                11.00:  WOB Min 
 WOBA.klb                21.00:  WOB Avg 
 WOBX.klb                30.00:  WOB Max 
 YP  .lhf2               45.00:  Yield Point 
~Curve Information Block
#MNEM.UNIT                 API CODE     Curve Description
#---------               -----------    ---------------------------
 TIME.HHMMSS            00 000 000 000:  GT Time & Date
 GTDEPTH.m              00 000 000 000:  GT Depth
 GTPQH.psia             00 000 000 000:  GT HR Quartz Pressure
 GTTQ.degC              00 000 000 000:  GT Quartz Temperature
 GTTN.NONE              00 000 000 000:  GT Test Number
 GTET.sec               00 000 000 000:  GT Elapsed Test Time
 GTTVD.m                00 000 000 000:  GT True Vertical Depth
#Other Information
#
#WARRANTY: Halliburton will use its best efforts to furnish customers with 
#accurate information and interpretations that are part of, and incident to, the services 
#provided.  However, Halliburton cannot and does not warrant the accuracy 
#or correctness of such information and interpretations.  Under no circumstances should any 
#such information or interpretation be relied upon as the sole basis for any drilling, 
#completion, production, or financial decision or any procedure involving any risk to the 
#safety of any drilling venture, drilling rig or its crew or any other third party.  The 
#Customer has full responsibility for all drilling, completion and production operation.  
#Halliburton makes no representations or warranties, either expressed or 
#implied, including, but not limited to, the implied warranties of merchantability or fitness 
#for a particular purpose, with respect to the services rendered.  In no event will 
#Halliburton be liable for failure to obtain any particular results or for 
#any damages, including, but not limited to, indirect, special or consequential damages, 
#resulting from the use of any information or interpretation provided by Halliburton.
#
~A           TIME           GTDEPTH  GTPQH  GTTQ  GTTN  GTET   GTTVD  
# ...
   08:47:48.353.18-Apr-2020 3032.52 4484.40 70.10 3.00  46.01 1949.78
   08:47:48.553.18-Apr-2020 3032.52 4484.40 70.10 3.00  46.21 1949.78
   08:47:48.753.18-Apr-2020 3032.52 4484.06 70.09 3.00  46.41 1949.78
   08:47:48.953.18-Apr-2020 3032.52 4484.47 70.09 3.00  46.61 1949.78
   08:47:49.153.18-Apr-2020 3032.52 4484.10 70.09 3.00  46.81 1949.78
   08:47:49.353.18-Apr-2020 3032.52 4483.69 70.09 3.00  47.01 1949.78
   08:47:49.553.18-Apr-2020 3032.52 4483.69 70.09 3.00  47.21 1949.78
   08:47:49.754.18-Apr-2020 3032.52 4484.88 70.09 3.00  47.41 1949.78
   08:47:49.954.18-Apr-2020 3032.52 4484.15 70.09 3.00  47.61 1949.78
   08:47:50.154.18-Apr-2020 3032.52 4482.01 70.09 3.00  47.81 1949.78
   08:47:50.354.18-Apr-2020 3032.52 4485.02 70.08 3.00  48.01 1949.78
   08:47:50.554.18-Apr-2020 3032.52 4484.83 70.08 3.00  48.21 1949.78
   08:47:50.754.18-Apr-2020 3032.52 4484.49 70.08 3.00  48.41 1949.78
   08:47:50.954.18-Apr-2020 3032.52 4469.60 70.08 3.00  48.61 1949.78
   08:47:51.154.18-Apr-2020 3032.52 4355.93 70.08 3.00  48.81 1949.78
   08:47:51.354.18-Apr-2020 3032.52 4325.68 70.08 3.00  49.01 1949.78
   08:47:51.554.18-Apr-2020 3032.52 4325.68 70.08 3.00  49.21 1949.78
   08:47:51.754.18-Apr-2020 3032.52 4307.66 70.08 3.00  49.41 1949.78
   08:47:51.954.18-Apr-2020 3032.52 4330.78 70.08 3.00  49.61 1949.78
   08:47:52.154.18-Apr-2020 3032.52 4355.20 70.07 3.00  49.81 1949.78
   08:47:52.354.18-Apr-2020 3032.52 4379.17 70.07 3.00  50.01 1949.78
   08:47:52.554.18-Apr-2020 3032.52 4393.37 70.07 3.00  50.21 1949.78
   08:47:52.754.18-Apr-2020 3032.52 4409.10 70.07 3.00  50.41 1949.78
   08:47:52.954.18-Apr-2020 3032.52 4428.06 70.07 3.00  50.61 1949.78
   08:47:53.154.18-Apr-2020 3032.52 4434.95 70.07 3.00  50.81 1949.78
   08:47:53.354.18-Apr-2020 3032.52 4445.05 70.07 3.00  51.01 1949.78
   08:47:53.554.18-Apr-2020 3032.52 4445.05 70.07 3.00  51.21 1949.78
   08:47:53.754.18-Apr-2020 3032.52 4468.34 70.06 3.00  51.41 1949.78
   08:47:53.954.18-Apr-2020 3032.52 4481.42 70.06 3.00  51.61 1949.78
   08:47:54.154.18-Apr-2020 3032.52 4495.98 70.06 3.00  51.81 1949.78
   08:47:54.354.18-Apr-2020 3032.52 4510.92 70.06 3.00  52.01 1949.78
   08:47:54.554.18-Apr-2020 3032.52 4526.04 70.06 3.00  52.21 1949.78
   08:47:54.754.18-Apr-2020 3032.52 4537.17 70.06 3.00  52.41 1949.78
   08:47:54.954.18-Apr-2020 3032.52 4545.22 70.06 3.00  52.61 1949.78
   08:47:55.154.18-Apr-2020 3032.52 4549.40 70.06 3.00  52.81 1949.78
   08:47:55.354.18-Apr-2020 3032.52 4555.71 70.06 3.00  53.01 1949.78
   08:47:55.554.18-Apr-2020 3032.52 4558.06 70.05 3.00  53.21 1949.78
   08:47:55.754.18-Apr-2020 3032.52 4559.56 70.05 3.00  53.41 1949.78
   08:47:55.954.18-Apr-2020 3032.52 4561.29 70.05 3.00  53.61 1949.78
   08:47:56.154.18-Apr-2020 3032.52 4561.99 70.05 3.00  53.81 1949.78
   08:47:56.354.18-Apr-2020 3032.52 4566.28 70.05 3.00  54.01 1949.78
   08:47:56.554.18-Apr-2020 3032.52 4566.28 70.05 3.00  54.21 1949.78
   08:47:56.754.18-Apr-2020 3032.52 4569.22 70.05 3.00  54.41 1949.78
   08:47:56.954.18-Apr-2020 3032.52 4574.98 70.05 3.00  54.61 1949.78
   08:47:57.154.18-Apr-2020 3032.52 4568.45 70.05 3.00  54.81 1949.78
   08:47:57.355.18-Apr-2020 3032.52 4583.36 70.04 3.00  55.01 1949.78
   08:47:57.555.18-Apr-2020 3032.52 4583.36 70.04 3.00  55.21 1949.78
   08:47:57.755.18-Apr-2020 3032.52 4562.45 70.04 3.00  55.41 1949.78
   08:47:57.955.18-Apr-2020 3032.52 4581.85 70.04 3.00  55.61 1949.78
   08:47:58.155.18-Apr-2020 3032.52 4561.63 70.04 3.00  55.81 1949.78
   08:47:58.355.18-Apr-2020 3032.52 4544.11 70.04 3.00  56.01 1949.78
   08:47:58.555.18-Apr-2020 3032.52 4534.35 70.04 3.00  56.21 1949.78
   08:47:58.755.18-Apr-2020 3032.52 4534.96 70.04 3.00  56.41 1949.78
   08:47:58.955.18-Apr-2020 3032.52 4533.46 70.04 3.00  56.61 1949.78
   08:47:59.155.18-Apr-2020 3032.52 4534.12 70.03 3.00  56.81 1949.78
   08:47:59.355.18-Apr-2020 3032.52 4533.70 70.03 3.00  57.01 1949.78
   08:47:59.555.18-Apr-2020 3032.52 4533.16 70.03 3.00  57.21 1949.78
   08:47:59.755.18-Apr-2020 3032.52 4532.70 70.03 3.00  57.41 1949.78
   08:47:59.955.18-Apr-2020 3032.52 4533.35 70.03 3.00  57.61 1949.78
   08:48:00.155.18-Apr-2020 3032.52 4532.62 70.03 3.00  57.81 1949.78
   08:48:00.355.18-Apr-2020 3032.52 4531.49 70.03 3.00  58.01 1949.78
   08:48:00.555.18-Apr-2020 3032.52 4531.49 70.03 3.00  58.21 1949.78
   08:48:00.755.18-Apr-2020 3032.52 4531.30 70.03 3.00  58.41 1949.78
   08:48:00.955.18-Apr-2020 3032.52 4531.57 70.03 3.00  58.61 1949.78
   08:48:01.155.18-Apr-2020 3032.52 4531.45 70.02 3.00  58.81 1949.78
   08:48:01.355.18-Apr-2020 3032.52 4530.74 70.02 3.00  59.01 1949.78
   08:48:01.555.18-Apr-2020 3032.52 4530.74 70.02 3.00  59.21 1949.78
   08:48:01.755.18-Apr-2020 3032.52 4532.18 70.02 3.00  59.41 1949.78
   08:48:01.955.18-Apr-2020 3032.52 4531.69 70.02 3.00  59.61 1949.78
   08:48:02.155.18-Apr-2020 3032.52 4531.62 70.02 3.00  59.81 1949.78
   08:48:02.355.18-Apr-2020 3032.52 4531.49 70.02 3.00  60.01 1949.78
   08:48:02.555.18-Apr-2020 3032.52 4532.44 70.02 3.00  60.21 1949.78
   08:48:02.755.18-Apr-2020 3032.52 4532.53 70.02 3.00  60.41 1949.78
   08:48:02.955.18-Apr-2020 3032.52 4531.60 70.01 3.00  60.61 1949.78
   08:48:03.155.18-Apr-2020 3032.52 4531.51 70.01 3.00  60.81 1949.78
   08:48:03.355.18-Apr-2020 3032.52 4531.85 70.01 3.00  61.01 1949.78
   08:48:03.555.18-Apr-2020 3032.52 4531.85 70.01 3.00  61.21 1949.78
   08:48:03.755.18-Apr-2020 3032.52 4531.52 70.01 3.00  61.41 1949.78
   08:48:03.955.18-Apr-2020 3032.52 4531.25 70.01 3.00  61.61 1949.78
   08:48:04.155.18-Apr-2020 3032.52 4531.34 70.01 3.00  61.81 1949.78
   08:48:04.355.18-Apr-2020 3032.52 4530.02 70.01 3.00  62.01 1949.78
   08:48:04.555.18-Apr-2020 3032.52 4530.02 70.01 3.00  62.21 1949.78
   08:48:04.756.18-Apr-2020 3032.52 4550.57 70.00 3.00  62.41 1949.78
   08:48:04.956.18-Apr-2020 3032.52 4628.98 70.00 3.00  62.61 1949.78
   08:48:05.156.18-Apr-2020 3032.52 4508.59 70.00 3.00  62.81 1949.78
   08:48:05.356.18-Apr-2020 3032.52 4505.83 70.00 3.00  63.01 1949.78
   08:48:05.556.18-Apr-2020 3032.52 4505.83 70.00 3.00  63.21 1949.78
   08:48:05.756.18-Apr-2020 3032.52 4501.93 70.00 3.00  63.41 1949.78
   08:48:05.956.18-Apr-2020 3032.52 4502.26 70.00 3.00  63.61 1949.78
   08:48:06.156.18-Apr-2020 3032.52 4502.30 70.00 3.00  63.81 1949.78
   08:48:06.356.18-Apr-2020 3032.52 4488.95 70.00 3.00  64.01 1949.78
   08:48:06.556.18-Apr-2020 3032.52 4488.95 70.00 3.00  64.21 1949.78
   08:48:06.756.18-Apr-2020 3032.52 4185.17 69.99 3.00  64.41 1949.78
   08:48:06.956.18-Apr-2020 3032.52 3993.03 69.99 3.00  64.61 1949.78
   08:48:07.156.18-Apr-2020 3032.52 3828.47 69.99 3.00  64.81 1949.78
   08:48:07.356.18-Apr-2020 3032.52 3690.59 69.99 3.00  65.01 1949.78
   08:48:07.556.18-Apr-2020 3032.52 3570.90 69.99 3.00  65.21 1949.78
   08:48:07.756.18-Apr-2020 3032.52 3468.81 69.99 3.00  65.41 1949.78
   08:48:07.956.18-Apr-2020 3032.52 3382.16 69.99 3.00  65.61 1949.78
   08:48:08.156.18-Apr-2020 3032.52 3300.29 69.98 3.00  65.81 1949.78
   08:48:08.356.18-Apr-2020 3032.52 3227.68 69.98 3.00  66.01 1949.78
   08:48:08.556.18-Apr-2020 3032.52 3227.68 69.98 3.00  66.21 1949.78
   08:48:08.756.18-Apr-2020 3032.52 3272.76 69.98 3.00  66.41 1949.78
   08:48:08.956.18-Apr-2020 3032.52 3296.96 69.98 3.00  66.61 1949.78
   08:48:09.156.18-Apr-2020 3032.52 3305.31 69.98 3.00  66.81 1949.78
   08:48:09.356.18-Apr-2020 3032.52 3308.79 69.97 3.00  67.01 1949.78
   08:48:09.556.18-Apr-2020 3032.52 3308.79 69.97 3.00  67.21 1949.78
   08:48:09.756.18-Apr-2020 3032.52 3311.66 69.97 3.00  67.41 1949.78
   08:48:09.956.18-Apr-2020 3032.52 3313.92 69.97 3.00  67.61 1949.78
   08:48:10.156.18-Apr-2020 3032.52 3315.85 69.97 3.00  67.81 1949.78
   08:48:10.356.18-Apr-2020 3032.52 3317.46 69.97 3.00  68.01 1949.78
   08:48:10.556.18-Apr-2020 3032.52 3319.10 69.96 3.00  68.21 1949.78
   08:48:10.756.18-Apr-2020 3032.52 3320.21 69.96 3.00  68.41 1949.78
   08:48:10.956.18-Apr-2020 3032.52 3322.31 69.96 3.00  68.61 1949.78
   08:48:11.156.18-Apr-2020 3032.52 3323.05 69.96 3.00  68.81 1949.78
