~Version Information
 VERS.                  2.0:   CWLS log ASCII Standard -VERSION 2.0
 WRAP.                   NO:   One line per depth step
~Well Information Block
#MNEM.UNIT     VALUE/NAME     DESCRIPTION
#---------     -----------    ---------------------------
 STRT.S             07:07:08 18-Apr-20: START TIME 07:07:08 18-Apr-20
 STOP.S             07:14:03 18-Apr-20: STOP TIME  07:14:03 18-Apr-20
 STEP.S                   0.00: STEP TIME
 NULL.                 -999.25: NULL VALUE
 DFWT.                        :  DIST FWL TEXT
 DFST.                        :  DIST FSL TEXT
 DMF .                        :  DRILL MEAS FROM
 STIM.      16.29.52 23-Mar-20:  START TIME
 DATE.      16.29.52 23-Mar-20:  END TIME
 SPUD.               23-Mar-20:  SPUD DATE
 NREF.                    Grid:  NORTH REFERENCE
 HPTY.       Minimum Curvature:  HOLE POS TYPE
 DMOD.             Drill Model:  DRILL MOD DESC
 SVYD.                  Survey:  SURVEY DESC
 ILTD.               Lithology:  INTERP LTH DESC
 FTOP.          Formation Tops:  FORM TOPS DESC
 SON .        AZ-XX-0906252240:  JOB NUMBER
 RIG .             West Chirag:  RIG NAME
 PDAT.          Mean Sea Level:  PERMANENT DATUM
 FLD .                     ACG:  FIELD NAME
 CTRY.              Azerbaijan:  COUNTRY NAME
 WELL.           J23 (Slot 07):  WELL NAME
 SRVC.          Turan Drilling:  CONTRACTOR
 COMP.     BP Exploration (Casoian Sea) Ltd:  COMPANY
 WTYP.                Deviated:  WELL TYPE
 MDS .        Operator Entered:  MAG DATA SOURCE
 UWI .                     N/A:  UNIQUE WELL IDENTIFIER
 API .                     N/A:  API NUMBER
 BASE.              Azerbaijan:  LOGGING EQUIPMENT BASE LOCATION
 REGN.                   EESSA:  REGION
 PROV.                    Baku:  PROVINCE
 STAT.                    Baku:  STATE NAME
 MWDS.                     N/A:  MWD SHOP
 JOBN.        AZ-XX-0906252240:  JOB TICKET NUMB
 DOE .                     N/A:  DOE NUMBER
 DCON.         Sperry Drilling:  DIRECTNL CONTR
 UNIT.                     N/A:  LOGGING EQUIPMENT ID
 CNTY.                        :  COUNTY
 LOC .                        :  LOCATION
 LMF .             Drill Floor:  LOG MEASURED FROM
 TVDS.m                  43.00:  TVDSS CORRECTN
 LATI.deg                40.13:  LATITUDE
 LONG.deg                51.22:  LONGITUDE
 WHNS.m                   9.43:  WELL HEAD N/S
 WHEW.m                  -8.91:  WELL HEAD E/W
 UTMX.m              519005.06:  UTM X
 UTMY.m             4443793.85:  UTM Y
 DFWL.m                   0.00:  DISTANCE FWL
 DFSL.m                   0.00:  DISTANCE FSL
 SDEP.m                   0.00:  START DEPTH
 TDD .m                   0.00:  TOTAL DEPTH (DRILLER)
 VSDR.deg               179.88:  VERT SEC DIRECT
 GVFD.g                   1.00:  GRAVITY FIELD
 MFLD.nT              50281.00:  MAGNETIC FIELD
 MDIP.deg                59.58:  MAGNETIC DIP
 MDEC.deg                 6.48:  MAGNETIC DECL
 GRDC.deg                 0.14:  GRID CORRECTION
 AZTC.deg                 6.34:  AZM TOTAL CORR
 EPD .m                   0.00:  ELEVATION
 EGL .m                   0.00:  GROUND ELEVATION
 WDMS.m                 169.80:  WD ELEV
 APD .m                  43.00:  DEPTH ABOVE PD
 DEP .m                 354.17:  DEPTH
 AGAP.m                  43.00:  AIR GAP
 VSEW.m                  -8.91:  VERT SEC E/W
 VSNS.m                   9.43:  VERT SEC N/S
 EKB .m                   0.00:  KB ELEVATION
 EDF .m                  43.00:  DF ELEVATION
 TDL .m                1326.00:  TOTAL DEPTH (LOGGER)
 VSC .                       0:  VS TO CLOSURE
 MAGU.                 1850704:  MAGUTM CHECKSUM
~Parameter Information Block
#MNEM.UNIT       Value        Description
#---------     -----------    ---------------------------
 AV  .mps                 1.17:  Ann Velocity 
 AZIF.deg               184.04:  Azm, Final 
 BHAT.        Rotary Steerable:  BHA Type 
 BREV.rev            620000.00:  Rev Bit Total 
 BROT.°/30m               0.20:  Build Rotating 
 BS  .in                 14.75:  Bit Size 
 BSZ .in                 14.75:  Bit Size 
 BTPL.psig              618.00:  Bit Press Loss 
 CABU.                      No:  Customer Abuse 
 COMM.                     îb:  Run Comments 1 
 TCS .hr                 87.68:  Time Ciculation Ended 
 CV  .mps                 3.10:  Crit Velocity 
 DD1 .          Rashad Habibov:  Direct Drillr 1 
 DD2 .         Rasim Ibrahimov:  Direct Drillr 2 
 DDSV.               Geo-Pilot:  DD Service 
 DEFF.%                  98.00:  % Det Eff 
 DLRX.°/30m               1.48:  Dogleg Rot Max 
 DLSO.°/30m               0.50:  Dogleg Oriented 
 DLSX.°/30m               1.48:  Dogleg Str Max 
 DRET.      06.18.56 19-Apr-20:  Drill End Time 
 DRST.      15.00.56 15-Apr-20:  Drill Start Tim 
 DTIM.hr                 51.73:  Time Drilling 
 EDEP.m                3410.01:  End Depth 
 ENG1.        Marcelo Sandoval:  Engineer 1 
 ENG2.        Davud Huseynzade:  Engineer 2 
 ENG3.          Ruslan Safarov:  Engineer 3 
 ETIM.      04.00.56 20-Apr-20:  End Time 
 FLOI.gpm              1000.00:  Flow In 
 FLON.gpm               600.00:  Flow In Min 
 FLOS.cptm                0.00:  Fluid Loss 
 FLOX.gpm              1200.00:  Flow In Max 
 HFLO.                      No:  High Flow 
 HPRE.                     Yes:  High Pressure 
 HTEM.                      No:  High Temp 
 HYDO.m                   1.80:  Hydro Offset 
 IFIN.deg                70.04:  Inc, Final 
 IMAX.deg                70.56:  Inc Max 
 IMIN.deg                69.85:  Inc Min 
 IMND.m                3103.24:  Inc Min Depth 
 IMXD.m                2876.63:  Inc Max Depth 
 JARR.                      No:  Jarring 
 LETM.      06.18.56 19-Apr-20:  Log End Time 
 LOST.hr                     0:  Lost Rig Time 
 LSTM.      15.00.56 15-Apr-20:  Log Start Time 
 MDCL.ppm             42000.00:  Mud Chlorides 
 MDES.     Inversion Oil/Synthetic:  Mud Desc 
 DFD .sg                  1.58:  Mud Density 
 MDMN.sg                  1.58:  Dens Mud Min 
 MDMX.sg                  1.58:  Dens Mud Max 
 MOIL.                      71:  Run Mud Oil % 
 MOWR.                   71:29:  Run Mud OWR 
 MSND.                       0:  Run Mud Sand % 
 MSOL.                    23.3:  Run Mud Solids% 
 DFV .spqt               84.00:  Mud Viscosity 
 MWOD.in                  9.50:  MWD Tool OD 
 MWSI.                      No:  Serv Intrp, MWD 
 OTIM.hr                139.62:  Time Operating 
 PMAX.psia             5364.69:  Press Op, Max 
 PV  .cP                 80.00:  Mud PV 
 RUN .                     700:  Run Number 
 ROPA.m/hr               25.00:  ROP Avg 
 ROPN.m/hr               11.00:  ROP Min 
 ROPX.m/hr               36.00:  ROP Max 
 RPMA.rpm               130.00:  RPM Surface Avg 
 RPMN.rpm               120.00:  RPM Surface Min 
 RPMX.rpm               140.00:  RPM Surface Max 
 RRUN.                    0700:  Rig Run Number 
 SAZI.deg               183.25:  Azm, Start 
 SDEP.m                2084.00:  Start Depth 
 SIDD.                      No:  Serv Intrp, DD 
 SINC.deg                70.38:  Inc, Start 
 SPPA.psig             4800.00:  SPP Avg 
 SPPN.psig             4400.00:  SPP Min 
 SPPX.psig             5350.00:  SPP Max 
 STIM.      16.30.56 14-Apr-20:  Start Time 
 SVCS.                 DD, MWD:  Services 
 SVER.                    9.20:  Sperry Version 
 TDAT.m                1326.00:  Tot Depth Attmp 
 TDDF.                      No:  Trip for DD 
 TDLG.m                1326.00:  Tot Depth Loggd 
 TFF .                      No:  Trip for Fail 
 TQAA.f-kp               19.00:  Torque Abs Avg 
 TQAN.f-kp                8.00:  Torque Abs Min 
 TQAX.f-kp               27.00:  Torque Abs Max 
 TRRT.°/30m               0.50:  Turn Rotating 
 MRT .                    HCIM:  Maximum Recorded Temperature 
 TTMX.degC               82.35:  Max Tool Temp 
 VS01.       905245875X1Z1W1C8:  Virtual Str1 SN 
 VS02.       90608022F11V7D1A9:  Virtual Str2 SN 
 VS03.            90605473R5C9:  Virtual Str3 SN 
 WBMN.klb                11.00:  WOB Min 
 WOBA.klb                21.00:  WOB Avg 
 WOBX.klb                30.00:  WOB Max 
 YP  .lhf2               45.00:  Yield Point 
~Curve Information Block
#MNEM.UNIT                 API CODE     Curve Description
#---------               -----------    ---------------------------
 TIME.HHMMSS            00 000 000 000:  GT Time & Date
 GTDEPTH.m              00 000 000 000:  GT Depth
 GTPQH.psia             00 000 000 000:  GT HR Quartz Pressure
 GTTQ.degC              00 000 000 000:  GT Quartz Temperature
 GTTN.NONE              00 000 000 000:  GT Test Number
 GTET.sec               00 000 000 000:  GT Elapsed Test Time
 GTTVD.m                00 000 000 000:  GT True Vertical Depth
#Other Information
#
#WARRANTY: Halliburton will use its best efforts to furnish customers with 
#accurate information and interpretations that are part of, and incident to, the services 
#provided.  However, Halliburton cannot and does not warrant the accuracy 
#or correctness of such information and interpretations.  Under no circumstances should any 
#such information or interpretation be relied upon as the sole basis for any drilling, 
#completion, production, or financial decision or any procedure involving any risk to the 
#safety of any drilling venture, drilling rig or its crew or any other third party.  The 
#Customer has full responsibility for all drilling, completion and production operation.  
#Halliburton makes no representations or warranties, either expressed or 
#implied, including, but not limited to, the implied warranties of merchantability or fitness 
#for a particular purpose, with respect to the services rendered.  In no event will 
#Halliburton be liable for failure to obtain any particular results or for 
#any damages, including, but not limited to, indirect, special or consequential damages, 
#resulting from the use of any information or interpretation provided by Halliburton.
#
~A           TIME           GTDEPTH  GTPQH  GTTQ  GTTN  GTET   GTTVD  
# ...
   07:13:39.677.18-Apr-2020 3016.07 4466.65 69.64 2.00 391.04 1944.23
   07:13:39.877.18-Apr-2020 3016.07 4466.65 69.64 2.00 391.24 1944.23
   07:13:40.077.18-Apr-2020 3016.07 4466.27 69.64 2.00 391.44 1944.23
   07:13:40.277.18-Apr-2020 3016.07 4466.10 69.63 2.00 391.64 1944.23
   07:13:40.477.18-Apr-2020 3016.07 4466.32 69.63 2.00 391.84 1944.23
   07:13:40.677.18-Apr-2020 3016.07 4466.16 69.63 2.00 392.04 1944.23
   07:13:40.877.18-Apr-2020 3016.07 4466.16 69.63 2.00 392.24 1944.23
   07:13:41.077.18-Apr-2020 3016.07 4464.25 69.63 2.00 392.44 1944.23
   07:13:41.277.18-Apr-2020 3016.07 4465.80 69.63 2.00 392.64 1944.23
   07:13:41.477.18-Apr-2020 3016.07 4466.74 69.63 2.00 392.84 1944.23
   07:13:41.677.18-Apr-2020 3016.07 4465.90 69.63 2.00 393.04 1944.23
   07:13:41.877.18-Apr-2020 3016.07 4465.90 69.63 2.00 393.24 1944.23
   07:13:42.077.18-Apr-2020 3016.07 4466.59 69.63 2.00 393.44 1944.23
   07:13:42.277.18-Apr-2020 3016.07 4466.64 69.63 2.00 393.64 1944.23
   07:13:42.477.18-Apr-2020 3016.07 4466.07 69.63 2.00 393.84 1944.23
   07:13:42.678.18-Apr-2020 3016.07 4464.06 69.63 2.00 394.04 1944.23
   07:13:42.878.18-Apr-2020 3016.07 4464.06 69.63 2.00 394.24 1944.23
   07:13:43.078.18-Apr-2020 3016.07 4466.24 69.63 2.00 394.44 1944.23
   07:13:43.278.18-Apr-2020 3016.07 4465.71 69.63 2.00 394.64 1944.23
   07:13:43.478.18-Apr-2020 3016.07 4465.33 69.63 2.00 394.84 1944.23
   07:13:43.678.18-Apr-2020 3016.07 4463.02 69.63 2.00 395.04 1944.23
   07:13:43.878.18-Apr-2020 3016.07 4466.91 69.62 2.00 395.24 1944.23
   07:13:44.078.18-Apr-2020 3016.07 4465.82 69.62 2.00 395.44 1944.23
   07:13:44.278.18-Apr-2020 3016.07 4465.35 69.62 2.00 395.64 1944.23
   07:13:44.478.18-Apr-2020 3016.07 4462.86 69.62 2.00 395.84 1944.23
   07:13:44.678.18-Apr-2020 3016.07 4466.96 69.62 2.00 396.04 1944.23
   07:13:44.878.18-Apr-2020 3016.07 4466.96 69.62 2.00 396.24 1944.23
   07:13:45.078.18-Apr-2020 3016.07 4465.76 69.62 2.00 396.44 1944.23
   07:13:45.278.18-Apr-2020 3016.07 4466.11 69.62 2.00 396.64 1944.23
   07:13:45.478.18-Apr-2020 3016.07 4466.91 69.62 2.00 396.84 1944.23
   07:13:45.678.18-Apr-2020 3016.07 4466.54 69.62 2.00 397.04 1944.23
   07:13:45.878.18-Apr-2020 3016.07 4466.54 69.62 2.00 397.24 1944.23
   07:13:46.078.18-Apr-2020 3016.07 4465.07 69.62 2.00 397.44 1944.23
   07:13:46.278.18-Apr-2020 3016.07 4465.09 69.62 2.00 397.64 1944.23
   07:13:46.478.18-Apr-2020 3016.07 4465.59 69.62 2.00 397.84 1944.23
   07:13:46.678.18-Apr-2020 3016.07 4465.09 69.62 2.00 398.04 1944.23
   07:13:46.878.18-Apr-2020 3016.07 4465.09 69.62 2.00 398.24 1944.23
   07:13:47.078.18-Apr-2020 3016.07 4464.87 69.61 2.00 398.44 1944.23
   07:13:47.278.18-Apr-2020 3016.07 4463.36 69.61 2.00 398.64 1944.23
   07:13:47.478.18-Apr-2020 3016.07 4464.79 69.61 2.00 398.84 1944.23
   07:13:47.678.18-Apr-2020 3016.07 4465.19 69.61 2.00 399.04 1944.23
   07:13:47.878.18-Apr-2020 3016.07 4465.93 69.61 2.00 399.24 1944.23
   07:13:48.078.18-Apr-2020 3016.07 4465.68 69.61 2.00 399.44 1944.23
   07:13:48.278.18-Apr-2020 3016.07 4466.03 69.61 2.00 399.64 1944.23
   07:13:48.478.18-Apr-2020 3016.07 4465.53 69.61 2.00 399.84 1944.23
   07:13:48.678.18-Apr-2020 3016.07 4465.69 69.61 2.00 400.04 1944.23
   07:13:48.878.18-Apr-2020 3016.07 4465.80 69.61 2.00 400.24 1944.23
   07:13:49.078.18-Apr-2020 3016.07 4465.66 69.61 2.00 400.44 1944.23
   07:13:49.278.18-Apr-2020 3016.07 4465.86 69.61 2.00 400.64 1944.23
   07:13:49.478.18-Apr-2020 3016.07 4465.93 69.61 2.00 400.84 1944.23
   07:13:49.678.18-Apr-2020 3016.07 4465.62 69.60 2.00 401.04 1944.23
   07:13:49.878.18-Apr-2020 3016.07 4465.62 69.60 2.00 401.24 1944.23
   07:13:50.078.18-Apr-2020 3016.07 4463.22 69.60 2.00 401.44 1944.23
   07:13:50.278.18-Apr-2020 3016.07 4466.07 69.60 2.00 401.64 1944.23
   07:13:50.478.18-Apr-2020 3016.07 4466.10 69.60 2.00 401.84 1944.23
   07:13:50.678.18-Apr-2020 3016.07 4464.50 69.60 2.00 402.04 1944.23
   07:13:50.878.18-Apr-2020 3016.07 4464.50 69.60 2.00 402.24 1944.23
   07:13:51.078.18-Apr-2020 3016.07 4466.98 69.60 2.00 402.44 1944.23
   07:13:51.278.18-Apr-2020 3016.07 4467.17 69.60 2.00 402.64 1944.23
   07:13:51.478.18-Apr-2020 3016.07 4464.29 69.60 2.00 402.84 1944.23
   07:13:51.678.18-Apr-2020 3016.07 4467.50 69.60 2.00 403.04 1944.23
   07:13:51.878.18-Apr-2020 3016.07 4466.29 69.60 2.00 403.24 1944.23
   07:13:52.079.18-Apr-2020 3016.07 4466.59 69.60 2.00 403.44 1944.23
   07:13:52.279.18-Apr-2020 3016.07 4465.65 69.60 2.00 403.64 1944.23
   07:13:52.479.18-Apr-2020 3016.07 4464.83 69.59 2.00 403.84 1944.23
   07:13:52.679.18-Apr-2020 3016.07 4464.87 69.59 2.00 404.04 1944.23
   07:13:52.879.18-Apr-2020 3016.07 4466.52 69.59 2.00 404.24 1944.23
   07:13:53.079.18-Apr-2020 3016.07 4466.38 69.59 2.00 404.44 1944.23
   07:13:53.279.18-Apr-2020 3016.07 4463.12 69.59 2.00 404.64 1944.23
   07:13:53.479.18-Apr-2020 3016.07 4467.65 69.59 2.00 404.84 1944.23
   07:13:53.679.18-Apr-2020 3016.07 4466.88 69.59 2.00 405.04 1944.23
   07:13:53.879.18-Apr-2020 3016.07 4466.88 69.59 2.00 405.24 1944.23
   07:13:54.079.18-Apr-2020 3016.07 4466.41 69.59 2.00 405.44 1944.23
   07:13:54.279.18-Apr-2020 3016.07 4467.48 69.59 2.00 405.64 1944.23
   07:13:54.479.18-Apr-2020 3016.07 4467.35 69.59 2.00 405.84 1944.23
   07:13:54.679.18-Apr-2020 3016.07 4466.53 69.59 2.00 406.04 1944.23
   07:13:54.879.18-Apr-2020 3016.07 4466.53 69.59 2.00 406.24 1944.23
   07:13:55.079.18-Apr-2020 3016.07 4465.56 69.59 2.00 406.44 1944.23
   07:13:55.279.18-Apr-2020 3016.07 4466.33 69.58 2.00 406.64 1944.23
   07:13:55.479.18-Apr-2020 3016.07 4465.85 69.58 2.00 406.84 1944.23
   07:13:55.679.18-Apr-2020 3016.07 4465.02 69.58 2.00 407.04 1944.23
   07:13:55.879.18-Apr-2020 3016.07 4465.26 69.58 2.00 407.24 1944.23
   07:13:56.079.18-Apr-2020 3016.07 4463.49 69.58 2.00 407.44 1944.23
   07:13:56.279.18-Apr-2020 3016.07 4465.01 69.58 2.00 407.64 1944.23
   07:13:56.479.18-Apr-2020 3016.07 4465.36 69.58 2.00 407.84 1944.23
   07:13:56.679.18-Apr-2020 3016.07 4466.07 69.58 2.00 408.04 1944.23
   07:13:56.879.18-Apr-2020 3016.07 4466.07 69.58 2.00 408.24 1944.23
   07:13:57.079.18-Apr-2020 3016.07 4466.48 69.58 2.00 408.44 1944.23
   07:13:57.279.18-Apr-2020 3016.07 4466.12 69.58 2.00 408.64 1944.23
   07:13:57.479.18-Apr-2020 3016.07 4465.94 69.58 2.00 408.84 1944.23
   07:13:57.679.18-Apr-2020 3016.07 4466.29 69.58 2.00 409.04 1944.23
   07:13:57.879.18-Apr-2020 3016.07 4466.29 69.58 2.00 409.24 1944.23
   07:13:58.079.18-Apr-2020 3016.07 4466.02 69.57 2.00 409.44 1944.23
   07:13:58.279.18-Apr-2020 3016.07 4466.05 69.57 2.00 409.64 1944.23
   07:13:58.479.18-Apr-2020 3016.07 4466.08 69.57 2.00 409.84 1944.23
   07:13:58.679.18-Apr-2020 3016.07 4465.53 69.57 2.00 410.04 1944.23
   07:13:58.879.18-Apr-2020 3016.07 4465.53 69.57 2.00 410.24 1944.23
   07:13:59.079.18-Apr-2020 3016.07 4466.30 69.57 2.00 410.44 1944.23
   07:13:59.279.18-Apr-2020 3016.07 4465.88 69.57 2.00 410.64 1944.23
   07:13:59.479.18-Apr-2020 3016.07 4463.77 69.57 2.00 410.84 1944.23
   07:13:59.679.18-Apr-2020 3016.07 4467.21 69.57 2.00 411.04 1944.23
   07:13:59.879.18-Apr-2020 3016.07 4467.21 69.57 2.00 411.24 1944.23
   07:14:00.079.18-Apr-2020 3016.07 4466.76 69.57 2.00 411.44 1944.23
   07:14:00.279.18-Apr-2020 3016.07 4464.15 69.57 2.00 411.64 1944.23
   07:14:00.479.18-Apr-2020 3016.07 4466.89 69.57 2.00 411.84 1944.23
   07:14:00.679.18-Apr-2020 3016.07 4465.97 69.56 2.00 412.04 1944.23
   07:14:00.879.18-Apr-2020 3016.07 4465.97 69.56 2.00 412.24 1944.23
   07:14:01.079.18-Apr-2020 3016.07 4465.48 69.56 2.00 412.44 1944.23
   07:14:01.279.18-Apr-2020 3016.07 4464.20 69.56 2.00 412.64 1944.23
   07:14:01.480.18-Apr-2020 3016.07 4464.06 69.56 2.00 412.84 1944.23
   07:14:01.680.18-Apr-2020 3016.07 4465.55 69.56 2.00 413.04 1944.23
   07:14:01.880.18-Apr-2020 3016.07 4465.55 69.56 2.00 413.24 1944.23
   07:14:02.080.18-Apr-2020 3016.07 4463.94 69.56 2.00 413.44 1944.23
   07:14:02.280.18-Apr-2020 3016.07 4464.40 69.56 2.00 413.64 1944.23
   07:14:02.480.18-Apr-2020 3016.07 4465.74 69.56 2.00 413.84 1944.23
