~Version Information
 VERS.                  2.0:   CWLS log ASCII Standard -VERSION 2.0
 WRAP.                   NO:   One line per depth step
~Well Information Block
#MNEM.UNIT     VALUE/NAME     DESCRIPTION
#---------     -----------    ---------------------------
 STRT.S             15:35:19 18-Apr-20: START TIME 15:35:19 18-Apr-20
 STOP.S             15:42:14 18-Apr-20: STOP TIME  15:42:14 18-Apr-20
 STEP.S                   0.00: STEP TIME
 NULL.                 -999.25: NULL VALUE
 DFWT.                        :  DIST FWL TEXT
 DFST.                        :  DIST FSL TEXT
 DMF .                        :  DRILL MEAS FROM
 STIM.      16.29.52 23-Mar-20:  START TIME
 DATE.      16.29.52 23-Mar-20:  END TIME
 SPUD.               23-Mar-20:  SPUD DATE
 NREF.                    Grid:  NORTH REFERENCE
 HPTY.       Minimum Curvature:  HOLE POS TYPE
 DMOD.             Drill Model:  DRILL MOD DESC
 SVYD.                  Survey:  SURVEY DESC
 ILTD.               Lithology:  INTERP LTH DESC
 FTOP.          Formation Tops:  FORM TOPS DESC
 SON .        AZ-XX-0906252240:  JOB NUMBER
 RIG .             West Chirag:  RIG NAME
 PDAT.          Mean Sea Level:  PERMANENT DATUM
 FLD .                     ACG:  FIELD NAME
 CTRY.              Azerbaijan:  COUNTRY NAME
 WELL.           J23 (Slot 07):  WELL NAME
 SRVC.          Turan Drilling:  CONTRACTOR
 COMP.     BP Exploration (Casoian Sea) Ltd:  COMPANY
 WTYP.                Deviated:  WELL TYPE
 MDS .        Operator Entered:  MAG DATA SOURCE
 UWI .                     N/A:  UNIQUE WELL IDENTIFIER
 API .                     N/A:  API NUMBER
 BASE.              Azerbaijan:  LOGGING EQUIPMENT BASE LOCATION
 REGN.                   EESSA:  REGION
 PROV.                    Baku:  PROVINCE
 STAT.                    Baku:  STATE NAME
 MWDS.                     N/A:  MWD SHOP
 JOBN.        AZ-XX-0906252240:  JOB TICKET NUMB
 DOE .                     N/A:  DOE NUMBER
 DCON.         Sperry Drilling:  DIRECTNL CONTR
 UNIT.                     N/A:  LOGGING EQUIPMENT ID
 CNTY.                        :  COUNTY
 LOC .                        :  LOCATION
 LMF .             Drill Floor:  LOG MEASURED FROM
 TVDS.m                  43.00:  TVDSS CORRECTN
 LATI.deg                40.13:  LATITUDE
 LONG.deg                51.22:  LONGITUDE
 WHNS.m                   9.43:  WELL HEAD N/S
 WHEW.m                  -8.91:  WELL HEAD E/W
 UTMX.m              519005.06:  UTM X
 UTMY.m             4443793.85:  UTM Y
 DFWL.m                   0.00:  DISTANCE FWL
 DFSL.m                   0.00:  DISTANCE FSL
 SDEP.m                   0.00:  START DEPTH
 TDD .m                   0.00:  TOTAL DEPTH (DRILLER)
 VSDR.deg               179.88:  VERT SEC DIRECT
 GVFD.g                   1.00:  GRAVITY FIELD
 MFLD.nT              50281.00:  MAGNETIC FIELD
 MDIP.deg                59.58:  MAGNETIC DIP
 MDEC.deg                 6.48:  MAGNETIC DECL
 GRDC.deg                 0.14:  GRID CORRECTION
 AZTC.deg                 6.34:  AZM TOTAL CORR
 EPD .m                   0.00:  ELEVATION
 EGL .m                   0.00:  GROUND ELEVATION
 WDMS.m                 169.80:  WD ELEV
 APD .m                  43.00:  DEPTH ABOVE PD
 DEP .m                 354.17:  DEPTH
 AGAP.m                  43.00:  AIR GAP
 VSEW.m                  -8.91:  VERT SEC E/W
 VSNS.m                   9.43:  VERT SEC N/S
 EKB .m                   0.00:  KB ELEVATION
 EDF .m                  43.00:  DF ELEVATION
 TDL .m                1326.00:  TOTAL DEPTH (LOGGER)
 VSC .                       0:  VS TO CLOSURE
 MAGU.                 1850704:  MAGUTM CHECKSUM
~Parameter Information Block
#MNEM.UNIT       Value        Description
#---------     -----------    ---------------------------
 AV  .mps                 1.17:  Ann Velocity 
 AZIF.deg               184.04:  Azm, Final 
 BHAT.        Rotary Steerable:  BHA Type 
 BREV.rev            620000.00:  Rev Bit Total 
 BROT.°/30m               0.20:  Build Rotating 
 BS  .in                 14.75:  Bit Size 
 BSZ .in                 14.75:  Bit Size 
 BTPL.psig              618.00:  Bit Press Loss 
 CABU.                      No:  Customer Abuse 
 COMM.                     ü—`:  Run Comments 1 
 TCS .hr                 87.68:  Time Ciculation Ended 
 CV  .mps                 3.10:  Crit Velocity 
 DD1 .          Rashad Habibov:  Direct Drillr 1 
 DD2 .         Rasim Ibrahimov:  Direct Drillr 2 
 DDSV.               Geo-Pilot:  DD Service 
 DEFF.%                  98.00:  % Det Eff 
 DLRX.°/30m               1.48:  Dogleg Rot Max 
 DLSO.°/30m               0.50:  Dogleg Oriented 
 DLSX.°/30m               1.48:  Dogleg Str Max 
 DRET.      06.18.56 19-Apr-20:  Drill End Time 
 DRST.      15.00.56 15-Apr-20:  Drill Start Tim 
 DTIM.hr                 51.73:  Time Drilling 
 EDEP.m                3410.01:  End Depth 
 ENG1.        Marcelo Sandoval:  Engineer 1 
 ENG2.        Davud Huseynzade:  Engineer 2 
 ENG3.          Ruslan Safarov:  Engineer 3 
 ETIM.      04.00.56 20-Apr-20:  End Time 
 FLOI.gpm              1000.00:  Flow In 
 FLON.gpm               600.00:  Flow In Min 
 FLOS.cptm                0.00:  Fluid Loss 
 FLOX.gpm              1200.00:  Flow In Max 
 HFLO.                      No:  High Flow 
 HPRE.                     Yes:  High Pressure 
 HTEM.                      No:  High Temp 
 HYDO.m                   1.80:  Hydro Offset 
 IFIN.deg                70.04:  Inc, Final 
 IMAX.deg                70.56:  Inc Max 
 IMIN.deg                69.85:  Inc Min 
 IMND.m                3103.24:  Inc Min Depth 
 IMXD.m                2876.63:  Inc Max Depth 
 JARR.                      No:  Jarring 
 LETM.      06.18.56 19-Apr-20:  Log End Time 
 LOST.hr                     0:  Lost Rig Time 
 LSTM.      15.00.56 15-Apr-20:  Log Start Time 
 MDCL.ppm             42000.00:  Mud Chlorides 
 MDES.     Inversion Oil/Synthetic:  Mud Desc 
 DFD .sg                  1.58:  Mud Density 
 MDMN.sg                  1.58:  Dens Mud Min 
 MDMX.sg                  1.58:  Dens Mud Max 
 MOIL.                      71:  Run Mud Oil % 
 MOWR.                   71:29:  Run Mud OWR 
 MSND.                       0:  Run Mud Sand % 
 MSOL.                    23.3:  Run Mud Solids% 
 DFV .spqt               84.00:  Mud Viscosity 
 MWOD.in                  9.50:  MWD Tool OD 
 MWSI.                      No:  Serv Intrp, MWD 
 OTIM.hr                139.62:  Time Operating 
 PMAX.psia             5364.69:  Press Op, Max 
 PV  .cP                 80.00:  Mud PV 
 RUN .                     700:  Run Number 
 ROPA.m/hr               25.00:  ROP Avg 
 ROPN.m/hr               11.00:  ROP Min 
 ROPX.m/hr               36.00:  ROP Max 
 RPMA.rpm               130.00:  RPM Surface Avg 
 RPMN.rpm               120.00:  RPM Surface Min 
 RPMX.rpm               140.00:  RPM Surface Max 
 RRUN.                    0700:  Rig Run Number 
 SAZI.deg               183.25:  Azm, Start 
 SDEP.m                2084.00:  Start Depth 
 SIDD.                      No:  Serv Intrp, DD 
 SINC.deg                70.38:  Inc, Start 
 SPPA.psig             4800.00:  SPP Avg 
 SPPN.psig             4400.00:  SPP Min 
 SPPX.psig             5350.00:  SPP Max 
 STIM.      16.30.56 14-Apr-20:  Start Time 
 SVCS.                 DD, MWD:  Services 
 SVER.                    9.20:  Sperry Version 
 TDAT.m                1326.00:  Tot Depth Attmp 
 TDDF.                      No:  Trip for DD 
 TDLG.m                1326.00:  Tot Depth Loggd 
 TFF .                      No:  Trip for Fail 
 TQAA.f-kp               19.00:  Torque Abs Avg 
 TQAN.f-kp                8.00:  Torque Abs Min 
 TQAX.f-kp               27.00:  Torque Abs Max 
 TRRT.°/30m               0.50:  Turn Rotating 
 MRT .                    HCIM:  Maximum Recorded Temperature 
 TTMX.degC               82.35:  Max Tool Temp 
 VS01.       905245875X1Z1W1C8:  Virtual Str1 SN 
 VS02.       90608022F11V7D1A9:  Virtual Str2 SN 
 VS03.            90605473R5C9:  Virtual Str3 SN 
 WBMN.klb                11.00:  WOB Min 
 WOBA.klb                21.00:  WOB Avg 
 WOBX.klb                30.00:  WOB Max 
 YP  .lhf2               45.00:  Yield Point 
~Curve Information Block
#MNEM.UNIT                 API CODE     Curve Description
#---------               -----------    ---------------------------
 TIME.HHMMSS            00 000 000 000:  GT Time & Date
 GTDEPTH.m              00 000 000 000:  GT Depth
 GTPQH.psia             00 000 000 000:  GT HR Quartz Pressure
 GTTQ.degC              00 000 000 000:  GT Quartz Temperature
 GTTN.NONE              00 000 000 000:  GT Test Number
 GTET.sec               00 000 000 000:  GT Elapsed Test Time
 GTTVD.m                00 000 000 000:  GT True Vertical Depth
#Other Information
#
#WARRANTY: Halliburton will use its best efforts to furnish customers with 
#accurate information and interpretations that are part of, and incident to, the services 
#provided.  However, Halliburton cannot and does not warrant the accuracy 
#or correctness of such information and interpretations.  Under no circumstances should any 
#such information or interpretation be relied upon as the sole basis for any drilling, 
#completion, production, or financial decision or any procedure involving any risk to the 
#safety of any drilling venture, drilling rig or its crew or any other third party.  The 
#Customer has full responsibility for all drilling, completion and production operation.  
#Halliburton makes no representations or warranties, either expressed or 
#implied, including, but not limited to, the implied warranties of merchantability or fitness 
#for a particular purpose, with respect to the services rendered.  In no event will 
#Halliburton be liable for failure to obtain any particular results or for 
#any damages, including, but not limited to, indirect, special or consequential damages, 
#resulting from the use of any information or interpretation provided by Halliburton.
#
~A           TIME           GTDEPTH  GTPQH  GTTQ  GTTN  GTET   GTTVD  
# ...
   15:36:05.353.18-Apr-2020 3140.87 4573.04 71.85 6.00  45.99 1986.80
   15:36:05.553.18-Apr-2020 3140.87 4573.04 71.85 6.00  46.19 1986.80
   15:36:05.753.18-Apr-2020 3140.87 4570.67 71.85 6.00  46.39 1986.80
   15:36:05.953.18-Apr-2020 3140.87 4574.02 71.85 6.00  46.59 1986.80
   15:36:06.153.18-Apr-2020 3140.87 4574.07 71.85 6.00  46.79 1986.80
   15:36:06.353.18-Apr-2020 3140.87 4573.13 71.85 6.00  46.99 1986.80
   15:36:06.553.18-Apr-2020 3140.87 4573.13 71.85 6.00  47.19 1986.80
   15:36:06.753.18-Apr-2020 3140.87 4573.77 71.85 6.00  47.39 1986.80
   15:36:06.953.18-Apr-2020 3140.87 4572.78 71.85 6.00  47.59 1986.80
   15:36:07.153.18-Apr-2020 3140.87 4571.51 71.85 6.00  47.79 1986.80
   15:36:07.353.18-Apr-2020 3140.87 4573.73 71.85 6.00  47.99 1986.80
   15:36:07.553.18-Apr-2020 3140.87 4573.73 71.85 6.00  48.19 1986.80
   15:36:07.753.18-Apr-2020 3140.87 4570.74 71.84 6.00  48.39 1986.80
   15:36:07.953.18-Apr-2020 3140.87 4573.62 71.84 6.00  48.59 1986.80
   15:36:08.153.18-Apr-2020 3140.87 4573.66 71.84 6.00  48.79 1986.80
   15:36:08.352.18-Apr-2020 3140.87 4571.18 71.84 6.00  48.99 1986.80
   15:36:08.552.18-Apr-2020 3140.87 4573.39 71.84 6.00  49.19 1986.80
   15:36:08.752.18-Apr-2020 3140.87 4574.11 71.84 6.00  49.39 1986.80
   15:36:08.952.18-Apr-2020 3140.87 4574.27 71.84 6.00  49.59 1986.80
   15:36:09.152.18-Apr-2020 3140.87 4574.00 71.84 6.00  49.79 1986.80
   15:36:09.352.18-Apr-2020 3140.87 4574.75 71.84 6.00  49.99 1986.80
   15:36:09.552.18-Apr-2020 3140.87 4574.75 71.84 6.00  50.19 1986.80
   15:36:09.752.18-Apr-2020 3140.87 4574.02 71.83 6.00  50.39 1986.80
   15:36:09.952.18-Apr-2020 3140.87 4573.32 71.83 6.00  50.59 1986.80
   15:36:10.152.18-Apr-2020 3140.87 4573.77 71.83 6.00  50.79 1986.80
   15:36:10.352.18-Apr-2020 3140.87 4573.49 71.83 6.00  50.99 1986.80
   15:36:10.552.18-Apr-2020 3140.87 4573.49 71.83 6.00  51.19 1986.80
   15:36:10.752.18-Apr-2020 3140.87 4573.56 71.83 6.00  51.39 1986.80
   15:36:10.952.18-Apr-2020 3140.87 4573.69 71.83 6.00  51.59 1986.80
   15:36:11.152.18-Apr-2020 3140.87 4572.34 71.83 6.00  51.79 1986.80
   15:36:11.352.18-Apr-2020 3140.87 4571.68 71.83 6.00  51.99 1986.80
   15:36:11.552.18-Apr-2020 3140.87 4574.07 71.83 6.00  52.19 1986.80
   15:36:11.752.18-Apr-2020 3140.87 4573.84 71.83 6.00  52.39 1986.80
   15:36:11.952.18-Apr-2020 3140.87 4573.31 71.82 6.00  52.59 1986.80
   15:36:12.152.18-Apr-2020 3140.87 4575.03 71.82 6.00  52.79 1986.80
   15:36:12.352.18-Apr-2020 3140.87 4575.32 71.82 6.00  52.99 1986.80
   15:36:12.552.18-Apr-2020 3140.87 4574.83 71.82 6.00  53.19 1986.80
   15:36:12.752.18-Apr-2020 3140.87 4574.49 71.82 6.00  53.39 1986.80
   15:36:12.952.18-Apr-2020 3140.87 4569.08 71.82 6.00  53.59 1986.80
   15:36:13.152.18-Apr-2020 3140.87 4757.47 71.82 6.00  53.79 1986.80
   15:36:13.352.18-Apr-2020 3140.87 4730.46 71.82 6.00  53.99 1986.80
   15:36:13.552.18-Apr-2020 3140.87 4730.46 71.82 6.00  54.19 1986.80
   15:36:13.752.18-Apr-2020 3140.87 4691.77 71.82 6.00  54.39 1986.80
   15:36:13.952.18-Apr-2020 3140.87 4680.83 71.82 6.00  54.59 1986.80
   15:36:14.152.18-Apr-2020 3140.87 4695.27 71.81 6.00  54.79 1986.80
   15:36:14.352.18-Apr-2020 3140.87 4661.52 71.81 6.00  54.99 1986.80
   15:36:14.552.18-Apr-2020 3140.87 4661.52 71.81 6.00  55.19 1986.80
   15:36:14.752.18-Apr-2020 3140.87 4629.81 71.81 6.00  55.39 1986.80
   15:36:14.952.18-Apr-2020 3140.87 4629.10 71.81 6.00  55.59 1986.80
   15:36:15.152.18-Apr-2020 3140.87 4629.10 71.81 6.00  55.79 1986.80
   15:36:15.352.18-Apr-2020 3140.87 4730.46 71.82 6.00  55.99 1986.80
   15:36:15.552.18-Apr-2020 3140.87 4625.64 71.81 6.00  56.19 1986.80
   15:36:15.752.18-Apr-2020 3140.87 4625.10 71.81 6.00  56.39 1986.80
   15:36:15.952.18-Apr-2020 3140.87 4623.87 71.81 6.00  56.59 1986.80
   15:36:16.152.18-Apr-2020 3140.87 4622.81 71.81 6.00  56.79 1986.80
   15:36:16.352.18-Apr-2020 3140.87 4621.61 71.81 6.00  56.99 1986.80
   15:36:16.552.18-Apr-2020 3140.87 4621.61 71.81 6.00  57.19 1986.80
   15:36:16.752.18-Apr-2020 3140.87 4620.64 71.80 6.00  57.39 1986.80
   15:36:16.951.18-Apr-2020 3140.87 4621.55 71.80 6.00  57.59 1986.80
   15:36:17.151.18-Apr-2020 3140.87 4621.96 71.80 6.00  57.79 1986.80
   15:36:17.351.18-Apr-2020 3140.87 4621.90 71.80 6.00  57.99 1986.80
   15:36:17.551.18-Apr-2020 3140.87 4621.90 71.80 6.00  58.19 1986.80
   15:36:17.751.18-Apr-2020 3140.87 4621.19 71.80 6.00  58.39 1986.80
   15:36:17.951.18-Apr-2020 3140.87 4622.65 71.80 6.00  58.59 1986.80
   15:36:18.151.18-Apr-2020 3140.87 4623.07 71.80 6.00  58.79 1986.80
   15:36:18.351.18-Apr-2020 3140.87 4622.51 71.80 6.00  58.99 1986.80
   15:36:18.551.18-Apr-2020 3140.87 4622.51 71.80 6.00  59.19 1986.80
   15:36:18.751.18-Apr-2020 3140.87 4622.73 71.80 6.00  59.39 1986.80
   15:36:18.951.18-Apr-2020 3140.87 4622.32 71.79 6.00  59.59 1986.80
   15:36:19.151.18-Apr-2020 3140.87 4621.99 71.79 6.00  59.79 1986.80
   15:36:19.351.18-Apr-2020 3140.87 4622.01 71.79 6.00  59.99 1986.80
   15:36:19.551.18-Apr-2020 3140.87 4621.54 71.79 6.00  60.19 1986.80
   15:36:19.751.18-Apr-2020 3140.87 4621.27 71.79 6.00  60.39 1986.80
   15:36:19.951.18-Apr-2020 3140.87 4621.26 71.79 6.00  60.59 1986.80
   15:36:20.151.18-Apr-2020 3140.87 4621.16 71.79 6.00  60.79 1986.80
   15:36:20.351.18-Apr-2020 3140.87 4621.25 71.79 6.00  60.99 1986.80
   15:36:20.551.18-Apr-2020 3140.87 4621.25 71.79 6.00  61.19 1986.80
   15:36:20.751.18-Apr-2020 3140.87 4621.69 71.79 6.00  61.39 1986.80
   15:36:20.951.18-Apr-2020 3140.87 4738.33 71.79 6.00  61.59 1986.80
   15:36:21.151.18-Apr-2020 3140.87 4619.14 71.78 6.00  61.79 1986.80
   15:36:21.351.18-Apr-2020 3140.87 4619.14 71.78 6.00  61.99 1986.80
   15:36:21.551.18-Apr-2020 3140.87 4598.94 71.78 6.00  62.19 1986.80
   15:36:21.751.18-Apr-2020 3140.87 4598.94 71.78 6.00  62.39 1986.80
   15:36:21.951.18-Apr-2020 3140.87 4593.86 71.78 6.00  62.59 1986.80
   15:36:22.151.18-Apr-2020 3140.87 4593.62 71.78 6.00  62.79 1986.80
   15:36:22.351.18-Apr-2020 3140.87 4593.10 71.78 6.00  62.99 1986.80
   15:36:22.551.18-Apr-2020 3140.87 4593.10 71.78 6.00  63.19 1986.80
   15:36:22.751.18-Apr-2020 3140.87 4593.65 71.78 6.00  63.39 1986.80
   15:36:22.951.18-Apr-2020 3140.87 4594.42 71.78 6.00  63.59 1986.80
   15:36:23.151.18-Apr-2020 3140.87 4594.87 71.78 6.00  63.79 1986.80
   15:36:23.351.18-Apr-2020 3140.87 4581.54 71.77 6.00  63.99 1986.80
   15:36:23.551.18-Apr-2020 3140.87 4489.36 71.77 6.00  64.19 1986.80
   15:36:23.751.18-Apr-2020 3140.87 4353.89 71.77 6.00  64.39 1986.80
   15:36:23.951.18-Apr-2020 3140.87 4194.85 71.77 6.00  64.59 1986.80
   15:36:24.151.18-Apr-2020 3140.87 4053.35 71.77 6.00  64.79 1986.80
   15:36:24.351.18-Apr-2020 3140.87 3923.83 71.77 6.00  64.99 1986.80
   15:36:24.551.18-Apr-2020 3140.87 3823.14 71.77 6.00  65.19 1986.80
   15:36:24.751.18-Apr-2020 3140.87 3733.28 71.77 6.00  65.39 1986.80
   15:36:24.951.18-Apr-2020 3140.87 3641.41 71.77 6.00  65.59 1986.80
   15:36:25.151.18-Apr-2020 3140.87 3555.13 71.77 6.00  65.79 1986.80
   15:36:25.351.18-Apr-2020 3140.87 3474.07 71.76 6.00  65.99 1986.80
   15:36:25.550.18-Apr-2020 3140.87 3474.07 71.76 6.00  66.19 1986.80
   15:36:25.750.18-Apr-2020 3140.87 3324.35 71.76 6.00  66.39 1986.80
   15:36:25.950.18-Apr-2020 3140.87 3260.46 71.76 6.00  66.59 1986.80
   15:36:26.150.18-Apr-2020 3140.87 3202.36 71.76 6.00  66.79 1986.80
   15:36:26.350.18-Apr-2020 3140.87 3149.58 71.76 6.00  66.99 1986.80
   15:36:26.550.18-Apr-2020 3140.87 3149.58 71.76 6.00  67.19 1986.80
   15:36:26.750.18-Apr-2020 3140.87 3054.07 71.75 6.00  67.39 1986.80
   15:36:26.950.18-Apr-2020 3140.87 3009.80 71.75 6.00  67.59 1986.80
   15:36:27.150.18-Apr-2020 3140.87 2968.28 71.75 6.00  67.79 1986.80
   15:36:27.350.18-Apr-2020 3140.87 2925.73 71.75 6.00  67.99 1986.80
   15:36:27.550.18-Apr-2020 3140.87 2876.37 71.75 6.00  68.19 1986.80
   15:36:27.750.18-Apr-2020 3140.87 2823.04 71.75 6.00  68.39 1986.80
   15:36:27.950.18-Apr-2020 3140.87 2774.67 71.74 6.00  68.59 1986.80
   15:36:28.150.18-Apr-2020 3140.87 2730.00 71.74 6.00  68.79 1986.80
