~Version Information
 VERS.                  2.0:   CWLS log ASCII Standard -VERSION 2.0
 WRAP.                   NO:   One line per depth step
~Well Information Block
#MNEM.UNIT     VALUE/NAME     DESCRIPTION
#---------     -----------    ---------------------------
 STRT.S             15:57:21 18-Apr-20: START TIME 15:57:21 18-Apr-20
 STOP.S             16:04:15 18-Apr-20: STOP TIME  16:04:15 18-Apr-20
 STEP.S                   0.00: STEP TIME
 NULL.                 -999.25: NULL VALUE
 DFWT.                        :  DIST FWL TEXT
 DFST.                        :  DIST FSL TEXT
 DMF .                        :  DRILL MEAS FROM
 STIM.      16.29.52 23-Mar-20:  START TIME
 DATE.      16.29.52 23-Mar-20:  END TIME
 SPUD.               23-Mar-20:  SPUD DATE
 NREF.                    Grid:  NORTH REFERENCE
 HPTY.       Minimum Curvature:  HOLE POS TYPE
 DMOD.             Drill Model:  DRILL MOD DESC
 SVYD.                  Survey:  SURVEY DESC
 ILTD.               Lithology:  INTERP LTH DESC
 FTOP.          Formation Tops:  FORM TOPS DESC
 SON .        AZ-XX-0906252240:  JOB NUMBER
 RIG .             West Chirag:  RIG NAME
 PDAT.          Mean Sea Level:  PERMANENT DATUM
 FLD .                     ACG:  FIELD NAME
 CTRY.              Azerbaijan:  COUNTRY NAME
 WELL.           J23 (Slot 07):  WELL NAME
 SRVC.          Turan Drilling:  CONTRACTOR
 COMP.     BP Exploration (Casoian Sea) Ltd:  COMPANY
 WTYP.                Deviated:  WELL TYPE
 MDS .        Operator Entered:  MAG DATA SOURCE
 UWI .                     N/A:  UNIQUE WELL IDENTIFIER
 API .                     N/A:  API NUMBER
 BASE.              Azerbaijan:  LOGGING EQUIPMENT BASE LOCATION
 REGN.                   EESSA:  REGION
 PROV.                    Baku:  PROVINCE
 STAT.                    Baku:  STATE NAME
 MWDS.                     N/A:  MWD SHOP
 JOBN.        AZ-XX-0906252240:  JOB TICKET NUMB
 DOE .                     N/A:  DOE NUMBER
 DCON.         Sperry Drilling:  DIRECTNL CONTR
 UNIT.                     N/A:  LOGGING EQUIPMENT ID
 CNTY.                        :  COUNTY
 LOC .                        :  LOCATION
 LMF .             Drill Floor:  LOG MEASURED FROM
 TVDS.m                  43.00:  TVDSS CORRECTN
 LATI.deg                40.13:  LATITUDE
 LONG.deg                51.22:  LONGITUDE
 WHNS.m                   9.43:  WELL HEAD N/S
 WHEW.m                  -8.91:  WELL HEAD E/W
 UTMX.m              519005.06:  UTM X
 UTMY.m             4443793.85:  UTM Y
 DFWL.m                   0.00:  DISTANCE FWL
 DFSL.m                   0.00:  DISTANCE FSL
 SDEP.m                   0.00:  START DEPTH
 TDD .m                   0.00:  TOTAL DEPTH (DRILLER)
 VSDR.deg               179.88:  VERT SEC DIRECT
 GVFD.g                   1.00:  GRAVITY FIELD
 MFLD.nT              50281.00:  MAGNETIC FIELD
 MDIP.deg                59.58:  MAGNETIC DIP
 MDEC.deg                 6.48:  MAGNETIC DECL
 GRDC.deg                 0.14:  GRID CORRECTION
 AZTC.deg                 6.34:  AZM TOTAL CORR
 EPD .m                   0.00:  ELEVATION
 EGL .m                   0.00:  GROUND ELEVATION
 WDMS.m                 169.80:  WD ELEV
 APD .m                  43.00:  DEPTH ABOVE PD
 DEP .m                 354.17:  DEPTH
 AGAP.m                  43.00:  AIR GAP
 VSEW.m                  -8.91:  VERT SEC E/W
 VSNS.m                   9.43:  VERT SEC N/S
 EKB .m                   0.00:  KB ELEVATION
 EDF .m                  43.00:  DF ELEVATION
 TDL .m                1326.00:  TOTAL DEPTH (LOGGER)
 VSC .                       0:  VS TO CLOSURE
 MAGU.                 1850704:  MAGUTM CHECKSUM
~Parameter Information Block
#MNEM.UNIT       Value        Description
#---------     -----------    ---------------------------
 AV  .mps                 1.17:  Ann Velocity 
 AZIF.deg               184.04:  Azm, Final 
 BHAT.        Rotary Steerable:  BHA Type 
 BREV.rev            620000.00:  Rev Bit Total 
 BROT.°/30m               0.20:  Build Rotating 
 BS  .in                 14.75:  Bit Size 
 BSZ .in                 14.75:  Bit Size 
 BTPL.psig              618.00:  Bit Press Loss 
 CABU.                      No:  Customer Abuse 
 COMM.                     ¬)g:  Run Comments 1 
 TCS .hr                 87.68:  Time Ciculation Ended 
 CV  .mps                 3.10:  Crit Velocity 
 DD1 .          Rashad Habibov:  Direct Drillr 1 
 DD2 .         Rasim Ibrahimov:  Direct Drillr 2 
 DDSV.               Geo-Pilot:  DD Service 
 DEFF.%                  98.00:  % Det Eff 
 DLRX.°/30m               1.48:  Dogleg Rot Max 
 DLSO.°/30m               0.50:  Dogleg Oriented 
 DLSX.°/30m               1.48:  Dogleg Str Max 
 DRET.      06.18.56 19-Apr-20:  Drill End Time 
 DRST.      15.00.56 15-Apr-20:  Drill Start Tim 
 DTIM.hr                 51.73:  Time Drilling 
 EDEP.m                3410.01:  End Depth 
 ENG1.        Marcelo Sandoval:  Engineer 1 
 ENG2.        Davud Huseynzade:  Engineer 2 
 ENG3.          Ruslan Safarov:  Engineer 3 
 ETIM.      04.00.56 20-Apr-20:  End Time 
 FLOI.gpm              1000.00:  Flow In 
 FLON.gpm               600.00:  Flow In Min 
 FLOS.cptm                0.00:  Fluid Loss 
 FLOX.gpm              1200.00:  Flow In Max 
 HFLO.                      No:  High Flow 
 HPRE.                     Yes:  High Pressure 
 HTEM.                      No:  High Temp 
 HYDO.m                   1.80:  Hydro Offset 
 IFIN.deg                70.04:  Inc, Final 
 IMAX.deg                70.56:  Inc Max 
 IMIN.deg                69.85:  Inc Min 
 IMND.m                3103.24:  Inc Min Depth 
 IMXD.m                2876.63:  Inc Max Depth 
 JARR.                      No:  Jarring 
 LETM.      06.18.56 19-Apr-20:  Log End Time 
 LOST.hr                     0:  Lost Rig Time 
 LSTM.      15.00.56 15-Apr-20:  Log Start Time 
 MDCL.ppm             42000.00:  Mud Chlorides 
 MDES.     Inversion Oil/Synthetic:  Mud Desc 
 DFD .sg                  1.58:  Mud Density 
 MDMN.sg                  1.58:  Dens Mud Min 
 MDMX.sg                  1.58:  Dens Mud Max 
 MOIL.                      71:  Run Mud Oil % 
 MOWR.                   71:29:  Run Mud OWR 
 MSND.                       0:  Run Mud Sand % 
 MSOL.                    23.3:  Run Mud Solids% 
 DFV .spqt               84.00:  Mud Viscosity 
 MWOD.in                  9.50:  MWD Tool OD 
 MWSI.                      No:  Serv Intrp, MWD 
 OTIM.hr                139.62:  Time Operating 
 PMAX.psia             5364.69:  Press Op, Max 
 PV  .cP                 80.00:  Mud PV 
 RUN .                     700:  Run Number 
 ROPA.m/hr               25.00:  ROP Avg 
 ROPN.m/hr               11.00:  ROP Min 
 ROPX.m/hr               36.00:  ROP Max 
 RPMA.rpm               130.00:  RPM Surface Avg 
 RPMN.rpm               120.00:  RPM Surface Min 
 RPMX.rpm               140.00:  RPM Surface Max 
 RRUN.                    0700:  Rig Run Number 
 SAZI.deg               183.25:  Azm, Start 
 SDEP.m                2084.00:  Start Depth 
 SIDD.                      No:  Serv Intrp, DD 
 SINC.deg                70.38:  Inc, Start 
 SPPA.psig             4800.00:  SPP Avg 
 SPPN.psig             4400.00:  SPP Min 
 SPPX.psig             5350.00:  SPP Max 
 STIM.      16.30.56 14-Apr-20:  Start Time 
 SVCS.                 DD, MWD:  Services 
 SVER.                    9.20:  Sperry Version 
 TDAT.m                1326.00:  Tot Depth Attmp 
 TDDF.                      No:  Trip for DD 
 TDLG.m                1326.00:  Tot Depth Loggd 
 TFF .                      No:  Trip for Fail 
 TQAA.f-kp               19.00:  Torque Abs Avg 
 TQAN.f-kp                8.00:  Torque Abs Min 
 TQAX.f-kp               27.00:  Torque Abs Max 
 TRRT.°/30m               0.50:  Turn Rotating 
 MRT .                    HCIM:  Maximum Recorded Temperature 
 TTMX.degC               82.35:  Max Tool Temp 
 VS01.       905245875X1Z1W1C8:  Virtual Str1 SN 
 VS02.       90608022F11V7D1A9:  Virtual Str2 SN 
 VS03.            90605473R5C9:  Virtual Str3 SN 
 WBMN.klb                11.00:  WOB Min 
 WOBA.klb                21.00:  WOB Avg 
 WOBX.klb                30.00:  WOB Max 
 YP  .lhf2               45.00:  Yield Point 
~Curve Information Block
#MNEM.UNIT                 API CODE     Curve Description
#---------               -----------    ---------------------------
 TIME.HHMMSS            00 000 000 000:  GT Time & Date
 GTDEPTH.m              00 000 000 000:  GT Depth
 GTPQH.psia             00 000 000 000:  GT HR Quartz Pressure
 GTTQ.degC              00 000 000 000:  GT Quartz Temperature
 GTTN.NONE              00 000 000 000:  GT Test Number
 GTET.sec               00 000 000 000:  GT Elapsed Test Time
 GTTVD.m                00 000 000 000:  GT True Vertical Depth
#Other Information
#
#WARRANTY: Halliburton will use its best efforts to furnish customers with 
#accurate information and interpretations that are part of, and incident to, the services 
#provided.  However, Halliburton cannot and does not warrant the accuracy 
#or correctness of such information and interpretations.  Under no circumstances should any 
#such information or interpretation be relied upon as the sole basis for any drilling, 
#completion, production, or financial decision or any procedure involving any risk to the 
#safety of any drilling venture, drilling rig or its crew or any other third party.  The 
#Customer has full responsibility for all drilling, completion and production operation.  
#Halliburton makes no representations or warranties, either expressed or 
#implied, including, but not limited to, the implied warranties of merchantability or fitness 
#for a particular purpose, with respect to the services rendered.  In no event will 
#Halliburton be liable for failure to obtain any particular results or for 
#any damages, including, but not limited to, indirect, special or consequential damages, 
#resulting from the use of any information or interpretation provided by Halliburton.
#
~A           TIME           GTDEPTH  GTPQH  GTTQ  GTTN  GTET   GTTVD  
# ...
   15:59:39.189.18-Apr-2020 3140.11 3320.43 67.58 7.00 137.98 1986.54
   15:59:39.389.18-Apr-2020 3140.11 3320.43 67.58 7.00 138.18 1986.54
   15:59:39.589.18-Apr-2020 3140.11 3320.43 67.58 7.00 138.38 1986.54
   15:59:39.789.18-Apr-2020 3140.11 3320.43 67.58 7.00 138.58 1986.54
   15:59:39.989.18-Apr-2020 3140.11 3320.43 67.58 7.00 138.78 1986.54
   15:59:40.189.18-Apr-2020 3140.11 3320.42 67.58 7.00 138.98 1986.54
   15:59:40.389.18-Apr-2020 3140.11 3320.42 67.58 7.00 139.18 1986.54
   15:59:40.589.18-Apr-2020 3140.11 3320.43 67.58 7.00 139.38 1986.54
   15:59:40.789.18-Apr-2020 3140.11 3320.43 67.58 7.00 139.58 1986.54
   15:59:40.989.18-Apr-2020 3140.11 3320.41 67.58 7.00 139.78 1986.54
   15:59:41.189.18-Apr-2020 3140.11 3320.44 67.58 7.00 139.98 1986.54
   15:59:41.389.18-Apr-2020 3140.11 3320.44 67.58 7.00 140.18 1986.54
   15:59:41.589.18-Apr-2020 3140.11 3320.40 67.58 7.00 140.38 1986.54
   15:59:41.789.18-Apr-2020 3140.11 3320.43 67.58 7.00 140.58 1986.54
   15:59:41.989.18-Apr-2020 3140.11 3320.42 67.58 7.00 140.78 1986.54
   15:59:42.189.18-Apr-2020 3140.11 3320.42 67.58 7.00 140.98 1986.54
   15:59:42.389.18-Apr-2020 3140.11 3320.42 67.58 7.00 141.18 1986.54
   15:59:42.589.18-Apr-2020 3140.11 3320.42 67.58 7.00 141.38 1986.54
   15:59:42.789.18-Apr-2020 3140.11 3320.42 67.58 7.00 141.58 1986.54
   15:59:42.989.18-Apr-2020 3140.11 3320.43 67.58 7.00 141.78 1986.54
   15:59:43.189.18-Apr-2020 3140.11 3320.37 67.58 7.00 141.98 1986.54
   15:59:43.389.18-Apr-2020 3140.11 3320.37 67.58 7.00 142.18 1986.54
   15:59:43.589.18-Apr-2020 3140.11 3320.42 67.58 7.00 142.38 1986.54
   15:59:43.788.18-Apr-2020 3140.11 3320.40 67.58 7.00 142.58 1986.54
   15:59:43.988.18-Apr-2020 3140.11 3320.43 67.58 7.00 142.78 1986.54
   15:59:44.188.18-Apr-2020 3140.11 3320.42 67.58 7.00 142.98 1986.54
   15:59:44.388.18-Apr-2020 3140.11 3320.41 67.58 7.00 143.18 1986.54
   15:59:44.588.18-Apr-2020 3140.11 3320.43 67.58 7.00 143.38 1986.54
   15:59:44.788.18-Apr-2020 3140.11 3320.41 67.58 7.00 143.58 1986.54
   15:59:44.988.18-Apr-2020 3140.11 3320.42 67.58 7.00 143.78 1986.54
   15:59:45.188.18-Apr-2020 3140.11 3320.44 67.58 7.00 143.98 1986.54
   15:59:45.388.18-Apr-2020 3140.11 3320.44 67.58 7.00 144.18 1986.54
   15:59:45.588.18-Apr-2020 3140.11 3320.40 67.58 7.00 144.38 1986.54
   15:59:45.788.18-Apr-2020 3140.11 3320.42 67.58 7.00 144.58 1986.54
   15:59:45.988.18-Apr-2020 3140.11 3320.41 67.58 7.00 144.78 1986.54
   15:59:46.188.18-Apr-2020 3140.11 3320.44 67.58 7.00 144.98 1986.54
   15:59:46.388.18-Apr-2020 3140.11 3320.44 67.58 7.00 145.18 1986.54
   15:59:46.588.18-Apr-2020 3140.11 3320.41 67.57 7.00 145.38 1986.54
   15:59:46.788.18-Apr-2020 3140.11 3320.44 67.57 7.00 145.58 1986.54
   15:59:46.988.18-Apr-2020 3140.11 3320.42 67.57 7.00 145.78 1986.54
   15:59:47.188.18-Apr-2020 3140.11 3320.42 67.57 7.00 145.98 1986.54
   15:59:47.388.18-Apr-2020 3140.11 3320.42 67.57 7.00 146.18 1986.54
   15:59:47.588.18-Apr-2020 3140.11 3320.42 67.57 7.00 146.38 1986.54
   15:59:47.788.18-Apr-2020 3140.11 3320.42 67.57 7.00 146.58 1986.54
   15:59:47.988.18-Apr-2020 3140.11 3320.43 67.57 7.00 146.78 1986.54
   15:59:48.188.18-Apr-2020 3140.11 3320.42 67.57 7.00 146.98 1986.54
   15:59:48.388.18-Apr-2020 3140.11 3320.42 67.57 7.00 147.18 1986.54
   15:59:48.588.18-Apr-2020 3140.11 3320.42 67.57 7.00 147.38 1986.54
   15:59:48.788.18-Apr-2020 3140.11 3320.42 67.57 7.00 147.58 1986.54
   15:59:48.988.18-Apr-2020 3140.11 3320.43 67.57 7.00 147.78 1986.54
   15:59:49.188.18-Apr-2020 3140.11 3320.42 67.57 7.00 147.98 1986.54
   15:59:49.388.18-Apr-2020 3140.11 3320.42 67.57 7.00 148.18 1986.54
   15:59:49.588.18-Apr-2020 3140.11 3320.42 67.57 7.00 148.38 1986.54
   15:59:49.788.18-Apr-2020 3140.11 3320.41 67.57 7.00 148.58 1986.54
   15:59:49.988.18-Apr-2020 3140.11 3320.39 67.57 7.00 148.78 1986.54
   15:59:50.188.18-Apr-2020 3140.11 3320.40 67.57 7.00 148.98 1986.54
   15:59:50.388.18-Apr-2020 3140.11 3320.40 67.57 7.00 149.18 1986.54
   15:59:50.588.18-Apr-2020 3140.11 3320.41 67.57 7.00 149.38 1986.54
   15:59:50.788.18-Apr-2020 3140.11 3320.42 67.57 7.00 149.58 1986.54
   15:59:50.988.18-Apr-2020 3140.11 3320.39 67.57 7.00 149.78 1986.54
   15:59:51.188.18-Apr-2020 3140.11 3320.42 67.57 7.00 149.98 1986.54
   15:59:51.388.18-Apr-2020 3140.11 3320.42 67.57 7.00 150.18 1986.54
   15:59:51.588.18-Apr-2020 3140.11 3320.42 67.57 7.00 150.38 1986.54
   15:59:51.788.18-Apr-2020 3140.11 3320.42 67.57 7.00 150.58 1986.54
   15:59:51.988.18-Apr-2020 3140.11 3320.41 67.57 7.00 150.78 1986.54
   15:59:52.188.18-Apr-2020 3140.11 3320.43 67.57 7.00 150.98 1986.54
   15:59:52.387.18-Apr-2020 3140.11 3320.43 67.57 7.00 151.18 1986.54
   15:59:52.587.18-Apr-2020 3140.11 3320.41 67.57 7.00 151.38 1986.54
   15:59:52.787.18-Apr-2020 3140.11 3320.41 67.57 7.00 151.58 1986.54
   15:59:52.987.18-Apr-2020 3140.11 3320.44 67.57 7.00 151.78 1986.54
   15:59:53.187.18-Apr-2020 3140.11 3320.41 67.57 7.00 151.98 1986.54
   15:59:53.387.18-Apr-2020 3140.11 3320.41 67.57 7.00 152.18 1986.54
   15:59:53.587.18-Apr-2020 3140.11 3320.44 67.57 7.00 152.38 1986.54
   15:59:53.787.18-Apr-2020 3140.11 3320.42 67.57 7.00 152.58 1986.54
   15:59:53.987.18-Apr-2020 3140.11 3320.42 67.57 7.00 152.78 1986.54
   15:59:54.187.18-Apr-2020 3140.11 3320.43 67.57 7.00 152.98 1986.54
   15:59:54.387.18-Apr-2020 3140.11 3320.43 67.57 7.00 153.18 1986.54
   15:59:54.587.18-Apr-2020 3140.11 3320.43 67.57 7.00 153.38 1986.54
   15:59:54.787.18-Apr-2020 3140.11 3320.43 67.57 7.00 153.58 1986.54
   15:59:54.987.18-Apr-2020 3140.11 3320.42 67.57 7.00 153.78 1986.54
   15:59:55.187.18-Apr-2020 3140.11 3320.41 67.57 7.00 153.98 1986.54
   15:59:55.387.18-Apr-2020 3140.11 3320.41 67.57 7.00 154.18 1986.54
   15:59:55.587.18-Apr-2020 3140.11 3320.41 67.57 7.00 154.38 1986.54
   15:59:55.787.18-Apr-2020 3140.11 3320.44 67.57 7.00 154.58 1986.54
   15:59:55.987.18-Apr-2020 3140.11 3320.42 67.57 7.00 154.78 1986.54
   15:59:56.187.18-Apr-2020 3140.11 3320.43 67.57 7.00 154.98 1986.54
   15:59:56.387.18-Apr-2020 3140.11 3320.43 67.57 7.00 155.18 1986.54
   15:59:56.587.18-Apr-2020 3140.11 3320.43 67.57 7.00 155.38 1986.54
   15:59:56.787.18-Apr-2020 3140.11 3320.41 67.57 7.00 155.58 1986.54
   15:59:56.987.18-Apr-2020 3140.11 3320.44 67.57 7.00 155.78 1986.54
   15:59:57.187.18-Apr-2020 3140.11 3320.44 67.56 7.00 155.98 1986.54
   15:59:57.387.18-Apr-2020 3140.11 3320.44 67.56 7.00 156.18 1986.54
   15:59:57.587.18-Apr-2020 3140.11 3320.43 67.56 7.00 156.38 1986.54
   15:59:57.787.18-Apr-2020 3140.11 3320.43 67.56 7.00 156.58 1986.54
   15:59:57.987.18-Apr-2020 3140.11 3320.43 67.56 7.00 156.78 1986.54
   15:59:58.187.18-Apr-2020 3140.11 3320.43 67.56 7.00 156.98 1986.54
   15:59:58.387.18-Apr-2020 3140.11 3320.43 67.56 7.00 157.18 1986.54
   15:59:58.587.18-Apr-2020 3140.11 3320.44 67.56 7.00 157.38 1986.54
   15:59:58.787.18-Apr-2020 3140.11 3320.43 67.56 7.00 157.58 1986.54
   15:59:58.987.18-Apr-2020 3140.11 3320.43 67.56 7.00 157.78 1986.54
   15:59:59.187.18-Apr-2020 3140.11 3320.43 67.56 7.00 157.98 1986.54
   15:59:59.387.18-Apr-2020 3140.11 3320.43 67.56 7.00 158.18 1986.54
   15:59:59.587.18-Apr-2020 3140.11 3320.42 67.56 7.00 158.38 1986.54
   15:59:59.787.18-Apr-2020 3140.11 3320.44 67.56 7.00 158.58 1986.54
   15:59:59.987.18-Apr-2020 3140.11 3320.44 67.56 7.00 158.78 1986.54
   16:00:00.187.18-Apr-2020 3140.11 3320.42 67.56 7.00 158.98 1986.54
   16:00:00.387.18-Apr-2020 3140.11 3320.42 67.56 7.00 159.18 1986.54
   16:00:00.587.18-Apr-2020 3140.11 3320.43 67.56 7.00 159.38 1986.54
   16:00:00.787.18-Apr-2020 3140.11 3320.43 67.56 7.00 159.58 1986.54
   16:00:00.987.18-Apr-2020 3140.11 3320.43 67.56 7.00 159.78 1986.54
   16:00:01.186.18-Apr-2020 3140.11 3320.40 67.56 7.00 159.98 1986.54
   16:00:01.386.18-Apr-2020 3140.11 3320.40 67.56 7.00 160.18 1986.54
   16:00:01.586.18-Apr-2020 3140.11 3320.44 67.56 7.00 160.38 1986.54
   16:00:01.786.18-Apr-2020 3140.11 3320.42 67.56 7.00 160.58 1986.54
   16:00:01.986.18-Apr-2020 3140.11 3320.43 67.56 7.00 160.78 1986.54
