~Version Information
 VERS.                  2.0:   CWLS log ASCII Standard -VERSION 2.0
 WRAP.                   NO:   One line per depth step
~Well Information Block
#MNEM.UNIT     VALUE/NAME     DESCRIPTION
#---------     -----------    ---------------------------
 STRT.S             13:35:33 18-Apr-20: START TIME 13:35:33 18-Apr-20
 STOP.S             13:42:31 18-Apr-20: STOP TIME  13:42:31 18-Apr-20
 STEP.S                   0.00: STEP TIME
 NULL.                 -999.25: NULL VALUE
 DFWT.                        :  DIST FWL TEXT
 DFST.                        :  DIST FSL TEXT
 DMF .                        :  DRILL MEAS FROM
 STIM.      16.29.52 23-Mar-20:  START TIME
 DATE.      16.29.52 23-Mar-20:  END TIME
 SPUD.               23-Mar-20:  SPUD DATE
 NREF.                    Grid:  NORTH REFERENCE
 HPTY.       Minimum Curvature:  HOLE POS TYPE
 DMOD.             Drill Model:  DRILL MOD DESC
 SVYD.                  Survey:  SURVEY DESC
 ILTD.               Lithology:  INTERP LTH DESC
 FTOP.          Formation Tops:  FORM TOPS DESC
 SON .        AZ-XX-0906252240:  JOB NUMBER
 RIG .             West Chirag:  RIG NAME
 PDAT.          Mean Sea Level:  PERMANENT DATUM
 FLD .                     ACG:  FIELD NAME
 CTRY.              Azerbaijan:  COUNTRY NAME
 WELL.           J23 (Slot 07):  WELL NAME
 SRVC.          Turan Drilling:  CONTRACTOR
 COMP.     BP Exploration (Casoian Sea) Ltd:  COMPANY
 WTYP.                Deviated:  WELL TYPE
 MDS .        Operator Entered:  MAG DATA SOURCE
 UWI .                     N/A:  UNIQUE WELL IDENTIFIER
 API .                     N/A:  API NUMBER
 BASE.              Azerbaijan:  LOGGING EQUIPMENT BASE LOCATION
 REGN.                   EESSA:  REGION
 PROV.                    Baku:  PROVINCE
 STAT.                    Baku:  STATE NAME
 MWDS.                     N/A:  MWD SHOP
 JOBN.        AZ-XX-0906252240:  JOB TICKET NUMB
 DOE .                     N/A:  DOE NUMBER
 DCON.         Sperry Drilling:  DIRECTNL CONTR
 UNIT.                     N/A:  LOGGING EQUIPMENT ID
 CNTY.                        :  COUNTY
 LOC .                        :  LOCATION
 LMF .             Drill Floor:  LOG MEASURED FROM
 TVDS.m                  43.00:  TVDSS CORRECTN
 LATI.deg                40.13:  LATITUDE
 LONG.deg                51.22:  LONGITUDE
 WHNS.m                   9.43:  WELL HEAD N/S
 WHEW.m                  -8.91:  WELL HEAD E/W
 UTMX.m              519005.06:  UTM X
 UTMY.m             4443793.85:  UTM Y
 DFWL.m                   0.00:  DISTANCE FWL
 DFSL.m                   0.00:  DISTANCE FSL
 SDEP.m                   0.00:  START DEPTH
 TDD .m                   0.00:  TOTAL DEPTH (DRILLER)
 VSDR.deg               179.88:  VERT SEC DIRECT
 GVFD.g                   1.00:  GRAVITY FIELD
 MFLD.nT              50281.00:  MAGNETIC FIELD
 MDIP.deg                59.58:  MAGNETIC DIP
 MDEC.deg                 6.48:  MAGNETIC DECL
 GRDC.deg                 0.14:  GRID CORRECTION
 AZTC.deg                 6.34:  AZM TOTAL CORR
 EPD .m                   0.00:  ELEVATION
 EGL .m                   0.00:  GROUND ELEVATION
 WDMS.m                 169.80:  WD ELEV
 APD .m                  43.00:  DEPTH ABOVE PD
 DEP .m                 354.17:  DEPTH
 AGAP.m                  43.00:  AIR GAP
 VSEW.m                  -8.91:  VERT SEC E/W
 VSNS.m                   9.43:  VERT SEC N/S
 EKB .m                   0.00:  KB ELEVATION
 EDF .m                  43.00:  DF ELEVATION
 TDL .m                1326.00:  TOTAL DEPTH (LOGGER)
 VSC .                       0:  VS TO CLOSURE
 MAGU.                 1850704:  MAGUTM CHECKSUM
~Parameter Information Block
#MNEM.UNIT       Value        Description
#---------     -----------    ---------------------------
 AV  .mps                 1.17:  Ann Velocity 
 AZIF.deg               184.04:  Azm, Final 
 BHAT.        Rotary Steerable:  BHA Type 
 BREV.rev            620000.00:  Rev Bit Total 
 BROT.°/30m               0.20:  Build Rotating 
 BS  .in                 14.75:  Bit Size 
 BSZ .in                 14.75:  Bit Size 
 BTPL.psig              618.00:  Bit Press Loss 
 CABU.                      No:  Customer Abuse 
 COMM.                     ôÎT:  Run Comments 1 
 TCS .hr                 87.68:  Time Ciculation Ended 
 CV  .mps                 3.10:  Crit Velocity 
 DD1 .          Rashad Habibov:  Direct Drillr 1 
 DD2 .         Rasim Ibrahimov:  Direct Drillr 2 
 DDSV.               Geo-Pilot:  DD Service 
 DEFF.%                  98.00:  % Det Eff 
 DLRX.°/30m               1.48:  Dogleg Rot Max 
 DLSO.°/30m               0.50:  Dogleg Oriented 
 DLSX.°/30m               1.48:  Dogleg Str Max 
 DRET.      06.18.56 19-Apr-20:  Drill End Time 
 DRST.      15.00.56 15-Apr-20:  Drill Start Tim 
 DTIM.hr                 51.73:  Time Drilling 
 EDEP.m                3410.01:  End Depth 
 ENG1.        Marcelo Sandoval:  Engineer 1 
 ENG2.        Davud Huseynzade:  Engineer 2 
 ENG3.          Ruslan Safarov:  Engineer 3 
 ETIM.      04.00.56 20-Apr-20:  End Time 
 FLOI.gpm              1000.00:  Flow In 
 FLON.gpm               600.00:  Flow In Min 
 FLOS.cptm                0.00:  Fluid Loss 
 FLOX.gpm              1200.00:  Flow In Max 
 HFLO.                      No:  High Flow 
 HPRE.                     Yes:  High Pressure 
 HTEM.                      No:  High Temp 
 HYDO.m                   1.80:  Hydro Offset 
 IFIN.deg                70.04:  Inc, Final 
 IMAX.deg                70.56:  Inc Max 
 IMIN.deg                69.85:  Inc Min 
 IMND.m                3103.24:  Inc Min Depth 
 IMXD.m                2876.63:  Inc Max Depth 
 JARR.                      No:  Jarring 
 LETM.      06.18.56 19-Apr-20:  Log End Time 
 LOST.hr                     0:  Lost Rig Time 
 LSTM.      15.00.56 15-Apr-20:  Log Start Time 
 MDCL.ppm             42000.00:  Mud Chlorides 
 MDES.     Inversion Oil/Synthetic:  Mud Desc 
 DFD .sg                  1.58:  Mud Density 
 MDMN.sg                  1.58:  Dens Mud Min 
 MDMX.sg                  1.58:  Dens Mud Max 
 MOIL.                      71:  Run Mud Oil % 
 MOWR.                   71:29:  Run Mud OWR 
 MSND.                       0:  Run Mud Sand % 
 MSOL.                    23.3:  Run Mud Solids% 
 DFV .spqt               84.00:  Mud Viscosity 
 MWOD.in                  9.50:  MWD Tool OD 
 MWSI.                      No:  Serv Intrp, MWD 
 OTIM.hr                139.62:  Time Operating 
 PMAX.psia             5364.69:  Press Op, Max 
 PV  .cP                 80.00:  Mud PV 
 RUN .                     700:  Run Number 
 ROPA.m/hr               25.00:  ROP Avg 
 ROPN.m/hr               11.00:  ROP Min 
 ROPX.m/hr               36.00:  ROP Max 
 RPMA.rpm               130.00:  RPM Surface Avg 
 RPMN.rpm               120.00:  RPM Surface Min 
 RPMX.rpm               140.00:  RPM Surface Max 
 RRUN.                    0700:  Rig Run Number 
 SAZI.deg               183.25:  Azm, Start 
 SDEP.m                2084.00:  Start Depth 
 SIDD.                      No:  Serv Intrp, DD 
 SINC.deg                70.38:  Inc, Start 
 SPPA.psig             4800.00:  SPP Avg 
 SPPN.psig             4400.00:  SPP Min 
 SPPX.psig             5350.00:  SPP Max 
 STIM.      16.30.56 14-Apr-20:  Start Time 
 SVCS.                 DD, MWD:  Services 
 SVER.                    9.20:  Sperry Version 
 TDAT.m                1326.00:  Tot Depth Attmp 
 TDDF.                      No:  Trip for DD 
 TDLG.m                1326.00:  Tot Depth Loggd 
 TFF .                      No:  Trip for Fail 
 TQAA.f-kp               19.00:  Torque Abs Avg 
 TQAN.f-kp                8.00:  Torque Abs Min 
 TQAX.f-kp               27.00:  Torque Abs Max 
 TRRT.°/30m               0.50:  Turn Rotating 
 MRT .                    HCIM:  Maximum Recorded Temperature 
 TTMX.degC               82.35:  Max Tool Temp 
 VS01.       905245875X1Z1W1C8:  Virtual Str1 SN 
 VS02.       90608022F11V7D1A9:  Virtual Str2 SN 
 VS03.            90605473R5C9:  Virtual Str3 SN 
 WBMN.klb                11.00:  WOB Min 
 WOBA.klb                21.00:  WOB Avg 
 WOBX.klb                30.00:  WOB Max 
 YP  .lhf2               45.00:  Yield Point 
~Curve Information Block
#MNEM.UNIT                 API CODE     Curve Description
#---------               -----------    ---------------------------
 TIME.HHMMSS            00 000 000 000:  GT Time & Date
 GTDEPTH.m              00 000 000 000:  GT Depth
 GTPQH.psia             00 000 000 000:  GT HR Quartz Pressure
 GTTQ.degC              00 000 000 000:  GT Quartz Temperature
 GTTN.NONE              00 000 000 000:  GT Test Number
 GTET.sec               00 000 000 000:  GT Elapsed Test Time
 GTTVD.m                00 000 000 000:  GT True Vertical Depth
#Other Information
#
#WARRANTY: Halliburton will use its best efforts to furnish customers with 
#accurate information and interpretations that are part of, and incident to, the services 
#provided.  However, Halliburton cannot and does not warrant the accuracy 
#or correctness of such information and interpretations.  Under no circumstances should any 
#such information or interpretation be relied upon as the sole basis for any drilling, 
#completion, production, or financial decision or any procedure involving any risk to the 
#safety of any drilling venture, drilling rig or its crew or any other third party.  The 
#Customer has full responsibility for all drilling, completion and production operation.  
#Halliburton makes no representations or warranties, either expressed or 
#implied, including, but not limited to, the implied warranties of merchantability or fitness 
#for a particular purpose, with respect to the services rendered.  In no event will 
#Halliburton be liable for failure to obtain any particular results or for 
#any damages, including, but not limited to, indirect, special or consequential damages, 
#resulting from the use of any information or interpretation provided by Halliburton.
#
~A           TIME           GTDEPTH  GTPQH  GTTQ  GTTN  GTET   GTTVD  
# ...
   13:37:28.309.18-Apr-2020 3111.02 3318.35 70.70 5.00 115.05 1976.62
   13:37:28.509.18-Apr-2020 3111.02 3318.35 70.70 5.00 115.25 1976.62
   13:37:28.709.18-Apr-2020 3111.02 3318.36 70.69 5.00 115.45 1976.62
   13:37:28.909.18-Apr-2020 3111.02 3318.35 70.69 5.00 115.65 1976.62
   13:37:29.109.18-Apr-2020 3111.02 3318.34 70.69 5.00 115.85 1976.62
   13:37:29.309.18-Apr-2020 3111.02 3318.36 70.69 5.00 116.05 1976.62
   13:37:29.509.18-Apr-2020 3111.02 3318.36 70.69 5.00 116.25 1976.62
   13:37:29.710.18-Apr-2020 3111.02 3318.35 70.69 5.00 116.45 1976.62
   13:37:29.910.18-Apr-2020 3111.02 3318.35 70.69 5.00 116.65 1976.62
   13:37:30.110.18-Apr-2020 3111.02 3318.36 70.69 5.00 116.85 1976.62
   13:37:30.310.18-Apr-2020 3111.02 3318.36 70.69 5.00 117.05 1976.62
   13:37:30.510.18-Apr-2020 3111.02 3318.36 70.69 5.00 117.25 1976.62
   13:37:30.710.18-Apr-2020 3111.02 3318.33 70.68 5.00 117.45 1976.62
   13:37:30.910.18-Apr-2020 3111.02 3318.36 70.68 5.00 117.65 1976.62
   13:37:31.110.18-Apr-2020 3111.02 3318.35 70.68 5.00 117.85 1976.62
   13:37:31.310.18-Apr-2020 3111.02 3318.36 70.68 5.00 118.05 1976.62
   13:37:31.510.18-Apr-2020 3111.02 3318.36 70.68 5.00 118.25 1976.62
   13:37:31.710.18-Apr-2020 3111.02 3318.35 70.68 5.00 118.45 1976.62
   13:37:31.911.18-Apr-2020 3111.02 3318.35 70.68 5.00 118.65 1976.62
   13:37:32.111.18-Apr-2020 3111.02 3318.35 70.68 5.00 118.85 1976.62
   13:37:32.311.18-Apr-2020 3111.02 3318.35 70.68 5.00 119.05 1976.62
   13:37:32.511.18-Apr-2020 3111.02 3318.35 70.68 5.00 119.25 1976.62
   13:37:32.711.18-Apr-2020 3111.02 3318.35 70.68 5.00 119.45 1976.62
   13:37:32.911.18-Apr-2020 3111.02 3318.34 70.67 5.00 119.65 1976.62
   13:37:33.111.18-Apr-2020 3111.02 3318.36 70.67 5.00 119.85 1976.62
   13:37:33.311.18-Apr-2020 3111.02 3318.34 70.67 5.00 120.05 1976.62
   13:37:33.511.18-Apr-2020 3111.02 3318.34 70.67 5.00 120.25 1976.62
   13:37:33.711.18-Apr-2020 3111.02 3318.34 70.67 5.00 120.45 1976.62
   13:37:33.911.18-Apr-2020 3111.02 3318.35 70.67 5.00 120.65 1976.62
   13:37:34.111.18-Apr-2020 3111.02 3318.34 70.67 5.00 120.85 1976.62
   13:37:34.312.18-Apr-2020 3111.02 3318.34 70.67 5.00 121.05 1976.62
   13:37:34.512.18-Apr-2020 3111.02 3318.34 70.67 5.00 121.25 1976.62
   13:37:34.712.18-Apr-2020 3111.02 3318.35 70.67 5.00 121.45 1976.62
   13:37:34.912.18-Apr-2020 3111.02 3318.35 70.66 5.00 121.65 1976.62
   13:37:35.112.18-Apr-2020 3111.02 3318.34 70.66 5.00 121.85 1976.62
   13:37:35.312.18-Apr-2020 3111.02 3318.34 70.66 5.00 122.05 1976.62
   13:37:35.512.18-Apr-2020 3111.02 3318.34 70.66 5.00 122.25 1976.62
   13:37:35.712.18-Apr-2020 3111.02 3318.35 70.66 5.00 122.46 1976.62
   13:37:35.912.18-Apr-2020 3111.02 3318.34 70.66 5.00 122.66 1976.62
   13:37:36.112.18-Apr-2020 3111.02 3318.34 70.66 5.00 122.86 1976.62
   13:37:36.312.18-Apr-2020 3111.02 3318.34 70.66 5.00 123.06 1976.62
   13:37:36.513.18-Apr-2020 3111.02 3318.34 70.66 5.00 123.26 1976.62
   13:37:36.713.18-Apr-2020 3111.02 3318.35 70.66 5.00 123.46 1976.62
   13:37:36.913.18-Apr-2020 3111.02 3318.34 70.65 5.00 123.66 1976.62
   13:37:37.113.18-Apr-2020 3111.02 3318.31 70.65 5.00 123.86 1976.62
   13:37:37.313.18-Apr-2020 3111.02 3318.36 70.65 5.00 124.06 1976.62
   13:37:37.513.18-Apr-2020 3111.02 3318.36 70.65 5.00 124.26 1976.62
   13:37:37.713.18-Apr-2020 3111.02 3318.32 70.65 5.00 124.46 1976.62
   13:37:37.913.18-Apr-2020 3111.02 3318.34 70.65 5.00 124.66 1976.62
   13:37:38.113.18-Apr-2020 3111.02 3318.35 70.65 5.00 124.86 1976.62
   13:37:38.313.18-Apr-2020 3111.02 3318.34 70.65 5.00 125.06 1976.62
   13:37:38.513.18-Apr-2020 3111.02 3318.34 70.65 5.00 125.26 1976.62
   13:37:38.714.18-Apr-2020 3111.02 3318.33 70.65 5.00 125.46 1976.62
   13:37:38.914.18-Apr-2020 3111.02 3318.34 70.64 5.00 125.66 1976.62
   13:37:39.114.18-Apr-2020 3111.02 3318.33 70.64 5.00 125.86 1976.62
   13:37:39.314.18-Apr-2020 3111.02 3318.33 70.64 5.00 126.06 1976.62
   13:37:39.514.18-Apr-2020 3111.02 3318.33 70.64 5.00 126.26 1976.62
   13:37:39.714.18-Apr-2020 3111.02 3318.32 70.64 5.00 126.46 1976.62
   13:37:39.914.18-Apr-2020 3111.02 3318.33 70.64 5.00 126.66 1976.62
   13:37:40.114.18-Apr-2020 3111.02 3318.33 70.64 5.00 126.86 1976.62
   13:37:40.314.18-Apr-2020 3111.02 3318.33 70.64 5.00 127.06 1976.62
   13:37:40.514.18-Apr-2020 3111.02 3318.33 70.64 5.00 127.26 1976.62
   13:37:40.714.18-Apr-2020 3111.02 3318.32 70.64 5.00 127.46 1976.62
   13:37:40.915.18-Apr-2020 3111.02 3318.34 70.63 5.00 127.66 1976.62
   13:37:41.115.18-Apr-2020 3111.02 3318.33 70.63 5.00 127.86 1976.62
   13:37:41.315.18-Apr-2020 3111.02 3318.32 70.63 5.00 128.06 1976.62
   13:37:41.515.18-Apr-2020 3111.02 3318.32 70.63 5.00 128.26 1976.62
   13:37:41.715.18-Apr-2020 3111.02 3318.34 70.63 5.00 128.46 1976.62
   13:37:41.915.18-Apr-2020 3111.02 3318.32 70.63 5.00 128.66 1976.62
   13:37:42.115.18-Apr-2020 3111.02 3318.32 70.63 5.00 128.86 1976.62
   13:37:42.315.18-Apr-2020 3111.02 3318.33 70.63 5.00 129.06 1976.62
   13:37:42.515.18-Apr-2020 3111.02 3318.33 70.63 5.00 129.26 1976.62
   13:37:42.715.18-Apr-2020 3111.02 3318.32 70.63 5.00 129.46 1976.62
   13:37:42.915.18-Apr-2020 3111.02 3318.32 70.62 5.00 129.66 1976.62
   13:37:43.116.18-Apr-2020 3111.02 3318.31 70.62 5.00 129.86 1976.62
   13:37:43.316.18-Apr-2020 3111.02 3318.31 70.62 5.00 130.06 1976.62
   13:37:43.516.18-Apr-2020 3111.02 3318.31 70.62 5.00 130.26 1976.62
   13:37:43.716.18-Apr-2020 3111.02 3318.31 70.62 5.00 130.46 1976.62
   13:37:43.916.18-Apr-2020 3111.02 3318.31 70.62 5.00 130.66 1976.62
   13:37:44.116.18-Apr-2020 3111.02 3318.32 70.62 5.00 130.86 1976.62
   13:37:44.316.18-Apr-2020 3111.02 3318.31 70.62 5.00 131.06 1976.62
   13:37:44.516.18-Apr-2020 3111.02 3318.31 70.62 5.00 131.26 1976.62
   13:37:44.716.18-Apr-2020 3111.02 3318.30 70.62 5.00 131.46 1976.62
   13:37:44.916.18-Apr-2020 3111.02 3318.31 70.61 5.00 131.66 1976.62
   13:37:45.116.18-Apr-2020 3111.02 3318.31 70.61 5.00 131.86 1976.62
   13:37:45.317.18-Apr-2020 3111.02 3318.31 70.61 5.00 132.06 1976.62
   13:37:45.517.18-Apr-2020 3111.02 3318.31 70.61 5.00 132.26 1976.62
   13:37:45.717.18-Apr-2020 3111.02 3318.30 70.61 5.00 132.46 1976.62
   13:37:45.917.18-Apr-2020 3111.02 3318.30 70.61 5.00 132.66 1976.62
   13:37:46.117.18-Apr-2020 3111.02 3318.31 70.61 5.00 132.86 1976.62
   13:37:46.317.18-Apr-2020 3111.02 3318.30 70.61 5.00 133.06 1976.62
   13:37:46.517.18-Apr-2020 3111.02 3318.30 70.61 5.00 133.26 1976.62
   13:37:46.717.18-Apr-2020 3111.02 3318.30 70.61 5.00 133.46 1976.62
   13:37:46.917.18-Apr-2020 3111.02 3318.31 70.60 5.00 133.66 1976.62
   13:37:47.117.18-Apr-2020 3111.02 3318.31 70.60 5.00 133.86 1976.62
   13:37:47.317.18-Apr-2020 3111.02 3318.30 70.60 5.00 134.06 1976.62
   13:37:47.518.18-Apr-2020 3111.02 3318.30 70.60 5.00 134.26 1976.62
   13:37:47.718.18-Apr-2020 3111.02 3318.30 70.60 5.00 134.46 1976.62
   13:37:47.918.18-Apr-2020 3111.02 3318.30 70.60 5.00 134.66 1976.62
   13:37:48.118.18-Apr-2020 3111.02 3318.29 70.60 5.00 134.86 1976.62
   13:37:48.318.18-Apr-2020 3111.02 3318.31 70.60 5.00 135.06 1976.62
   13:37:48.518.18-Apr-2020 3111.02 3318.31 70.60 5.00 135.26 1976.62
   13:37:48.718.18-Apr-2020 3111.02 3318.30 70.60 5.00 135.46 1976.62
   13:37:48.918.18-Apr-2020 3111.02 3318.30 70.59 5.00 135.66 1976.62
   13:37:49.118.18-Apr-2020 3111.02 3318.29 70.59 5.00 135.86 1976.62
   13:37:49.318.18-Apr-2020 3111.02 3318.28 70.59 5.00 136.06 1976.62
   13:37:49.518.18-Apr-2020 3111.02 3318.28 70.59 5.00 136.26 1976.62
   13:37:49.719.18-Apr-2020 3111.02 3318.31 70.59 5.00 136.46 1976.62
   13:37:49.919.18-Apr-2020 3111.02 3318.29 70.59 5.00 136.66 1976.62
   13:37:50.119.18-Apr-2020 3111.02 3318.28 70.59 5.00 136.86 1976.62
   13:37:50.319.18-Apr-2020 3111.02 3318.30 70.59 5.00 137.06 1976.62
   13:37:50.519.18-Apr-2020 3111.02 3318.30 70.59 5.00 137.26 1976.62
   13:37:50.719.18-Apr-2020 3111.02 3318.30 70.59 5.00 137.46 1976.62
   13:37:50.919.18-Apr-2020 3111.02 3318.30 70.58 5.00 137.66 1976.62
   13:37:51.119.18-Apr-2020 3111.02 3318.30 70.58 5.00 137.86 1976.62
