~Version Information
 VERS.                  2.0:   CWLS log ASCII Standard -VERSION 2.0
 WRAP.                   NO:   One line per depth step
~Well Information Block
#MNEM.UNIT     VALUE/NAME     DESCRIPTION
#---------     -----------    ---------------------------
 STRT.S             00:39:23 18-Apr-20: START TIME 00:39:23 18-Apr-20
 STOP.S             00:46:19 18-Apr-20: STOP TIME  00:46:19 18-Apr-20
 STEP.S                   0.00: STEP TIME
 NULL.                 -999.25: NULL VALUE
 DFWT.                        :  DIST FWL TEXT
 DFST.                        :  DIST FSL TEXT
 DMF .                        :  DRILL MEAS FROM
 STIM.      16.29.52 23-Mar-20:  START TIME
 DATE.      16.29.52 23-Mar-20:  END TIME
 SPUD.               23-Mar-20:  SPUD DATE
 NREF.                    Grid:  NORTH REFERENCE
 HPTY.       Minimum Curvature:  HOLE POS TYPE
 DMOD.             Drill Model:  DRILL MOD DESC
 SVYD.                  Survey:  SURVEY DESC
 ILTD.               Lithology:  INTERP LTH DESC
 FTOP.          Formation Tops:  FORM TOPS DESC
 SON .        AZ-XX-0906252240:  JOB NUMBER
 RIG .             West Chirag:  RIG NAME
 PDAT.          Mean Sea Level:  PERMANENT DATUM
 FLD .                     ACG:  FIELD NAME
 CTRY.              Azerbaijan:  COUNTRY NAME
 WELL.           J23 (Slot 07):  WELL NAME
 SRVC.          Turan Drilling:  CONTRACTOR
 COMP.     BP Exploration (Casoian Sea) Ltd:  COMPANY
 WTYP.                Deviated:  WELL TYPE
 MDS .        Operator Entered:  MAG DATA SOURCE
 UWI .                     N/A:  UNIQUE WELL IDENTIFIER
 API .                     N/A:  API NUMBER
 BASE.              Azerbaijan:  LOGGING EQUIPMENT BASE LOCATION
 REGN.                   EESSA:  REGION
 PROV.                    Baku:  PROVINCE
 STAT.                    Baku:  STATE NAME
 MWDS.                     N/A:  MWD SHOP
 JOBN.        AZ-XX-0906252240:  JOB TICKET NUMB
 DOE .                     N/A:  DOE NUMBER
 DCON.         Sperry Drilling:  DIRECTNL CONTR
 UNIT.                     N/A:  LOGGING EQUIPMENT ID
 CNTY.                        :  COUNTY
 LOC .                        :  LOCATION
 LMF .             Drill Floor:  LOG MEASURED FROM
 TVDS.m                  43.00:  TVDSS CORRECTN
 LATI.deg                40.13:  LATITUDE
 LONG.deg                51.22:  LONGITUDE
 WHNS.m                   9.43:  WELL HEAD N/S
 WHEW.m                  -8.91:  WELL HEAD E/W
 UTMX.m              519005.06:  UTM X
 UTMY.m             4443793.85:  UTM Y
 DFWL.m                   0.00:  DISTANCE FWL
 DFSL.m                   0.00:  DISTANCE FSL
 SDEP.m                   0.00:  START DEPTH
 TDD .m                   0.00:  TOTAL DEPTH (DRILLER)
 VSDR.deg               179.88:  VERT SEC DIRECT
 GVFD.g                   1.00:  GRAVITY FIELD
 MFLD.nT              50281.00:  MAGNETIC FIELD
 MDIP.deg                59.58:  MAGNETIC DIP
 MDEC.deg                 6.48:  MAGNETIC DECL
 GRDC.deg                 0.14:  GRID CORRECTION
 AZTC.deg                 6.34:  AZM TOTAL CORR
 EPD .m                   0.00:  ELEVATION
 EGL .m                   0.00:  GROUND ELEVATION
 WDMS.m                 169.80:  WD ELEV
 APD .m                  43.00:  DEPTH ABOVE PD
 DEP .m                 354.17:  DEPTH
 AGAP.m                  43.00:  AIR GAP
 VSEW.m                  -8.91:  VERT SEC E/W
 VSNS.m                   9.43:  VERT SEC N/S
 EKB .m                   0.00:  KB ELEVATION
 EDF .m                  43.00:  DF ELEVATION
 TDL .m                1326.00:  TOTAL DEPTH (LOGGER)
 VSC .                       0:  VS TO CLOSURE
 MAGU.                 1850704:  MAGUTM CHECKSUM
~Parameter Information Block
#MNEM.UNIT       Value        Description
#---------     -----------    ---------------------------
 AV  .mps                 1.17:  Ann Velocity 
 AZIF.deg               184.04:  Azm, Final 
 BHAT.        Rotary Steerable:  BHA Type 
 BREV.rev            620000.00:  Rev Bit Total 
 BROT.°/30m               0.20:  Build Rotating 
 BS  .in                 14.75:  Bit Size 
 BSZ .in                 14.75:  Bit Size 
 BTPL.psig              618.00:  Bit Press Loss 
 CABU.                      No:  Customer Abuse 
 COMM.                     TŠT:  Run Comments 1 
 TCS .hr                 87.68:  Time Ciculation Ended 
 CV  .mps                 3.10:  Crit Velocity 
 DD1 .          Rashad Habibov:  Direct Drillr 1 
 DD2 .         Rasim Ibrahimov:  Direct Drillr 2 
 DDSV.               Geo-Pilot:  DD Service 
 DEFF.%                  98.00:  % Det Eff 
 DLRX.°/30m               1.48:  Dogleg Rot Max 
 DLSO.°/30m               0.50:  Dogleg Oriented 
 DLSX.°/30m               1.48:  Dogleg Str Max 
 DRET.      06.18.56 19-Apr-20:  Drill End Time 
 DRST.      15.00.56 15-Apr-20:  Drill Start Tim 
 DTIM.hr                 51.73:  Time Drilling 
 EDEP.m                3410.01:  End Depth 
 ENG1.        Marcelo Sandoval:  Engineer 1 
 ENG2.        Davud Huseynzade:  Engineer 2 
 ENG3.          Ruslan Safarov:  Engineer 3 
 ETIM.      04.00.56 20-Apr-20:  End Time 
 FLOI.gpm              1000.00:  Flow In 
 FLON.gpm               600.00:  Flow In Min 
 FLOS.cptm                0.00:  Fluid Loss 
 FLOX.gpm              1200.00:  Flow In Max 
 HFLO.                      No:  High Flow 
 HPRE.                     Yes:  High Pressure 
 HTEM.                      No:  High Temp 
 HYDO.m                   1.80:  Hydro Offset 
 IFIN.deg                70.04:  Inc, Final 
 IMAX.deg                70.56:  Inc Max 
 IMIN.deg                69.85:  Inc Min 
 IMND.m                3103.24:  Inc Min Depth 
 IMXD.m                2876.63:  Inc Max Depth 
 JARR.                      No:  Jarring 
 LETM.      06.18.56 19-Apr-20:  Log End Time 
 LOST.hr                     0:  Lost Rig Time 
 LSTM.      15.00.56 15-Apr-20:  Log Start Time 
 MDCL.ppm             42000.00:  Mud Chlorides 
 MDES.     Inversion Oil/Synthetic:  Mud Desc 
 DFD .sg                  1.58:  Mud Density 
 MDMN.sg                  1.58:  Dens Mud Min 
 MDMX.sg                  1.58:  Dens Mud Max 
 MOIL.                      71:  Run Mud Oil % 
 MOWR.                   71:29:  Run Mud OWR 
 MSND.                       0:  Run Mud Sand % 
 MSOL.                    23.3:  Run Mud Solids% 
 DFV .spqt               84.00:  Mud Viscosity 
 MWOD.in                  9.50:  MWD Tool OD 
 MWSI.                      No:  Serv Intrp, MWD 
 OTIM.hr                139.62:  Time Operating 
 PMAX.psia             5364.69:  Press Op, Max 
 PV  .cP                 80.00:  Mud PV 
 RUN .                     700:  Run Number 
 ROPA.m/hr               25.00:  ROP Avg 
 ROPN.m/hr               11.00:  ROP Min 
 ROPX.m/hr               36.00:  ROP Max 
 RPMA.rpm               130.00:  RPM Surface Avg 
 RPMN.rpm               120.00:  RPM Surface Min 
 RPMX.rpm               140.00:  RPM Surface Max 
 RRUN.                    0700:  Rig Run Number 
 SAZI.deg               183.25:  Azm, Start 
 SDEP.m                2084.00:  Start Depth 
 SIDD.                      No:  Serv Intrp, DD 
 SINC.deg                70.38:  Inc, Start 
 SPPA.psig             4800.00:  SPP Avg 
 SPPN.psig             4400.00:  SPP Min 
 SPPX.psig             5350.00:  SPP Max 
 STIM.      16.30.56 14-Apr-20:  Start Time 
 SVCS.                 DD, MWD:  Services 
 SVER.                    9.20:  Sperry Version 
 TDAT.m                1326.00:  Tot Depth Attmp 
 TDDF.                      No:  Trip for DD 
 TDLG.m                1326.00:  Tot Depth Loggd 
 TFF .                      No:  Trip for Fail 
 TQAA.f-kp               19.00:  Torque Abs Avg 
 TQAN.f-kp                8.00:  Torque Abs Min 
 TQAX.f-kp               27.00:  Torque Abs Max 
 TRRT.°/30m               0.50:  Turn Rotating 
 MRT .                    HCIM:  Maximum Recorded Temperature 
 TTMX.degC               82.35:  Max Tool Temp 
 VS01.       905245875X1Z1W1C8:  Virtual Str1 SN 
 VS02.       90608022F11V7D1A9:  Virtual Str2 SN 
 VS03.            90605473R5C9:  Virtual Str3 SN 
 WBMN.klb                11.00:  WOB Min 
 WOBA.klb                21.00:  WOB Avg 
 WOBX.klb                30.00:  WOB Max 
 YP  .lhf2               45.00:  Yield Point 
~Curve Information Block
#MNEM.UNIT                 API CODE     Curve Description
#---------               -----------    ---------------------------
 TIME.HHMMSS            00 000 000 000:  GT Time & Date
 GTDEPTH.m              00 000 000 000:  GT Depth
 GTPQH.psia             00 000 000 000:  GT HR Quartz Pressure
 GTTQ.degC              00 000 000 000:  GT Quartz Temperature
 GTTN.NONE              00 000 000 000:  GT Test Number
 GTET.sec               00 000 000 000:  GT Elapsed Test Time
 GTTVD.m                00 000 000 000:  GT True Vertical Depth
#Other Information
#
#WARRANTY: Halliburton will use its best efforts to furnish customers with 
#accurate information and interpretations that are part of, and incident to, the services 
#provided.  However, Halliburton cannot and does not warrant the accuracy 
#or correctness of such information and interpretations.  Under no circumstances should any 
#such information or interpretation be relied upon as the sole basis for any drilling, 
#completion, production, or financial decision or any procedure involving any risk to the 
#safety of any drilling venture, drilling rig or its crew or any other third party.  The 
#Customer has full responsibility for all drilling, completion and production operation.  
#Halliburton makes no representations or warranties, either expressed or 
#implied, including, but not limited to, the implied warranties of merchantability or fitness 
#for a particular purpose, with respect to the services rendered.  In no event will 
#Halliburton be liable for failure to obtain any particular results or for 
#any damages, including, but not limited to, indirect, special or consequential damages, 
#resulting from the use of any information or interpretation provided by Halliburton.
#
~A           TIME           GTDEPTH  GTPQH  GTTQ  GTTN  GTET   GTTVD  
# ...
   00:42:27.338.18-Apr-2020 2932.07 3431.55 63.25 1.00 184.03 1915.77
   00:42:27.538.18-Apr-2020 2932.07 3431.55 63.25 1.00 184.23 1915.77
   00:42:27.738.18-Apr-2020 2932.07 3431.55 63.25 1.00 184.43 1915.77
   00:42:27.938.18-Apr-2020 2932.07 3431.56 63.25 1.00 184.63 1915.77
   00:42:28.138.18-Apr-2020 2932.07 3431.54 63.25 1.00 184.83 1915.77
   00:42:28.338.18-Apr-2020 2932.07 3431.55 63.25 1.00 185.03 1915.77
   00:42:28.538.18-Apr-2020 2932.07 3431.56 63.25 1.00 185.23 1915.77
   00:42:28.738.18-Apr-2020 2932.07 3431.55 63.25 1.00 185.43 1915.77
   00:42:28.938.18-Apr-2020 2932.07 3431.55 63.25 1.00 185.63 1915.77
   00:42:29.138.18-Apr-2020 2932.07 3431.55 63.25 1.00 185.83 1915.77
   00:42:29.338.18-Apr-2020 2932.07 3431.54 63.25 1.00 186.03 1915.77
   00:42:29.538.18-Apr-2020 2932.07 3431.54 63.25 1.00 186.23 1915.77
   00:42:29.738.18-Apr-2020 2932.07 3431.55 63.24 1.00 186.43 1915.77
   00:42:29.938.18-Apr-2020 2932.07 3431.55 63.24 1.00 186.63 1915.77
   00:42:30.139.18-Apr-2020 2932.07 3431.55 63.24 1.00 186.83 1915.77
   00:42:30.339.18-Apr-2020 2932.07 3431.54 63.24 1.00 187.03 1915.77
   00:42:30.539.18-Apr-2020 2932.07 3431.54 63.24 1.00 187.23 1915.77
   00:42:30.739.18-Apr-2020 2932.07 3431.55 63.24 1.00 187.43 1915.77
   00:42:30.939.18-Apr-2020 2932.07 3431.54 63.24 1.00 187.63 1915.77
   00:42:31.139.18-Apr-2020 2932.07 3431.54 63.24 1.00 187.83 1915.77
   00:42:31.339.18-Apr-2020 2932.07 3431.55 63.24 1.00 188.03 1915.77
   00:42:31.539.18-Apr-2020 2932.07 3431.55 63.24 1.00 188.23 1915.77
   00:42:31.739.18-Apr-2020 2932.07 3431.54 63.24 1.00 188.43 1915.77
   00:42:31.939.18-Apr-2020 2932.07 3431.54 63.24 1.00 188.63 1915.77
   00:42:32.139.18-Apr-2020 2932.07 3431.54 63.24 1.00 188.83 1915.77
   00:42:32.339.18-Apr-2020 2932.07 3431.53 63.24 1.00 189.03 1915.77
   00:42:32.539.18-Apr-2020 2932.07 3431.53 63.24 1.00 189.23 1915.77
   00:42:32.739.18-Apr-2020 2932.07 3431.53 63.24 1.00 189.43 1915.77
   00:42:32.939.18-Apr-2020 2932.07 3431.54 63.24 1.00 189.63 1915.77
   00:42:33.139.18-Apr-2020 2932.07 3431.52 63.24 1.00 189.83 1915.77
   00:42:33.339.18-Apr-2020 2932.07 3431.54 63.24 1.00 190.03 1915.77
   00:42:33.539.18-Apr-2020 2932.07 3431.54 63.24 1.00 190.23 1915.77
   00:42:33.739.18-Apr-2020 2932.07 3431.54 63.24 1.00 190.43 1915.77
   00:42:33.939.18-Apr-2020 2932.07 3431.53 63.24 1.00 190.63 1915.77
   00:42:34.139.18-Apr-2020 2932.07 3431.53 63.24 1.00 190.83 1915.77
   00:42:34.339.18-Apr-2020 2932.07 3431.53 63.24 1.00 191.03 1915.77
   00:42:34.539.18-Apr-2020 2932.07 3431.53 63.24 1.00 191.23 1915.77
   00:42:34.739.18-Apr-2020 2932.07 3431.54 63.24 1.00 191.43 1915.77
   00:42:34.939.18-Apr-2020 2932.07 3431.53 63.24 1.00 191.63 1915.77
   00:42:35.139.18-Apr-2020 2932.07 3431.53 63.24 1.00 191.83 1915.77
   00:42:35.339.18-Apr-2020 2932.07 3431.54 63.23 1.00 192.03 1915.77
   00:42:35.539.18-Apr-2020 2932.07 3431.53 63.23 1.00 192.23 1915.77
   00:42:35.739.18-Apr-2020 2932.07 3431.53 63.23 1.00 192.43 1915.77
   00:42:35.939.18-Apr-2020 2932.07 3431.53 63.23 1.00 192.63 1915.77
   00:42:36.139.18-Apr-2020 2932.07 3431.55 63.23 1.00 192.83 1915.77
   00:42:36.340.18-Apr-2020 2932.07 3431.53 63.23 1.00 193.03 1915.77
   00:42:36.540.18-Apr-2020 2932.07 3431.54 63.23 1.00 193.23 1915.77
   00:42:36.740.18-Apr-2020 2932.07 3431.53 63.23 1.00 193.43 1915.77
   00:42:36.940.18-Apr-2020 2932.07 3431.54 63.23 1.00 193.63 1915.77
   00:42:37.140.18-Apr-2020 2932.07 3431.53 63.23 1.00 193.83 1915.77
   00:42:37.340.18-Apr-2020 2932.07 3431.52 63.23 1.00 194.03 1915.77
   00:42:37.540.18-Apr-2020 2932.07 3431.52 63.23 1.00 194.23 1915.77
   00:42:37.740.18-Apr-2020 2932.07 3431.53 63.23 1.00 194.43 1915.77
   00:42:37.940.18-Apr-2020 2932.07 3431.53 63.23 1.00 194.63 1915.77
   00:42:38.140.18-Apr-2020 2932.07 3431.52 63.23 1.00 194.83 1915.77
   00:42:38.340.18-Apr-2020 2932.07 3431.53 63.23 1.00 195.03 1915.77
   00:42:38.540.18-Apr-2020 2932.07 3431.53 63.23 1.00 195.23 1915.77
   00:42:38.740.18-Apr-2020 2932.07 3431.53 63.23 1.00 195.43 1915.77
   00:42:38.940.18-Apr-2020 2932.07 3431.53 63.23 1.00 195.63 1915.77
   00:42:39.140.18-Apr-2020 2932.07 3431.53 63.23 1.00 195.83 1915.77
   00:42:39.340.18-Apr-2020 2932.07 3431.51 63.23 1.00 196.03 1915.77
   00:42:39.540.18-Apr-2020 2932.07 3431.54 63.23 1.00 196.23 1915.77
   00:42:39.740.18-Apr-2020 2932.07 3431.52 63.23 1.00 196.43 1915.77
   00:42:39.940.18-Apr-2020 2932.07 3431.52 63.23 1.00 196.63 1915.77
   00:42:40.140.18-Apr-2020 2932.07 3431.51 63.23 1.00 196.83 1915.77
   00:42:40.340.18-Apr-2020 2932.07 3431.52 63.23 1.00 197.03 1915.77
   00:42:40.540.18-Apr-2020 2932.07 3431.53 63.23 1.00 197.23 1915.77
   00:42:40.740.18-Apr-2020 2932.07 3431.52 63.23 1.00 197.43 1915.77
   00:42:40.940.18-Apr-2020 2932.07 3431.54 63.23 1.00 197.63 1915.77
   00:42:41.140.18-Apr-2020 2932.07 3431.52 63.22 1.00 197.83 1915.77
   00:42:41.340.18-Apr-2020 2932.07 3431.52 63.22 1.00 198.03 1915.77
   00:42:41.540.18-Apr-2020 2932.07 3431.52 63.22 1.00 198.23 1915.77
   00:42:41.740.18-Apr-2020 2932.07 3431.52 63.22 1.00 198.43 1915.77
   00:42:41.940.18-Apr-2020 2932.07 3431.51 63.22 1.00 198.63 1915.77
   00:42:42.140.18-Apr-2020 2932.07 3431.53 63.22 1.00 198.83 1915.77
   00:42:42.340.18-Apr-2020 2932.07 3431.49 63.22 1.00 199.03 1915.77
   00:42:42.541.18-Apr-2020 2932.07 3431.49 63.22 1.00 199.23 1915.77
   00:42:42.741.18-Apr-2020 2932.07 3431.52 63.22 1.00 199.43 1915.77
   00:42:42.941.18-Apr-2020 2932.07 3431.52 63.22 1.00 199.63 1915.77
   00:42:43.141.18-Apr-2020 2932.07 3431.50 63.22 1.00 199.83 1915.77
   00:42:43.341.18-Apr-2020 2932.07 3431.51 63.22 1.00 200.03 1915.77
   00:42:43.541.18-Apr-2020 2932.07 3431.51 63.22 1.00 200.23 1915.77
   00:42:43.741.18-Apr-2020 2932.07 3431.51 63.22 1.00 200.43 1915.77
   00:42:43.941.18-Apr-2020 2932.07 3431.51 63.22 1.00 200.63 1915.77
   00:42:44.141.18-Apr-2020 2932.07 3431.52 63.22 1.00 200.83 1915.77
   00:42:44.341.18-Apr-2020 2932.07 3431.51 63.22 1.00 201.03 1915.77
   00:42:44.541.18-Apr-2020 2932.07 3431.51 63.22 1.00 201.23 1915.77
   00:42:44.741.18-Apr-2020 2932.07 3431.52 63.22 1.00 201.43 1915.77
   00:42:44.941.18-Apr-2020 2932.07 3431.51 63.22 1.00 201.63 1915.77
   00:42:45.141.18-Apr-2020 2932.07 3431.50 63.22 1.00 201.83 1915.77
   00:42:45.341.18-Apr-2020 2932.07 3431.51 63.22 1.00 202.03 1915.77
   00:42:45.541.18-Apr-2020 2932.07 3431.51 63.22 1.00 202.23 1915.77
   00:42:45.741.18-Apr-2020 2932.07 3431.51 63.22 1.00 202.43 1915.77
   00:42:45.941.18-Apr-2020 2932.07 3431.50 63.22 1.00 202.63 1915.77
   00:42:46.141.18-Apr-2020 2932.07 3431.51 63.22 1.00 202.83 1915.77
   00:42:46.341.18-Apr-2020 2932.07 3431.51 63.22 1.00 203.03 1915.77
   00:42:46.541.18-Apr-2020 2932.07 3431.51 63.22 1.00 203.23 1915.77
   00:42:46.741.18-Apr-2020 2932.07 3431.52 63.21 1.00 203.43 1915.77
   00:42:46.941.18-Apr-2020 2932.07 3431.51 63.21 1.00 203.63 1915.77
   00:42:47.141.18-Apr-2020 2932.07 3431.50 63.21 1.00 203.83 1915.77
   00:42:47.341.18-Apr-2020 2932.07 3431.51 63.21 1.00 204.03 1915.77
   00:42:47.541.18-Apr-2020 2932.07 3431.51 63.21 1.00 204.23 1915.77
   00:42:47.741.18-Apr-2020 2932.07 3431.50 63.21 1.00 204.43 1915.77
   00:42:47.941.18-Apr-2020 2932.07 3431.50 63.21 1.00 204.63 1915.77
   00:42:48.141.18-Apr-2020 2932.07 3431.52 63.21 1.00 204.83 1915.77
   00:42:48.341.18-Apr-2020 2932.07 3431.51 63.21 1.00 205.03 1915.77
   00:42:48.541.18-Apr-2020 2932.07 3431.49 63.21 1.00 205.23 1915.77
   00:42:48.742.18-Apr-2020 2932.07 3431.51 63.21 1.00 205.43 1915.77
   00:42:48.942.18-Apr-2020 2932.07 3431.50 63.21 1.00 205.63 1915.77
   00:42:49.142.18-Apr-2020 2932.07 3431.50 63.21 1.00 205.83 1915.77
   00:42:49.342.18-Apr-2020 2932.07 3431.48 63.21 1.00 206.03 1915.77
   00:42:49.542.18-Apr-2020 2932.07 3431.48 63.21 1.00 206.23 1915.77
   00:42:49.742.18-Apr-2020 2932.07 3431.50 63.21 1.00 206.43 1915.77
   00:42:49.942.18-Apr-2020 2932.07 3431.50 63.21 1.00 206.63 1915.77
   00:42:50.142.18-Apr-2020 2932.07 3431.50 63.21 1.00 206.83 1915.77
