~Version Information
 VERS.                  2.0:   CWLS log ASCII Standard -VERSION 2.0
 WRAP.                   NO:   One line per depth step
~Well Information Block
#MNEM.UNIT     VALUE/NAME     DESCRIPTION
#---------     -----------    ---------------------------
 STRT.S             13:35:33 18-Apr-20: START TIME 13:35:33 18-Apr-20
 STOP.S             13:42:31 18-Apr-20: STOP TIME  13:42:31 18-Apr-20
 STEP.S                   0.00: STEP TIME
 NULL.                 -999.25: NULL VALUE
 DFWT.                        :  DIST FWL TEXT
 DFST.                        :  DIST FSL TEXT
 DMF .                        :  DRILL MEAS FROM
 STIM.      16.29.52 23-Mar-20:  START TIME
 DATE.      16.29.52 23-Mar-20:  END TIME
 SPUD.               23-Mar-20:  SPUD DATE
 NREF.                    Grid:  NORTH REFERENCE
 HPTY.       Minimum Curvature:  HOLE POS TYPE
 DMOD.             Drill Model:  DRILL MOD DESC
 SVYD.                  Survey:  SURVEY DESC
 ILTD.               Lithology:  INTERP LTH DESC
 FTOP.          Formation Tops:  FORM TOPS DESC
 SON .        AZ-XX-0906252240:  JOB NUMBER
 RIG .             West Chirag:  RIG NAME
 PDAT.          Mean Sea Level:  PERMANENT DATUM
 FLD .                     ACG:  FIELD NAME
 CTRY.              Azerbaijan:  COUNTRY NAME
 WELL.           J23 (Slot 07):  WELL NAME
 SRVC.          Turan Drilling:  CONTRACTOR
 COMP.     BP Exploration (Casoian Sea) Ltd:  COMPANY
 WTYP.                Deviated:  WELL TYPE
 MDS .        Operator Entered:  MAG DATA SOURCE
 UWI .                     N/A:  UNIQUE WELL IDENTIFIER
 API .                     N/A:  API NUMBER
 BASE.              Azerbaijan:  LOGGING EQUIPMENT BASE LOCATION
 REGN.                   EESSA:  REGION
 PROV.                    Baku:  PROVINCE
 STAT.                    Baku:  STATE NAME
 MWDS.                     N/A:  MWD SHOP
 JOBN.        AZ-XX-0906252240:  JOB TICKET NUMB
 DOE .                     N/A:  DOE NUMBER
 DCON.         Sperry Drilling:  DIRECTNL CONTR
 UNIT.                     N/A:  LOGGING EQUIPMENT ID
 CNTY.                        :  COUNTY
 LOC .                        :  LOCATION
 LMF .             Drill Floor:  LOG MEASURED FROM
 TVDS.m                  43.00:  TVDSS CORRECTN
 LATI.deg                40.13:  LATITUDE
 LONG.deg                51.22:  LONGITUDE
 WHNS.m                   9.43:  WELL HEAD N/S
 WHEW.m                  -8.91:  WELL HEAD E/W
 UTMX.m              519005.06:  UTM X
 UTMY.m             4443793.85:  UTM Y
 DFWL.m                   0.00:  DISTANCE FWL
 DFSL.m                   0.00:  DISTANCE FSL
 SDEP.m                   0.00:  START DEPTH
 TDD .m                   0.00:  TOTAL DEPTH (DRILLER)
 VSDR.deg               179.88:  VERT SEC DIRECT
 GVFD.g                   1.00:  GRAVITY FIELD
 MFLD.nT              50281.00:  MAGNETIC FIELD
 MDIP.deg                59.58:  MAGNETIC DIP
 MDEC.deg                 6.48:  MAGNETIC DECL
 GRDC.deg                 0.14:  GRID CORRECTION
 AZTC.deg                 6.34:  AZM TOTAL CORR
 EPD .m                   0.00:  ELEVATION
 EGL .m                   0.00:  GROUND ELEVATION
 WDMS.m                 169.80:  WD ELEV
 APD .m                  43.00:  DEPTH ABOVE PD
 DEP .m                 354.17:  DEPTH
 AGAP.m                  43.00:  AIR GAP
 VSEW.m                  -8.91:  VERT SEC E/W
 VSNS.m                   9.43:  VERT SEC N/S
 EKB .m                   0.00:  KB ELEVATION
 EDF .m                  43.00:  DF ELEVATION
 TDL .m                1326.00:  TOTAL DEPTH (LOGGER)
 VSC .                       0:  VS TO CLOSURE
 MAGU.                 1850704:  MAGUTM CHECKSUM
~Parameter Information Block
#MNEM.UNIT       Value        Description
#---------     -----------    ---------------------------
 AV  .mps                 1.17:  Ann Velocity 
 AZIF.deg               184.04:  Azm, Final 
 BHAT.        Rotary Steerable:  BHA Type 
 BREV.rev            620000.00:  Rev Bit Total 
 BROT.°/30m               0.20:  Build Rotating 
 BS  .in                 14.75:  Bit Size 
 BSZ .in                 14.75:  Bit Size 
 BTPL.psig              618.00:  Bit Press Loss 
 CABU.                      No:  Customer Abuse 
 COMM.                     ôÎT:  Run Comments 1 
 TCS .hr                 87.68:  Time Ciculation Ended 
 CV  .mps                 3.10:  Crit Velocity 
 DD1 .          Rashad Habibov:  Direct Drillr 1 
 DD2 .         Rasim Ibrahimov:  Direct Drillr 2 
 DDSV.               Geo-Pilot:  DD Service 
 DEFF.%                  98.00:  % Det Eff 
 DLRX.°/30m               1.48:  Dogleg Rot Max 
 DLSO.°/30m               0.50:  Dogleg Oriented 
 DLSX.°/30m               1.48:  Dogleg Str Max 
 DRET.      06.18.56 19-Apr-20:  Drill End Time 
 DRST.      15.00.56 15-Apr-20:  Drill Start Tim 
 DTIM.hr                 51.73:  Time Drilling 
 EDEP.m                3410.01:  End Depth 
 ENG1.        Marcelo Sandoval:  Engineer 1 
 ENG2.        Davud Huseynzade:  Engineer 2 
 ENG3.          Ruslan Safarov:  Engineer 3 
 ETIM.      04.00.56 20-Apr-20:  End Time 
 FLOI.gpm              1000.00:  Flow In 
 FLON.gpm               600.00:  Flow In Min 
 FLOS.cptm                0.00:  Fluid Loss 
 FLOX.gpm              1200.00:  Flow In Max 
 HFLO.                      No:  High Flow 
 HPRE.                     Yes:  High Pressure 
 HTEM.                      No:  High Temp 
 HYDO.m                   1.80:  Hydro Offset 
 IFIN.deg                70.04:  Inc, Final 
 IMAX.deg                70.56:  Inc Max 
 IMIN.deg                69.85:  Inc Min 
 IMND.m                3103.24:  Inc Min Depth 
 IMXD.m                2876.63:  Inc Max Depth 
 JARR.                      No:  Jarring 
 LETM.      06.18.56 19-Apr-20:  Log End Time 
 LOST.hr                     0:  Lost Rig Time 
 LSTM.      15.00.56 15-Apr-20:  Log Start Time 
 MDCL.ppm             42000.00:  Mud Chlorides 
 MDES.     Inversion Oil/Synthetic:  Mud Desc 
 DFD .sg                  1.58:  Mud Density 
 MDMN.sg                  1.58:  Dens Mud Min 
 MDMX.sg                  1.58:  Dens Mud Max 
 MOIL.                      71:  Run Mud Oil % 
 MOWR.                   71:29:  Run Mud OWR 
 MSND.                       0:  Run Mud Sand % 
 MSOL.                    23.3:  Run Mud Solids% 
 DFV .spqt               84.00:  Mud Viscosity 
 MWOD.in                  9.50:  MWD Tool OD 
 MWSI.                      No:  Serv Intrp, MWD 
 OTIM.hr                139.62:  Time Operating 
 PMAX.psia             5364.69:  Press Op, Max 
 PV  .cP                 80.00:  Mud PV 
 RUN .                     700:  Run Number 
 ROPA.m/hr               25.00:  ROP Avg 
 ROPN.m/hr               11.00:  ROP Min 
 ROPX.m/hr               36.00:  ROP Max 
 RPMA.rpm               130.00:  RPM Surface Avg 
 RPMN.rpm               120.00:  RPM Surface Min 
 RPMX.rpm               140.00:  RPM Surface Max 
 RRUN.                    0700:  Rig Run Number 
 SAZI.deg               183.25:  Azm, Start 
 SDEP.m                2084.00:  Start Depth 
 SIDD.                      No:  Serv Intrp, DD 
 SINC.deg                70.38:  Inc, Start 
 SPPA.psig             4800.00:  SPP Avg 
 SPPN.psig             4400.00:  SPP Min 
 SPPX.psig             5350.00:  SPP Max 
 STIM.      16.30.56 14-Apr-20:  Start Time 
 SVCS.                 DD, MWD:  Services 
 SVER.                    9.20:  Sperry Version 
 TDAT.m                1326.00:  Tot Depth Attmp 
 TDDF.                      No:  Trip for DD 
 TDLG.m                1326.00:  Tot Depth Loggd 
 TFF .                      No:  Trip for Fail 
 TQAA.f-kp               19.00:  Torque Abs Avg 
 TQAN.f-kp                8.00:  Torque Abs Min 
 TQAX.f-kp               27.00:  Torque Abs Max 
 TRRT.°/30m               0.50:  Turn Rotating 
 MRT .                    HCIM:  Maximum Recorded Temperature 
 TTMX.degC               82.35:  Max Tool Temp 
 VS01.       905245875X1Z1W1C8:  Virtual Str1 SN 
 VS02.       90608022F11V7D1A9:  Virtual Str2 SN 
 VS03.            90605473R5C9:  Virtual Str3 SN 
 WBMN.klb                11.00:  WOB Min 
 WOBA.klb                21.00:  WOB Avg 
 WOBX.klb                30.00:  WOB Max 
 YP  .lhf2               45.00:  Yield Point 
~Curve Information Block
#MNEM.UNIT                 API CODE     Curve Description
#---------               -----------    ---------------------------
 TIME.HHMMSS            00 000 000 000:  GT Time & Date
 GTDEPTH.m              00 000 000 000:  GT Depth
 GTPQH.psia             00 000 000 000:  GT HR Quartz Pressure
 GTTQ.degC              00 000 000 000:  GT Quartz Temperature
 GTTN.NONE              00 000 000 000:  GT Test Number
 GTET.sec               00 000 000 000:  GT Elapsed Test Time
 GTTVD.m                00 000 000 000:  GT True Vertical Depth
#Other Information
#
#WARRANTY: Halliburton will use its best efforts to furnish customers with 
#accurate information and interpretations that are part of, and incident to, the services 
#provided.  However, Halliburton cannot and does not warrant the accuracy 
#or correctness of such information and interpretations.  Under no circumstances should any 
#such information or interpretation be relied upon as the sole basis for any drilling, 
#completion, production, or financial decision or any procedure involving any risk to the 
#safety of any drilling venture, drilling rig or its crew or any other third party.  The 
#Customer has full responsibility for all drilling, completion and production operation.  
#Halliburton makes no representations or warranties, either expressed or 
#implied, including, but not limited to, the implied warranties of merchantability or fitness 
#for a particular purpose, with respect to the services rendered.  In no event will 
#Halliburton be liable for failure to obtain any particular results or for 
#any damages, including, but not limited to, indirect, special or consequential damages, 
#resulting from the use of any information or interpretation provided by Halliburton.
#
~A           TIME           GTDEPTH  GTPQH  GTTQ  GTTN  GTET   GTTVD  
# ...
   13:39:00.350.18-Apr-2020 3111.02 3318.25 70.23 5.00 207.09 1976.62
   13:39:00.550.18-Apr-2020 3111.02 3318.25 70.23 5.00 207.29 1976.62
   13:39:00.750.18-Apr-2020 3111.02 3318.24 70.23 5.00 207.49 1976.62
   13:39:00.951.18-Apr-2020 3111.02 3318.25 70.23 5.00 207.69 1976.62
   13:39:01.151.18-Apr-2020 3111.02 3318.25 70.23 5.00 207.89 1976.62
   13:39:01.351.18-Apr-2020 3111.02 3318.25 70.22 5.00 208.09 1976.62
   13:39:01.551.18-Apr-2020 3111.02 3318.25 70.22 5.00 208.29 1976.62
   13:39:01.751.18-Apr-2020 3111.02 3318.26 70.22 5.00 208.49 1976.62
   13:39:01.951.18-Apr-2020 3111.02 3318.24 70.22 5.00 208.69 1976.62
   13:39:02.151.18-Apr-2020 3111.02 3318.26 70.22 5.00 208.89 1976.62
   13:39:02.351.18-Apr-2020 3111.02 3318.27 70.22 5.00 209.09 1976.62
   13:39:02.551.18-Apr-2020 3111.02 3318.27 70.22 5.00 209.29 1976.62
   13:39:02.751.18-Apr-2020 3111.02 3318.26 70.22 5.00 209.49 1976.62
   13:39:02.951.18-Apr-2020 3111.02 3318.25 70.22 5.00 209.69 1976.62
   13:39:03.152.18-Apr-2020 3111.02 3318.24 70.22 5.00 209.89 1976.62
   13:39:03.352.18-Apr-2020 3111.02 3318.26 70.21 5.00 210.09 1976.62
   13:39:03.552.18-Apr-2020 3111.02 3318.26 70.21 5.00 210.29 1976.62
   13:39:03.752.18-Apr-2020 3111.02 3318.25 70.21 5.00 210.49 1976.62
   13:39:03.952.18-Apr-2020 3111.02 3318.23 70.21 5.00 210.69 1976.62
   13:39:04.152.18-Apr-2020 3111.02 3318.26 70.21 5.00 210.89 1976.62
   13:39:04.352.18-Apr-2020 3111.02 3318.25 70.21 5.00 211.09 1976.62
   13:39:04.552.18-Apr-2020 3111.02 3318.25 70.21 5.00 211.30 1976.62
   13:39:04.752.18-Apr-2020 3111.02 3318.26 70.21 5.00 211.50 1976.62
   13:39:04.952.18-Apr-2020 3111.02 3318.25 70.21 5.00 211.70 1976.62
   13:39:05.152.18-Apr-2020 3111.02 3318.25 70.20 5.00 211.90 1976.62
   13:39:05.353.18-Apr-2020 3111.02 3318.25 70.20 5.00 212.10 1976.62
   13:39:05.553.18-Apr-2020 3111.02 3318.25 70.20 5.00 212.30 1976.62
   13:39:05.753.18-Apr-2020 3111.02 3318.25 70.20 5.00 212.50 1976.62
   13:39:05.953.18-Apr-2020 3111.02 3318.25 70.20 5.00 212.70 1976.62
   13:39:06.153.18-Apr-2020 3111.02 3318.24 70.20 5.00 212.90 1976.62
   13:39:06.353.18-Apr-2020 3111.02 3318.26 70.20 5.00 213.10 1976.62
   13:39:06.553.18-Apr-2020 3111.02 3318.26 70.20 5.00 213.30 1976.62
   13:39:06.753.18-Apr-2020 3111.02 3318.26 70.20 5.00 213.50 1976.62
   13:39:06.953.18-Apr-2020 3111.02 3318.25 70.20 5.00 213.70 1976.62
   13:39:07.153.18-Apr-2020 3111.02 3318.27 70.19 5.00 213.90 1976.62
   13:39:07.353.18-Apr-2020 3111.02 3318.27 70.19 5.00 214.10 1976.62
   13:39:07.554.18-Apr-2020 3111.02 3318.27 70.19 5.00 214.30 1976.62
   13:39:07.754.18-Apr-2020 3111.02 3318.26 70.19 5.00 214.50 1976.62
   13:39:07.954.18-Apr-2020 3111.02 3318.27 70.19 5.00 214.70 1976.62
   13:39:08.154.18-Apr-2020 3111.02 3318.27 70.19 5.00 214.90 1976.62
   13:39:08.354.18-Apr-2020 3111.02 3318.25 70.19 5.00 215.10 1976.62
   13:39:08.554.18-Apr-2020 3111.02 3318.25 70.19 5.00 215.30 1976.62
   13:39:08.754.18-Apr-2020 3111.02 3318.26 70.19 5.00 215.50 1976.62
   13:39:08.954.18-Apr-2020 3111.02 3318.26 70.18 5.00 215.70 1976.62
   13:39:09.154.18-Apr-2020 3111.02 3318.25 70.18 5.00 215.90 1976.62
   13:39:09.354.18-Apr-2020 3111.02 3318.24 70.18 5.00 216.10 1976.62
   13:39:09.554.18-Apr-2020 3111.02 3318.24 70.18 5.00 216.30 1976.62
   13:39:09.755.18-Apr-2020 3111.02 3318.26 70.18 5.00 216.50 1976.62
   13:39:09.955.18-Apr-2020 3111.02 3318.25 70.18 5.00 216.70 1976.62
   13:39:10.155.18-Apr-2020 3111.02 3318.24 70.18 5.00 216.90 1976.62
   13:39:10.355.18-Apr-2020 3111.02 3318.26 70.18 5.00 217.10 1976.62
   13:39:10.555.18-Apr-2020 3111.02 3318.26 70.18 5.00 217.30 1976.62
   13:39:10.755.18-Apr-2020 3111.02 3318.26 70.18 5.00 217.50 1976.62
   13:39:10.955.18-Apr-2020 3111.02 3318.25 70.17 5.00 217.70 1976.62
   13:39:11.155.18-Apr-2020 3111.02 3318.25 70.17 5.00 217.90 1976.62
   13:39:11.355.18-Apr-2020 3111.02 3318.26 70.17 5.00 218.10 1976.62
   13:39:11.555.18-Apr-2020 3111.02 3318.26 70.17 5.00 218.30 1976.62
   13:39:11.755.18-Apr-2020 3111.02 3318.25 70.17 5.00 218.50 1976.62
   13:39:11.955.18-Apr-2020 3111.02 3318.25 70.17 5.00 218.70 1976.62
   13:39:12.156.18-Apr-2020 3111.02 3318.26 70.17 5.00 218.90 1976.62
   13:39:12.356.18-Apr-2020 3111.02 3318.25 70.17 5.00 219.10 1976.62
   13:39:12.556.18-Apr-2020 3111.02 3318.25 70.17 5.00 219.30 1976.62
   13:39:12.756.18-Apr-2020 3111.02 3318.25 70.16 5.00 219.50 1976.62
   13:39:12.956.18-Apr-2020 3111.02 3318.26 70.16 5.00 219.70 1976.62
   13:39:13.156.18-Apr-2020 3111.02 3318.25 70.16 5.00 219.90 1976.62
   13:39:13.356.18-Apr-2020 3111.02 3318.26 70.16 5.00 220.10 1976.62
   13:39:13.556.18-Apr-2020 3111.02 3318.26 70.16 5.00 220.30 1976.62
   13:39:13.756.18-Apr-2020 3111.02 3318.26 70.16 5.00 220.50 1976.62
   13:39:13.956.18-Apr-2020 3111.02 3318.27 70.16 5.00 220.70 1976.62
   13:39:14.156.18-Apr-2020 3111.02 3318.26 70.16 5.00 220.90 1976.62
   13:39:14.357.18-Apr-2020 3111.02 3318.27 70.16 5.00 221.10 1976.62
   13:39:14.557.18-Apr-2020 3111.02 3318.27 70.16 5.00 221.30 1976.62
   13:39:14.757.18-Apr-2020 3111.02 3318.25 70.15 5.00 221.50 1976.62
   13:39:14.957.18-Apr-2020 3111.02 3318.26 70.15 5.00 221.70 1976.62
   13:39:15.157.18-Apr-2020 3111.02 3318.26 70.15 5.00 221.90 1976.62
   13:39:15.357.18-Apr-2020 3111.02 3318.26 70.15 5.00 222.10 1976.62
   13:39:15.557.18-Apr-2020 3111.02 3318.26 70.15 5.00 222.30 1976.62
   13:39:15.757.18-Apr-2020 3111.02 3318.25 70.15 5.00 222.50 1976.62
   13:39:15.957.18-Apr-2020 3111.02 3318.25 70.15 5.00 222.70 1976.62
   13:39:16.157.18-Apr-2020 3111.02 3318.25 70.15 5.00 222.90 1976.62
   13:39:16.357.18-Apr-2020 3111.02 3318.25 70.15 5.00 223.10 1976.62
   13:39:16.558.18-Apr-2020 3111.02 3318.25 70.15 5.00 223.30 1976.62
   13:39:16.758.18-Apr-2020 3111.02 3318.26 70.14 5.00 223.50 1976.62
   13:39:16.958.18-Apr-2020 3111.02 3318.25 70.14 5.00 223.70 1976.62
   13:39:17.158.18-Apr-2020 3111.02 3318.27 70.14 5.00 223.90 1976.62
   13:39:17.358.18-Apr-2020 3111.02 3318.25 70.14 5.00 224.10 1976.62
   13:39:17.558.18-Apr-2020 3111.02 3318.25 70.14 5.00 224.30 1976.62
   13:39:17.758.18-Apr-2020 3111.02 3318.25 70.14 5.00 224.50 1976.62
   13:39:17.958.18-Apr-2020 3111.02 3318.26 70.14 5.00 224.70 1976.62
   13:39:18.158.18-Apr-2020 3111.02 3318.25 70.14 5.00 224.90 1976.62
   13:39:18.358.18-Apr-2020 3111.02 3318.25 70.14 5.00 225.10 1976.62
   13:39:18.558.18-Apr-2020 3111.02 3318.25 70.14 5.00 225.30 1976.62
   13:39:18.759.18-Apr-2020 3111.02 3318.24 70.13 5.00 225.50 1976.62
   13:39:18.959.18-Apr-2020 3111.02 3318.27 70.13 5.00 225.70 1976.62
   13:39:19.159.18-Apr-2020 3111.02 3318.25 70.13 5.00 225.90 1976.62
   13:39:19.359.18-Apr-2020 3111.02 3318.25 70.13 5.00 226.10 1976.62
   13:39:19.559.18-Apr-2020 3111.02 3318.25 70.13 5.00 226.30 1976.62
   13:39:19.759.18-Apr-2020 3111.02 3318.26 70.13 5.00 226.50 1976.62
   13:39:19.959.18-Apr-2020 3111.02 3318.26 70.13 5.00 226.70 1976.62
   13:39:20.159.18-Apr-2020 3111.02 3318.26 70.13 5.00 226.90 1976.62
   13:39:20.359.18-Apr-2020 3111.02 3318.25 70.13 5.00 227.10 1976.62
   13:39:20.559.18-Apr-2020 3111.02 3318.25 70.13 5.00 227.30 1976.62
   13:39:20.759.18-Apr-2020 3111.02 3318.27 70.12 5.00 227.50 1976.62
   13:39:20.960.18-Apr-2020 3111.02 3318.26 70.12 5.00 227.70 1976.62
   13:39:21.160.18-Apr-2020 3111.02 3318.26 70.12 5.00 227.90 1976.62
   13:39:21.360.18-Apr-2020 3111.02 3318.25 70.12 5.00 228.10 1976.62
   13:39:21.560.18-Apr-2020 3111.02 3318.25 70.12 5.00 228.30 1976.62
   13:39:21.760.18-Apr-2020 3111.02 3318.26 70.12 5.00 228.50 1976.62
   13:39:21.960.18-Apr-2020 3111.02 3318.27 70.12 5.00 228.70 1976.62
   13:39:22.160.18-Apr-2020 3111.02 3318.26 70.12 5.00 228.90 1976.62
   13:39:22.360.18-Apr-2020 3111.02 3318.26 70.11 5.00 229.10 1976.62
   13:39:22.560.18-Apr-2020 3111.02 3318.26 70.11 5.00 229.30 1976.62
   13:39:22.760.18-Apr-2020 3111.02 3318.28 70.11 5.00 229.50 1976.62
   13:39:22.960.18-Apr-2020 3111.02 3318.27 70.11 5.00 229.70 1976.62
   13:39:23.161.18-Apr-2020 3111.02 3318.26 70.11 5.00 229.90 1976.62
