~Version Information
 VERS.                  2.0:   CWLS log ASCII Standard -VERSION 2.0
 WRAP.                   NO:   One line per depth step
~Well Information Block
#MNEM.UNIT     VALUE/NAME     DESCRIPTION
#---------     -----------    ---------------------------
 STRT.S             11:18:22 18-Apr-20: START TIME 11:18:22 18-Apr-20
 STOP.S             11:25:23 18-Apr-20: STOP TIME  11:25:23 18-Apr-20
 STEP.S                   0.00: STEP TIME
 NULL.                 -999.25: NULL VALUE
 DFWT.                        :  DIST FWL TEXT
 DFST.                        :  DIST FSL TEXT
 DMF .                        :  DRILL MEAS FROM
 STIM.      16.29.52 23-Mar-20:  START TIME
 DATE.      16.29.52 23-Mar-20:  END TIME
 SPUD.               23-Mar-20:  SPUD DATE
 NREF.                    Grid:  NORTH REFERENCE
 HPTY.       Minimum Curvature:  HOLE POS TYPE
 DMOD.             Drill Model:  DRILL MOD DESC
 SVYD.                  Survey:  SURVEY DESC
 ILTD.               Lithology:  INTERP LTH DESC
 FTOP.          Formation Tops:  FORM TOPS DESC
 SON .        AZ-XX-0906252240:  JOB NUMBER
 RIG .             West Chirag:  RIG NAME
 PDAT.          Mean Sea Level:  PERMANENT DATUM
 FLD .                     ACG:  FIELD NAME
 CTRY.              Azerbaijan:  COUNTRY NAME
 WELL.           J23 (Slot 07):  WELL NAME
 SRVC.          Turan Drilling:  CONTRACTOR
 COMP.     BP Exploration (Casoian Sea) Ltd:  COMPANY
 WTYP.                Deviated:  WELL TYPE
 MDS .        Operator Entered:  MAG DATA SOURCE
 UWI .                     N/A:  UNIQUE WELL IDENTIFIER
 API .                     N/A:  API NUMBER
 BASE.              Azerbaijan:  LOGGING EQUIPMENT BASE LOCATION
 REGN.                   EESSA:  REGION
 PROV.                    Baku:  PROVINCE
 STAT.                    Baku:  STATE NAME
 MWDS.                     N/A:  MWD SHOP
 JOBN.        AZ-XX-0906252240:  JOB TICKET NUMB
 DOE .                     N/A:  DOE NUMBER
 DCON.         Sperry Drilling:  DIRECTNL CONTR
 UNIT.                     N/A:  LOGGING EQUIPMENT ID
 CNTY.                        :  COUNTY
 LOC .                        :  LOCATION
 LMF .             Drill Floor:  LOG MEASURED FROM
 TVDS.m                  43.00:  TVDSS CORRECTN
 LATI.deg                40.13:  LATITUDE
 LONG.deg                51.22:  LONGITUDE
 WHNS.m                   9.43:  WELL HEAD N/S
 WHEW.m                  -8.91:  WELL HEAD E/W
 UTMX.m              519005.06:  UTM X
 UTMY.m             4443793.85:  UTM Y
 DFWL.m                   0.00:  DISTANCE FWL
 DFSL.m                   0.00:  DISTANCE FSL
 SDEP.m                   0.00:  START DEPTH
 TDD .m                   0.00:  TOTAL DEPTH (DRILLER)
 VSDR.deg               179.88:  VERT SEC DIRECT
 GVFD.g                   1.00:  GRAVITY FIELD
 MFLD.nT              50281.00:  MAGNETIC FIELD
 MDIP.deg                59.58:  MAGNETIC DIP
 MDEC.deg                 6.48:  MAGNETIC DECL
 GRDC.deg                 0.14:  GRID CORRECTION
 AZTC.deg                 6.34:  AZM TOTAL CORR
 EPD .m                   0.00:  ELEVATION
 EGL .m                   0.00:  GROUND ELEVATION
 WDMS.m                 169.80:  WD ELEV
 APD .m                  43.00:  DEPTH ABOVE PD
 DEP .m                 354.17:  DEPTH
 AGAP.m                  43.00:  AIR GAP
 VSEW.m                  -8.91:  VERT SEC E/W
 VSNS.m                   9.43:  VERT SEC N/S
 EKB .m                   0.00:  KB ELEVATION
 EDF .m                  43.00:  DF ELEVATION
 TDL .m                1326.00:  TOTAL DEPTH (LOGGER)
 VSC .                       0:  VS TO CLOSURE
 MAGU.                 1850704:  MAGUTM CHECKSUM
~Parameter Information Block
#MNEM.UNIT       Value        Description
#---------     -----------    ---------------------------
 AV  .mps                 1.17:  Ann Velocity 
 AZIF.deg               184.04:  Azm, Final 
 BHAT.        Rotary Steerable:  BHA Type 
 BREV.rev            620000.00:  Rev Bit Total 
 BROT.°/30m               0.20:  Build Rotating 
 BS  .in                 14.75:  Bit Size 
 BSZ .in                 14.75:  Bit Size 
 BTPL.psig              618.00:  Bit Press Loss 
 CABU.                      No:  Customer Abuse 
 TCS .hr                 87.68:  Time Ciculation Ended 
 CV  .mps                 3.10:  Crit Velocity 
 DD1 .          Rashad Habibov:  Direct Drillr 1 
 DD2 .         Rasim Ibrahimov:  Direct Drillr 2 
 DDSV.               Geo-Pilot:  DD Service 
 DEFF.%                  98.00:  % Det Eff 
 DLRX.°/30m               1.48:  Dogleg Rot Max 
 DLSO.°/30m               0.50:  Dogleg Oriented 
 DLSX.°/30m               1.48:  Dogleg Str Max 
 DRET.      06.18.56 19-Apr-20:  Drill End Time 
 DRST.      15.00.56 15-Apr-20:  Drill Start Tim 
 DTIM.hr                 51.73:  Time Drilling 
 EDEP.m                3410.01:  End Depth 
 ENG1.        Marcelo Sandoval:  Engineer 1 
 ENG2.        Davud Huseynzade:  Engineer 2 
 ENG3.          Ruslan Safarov:  Engineer 3 
 ETIM.      04.00.56 20-Apr-20:  End Time 
 FLOI.gpm              1000.00:  Flow In 
 FLON.gpm               600.00:  Flow In Min 
 FLOS.cptm                0.00:  Fluid Loss 
 FLOX.gpm              1200.00:  Flow In Max 
 HFLO.                      No:  High Flow 
 HPRE.                     Yes:  High Pressure 
 HTEM.                      No:  High Temp 
 HYDO.m                   1.80:  Hydro Offset 
 IFIN.deg                70.04:  Inc, Final 
 IMAX.deg                70.56:  Inc Max 
 IMIN.deg                69.85:  Inc Min 
 IMND.m                3103.24:  Inc Min Depth 
 IMXD.m                2876.63:  Inc Max Depth 
 JARR.                      No:  Jarring 
 LETM.      06.18.56 19-Apr-20:  Log End Time 
 LOST.hr                     0:  Lost Rig Time 
 LSTM.      15.00.56 15-Apr-20:  Log Start Time 
 MDCL.ppm             42000.00:  Mud Chlorides 
 MDES.     Inversion Oil/Synthetic:  Mud Desc 
 DFD .sg                  1.58:  Mud Density 
 MDMN.sg                  1.58:  Dens Mud Min 
 MDMX.sg                  1.58:  Dens Mud Max 
 MOIL.                      71:  Run Mud Oil % 
 MOWR.                   71:29:  Run Mud OWR 
 MSND.                       0:  Run Mud Sand % 
 MSOL.                    23.3:  Run Mud Solids% 
 DFV .spqt               84.00:  Mud Viscosity 
 MWOD.in                  9.50:  MWD Tool OD 
 MWSI.                      No:  Serv Intrp, MWD 
 OTIM.hr                139.62:  Time Operating 
 PMAX.psia             5364.69:  Press Op, Max 
 PV  .cP                 80.00:  Mud PV 
 RUN .                     700:  Run Number 
 ROPA.m/hr               25.00:  ROP Avg 
 ROPN.m/hr               11.00:  ROP Min 
 ROPX.m/hr               36.00:  ROP Max 
 RPMA.rpm               130.00:  RPM Surface Avg 
 RPMN.rpm               120.00:  RPM Surface Min 
 RPMX.rpm               140.00:  RPM Surface Max 
 RRUN.                    0700:  Rig Run Number 
 SAZI.deg               183.25:  Azm, Start 
 SDEP.m                2084.00:  Start Depth 
 SIDD.                      No:  Serv Intrp, DD 
 SINC.deg                70.38:  Inc, Start 
 SPPA.psig             4800.00:  SPP Avg 
 SPPN.psig             4400.00:  SPP Min 
 SPPX.psig             5350.00:  SPP Max 
 STIM.      16.30.56 14-Apr-20:  Start Time 
 SVCS.                 DD, MWD:  Services 
 SVER.                    9.20:  Sperry Version 
 TDAT.m                1326.00:  Tot Depth Attmp 
 TDDF.                      No:  Trip for DD 
 TDLG.m                1326.00:  Tot Depth Loggd 
 TFF .                      No:  Trip for Fail 
 TQAA.f-kp               19.00:  Torque Abs Avg 
 TQAN.f-kp                8.00:  Torque Abs Min 
 TQAX.f-kp               27.00:  Torque Abs Max 
 TRRT.°/30m               0.50:  Turn Rotating 
 MRT .                    HCIM:  Maximum Recorded Temperature 
 TTMX.degC               82.35:  Max Tool Temp 
 VS01.       905245875X1Z1W1C8:  Virtual Str1 SN 
 VS02.       90608022F11V7D1A9:  Virtual Str2 SN 
 VS03.            90605473R5C9:  Virtual Str3 SN 
 WBMN.klb                11.00:  WOB Min 
 WOBA.klb                21.00:  WOB Avg 
 WOBX.klb                30.00:  WOB Max 
 YP  .lhf2               45.00:  Yield Point 
~Curve Information Block
#MNEM.UNIT                 API CODE     Curve Description
#---------               -----------    ---------------------------
 TIME.HHMMSS            00 000 000 000:  GT Time & Date
 GTDEPTH.m              00 000 000 000:  GT Depth
 GTPQH.psia             00 000 000 000:  GT HR Quartz Pressure
 GTTQ.degC              00 000 000 000:  GT Quartz Temperature
 GTTN.NONE              00 000 000 000:  GT Test Number
 GTET.sec               00 000 000 000:  GT Elapsed Test Time
 GTTVD.m                00 000 000 000:  GT True Vertical Depth
#Other Information
#
#WARRANTY: Halliburton will use its best efforts to furnish customers with 
#accurate information and interpretations that are part of, and incident to, the services 
#provided.  However, Halliburton cannot and does not warrant the accuracy 
#or correctness of such information and interpretations.  Under no circumstances should any 
#such information or interpretation be relied upon as the sole basis for any drilling, 
#completion, production, or financial decision or any procedure involving any risk to the 
#safety of any drilling venture, drilling rig or its crew or any other third party.  The 
#Customer has full responsibility for all drilling, completion and production operation.  
#Halliburton makes no representations or warranties, either expressed or 
#implied, including, but not limited to, the implied warranties of merchantability or fitness 
#for a particular purpose, with respect to the services rendered.  In no event will 
#Halliburton be liable for failure to obtain any particular results or for 
#any damages, including, but not limited to, indirect, special or consequential damages, 
#resulting from the use of any information or interpretation provided by Halliburton.
#
~A           TIME           GTDEPTH  GTPQH  GTTQ  GTTN  GTET   GTTVD  
# ...
   11:22:58.606.18-Apr-2020 3074.89 3315.66 68.99 4.00 276.04 1964.21
   11:22:58.806.18-Apr-2020 3074.89 3315.66 68.99 4.00 276.24 1964.21
   11:22:59.006.18-Apr-2020 3074.89 3315.66 68.99 4.00 276.44 1964.21
   11:22:59.206.18-Apr-2020 3074.89 3315.66 68.99 4.00 276.64 1964.21
   11:22:59.406.18-Apr-2020 3074.89 3315.67 68.99 4.00 276.84 1964.21
   11:22:59.606.18-Apr-2020 3074.89 3315.66 68.99 4.00 277.04 1964.21
   11:22:59.806.18-Apr-2020 3074.89 3315.66 68.99 4.00 277.24 1964.21
   11:23:00.006.18-Apr-2020 3074.89 3315.68 68.98 4.00 277.44 1964.21
   11:23:00.206.18-Apr-2020 3074.89 3315.66 68.98 4.00 277.64 1964.21
   11:23:00.406.18-Apr-2020 3074.89 3315.65 68.98 4.00 277.84 1964.21
   11:23:00.606.18-Apr-2020 3074.89 3315.67 68.98 4.00 278.04 1964.21
   11:23:00.806.18-Apr-2020 3074.89 3315.67 68.98 4.00 278.24 1964.21
   11:23:01.006.18-Apr-2020 3074.89 3315.67 68.98 4.00 278.44 1964.21
   11:23:01.206.18-Apr-2020 3074.89 3308.43 68.98 4.00 278.64 1964.21
   11:23:01.406.18-Apr-2020 3074.89 3301.58 68.98 4.00 278.84 1964.21
   11:23:01.606.18-Apr-2020 3074.89 3301.85 68.98 4.00 279.04 1964.21
   11:23:01.806.18-Apr-2020 3074.89 3301.85 68.98 4.00 279.24 1964.21
   11:23:02.006.18-Apr-2020 3074.89 3301.74 68.98 4.00 279.44 1964.21
   11:23:02.206.18-Apr-2020 3074.89 3301.62 68.97 4.00 279.64 1964.21
   11:23:02.406.18-Apr-2020 3074.89 3301.51 68.97 4.00 279.84 1964.21
   11:23:02.606.18-Apr-2020 3074.89 3301.29 68.97 4.00 280.04 1964.21
   11:23:02.806.18-Apr-2020 3074.89 3301.29 68.97 4.00 280.24 1964.21
   11:23:03.006.18-Apr-2020 3074.89 3301.61 68.97 4.00 280.44 1964.21
   11:23:03.206.18-Apr-2020 3074.89 3301.39 68.97 4.00 280.64 1964.21
   11:23:03.406.18-Apr-2020 3074.89 3301.64 68.97 4.00 280.84 1964.21
   11:23:03.606.18-Apr-2020 3074.89 3301.56 68.97 4.00 281.04 1964.21
   11:23:03.806.18-Apr-2020 3074.89 3301.56 68.97 4.00 281.24 1964.21
   11:23:04.006.18-Apr-2020 3074.89 3301.57 68.97 4.00 281.44 1964.21
   11:23:04.206.18-Apr-2020 3074.89 3301.72 68.97 4.00 281.64 1964.21
   11:23:04.406.18-Apr-2020 3074.89 3301.80 68.96 4.00 281.84 1964.21
   11:23:04.606.18-Apr-2020 3074.89 3301.82 68.96 4.00 282.04 1964.21
   11:23:04.806.18-Apr-2020 3074.89 3301.82 68.96 4.00 282.24 1964.21
   11:23:05.006.18-Apr-2020 3074.89 3301.78 68.96 4.00 282.44 1964.21
   11:23:05.206.18-Apr-2020 3074.89 3301.89 68.96 4.00 282.64 1964.21
   11:23:05.406.18-Apr-2020 3074.89 3302.06 68.96 4.00 282.84 1964.21
   11:23:05.606.18-Apr-2020 3074.89 3302.09 68.96 4.00 283.04 1964.21
   11:23:05.806.18-Apr-2020 3074.89 3302.09 68.96 4.00 283.24 1964.21
   11:23:06.007.18-Apr-2020 3074.89 3302.17 68.96 4.00 283.44 1964.21
   11:23:06.207.18-Apr-2020 3074.89 3302.12 68.96 4.00 283.64 1964.21
   11:23:06.407.18-Apr-2020 3074.89 3302.51 68.96 4.00 283.84 1964.21
   11:23:06.607.18-Apr-2020 3074.89 3302.39 68.95 4.00 284.04 1964.21
   11:23:06.807.18-Apr-2020 3074.89 3302.39 68.95 4.00 284.24 1964.21
   11:23:07.007.18-Apr-2020 3074.89 3302.44 68.95 4.00 284.44 1964.21
   11:23:07.207.18-Apr-2020 3074.89 3302.47 68.95 4.00 284.64 1964.21
   11:23:07.407.18-Apr-2020 3074.89 3302.61 68.95 4.00 284.84 1964.21
   11:23:07.607.18-Apr-2020 3074.89 3302.59 68.95 4.00 285.04 1964.21
   11:23:07.807.18-Apr-2020 3074.89 3302.59 68.95 4.00 285.24 1964.21
   11:23:08.007.18-Apr-2020 3074.89 3302.71 68.95 4.00 285.44 1964.21
   11:23:08.207.18-Apr-2020 3074.89 3302.74 68.95 4.00 285.64 1964.21
   11:23:08.407.18-Apr-2020 3074.89 3302.88 68.95 4.00 285.84 1964.21
   11:23:08.607.18-Apr-2020 3074.89 3302.72 68.95 4.00 286.04 1964.21
   11:23:08.807.18-Apr-2020 3074.89 3302.72 68.95 4.00 286.24 1964.21
   11:23:09.007.18-Apr-2020 3074.89 3303.02 68.94 4.00 286.44 1964.21
   11:23:09.207.18-Apr-2020 3074.89 3303.00 68.94 4.00 286.64 1964.21
   11:23:09.407.18-Apr-2020 3074.89 3302.93 68.94 4.00 286.84 1964.21
   11:23:09.607.18-Apr-2020 3074.89 3303.16 68.94 4.00 287.04 1964.21
   11:23:09.807.18-Apr-2020 3074.89 3303.16 68.94 4.00 287.24 1964.21
   11:23:10.007.18-Apr-2020 3074.89 3315.60 68.94 4.00 287.44 1964.21
   11:23:10.207.18-Apr-2020 3074.89 3315.68 68.94 4.00 287.64 1964.21
   11:23:10.407.18-Apr-2020 3074.89 3315.71 68.94 4.00 287.84 1964.21
   11:23:10.607.18-Apr-2020 3074.89 3315.70 68.94 4.00 288.04 1964.21
   11:23:10.807.18-Apr-2020 3074.89 3315.70 68.94 4.00 288.24 1964.21
   11:23:11.007.18-Apr-2020 3074.89 3315.72 68.93 4.00 288.44 1964.21
   11:23:11.207.18-Apr-2020 3074.89 3315.73 68.93 4.00 288.64 1964.21
   11:23:11.407.18-Apr-2020 3074.89 3315.72 68.93 4.00 288.84 1964.21
   11:23:11.607.18-Apr-2020 3074.89 3315.70 68.93 4.00 289.04 1964.21
   11:23:11.807.18-Apr-2020 3074.89 3315.70 68.93 4.00 289.24 1964.21
   11:23:12.007.18-Apr-2020 3074.89 3315.72 68.93 4.00 289.44 1964.21
   11:23:12.207.18-Apr-2020 3074.89 3315.69 68.93 4.00 289.64 1964.21
   11:23:12.407.18-Apr-2020 3074.89 3315.72 68.93 4.00 289.84 1964.21
   11:23:12.607.18-Apr-2020 3074.89 3315.71 68.93 4.00 290.04 1964.21
   11:23:12.807.18-Apr-2020 3074.89 3315.71 68.93 4.00 290.24 1964.21
   11:23:13.007.18-Apr-2020 3074.89 3315.69 68.93 4.00 290.44 1964.21
   11:23:13.207.18-Apr-2020 3074.89 3315.70 68.93 4.00 290.64 1964.21
   11:23:13.408.18-Apr-2020 3074.89 3315.70 68.92 4.00 290.84 1964.21
   11:23:13.608.18-Apr-2020 3074.89 3315.69 68.92 4.00 291.04 1964.21
   11:23:13.808.18-Apr-2020 3074.89 3315.69 68.92 4.00 291.24 1964.21
   11:23:14.008.18-Apr-2020 3074.89 3315.68 68.92 4.00 291.44 1964.21
   11:23:14.208.18-Apr-2020 3074.89 3315.69 68.92 4.00 291.64 1964.21
   11:23:14.408.18-Apr-2020 3074.89 3315.69 68.92 4.00 291.84 1964.21
   11:23:14.608.18-Apr-2020 3074.89 3315.68 68.92 4.00 292.04 1964.21
   11:23:14.808.18-Apr-2020 3074.89 3315.68 68.92 4.00 292.24 1964.21
   11:23:15.008.18-Apr-2020 3074.89 3315.70 68.92 4.00 292.44 1964.21
   11:23:15.208.18-Apr-2020 3074.89 3315.68 68.92 4.00 292.64 1964.21
   11:23:15.408.18-Apr-2020 3074.89 3315.72 68.92 4.00 292.84 1964.21
   11:23:15.608.18-Apr-2020 3074.89 3315.71 68.91 4.00 293.04 1964.21
   11:23:15.808.18-Apr-2020 3074.89 3315.71 68.91 4.00 293.24 1964.21
   11:23:16.008.18-Apr-2020 3074.89 3315.70 68.91 4.00 293.44 1964.21
   11:23:16.208.18-Apr-2020 3074.89 3315.70 68.91 4.00 293.64 1964.21
   11:23:16.408.18-Apr-2020 3074.89 3315.70 68.91 4.00 293.84 1964.21
   11:23:16.608.18-Apr-2020 3074.89 3315.69 68.91 4.00 294.04 1964.21
   11:23:16.808.18-Apr-2020 3074.89 3315.69 68.91 4.00 294.24 1964.21
   11:23:17.008.18-Apr-2020 3074.89 3315.69 68.91 4.00 294.44 1964.21
   11:23:17.208.18-Apr-2020 3074.89 3315.69 68.91 4.00 294.64 1964.21
   11:23:17.408.18-Apr-2020 3074.89 3315.69 68.91 4.00 294.84 1964.21
   11:23:17.608.18-Apr-2020 3074.89 3315.69 68.91 4.00 295.04 1964.21
   11:23:17.808.18-Apr-2020 3074.89 3315.69 68.91 4.00 295.24 1964.21
   11:23:18.008.18-Apr-2020 3074.89 3315.70 68.90 4.00 295.44 1964.21
   11:23:18.208.18-Apr-2020 3074.89 3315.69 68.90 4.00 295.64 1964.21
   11:23:18.408.18-Apr-2020 3074.89 3315.67 68.90 4.00 295.84 1964.21
   11:23:18.608.18-Apr-2020 3074.89 3315.70 68.90 4.00 296.04 1964.21
   11:23:18.808.18-Apr-2020 3074.89 3315.70 68.90 4.00 296.24 1964.21
   11:23:19.008.18-Apr-2020 3074.89 3315.69 68.90 4.00 296.44 1964.21
   11:23:19.208.18-Apr-2020 3074.89 3315.69 68.90 4.00 296.64 1964.21
   11:23:19.408.18-Apr-2020 3074.89 3315.67 68.90 4.00 296.84 1964.21
   11:23:19.608.18-Apr-2020 3074.89 3315.68 68.90 4.00 297.04 1964.21
   11:23:19.808.18-Apr-2020 3074.89 3315.68 68.90 4.00 297.24 1964.21
   11:23:20.008.18-Apr-2020 3074.89 3315.68 68.89 4.00 297.44 1964.21
   11:23:20.208.18-Apr-2020 3074.89 3315.69 68.89 4.00 297.64 1964.21
   11:23:20.408.18-Apr-2020 3074.89 3315.67 68.89 4.00 297.84 1964.21
   11:23:20.608.18-Apr-2020 3074.89 3315.68 68.89 4.00 298.04 1964.21
   11:23:20.808.18-Apr-2020 3074.89 3315.68 68.89 4.00 298.24 1964.21
   11:23:21.009.18-Apr-2020 3074.89 3315.69 68.89 4.00 298.44 1964.21
   11:23:21.209.18-Apr-2020 3074.89 3315.69 68.89 4.00 298.64 1964.21
   11:23:21.409.18-Apr-2020 3074.89 3315.69 68.89 4.00 298.84 1964.21
