~Version Information
 VERS.                  2.0:   CWLS log ASCII Standard -VERSION 2.0
 WRAP.                   NO:   One line per depth step
~Well Information Block
#MNEM.UNIT     VALUE/NAME     DESCRIPTION
#---------     -----------    ---------------------------
 STRT.S             00:39:23 18-Apr-20: START TIME 00:39:23 18-Apr-20
 STOP.S             00:46:19 18-Apr-20: STOP TIME  00:46:19 18-Apr-20
 STEP.S                   0.00: STEP TIME
 NULL.                 -999.25: NULL VALUE
 DFWT.                        :  DIST FWL TEXT
 DFST.                        :  DIST FSL TEXT
 DMF .                        :  DRILL MEAS FROM
 STIM.      16.29.52 23-Mar-20:  START TIME
 DATE.      16.29.52 23-Mar-20:  END TIME
 SPUD.               23-Mar-20:  SPUD DATE
 NREF.                    Grid:  NORTH REFERENCE
 HPTY.       Minimum Curvature:  HOLE POS TYPE
 DMOD.             Drill Model:  DRILL MOD DESC
 SVYD.                  Survey:  SURVEY DESC
 ILTD.               Lithology:  INTERP LTH DESC
 FTOP.          Formation Tops:  FORM TOPS DESC
 SON .        AZ-XX-0906252240:  JOB NUMBER
 RIG .             West Chirag:  RIG NAME
 PDAT.          Mean Sea Level:  PERMANENT DATUM
 FLD .                     ACG:  FIELD NAME
 CTRY.              Azerbaijan:  COUNTRY NAME
 WELL.           J23 (Slot 07):  WELL NAME
 SRVC.          Turan Drilling:  CONTRACTOR
 COMP.     BP Exploration (Casoian Sea) Ltd:  COMPANY
 WTYP.                Deviated:  WELL TYPE
 MDS .        Operator Entered:  MAG DATA SOURCE
 UWI .                     N/A:  UNIQUE WELL IDENTIFIER
 API .                     N/A:  API NUMBER
 BASE.              Azerbaijan:  LOGGING EQUIPMENT BASE LOCATION
 REGN.                   EESSA:  REGION
 PROV.                    Baku:  PROVINCE
 STAT.                    Baku:  STATE NAME
 MWDS.                     N/A:  MWD SHOP
 JOBN.        AZ-XX-0906252240:  JOB TICKET NUMB
 DOE .                     N/A:  DOE NUMBER
 DCON.         Sperry Drilling:  DIRECTNL CONTR
 UNIT.                     N/A:  LOGGING EQUIPMENT ID
 CNTY.                        :  COUNTY
 LOC .                        :  LOCATION
 LMF .             Drill Floor:  LOG MEASURED FROM
 TVDS.m                  43.00:  TVDSS CORRECTN
 LATI.deg                40.13:  LATITUDE
 LONG.deg                51.22:  LONGITUDE
 WHNS.m                   9.43:  WELL HEAD N/S
 WHEW.m                  -8.91:  WELL HEAD E/W
 UTMX.m              519005.06:  UTM X
 UTMY.m             4443793.85:  UTM Y
 DFWL.m                   0.00:  DISTANCE FWL
 DFSL.m                   0.00:  DISTANCE FSL
 SDEP.m                   0.00:  START DEPTH
 TDD .m                   0.00:  TOTAL DEPTH (DRILLER)
 VSDR.deg               179.88:  VERT SEC DIRECT
 GVFD.g                   1.00:  GRAVITY FIELD
 MFLD.nT              50281.00:  MAGNETIC FIELD
 MDIP.deg                59.58:  MAGNETIC DIP
 MDEC.deg                 6.48:  MAGNETIC DECL
 GRDC.deg                 0.14:  GRID CORRECTION
 AZTC.deg                 6.34:  AZM TOTAL CORR
 EPD .m                   0.00:  ELEVATION
 EGL .m                   0.00:  GROUND ELEVATION
 WDMS.m                 169.80:  WD ELEV
 APD .m                  43.00:  DEPTH ABOVE PD
 DEP .m                 354.17:  DEPTH
 AGAP.m                  43.00:  AIR GAP
 VSEW.m                  -8.91:  VERT SEC E/W
 VSNS.m                   9.43:  VERT SEC N/S
 EKB .m                   0.00:  KB ELEVATION
 EDF .m                  43.00:  DF ELEVATION
 TDL .m                1326.00:  TOTAL DEPTH (LOGGER)
 VSC .                       0:  VS TO CLOSURE
 MAGU.                 1850704:  MAGUTM CHECKSUM
~Parameter Information Block
#MNEM.UNIT       Value        Description
#---------     -----------    ---------------------------
 AV  .mps                 1.17:  Ann Velocity 
 AZIF.deg               184.04:  Azm, Final 
 BHAT.        Rotary Steerable:  BHA Type 
 BREV.rev            620000.00:  Rev Bit Total 
 BROT.°/30m               0.20:  Build Rotating 
 BS  .in                 14.75:  Bit Size 
 BSZ .in                 14.75:  Bit Size 
 BTPL.psig              618.00:  Bit Press Loss 
 CABU.                      No:  Customer Abuse 
 COMM.                     TŠT:  Run Comments 1 
 TCS .hr                 87.68:  Time Ciculation Ended 
 CV  .mps                 3.10:  Crit Velocity 
 DD1 .          Rashad Habibov:  Direct Drillr 1 
 DD2 .         Rasim Ibrahimov:  Direct Drillr 2 
 DDSV.               Geo-Pilot:  DD Service 
 DEFF.%                  98.00:  % Det Eff 
 DLRX.°/30m               1.48:  Dogleg Rot Max 
 DLSO.°/30m               0.50:  Dogleg Oriented 
 DLSX.°/30m               1.48:  Dogleg Str Max 
 DRET.      06.18.56 19-Apr-20:  Drill End Time 
 DRST.      15.00.56 15-Apr-20:  Drill Start Tim 
 DTIM.hr                 51.73:  Time Drilling 
 EDEP.m                3410.01:  End Depth 
 ENG1.        Marcelo Sandoval:  Engineer 1 
 ENG2.        Davud Huseynzade:  Engineer 2 
 ENG3.          Ruslan Safarov:  Engineer 3 
 ETIM.      04.00.56 20-Apr-20:  End Time 
 FLOI.gpm              1000.00:  Flow In 
 FLON.gpm               600.00:  Flow In Min 
 FLOS.cptm                0.00:  Fluid Loss 
 FLOX.gpm              1200.00:  Flow In Max 
 HFLO.                      No:  High Flow 
 HPRE.                     Yes:  High Pressure 
 HTEM.                      No:  High Temp 
 HYDO.m                   1.80:  Hydro Offset 
 IFIN.deg                70.04:  Inc, Final 
 IMAX.deg                70.56:  Inc Max 
 IMIN.deg                69.85:  Inc Min 
 IMND.m                3103.24:  Inc Min Depth 
 IMXD.m                2876.63:  Inc Max Depth 
 JARR.                      No:  Jarring 
 LETM.      06.18.56 19-Apr-20:  Log End Time 
 LOST.hr                     0:  Lost Rig Time 
 LSTM.      15.00.56 15-Apr-20:  Log Start Time 
 MDCL.ppm             42000.00:  Mud Chlorides 
 MDES.     Inversion Oil/Synthetic:  Mud Desc 
 DFD .sg                  1.58:  Mud Density 
 MDMN.sg                  1.58:  Dens Mud Min 
 MDMX.sg                  1.58:  Dens Mud Max 
 MOIL.                      71:  Run Mud Oil % 
 MOWR.                   71:29:  Run Mud OWR 
 MSND.                       0:  Run Mud Sand % 
 MSOL.                    23.3:  Run Mud Solids% 
 DFV .spqt               84.00:  Mud Viscosity 
 MWOD.in                  9.50:  MWD Tool OD 
 MWSI.                      No:  Serv Intrp, MWD 
 OTIM.hr                139.62:  Time Operating 
 PMAX.psia             5364.69:  Press Op, Max 
 PV  .cP                 80.00:  Mud PV 
 RUN .                     700:  Run Number 
 ROPA.m/hr               25.00:  ROP Avg 
 ROPN.m/hr               11.00:  ROP Min 
 ROPX.m/hr               36.00:  ROP Max 
 RPMA.rpm               130.00:  RPM Surface Avg 
 RPMN.rpm               120.00:  RPM Surface Min 
 RPMX.rpm               140.00:  RPM Surface Max 
 RRUN.                    0700:  Rig Run Number 
 SAZI.deg               183.25:  Azm, Start 
 SDEP.m                2084.00:  Start Depth 
 SIDD.                      No:  Serv Intrp, DD 
 SINC.deg                70.38:  Inc, Start 
 SPPA.psig             4800.00:  SPP Avg 
 SPPN.psig             4400.00:  SPP Min 
 SPPX.psig             5350.00:  SPP Max 
 STIM.      16.30.56 14-Apr-20:  Start Time 
 SVCS.                 DD, MWD:  Services 
 SVER.                    9.20:  Sperry Version 
 TDAT.m                1326.00:  Tot Depth Attmp 
 TDDF.                      No:  Trip for DD 
 TDLG.m                1326.00:  Tot Depth Loggd 
 TFF .                      No:  Trip for Fail 
 TQAA.f-kp               19.00:  Torque Abs Avg 
 TQAN.f-kp                8.00:  Torque Abs Min 
 TQAX.f-kp               27.00:  Torque Abs Max 
 TRRT.°/30m               0.50:  Turn Rotating 
 MRT .                    HCIM:  Maximum Recorded Temperature 
 TTMX.degC               82.35:  Max Tool Temp 
 VS01.       905245875X1Z1W1C8:  Virtual Str1 SN 
 VS02.       90608022F11V7D1A9:  Virtual Str2 SN 
 VS03.            90605473R5C9:  Virtual Str3 SN 
 WBMN.klb                11.00:  WOB Min 
 WOBA.klb                21.00:  WOB Avg 
 WOBX.klb                30.00:  WOB Max 
 YP  .lhf2               45.00:  Yield Point 
~Curve Information Block
#MNEM.UNIT                 API CODE     Curve Description
#---------               -----------    ---------------------------
 TIME.HHMMSS            00 000 000 000:  GT Time & Date
 GTDEPTH.m              00 000 000 000:  GT Depth
 GTPQH.psia             00 000 000 000:  GT HR Quartz Pressure
 GTTQ.degC              00 000 000 000:  GT Quartz Temperature
 GTTN.NONE              00 000 000 000:  GT Test Number
 GTET.sec               00 000 000 000:  GT Elapsed Test Time
 GTTVD.m                00 000 000 000:  GT True Vertical Depth
#Other Information
#
#WARRANTY: Halliburton will use its best efforts to furnish customers with 
#accurate information and interpretations that are part of, and incident to, the services 
#provided.  However, Halliburton cannot and does not warrant the accuracy 
#or correctness of such information and interpretations.  Under no circumstances should any 
#such information or interpretation be relied upon as the sole basis for any drilling, 
#completion, production, or financial decision or any procedure involving any risk to the 
#safety of any drilling venture, drilling rig or its crew or any other third party.  The 
#Customer has full responsibility for all drilling, completion and production operation.  
#Halliburton makes no representations or warranties, either expressed or 
#implied, including, but not limited to, the implied warranties of merchantability or fitness 
#for a particular purpose, with respect to the services rendered.  In no event will 
#Halliburton be liable for failure to obtain any particular results or for 
#any damages, including, but not limited to, indirect, special or consequential damages, 
#resulting from the use of any information or interpretation provided by Halliburton.
#
~A           TIME           GTDEPTH  GTPQH  GTTQ  GTTN  GTET   GTTVD  
# ...
   00:45:31.368.18-Apr-2020 2932.07 3431.39 62.91 1.00 368.06 1915.77
   00:45:31.568.18-Apr-2020 2932.07 3431.39 62.91 1.00 368.26 1915.77
   00:45:31.768.18-Apr-2020 2932.07 3431.39 62.91 1.00 368.46 1915.77
   00:45:31.968.18-Apr-2020 2932.07 3431.39 62.91 1.00 368.66 1915.77
   00:45:32.168.18-Apr-2020 2932.07 3431.38 62.91 1.00 368.86 1915.77
   00:45:32.368.18-Apr-2020 2932.07 3431.39 62.91 1.00 369.06 1915.77
   00:45:32.568.18-Apr-2020 2932.07 3431.39 62.91 1.00 369.26 1915.77
   00:45:32.768.18-Apr-2020 2932.07 3431.39 62.90 1.00 369.46 1915.77
   00:45:32.968.18-Apr-2020 2932.07 3431.39 62.90 1.00 369.66 1915.77
   00:45:33.168.18-Apr-2020 2932.07 3431.39 62.90 1.00 369.86 1915.77
   00:45:33.368.18-Apr-2020 2932.07 3431.39 62.90 1.00 370.06 1915.77
   00:45:33.568.18-Apr-2020 2932.07 3431.39 62.90 1.00 370.26 1915.77
   00:45:33.768.18-Apr-2020 2932.07 3431.39 62.90 1.00 370.46 1915.77
   00:45:33.968.18-Apr-2020 2932.07 3431.38 62.90 1.00 370.66 1915.77
   00:45:34.168.18-Apr-2020 2932.07 3431.39 62.90 1.00 370.86 1915.77
   00:45:34.368.18-Apr-2020 2932.07 3431.39 62.90 1.00 371.06 1915.77
   00:45:34.568.18-Apr-2020 2932.07 3431.39 62.90 1.00 371.26 1915.77
   00:45:34.768.18-Apr-2020 2932.07 3431.39 62.90 1.00 371.46 1915.77
   00:45:34.968.18-Apr-2020 2932.07 3431.37 62.90 1.00 371.66 1915.77
   00:45:35.168.18-Apr-2020 2932.07 3431.40 62.90 1.00 371.86 1915.77
   00:45:35.368.18-Apr-2020 2932.07 3431.39 62.90 1.00 372.06 1915.77
   00:45:35.568.18-Apr-2020 2932.07 3431.39 62.90 1.00 372.26 1915.77
   00:45:35.769.18-Apr-2020 2932.07 3431.37 62.90 1.00 372.46 1915.77
   00:45:35.969.18-Apr-2020 2932.07 3431.39 62.90 1.00 372.66 1915.77
   00:45:36.169.18-Apr-2020 2932.07 3431.38 62.90 1.00 372.86 1915.77
   00:45:36.369.18-Apr-2020 2932.07 3431.37 62.90 1.00 373.06 1915.77
   00:45:36.569.18-Apr-2020 2932.07 3431.38 62.90 1.00 373.26 1915.77
   00:45:36.769.18-Apr-2020 2932.07 3431.38 62.90 1.00 373.46 1915.77
   00:45:36.969.18-Apr-2020 2932.07 3431.39 62.90 1.00 373.66 1915.77
   00:45:37.169.18-Apr-2020 2932.07 3431.38 62.90 1.00 373.86 1915.77
   00:45:37.369.18-Apr-2020 2932.07 3431.38 62.90 1.00 374.06 1915.77
   00:45:37.569.18-Apr-2020 2932.07 3431.38 62.90 1.00 374.26 1915.77
   00:45:37.769.18-Apr-2020 2932.07 3431.38 62.90 1.00 374.46 1915.77
   00:45:37.969.18-Apr-2020 2932.07 3431.36 62.89 1.00 374.66 1915.77
   00:45:38.169.18-Apr-2020 2932.07 3431.39 62.89 1.00 374.86 1915.77
   00:45:38.369.18-Apr-2020 2932.07 3431.39 62.89 1.00 375.06 1915.77
   00:45:38.569.18-Apr-2020 2932.07 3431.38 62.89 1.00 375.26 1915.77
   00:45:38.769.18-Apr-2020 2932.07 3431.38 62.89 1.00 375.46 1915.77
   00:45:38.969.18-Apr-2020 2932.07 3431.37 62.89 1.00 375.66 1915.77
   00:45:39.169.18-Apr-2020 2932.07 3431.37 62.89 1.00 375.86 1915.77
   00:45:39.369.18-Apr-2020 2932.07 3431.38 62.89 1.00 376.06 1915.77
   00:45:39.569.18-Apr-2020 2932.07 3431.38 62.89 1.00 376.26 1915.77
   00:45:39.769.18-Apr-2020 2932.07 3431.36 62.89 1.00 376.46 1915.77
   00:45:39.969.18-Apr-2020 2932.07 3431.36 62.89 1.00 376.66 1915.77
   00:45:40.169.18-Apr-2020 2932.07 3431.36 62.89 1.00 376.86 1915.77
   00:45:40.369.18-Apr-2020 2932.07 3431.37 62.89 1.00 377.06 1915.77
   00:45:40.569.18-Apr-2020 2932.07 3431.36 62.89 1.00 377.26 1915.77
   00:45:40.769.18-Apr-2020 2932.07 3431.36 62.89 1.00 377.46 1915.77
   00:45:40.969.18-Apr-2020 2932.07 3431.36 62.89 1.00 377.66 1915.77
   00:45:41.169.18-Apr-2020 2932.07 3431.38 62.89 1.00 377.86 1915.77
   00:45:41.369.18-Apr-2020 2932.07 3431.38 62.89 1.00 378.06 1915.77
   00:45:41.569.18-Apr-2020 2932.07 3431.38 62.89 1.00 378.26 1915.77
   00:45:41.769.18-Apr-2020 2932.07 3431.37 62.89 1.00 378.46 1915.77
   00:45:41.970.18-Apr-2020 2932.07 3431.37 62.89 1.00 378.66 1915.77
   00:45:42.170.18-Apr-2020 2932.07 3431.37 62.89 1.00 378.86 1915.77
   00:45:42.370.18-Apr-2020 2932.07 3431.36 62.89 1.00 379.06 1915.77
   00:45:42.570.18-Apr-2020 2932.07 3431.36 62.89 1.00 379.26 1915.77
   00:45:42.770.18-Apr-2020 2932.07 3431.36 62.89 1.00 379.46 1915.77
   00:45:42.970.18-Apr-2020 2932.07 3436.77 62.89 1.00 379.66 1915.77
   00:45:43.170.18-Apr-2020 2932.07 3453.27 62.88 1.00 379.86 1915.77
   00:45:43.370.18-Apr-2020 2932.07 3498.72 62.88 1.00 380.06 1915.77
   00:45:43.570.18-Apr-2020 2932.07 3498.72 62.88 1.00 380.26 1915.77
   00:45:43.770.18-Apr-2020 2932.07 3585.11 62.88 1.00 380.46 1915.77
   00:45:43.970.18-Apr-2020 2932.07 3621.30 62.88 1.00 380.66 1915.77
   00:45:44.170.18-Apr-2020 2932.07 3625.97 62.88 1.00 380.86 1915.77
   00:45:44.370.18-Apr-2020 2932.07 3524.68 62.88 1.00 381.06 1915.77
   00:45:44.570.18-Apr-2020 2932.07 3483.18 62.88 1.00 381.26 1915.77
   00:45:44.770.18-Apr-2020 2932.07 3444.69 62.88 1.00 381.46 1915.77
   00:45:44.970.18-Apr-2020 2932.07 3444.87 62.88 1.00 381.66 1915.77
   00:45:45.170.18-Apr-2020 2932.07 3451.96 62.88 1.00 381.86 1915.77
   00:45:45.370.18-Apr-2020 2932.07 3473.62 62.88 1.00 382.06 1915.77
   00:45:45.570.18-Apr-2020 2932.07 3473.62 62.88 1.00 382.26 1915.77
   00:45:45.770.18-Apr-2020 2932.07 4255.60 62.88 1.00 382.46 1915.77
   00:45:45.970.18-Apr-2020 2932.07 4415.12 62.88 1.00 382.66 1915.77
   00:45:46.170.18-Apr-2020 2932.07 4415.04 62.88 1.00 382.86 1915.77
   00:45:46.370.18-Apr-2020 2932.07 4415.54 62.88 1.00 383.06 1915.77
   00:45:46.570.18-Apr-2020 2932.07 4415.54 62.88 1.00 383.26 1915.77
   00:45:46.770.18-Apr-2020 2932.07 4415.75 62.88 1.00 383.46 1915.77
   00:45:46.970.18-Apr-2020 2932.07 4416.34 62.88 1.00 383.66 1915.77
   00:45:47.170.18-Apr-2020 2932.07 4415.23 62.88 1.00 383.86 1915.77
   00:45:47.370.18-Apr-2020 2932.07 4415.98 62.88 1.00 384.06 1915.77
   00:45:47.570.18-Apr-2020 2932.07 4415.98 62.88 1.00 384.26 1915.77
   00:45:47.770.18-Apr-2020 2932.07 4417.27 62.88 1.00 384.46 1915.77
   00:45:47.970.18-Apr-2020 2932.07 4416.87 62.88 1.00 384.66 1915.77
   00:45:48.171.18-Apr-2020 2932.07 4417.14 62.88 1.00 384.86 1915.77
   00:45:48.371.18-Apr-2020 2932.07 4416.96 62.88 1.00 385.06 1915.77
   00:45:48.571.18-Apr-2020 2932.07 4417.31 62.88 1.00 385.26 1915.77
   00:45:48.771.18-Apr-2020 2932.07 4418.12 62.88 1.00 385.46 1915.77
   00:45:48.971.18-Apr-2020 2932.07 4418.08 62.88 1.00 385.66 1915.77
   00:45:49.171.18-Apr-2020 2932.07 4418.28 62.88 1.00 385.86 1915.77
   00:45:49.371.18-Apr-2020 2932.07 4418.02 62.88 1.00 386.06 1915.77
   00:45:49.571.18-Apr-2020 2932.07 4418.02 62.88 1.00 386.26 1915.77
   00:45:49.771.18-Apr-2020 2932.07 4418.31 62.88 1.00 386.46 1915.77
   00:45:49.971.18-Apr-2020 2932.07 4418.75 62.88 1.00 386.66 1915.77
   00:45:50.171.18-Apr-2020 2932.07 4417.22 62.88 1.00 386.86 1915.77
   00:45:50.371.18-Apr-2020 2932.07 4419.50 62.88 1.00 387.06 1915.77
   00:45:50.571.18-Apr-2020 2932.07 4419.50 62.88 1.00 387.26 1915.77
   00:45:50.771.18-Apr-2020 2932.07 4419.45 62.88 1.00 387.46 1915.77
   00:45:50.971.18-Apr-2020 2932.07 4419.17 62.88 1.00 387.66 1915.77
   00:45:51.171.18-Apr-2020 2932.07 4419.32 62.88 1.00 387.86 1915.77
   00:45:51.371.18-Apr-2020 2932.07 4418.76 62.88 1.00 388.06 1915.77
   00:45:51.571.18-Apr-2020 2932.07 4418.76 62.88 1.00 388.26 1915.77
   00:45:51.771.18-Apr-2020 2932.07 4419.06 62.88 1.00 388.46 1915.77
   00:45:51.971.18-Apr-2020 2932.07 4418.93 62.88 1.00 388.66 1915.77
   00:45:52.171.18-Apr-2020 2932.07 4418.98 62.88 1.00 388.86 1915.77
   00:45:52.371.18-Apr-2020 2932.07 4418.71 62.88 1.00 389.06 1915.77
   00:45:52.571.18-Apr-2020 2932.07 4418.71 62.88 1.00 389.26 1915.77
   00:45:52.771.18-Apr-2020 2932.07 4417.36 62.88 1.00 389.46 1915.77
   00:45:52.971.18-Apr-2020 2932.07 4419.64 62.88 1.00 389.66 1915.77
   00:45:53.171.18-Apr-2020 2932.07 4419.05 62.88 1.00 389.86 1915.77
   00:45:53.371.18-Apr-2020 2932.07 4418.18 62.88 1.00 390.06 1915.77
   00:45:53.571.18-Apr-2020 2932.07 4418.18 62.88 1.00 390.26 1915.77
   00:45:53.771.18-Apr-2020 2932.07 4419.42 62.88 1.00 390.46 1915.77
   00:45:53.971.18-Apr-2020 2932.07 4419.64 62.88 1.00 390.66 1915.77
   00:45:54.171.18-Apr-2020 2932.07 4418.00 62.88 1.00 390.86 1915.77
