~Version Information
 VERS.                  2.0:   CWLS log ASCII Standard -VERSION 2.0
 WRAP.                   NO:   One line per depth step
~Well Information Block
#MNEM.UNIT     VALUE/NAME     DESCRIPTION
#---------     -----------    ---------------------------
 STRT.S             00:39:23 18-Apr-20: START TIME 00:39:23 18-Apr-20
 STOP.S             00:46:19 18-Apr-20: STOP TIME  00:46:19 18-Apr-20
 STEP.S                   0.00: STEP TIME
 NULL.                 -999.25: NULL VALUE
 DFWT.                        :  DIST FWL TEXT
 DFST.                        :  DIST FSL TEXT
 DMF .                        :  DRILL MEAS FROM
 STIM.      16.29.52 23-Mar-20:  START TIME
 DATE.      16.29.52 23-Mar-20:  END TIME
 SPUD.               23-Mar-20:  SPUD DATE
 NREF.                    Grid:  NORTH REFERENCE
 HPTY.       Minimum Curvature:  HOLE POS TYPE
 DMOD.             Drill Model:  DRILL MOD DESC
 SVYD.                  Survey:  SURVEY DESC
 ILTD.               Lithology:  INTERP LTH DESC
 FTOP.          Formation Tops:  FORM TOPS DESC
 SON .        AZ-XX-0906252240:  JOB NUMBER
 RIG .             West Chirag:  RIG NAME
 PDAT.          Mean Sea Level:  PERMANENT DATUM
 FLD .                     ACG:  FIELD NAME
 CTRY.              Azerbaijan:  COUNTRY NAME
 WELL.           J23 (Slot 07):  WELL NAME
 SRVC.          Turan Drilling:  CONTRACTOR
 COMP.     BP Exploration (Casoian Sea) Ltd:  COMPANY
 WTYP.                Deviated:  WELL TYPE
 MDS .        Operator Entered:  MAG DATA SOURCE
 UWI .                     N/A:  UNIQUE WELL IDENTIFIER
 API .                     N/A:  API NUMBER
 BASE.              Azerbaijan:  LOGGING EQUIPMENT BASE LOCATION
 REGN.                   EESSA:  REGION
 PROV.                    Baku:  PROVINCE
 STAT.                    Baku:  STATE NAME
 MWDS.                     N/A:  MWD SHOP
 JOBN.        AZ-XX-0906252240:  JOB TICKET NUMB
 DOE .                     N/A:  DOE NUMBER
 DCON.         Sperry Drilling:  DIRECTNL CONTR
 UNIT.                     N/A:  LOGGING EQUIPMENT ID
 CNTY.                        :  COUNTY
 LOC .                        :  LOCATION
 LMF .             Drill Floor:  LOG MEASURED FROM
 TVDS.m                  43.00:  TVDSS CORRECTN
 LATI.deg                40.13:  LATITUDE
 LONG.deg                51.22:  LONGITUDE
 WHNS.m                   9.43:  WELL HEAD N/S
 WHEW.m                  -8.91:  WELL HEAD E/W
 UTMX.m              519005.06:  UTM X
 UTMY.m             4443793.85:  UTM Y
 DFWL.m                   0.00:  DISTANCE FWL
 DFSL.m                   0.00:  DISTANCE FSL
 SDEP.m                   0.00:  START DEPTH
 TDD .m                   0.00:  TOTAL DEPTH (DRILLER)
 VSDR.deg               179.88:  VERT SEC DIRECT
 GVFD.g                   1.00:  GRAVITY FIELD
 MFLD.nT              50281.00:  MAGNETIC FIELD
 MDIP.deg                59.58:  MAGNETIC DIP
 MDEC.deg                 6.48:  MAGNETIC DECL
 GRDC.deg                 0.14:  GRID CORRECTION
 AZTC.deg                 6.34:  AZM TOTAL CORR
 EPD .m                   0.00:  ELEVATION
 EGL .m                   0.00:  GROUND ELEVATION
 WDMS.m                 169.80:  WD ELEV
 APD .m                  43.00:  DEPTH ABOVE PD
 DEP .m                 354.17:  DEPTH
 AGAP.m                  43.00:  AIR GAP
 VSEW.m                  -8.91:  VERT SEC E/W
 VSNS.m                   9.43:  VERT SEC N/S
 EKB .m                   0.00:  KB ELEVATION
 EDF .m                  43.00:  DF ELEVATION
 TDL .m                1326.00:  TOTAL DEPTH (LOGGER)
 VSC .                       0:  VS TO CLOSURE
 MAGU.                 1850704:  MAGUTM CHECKSUM
~Parameter Information Block
#MNEM.UNIT       Value        Description
#---------     -----------    ---------------------------
 AV  .mps                 1.17:  Ann Velocity 
 AZIF.deg               184.04:  Azm, Final 
 BHAT.        Rotary Steerable:  BHA Type 
 BREV.rev            620000.00:  Rev Bit Total 
 BROT.°/30m               0.20:  Build Rotating 
 BS  .in                 14.75:  Bit Size 
 BSZ .in                 14.75:  Bit Size 
 BTPL.psig              618.00:  Bit Press Loss 
 CABU.                      No:  Customer Abuse 
 COMM.                     TŠT:  Run Comments 1 
 TCS .hr                 87.68:  Time Ciculation Ended 
 CV  .mps                 3.10:  Crit Velocity 
 DD1 .          Rashad Habibov:  Direct Drillr 1 
 DD2 .         Rasim Ibrahimov:  Direct Drillr 2 
 DDSV.               Geo-Pilot:  DD Service 
 DEFF.%                  98.00:  % Det Eff 
 DLRX.°/30m               1.48:  Dogleg Rot Max 
 DLSO.°/30m               0.50:  Dogleg Oriented 
 DLSX.°/30m               1.48:  Dogleg Str Max 
 DRET.      06.18.56 19-Apr-20:  Drill End Time 
 DRST.      15.00.56 15-Apr-20:  Drill Start Tim 
 DTIM.hr                 51.73:  Time Drilling 
 EDEP.m                3410.01:  End Depth 
 ENG1.        Marcelo Sandoval:  Engineer 1 
 ENG2.        Davud Huseynzade:  Engineer 2 
 ENG3.          Ruslan Safarov:  Engineer 3 
 ETIM.      04.00.56 20-Apr-20:  End Time 
 FLOI.gpm              1000.00:  Flow In 
 FLON.gpm               600.00:  Flow In Min 
 FLOS.cptm                0.00:  Fluid Loss 
 FLOX.gpm              1200.00:  Flow In Max 
 HFLO.                      No:  High Flow 
 HPRE.                     Yes:  High Pressure 
 HTEM.                      No:  High Temp 
 HYDO.m                   1.80:  Hydro Offset 
 IFIN.deg                70.04:  Inc, Final 
 IMAX.deg                70.56:  Inc Max 
 IMIN.deg                69.85:  Inc Min 
 IMND.m                3103.24:  Inc Min Depth 
 IMXD.m                2876.63:  Inc Max Depth 
 JARR.                      No:  Jarring 
 LETM.      06.18.56 19-Apr-20:  Log End Time 
 LOST.hr                     0:  Lost Rig Time 
 LSTM.      15.00.56 15-Apr-20:  Log Start Time 
 MDCL.ppm             42000.00:  Mud Chlorides 
 MDES.     Inversion Oil/Synthetic:  Mud Desc 
 DFD .sg                  1.58:  Mud Density 
 MDMN.sg                  1.58:  Dens Mud Min 
 MDMX.sg                  1.58:  Dens Mud Max 
 MOIL.                      71:  Run Mud Oil % 
 MOWR.                   71:29:  Run Mud OWR 
 MSND.                       0:  Run Mud Sand % 
 MSOL.                    23.3:  Run Mud Solids% 
 DFV .spqt               84.00:  Mud Viscosity 
 MWOD.in                  9.50:  MWD Tool OD 
 MWSI.                      No:  Serv Intrp, MWD 
 OTIM.hr                139.62:  Time Operating 
 PMAX.psia             5364.69:  Press Op, Max 
 PV  .cP                 80.00:  Mud PV 
 RUN .                     700:  Run Number 
 ROPA.m/hr               25.00:  ROP Avg 
 ROPN.m/hr               11.00:  ROP Min 
 ROPX.m/hr               36.00:  ROP Max 
 RPMA.rpm               130.00:  RPM Surface Avg 
 RPMN.rpm               120.00:  RPM Surface Min 
 RPMX.rpm               140.00:  RPM Surface Max 
 RRUN.                    0700:  Rig Run Number 
 SAZI.deg               183.25:  Azm, Start 
 SDEP.m                2084.00:  Start Depth 
 SIDD.                      No:  Serv Intrp, DD 
 SINC.deg                70.38:  Inc, Start 
 SPPA.psig             4800.00:  SPP Avg 
 SPPN.psig             4400.00:  SPP Min 
 SPPX.psig             5350.00:  SPP Max 
 STIM.      16.30.56 14-Apr-20:  Start Time 
 SVCS.                 DD, MWD:  Services 
 SVER.                    9.20:  Sperry Version 
 TDAT.m                1326.00:  Tot Depth Attmp 
 TDDF.                      No:  Trip for DD 
 TDLG.m                1326.00:  Tot Depth Loggd 
 TFF .                      No:  Trip for Fail 
 TQAA.f-kp               19.00:  Torque Abs Avg 
 TQAN.f-kp                8.00:  Torque Abs Min 
 TQAX.f-kp               27.00:  Torque Abs Max 
 TRRT.°/30m               0.50:  Turn Rotating 
 MRT .                    HCIM:  Maximum Recorded Temperature 
 TTMX.degC               82.35:  Max Tool Temp 
 VS01.       905245875X1Z1W1C8:  Virtual Str1 SN 
 VS02.       90608022F11V7D1A9:  Virtual Str2 SN 
 VS03.            90605473R5C9:  Virtual Str3 SN 
 WBMN.klb                11.00:  WOB Min 
 WOBA.klb                21.00:  WOB Avg 
 WOBX.klb                30.00:  WOB Max 
 YP  .lhf2               45.00:  Yield Point 
~Curve Information Block
#MNEM.UNIT                 API CODE     Curve Description
#---------               -----------    ---------------------------
 TIME.HHMMSS            00 000 000 000:  GT Time & Date
 GTDEPTH.m              00 000 000 000:  GT Depth
 GTPQH.psia             00 000 000 000:  GT HR Quartz Pressure
 GTTQ.degC              00 000 000 000:  GT Quartz Temperature
 GTTN.NONE              00 000 000 000:  GT Test Number
 GTET.sec               00 000 000 000:  GT Elapsed Test Time
 GTTVD.m                00 000 000 000:  GT True Vertical Depth
#Other Information
#
#WARRANTY: Halliburton will use its best efforts to furnish customers with 
#accurate information and interpretations that are part of, and incident to, the services 
#provided.  However, Halliburton cannot and does not warrant the accuracy 
#or correctness of such information and interpretations.  Under no circumstances should any 
#such information or interpretation be relied upon as the sole basis for any drilling, 
#completion, production, or financial decision or any procedure involving any risk to the 
#safety of any drilling venture, drilling rig or its crew or any other third party.  The 
#Customer has full responsibility for all drilling, completion and production operation.  
#Halliburton makes no representations or warranties, either expressed or 
#implied, including, but not limited to, the implied warranties of merchantability or fitness 
#for a particular purpose, with respect to the services rendered.  In no event will 
#Halliburton be liable for failure to obtain any particular results or for 
#any damages, including, but not limited to, indirect, special or consequential damages, 
#resulting from the use of any information or interpretation provided by Halliburton.
#
~A           TIME           GTDEPTH  GTPQH  GTTQ  GTTN  GTET   GTTVD  
# ...
   00:42:04.334.18-Apr-2020 2932.07 3431.29 63.29 1.00 161.03 1915.77
   00:42:04.534.18-Apr-2020 2932.07 3431.26 63.29 1.00 161.23 1915.77
   00:42:04.734.18-Apr-2020 2932.07 3431.29 63.29 1.00 161.43 1915.77
   00:42:04.934.18-Apr-2020 2932.07 3431.27 63.29 1.00 161.63 1915.77
   00:42:05.134.18-Apr-2020 2932.07 3431.28 63.29 1.00 161.83 1915.77
   00:42:05.335.18-Apr-2020 2932.07 3431.28 63.29 1.00 162.03 1915.77
   00:42:05.535.18-Apr-2020 2932.07 3431.28 63.29 1.00 162.23 1915.77
   00:42:05.735.18-Apr-2020 2932.07 3431.26 63.29 1.00 162.43 1915.77
   00:42:05.935.18-Apr-2020 2932.07 3431.32 63.29 1.00 162.63 1915.77
   00:42:06.135.18-Apr-2020 2932.07 3431.27 63.29 1.00 162.83 1915.77
   00:42:06.335.18-Apr-2020 2932.07 3431.26 63.29 1.00 163.03 1915.77
   00:42:06.535.18-Apr-2020 2932.07 3431.26 63.29 1.00 163.23 1915.77
   00:42:06.735.18-Apr-2020 2932.07 3431.26 63.28 1.00 163.43 1915.77
   00:42:06.935.18-Apr-2020 2932.07 3431.27 63.28 1.00 163.63 1915.77
   00:42:07.135.18-Apr-2020 2932.07 3431.27 63.28 1.00 163.83 1915.77
   00:42:07.335.18-Apr-2020 2932.07 3431.27 63.28 1.00 164.03 1915.77
   00:42:07.535.18-Apr-2020 2932.07 3431.27 63.28 1.00 164.23 1915.77
   00:42:07.735.18-Apr-2020 2932.07 3431.27 63.28 1.00 164.43 1915.77
   00:42:07.935.18-Apr-2020 2932.07 3431.24 63.28 1.00 164.63 1915.77
   00:42:08.135.18-Apr-2020 2932.07 3431.27 63.28 1.00 164.83 1915.77
   00:42:08.335.18-Apr-2020 2932.07 3431.28 63.28 1.00 165.03 1915.77
   00:42:08.535.18-Apr-2020 2932.07 3431.25 63.28 1.00 165.23 1915.77
   00:42:08.735.18-Apr-2020 2932.07 3431.24 63.28 1.00 165.43 1915.77
   00:42:08.935.18-Apr-2020 2932.07 3431.26 63.28 1.00 165.63 1915.77
   00:42:09.135.18-Apr-2020 2932.07 3431.28 63.28 1.00 165.83 1915.77
   00:42:09.335.18-Apr-2020 2932.07 3431.26 63.28 1.00 166.03 1915.77
   00:42:09.535.18-Apr-2020 2932.07 3431.26 63.28 1.00 166.23 1915.77
   00:42:09.735.18-Apr-2020 2932.07 3431.25 63.28 1.00 166.43 1915.77
   00:42:09.935.18-Apr-2020 2932.07 3431.26 63.28 1.00 166.63 1915.77
   00:42:10.135.18-Apr-2020 2932.07 3431.26 63.28 1.00 166.83 1915.77
   00:42:10.335.18-Apr-2020 2932.07 3431.24 63.28 1.00 167.03 1915.77
   00:42:10.535.18-Apr-2020 2932.07 3431.24 63.28 1.00 167.23 1915.77
   00:42:10.735.18-Apr-2020 2932.07 3431.25 63.28 1.00 167.43 1915.77
   00:42:10.935.18-Apr-2020 2932.07 3431.25 63.28 1.00 167.63 1915.77
   00:42:11.135.18-Apr-2020 2932.07 3424.73 63.28 1.00 167.83 1915.77
   00:42:11.335.18-Apr-2020 2932.07 3420.02 63.28 1.00 168.03 1915.77
   00:42:11.536.18-Apr-2020 2932.07 3421.41 63.28 1.00 168.23 1915.77
   00:42:11.736.18-Apr-2020 2932.07 3422.02 63.28 1.00 168.43 1915.77
   00:42:11.936.18-Apr-2020 2932.07 3422.48 63.28 1.00 168.63 1915.77
   00:42:12.136.18-Apr-2020 2932.07 3422.67 63.28 1.00 168.83 1915.77
   00:42:12.336.18-Apr-2020 2932.07 3422.84 63.27 1.00 169.03 1915.77
   00:42:12.536.18-Apr-2020 2932.07 3422.84 63.27 1.00 169.23 1915.77
   00:42:12.736.18-Apr-2020 2932.07 3423.12 63.27 1.00 169.43 1915.77
   00:42:12.936.18-Apr-2020 2932.07 3423.16 63.27 1.00 169.63 1915.77
   00:42:13.136.18-Apr-2020 2932.07 3423.13 63.27 1.00 169.83 1915.77
   00:42:13.336.18-Apr-2020 2932.07 3423.19 63.27 1.00 170.03 1915.77
   00:42:13.536.18-Apr-2020 2932.07 3423.19 63.27 1.00 170.23 1915.77
   00:42:13.736.18-Apr-2020 2932.07 3423.81 63.27 1.00 170.43 1915.77
   00:42:13.936.18-Apr-2020 2932.07 3423.99 63.27 1.00 170.63 1915.77
   00:42:14.136.18-Apr-2020 2932.07 3423.81 63.27 1.00 170.83 1915.77
   00:42:14.336.18-Apr-2020 2932.07 3424.02 63.27 1.00 171.03 1915.77
   00:42:14.536.18-Apr-2020 2932.07 3424.02 63.27 1.00 171.23 1915.77
   00:42:14.736.18-Apr-2020 2932.07 3424.02 63.27 1.00 171.43 1915.77
   00:42:14.936.18-Apr-2020 2932.07 3423.96 63.27 1.00 171.63 1915.77
   00:42:15.136.18-Apr-2020 2932.07 3424.09 63.27 1.00 171.83 1915.77
   00:42:15.336.18-Apr-2020 2932.07 3424.12 63.27 1.00 172.03 1915.77
   00:42:15.536.18-Apr-2020 2932.07 3424.07 63.27 1.00 172.23 1915.77
   00:42:15.736.18-Apr-2020 2932.07 3424.06 63.27 1.00 172.43 1915.77
   00:42:15.936.18-Apr-2020 2932.07 3424.00 63.27 1.00 172.63 1915.77
   00:42:16.136.18-Apr-2020 2932.07 3424.07 63.27 1.00 172.83 1915.77
   00:42:16.336.18-Apr-2020 2932.07 3424.11 63.27 1.00 173.03 1915.77
   00:42:16.536.18-Apr-2020 2932.07 3424.10 63.27 1.00 173.23 1915.77
   00:42:16.736.18-Apr-2020 2932.07 3424.20 63.27 1.00 173.43 1915.77
   00:42:16.936.18-Apr-2020 2932.07 3424.14 63.27 1.00 173.63 1915.77
   00:42:17.136.18-Apr-2020 2932.07 3424.11 63.27 1.00 173.83 1915.77
   00:42:17.336.18-Apr-2020 2932.07 3424.19 63.27 1.00 174.03 1915.77
   00:42:17.536.18-Apr-2020 2932.07 3424.19 63.27 1.00 174.23 1915.77
   00:42:17.737.18-Apr-2020 2932.07 3424.24 63.27 1.00 174.43 1915.77
   00:42:17.937.18-Apr-2020 2932.07 3424.25 63.27 1.00 174.63 1915.77
   00:42:18.137.18-Apr-2020 2932.07 3424.25 63.26 1.00 174.83 1915.77
   00:42:18.337.18-Apr-2020 2932.07 3424.27 63.26 1.00 175.03 1915.77
   00:42:18.537.18-Apr-2020 2932.07 3424.27 63.26 1.00 175.23 1915.77
   00:42:18.737.18-Apr-2020 2932.07 3424.17 63.26 1.00 175.43 1915.77
   00:42:18.937.18-Apr-2020 2932.07 3424.25 63.26 1.00 175.63 1915.77
   00:42:19.137.18-Apr-2020 2932.07 3424.28 63.26 1.00 175.83 1915.77
   00:42:19.337.18-Apr-2020 2932.07 3424.35 63.26 1.00 176.03 1915.77
   00:42:19.537.18-Apr-2020 2932.07 3424.25 63.26 1.00 176.23 1915.77
   00:42:19.737.18-Apr-2020 2932.07 3424.30 63.26 1.00 176.43 1915.77
   00:42:19.937.18-Apr-2020 2932.07 3424.25 63.26 1.00 176.63 1915.77
   00:42:20.137.18-Apr-2020 2932.07 3424.25 63.26 1.00 176.83 1915.77
   00:42:20.337.18-Apr-2020 2932.07 3424.29 63.26 1.00 177.03 1915.77
   00:42:20.537.18-Apr-2020 2932.07 3424.29 63.26 1.00 177.23 1915.77
   00:42:20.737.18-Apr-2020 2932.07 3424.23 63.26 1.00 177.43 1915.77
   00:42:20.937.18-Apr-2020 2932.07 3424.22 63.26 1.00 177.63 1915.77
   00:42:21.137.18-Apr-2020 2932.07 3424.28 63.26 1.00 177.83 1915.77
   00:42:21.337.18-Apr-2020 2932.07 3424.38 63.26 1.00 178.03 1915.77
   00:42:21.537.18-Apr-2020 2932.07 3424.38 63.26 1.00 178.23 1915.77
   00:42:21.737.18-Apr-2020 2932.07 3428.20 63.26 1.00 178.43 1915.77
   00:42:21.937.18-Apr-2020 2932.07 3431.49 63.26 1.00 178.63 1915.77
   00:42:22.137.18-Apr-2020 2932.07 3431.50 63.26 1.00 178.83 1915.77
   00:42:22.337.18-Apr-2020 2932.07 3431.51 63.26 1.00 179.03 1915.77
   00:42:22.537.18-Apr-2020 2932.07 3431.51 63.26 1.00 179.23 1915.77
   00:42:22.737.18-Apr-2020 2932.07 3431.53 63.26 1.00 179.43 1915.77
   00:42:22.937.18-Apr-2020 2932.07 3431.52 63.26 1.00 179.63 1915.77
   00:42:23.137.18-Apr-2020 2932.07 3431.54 63.26 1.00 179.83 1915.77
   00:42:23.337.18-Apr-2020 2932.07 3431.54 63.26 1.00 180.03 1915.77
   00:42:23.537.18-Apr-2020 2932.07 3431.54 63.26 1.00 180.23 1915.77
   00:42:23.737.18-Apr-2020 2932.07 3431.54 63.25 1.00 180.43 1915.77
   00:42:23.938.18-Apr-2020 2932.07 3431.55 63.25 1.00 180.63 1915.77
   00:42:24.138.18-Apr-2020 2932.07 3431.54 63.25 1.00 180.83 1915.77
   00:42:24.338.18-Apr-2020 2932.07 3431.56 63.25 1.00 181.03 1915.77
   00:42:24.538.18-Apr-2020 2932.07 3431.54 63.25 1.00 181.23 1915.77
   00:42:24.738.18-Apr-2020 2932.07 3431.54 63.25 1.00 181.43 1915.77
   00:42:24.938.18-Apr-2020 2932.07 3431.55 63.25 1.00 181.63 1915.77
   00:42:25.138.18-Apr-2020 2932.07 3431.56 63.25 1.00 181.83 1915.77
   00:42:25.338.18-Apr-2020 2932.07 3431.55 63.25 1.00 182.03 1915.77
   00:42:25.538.18-Apr-2020 2932.07 3431.55 63.25 1.00 182.23 1915.77
   00:42:25.738.18-Apr-2020 2932.07 3431.54 63.25 1.00 182.43 1915.77
   00:42:25.938.18-Apr-2020 2932.07 3431.56 63.25 1.00 182.63 1915.77
   00:42:26.138.18-Apr-2020 2932.07 3431.56 63.25 1.00 182.83 1915.77
   00:42:26.338.18-Apr-2020 2932.07 3431.54 63.25 1.00 183.03 1915.77
   00:42:26.538.18-Apr-2020 2932.07 3431.54 63.25 1.00 183.23 1915.77
   00:42:26.738.18-Apr-2020 2932.07 3431.55 63.25 1.00 183.43 1915.77
   00:42:26.938.18-Apr-2020 2932.07 3431.55 63.25 1.00 183.63 1915.77
   00:42:27.138.18-Apr-2020 2932.07 3431.55 63.25 1.00 183.83 1915.77
