~Version Information
 VERS.                  2.0:   CWLS log ASCII Standard -VERSION 2.0
 WRAP.                   NO:   One line per depth step
~Well Information Block
#MNEM.UNIT     VALUE/NAME     DESCRIPTION
#---------     -----------    ---------------------------
 STRT.S             13:35:33 18-Apr-20: START TIME 13:35:33 18-Apr-20
 STOP.S             13:42:31 18-Apr-20: STOP TIME  13:42:31 18-Apr-20
 STEP.S                   0.00: STEP TIME
 NULL.                 -999.25: NULL VALUE
 DFWT.                        :  DIST FWL TEXT
 DFST.                        :  DIST FSL TEXT
 DMF .                        :  DRILL MEAS FROM
 STIM.      16.29.52 23-Mar-20:  START TIME
 DATE.      16.29.52 23-Mar-20:  END TIME
 SPUD.               23-Mar-20:  SPUD DATE
 NREF.                    Grid:  NORTH REFERENCE
 HPTY.       Minimum Curvature:  HOLE POS TYPE
 DMOD.             Drill Model:  DRILL MOD DESC
 SVYD.                  Survey:  SURVEY DESC
 ILTD.               Lithology:  INTERP LTH DESC
 FTOP.          Formation Tops:  FORM TOPS DESC
 SON .        AZ-XX-0906252240:  JOB NUMBER
 RIG .             West Chirag:  RIG NAME
 PDAT.          Mean Sea Level:  PERMANENT DATUM
 FLD .                     ACG:  FIELD NAME
 CTRY.              Azerbaijan:  COUNTRY NAME
 WELL.           J23 (Slot 07):  WELL NAME
 SRVC.          Turan Drilling:  CONTRACTOR
 COMP.     BP Exploration (Casoian Sea) Ltd:  COMPANY
 WTYP.                Deviated:  WELL TYPE
 MDS .        Operator Entered:  MAG DATA SOURCE
 UWI .                     N/A:  UNIQUE WELL IDENTIFIER
 API .                     N/A:  API NUMBER
 BASE.              Azerbaijan:  LOGGING EQUIPMENT BASE LOCATION
 REGN.                   EESSA:  REGION
 PROV.                    Baku:  PROVINCE
 STAT.                    Baku:  STATE NAME
 MWDS.                     N/A:  MWD SHOP
 JOBN.        AZ-XX-0906252240:  JOB TICKET NUMB
 DOE .                     N/A:  DOE NUMBER
 DCON.         Sperry Drilling:  DIRECTNL CONTR
 UNIT.                     N/A:  LOGGING EQUIPMENT ID
 CNTY.                        :  COUNTY
 LOC .                        :  LOCATION
 LMF .             Drill Floor:  LOG MEASURED FROM
 TVDS.m                  43.00:  TVDSS CORRECTN
 LATI.deg                40.13:  LATITUDE
 LONG.deg                51.22:  LONGITUDE
 WHNS.m                   9.43:  WELL HEAD N/S
 WHEW.m                  -8.91:  WELL HEAD E/W
 UTMX.m              519005.06:  UTM X
 UTMY.m             4443793.85:  UTM Y
 DFWL.m                   0.00:  DISTANCE FWL
 DFSL.m                   0.00:  DISTANCE FSL
 SDEP.m                   0.00:  START DEPTH
 TDD .m                   0.00:  TOTAL DEPTH (DRILLER)
 VSDR.deg               179.88:  VERT SEC DIRECT
 GVFD.g                   1.00:  GRAVITY FIELD
 MFLD.nT              50281.00:  MAGNETIC FIELD
 MDIP.deg                59.58:  MAGNETIC DIP
 MDEC.deg                 6.48:  MAGNETIC DECL
 GRDC.deg                 0.14:  GRID CORRECTION
 AZTC.deg                 6.34:  AZM TOTAL CORR
 EPD .m                   0.00:  ELEVATION
 EGL .m                   0.00:  GROUND ELEVATION
 WDMS.m                 169.80:  WD ELEV
 APD .m                  43.00:  DEPTH ABOVE PD
 DEP .m                 354.17:  DEPTH
 AGAP.m                  43.00:  AIR GAP
 VSEW.m                  -8.91:  VERT SEC E/W
 VSNS.m                   9.43:  VERT SEC N/S
 EKB .m                   0.00:  KB ELEVATION
 EDF .m                  43.00:  DF ELEVATION
 TDL .m                1326.00:  TOTAL DEPTH (LOGGER)
 VSC .                       0:  VS TO CLOSURE
 MAGU.                 1850704:  MAGUTM CHECKSUM
~Parameter Information Block
#MNEM.UNIT       Value        Description
#---------     -----------    ---------------------------
 AV  .mps                 1.17:  Ann Velocity 
 AZIF.deg               184.04:  Azm, Final 
 BHAT.        Rotary Steerable:  BHA Type 
 BREV.rev            620000.00:  Rev Bit Total 
 BROT.°/30m               0.20:  Build Rotating 
 BS  .in                 14.75:  Bit Size 
 BSZ .in                 14.75:  Bit Size 
 BTPL.psig              618.00:  Bit Press Loss 
 CABU.                      No:  Customer Abuse 
 COMM.                     ôÎT:  Run Comments 1 
 TCS .hr                 87.68:  Time Ciculation Ended 
 CV  .mps                 3.10:  Crit Velocity 
 DD1 .          Rashad Habibov:  Direct Drillr 1 
 DD2 .         Rasim Ibrahimov:  Direct Drillr 2 
 DDSV.               Geo-Pilot:  DD Service 
 DEFF.%                  98.00:  % Det Eff 
 DLRX.°/30m               1.48:  Dogleg Rot Max 
 DLSO.°/30m               0.50:  Dogleg Oriented 
 DLSX.°/30m               1.48:  Dogleg Str Max 
 DRET.      06.18.56 19-Apr-20:  Drill End Time 
 DRST.      15.00.56 15-Apr-20:  Drill Start Tim 
 DTIM.hr                 51.73:  Time Drilling 
 EDEP.m                3410.01:  End Depth 
 ENG1.        Marcelo Sandoval:  Engineer 1 
 ENG2.        Davud Huseynzade:  Engineer 2 
 ENG3.          Ruslan Safarov:  Engineer 3 
 ETIM.      04.00.56 20-Apr-20:  End Time 
 FLOI.gpm              1000.00:  Flow In 
 FLON.gpm               600.00:  Flow In Min 
 FLOS.cptm                0.00:  Fluid Loss 
 FLOX.gpm              1200.00:  Flow In Max 
 HFLO.                      No:  High Flow 
 HPRE.                     Yes:  High Pressure 
 HTEM.                      No:  High Temp 
 HYDO.m                   1.80:  Hydro Offset 
 IFIN.deg                70.04:  Inc, Final 
 IMAX.deg                70.56:  Inc Max 
 IMIN.deg                69.85:  Inc Min 
 IMND.m                3103.24:  Inc Min Depth 
 IMXD.m                2876.63:  Inc Max Depth 
 JARR.                      No:  Jarring 
 LETM.      06.18.56 19-Apr-20:  Log End Time 
 LOST.hr                     0:  Lost Rig Time 
 LSTM.      15.00.56 15-Apr-20:  Log Start Time 
 MDCL.ppm             42000.00:  Mud Chlorides 
 MDES.     Inversion Oil/Synthetic:  Mud Desc 
 DFD .sg                  1.58:  Mud Density 
 MDMN.sg                  1.58:  Dens Mud Min 
 MDMX.sg                  1.58:  Dens Mud Max 
 MOIL.                      71:  Run Mud Oil % 
 MOWR.                   71:29:  Run Mud OWR 
 MSND.                       0:  Run Mud Sand % 
 MSOL.                    23.3:  Run Mud Solids% 
 DFV .spqt               84.00:  Mud Viscosity 
 MWOD.in                  9.50:  MWD Tool OD 
 MWSI.                      No:  Serv Intrp, MWD 
 OTIM.hr                139.62:  Time Operating 
 PMAX.psia             5364.69:  Press Op, Max 
 PV  .cP                 80.00:  Mud PV 
 RUN .                     700:  Run Number 
 ROPA.m/hr               25.00:  ROP Avg 
 ROPN.m/hr               11.00:  ROP Min 
 ROPX.m/hr               36.00:  ROP Max 
 RPMA.rpm               130.00:  RPM Surface Avg 
 RPMN.rpm               120.00:  RPM Surface Min 
 RPMX.rpm               140.00:  RPM Surface Max 
 RRUN.                    0700:  Rig Run Number 
 SAZI.deg               183.25:  Azm, Start 
 SDEP.m                2084.00:  Start Depth 
 SIDD.                      No:  Serv Intrp, DD 
 SINC.deg                70.38:  Inc, Start 
 SPPA.psig             4800.00:  SPP Avg 
 SPPN.psig             4400.00:  SPP Min 
 SPPX.psig             5350.00:  SPP Max 
 STIM.      16.30.56 14-Apr-20:  Start Time 
 SVCS.                 DD, MWD:  Services 
 SVER.                    9.20:  Sperry Version 
 TDAT.m                1326.00:  Tot Depth Attmp 
 TDDF.                      No:  Trip for DD 
 TDLG.m                1326.00:  Tot Depth Loggd 
 TFF .                      No:  Trip for Fail 
 TQAA.f-kp               19.00:  Torque Abs Avg 
 TQAN.f-kp                8.00:  Torque Abs Min 
 TQAX.f-kp               27.00:  Torque Abs Max 
 TRRT.°/30m               0.50:  Turn Rotating 
 MRT .                    HCIM:  Maximum Recorded Temperature 
 TTMX.degC               82.35:  Max Tool Temp 
 VS01.       905245875X1Z1W1C8:  Virtual Str1 SN 
 VS02.       90608022F11V7D1A9:  Virtual Str2 SN 
 VS03.            90605473R5C9:  Virtual Str3 SN 
 WBMN.klb                11.00:  WOB Min 
 WOBA.klb                21.00:  WOB Avg 
 WOBX.klb                30.00:  WOB Max 
 YP  .lhf2               45.00:  Yield Point 
~Curve Information Block
#MNEM.UNIT                 API CODE     Curve Description
#---------               -----------    ---------------------------
 TIME.HHMMSS            00 000 000 000:  GT Time & Date
 GTDEPTH.m              00 000 000 000:  GT Depth
 GTPQH.psia             00 000 000 000:  GT HR Quartz Pressure
 GTTQ.degC              00 000 000 000:  GT Quartz Temperature
 GTTN.NONE              00 000 000 000:  GT Test Number
 GTET.sec               00 000 000 000:  GT Elapsed Test Time
 GTTVD.m                00 000 000 000:  GT True Vertical Depth
#Other Information
#
#WARRANTY: Halliburton will use its best efforts to furnish customers with 
#accurate information and interpretations that are part of, and incident to, the services 
#provided.  However, Halliburton cannot and does not warrant the accuracy 
#or correctness of such information and interpretations.  Under no circumstances should any 
#such information or interpretation be relied upon as the sole basis for any drilling, 
#completion, production, or financial decision or any procedure involving any risk to the 
#safety of any drilling venture, drilling rig or its crew or any other third party.  The 
#Customer has full responsibility for all drilling, completion and production operation.  
#Halliburton makes no representations or warranties, either expressed or 
#implied, including, but not limited to, the implied warranties of merchantability or fitness 
#for a particular purpose, with respect to the services rendered.  In no event will 
#Halliburton be liable for failure to obtain any particular results or for 
#any damages, including, but not limited to, indirect, special or consequential damages, 
#resulting from the use of any information or interpretation provided by Halliburton.
#
~A           TIME           GTDEPTH  GTPQH  GTTQ  GTTN  GTET   GTTVD  
# ...
   13:40:09.381.18-Apr-2020 3111.02 3311.59 69.87 5.00 276.12 1976.62
   13:40:09.581.18-Apr-2020 3111.02 3311.59 69.87 5.00 276.32 1976.62
   13:40:09.782.18-Apr-2020 3111.02 3311.74 69.86 5.00 276.52 1976.62
   13:40:09.982.18-Apr-2020 3111.02 3311.67 69.86 5.00 276.72 1976.62
   13:40:10.182.18-Apr-2020 3111.02 3311.72 69.86 5.00 276.92 1976.62
   13:40:10.382.18-Apr-2020 3111.02 3311.80 69.86 5.00 277.12 1976.62
   13:40:10.582.18-Apr-2020 3111.02 3311.80 69.86 5.00 277.32 1976.62
   13:40:10.782.18-Apr-2020 3111.02 3311.85 69.86 5.00 277.52 1976.62
   13:40:10.982.18-Apr-2020 3111.02 3311.89 69.86 5.00 277.72 1976.62
   13:40:11.182.18-Apr-2020 3111.02 3311.89 69.86 5.00 277.92 1976.62
   13:40:11.382.18-Apr-2020 3111.02 3311.94 69.85 5.00 278.13 1976.62
   13:40:11.582.18-Apr-2020 3111.02 3311.94 69.85 5.00 278.33 1976.62
   13:40:11.782.18-Apr-2020 3111.02 3311.94 69.85 5.00 278.53 1976.62
   13:40:11.982.18-Apr-2020 3111.02 3312.04 69.85 5.00 278.73 1976.62
   13:40:12.183.18-Apr-2020 3111.02 3312.07 69.85 5.00 278.93 1976.62
   13:40:12.383.18-Apr-2020 3111.02 3312.04 69.85 5.00 279.13 1976.62
   13:40:12.583.18-Apr-2020 3111.02 3312.04 69.85 5.00 279.33 1976.62
   13:40:12.783.18-Apr-2020 3111.02 3312.05 69.85 5.00 279.53 1976.62
   13:40:12.983.18-Apr-2020 3111.02 3312.04 69.85 5.00 279.73 1976.62
   13:40:13.183.18-Apr-2020 3111.02 3312.12 69.84 5.00 279.93 1976.62
   13:40:13.383.18-Apr-2020 3111.02 3312.14 69.84 5.00 280.13 1976.62
   13:40:13.583.18-Apr-2020 3111.02 3312.14 69.84 5.00 280.33 1976.62
   13:40:13.783.18-Apr-2020 3111.02 3312.12 69.84 5.00 280.53 1976.62
   13:40:13.983.18-Apr-2020 3111.02 3312.17 69.84 5.00 280.73 1976.62
   13:40:14.183.18-Apr-2020 3111.02 3312.18 69.84 5.00 280.93 1976.62
   13:40:14.384.18-Apr-2020 3111.02 3312.13 69.84 5.00 281.13 1976.62
   13:40:14.584.18-Apr-2020 3111.02 3312.13 69.84 5.00 281.33 1976.62
   13:40:14.784.18-Apr-2020 3111.02 3312.27 69.84 5.00 281.53 1976.62
   13:40:14.984.18-Apr-2020 3111.02 3312.21 69.84 5.00 281.73 1976.62
   13:40:15.184.18-Apr-2020 3111.02 3312.20 69.83 5.00 281.93 1976.62
   13:40:15.384.18-Apr-2020 3111.02 3312.35 69.83 5.00 282.13 1976.62
   13:40:15.584.18-Apr-2020 3111.02 3312.35 69.83 5.00 282.33 1976.62
   13:40:15.784.18-Apr-2020 3111.02 3312.33 69.83 5.00 282.53 1976.62
   13:40:15.984.18-Apr-2020 3111.02 3312.33 69.83 5.00 282.73 1976.62
   13:40:16.184.18-Apr-2020 3111.02 3312.29 69.83 5.00 282.93 1976.62
   13:40:16.384.18-Apr-2020 3111.02 3312.40 69.83 5.00 283.13 1976.62
   13:40:16.585.18-Apr-2020 3111.02 3312.40 69.83 5.00 283.33 1976.62
   13:40:16.785.18-Apr-2020 3111.02 3318.24 69.83 5.00 283.53 1976.62
   13:40:16.985.18-Apr-2020 3111.02 3318.27 69.82 5.00 283.73 1976.62
   13:40:17.185.18-Apr-2020 3111.02 3318.26 69.82 5.00 283.93 1976.62
   13:40:17.385.18-Apr-2020 3111.02 3318.25 69.82 5.00 284.13 1976.62
   13:40:17.585.18-Apr-2020 3111.02 3318.25 69.82 5.00 284.33 1976.62
   13:40:17.785.18-Apr-2020 3111.02 3318.26 69.82 5.00 284.53 1976.62
   13:40:17.985.18-Apr-2020 3111.02 3318.27 69.82 5.00 284.73 1976.62
   13:40:18.185.18-Apr-2020 3111.02 3318.26 69.82 5.00 284.93 1976.62
   13:40:18.385.18-Apr-2020 3111.02 3318.27 69.82 5.00 285.13 1976.62
   13:40:18.585.18-Apr-2020 3111.02 3318.27 69.82 5.00 285.33 1976.62
   13:40:18.786.18-Apr-2020 3111.02 3318.27 69.81 5.00 285.53 1976.62
   13:40:18.986.18-Apr-2020 3111.02 3318.25 69.81 5.00 285.73 1976.62
   13:40:19.186.18-Apr-2020 3111.02 3318.26 69.81 5.00 285.93 1976.62
   13:40:19.386.18-Apr-2020 3111.02 3318.25 69.81 5.00 286.13 1976.62
   13:40:19.586.18-Apr-2020 3111.02 3318.25 69.81 5.00 286.33 1976.62
   13:40:19.786.18-Apr-2020 3111.02 3318.26 69.81 5.00 286.53 1976.62
   13:40:19.986.18-Apr-2020 3111.02 3318.25 69.81 5.00 286.73 1976.62
   13:40:20.186.18-Apr-2020 3111.02 3318.25 69.81 5.00 286.93 1976.62
   13:40:20.386.18-Apr-2020 3111.02 3318.26 69.81 5.00 287.13 1976.62
   13:40:20.586.18-Apr-2020 3111.02 3318.26 69.81 5.00 287.33 1976.62
   13:40:20.786.18-Apr-2020 3111.02 3318.26 69.80 5.00 287.53 1976.62
   13:40:20.987.18-Apr-2020 3111.02 3318.25 69.80 5.00 287.73 1976.62
   13:40:21.187.18-Apr-2020 3111.02 3318.24 69.80 5.00 287.93 1976.62
   13:40:21.387.18-Apr-2020 3111.02 3318.27 69.80 5.00 288.13 1976.62
   13:40:21.587.18-Apr-2020 3111.02 3318.27 69.80 5.00 288.33 1976.62
   13:40:21.787.18-Apr-2020 3111.02 3318.25 69.80 5.00 288.53 1976.62
   13:40:21.987.18-Apr-2020 3111.02 3318.26 69.80 5.00 288.73 1976.62
   13:40:22.187.18-Apr-2020 3111.02 3318.26 69.80 5.00 288.93 1976.62
   13:40:22.387.18-Apr-2020 3111.02 3318.26 69.80 5.00 289.13 1976.62
   13:40:22.587.18-Apr-2020 3111.02 3318.26 69.80 5.00 289.33 1976.62
   13:40:22.787.18-Apr-2020 3111.02 3318.25 69.79 5.00 289.53 1976.62
   13:40:22.987.18-Apr-2020 3111.02 3318.25 69.79 5.00 289.73 1976.62
   13:40:23.188.18-Apr-2020 3111.02 3318.26 69.79 5.00 289.93 1976.62
   13:40:23.388.18-Apr-2020 3111.02 3318.25 69.79 5.00 290.13 1976.62
   13:40:23.588.18-Apr-2020 3111.02 3318.25 69.79 5.00 290.33 1976.62
   13:40:23.788.18-Apr-2020 3111.02 3318.24 69.79 5.00 290.53 1976.62
   13:40:23.988.18-Apr-2020 3111.02 3318.26 69.79 5.00 290.73 1976.62
   13:40:24.188.18-Apr-2020 3111.02 3318.27 69.79 5.00 290.93 1976.62
   13:40:24.388.18-Apr-2020 3111.02 3318.23 69.78 5.00 291.13 1976.62
   13:40:24.588.18-Apr-2020 3111.02 3318.23 69.78 5.00 291.33 1976.62
   13:40:24.788.18-Apr-2020 3111.02 3318.26 69.78 5.00 291.53 1976.62
   13:40:24.988.18-Apr-2020 3111.02 3318.26 69.78 5.00 291.73 1976.62
   13:40:25.188.18-Apr-2020 3111.02 3318.24 69.78 5.00 291.93 1976.62
   13:40:25.389.18-Apr-2020 3111.02 3318.23 69.78 5.00 292.13 1976.62
   13:40:25.589.18-Apr-2020 3111.02 3318.23 69.78 5.00 292.33 1976.62
   13:40:25.789.18-Apr-2020 3111.02 3318.24 69.78 5.00 292.53 1976.62
   13:40:25.989.18-Apr-2020 3111.02 3318.24 69.78 5.00 292.73 1976.62
   13:40:26.189.18-Apr-2020 3111.02 3318.23 69.78 5.00 292.93 1976.62
   13:40:26.389.18-Apr-2020 3111.02 3318.23 69.77 5.00 293.13 1976.62
   13:40:26.589.18-Apr-2020 3111.02 3318.23 69.77 5.00 293.33 1976.62
   13:40:26.789.18-Apr-2020 3111.02 3318.25 69.77 5.00 293.53 1976.62
   13:40:26.989.18-Apr-2020 3111.02 3318.24 69.77 5.00 293.73 1976.62
   13:40:27.189.18-Apr-2020 3111.02 3318.23 69.77 5.00 293.93 1976.62
   13:40:27.389.18-Apr-2020 3111.02 3318.23 69.77 5.00 294.13 1976.62
   13:40:27.590.18-Apr-2020 3111.02 3318.23 69.77 5.00 294.33 1976.62
   13:40:27.790.18-Apr-2020 3111.02 3318.24 69.77 5.00 294.53 1976.62
   13:40:27.990.18-Apr-2020 3111.02 3318.24 69.77 5.00 294.73 1976.62
   13:40:28.190.18-Apr-2020 3111.02 3318.23 69.76 5.00 294.93 1976.62
   13:40:28.390.18-Apr-2020 3111.02 3318.25 69.76 5.00 295.13 1976.62
   13:40:28.590.18-Apr-2020 3111.02 3318.25 69.76 5.00 295.33 1976.62
   13:40:28.790.18-Apr-2020 3111.02 3318.23 69.76 5.00 295.53 1976.62
   13:40:28.990.18-Apr-2020 3111.02 3318.23 69.76 5.00 295.73 1976.62
   13:40:29.190.18-Apr-2020 3111.02 3318.22 69.76 5.00 295.93 1976.62
   13:40:29.390.18-Apr-2020 3111.02 3318.23 69.76 5.00 296.13 1976.62
   13:40:29.590.18-Apr-2020 3111.02 3318.23 69.76 5.00 296.33 1976.62
   13:40:29.791.18-Apr-2020 3111.02 3318.23 69.76 5.00 296.53 1976.62
   13:40:29.991.18-Apr-2020 3111.02 3318.23 69.75 5.00 296.73 1976.62
   13:40:30.191.18-Apr-2020 3111.02 3318.22 69.75 5.00 296.93 1976.62
   13:40:30.391.18-Apr-2020 3111.02 3318.23 69.75 5.00 297.13 1976.62
   13:40:30.591.18-Apr-2020 3111.02 3318.23 69.75 5.00 297.33 1976.62
   13:40:30.791.18-Apr-2020 3111.02 3318.24 69.75 5.00 297.53 1976.62
   13:40:30.991.18-Apr-2020 3111.02 3318.23 69.75 5.00 297.73 1976.62
   13:40:31.191.18-Apr-2020 3111.02 3318.24 69.75 5.00 297.93 1976.62
   13:40:31.391.18-Apr-2020 3111.02 3318.24 69.75 5.00 298.13 1976.62
   13:40:31.591.18-Apr-2020 3111.02 3318.24 69.75 5.00 298.33 1976.62
   13:40:31.791.18-Apr-2020 3111.02 3318.24 69.75 5.00 298.53 1976.62
   13:40:31.991.18-Apr-2020 3111.02 3318.23 69.74 5.00 298.73 1976.62
   13:40:32.192.18-Apr-2020 3111.02 3318.24 69.74 5.00 298.93 1976.62
