~Version Information
 VERS.                  2.0:   CWLS log ASCII Standard -VERSION 2.0
 WRAP.                   NO:   One line per depth step
~Well Information Block
#MNEM.UNIT     VALUE/NAME     DESCRIPTION
#---------     -----------    ---------------------------
 STRT.S             07:07:08 18-Apr-20: START TIME 07:07:08 18-Apr-20
 STOP.S             07:14:03 18-Apr-20: STOP TIME  07:14:03 18-Apr-20
 STEP.S                   0.00: STEP TIME
 NULL.                 -999.25: NULL VALUE
 DFWT.                        :  DIST FWL TEXT
 DFST.                        :  DIST FSL TEXT
 DMF .                        :  DRILL MEAS FROM
 STIM.      16.29.52 23-Mar-20:  START TIME
 DATE.      16.29.52 23-Mar-20:  END TIME
 SPUD.               23-Mar-20:  SPUD DATE
 NREF.                    Grid:  NORTH REFERENCE
 HPTY.       Minimum Curvature:  HOLE POS TYPE
 DMOD.             Drill Model:  DRILL MOD DESC
 SVYD.                  Survey:  SURVEY DESC
 ILTD.               Lithology:  INTERP LTH DESC
 FTOP.          Formation Tops:  FORM TOPS DESC
 SON .        AZ-XX-0906252240:  JOB NUMBER
 RIG .             West Chirag:  RIG NAME
 PDAT.          Mean Sea Level:  PERMANENT DATUM
 FLD .                     ACG:  FIELD NAME
 CTRY.              Azerbaijan:  COUNTRY NAME
 WELL.           J23 (Slot 07):  WELL NAME
 SRVC.          Turan Drilling:  CONTRACTOR
 COMP.     BP Exploration (Casoian Sea) Ltd:  COMPANY
 WTYP.                Deviated:  WELL TYPE
 MDS .        Operator Entered:  MAG DATA SOURCE
 UWI .                     N/A:  UNIQUE WELL IDENTIFIER
 API .                     N/A:  API NUMBER
 BASE.              Azerbaijan:  LOGGING EQUIPMENT BASE LOCATION
 REGN.                   EESSA:  REGION
 PROV.                    Baku:  PROVINCE
 STAT.                    Baku:  STATE NAME
 MWDS.                     N/A:  MWD SHOP
 JOBN.        AZ-XX-0906252240:  JOB TICKET NUMB
 DOE .                     N/A:  DOE NUMBER
 DCON.         Sperry Drilling:  DIRECTNL CONTR
 UNIT.                     N/A:  LOGGING EQUIPMENT ID
 CNTY.                        :  COUNTY
 LOC .                        :  LOCATION
 LMF .             Drill Floor:  LOG MEASURED FROM
 TVDS.m                  43.00:  TVDSS CORRECTN
 LATI.deg                40.13:  LATITUDE
 LONG.deg                51.22:  LONGITUDE
 WHNS.m                   9.43:  WELL HEAD N/S
 WHEW.m                  -8.91:  WELL HEAD E/W
 UTMX.m              519005.06:  UTM X
 UTMY.m             4443793.85:  UTM Y
 DFWL.m                   0.00:  DISTANCE FWL
 DFSL.m                   0.00:  DISTANCE FSL
 SDEP.m                   0.00:  START DEPTH
 TDD .m                   0.00:  TOTAL DEPTH (DRILLER)
 VSDR.deg               179.88:  VERT SEC DIRECT
 GVFD.g                   1.00:  GRAVITY FIELD
 MFLD.nT              50281.00:  MAGNETIC FIELD
 MDIP.deg                59.58:  MAGNETIC DIP
 MDEC.deg                 6.48:  MAGNETIC DECL
 GRDC.deg                 0.14:  GRID CORRECTION
 AZTC.deg                 6.34:  AZM TOTAL CORR
 EPD .m                   0.00:  ELEVATION
 EGL .m                   0.00:  GROUND ELEVATION
 WDMS.m                 169.80:  WD ELEV
 APD .m                  43.00:  DEPTH ABOVE PD
 DEP .m                 354.17:  DEPTH
 AGAP.m                  43.00:  AIR GAP
 VSEW.m                  -8.91:  VERT SEC E/W
 VSNS.m                   9.43:  VERT SEC N/S
 EKB .m                   0.00:  KB ELEVATION
 EDF .m                  43.00:  DF ELEVATION
 TDL .m                1326.00:  TOTAL DEPTH (LOGGER)
 VSC .                       0:  VS TO CLOSURE
 MAGU.                 1850704:  MAGUTM CHECKSUM
~Parameter Information Block
#MNEM.UNIT       Value        Description
#---------     -----------    ---------------------------
 AV  .mps                 1.17:  Ann Velocity 
 AZIF.deg               184.04:  Azm, Final 
 BHAT.        Rotary Steerable:  BHA Type 
 BREV.rev            620000.00:  Rev Bit Total 
 BROT.°/30m               0.20:  Build Rotating 
 BS  .in                 14.75:  Bit Size 
 BSZ .in                 14.75:  Bit Size 
 BTPL.psig              618.00:  Bit Press Loss 
 CABU.                      No:  Customer Abuse 
 COMM.                     îb:  Run Comments 1 
 TCS .hr                 87.68:  Time Ciculation Ended 
 CV  .mps                 3.10:  Crit Velocity 
 DD1 .          Rashad Habibov:  Direct Drillr 1 
 DD2 .         Rasim Ibrahimov:  Direct Drillr 2 
 DDSV.               Geo-Pilot:  DD Service 
 DEFF.%                  98.00:  % Det Eff 
 DLRX.°/30m               1.48:  Dogleg Rot Max 
 DLSO.°/30m               0.50:  Dogleg Oriented 
 DLSX.°/30m               1.48:  Dogleg Str Max 
 DRET.      06.18.56 19-Apr-20:  Drill End Time 
 DRST.      15.00.56 15-Apr-20:  Drill Start Tim 
 DTIM.hr                 51.73:  Time Drilling 
 EDEP.m                3410.01:  End Depth 
 ENG1.        Marcelo Sandoval:  Engineer 1 
 ENG2.        Davud Huseynzade:  Engineer 2 
 ENG3.          Ruslan Safarov:  Engineer 3 
 ETIM.      04.00.56 20-Apr-20:  End Time 
 FLOI.gpm              1000.00:  Flow In 
 FLON.gpm               600.00:  Flow In Min 
 FLOS.cptm                0.00:  Fluid Loss 
 FLOX.gpm              1200.00:  Flow In Max 
 HFLO.                      No:  High Flow 
 HPRE.                     Yes:  High Pressure 
 HTEM.                      No:  High Temp 
 HYDO.m                   1.80:  Hydro Offset 
 IFIN.deg                70.04:  Inc, Final 
 IMAX.deg                70.56:  Inc Max 
 IMIN.deg                69.85:  Inc Min 
 IMND.m                3103.24:  Inc Min Depth 
 IMXD.m                2876.63:  Inc Max Depth 
 JARR.                      No:  Jarring 
 LETM.      06.18.56 19-Apr-20:  Log End Time 
 LOST.hr                     0:  Lost Rig Time 
 LSTM.      15.00.56 15-Apr-20:  Log Start Time 
 MDCL.ppm             42000.00:  Mud Chlorides 
 MDES.     Inversion Oil/Synthetic:  Mud Desc 
 DFD .sg                  1.58:  Mud Density 
 MDMN.sg                  1.58:  Dens Mud Min 
 MDMX.sg                  1.58:  Dens Mud Max 
 MOIL.                      71:  Run Mud Oil % 
 MOWR.                   71:29:  Run Mud OWR 
 MSND.                       0:  Run Mud Sand % 
 MSOL.                    23.3:  Run Mud Solids% 
 DFV .spqt               84.00:  Mud Viscosity 
 MWOD.in                  9.50:  MWD Tool OD 
 MWSI.                      No:  Serv Intrp, MWD 
 OTIM.hr                139.62:  Time Operating 
 PMAX.psia             5364.69:  Press Op, Max 
 PV  .cP                 80.00:  Mud PV 
 RUN .                     700:  Run Number 
 ROPA.m/hr               25.00:  ROP Avg 
 ROPN.m/hr               11.00:  ROP Min 
 ROPX.m/hr               36.00:  ROP Max 
 RPMA.rpm               130.00:  RPM Surface Avg 
 RPMN.rpm               120.00:  RPM Surface Min 
 RPMX.rpm               140.00:  RPM Surface Max 
 RRUN.                    0700:  Rig Run Number 
 SAZI.deg               183.25:  Azm, Start 
 SDEP.m                2084.00:  Start Depth 
 SIDD.                      No:  Serv Intrp, DD 
 SINC.deg                70.38:  Inc, Start 
 SPPA.psig             4800.00:  SPP Avg 
 SPPN.psig             4400.00:  SPP Min 
 SPPX.psig             5350.00:  SPP Max 
 STIM.      16.30.56 14-Apr-20:  Start Time 
 SVCS.                 DD, MWD:  Services 
 SVER.                    9.20:  Sperry Version 
 TDAT.m                1326.00:  Tot Depth Attmp 
 TDDF.                      No:  Trip for DD 
 TDLG.m                1326.00:  Tot Depth Loggd 
 TFF .                      No:  Trip for Fail 
 TQAA.f-kp               19.00:  Torque Abs Avg 
 TQAN.f-kp                8.00:  Torque Abs Min 
 TQAX.f-kp               27.00:  Torque Abs Max 
 TRRT.°/30m               0.50:  Turn Rotating 
 MRT .                    HCIM:  Maximum Recorded Temperature 
 TTMX.degC               82.35:  Max Tool Temp 
 VS01.       905245875X1Z1W1C8:  Virtual Str1 SN 
 VS02.       90608022F11V7D1A9:  Virtual Str2 SN 
 VS03.            90605473R5C9:  Virtual Str3 SN 
 WBMN.klb                11.00:  WOB Min 
 WOBA.klb                21.00:  WOB Avg 
 WOBX.klb                30.00:  WOB Max 
 YP  .lhf2               45.00:  Yield Point 
~Curve Information Block
#MNEM.UNIT                 API CODE     Curve Description
#---------               -----------    ---------------------------
 TIME.HHMMSS            00 000 000 000:  GT Time & Date
 GTDEPTH.m              00 000 000 000:  GT Depth
 GTPQH.psia             00 000 000 000:  GT HR Quartz Pressure
 GTTQ.degC              00 000 000 000:  GT Quartz Temperature
 GTTN.NONE              00 000 000 000:  GT Test Number
 GTET.sec               00 000 000 000:  GT Elapsed Test Time
 GTTVD.m                00 000 000 000:  GT True Vertical Depth
#Other Information
#
#WARRANTY: Halliburton will use its best efforts to furnish customers with 
#accurate information and interpretations that are part of, and incident to, the services 
#provided.  However, Halliburton cannot and does not warrant the accuracy 
#or correctness of such information and interpretations.  Under no circumstances should any 
#such information or interpretation be relied upon as the sole basis for any drilling, 
#completion, production, or financial decision or any procedure involving any risk to the 
#safety of any drilling venture, drilling rig or its crew or any other third party.  The 
#Customer has full responsibility for all drilling, completion and production operation.  
#Halliburton makes no representations or warranties, either expressed or 
#implied, including, but not limited to, the implied warranties of merchantability or fitness 
#for a particular purpose, with respect to the services rendered.  In no event will 
#Halliburton be liable for failure to obtain any particular results or for 
#any damages, including, but not limited to, indirect, special or consequential damages, 
#resulting from the use of any information or interpretation provided by Halliburton.
#
~A           TIME           GTDEPTH  GTPQH  GTTQ  GTTN  GTET   GTTVD  
# ...
   07:07:31.638.18-Apr-2020 3016.07 4467.17 71.08 2.00  23.00 1944.23
   07:07:31.838.18-Apr-2020 3016.07 4466.61 71.08 2.00  23.20 1944.23
   07:07:32.038.18-Apr-2020 3016.07 4466.42 71.08 2.00  23.40 1944.23
   07:07:32.238.18-Apr-2020 3016.07 4466.69 71.08 2.00  23.60 1944.23
   07:07:32.438.18-Apr-2020 3016.07 4464.47 71.08 2.00  23.80 1944.23
   07:07:32.638.18-Apr-2020 3016.07 4467.13 71.08 2.00  24.00 1944.23
   07:07:32.838.18-Apr-2020 3016.07 4467.13 71.08 2.00  24.20 1944.23
   07:07:33.038.18-Apr-2020 3016.07 4467.47 71.08 2.00  24.40 1944.23
   07:07:33.238.18-Apr-2020 3016.07 4467.62 71.07 2.00  24.60 1944.23
   07:07:33.438.18-Apr-2020 3016.07 4467.47 71.07 2.00  24.80 1944.23
   07:07:33.638.18-Apr-2020 3016.07 4467.31 71.07 2.00  25.00 1944.23
   07:07:33.838.18-Apr-2020 3016.07 4467.31 71.07 2.00  25.20 1944.23
   07:07:34.038.18-Apr-2020 3016.07 4467.61 71.07 2.00  25.40 1944.23
   07:07:34.238.18-Apr-2020 3016.07 4467.24 71.07 2.00  25.60 1944.23
   07:07:34.438.18-Apr-2020 3016.07 4467.91 71.07 2.00  25.80 1944.23
   07:07:34.638.18-Apr-2020 3016.07 4467.85 71.07 2.00  26.00 1944.23
   07:07:34.838.18-Apr-2020 3016.07 4467.85 71.07 2.00  26.20 1944.23
   07:07:35.038.18-Apr-2020 3016.07 4466.84 71.07 2.00  26.40 1944.23
   07:07:35.238.18-Apr-2020 3016.07 4466.74 71.06 2.00  26.60 1944.23
   07:07:35.438.18-Apr-2020 3016.07 4468.43 71.06 2.00  26.80 1944.23
   07:07:35.638.18-Apr-2020 3016.07 4468.77 71.06 2.00  27.00 1944.23
   07:07:35.838.18-Apr-2020 3016.07 4466.65 71.06 2.00  27.20 1944.23
   07:07:36.038.18-Apr-2020 3016.07 4469.26 71.06 2.00  27.40 1944.23
   07:07:36.238.18-Apr-2020 3016.07 4469.35 71.06 2.00  27.60 1944.23
   07:07:36.438.18-Apr-2020 3016.07 4469.15 71.06 2.00  27.80 1944.23
   07:07:36.638.18-Apr-2020 3016.07 4467.72 71.06 2.00  28.00 1944.23
   07:07:36.838.18-Apr-2020 3016.07 4467.72 71.06 2.00  28.20 1944.23
   07:07:37.039.18-Apr-2020 3016.07 4469.60 71.06 2.00  28.40 1944.23
   07:07:37.239.18-Apr-2020 3016.07 4468.90 71.06 2.00  28.60 1944.23
   07:07:37.439.18-Apr-2020 3016.07 4468.92 71.05 2.00  28.80 1944.23
   07:07:37.639.18-Apr-2020 3016.07 4468.55 71.05 2.00  29.00 1944.23
   07:07:37.839.18-Apr-2020 3016.07 4468.55 71.05 2.00  29.20 1944.23
   07:07:38.039.18-Apr-2020 3016.07 4469.27 71.05 2.00  29.40 1944.23
   07:07:38.239.18-Apr-2020 3016.07 4468.92 71.05 2.00  29.60 1944.23
   07:07:38.439.18-Apr-2020 3016.07 4468.75 71.05 2.00  29.80 1944.23
   07:07:38.639.18-Apr-2020 3016.07 4467.92 71.05 2.00  30.00 1944.23
   07:07:38.839.18-Apr-2020 3016.07 4467.92 71.05 2.00  30.20 1944.23
   07:07:39.039.18-Apr-2020 3016.07 4469.47 71.05 2.00  30.40 1944.23
   07:07:39.239.18-Apr-2020 3016.07 4469.83 71.05 2.00  30.60 1944.23
   07:07:39.439.18-Apr-2020 3016.07 4470.70 71.04 2.00  30.80 1944.23
   07:07:39.639.18-Apr-2020 3016.07 4470.05 71.04 2.00  31.00 1944.23
   07:07:39.839.18-Apr-2020 3016.07 4470.05 71.04 2.00  31.20 1944.23
   07:07:40.039.18-Apr-2020 3016.07 4469.41 71.04 2.00  31.40 1944.23
   07:07:40.239.18-Apr-2020 3016.07 4469.09 71.04 2.00  31.60 1944.23
   07:07:40.439.18-Apr-2020 3016.07 4469.58 71.04 2.00  31.80 1944.23
   07:07:40.639.18-Apr-2020 3016.07 4469.73 71.04 2.00  32.00 1944.23
   07:07:40.839.18-Apr-2020 3016.07 4469.73 71.04 2.00  32.20 1944.23
   07:07:41.039.18-Apr-2020 3016.07 4468.75 71.04 2.00  32.40 1944.23
   07:07:41.239.18-Apr-2020 3016.07 4469.00 71.04 2.00  32.60 1944.23
   07:07:41.439.18-Apr-2020 3016.07 4466.83 71.03 2.00  32.80 1944.23
   07:07:41.639.18-Apr-2020 3016.07 4469.52 71.03 2.00  33.00 1944.23
   07:07:41.839.18-Apr-2020 3016.07 4469.52 71.03 2.00  33.20 1944.23
   07:07:42.039.18-Apr-2020 3016.07 4469.90 71.03 2.00  33.40 1944.23
   07:07:42.239.18-Apr-2020 3016.07 4469.77 71.03 2.00  33.60 1944.23
   07:07:42.439.18-Apr-2020 3016.07 4469.40 71.03 2.00  33.80 1944.23
   07:07:42.639.18-Apr-2020 3016.07 4469.31 71.03 2.00  34.00 1944.23
   07:07:42.839.18-Apr-2020 3016.07 4469.31 71.03 2.00  34.20 1944.23
   07:07:43.039.18-Apr-2020 3016.07 4469.17 71.03 2.00  34.40 1944.23
   07:07:43.239.18-Apr-2020 3016.07 4468.75 71.03 2.00  34.60 1944.23
   07:07:43.439.18-Apr-2020 3016.07 4469.21 71.03 2.00  34.80 1944.23
   07:07:43.639.18-Apr-2020 3016.07 4468.98 71.02 2.00  35.00 1944.23
   07:07:43.839.18-Apr-2020 3016.07 4468.04 71.02 2.00  35.20 1944.23
   07:07:44.039.18-Apr-2020 3016.07 4467.56 71.02 2.00  35.40 1944.23
   07:07:44.239.18-Apr-2020 3016.07 4467.23 71.02 2.00  35.60 1944.23
   07:07:44.439.18-Apr-2020 3016.07 4468.71 71.02 2.00  35.80 1944.23
   07:07:44.639.18-Apr-2020 3016.07 4468.81 71.02 2.00  36.00 1944.23
   07:07:44.839.18-Apr-2020 3016.07 4468.81 71.02 2.00  36.20 1944.23
   07:07:45.039.18-Apr-2020 3016.07 4469.08 71.02 2.00  36.40 1944.23
   07:07:45.239.18-Apr-2020 3016.07 4468.94 71.02 2.00  36.60 1944.23
   07:07:45.439.18-Apr-2020 3016.07 4468.35 71.02 2.00  36.80 1944.23
   07:07:45.639.18-Apr-2020 3016.07 4466.85 71.01 2.00  37.00 1944.23
   07:07:45.839.18-Apr-2020 3016.07 4466.85 71.01 2.00  37.20 1944.23
   07:07:46.039.18-Apr-2020 3016.07 4468.38 71.01 2.00  37.40 1944.23
   07:07:46.239.18-Apr-2020 3016.07 4467.49 71.01 2.00  37.60 1944.23
   07:07:46.440.18-Apr-2020 3016.07 4467.53 71.01 2.00  37.80 1944.23
   07:07:46.640.18-Apr-2020 3016.07 4465.19 71.01 2.00  38.00 1944.23
   07:07:46.840.18-Apr-2020 3016.07 4465.19 71.01 2.00  38.20 1944.23
   07:07:47.040.18-Apr-2020 3016.07 4467.48 71.01 2.00  38.40 1944.23
   07:07:47.240.18-Apr-2020 3016.07 4466.38 71.01 2.00  38.60 1944.23
   07:07:47.440.18-Apr-2020 3016.07 4465.89 71.01 2.00  38.80 1944.23
   07:07:47.640.18-Apr-2020 3016.07 4468.06 71.01 2.00  39.00 1944.23
   07:07:47.840.18-Apr-2020 3016.07 4467.87 71.00 2.00  39.20 1944.23
   07:07:48.040.18-Apr-2020 3016.07 4466.75 71.00 2.00  39.40 1944.23
   07:07:48.240.18-Apr-2020 3016.07 4468.23 71.00 2.00  39.60 1944.23
   07:07:48.440.18-Apr-2020 3016.07 4468.45 71.00 2.00  39.80 1944.23
   07:07:48.640.18-Apr-2020 3016.07 4468.02 71.00 2.00  40.00 1944.23
   07:07:48.840.18-Apr-2020 3016.07 4468.02 71.00 2.00  40.20 1944.23
   07:07:49.040.18-Apr-2020 3016.07 4467.05 71.00 2.00  40.40 1944.23
   07:07:49.240.18-Apr-2020 3016.07 4467.12 71.00 2.00  40.60 1944.23
   07:07:49.440.18-Apr-2020 3016.07 4467.61 71.00 2.00  40.80 1944.23
   07:07:49.640.18-Apr-2020 3016.07 4467.07 71.00 2.00  41.00 1944.23
   07:07:49.840.18-Apr-2020 3016.07 4467.07 71.00 2.00  41.20 1944.23
   07:07:50.040.18-Apr-2020 3016.07 4467.40 70.99 2.00  41.40 1944.23
   07:07:50.240.18-Apr-2020 3016.07 4464.97 70.99 2.00  41.60 1944.23
   07:07:50.440.18-Apr-2020 3016.07 4467.52 70.99 2.00  41.80 1944.23
   07:07:50.640.18-Apr-2020 3016.07 4467.69 70.99 2.00  42.00 1944.23
   07:07:50.840.18-Apr-2020 3016.07 4467.69 70.99 2.00  42.20 1944.23
   07:07:51.040.18-Apr-2020 3016.07 4468.49 70.99 2.00  42.40 1944.23
   07:07:51.240.18-Apr-2020 3016.07 4468.29 70.99 2.00  42.60 1944.23
   07:07:51.440.18-Apr-2020 3016.07 4468.00 70.99 2.00  42.80 1944.23
   07:07:51.640.18-Apr-2020 3016.07 4467.93 70.99 2.00  43.00 1944.23
   07:07:51.840.18-Apr-2020 3016.07 4468.39 70.99 2.00  43.20 1944.23
   07:07:52.040.18-Apr-2020 3016.07 4468.05 70.98 2.00  43.40 1944.23
   07:07:52.240.18-Apr-2020 3016.07 4468.06 70.98 2.00  43.60 1944.23
   07:07:52.440.18-Apr-2020 3016.07 4468.22 70.98 2.00  43.80 1944.23
   07:07:52.640.18-Apr-2020 3016.07 4467.86 70.98 2.00  44.00 1944.23
   07:07:52.840.18-Apr-2020 3016.07 4467.86 70.98 2.00  44.20 1944.23
   07:07:53.040.18-Apr-2020 3016.07 4467.90 70.98 2.00  44.40 1944.23
   07:07:53.240.18-Apr-2020 3016.07 4465.58 70.98 2.00  44.60 1944.23
   07:07:53.440.18-Apr-2020 3016.07 4468.70 70.98 2.00  44.80 1944.23
   07:07:53.640.18-Apr-2020 3016.07 4468.92 70.98 2.00  45.00 1944.23
   07:07:53.840.18-Apr-2020 3016.07 4468.92 70.98 2.00  45.20 1944.23
   07:07:54.040.18-Apr-2020 3016.07 4466.69 70.98 2.00  45.40 1944.23
   07:07:54.240.18-Apr-2020 3016.07 4469.41 70.97 2.00  45.60 1944.23
   07:07:54.440.18-Apr-2020 3016.07 4469.37 70.97 2.00  45.80 1944.23
