~Version Information
 VERS.                  2.0:   CWLS log ASCII Standard -VERSION 2.0
 WRAP.                   NO:   One line per depth step
~Well Information Block
#MNEM.UNIT     VALUE/NAME     DESCRIPTION
#---------     -----------    ---------------------------
 STRT.S             15:57:21 18-Apr-20: START TIME 15:57:21 18-Apr-20
 STOP.S             16:04:15 18-Apr-20: STOP TIME  16:04:15 18-Apr-20
 STEP.S                   0.00: STEP TIME
 NULL.                 -999.25: NULL VALUE
 DFWT.                        :  DIST FWL TEXT
 DFST.                        :  DIST FSL TEXT
 DMF .                        :  DRILL MEAS FROM
 STIM.      16.29.52 23-Mar-20:  START TIME
 DATE.      16.29.52 23-Mar-20:  END TIME
 SPUD.               23-Mar-20:  SPUD DATE
 NREF.                    Grid:  NORTH REFERENCE
 HPTY.       Minimum Curvature:  HOLE POS TYPE
 DMOD.             Drill Model:  DRILL MOD DESC
 SVYD.                  Survey:  SURVEY DESC
 ILTD.               Lithology:  INTERP LTH DESC
 FTOP.          Formation Tops:  FORM TOPS DESC
 SON .        AZ-XX-0906252240:  JOB NUMBER
 RIG .             West Chirag:  RIG NAME
 PDAT.          Mean Sea Level:  PERMANENT DATUM
 FLD .                     ACG:  FIELD NAME
 CTRY.              Azerbaijan:  COUNTRY NAME
 WELL.           J23 (Slot 07):  WELL NAME
 SRVC.          Turan Drilling:  CONTRACTOR
 COMP.     BP Exploration (Casoian Sea) Ltd:  COMPANY
 WTYP.                Deviated:  WELL TYPE
 MDS .        Operator Entered:  MAG DATA SOURCE
 UWI .                     N/A:  UNIQUE WELL IDENTIFIER
 API .                     N/A:  API NUMBER
 BASE.              Azerbaijan:  LOGGING EQUIPMENT BASE LOCATION
 REGN.                   EESSA:  REGION
 PROV.                    Baku:  PROVINCE
 STAT.                    Baku:  STATE NAME
 MWDS.                     N/A:  MWD SHOP
 JOBN.        AZ-XX-0906252240:  JOB TICKET NUMB
 DOE .                     N/A:  DOE NUMBER
 DCON.         Sperry Drilling:  DIRECTNL CONTR
 UNIT.                     N/A:  LOGGING EQUIPMENT ID
 CNTY.                        :  COUNTY
 LOC .                        :  LOCATION
 LMF .             Drill Floor:  LOG MEASURED FROM
 TVDS.m                  43.00:  TVDSS CORRECTN
 LATI.deg                40.13:  LATITUDE
 LONG.deg                51.22:  LONGITUDE
 WHNS.m                   9.43:  WELL HEAD N/S
 WHEW.m                  -8.91:  WELL HEAD E/W
 UTMX.m              519005.06:  UTM X
 UTMY.m             4443793.85:  UTM Y
 DFWL.m                   0.00:  DISTANCE FWL
 DFSL.m                   0.00:  DISTANCE FSL
 SDEP.m                   0.00:  START DEPTH
 TDD .m                   0.00:  TOTAL DEPTH (DRILLER)
 VSDR.deg               179.88:  VERT SEC DIRECT
 GVFD.g                   1.00:  GRAVITY FIELD
 MFLD.nT              50281.00:  MAGNETIC FIELD
 MDIP.deg                59.58:  MAGNETIC DIP
 MDEC.deg                 6.48:  MAGNETIC DECL
 GRDC.deg                 0.14:  GRID CORRECTION
 AZTC.deg                 6.34:  AZM TOTAL CORR
 EPD .m                   0.00:  ELEVATION
 EGL .m                   0.00:  GROUND ELEVATION
 WDMS.m                 169.80:  WD ELEV
 APD .m                  43.00:  DEPTH ABOVE PD
 DEP .m                 354.17:  DEPTH
 AGAP.m                  43.00:  AIR GAP
 VSEW.m                  -8.91:  VERT SEC E/W
 VSNS.m                   9.43:  VERT SEC N/S
 EKB .m                   0.00:  KB ELEVATION
 EDF .m                  43.00:  DF ELEVATION
 TDL .m                1326.00:  TOTAL DEPTH (LOGGER)
 VSC .                       0:  VS TO CLOSURE
 MAGU.                 1850704:  MAGUTM CHECKSUM
~Parameter Information Block
#MNEM.UNIT       Value        Description
#---------     -----------    ---------------------------
 AV  .mps                 1.17:  Ann Velocity 
 AZIF.deg               184.04:  Azm, Final 
 BHAT.        Rotary Steerable:  BHA Type 
 BREV.rev            620000.00:  Rev Bit Total 
 BROT.°/30m               0.20:  Build Rotating 
 BS  .in                 14.75:  Bit Size 
 BSZ .in                 14.75:  Bit Size 
 BTPL.psig              618.00:  Bit Press Loss 
 CABU.                      No:  Customer Abuse 
 COMM.                     ¬)g:  Run Comments 1 
 TCS .hr                 87.68:  Time Ciculation Ended 
 CV  .mps                 3.10:  Crit Velocity 
 DD1 .          Rashad Habibov:  Direct Drillr 1 
 DD2 .         Rasim Ibrahimov:  Direct Drillr 2 
 DDSV.               Geo-Pilot:  DD Service 
 DEFF.%                  98.00:  % Det Eff 
 DLRX.°/30m               1.48:  Dogleg Rot Max 
 DLSO.°/30m               0.50:  Dogleg Oriented 
 DLSX.°/30m               1.48:  Dogleg Str Max 
 DRET.      06.18.56 19-Apr-20:  Drill End Time 
 DRST.      15.00.56 15-Apr-20:  Drill Start Tim 
 DTIM.hr                 51.73:  Time Drilling 
 EDEP.m                3410.01:  End Depth 
 ENG1.        Marcelo Sandoval:  Engineer 1 
 ENG2.        Davud Huseynzade:  Engineer 2 
 ENG3.          Ruslan Safarov:  Engineer 3 
 ETIM.      04.00.56 20-Apr-20:  End Time 
 FLOI.gpm              1000.00:  Flow In 
 FLON.gpm               600.00:  Flow In Min 
 FLOS.cptm                0.00:  Fluid Loss 
 FLOX.gpm              1200.00:  Flow In Max 
 HFLO.                      No:  High Flow 
 HPRE.                     Yes:  High Pressure 
 HTEM.                      No:  High Temp 
 HYDO.m                   1.80:  Hydro Offset 
 IFIN.deg                70.04:  Inc, Final 
 IMAX.deg                70.56:  Inc Max 
 IMIN.deg                69.85:  Inc Min 
 IMND.m                3103.24:  Inc Min Depth 
 IMXD.m                2876.63:  Inc Max Depth 
 JARR.                      No:  Jarring 
 LETM.      06.18.56 19-Apr-20:  Log End Time 
 LOST.hr                     0:  Lost Rig Time 
 LSTM.      15.00.56 15-Apr-20:  Log Start Time 
 MDCL.ppm             42000.00:  Mud Chlorides 
 MDES.     Inversion Oil/Synthetic:  Mud Desc 
 DFD .sg                  1.58:  Mud Density 
 MDMN.sg                  1.58:  Dens Mud Min 
 MDMX.sg                  1.58:  Dens Mud Max 
 MOIL.                      71:  Run Mud Oil % 
 MOWR.                   71:29:  Run Mud OWR 
 MSND.                       0:  Run Mud Sand % 
 MSOL.                    23.3:  Run Mud Solids% 
 DFV .spqt               84.00:  Mud Viscosity 
 MWOD.in                  9.50:  MWD Tool OD 
 MWSI.                      No:  Serv Intrp, MWD 
 OTIM.hr                139.62:  Time Operating 
 PMAX.psia             5364.69:  Press Op, Max 
 PV  .cP                 80.00:  Mud PV 
 RUN .                     700:  Run Number 
 ROPA.m/hr               25.00:  ROP Avg 
 ROPN.m/hr               11.00:  ROP Min 
 ROPX.m/hr               36.00:  ROP Max 
 RPMA.rpm               130.00:  RPM Surface Avg 
 RPMN.rpm               120.00:  RPM Surface Min 
 RPMX.rpm               140.00:  RPM Surface Max 
 RRUN.                    0700:  Rig Run Number 
 SAZI.deg               183.25:  Azm, Start 
 SDEP.m                2084.00:  Start Depth 
 SIDD.                      No:  Serv Intrp, DD 
 SINC.deg                70.38:  Inc, Start 
 SPPA.psig             4800.00:  SPP Avg 
 SPPN.psig             4400.00:  SPP Min 
 SPPX.psig             5350.00:  SPP Max 
 STIM.      16.30.56 14-Apr-20:  Start Time 
 SVCS.                 DD, MWD:  Services 
 SVER.                    9.20:  Sperry Version 
 TDAT.m                1326.00:  Tot Depth Attmp 
 TDDF.                      No:  Trip for DD 
 TDLG.m                1326.00:  Tot Depth Loggd 
 TFF .                      No:  Trip for Fail 
 TQAA.f-kp               19.00:  Torque Abs Avg 
 TQAN.f-kp                8.00:  Torque Abs Min 
 TQAX.f-kp               27.00:  Torque Abs Max 
 TRRT.°/30m               0.50:  Turn Rotating 
 MRT .                    HCIM:  Maximum Recorded Temperature 
 TTMX.degC               82.35:  Max Tool Temp 
 VS01.       905245875X1Z1W1C8:  Virtual Str1 SN 
 VS02.       90608022F11V7D1A9:  Virtual Str2 SN 
 VS03.            90605473R5C9:  Virtual Str3 SN 
 WBMN.klb                11.00:  WOB Min 
 WOBA.klb                21.00:  WOB Avg 
 WOBX.klb                30.00:  WOB Max 
 YP  .lhf2               45.00:  Yield Point 
~Curve Information Block
#MNEM.UNIT                 API CODE     Curve Description
#---------               -----------    ---------------------------
 TIME.HHMMSS            00 000 000 000:  GT Time & Date
 GTDEPTH.m              00 000 000 000:  GT Depth
 GTPQH.psia             00 000 000 000:  GT HR Quartz Pressure
 GTTQ.degC              00 000 000 000:  GT Quartz Temperature
 GTTN.NONE              00 000 000 000:  GT Test Number
 GTET.sec               00 000 000 000:  GT Elapsed Test Time
 GTTVD.m                00 000 000 000:  GT True Vertical Depth
#Other Information
#
#WARRANTY: Halliburton will use its best efforts to furnish customers with 
#accurate information and interpretations that are part of, and incident to, the services 
#provided.  However, Halliburton cannot and does not warrant the accuracy 
#or correctness of such information and interpretations.  Under no circumstances should any 
#such information or interpretation be relied upon as the sole basis for any drilling, 
#completion, production, or financial decision or any procedure involving any risk to the 
#safety of any drilling venture, drilling rig or its crew or any other third party.  The 
#Customer has full responsibility for all drilling, completion and production operation.  
#Halliburton makes no representations or warranties, either expressed or 
#implied, including, but not limited to, the implied warranties of merchantability or fitness 
#for a particular purpose, with respect to the services rendered.  In no event will 
#Halliburton be liable for failure to obtain any particular results or for 
#any damages, including, but not limited to, indirect, special or consequential damages, 
#resulting from the use of any information or interpretation provided by Halliburton.
#
~A           TIME           GTDEPTH  GTPQH  GTTQ  GTTN  GTET   GTTVD  
# ...
   16:01:57.173.18-Apr-2020 3140.11 3179.70 67.47 7.00 275.97 1986.54
   16:01:57.373.18-Apr-2020 3140.11 3179.70 67.47 7.00 276.17 1986.54
   16:01:57.573.18-Apr-2020 3140.11 3177.78 67.47 7.00 276.37 1986.54
   16:01:57.773.18-Apr-2020 3140.11 3177.00 67.47 7.00 276.57 1986.54
   16:01:57.973.18-Apr-2020 3140.11 3176.27 67.47 7.00 276.77 1986.54
   16:01:58.173.18-Apr-2020 3140.11 3175.64 67.47 7.00 276.97 1986.54
   16:01:58.373.18-Apr-2020 3140.11 3175.64 67.47 7.00 277.17 1986.54
   16:01:58.573.18-Apr-2020 3140.11 3174.81 67.47 7.00 277.37 1986.54
   16:01:58.773.18-Apr-2020 3140.11 3174.71 67.47 7.00 277.57 1986.54
   16:01:58.973.18-Apr-2020 3140.11 3174.50 67.47 7.00 277.77 1986.54
   16:01:59.173.18-Apr-2020 3140.11 3174.54 67.47 7.00 277.97 1986.54
   16:01:59.373.18-Apr-2020 3140.11 3174.54 67.47 7.00 278.17 1986.54
   16:01:59.573.18-Apr-2020 3140.11 3174.31 67.47 7.00 278.37 1986.54
   16:01:59.773.18-Apr-2020 3140.11 3174.02 67.47 7.00 278.57 1986.54
   16:01:59.973.18-Apr-2020 3140.11 3173.78 67.47 7.00 278.77 1986.54
   16:02:00.173.18-Apr-2020 3140.11 3174.12 67.47 7.00 278.97 1986.54
   16:02:00.373.18-Apr-2020 3140.11 3174.13 67.47 7.00 279.17 1986.54
   16:02:00.573.18-Apr-2020 3140.11 3174.13 67.47 7.00 279.37 1986.54
   16:02:00.773.18-Apr-2020 3140.11 3174.36 67.47 7.00 279.57 1986.54
   16:02:00.973.18-Apr-2020 3140.11 3174.42 67.47 7.00 279.77 1986.54
   16:02:01.173.18-Apr-2020 3140.11 3174.29 67.47 7.00 279.97 1986.54
   16:02:01.373.18-Apr-2020 3140.11 3174.29 67.47 7.00 280.17 1986.54
   16:02:01.573.18-Apr-2020 3140.11 3174.67 67.47 7.00 280.37 1986.54
   16:02:01.773.18-Apr-2020 3140.11 3174.62 67.46 7.00 280.57 1986.54
   16:02:01.972.18-Apr-2020 3140.11 3174.92 67.46 7.00 280.77 1986.54
   16:02:02.172.18-Apr-2020 3140.11 3175.09 67.46 7.00 280.97 1986.54
   16:02:02.372.18-Apr-2020 3140.11 3175.09 67.46 7.00 281.17 1986.54
   16:02:02.572.18-Apr-2020 3140.11 3175.32 67.46 7.00 281.37 1986.54
   16:02:02.772.18-Apr-2020 3140.11 3175.72 67.46 7.00 281.57 1986.54
   16:02:02.972.18-Apr-2020 3140.11 3175.62 67.46 7.00 281.77 1986.54
   16:02:03.172.18-Apr-2020 3140.11 3175.67 67.46 7.00 281.97 1986.54
   16:02:03.372.18-Apr-2020 3140.11 3175.67 67.46 7.00 282.17 1986.54
   16:02:03.572.18-Apr-2020 3140.11 3224.74 67.46 7.00 282.37 1986.54
   16:02:03.772.18-Apr-2020 3140.11 3249.57 67.46 7.00 282.57 1986.54
   16:02:03.972.18-Apr-2020 3140.11 3268.83 67.46 7.00 282.77 1986.54
   16:02:04.172.18-Apr-2020 3140.11 3283.40 67.46 7.00 282.97 1986.54
   16:02:04.372.18-Apr-2020 3140.11 3283.40 67.46 7.00 283.17 1986.54
   16:02:04.572.18-Apr-2020 3140.11 3301.75 67.46 7.00 283.37 1986.54
   16:02:04.772.18-Apr-2020 3140.11 3307.05 67.46 7.00 283.57 1986.54
   16:02:04.972.18-Apr-2020 3140.11 3310.64 67.46 7.00 283.77 1986.54
   16:02:05.172.18-Apr-2020 3140.11 3313.04 67.46 7.00 283.97 1986.54
   16:02:05.372.18-Apr-2020 3140.11 3313.04 67.46 7.00 284.17 1986.54
   16:02:05.572.18-Apr-2020 3140.11 3315.71 67.46 7.00 284.37 1986.54
   16:02:05.772.18-Apr-2020 3140.11 3316.47 67.46 7.00 284.57 1986.54
   16:02:05.972.18-Apr-2020 3140.11 3316.98 67.46 7.00 284.77 1986.54
   16:02:06.172.18-Apr-2020 3140.11 3317.38 67.46 7.00 284.97 1986.54
   16:02:06.372.18-Apr-2020 3140.11 3317.38 67.46 7.00 285.17 1986.54
   16:02:06.572.18-Apr-2020 3140.11 3317.89 67.46 7.00 285.37 1986.54
   16:02:06.772.18-Apr-2020 3140.11 3318.06 67.46 7.00 285.57 1986.54
   16:02:06.972.18-Apr-2020 3140.11 3318.22 67.46 7.00 285.77 1986.54
   16:02:07.172.18-Apr-2020 3140.11 3318.36 67.46 7.00 285.97 1986.54
   16:02:07.372.18-Apr-2020 3140.11 3318.36 67.46 7.00 286.17 1986.54
   16:02:07.572.18-Apr-2020 3140.11 3318.61 67.46 7.00 286.37 1986.54
   16:02:07.772.18-Apr-2020 3140.11 3318.71 67.46 7.00 286.57 1986.54
   16:02:07.972.18-Apr-2020 3140.11 3318.81 67.46 7.00 286.77 1986.54
   16:02:08.172.18-Apr-2020 3140.11 3318.91 67.46 7.00 286.97 1986.54
   16:02:08.372.18-Apr-2020 3140.11 3318.99 67.46 7.00 287.17 1986.54
   16:02:08.572.18-Apr-2020 3140.11 3319.07 67.46 7.00 287.37 1986.54
   16:02:08.772.18-Apr-2020 3140.11 3319.14 67.46 7.00 287.57 1986.54
   16:02:08.972.18-Apr-2020 3140.11 3319.21 67.46 7.00 287.77 1986.54
   16:02:09.172.18-Apr-2020 3140.11 3319.26 67.46 7.00 287.97 1986.54
   16:02:09.372.18-Apr-2020 3140.11 3319.26 67.46 7.00 288.17 1986.54
   16:02:09.572.18-Apr-2020 3140.11 3319.37 67.46 7.00 288.37 1986.54
   16:02:09.772.18-Apr-2020 3140.11 3319.40 67.46 7.00 288.57 1986.54
   16:02:09.972.18-Apr-2020 3140.11 3319.46 67.46 7.00 288.77 1986.54
   16:02:10.172.18-Apr-2020 3140.11 3319.49 67.46 7.00 288.97 1986.54
   16:02:10.372.18-Apr-2020 3140.11 3319.49 67.46 7.00 289.17 1986.54
   16:02:10.571.18-Apr-2020 3140.11 3319.56 67.46 7.00 289.37 1986.54
   16:02:10.771.18-Apr-2020 3140.11 3319.58 67.46 7.00 289.57 1986.54
   16:02:10.971.18-Apr-2020 3140.11 3319.61 67.46 7.00 289.77 1986.54
   16:02:11.171.18-Apr-2020 3140.11 3319.63 67.46 7.00 289.97 1986.54
   16:02:11.371.18-Apr-2020 3140.11 3319.63 67.46 7.00 290.17 1986.54
   16:02:11.571.18-Apr-2020 3140.11 3319.69 67.46 7.00 290.37 1986.54
   16:02:11.771.18-Apr-2020 3140.11 3319.70 67.46 7.00 290.57 1986.54
   16:02:11.971.18-Apr-2020 3140.11 3319.72 67.46 7.00 290.77 1986.54
   16:02:12.171.18-Apr-2020 3140.11 3319.74 67.46 7.00 290.97 1986.54
   16:02:12.371.18-Apr-2020 3140.11 3319.76 67.46 7.00 291.17 1986.54
   16:02:12.571.18-Apr-2020 3140.11 3319.77 67.46 7.00 291.37 1986.54
   16:02:12.771.18-Apr-2020 3140.11 3319.80 67.46 7.00 291.57 1986.54
   16:02:12.971.18-Apr-2020 3140.11 3319.81 67.46 7.00 291.77 1986.54
   16:02:13.171.18-Apr-2020 3140.11 3319.83 67.46 7.00 291.97 1986.54
   16:02:13.371.18-Apr-2020 3140.11 3319.83 67.46 7.00 292.17 1986.54
   16:02:13.571.18-Apr-2020 3140.11 3319.86 67.46 7.00 292.37 1986.54
   16:02:13.771.18-Apr-2020 3140.11 3319.87 67.46 7.00 292.57 1986.54
   16:02:13.971.18-Apr-2020 3140.11 3319.87 67.46 7.00 292.77 1986.54
   16:02:14.171.18-Apr-2020 3140.11 3319.89 67.46 7.00 292.97 1986.54
   16:02:14.371.18-Apr-2020 3140.11 3319.89 67.46 7.00 293.17 1986.54
   16:02:14.571.18-Apr-2020 3140.11 3319.92 67.46 7.00 293.37 1986.54
   16:02:14.771.18-Apr-2020 3140.11 3319.92 67.46 7.00 293.57 1986.54
   16:02:14.971.18-Apr-2020 3140.11 3319.94 67.46 7.00 293.77 1986.54
   16:02:15.171.18-Apr-2020 3140.11 3319.93 67.46 7.00 293.97 1986.54
   16:02:15.371.18-Apr-2020 3140.11 3319.93 67.46 7.00 294.17 1986.54
   16:02:15.571.18-Apr-2020 3140.11 3319.93 67.46 7.00 294.37 1986.54
   16:02:15.771.18-Apr-2020 3140.11 3319.97 67.46 7.00 294.57 1986.54
   16:02:15.971.18-Apr-2020 3140.11 3319.97 67.46 7.00 294.77 1986.54
   16:02:16.171.18-Apr-2020 3140.11 3319.96 67.46 7.00 294.97 1986.54
   16:02:16.371.18-Apr-2020 3140.11 3319.97 67.46 7.00 295.17 1986.54
   16:02:16.571.18-Apr-2020 3140.11 3319.98 67.46 7.00 295.37 1986.54
   16:02:16.771.18-Apr-2020 3140.11 3320.00 67.46 7.00 295.57 1986.54
   16:02:16.971.18-Apr-2020 3140.11 3319.99 67.46 7.00 295.77 1986.54
   16:02:17.171.18-Apr-2020 3140.11 3319.99 67.46 7.00 295.97 1986.54
   16:02:17.371.18-Apr-2020 3140.11 3319.99 67.46 7.00 296.17 1986.54
   16:02:17.571.18-Apr-2020 3140.11 3320.00 67.46 7.00 296.37 1986.54
   16:02:17.771.18-Apr-2020 3140.11 3320.01 67.46 7.00 296.57 1986.54
   16:02:17.971.18-Apr-2020 3140.11 3320.02 67.46 7.00 296.77 1986.54
   16:02:18.171.18-Apr-2020 3140.11 3320.03 67.46 7.00 296.97 1986.54
   16:02:18.371.18-Apr-2020 3140.11 3320.03 67.46 7.00 297.17 1986.54
   16:02:18.571.18-Apr-2020 3140.11 3320.05 67.46 7.00 297.37 1986.54
   16:02:18.771.18-Apr-2020 3140.11 3320.05 67.46 7.00 297.57 1986.54
   16:02:18.971.18-Apr-2020 3140.11 3320.04 67.46 7.00 297.77 1986.54
   16:02:19.170.18-Apr-2020 3140.11 3320.05 67.46 7.00 297.97 1986.54
   16:02:19.370.18-Apr-2020 3140.11 3320.05 67.46 7.00 298.17 1986.54
   16:02:19.570.18-Apr-2020 3140.11 3320.06 67.46 7.00 298.37 1986.54
   16:02:19.770.18-Apr-2020 3140.11 3320.05 67.45 7.00 298.57 1986.54
   16:02:19.970.18-Apr-2020 3140.11 3320.06 67.45 7.00 298.77 1986.54
