~Version Information
 VERS.                  2.0:   CWLS log ASCII Standard -VERSION 2.0
 WRAP.                   NO:   One line per depth step
~Well Information Block
#MNEM.UNIT     VALUE/NAME     DESCRIPTION
#---------     -----------    ---------------------------
 STRT.S             15:57:21 18-Apr-20: START TIME 15:57:21 18-Apr-20
 STOP.S             16:04:15 18-Apr-20: STOP TIME  16:04:15 18-Apr-20
 STEP.S                   0.00: STEP TIME
 NULL.                 -999.25: NULL VALUE
 DFWT.                        :  DIST FWL TEXT
 DFST.                        :  DIST FSL TEXT
 DMF .                        :  DRILL MEAS FROM
 STIM.      16.29.52 23-Mar-20:  START TIME
 DATE.      16.29.52 23-Mar-20:  END TIME
 SPUD.               23-Mar-20:  SPUD DATE
 NREF.                    Grid:  NORTH REFERENCE
 HPTY.       Minimum Curvature:  HOLE POS TYPE
 DMOD.             Drill Model:  DRILL MOD DESC
 SVYD.                  Survey:  SURVEY DESC
 ILTD.               Lithology:  INTERP LTH DESC
 FTOP.          Formation Tops:  FORM TOPS DESC
 SON .        AZ-XX-0906252240:  JOB NUMBER
 RIG .             West Chirag:  RIG NAME
 PDAT.          Mean Sea Level:  PERMANENT DATUM
 FLD .                     ACG:  FIELD NAME
 CTRY.              Azerbaijan:  COUNTRY NAME
 WELL.           J23 (Slot 07):  WELL NAME
 SRVC.          Turan Drilling:  CONTRACTOR
 COMP.     BP Exploration (Casoian Sea) Ltd:  COMPANY
 WTYP.                Deviated:  WELL TYPE
 MDS .        Operator Entered:  MAG DATA SOURCE
 UWI .                     N/A:  UNIQUE WELL IDENTIFIER
 API .                     N/A:  API NUMBER
 BASE.              Azerbaijan:  LOGGING EQUIPMENT BASE LOCATION
 REGN.                   EESSA:  REGION
 PROV.                    Baku:  PROVINCE
 STAT.                    Baku:  STATE NAME
 MWDS.                     N/A:  MWD SHOP
 JOBN.        AZ-XX-0906252240:  JOB TICKET NUMB
 DOE .                     N/A:  DOE NUMBER
 DCON.         Sperry Drilling:  DIRECTNL CONTR
 UNIT.                     N/A:  LOGGING EQUIPMENT ID
 CNTY.                        :  COUNTY
 LOC .                        :  LOCATION
 LMF .             Drill Floor:  LOG MEASURED FROM
 TVDS.m                  43.00:  TVDSS CORRECTN
 LATI.deg                40.13:  LATITUDE
 LONG.deg                51.22:  LONGITUDE
 WHNS.m                   9.43:  WELL HEAD N/S
 WHEW.m                  -8.91:  WELL HEAD E/W
 UTMX.m              519005.06:  UTM X
 UTMY.m             4443793.85:  UTM Y
 DFWL.m                   0.00:  DISTANCE FWL
 DFSL.m                   0.00:  DISTANCE FSL
 SDEP.m                   0.00:  START DEPTH
 TDD .m                   0.00:  TOTAL DEPTH (DRILLER)
 VSDR.deg               179.88:  VERT SEC DIRECT
 GVFD.g                   1.00:  GRAVITY FIELD
 MFLD.nT              50281.00:  MAGNETIC FIELD
 MDIP.deg                59.58:  MAGNETIC DIP
 MDEC.deg                 6.48:  MAGNETIC DECL
 GRDC.deg                 0.14:  GRID CORRECTION
 AZTC.deg                 6.34:  AZM TOTAL CORR
 EPD .m                   0.00:  ELEVATION
 EGL .m                   0.00:  GROUND ELEVATION
 WDMS.m                 169.80:  WD ELEV
 APD .m                  43.00:  DEPTH ABOVE PD
 DEP .m                 354.17:  DEPTH
 AGAP.m                  43.00:  AIR GAP
 VSEW.m                  -8.91:  VERT SEC E/W
 VSNS.m                   9.43:  VERT SEC N/S
 EKB .m                   0.00:  KB ELEVATION
 EDF .m                  43.00:  DF ELEVATION
 TDL .m                1326.00:  TOTAL DEPTH (LOGGER)
 VSC .                       0:  VS TO CLOSURE
 MAGU.                 1850704:  MAGUTM CHECKSUM
~Parameter Information Block
#MNEM.UNIT       Value        Description
#---------     -----------    ---------------------------
 AV  .mps                 1.17:  Ann Velocity 
 AZIF.deg               184.04:  Azm, Final 
 BHAT.        Rotary Steerable:  BHA Type 
 BREV.rev            620000.00:  Rev Bit Total 
 BROT.°/30m               0.20:  Build Rotating 
 BS  .in                 14.75:  Bit Size 
 BSZ .in                 14.75:  Bit Size 
 BTPL.psig              618.00:  Bit Press Loss 
 CABU.                      No:  Customer Abuse 
 COMM.                     ¬)g:  Run Comments 1 
 TCS .hr                 87.68:  Time Ciculation Ended 
 CV  .mps                 3.10:  Crit Velocity 
 DD1 .          Rashad Habibov:  Direct Drillr 1 
 DD2 .         Rasim Ibrahimov:  Direct Drillr 2 
 DDSV.               Geo-Pilot:  DD Service 
 DEFF.%                  98.00:  % Det Eff 
 DLRX.°/30m               1.48:  Dogleg Rot Max 
 DLSO.°/30m               0.50:  Dogleg Oriented 
 DLSX.°/30m               1.48:  Dogleg Str Max 
 DRET.      06.18.56 19-Apr-20:  Drill End Time 
 DRST.      15.00.56 15-Apr-20:  Drill Start Tim 
 DTIM.hr                 51.73:  Time Drilling 
 EDEP.m                3410.01:  End Depth 
 ENG1.        Marcelo Sandoval:  Engineer 1 
 ENG2.        Davud Huseynzade:  Engineer 2 
 ENG3.          Ruslan Safarov:  Engineer 3 
 ETIM.      04.00.56 20-Apr-20:  End Time 
 FLOI.gpm              1000.00:  Flow In 
 FLON.gpm               600.00:  Flow In Min 
 FLOS.cptm                0.00:  Fluid Loss 
 FLOX.gpm              1200.00:  Flow In Max 
 HFLO.                      No:  High Flow 
 HPRE.                     Yes:  High Pressure 
 HTEM.                      No:  High Temp 
 HYDO.m                   1.80:  Hydro Offset 
 IFIN.deg                70.04:  Inc, Final 
 IMAX.deg                70.56:  Inc Max 
 IMIN.deg                69.85:  Inc Min 
 IMND.m                3103.24:  Inc Min Depth 
 IMXD.m                2876.63:  Inc Max Depth 
 JARR.                      No:  Jarring 
 LETM.      06.18.56 19-Apr-20:  Log End Time 
 LOST.hr                     0:  Lost Rig Time 
 LSTM.      15.00.56 15-Apr-20:  Log Start Time 
 MDCL.ppm             42000.00:  Mud Chlorides 
 MDES.     Inversion Oil/Synthetic:  Mud Desc 
 DFD .sg                  1.58:  Mud Density 
 MDMN.sg                  1.58:  Dens Mud Min 
 MDMX.sg                  1.58:  Dens Mud Max 
 MOIL.                      71:  Run Mud Oil % 
 MOWR.                   71:29:  Run Mud OWR 
 MSND.                       0:  Run Mud Sand % 
 MSOL.                    23.3:  Run Mud Solids% 
 DFV .spqt               84.00:  Mud Viscosity 
 MWOD.in                  9.50:  MWD Tool OD 
 MWSI.                      No:  Serv Intrp, MWD 
 OTIM.hr                139.62:  Time Operating 
 PMAX.psia             5364.69:  Press Op, Max 
 PV  .cP                 80.00:  Mud PV 
 RUN .                     700:  Run Number 
 ROPA.m/hr               25.00:  ROP Avg 
 ROPN.m/hr               11.00:  ROP Min 
 ROPX.m/hr               36.00:  ROP Max 
 RPMA.rpm               130.00:  RPM Surface Avg 
 RPMN.rpm               120.00:  RPM Surface Min 
 RPMX.rpm               140.00:  RPM Surface Max 
 RRUN.                    0700:  Rig Run Number 
 SAZI.deg               183.25:  Azm, Start 
 SDEP.m                2084.00:  Start Depth 
 SIDD.                      No:  Serv Intrp, DD 
 SINC.deg                70.38:  Inc, Start 
 SPPA.psig             4800.00:  SPP Avg 
 SPPN.psig             4400.00:  SPP Min 
 SPPX.psig             5350.00:  SPP Max 
 STIM.      16.30.56 14-Apr-20:  Start Time 
 SVCS.                 DD, MWD:  Services 
 SVER.                    9.20:  Sperry Version 
 TDAT.m                1326.00:  Tot Depth Attmp 
 TDDF.                      No:  Trip for DD 
 TDLG.m                1326.00:  Tot Depth Loggd 
 TFF .                      No:  Trip for Fail 
 TQAA.f-kp               19.00:  Torque Abs Avg 
 TQAN.f-kp                8.00:  Torque Abs Min 
 TQAX.f-kp               27.00:  Torque Abs Max 
 TRRT.°/30m               0.50:  Turn Rotating 
 MRT .                    HCIM:  Maximum Recorded Temperature 
 TTMX.degC               82.35:  Max Tool Temp 
 VS01.       905245875X1Z1W1C8:  Virtual Str1 SN 
 VS02.       90608022F11V7D1A9:  Virtual Str2 SN 
 VS03.            90605473R5C9:  Virtual Str3 SN 
 WBMN.klb                11.00:  WOB Min 
 WOBA.klb                21.00:  WOB Avg 
 WOBX.klb                30.00:  WOB Max 
 YP  .lhf2               45.00:  Yield Point 
~Curve Information Block
#MNEM.UNIT                 API CODE     Curve Description
#---------               -----------    ---------------------------
 TIME.HHMMSS            00 000 000 000:  GT Time & Date
 GTDEPTH.m              00 000 000 000:  GT Depth
 GTPQH.psia             00 000 000 000:  GT HR Quartz Pressure
 GTTQ.degC              00 000 000 000:  GT Quartz Temperature
 GTTN.NONE              00 000 000 000:  GT Test Number
 GTET.sec               00 000 000 000:  GT Elapsed Test Time
 GTTVD.m                00 000 000 000:  GT True Vertical Depth
#Other Information
#
#WARRANTY: Halliburton will use its best efforts to furnish customers with 
#accurate information and interpretations that are part of, and incident to, the services 
#provided.  However, Halliburton cannot and does not warrant the accuracy 
#or correctness of such information and interpretations.  Under no circumstances should any 
#such information or interpretation be relied upon as the sole basis for any drilling, 
#completion, production, or financial decision or any procedure involving any risk to the 
#safety of any drilling venture, drilling rig or its crew or any other third party.  The 
#Customer has full responsibility for all drilling, completion and production operation.  
#Halliburton makes no representations or warranties, either expressed or 
#implied, including, but not limited to, the implied warranties of merchantability or fitness 
#for a particular purpose, with respect to the services rendered.  In no event will 
#Halliburton be liable for failure to obtain any particular results or for 
#any damages, including, but not limited to, indirect, special or consequential damages, 
#resulting from the use of any information or interpretation provided by Halliburton.
#
~A           TIME           GTDEPTH  GTPQH  GTTQ  GTTN  GTET   GTTVD  
# ...
   16:00:48.181.18-Apr-2020 3140.11 3320.24 67.52 7.00 206.98 1986.54
   16:00:48.381.18-Apr-2020 3140.11 3320.24 67.52 7.00 207.18 1986.54
   16:00:48.581.18-Apr-2020 3140.11 3320.23 67.52 7.00 207.38 1986.54
   16:00:48.781.18-Apr-2020 3140.11 3320.22 67.52 7.00 207.58 1986.54
   16:00:48.981.18-Apr-2020 3140.11 3320.25 67.52 7.00 207.78 1986.54
   16:00:49.181.18-Apr-2020 3140.11 3320.25 67.52 7.00 207.98 1986.54
   16:00:49.381.18-Apr-2020 3140.11 3320.25 67.52 7.00 208.18 1986.54
   16:00:49.581.18-Apr-2020 3140.11 3320.25 67.52 7.00 208.38 1986.54
   16:00:49.781.18-Apr-2020 3140.11 3320.25 67.52 7.00 208.58 1986.54
   16:00:49.981.18-Apr-2020 3140.11 3320.24 67.52 7.00 208.78 1986.54
   16:00:50.181.18-Apr-2020 3140.11 3320.25 67.52 7.00 208.98 1986.54
   16:00:50.381.18-Apr-2020 3140.11 3320.25 67.52 7.00 209.18 1986.54
   16:00:50.581.18-Apr-2020 3140.11 3320.25 67.52 7.00 209.38 1986.54
   16:00:50.781.18-Apr-2020 3140.11 3320.25 67.52 7.00 209.58 1986.54
   16:00:50.981.18-Apr-2020 3140.11 3320.25 67.52 7.00 209.78 1986.54
   16:00:51.181.18-Apr-2020 3140.11 3320.24 67.52 7.00 209.98 1986.54
   16:00:51.381.18-Apr-2020 3140.11 3320.24 67.52 7.00 210.18 1986.54
   16:00:51.581.18-Apr-2020 3140.11 3320.24 67.52 7.00 210.38 1986.54
   16:00:51.781.18-Apr-2020 3140.11 3320.26 67.52 7.00 210.58 1986.54
   16:00:51.981.18-Apr-2020 3140.11 3320.25 67.52 7.00 210.78 1986.54
   16:00:52.181.18-Apr-2020 3140.11 3320.24 67.52 7.00 210.98 1986.54
   16:00:52.381.18-Apr-2020 3140.11 3320.25 67.52 7.00 211.18 1986.54
   16:00:52.581.18-Apr-2020 3140.11 3320.25 67.52 7.00 211.38 1986.54
   16:00:52.781.18-Apr-2020 3140.11 3320.25 67.52 7.00 211.58 1986.54
   16:00:52.980.18-Apr-2020 3140.11 3320.24 67.52 7.00 211.78 1986.54
   16:00:53.180.18-Apr-2020 3140.11 3320.28 67.52 7.00 211.98 1986.54
   16:00:53.380.18-Apr-2020 3140.11 3320.28 67.52 7.00 212.18 1986.54
   16:00:53.580.18-Apr-2020 3140.11 3320.25 67.52 7.00 212.38 1986.54
   16:00:53.780.18-Apr-2020 3140.11 3320.25 67.52 7.00 212.58 1986.54
   16:00:53.980.18-Apr-2020 3140.11 3320.26 67.52 7.00 212.78 1986.54
   16:00:54.180.18-Apr-2020 3140.11 3320.26 67.52 7.00 212.98 1986.54
   16:00:54.380.18-Apr-2020 3140.11 3320.26 67.52 7.00 213.18 1986.54
   16:00:54.580.18-Apr-2020 3140.11 3320.26 67.52 7.00 213.38 1986.54
   16:00:54.780.18-Apr-2020 3140.11 3320.26 67.52 7.00 213.58 1986.54
   16:00:54.980.18-Apr-2020 3140.11 3320.26 67.52 7.00 213.78 1986.54
   16:00:55.180.18-Apr-2020 3140.11 3320.26 67.52 7.00 213.98 1986.54
   16:00:55.380.18-Apr-2020 3140.11 3320.26 67.52 7.00 214.18 1986.54
   16:00:55.580.18-Apr-2020 3140.11 3320.24 67.52 7.00 214.38 1986.54
   16:00:55.780.18-Apr-2020 3140.11 3320.27 67.52 7.00 214.58 1986.54
   16:00:55.980.18-Apr-2020 3140.11 3320.27 67.52 7.00 214.78 1986.54
   16:00:56.180.18-Apr-2020 3140.11 3320.25 67.52 7.00 214.98 1986.54
   16:00:56.380.18-Apr-2020 3140.11 3320.27 67.52 7.00 215.18 1986.54
   16:00:56.580.18-Apr-2020 3140.11 3320.28 67.52 7.00 215.38 1986.54
   16:00:56.780.18-Apr-2020 3140.11 3320.27 67.52 7.00 215.58 1986.54
   16:00:56.980.18-Apr-2020 3140.11 3320.27 67.52 7.00 215.78 1986.54
   16:00:57.180.18-Apr-2020 3140.11 3320.26 67.52 7.00 215.97 1986.54
   16:00:57.380.18-Apr-2020 3140.11 3320.26 67.52 7.00 216.17 1986.54
   16:00:57.580.18-Apr-2020 3140.11 3320.28 67.51 7.00 216.37 1986.54
   16:00:57.780.18-Apr-2020 3140.11 3320.27 67.51 7.00 216.57 1986.54
   16:00:57.980.18-Apr-2020 3140.11 3320.27 67.51 7.00 216.77 1986.54
   16:00:58.180.18-Apr-2020 3140.11 3320.26 67.51 7.00 216.97 1986.54
   16:00:58.380.18-Apr-2020 3140.11 3320.26 67.51 7.00 217.17 1986.54
   16:00:58.580.18-Apr-2020 3140.11 3320.26 67.51 7.00 217.37 1986.54
   16:00:58.780.18-Apr-2020 3140.11 3320.26 67.51 7.00 217.57 1986.54
   16:00:58.980.18-Apr-2020 3140.11 3320.27 67.51 7.00 217.77 1986.54
   16:00:59.180.18-Apr-2020 3140.11 3320.27 67.51 7.00 217.97 1986.54
   16:00:59.380.18-Apr-2020 3140.11 3320.27 67.51 7.00 218.17 1986.54
   16:00:59.580.18-Apr-2020 3140.11 3320.25 67.51 7.00 218.37 1986.54
   16:00:59.780.18-Apr-2020 3140.11 3320.27 67.51 7.00 218.57 1986.54
   16:00:59.980.18-Apr-2020 3140.11 3320.27 67.51 7.00 218.77 1986.54
   16:01:00.180.18-Apr-2020 3140.11 3320.27 67.51 7.00 218.97 1986.54
   16:01:00.380.18-Apr-2020 3140.11 3320.27 67.51 7.00 219.17 1986.54
   16:01:00.580.18-Apr-2020 3140.11 3320.26 67.51 7.00 219.37 1986.54
   16:01:00.780.18-Apr-2020 3140.11 3320.27 67.51 7.00 219.57 1986.54
   16:01:00.980.18-Apr-2020 3140.11 3320.26 67.51 7.00 219.77 1986.54
   16:01:01.180.18-Apr-2020 3140.11 3320.26 67.51 7.00 219.97 1986.54
   16:01:01.380.18-Apr-2020 3140.11 3320.26 67.51 7.00 220.17 1986.54
   16:01:01.579.18-Apr-2020 3140.11 3320.27 67.51 7.00 220.37 1986.54
   16:01:01.779.18-Apr-2020 3140.11 3320.25 67.51 7.00 220.57 1986.54
   16:01:01.979.18-Apr-2020 3140.11 3320.27 67.51 7.00 220.77 1986.54
   16:01:02.179.18-Apr-2020 3140.11 3320.27 67.51 7.00 220.97 1986.54
   16:01:02.379.18-Apr-2020 3140.11 3320.27 67.51 7.00 221.17 1986.54
   16:01:02.579.18-Apr-2020 3140.11 3320.26 67.51 7.00 221.37 1986.54
   16:01:02.779.18-Apr-2020 3140.11 3320.28 67.51 7.00 221.57 1986.54
   16:01:02.979.18-Apr-2020 3140.11 3320.27 67.51 7.00 221.77 1986.54
   16:01:03.179.18-Apr-2020 3140.11 3320.27 67.51 7.00 221.97 1986.54
   16:01:03.379.18-Apr-2020 3140.11 3320.27 67.51 7.00 222.17 1986.54
   16:01:03.579.18-Apr-2020 3140.11 3320.27 67.51 7.00 222.37 1986.54
   16:01:03.779.18-Apr-2020 3140.11 3320.27 67.51 7.00 222.57 1986.54
   16:01:03.979.18-Apr-2020 3140.11 3320.26 67.51 7.00 222.77 1986.54
   16:01:04.179.18-Apr-2020 3140.11 3320.27 67.51 7.00 222.97 1986.54
   16:01:04.379.18-Apr-2020 3140.11 3320.26 67.51 7.00 223.17 1986.54
   16:01:04.579.18-Apr-2020 3140.11 3320.27 67.51 7.00 223.37 1986.54
   16:01:04.779.18-Apr-2020 3140.11 3320.27 67.51 7.00 223.57 1986.54
   16:01:04.979.18-Apr-2020 3140.11 3320.27 67.51 7.00 223.77 1986.54
   16:01:05.179.18-Apr-2020 3140.11 3320.26 67.51 7.00 223.97 1986.54
   16:01:05.379.18-Apr-2020 3140.11 3320.26 67.51 7.00 224.17 1986.54
   16:01:05.579.18-Apr-2020 3140.11 3320.27 67.51 7.00 224.37 1986.54
   16:01:05.779.18-Apr-2020 3140.11 3320.25 67.51 7.00 224.57 1986.54
   16:01:05.979.18-Apr-2020 3140.11 3320.28 67.51 7.00 224.77 1986.54
   16:01:06.179.18-Apr-2020 3140.11 3320.28 67.51 7.00 224.97 1986.54
   16:01:06.379.18-Apr-2020 3140.11 3320.28 67.51 7.00 225.17 1986.54
   16:01:06.579.18-Apr-2020 3140.11 3320.26 67.51 7.00 225.37 1986.54
   16:01:06.779.18-Apr-2020 3140.11 3320.27 67.51 7.00 225.57 1986.54
   16:01:06.979.18-Apr-2020 3140.11 3320.27 67.51 7.00 225.77 1986.54
   16:01:07.179.18-Apr-2020 3140.11 3320.27 67.51 7.00 225.97 1986.54
   16:01:07.379.18-Apr-2020 3140.11 3320.27 67.51 7.00 226.17 1986.54
   16:01:07.579.18-Apr-2020 3140.11 3320.27 67.51 7.00 226.37 1986.54
   16:01:07.779.18-Apr-2020 3140.11 3320.28 67.51 7.00 226.57 1986.54
   16:01:07.979.18-Apr-2020 3140.11 3320.26 67.51 7.00 226.77 1986.54
   16:01:08.179.18-Apr-2020 3140.11 3320.28 67.51 7.00 226.97 1986.54
   16:01:08.379.18-Apr-2020 3140.11 3320.28 67.51 7.00 227.17 1986.54
   16:01:08.579.18-Apr-2020 3140.11 3320.27 67.51 7.00 227.37 1986.54
   16:01:08.779.18-Apr-2020 3140.11 3320.28 67.51 7.00 227.57 1986.54
   16:01:08.979.18-Apr-2020 3140.11 3320.28 67.51 7.00 227.77 1986.54
   16:01:09.179.18-Apr-2020 3140.11 3320.26 67.51 7.00 227.97 1986.54
   16:01:09.379.18-Apr-2020 3140.11 3320.26 67.51 7.00 228.17 1986.54
   16:01:09.579.18-Apr-2020 3140.11 3320.28 67.51 7.00 228.37 1986.54
   16:01:09.779.18-Apr-2020 3140.11 3320.27 67.51 7.00 228.57 1986.54
   16:01:09.979.18-Apr-2020 3140.11 3320.29 67.51 7.00 228.77 1986.54
   16:01:10.178.18-Apr-2020 3140.11 3320.28 67.50 7.00 228.97 1986.54
   16:01:10.378.18-Apr-2020 3140.11 3320.28 67.50 7.00 229.17 1986.54
   16:01:10.578.18-Apr-2020 3140.11 3320.28 67.50 7.00 229.37 1986.54
   16:01:10.778.18-Apr-2020 3140.11 3320.27 67.50 7.00 229.57 1986.54
   16:01:10.978.18-Apr-2020 3140.11 3320.28 67.50 7.00 229.77 1986.54
