~Version Information
 VERS.                  2.0:   CWLS log ASCII Standard -VERSION 2.0
 WRAP.                   NO:   One line per depth step
~Well Information Block
#MNEM.UNIT     VALUE/NAME     DESCRIPTION
#---------     -----------    ---------------------------
 STRT.S             11:18:22 18-Apr-20: START TIME 11:18:22 18-Apr-20
 STOP.S             11:25:23 18-Apr-20: STOP TIME  11:25:23 18-Apr-20
 STEP.S                   0.00: STEP TIME
 NULL.                 -999.25: NULL VALUE
 DFWT.                        :  DIST FWL TEXT
 DFST.                        :  DIST FSL TEXT
 DMF .                        :  DRILL MEAS FROM
 STIM.      16.29.52 23-Mar-20:  START TIME
 DATE.      16.29.52 23-Mar-20:  END TIME
 SPUD.               23-Mar-20:  SPUD DATE
 NREF.                    Grid:  NORTH REFERENCE
 HPTY.       Minimum Curvature:  HOLE POS TYPE
 DMOD.             Drill Model:  DRILL MOD DESC
 SVYD.                  Survey:  SURVEY DESC
 ILTD.               Lithology:  INTERP LTH DESC
 FTOP.          Formation Tops:  FORM TOPS DESC
 SON .        AZ-XX-0906252240:  JOB NUMBER
 RIG .             West Chirag:  RIG NAME
 PDAT.          Mean Sea Level:  PERMANENT DATUM
 FLD .                     ACG:  FIELD NAME
 CTRY.              Azerbaijan:  COUNTRY NAME
 WELL.           J23 (Slot 07):  WELL NAME
 SRVC.          Turan Drilling:  CONTRACTOR
 COMP.     BP Exploration (Casoian Sea) Ltd:  COMPANY
 WTYP.                Deviated:  WELL TYPE
 MDS .        Operator Entered:  MAG DATA SOURCE
 UWI .                     N/A:  UNIQUE WELL IDENTIFIER
 API .                     N/A:  API NUMBER
 BASE.              Azerbaijan:  LOGGING EQUIPMENT BASE LOCATION
 REGN.                   EESSA:  REGION
 PROV.                    Baku:  PROVINCE
 STAT.                    Baku:  STATE NAME
 MWDS.                     N/A:  MWD SHOP
 JOBN.        AZ-XX-0906252240:  JOB TICKET NUMB
 DOE .                     N/A:  DOE NUMBER
 DCON.         Sperry Drilling:  DIRECTNL CONTR
 UNIT.                     N/A:  LOGGING EQUIPMENT ID
 CNTY.                        :  COUNTY
 LOC .                        :  LOCATION
 LMF .             Drill Floor:  LOG MEASURED FROM
 TVDS.m                  43.00:  TVDSS CORRECTN
 LATI.deg                40.13:  LATITUDE
 LONG.deg                51.22:  LONGITUDE
 WHNS.m                   9.43:  WELL HEAD N/S
 WHEW.m                  -8.91:  WELL HEAD E/W
 UTMX.m              519005.06:  UTM X
 UTMY.m             4443793.85:  UTM Y
 DFWL.m                   0.00:  DISTANCE FWL
 DFSL.m                   0.00:  DISTANCE FSL
 SDEP.m                   0.00:  START DEPTH
 TDD .m                   0.00:  TOTAL DEPTH (DRILLER)
 VSDR.deg               179.88:  VERT SEC DIRECT
 GVFD.g                   1.00:  GRAVITY FIELD
 MFLD.nT              50281.00:  MAGNETIC FIELD
 MDIP.deg                59.58:  MAGNETIC DIP
 MDEC.deg                 6.48:  MAGNETIC DECL
 GRDC.deg                 0.14:  GRID CORRECTION
 AZTC.deg                 6.34:  AZM TOTAL CORR
 EPD .m                   0.00:  ELEVATION
 EGL .m                   0.00:  GROUND ELEVATION
 WDMS.m                 169.80:  WD ELEV
 APD .m                  43.00:  DEPTH ABOVE PD
 DEP .m                 354.17:  DEPTH
 AGAP.m                  43.00:  AIR GAP
 VSEW.m                  -8.91:  VERT SEC E/W
 VSNS.m                   9.43:  VERT SEC N/S
 EKB .m                   0.00:  KB ELEVATION
 EDF .m                  43.00:  DF ELEVATION
 TDL .m                1326.00:  TOTAL DEPTH (LOGGER)
 VSC .                       0:  VS TO CLOSURE
 MAGU.                 1850704:  MAGUTM CHECKSUM
~Parameter Information Block
#MNEM.UNIT       Value        Description
#---------     -----------    ---------------------------
 AV  .mps                 1.17:  Ann Velocity 
 AZIF.deg               184.04:  Azm, Final 
 BHAT.        Rotary Steerable:  BHA Type 
 BREV.rev            620000.00:  Rev Bit Total 
 BROT.°/30m               0.20:  Build Rotating 
 BS  .in                 14.75:  Bit Size 
 BSZ .in                 14.75:  Bit Size 
 BTPL.psig              618.00:  Bit Press Loss 
 CABU.                      No:  Customer Abuse 
 TCS .hr                 87.68:  Time Ciculation Ended 
 CV  .mps                 3.10:  Crit Velocity 
 DD1 .          Rashad Habibov:  Direct Drillr 1 
 DD2 .         Rasim Ibrahimov:  Direct Drillr 2 
 DDSV.               Geo-Pilot:  DD Service 
 DEFF.%                  98.00:  % Det Eff 
 DLRX.°/30m               1.48:  Dogleg Rot Max 
 DLSO.°/30m               0.50:  Dogleg Oriented 
 DLSX.°/30m               1.48:  Dogleg Str Max 
 DRET.      06.18.56 19-Apr-20:  Drill End Time 
 DRST.      15.00.56 15-Apr-20:  Drill Start Tim 
 DTIM.hr                 51.73:  Time Drilling 
 EDEP.m                3410.01:  End Depth 
 ENG1.        Marcelo Sandoval:  Engineer 1 
 ENG2.        Davud Huseynzade:  Engineer 2 
 ENG3.          Ruslan Safarov:  Engineer 3 
 ETIM.      04.00.56 20-Apr-20:  End Time 
 FLOI.gpm              1000.00:  Flow In 
 FLON.gpm               600.00:  Flow In Min 
 FLOS.cptm                0.00:  Fluid Loss 
 FLOX.gpm              1200.00:  Flow In Max 
 HFLO.                      No:  High Flow 
 HPRE.                     Yes:  High Pressure 
 HTEM.                      No:  High Temp 
 HYDO.m                   1.80:  Hydro Offset 
 IFIN.deg                70.04:  Inc, Final 
 IMAX.deg                70.56:  Inc Max 
 IMIN.deg                69.85:  Inc Min 
 IMND.m                3103.24:  Inc Min Depth 
 IMXD.m                2876.63:  Inc Max Depth 
 JARR.                      No:  Jarring 
 LETM.      06.18.56 19-Apr-20:  Log End Time 
 LOST.hr                     0:  Lost Rig Time 
 LSTM.      15.00.56 15-Apr-20:  Log Start Time 
 MDCL.ppm             42000.00:  Mud Chlorides 
 MDES.     Inversion Oil/Synthetic:  Mud Desc 
 DFD .sg                  1.58:  Mud Density 
 MDMN.sg                  1.58:  Dens Mud Min 
 MDMX.sg                  1.58:  Dens Mud Max 
 MOIL.                      71:  Run Mud Oil % 
 MOWR.                   71:29:  Run Mud OWR 
 MSND.                       0:  Run Mud Sand % 
 MSOL.                    23.3:  Run Mud Solids% 
 DFV .spqt               84.00:  Mud Viscosity 
 MWOD.in                  9.50:  MWD Tool OD 
 MWSI.                      No:  Serv Intrp, MWD 
 OTIM.hr                139.62:  Time Operating 
 PMAX.psia             5364.69:  Press Op, Max 
 PV  .cP                 80.00:  Mud PV 
 RUN .                     700:  Run Number 
 ROPA.m/hr               25.00:  ROP Avg 
 ROPN.m/hr               11.00:  ROP Min 
 ROPX.m/hr               36.00:  ROP Max 
 RPMA.rpm               130.00:  RPM Surface Avg 
 RPMN.rpm               120.00:  RPM Surface Min 
 RPMX.rpm               140.00:  RPM Surface Max 
 RRUN.                    0700:  Rig Run Number 
 SAZI.deg               183.25:  Azm, Start 
 SDEP.m                2084.00:  Start Depth 
 SIDD.                      No:  Serv Intrp, DD 
 SINC.deg                70.38:  Inc, Start 
 SPPA.psig             4800.00:  SPP Avg 
 SPPN.psig             4400.00:  SPP Min 
 SPPX.psig             5350.00:  SPP Max 
 STIM.      16.30.56 14-Apr-20:  Start Time 
 SVCS.                 DD, MWD:  Services 
 SVER.                    9.20:  Sperry Version 
 TDAT.m                1326.00:  Tot Depth Attmp 
 TDDF.                      No:  Trip for DD 
 TDLG.m                1326.00:  Tot Depth Loggd 
 TFF .                      No:  Trip for Fail 
 TQAA.f-kp               19.00:  Torque Abs Avg 
 TQAN.f-kp                8.00:  Torque Abs Min 
 TQAX.f-kp               27.00:  Torque Abs Max 
 TRRT.°/30m               0.50:  Turn Rotating 
 MRT .                    HCIM:  Maximum Recorded Temperature 
 TTMX.degC               82.35:  Max Tool Temp 
 VS01.       905245875X1Z1W1C8:  Virtual Str1 SN 
 VS02.       90608022F11V7D1A9:  Virtual Str2 SN 
 VS03.            90605473R5C9:  Virtual Str3 SN 
 WBMN.klb                11.00:  WOB Min 
 WOBA.klb                21.00:  WOB Avg 
 WOBX.klb                30.00:  WOB Max 
 YP  .lhf2               45.00:  Yield Point 
~Curve Information Block
#MNEM.UNIT                 API CODE     Curve Description
#---------               -----------    ---------------------------
 TIME.HHMMSS            00 000 000 000:  GT Time & Date
 GTDEPTH.m              00 000 000 000:  GT Depth
 GTPQH.psia             00 000 000 000:  GT HR Quartz Pressure
 GTTQ.degC              00 000 000 000:  GT Quartz Temperature
 GTTN.NONE              00 000 000 000:  GT Test Number
 GTET.sec               00 000 000 000:  GT Elapsed Test Time
 GTTVD.m                00 000 000 000:  GT True Vertical Depth
#Other Information
#
#WARRANTY: Halliburton will use its best efforts to furnish customers with 
#accurate information and interpretations that are part of, and incident to, the services 
#provided.  However, Halliburton cannot and does not warrant the accuracy 
#or correctness of such information and interpretations.  Under no circumstances should any 
#such information or interpretation be relied upon as the sole basis for any drilling, 
#completion, production, or financial decision or any procedure involving any risk to the 
#safety of any drilling venture, drilling rig or its crew or any other third party.  The 
#Customer has full responsibility for all drilling, completion and production operation.  
#Halliburton makes no representations or warranties, either expressed or 
#implied, including, but not limited to, the implied warranties of merchantability or fitness 
#for a particular purpose, with respect to the services rendered.  In no event will 
#Halliburton be liable for failure to obtain any particular results or for 
#any damages, including, but not limited to, indirect, special or consequential damages, 
#resulting from the use of any information or interpretation provided by Halliburton.
#
~A           TIME           GTDEPTH  GTPQH  GTTQ  GTTN  GTET   GTTVD  
# ...
   11:24:07.615.18-Apr-2020 3074.89 3315.66 68.68 4.00 345.05 1964.21
   11:24:07.815.18-Apr-2020 3074.89 3315.66 68.68 4.00 345.25 1964.21
   11:24:08.015.18-Apr-2020 3074.89 3315.67 68.68 4.00 345.45 1964.21
   11:24:08.215.18-Apr-2020 3074.89 3315.66 68.68 4.00 345.65 1964.21
   11:24:08.415.18-Apr-2020 3074.89 3315.67 68.68 4.00 345.85 1964.21
   11:24:08.615.18-Apr-2020 3074.89 3315.66 68.68 4.00 346.05 1964.21
   11:24:08.815.18-Apr-2020 3074.89 3315.66 68.68 4.00 346.25 1964.21
   11:24:09.015.18-Apr-2020 3074.89 3315.66 68.68 4.00 346.45 1964.21
   11:24:09.215.18-Apr-2020 3074.89 3315.67 68.67 4.00 346.65 1964.21
   11:24:09.415.18-Apr-2020 3074.89 3315.67 68.67 4.00 346.85 1964.21
   11:24:09.615.18-Apr-2020 3074.89 3315.65 68.67 4.00 347.05 1964.21
   11:24:09.815.18-Apr-2020 3074.89 3315.65 68.67 4.00 347.25 1964.21
   11:24:10.015.18-Apr-2020 3074.89 3315.67 68.67 4.00 347.45 1964.21
   11:24:10.215.18-Apr-2020 3074.89 3315.66 68.67 4.00 347.65 1964.21
   11:24:10.415.18-Apr-2020 3074.89 3315.67 68.67 4.00 347.85 1964.21
   11:24:10.615.18-Apr-2020 3074.89 3315.67 68.67 4.00 348.05 1964.21
   11:24:10.815.18-Apr-2020 3074.89 3315.67 68.67 4.00 348.25 1964.21
   11:24:11.015.18-Apr-2020 3074.89 3315.66 68.67 4.00 348.45 1964.21
   11:24:11.215.18-Apr-2020 3074.89 3315.66 68.67 4.00 348.65 1964.21
   11:24:11.415.18-Apr-2020 3074.89 3315.66 68.66 4.00 348.85 1964.21
   11:24:11.615.18-Apr-2020 3074.89 3315.67 68.66 4.00 349.05 1964.21
   11:24:11.815.18-Apr-2020 3074.89 3315.67 68.66 4.00 349.25 1964.21
   11:24:12.015.18-Apr-2020 3074.89 3315.67 68.66 4.00 349.45 1964.21
   11:24:12.215.18-Apr-2020 3074.89 3315.64 68.66 4.00 349.65 1964.21
   11:24:12.415.18-Apr-2020 3074.89 3315.68 68.66 4.00 349.85 1964.21
   11:24:12.615.18-Apr-2020 3074.89 3315.66 68.66 4.00 350.05 1964.21
   11:24:12.815.18-Apr-2020 3074.89 3315.66 68.66 4.00 350.25 1964.21
   11:24:13.016.18-Apr-2020 3074.89 3315.68 68.66 4.00 350.45 1964.21
   11:24:13.216.18-Apr-2020 3074.89 3315.67 68.66 4.00 350.65 1964.21
   11:24:13.416.18-Apr-2020 3074.89 3315.67 68.66 4.00 350.85 1964.21
   11:24:13.616.18-Apr-2020 3074.89 3315.65 68.65 4.00 351.05 1964.21
   11:24:13.816.18-Apr-2020 3074.89 3315.65 68.65 4.00 351.25 1964.21
   11:24:14.016.18-Apr-2020 3074.89 3315.64 68.65 4.00 351.45 1964.21
   11:24:14.216.18-Apr-2020 3074.89 3315.67 68.65 4.00 351.65 1964.21
   11:24:14.416.18-Apr-2020 3074.89 3315.66 68.65 4.00 351.85 1964.21
   11:24:14.616.18-Apr-2020 3074.89 3315.65 68.65 4.00 352.05 1964.21
   11:24:14.816.18-Apr-2020 3074.89 3315.65 68.65 4.00 352.25 1964.21
   11:24:15.016.18-Apr-2020 3074.89 3315.66 68.65 4.00 352.45 1964.21
   11:24:15.216.18-Apr-2020 3074.89 3315.66 68.65 4.00 352.65 1964.21
   11:24:15.416.18-Apr-2020 3074.89 3315.67 68.65 4.00 352.85 1964.21
   11:24:15.616.18-Apr-2020 3074.89 3315.65 68.65 4.00 353.05 1964.21
   11:24:15.816.18-Apr-2020 3074.89 3315.65 68.65 4.00 353.25 1964.21
   11:24:16.016.18-Apr-2020 3074.89 3315.67 68.64 4.00 353.45 1964.21
   11:24:16.216.18-Apr-2020 3074.89 3315.67 68.64 4.00 353.65 1964.21
   11:24:16.416.18-Apr-2020 3074.89 3315.66 68.64 4.00 353.85 1964.21
   11:24:16.616.18-Apr-2020 3074.89 3315.67 68.64 4.00 354.05 1964.21
   11:24:16.816.18-Apr-2020 3074.89 3315.67 68.64 4.00 354.25 1964.21
   11:24:17.016.18-Apr-2020 3074.89 3315.67 68.64 4.00 354.45 1964.21
   11:24:17.216.18-Apr-2020 3074.89 3315.67 68.64 4.00 354.65 1964.21
   11:24:17.416.18-Apr-2020 3074.89 3315.66 68.64 4.00 354.85 1964.21
   11:24:17.616.18-Apr-2020 3074.89 3315.67 68.64 4.00 355.05 1964.21
   11:24:17.816.18-Apr-2020 3074.89 3315.67 68.64 4.00 355.25 1964.21
   11:24:18.016.18-Apr-2020 3074.89 3315.67 68.63 4.00 355.45 1964.21
   11:24:18.216.18-Apr-2020 3074.89 3315.66 68.63 4.00 355.65 1964.21
   11:24:18.416.18-Apr-2020 3074.89 3315.66 68.63 4.00 355.85 1964.21
   11:24:18.616.18-Apr-2020 3074.89 3315.66 68.63 4.00 356.05 1964.21
   11:24:18.816.18-Apr-2020 3074.89 3315.66 68.63 4.00 356.25 1964.21
   11:24:19.016.18-Apr-2020 3074.89 3315.68 68.63 4.00 356.45 1964.21
   11:24:19.216.18-Apr-2020 3074.89 3315.67 68.63 4.00 356.65 1964.21
   11:24:19.416.18-Apr-2020 3074.89 3315.67 68.63 4.00 356.85 1964.21
   11:24:19.616.18-Apr-2020 3074.89 3315.67 68.63 4.00 357.05 1964.21
   11:24:19.816.18-Apr-2020 3074.89 3315.67 68.63 4.00 357.25 1964.21
   11:24:20.016.18-Apr-2020 3074.89 3315.67 68.63 4.00 357.45 1964.21
   11:24:20.216.18-Apr-2020 3074.89 3315.67 68.62 4.00 357.65 1964.21
   11:24:20.417.18-Apr-2020 3074.89 3315.65 68.62 4.00 357.85 1964.21
   11:24:20.617.18-Apr-2020 3074.89 3315.67 68.62 4.00 358.05 1964.21
   11:24:20.817.18-Apr-2020 3074.89 3315.67 68.62 4.00 358.25 1964.21
   11:24:21.017.18-Apr-2020 3074.89 3315.66 68.62 4.00 358.45 1964.21
   11:24:21.217.18-Apr-2020 3074.89 3315.65 68.62 4.00 358.65 1964.21
   11:24:21.417.18-Apr-2020 3074.89 3315.69 68.62 4.00 358.85 1964.21
   11:24:21.617.18-Apr-2020 3074.89 3315.66 68.62 4.00 359.05 1964.21
   11:24:21.817.18-Apr-2020 3074.89 3315.66 68.62 4.00 359.25 1964.21
   11:24:22.017.18-Apr-2020 3074.89 3315.68 68.62 4.00 359.45 1964.21
   11:24:22.217.18-Apr-2020 3074.89 3315.67 68.62 4.00 359.65 1964.21
   11:24:22.417.18-Apr-2020 3074.89 3315.66 68.62 4.00 359.85 1964.21
   11:24:22.617.18-Apr-2020 3074.89 3315.66 68.61 4.00 360.05 1964.21
   11:24:22.817.18-Apr-2020 3074.89 3315.66 68.61 4.00 360.25 1964.21
   11:24:23.017.18-Apr-2020 3074.89 3315.64 68.61 4.00 360.45 1964.21
   11:24:23.217.18-Apr-2020 3074.89 3315.67 68.61 4.00 360.65 1964.21
   11:24:23.417.18-Apr-2020 3074.89 3315.67 68.61 4.00 360.85 1964.21
   11:24:23.617.18-Apr-2020 3074.89 3315.66 68.61 4.00 361.05 1964.21
   11:24:23.817.18-Apr-2020 3074.89 3315.66 68.61 4.00 361.25 1964.21
   11:24:24.017.18-Apr-2020 3074.89 3315.65 68.61 4.00 361.45 1964.21
   11:24:24.217.18-Apr-2020 3074.89 3315.67 68.61 4.00 361.65 1964.21
   11:24:24.417.18-Apr-2020 3074.89 3315.66 68.61 4.00 361.85 1964.21
   11:24:24.617.18-Apr-2020 3074.89 3315.65 68.61 4.00 362.05 1964.21
   11:24:24.817.18-Apr-2020 3074.89 3315.65 68.61 4.00 362.25 1964.21
   11:24:25.017.18-Apr-2020 3074.89 3315.68 68.60 4.00 362.45 1964.21
   11:24:25.217.18-Apr-2020 3074.89 3315.66 68.60 4.00 362.65 1964.21
   11:24:25.417.18-Apr-2020 3074.89 3315.66 68.60 4.00 362.85 1964.21
   11:24:25.617.18-Apr-2020 3074.89 3315.66 68.60 4.00 363.05 1964.21
   11:24:25.817.18-Apr-2020 3074.89 3315.66 68.60 4.00 363.25 1964.21
   11:24:26.017.18-Apr-2020 3074.89 3315.67 68.60 4.00 363.45 1964.21
   11:24:26.217.18-Apr-2020 3074.89 3315.66 68.60 4.00 363.65 1964.21
   11:24:26.417.18-Apr-2020 3074.89 3315.65 68.60 4.00 363.85 1964.21
   11:24:26.617.18-Apr-2020 3074.89 3315.66 68.60 4.00 364.05 1964.21
   11:24:26.817.18-Apr-2020 3074.89 3315.66 68.60 4.00 364.25 1964.21
   11:24:27.017.18-Apr-2020 3074.89 3315.67 68.59 4.00 364.45 1964.21
   11:24:27.217.18-Apr-2020 3074.89 3315.66 68.59 4.00 364.65 1964.21
   11:24:27.417.18-Apr-2020 3074.89 3315.65 68.59 4.00 364.85 1964.21
   11:24:27.617.18-Apr-2020 3074.89 3315.65 68.59 4.00 365.05 1964.21
   11:24:27.817.18-Apr-2020 3074.89 3315.65 68.59 4.00 365.25 1964.21
   11:24:28.018.18-Apr-2020 3074.89 3315.66 68.59 4.00 365.45 1964.21
   11:24:28.218.18-Apr-2020 3074.89 3315.67 68.59 4.00 365.65 1964.21
   11:24:28.418.18-Apr-2020 3074.89 3315.66 68.59 4.00 365.85 1964.21
   11:24:28.618.18-Apr-2020 3074.89 3315.67 68.59 4.00 366.05 1964.21
   11:24:28.818.18-Apr-2020 3074.89 3315.67 68.59 4.00 366.25 1964.21
   11:24:29.018.18-Apr-2020 3074.89 3315.67 68.59 4.00 366.45 1964.21
   11:24:29.218.18-Apr-2020 3074.89 3315.66 68.58 4.00 366.65 1964.21
   11:24:29.418.18-Apr-2020 3074.89 3315.66 68.58 4.00 366.85 1964.21
   11:24:29.618.18-Apr-2020 3074.89 3315.66 68.58 4.00 367.05 1964.21
   11:24:29.818.18-Apr-2020 3074.89 3315.66 68.58 4.00 367.25 1964.21
   11:24:30.018.18-Apr-2020 3074.89 3315.65 68.58 4.00 367.45 1964.21
   11:24:30.218.18-Apr-2020 3074.89 3315.65 68.58 4.00 367.65 1964.21
   11:24:30.418.18-Apr-2020 3074.89 3315.68 68.58 4.00 367.85 1964.21
