~Version Information
 VERS.                  2.0:   CWLS log ASCII Standard -VERSION 2.0
 WRAP.                   NO:   One line per depth step
~Well Information Block
#MNEM.UNIT     VALUE/NAME     DESCRIPTION
#---------     -----------    ---------------------------
 STRT.S             08:47:02 18-Apr-20: START TIME 08:47:02 18-Apr-20
 STOP.S             08:53:58 18-Apr-20: STOP TIME  08:53:58 18-Apr-20
 STEP.S                   0.00: STEP TIME
 NULL.                 -999.25: NULL VALUE
 DFWT.                        :  DIST FWL TEXT
 DFST.                        :  DIST FSL TEXT
 DMF .                        :  DRILL MEAS FROM
 STIM.      16.29.52 23-Mar-20:  START TIME
 DATE.      16.29.52 23-Mar-20:  END TIME
 SPUD.               23-Mar-20:  SPUD DATE
 NREF.                    Grid:  NORTH REFERENCE
 HPTY.       Minimum Curvature:  HOLE POS TYPE
 DMOD.             Drill Model:  DRILL MOD DESC
 SVYD.                  Survey:  SURVEY DESC
 ILTD.               Lithology:  INTERP LTH DESC
 FTOP.          Formation Tops:  FORM TOPS DESC
 SON .        AZ-XX-0906252240:  JOB NUMBER
 RIG .             West Chirag:  RIG NAME
 PDAT.          Mean Sea Level:  PERMANENT DATUM
 FLD .                     ACG:  FIELD NAME
 CTRY.              Azerbaijan:  COUNTRY NAME
 WELL.           J23 (Slot 07):  WELL NAME
 SRVC.          Turan Drilling:  CONTRACTOR
 COMP.     BP Exploration (Casoian Sea) Ltd:  COMPANY
 WTYP.                Deviated:  WELL TYPE
 MDS .        Operator Entered:  MAG DATA SOURCE
 UWI .                     N/A:  UNIQUE WELL IDENTIFIER
 API .                     N/A:  API NUMBER
 BASE.              Azerbaijan:  LOGGING EQUIPMENT BASE LOCATION
 REGN.                   EESSA:  REGION
 PROV.                    Baku:  PROVINCE
 STAT.                    Baku:  STATE NAME
 MWDS.                     N/A:  MWD SHOP
 JOBN.        AZ-XX-0906252240:  JOB TICKET NUMB
 DOE .                     N/A:  DOE NUMBER
 DCON.         Sperry Drilling:  DIRECTNL CONTR
 UNIT.                     N/A:  LOGGING EQUIPMENT ID
 CNTY.                        :  COUNTY
 LOC .                        :  LOCATION
 LMF .             Drill Floor:  LOG MEASURED FROM
 TVDS.m                  43.00:  TVDSS CORRECTN
 LATI.deg                40.13:  LATITUDE
 LONG.deg                51.22:  LONGITUDE
 WHNS.m                   9.43:  WELL HEAD N/S
 WHEW.m                  -8.91:  WELL HEAD E/W
 UTMX.m              519005.06:  UTM X
 UTMY.m             4443793.85:  UTM Y
 DFWL.m                   0.00:  DISTANCE FWL
 DFSL.m                   0.00:  DISTANCE FSL
 SDEP.m                   0.00:  START DEPTH
 TDD .m                   0.00:  TOTAL DEPTH (DRILLER)
 VSDR.deg               179.88:  VERT SEC DIRECT
 GVFD.g                   1.00:  GRAVITY FIELD
 MFLD.nT              50281.00:  MAGNETIC FIELD
 MDIP.deg                59.58:  MAGNETIC DIP
 MDEC.deg                 6.48:  MAGNETIC DECL
 GRDC.deg                 0.14:  GRID CORRECTION
 AZTC.deg                 6.34:  AZM TOTAL CORR
 EPD .m                   0.00:  ELEVATION
 EGL .m                   0.00:  GROUND ELEVATION
 WDMS.m                 169.80:  WD ELEV
 APD .m                  43.00:  DEPTH ABOVE PD
 DEP .m                 354.17:  DEPTH
 AGAP.m                  43.00:  AIR GAP
 VSEW.m                  -8.91:  VERT SEC E/W
 VSNS.m                   9.43:  VERT SEC N/S
 EKB .m                   0.00:  KB ELEVATION
 EDF .m                  43.00:  DF ELEVATION
 TDL .m                1326.00:  TOTAL DEPTH (LOGGER)
 VSC .                       0:  VS TO CLOSURE
 MAGU.                 1850704:  MAGUTM CHECKSUM
~Parameter Information Block
#MNEM.UNIT       Value        Description
#---------     -----------    ---------------------------
 AV  .mps                 1.17:  Ann Velocity 
 AZIF.deg               184.04:  Azm, Final 
 BHAT.        Rotary Steerable:  BHA Type 
 BREV.rev            620000.00:  Rev Bit Total 
 BROT.°/30m               0.20:  Build Rotating 
 BS  .in                 14.75:  Bit Size 
 BSZ .in                 14.75:  Bit Size 
 BTPL.psig              618.00:  Bit Press Loss 
 CABU.                      No:  Customer Abuse 
 TCS .hr                 87.68:  Time Ciculation Ended 
 CV  .mps                 3.10:  Crit Velocity 
 DD1 .          Rashad Habibov:  Direct Drillr 1 
 DD2 .         Rasim Ibrahimov:  Direct Drillr 2 
 DDSV.               Geo-Pilot:  DD Service 
 DEFF.%                  98.00:  % Det Eff 
 DLRX.°/30m               1.48:  Dogleg Rot Max 
 DLSO.°/30m               0.50:  Dogleg Oriented 
 DLSX.°/30m               1.48:  Dogleg Str Max 
 DRET.      06.18.56 19-Apr-20:  Drill End Time 
 DRST.      15.00.56 15-Apr-20:  Drill Start Tim 
 DTIM.hr                 51.73:  Time Drilling 
 EDEP.m                3410.01:  End Depth 
 ENG1.        Marcelo Sandoval:  Engineer 1 
 ENG2.        Davud Huseynzade:  Engineer 2 
 ENG3.          Ruslan Safarov:  Engineer 3 
 ETIM.      04.00.56 20-Apr-20:  End Time 
 FLOI.gpm              1000.00:  Flow In 
 FLON.gpm               600.00:  Flow In Min 
 FLOS.cptm                0.00:  Fluid Loss 
 FLOX.gpm              1200.00:  Flow In Max 
 HFLO.                      No:  High Flow 
 HPRE.                     Yes:  High Pressure 
 HTEM.                      No:  High Temp 
 HYDO.m                   1.80:  Hydro Offset 
 IFIN.deg                70.04:  Inc, Final 
 IMAX.deg                70.56:  Inc Max 
 IMIN.deg                69.85:  Inc Min 
 IMND.m                3103.24:  Inc Min Depth 
 IMXD.m                2876.63:  Inc Max Depth 
 JARR.                      No:  Jarring 
 LETM.      06.18.56 19-Apr-20:  Log End Time 
 LOST.hr                     0:  Lost Rig Time 
 LSTM.      15.00.56 15-Apr-20:  Log Start Time 
 MDCL.ppm             42000.00:  Mud Chlorides 
 MDES.     Inversion Oil/Synthetic:  Mud Desc 
 DFD .sg                  1.58:  Mud Density 
 MDMN.sg                  1.58:  Dens Mud Min 
 MDMX.sg                  1.58:  Dens Mud Max 
 MOIL.                      71:  Run Mud Oil % 
 MOWR.                   71:29:  Run Mud OWR 
 MSND.                       0:  Run Mud Sand % 
 MSOL.                    23.3:  Run Mud Solids% 
 DFV .spqt               84.00:  Mud Viscosity 
 MWOD.in                  9.50:  MWD Tool OD 
 MWSI.                      No:  Serv Intrp, MWD 
 OTIM.hr                139.62:  Time Operating 
 PMAX.psia             5364.69:  Press Op, Max 
 PV  .cP                 80.00:  Mud PV 
 RUN .                     700:  Run Number 
 ROPA.m/hr               25.00:  ROP Avg 
 ROPN.m/hr               11.00:  ROP Min 
 ROPX.m/hr               36.00:  ROP Max 
 RPMA.rpm               130.00:  RPM Surface Avg 
 RPMN.rpm               120.00:  RPM Surface Min 
 RPMX.rpm               140.00:  RPM Surface Max 
 RRUN.                    0700:  Rig Run Number 
 SAZI.deg               183.25:  Azm, Start 
 SDEP.m                2084.00:  Start Depth 
 SIDD.                      No:  Serv Intrp, DD 
 SINC.deg                70.38:  Inc, Start 
 SPPA.psig             4800.00:  SPP Avg 
 SPPN.psig             4400.00:  SPP Min 
 SPPX.psig             5350.00:  SPP Max 
 STIM.      16.30.56 14-Apr-20:  Start Time 
 SVCS.                 DD, MWD:  Services 
 SVER.                    9.20:  Sperry Version 
 TDAT.m                1326.00:  Tot Depth Attmp 
 TDDF.                      No:  Trip for DD 
 TDLG.m                1326.00:  Tot Depth Loggd 
 TFF .                      No:  Trip for Fail 
 TQAA.f-kp               19.00:  Torque Abs Avg 
 TQAN.f-kp                8.00:  Torque Abs Min 
 TQAX.f-kp               27.00:  Torque Abs Max 
 TRRT.°/30m               0.50:  Turn Rotating 
 MRT .                    HCIM:  Maximum Recorded Temperature 
 TTMX.degC               82.35:  Max Tool Temp 
 VS01.       905245875X1Z1W1C8:  Virtual Str1 SN 
 VS02.       90608022F11V7D1A9:  Virtual Str2 SN 
 VS03.            90605473R5C9:  Virtual Str3 SN 
 WBMN.klb                11.00:  WOB Min 
 WOBA.klb                21.00:  WOB Avg 
 WOBX.klb                30.00:  WOB Max 
 YP  .lhf2               45.00:  Yield Point 
~Curve Information Block
#MNEM.UNIT                 API CODE     Curve Description
#---------               -----------    ---------------------------
 TIME.HHMMSS            00 000 000 000:  GT Time & Date
 GTDEPTH.m              00 000 000 000:  GT Depth
 GTPQH.psia             00 000 000 000:  GT HR Quartz Pressure
 GTTQ.degC              00 000 000 000:  GT Quartz Temperature
 GTTN.NONE              00 000 000 000:  GT Test Number
 GTET.sec               00 000 000 000:  GT Elapsed Test Time
 GTTVD.m                00 000 000 000:  GT True Vertical Depth
#Other Information
#
#WARRANTY: Halliburton will use its best efforts to furnish customers with 
#accurate information and interpretations that are part of, and incident to, the services 
#provided.  However, Halliburton cannot and does not warrant the accuracy 
#or correctness of such information and interpretations.  Under no circumstances should any 
#such information or interpretation be relied upon as the sole basis for any drilling, 
#completion, production, or financial decision or any procedure involving any risk to the 
#safety of any drilling venture, drilling rig or its crew or any other third party.  The 
#Customer has full responsibility for all drilling, completion and production operation.  
#Halliburton makes no representations or warranties, either expressed or 
#implied, including, but not limited to, the implied warranties of merchantability or fitness 
#for a particular purpose, with respect to the services rendered.  In no event will 
#Halliburton be liable for failure to obtain any particular results or for 
#any damages, including, but not limited to, indirect, special or consequential damages, 
#resulting from the use of any information or interpretation provided by Halliburton.
#
~A           TIME           GTDEPTH  GTPQH  GTTQ  GTTN  GTET   GTTVD  
# ...
   08:47:25.350.18-Apr-2020 3032.52 4481.83 70.23 3.00  23.00 1949.78
   08:47:25.550.18-Apr-2020 3032.52 4481.83 70.23 3.00  23.20 1949.78
   08:47:25.750.18-Apr-2020 3032.52 4481.65 70.23 3.00  23.40 1949.78
   08:47:25.950.18-Apr-2020 3032.52 4482.84 70.22 3.00  23.60 1949.78
   08:47:26.150.18-Apr-2020 3032.52 4482.94 70.22 3.00  23.80 1949.78
   08:47:26.350.18-Apr-2020 3032.52 4482.22 70.22 3.00  24.00 1949.78
   08:47:26.550.18-Apr-2020 3032.52 4482.22 70.22 3.00  24.20 1949.78
   08:47:26.750.18-Apr-2020 3032.52 4483.18 70.22 3.00  24.40 1949.78
   08:47:26.950.18-Apr-2020 3032.52 4482.09 70.22 3.00  24.60 1949.78
   08:47:27.150.18-Apr-2020 3032.52 4482.15 70.22 3.00  24.80 1949.78
   08:47:27.350.18-Apr-2020 3032.52 4482.39 70.22 3.00  25.00 1949.78
   08:47:27.551.18-Apr-2020 3032.52 4482.33 70.21 3.00  25.20 1949.78
   08:47:27.751.18-Apr-2020 3032.52 4482.31 70.21 3.00  25.40 1949.78
   08:47:27.951.18-Apr-2020 3032.52 4482.09 70.21 3.00  25.60 1949.78
   08:47:28.151.18-Apr-2020 3032.52 4481.84 70.21 3.00  25.80 1949.78
   08:47:28.351.18-Apr-2020 3032.52 4481.66 70.21 3.00  26.00 1949.78
   08:47:28.551.18-Apr-2020 3032.52 4481.66 70.21 3.00  26.20 1949.78
   08:47:28.751.18-Apr-2020 3032.52 4482.47 70.21 3.00  26.40 1949.78
   08:47:28.951.18-Apr-2020 3032.52 4482.74 70.21 3.00  26.60 1949.78
   08:47:29.151.18-Apr-2020 3032.52 4483.20 70.21 3.00  26.80 1949.78
   08:47:29.351.18-Apr-2020 3032.52 4483.63 70.20 3.00  27.00 1949.78
   08:47:29.551.18-Apr-2020 3032.52 4483.63 70.20 3.00  27.20 1949.78
   08:47:29.751.18-Apr-2020 3032.52 4484.14 70.20 3.00  27.40 1949.78
   08:47:29.951.18-Apr-2020 3032.52 4484.22 70.20 3.00  27.60 1949.78
   08:47:30.151.18-Apr-2020 3032.52 4483.98 70.20 3.00  27.80 1949.78
   08:47:30.351.18-Apr-2020 3032.52 4483.94 70.20 3.00  28.00 1949.78
   08:47:30.551.18-Apr-2020 3032.52 4484.14 70.20 3.00  28.20 1949.78
   08:47:30.751.18-Apr-2020 3032.52 4484.55 70.20 3.00  28.40 1949.78
   08:47:30.951.18-Apr-2020 3032.52 4484.18 70.20 3.00  28.60 1949.78
   08:47:31.151.18-Apr-2020 3032.52 4482.37 70.19 3.00  28.80 1949.78
   08:47:31.351.18-Apr-2020 3032.52 4485.13 70.19 3.00  29.00 1949.78
   08:47:31.551.18-Apr-2020 3032.52 4485.13 70.19 3.00  29.20 1949.78
   08:47:31.751.18-Apr-2020 3032.52 4484.16 70.19 3.00  29.40 1949.78
   08:47:31.951.18-Apr-2020 3032.52 4483.06 70.19 3.00  29.60 1949.78
   08:47:32.151.18-Apr-2020 3032.52 4485.21 70.19 3.00  29.80 1949.78
   08:47:32.351.18-Apr-2020 3032.52 4485.61 70.19 3.00  30.00 1949.78
   08:47:32.551.18-Apr-2020 3032.52 4485.61 70.19 3.00  30.20 1949.78
   08:47:32.751.18-Apr-2020 3032.52 4483.11 70.18 3.00  30.40 1949.78
   08:47:32.951.18-Apr-2020 3032.52 4485.30 70.18 3.00  30.60 1949.78
   08:47:33.151.18-Apr-2020 3032.52 4484.91 70.18 3.00  30.80 1949.78
   08:47:33.351.18-Apr-2020 3032.52 4485.00 70.18 3.00  31.00 1949.78
   08:47:33.551.18-Apr-2020 3032.52 4485.00 70.18 3.00  31.20 1949.78
   08:47:33.751.18-Apr-2020 3032.52 4484.86 70.18 3.00  31.40 1949.78
   08:47:33.951.18-Apr-2020 3032.52 4485.73 70.18 3.00  31.60 1949.78
   08:47:34.151.18-Apr-2020 3032.52 4484.96 70.18 3.00  31.80 1949.78
   08:47:34.351.18-Apr-2020 3032.52 4484.44 70.18 3.00  32.00 1949.78
   08:47:34.551.18-Apr-2020 3032.52 4483.10 70.17 3.00  32.20 1949.78
   08:47:34.751.18-Apr-2020 3032.52 4485.56 70.17 3.00  32.40 1949.78
   08:47:34.952.18-Apr-2020 3032.52 4485.31 70.17 3.00  32.60 1949.78
   08:47:35.152.18-Apr-2020 3032.52 4485.52 70.17 3.00  32.80 1949.78
   08:47:35.352.18-Apr-2020 3032.52 4484.89 70.17 3.00  33.00 1949.78
   08:47:35.552.18-Apr-2020 3032.52 4486.16 70.17 3.00  33.20 1949.78
   08:47:35.752.18-Apr-2020 3032.52 4485.71 70.17 3.00  33.40 1949.78
   08:47:35.952.18-Apr-2020 3032.52 4484.55 70.17 3.00  33.60 1949.78
   08:47:36.152.18-Apr-2020 3032.52 4484.56 70.17 3.00  33.80 1949.78
   08:47:36.352.18-Apr-2020 3032.52 4484.80 70.16 3.00  34.00 1949.78
   08:47:36.552.18-Apr-2020 3032.52 4484.80 70.16 3.00  34.20 1949.78
   08:47:36.752.18-Apr-2020 3032.52 4484.21 70.16 3.00  34.40 1949.78
   08:47:36.952.18-Apr-2020 3032.52 4483.90 70.16 3.00  34.60 1949.78
   08:47:37.152.18-Apr-2020 3032.52 4483.78 70.16 3.00  34.80 1949.78
   08:47:37.352.18-Apr-2020 3032.52 4483.54 70.16 3.00  35.00 1949.78
   08:47:37.552.18-Apr-2020 3032.52 4483.54 70.16 3.00  35.20 1949.78
   08:47:37.752.18-Apr-2020 3032.52 4483.95 70.16 3.00  35.40 1949.78
   08:47:37.952.18-Apr-2020 3032.52 4484.14 70.16 3.00  35.60 1949.78
   08:47:38.152.18-Apr-2020 3032.52 4484.45 70.15 3.00  35.80 1949.78
   08:47:38.352.18-Apr-2020 3032.52 4484.39 70.15 3.00  36.00 1949.78
   08:47:38.552.18-Apr-2020 3032.52 4484.29 70.15 3.00  36.20 1949.78
   08:47:38.752.18-Apr-2020 3032.52 4484.44 70.15 3.00  36.40 1949.78
   08:47:38.952.18-Apr-2020 3032.52 4484.46 70.15 3.00  36.60 1949.78
   08:47:39.152.18-Apr-2020 3032.52 4483.73 70.15 3.00  36.80 1949.78
   08:47:39.352.18-Apr-2020 3032.52 4483.48 70.15 3.00  37.00 1949.78
   08:47:39.552.18-Apr-2020 3032.52 4483.46 70.15 3.00  37.21 1949.78
   08:47:39.752.18-Apr-2020 3032.52 4483.83 70.14 3.00  37.41 1949.78
   08:47:39.952.18-Apr-2020 3032.52 4483.33 70.14 3.00  37.61 1949.78
   08:47:40.152.18-Apr-2020 3032.52 4483.23 70.14 3.00  37.81 1949.78
   08:47:40.352.18-Apr-2020 3032.52 4483.58 70.14 3.00  38.01 1949.78
   08:47:40.552.18-Apr-2020 3032.52 4483.58 70.14 3.00  38.21 1949.78
   08:47:40.752.18-Apr-2020 3032.52 4483.76 70.14 3.00  38.41 1949.78
   08:47:40.952.18-Apr-2020 3032.52 4483.18 70.14 3.00  38.61 1949.78
   08:47:41.152.18-Apr-2020 3032.52 4482.38 70.14 3.00  38.81 1949.78
   08:47:41.352.18-Apr-2020 3032.52 4481.99 70.14 3.00  39.01 1949.78
   08:47:41.552.18-Apr-2020 3032.52 4481.99 70.14 3.00  39.21 1949.78
   08:47:41.752.18-Apr-2020 3032.52 4483.73 70.13 3.00  39.41 1949.78
   08:47:41.952.18-Apr-2020 3032.52 4479.90 70.13 3.00  39.61 1949.78
   08:47:42.152.18-Apr-2020 3032.52 4482.96 70.13 3.00  39.81 1949.78
   08:47:42.353.18-Apr-2020 3032.52 4482.97 70.13 3.00  40.01 1949.78
   08:47:42.553.18-Apr-2020 3032.52 4480.30 70.13 3.00  40.21 1949.78
   08:47:42.753.18-Apr-2020 3032.52 4482.66 70.13 3.00  40.41 1949.78
   08:47:42.953.18-Apr-2020 3032.52 4482.60 70.13 3.00  40.61 1949.78
   08:47:43.153.18-Apr-2020 3032.52 4480.87 70.13 3.00  40.81 1949.78
   08:47:43.353.18-Apr-2020 3032.52 4482.73 70.12 3.00  41.01 1949.78
   08:47:43.553.18-Apr-2020 3032.52 4482.73 70.12 3.00  41.21 1949.78
   08:47:43.753.18-Apr-2020 3032.52 4482.87 70.12 3.00  41.41 1949.78
   08:47:43.953.18-Apr-2020 3032.52 4480.14 70.12 3.00  41.61 1949.78
   08:47:44.153.18-Apr-2020 3032.52 4483.71 70.12 3.00  41.81 1949.78
   08:47:44.353.18-Apr-2020 3032.52 4483.56 70.12 3.00  42.01 1949.78
   08:47:44.553.18-Apr-2020 3032.52 4483.56 70.12 3.00  42.21 1949.78
   08:47:44.753.18-Apr-2020 3032.52 4483.29 70.12 3.00  42.41 1949.78
   08:47:44.953.18-Apr-2020 3032.52 4483.24 70.12 3.00  42.61 1949.78
   08:47:45.153.18-Apr-2020 3032.52 4482.66 70.11 3.00  42.81 1949.78
   08:47:45.353.18-Apr-2020 3032.52 4482.95 70.11 3.00  43.01 1949.78
   08:47:45.553.18-Apr-2020 3032.52 4482.95 70.11 3.00  43.21 1949.78
   08:47:45.753.18-Apr-2020 3032.52 4482.17 70.11 3.00  43.41 1949.78
   08:47:45.953.18-Apr-2020 3032.52 4482.76 70.11 3.00  43.61 1949.78
   08:47:46.153.18-Apr-2020 3032.52 4482.79 70.11 3.00  43.81 1949.78
   08:47:46.353.18-Apr-2020 3032.52 4482.26 70.11 3.00  44.01 1949.78
   08:47:46.553.18-Apr-2020 3032.52 4482.26 70.11 3.00  44.21 1949.78
   08:47:46.753.18-Apr-2020 3032.52 4480.64 70.10 3.00  44.41 1949.78
   08:47:46.953.18-Apr-2020 3032.52 4483.76 70.10 3.00  44.61 1949.78
   08:47:47.153.18-Apr-2020 3032.52 4483.13 70.10 3.00  44.81 1949.78
   08:47:47.353.18-Apr-2020 3032.52 4483.73 70.10 3.00  45.01 1949.78
   08:47:47.553.18-Apr-2020 3032.52 4483.57 70.10 3.00  45.21 1949.78
   08:47:47.753.18-Apr-2020 3032.52 4483.90 70.10 3.00  45.41 1949.78
   08:47:47.953.18-Apr-2020 3032.52 4483.88 70.10 3.00  45.61 1949.78
   08:47:48.153.18-Apr-2020 3032.52 4483.84 70.10 3.00  45.81 1949.78
