~Version Information
 VERS.                  2.0:   CWLS log ASCII Standard -VERSION 2.0
 WRAP.                   NO:   One line per depth step
~Well Information Block
#MNEM.UNIT     VALUE/NAME     DESCRIPTION
#---------     -----------    ---------------------------
 STRT.S             08:47:02 18-Apr-20: START TIME 08:47:02 18-Apr-20
 STOP.S             08:53:58 18-Apr-20: STOP TIME  08:53:58 18-Apr-20
 STEP.S                   0.00: STEP TIME
 NULL.                 -999.25: NULL VALUE
 DFWT.                        :  DIST FWL TEXT
 DFST.                        :  DIST FSL TEXT
 DMF .                        :  DRILL MEAS FROM
 STIM.      16.29.52 23-Mar-20:  START TIME
 DATE.      16.29.52 23-Mar-20:  END TIME
 SPUD.               23-Mar-20:  SPUD DATE
 NREF.                    Grid:  NORTH REFERENCE
 HPTY.       Minimum Curvature:  HOLE POS TYPE
 DMOD.             Drill Model:  DRILL MOD DESC
 SVYD.                  Survey:  SURVEY DESC
 ILTD.               Lithology:  INTERP LTH DESC
 FTOP.          Formation Tops:  FORM TOPS DESC
 SON .        AZ-XX-0906252240:  JOB NUMBER
 RIG .             West Chirag:  RIG NAME
 PDAT.          Mean Sea Level:  PERMANENT DATUM
 FLD .                     ACG:  FIELD NAME
 CTRY.              Azerbaijan:  COUNTRY NAME
 WELL.           J23 (Slot 07):  WELL NAME
 SRVC.          Turan Drilling:  CONTRACTOR
 COMP.     BP Exploration (Casoian Sea) Ltd:  COMPANY
 WTYP.                Deviated:  WELL TYPE
 MDS .        Operator Entered:  MAG DATA SOURCE
 UWI .                     N/A:  UNIQUE WELL IDENTIFIER
 API .                     N/A:  API NUMBER
 BASE.              Azerbaijan:  LOGGING EQUIPMENT BASE LOCATION
 REGN.                   EESSA:  REGION
 PROV.                    Baku:  PROVINCE
 STAT.                    Baku:  STATE NAME
 MWDS.                     N/A:  MWD SHOP
 JOBN.        AZ-XX-0906252240:  JOB TICKET NUMB
 DOE .                     N/A:  DOE NUMBER
 DCON.         Sperry Drilling:  DIRECTNL CONTR
 UNIT.                     N/A:  LOGGING EQUIPMENT ID
 CNTY.                        :  COUNTY
 LOC .                        :  LOCATION
 LMF .             Drill Floor:  LOG MEASURED FROM
 TVDS.m                  43.00:  TVDSS CORRECTN
 LATI.deg                40.13:  LATITUDE
 LONG.deg                51.22:  LONGITUDE
 WHNS.m                   9.43:  WELL HEAD N/S
 WHEW.m                  -8.91:  WELL HEAD E/W
 UTMX.m              519005.06:  UTM X
 UTMY.m             4443793.85:  UTM Y
 DFWL.m                   0.00:  DISTANCE FWL
 DFSL.m                   0.00:  DISTANCE FSL
 SDEP.m                   0.00:  START DEPTH
 TDD .m                   0.00:  TOTAL DEPTH (DRILLER)
 VSDR.deg               179.88:  VERT SEC DIRECT
 GVFD.g                   1.00:  GRAVITY FIELD
 MFLD.nT              50281.00:  MAGNETIC FIELD
 MDIP.deg                59.58:  MAGNETIC DIP
 MDEC.deg                 6.48:  MAGNETIC DECL
 GRDC.deg                 0.14:  GRID CORRECTION
 AZTC.deg                 6.34:  AZM TOTAL CORR
 EPD .m                   0.00:  ELEVATION
 EGL .m                   0.00:  GROUND ELEVATION
 WDMS.m                 169.80:  WD ELEV
 APD .m                  43.00:  DEPTH ABOVE PD
 DEP .m                 354.17:  DEPTH
 AGAP.m                  43.00:  AIR GAP
 VSEW.m                  -8.91:  VERT SEC E/W
 VSNS.m                   9.43:  VERT SEC N/S
 EKB .m                   0.00:  KB ELEVATION
 EDF .m                  43.00:  DF ELEVATION
 TDL .m                1326.00:  TOTAL DEPTH (LOGGER)
 VSC .                       0:  VS TO CLOSURE
 MAGU.                 1850704:  MAGUTM CHECKSUM
~Parameter Information Block
#MNEM.UNIT       Value        Description
#---------     -----------    ---------------------------
 AV  .mps                 1.17:  Ann Velocity 
 AZIF.deg               184.04:  Azm, Final 
 BHAT.        Rotary Steerable:  BHA Type 
 BREV.rev            620000.00:  Rev Bit Total 
 BROT.°/30m               0.20:  Build Rotating 
 BS  .in                 14.75:  Bit Size 
 BSZ .in                 14.75:  Bit Size 
 BTPL.psig              618.00:  Bit Press Loss 
 CABU.                      No:  Customer Abuse 
 TCS .hr                 87.68:  Time Ciculation Ended 
 CV  .mps                 3.10:  Crit Velocity 
 DD1 .          Rashad Habibov:  Direct Drillr 1 
 DD2 .         Rasim Ibrahimov:  Direct Drillr 2 
 DDSV.               Geo-Pilot:  DD Service 
 DEFF.%                  98.00:  % Det Eff 
 DLRX.°/30m               1.48:  Dogleg Rot Max 
 DLSO.°/30m               0.50:  Dogleg Oriented 
 DLSX.°/30m               1.48:  Dogleg Str Max 
 DRET.      06.18.56 19-Apr-20:  Drill End Time 
 DRST.      15.00.56 15-Apr-20:  Drill Start Tim 
 DTIM.hr                 51.73:  Time Drilling 
 EDEP.m                3410.01:  End Depth 
 ENG1.        Marcelo Sandoval:  Engineer 1 
 ENG2.        Davud Huseynzade:  Engineer 2 
 ENG3.          Ruslan Safarov:  Engineer 3 
 ETIM.      04.00.56 20-Apr-20:  End Time 
 FLOI.gpm              1000.00:  Flow In 
 FLON.gpm               600.00:  Flow In Min 
 FLOS.cptm                0.00:  Fluid Loss 
 FLOX.gpm              1200.00:  Flow In Max 
 HFLO.                      No:  High Flow 
 HPRE.                     Yes:  High Pressure 
 HTEM.                      No:  High Temp 
 HYDO.m                   1.80:  Hydro Offset 
 IFIN.deg                70.04:  Inc, Final 
 IMAX.deg                70.56:  Inc Max 
 IMIN.deg                69.85:  Inc Min 
 IMND.m                3103.24:  Inc Min Depth 
 IMXD.m                2876.63:  Inc Max Depth 
 JARR.                      No:  Jarring 
 LETM.      06.18.56 19-Apr-20:  Log End Time 
 LOST.hr                     0:  Lost Rig Time 
 LSTM.      15.00.56 15-Apr-20:  Log Start Time 
 MDCL.ppm             42000.00:  Mud Chlorides 
 MDES.     Inversion Oil/Synthetic:  Mud Desc 
 DFD .sg                  1.58:  Mud Density 
 MDMN.sg                  1.58:  Dens Mud Min 
 MDMX.sg                  1.58:  Dens Mud Max 
 MOIL.                      71:  Run Mud Oil % 
 MOWR.                   71:29:  Run Mud OWR 
 MSND.                       0:  Run Mud Sand % 
 MSOL.                    23.3:  Run Mud Solids% 
 DFV .spqt               84.00:  Mud Viscosity 
 MWOD.in                  9.50:  MWD Tool OD 
 MWSI.                      No:  Serv Intrp, MWD 
 OTIM.hr                139.62:  Time Operating 
 PMAX.psia             5364.69:  Press Op, Max 
 PV  .cP                 80.00:  Mud PV 
 RUN .                     700:  Run Number 
 ROPA.m/hr               25.00:  ROP Avg 
 ROPN.m/hr               11.00:  ROP Min 
 ROPX.m/hr               36.00:  ROP Max 
 RPMA.rpm               130.00:  RPM Surface Avg 
 RPMN.rpm               120.00:  RPM Surface Min 
 RPMX.rpm               140.00:  RPM Surface Max 
 RRUN.                    0700:  Rig Run Number 
 SAZI.deg               183.25:  Azm, Start 
 SDEP.m                2084.00:  Start Depth 
 SIDD.                      No:  Serv Intrp, DD 
 SINC.deg                70.38:  Inc, Start 
 SPPA.psig             4800.00:  SPP Avg 
 SPPN.psig             4400.00:  SPP Min 
 SPPX.psig             5350.00:  SPP Max 
 STIM.      16.30.56 14-Apr-20:  Start Time 
 SVCS.                 DD, MWD:  Services 
 SVER.                    9.20:  Sperry Version 
 TDAT.m                1326.00:  Tot Depth Attmp 
 TDDF.                      No:  Trip for DD 
 TDLG.m                1326.00:  Tot Depth Loggd 
 TFF .                      No:  Trip for Fail 
 TQAA.f-kp               19.00:  Torque Abs Avg 
 TQAN.f-kp                8.00:  Torque Abs Min 
 TQAX.f-kp               27.00:  Torque Abs Max 
 TRRT.°/30m               0.50:  Turn Rotating 
 MRT .                    HCIM:  Maximum Recorded Temperature 
 TTMX.degC               82.35:  Max Tool Temp 
 VS01.       905245875X1Z1W1C8:  Virtual Str1 SN 
 VS02.       90608022F11V7D1A9:  Virtual Str2 SN 
 VS03.            90605473R5C9:  Virtual Str3 SN 
 WBMN.klb                11.00:  WOB Min 
 WOBA.klb                21.00:  WOB Avg 
 WOBX.klb                30.00:  WOB Max 
 YP  .lhf2               45.00:  Yield Point 
~Curve Information Block
#MNEM.UNIT                 API CODE     Curve Description
#---------               -----------    ---------------------------
 TIME.HHMMSS            00 000 000 000:  GT Time & Date
 GTDEPTH.m              00 000 000 000:  GT Depth
 GTPQH.psia             00 000 000 000:  GT HR Quartz Pressure
 GTTQ.degC              00 000 000 000:  GT Quartz Temperature
 GTTN.NONE              00 000 000 000:  GT Test Number
 GTET.sec               00 000 000 000:  GT Elapsed Test Time
 GTTVD.m                00 000 000 000:  GT True Vertical Depth
#Other Information
#
#WARRANTY: Halliburton will use its best efforts to furnish customers with 
#accurate information and interpretations that are part of, and incident to, the services 
#provided.  However, Halliburton cannot and does not warrant the accuracy 
#or correctness of such information and interpretations.  Under no circumstances should any 
#such information or interpretation be relied upon as the sole basis for any drilling, 
#completion, production, or financial decision or any procedure involving any risk to the 
#safety of any drilling venture, drilling rig or its crew or any other third party.  The 
#Customer has full responsibility for all drilling, completion and production operation.  
#Halliburton makes no representations or warranties, either expressed or 
#implied, including, but not limited to, the implied warranties of merchantability or fitness 
#for a particular purpose, with respect to the services rendered.  In no event will 
#Halliburton be liable for failure to obtain any particular results or for 
#any damages, including, but not limited to, indirect, special or consequential damages, 
#resulting from the use of any information or interpretation provided by Halliburton.
#
~A           TIME           GTDEPTH  GTPQH  GTTQ  GTTN  GTET   GTTVD  
   08:47:02.347.18-Apr-2020 3032.52 4494.20 70.36 3.00   0.00 1949.78
   08:47:02.547.18-Apr-2020 3032.52 4493.36 70.36 3.00   0.20 1949.78
   08:47:02.747.18-Apr-2020 3032.52 4494.28 70.36 3.00   0.40 1949.78
   08:47:02.947.18-Apr-2020 3032.52 4491.63 70.36 3.00   0.60 1949.78
   08:47:03.147.18-Apr-2020 3032.52 4493.24 70.35 3.00   0.80 1949.78
   08:47:03.347.18-Apr-2020 3032.52 4492.86 70.35 3.00   1.00 1949.78
   08:47:03.547.18-Apr-2020 3032.52 4492.86 70.35 3.00   1.20 1949.78
   08:47:03.747.18-Apr-2020 3032.52 4492.86 70.35 3.00   1.40 1949.78
   08:47:03.947.18-Apr-2020 3032.52 4491.45 70.35 3.00   1.60 1949.78
   08:47:04.147.18-Apr-2020 3032.52 4491.43 70.35 3.00   1.80 1949.78
   08:47:04.347.18-Apr-2020 3032.52 4489.43 70.35 3.00   2.00 1949.78
   08:47:04.547.18-Apr-2020 3032.52 4489.43 70.35 3.00   2.20 1949.78
   08:47:04.747.18-Apr-2020 3032.52 4488.82 70.35 3.00   2.40 1949.78
   08:47:04.947.18-Apr-2020 3032.52 4487.41 70.34 3.00   2.60 1949.78
   08:47:05.147.18-Apr-2020 3032.52 4486.25 70.34 3.00   2.80 1949.78
   08:47:05.348.18-Apr-2020 3032.52 4484.62 70.34 3.00   3.00 1949.78
   08:47:05.548.18-Apr-2020 3032.52 4484.62 70.34 3.00   3.20 1949.78
   08:47:05.748.18-Apr-2020 3032.52 4482.49 70.34 3.00   3.40 1949.78
   08:47:05.948.18-Apr-2020 3032.52 4483.17 70.34 3.00   3.60 1949.78
   08:47:06.148.18-Apr-2020 3032.52 4482.03 70.34 3.00   3.80 1949.78
   08:47:06.348.18-Apr-2020 3032.52 4481.43 70.34 3.00   4.00 1949.78
   08:47:06.548.18-Apr-2020 3032.52 4481.43 70.34 3.00   4.20 1949.78
   08:47:06.748.18-Apr-2020 3032.52 4483.82 70.33 3.00   4.40 1949.78
   08:47:06.948.18-Apr-2020 3032.52 4483.19 70.33 3.00   4.60 1949.78
   08:47:07.148.18-Apr-2020 3032.52 4483.59 70.33 3.00   4.80 1949.78
   08:47:07.348.18-Apr-2020 3032.52 4481.69 70.33 3.00   5.00 1949.78
   08:47:07.548.18-Apr-2020 3032.52 4483.81 70.33 3.00   5.20 1949.78
   08:47:07.748.18-Apr-2020 3032.52 4482.96 70.33 3.00   5.40 1949.78
   08:47:07.948.18-Apr-2020 3032.52 4482.67 70.33 3.00   5.60 1949.78
   08:47:08.148.18-Apr-2020 3032.52 4481.17 70.33 3.00   5.80 1949.78
   08:47:08.348.18-Apr-2020 3032.52 4481.58 70.33 3.00   6.00 1949.78
   08:47:08.548.18-Apr-2020 3032.52 4481.58 70.33 3.00   6.20 1949.78
   08:47:08.748.18-Apr-2020 3032.52 4480.19 70.32 3.00   6.40 1949.78
   08:47:08.948.18-Apr-2020 3032.52 4480.05 70.32 3.00   6.60 1949.78
   08:47:09.148.18-Apr-2020 3032.52 4479.61 70.32 3.00   6.80 1949.78
   08:47:09.348.18-Apr-2020 3032.52 4479.26 70.32 3.00   7.00 1949.78
   08:47:09.548.18-Apr-2020 3032.52 4479.26 70.32 3.00   7.20 1949.78
   08:47:09.748.18-Apr-2020 3032.52 4478.85 70.32 3.00   7.40 1949.78
   08:47:09.948.18-Apr-2020 3032.52 4479.26 70.32 3.00   7.60 1949.78
   08:47:10.148.18-Apr-2020 3032.52 4478.68 70.31 3.00   7.80 1949.78
   08:47:10.348.18-Apr-2020 3032.52 4478.32 70.31 3.00   8.00 1949.78
   08:47:10.548.18-Apr-2020 3032.52 4479.84 70.31 3.00   8.20 1949.78
   08:47:10.748.18-Apr-2020 3032.52 4480.28 70.31 3.00   8.40 1949.78
   08:47:10.948.18-Apr-2020 3032.52 4479.96 70.31 3.00   8.60 1949.78
   08:47:11.148.18-Apr-2020 3032.52 4480.46 70.31 3.00   8.80 1949.78
   08:47:11.348.18-Apr-2020 3032.52 4481.29 70.31 3.00   9.00 1949.78
   08:47:11.548.18-Apr-2020 3032.52 4482.03 70.31 3.00   9.20 1949.78
   08:47:11.748.18-Apr-2020 3032.52 4481.85 70.31 3.00   9.40 1949.78
   08:47:11.948.18-Apr-2020 3032.52 4481.99 70.30 3.00   9.60 1949.78
   08:47:12.148.18-Apr-2020 3032.52 4482.42 70.30 3.00   9.80 1949.78
   08:47:12.348.18-Apr-2020 3032.52 4483.00 70.30 3.00  10.00 1949.78
   08:47:12.548.18-Apr-2020 3032.52 4483.00 70.30 3.00  10.20 1949.78
   08:47:12.749.18-Apr-2020 3032.52 4483.69 70.30 3.00  10.40 1949.78
   08:47:12.949.18-Apr-2020 3032.52 4484.16 70.30 3.00  10.60 1949.78
   08:47:13.149.18-Apr-2020 3032.52 4484.50 70.30 3.00  10.80 1949.78
   08:47:13.349.18-Apr-2020 3032.52 4482.95 70.30 3.00  11.00 1949.78
   08:47:13.549.18-Apr-2020 3032.52 4482.95 70.30 3.00  11.20 1949.78
   08:47:13.749.18-Apr-2020 3032.52 4484.54 70.29 3.00  11.40 1949.78
   08:47:13.949.18-Apr-2020 3032.52 4482.12 70.29 3.00  11.60 1949.78
   08:47:14.149.18-Apr-2020 3032.52 4484.46 70.29 3.00  11.80 1949.78
   08:47:14.349.18-Apr-2020 3032.52 4485.01 70.29 3.00  12.00 1949.78
   08:47:14.549.18-Apr-2020 3032.52 4485.20 70.29 3.00  12.20 1949.78
   08:47:14.749.18-Apr-2020 3032.52 4482.01 70.29 3.00  12.40 1949.78
   08:47:14.949.18-Apr-2020 3032.52 4485.36 70.29 3.00  12.60 1949.78
   08:47:15.149.18-Apr-2020 3032.52 4486.00 70.29 3.00  12.80 1949.78
   08:47:15.349.18-Apr-2020 3032.52 4484.02 70.29 3.00  13.00 1949.78
   08:47:15.549.18-Apr-2020 3032.52 4486.57 70.28 3.00  13.20 1949.78
   08:47:15.749.18-Apr-2020 3032.52 4486.80 70.28 3.00  13.40 1949.78
   08:47:15.949.18-Apr-2020 3032.52 4484.88 70.28 3.00  13.60 1949.78
   08:47:16.149.18-Apr-2020 3032.52 4487.91 70.28 3.00  13.80 1949.78
   08:47:16.349.18-Apr-2020 3032.52 4487.34 70.28 3.00  14.00 1949.78
   08:47:16.549.18-Apr-2020 3032.52 4487.34 70.28 3.00  14.20 1949.78
   08:47:16.749.18-Apr-2020 3032.52 4485.80 70.28 3.00  14.40 1949.78
   08:47:16.949.18-Apr-2020 3032.52 4488.56 70.28 3.00  14.60 1949.78
   08:47:17.149.18-Apr-2020 3032.52 4488.45 70.27 3.00  14.80 1949.78
   08:47:17.349.18-Apr-2020 3032.52 4488.12 70.27 3.00  15.00 1949.78
   08:47:17.549.18-Apr-2020 3032.52 4488.12 70.27 3.00  15.20 1949.78
   08:47:17.749.18-Apr-2020 3032.52 4487.94 70.27 3.00  15.40 1949.78
   08:47:17.949.18-Apr-2020 3032.52 4487.53 70.27 3.00  15.60 1949.78
   08:47:18.149.18-Apr-2020 3032.52 4487.60 70.27 3.00  15.80 1949.78
   08:47:18.349.18-Apr-2020 3032.52 4487.02 70.27 3.00  16.00 1949.78
   08:47:18.549.18-Apr-2020 3032.52 4486.72 70.27 3.00  16.20 1949.78
   08:47:18.749.18-Apr-2020 3032.52 4487.00 70.27 3.00  16.40 1949.78
   08:47:18.949.18-Apr-2020 3032.52 4486.75 70.26 3.00  16.60 1949.78
   08:47:19.149.18-Apr-2020 3032.52 4485.87 70.26 3.00  16.80 1949.78
   08:47:19.349.18-Apr-2020 3032.52 4486.13 70.26 3.00  17.00 1949.78
   08:47:19.549.18-Apr-2020 3032.52 4484.32 70.26 3.00  17.20 1949.78
   08:47:19.749.18-Apr-2020 3032.52 4486.56 70.26 3.00  17.40 1949.78
   08:47:19.949.18-Apr-2020 3032.52 4486.07 70.26 3.00  17.60 1949.78
   08:47:20.150.18-Apr-2020 3032.52 4486.41 70.26 3.00  17.80 1949.78
   08:47:20.350.18-Apr-2020 3032.52 4486.49 70.26 3.00  18.00 1949.78
   08:47:20.550.18-Apr-2020 3032.52 4486.49 70.26 3.00  18.20 1949.78
   08:47:20.750.18-Apr-2020 3032.52 4486.10 70.25 3.00  18.40 1949.78
   08:47:20.950.18-Apr-2020 3032.52 4486.31 70.25 3.00  18.60 1949.78
   08:47:21.150.18-Apr-2020 3032.52 4486.23 70.25 3.00  18.80 1949.78
   08:47:21.350.18-Apr-2020 3032.52 4485.99 70.25 3.00  19.00 1949.78
   08:47:21.550.18-Apr-2020 3032.52 4485.99 70.25 3.00  19.20 1949.78
   08:47:21.750.18-Apr-2020 3032.52 4485.91 70.25 3.00  19.40 1949.78
   08:47:21.950.18-Apr-2020 3032.52 4485.08 70.25 3.00  19.60 1949.78
   08:47:22.150.18-Apr-2020 3032.52 4484.01 70.25 3.00  19.80 1949.78
   08:47:22.350.18-Apr-2020 3032.52 4483.98 70.24 3.00  20.00 1949.78
   08:47:22.550.18-Apr-2020 3032.52 4484.86 70.24 3.00  20.20 1949.78
   08:47:22.750.18-Apr-2020 3032.52 4483.93 70.24 3.00  20.40 1949.78
   08:47:22.950.18-Apr-2020 3032.52 4481.90 70.24 3.00  20.60 1949.78
   08:47:23.150.18-Apr-2020 3032.52 4484.24 70.24 3.00  20.80 1949.78
   08:47:23.350.18-Apr-2020 3032.52 4483.97 70.24 3.00  21.00 1949.78
   08:47:23.550.18-Apr-2020 3032.52 4483.97 70.24 3.00  21.20 1949.78
   08:47:23.750.18-Apr-2020 3032.52 4481.29 70.24 3.00  21.40 1949.78
   08:47:23.950.18-Apr-2020 3032.52 4483.29 70.24 3.00  21.60 1949.78
   08:47:24.150.18-Apr-2020 3032.52 4482.82 70.23 3.00  21.80 1949.78
   08:47:24.350.18-Apr-2020 3032.52 4482.03 70.23 3.00  22.00 1949.78
   08:47:24.550.18-Apr-2020 3032.52 4482.03 70.23 3.00  22.20 1949.78
   08:47:24.750.18-Apr-2020 3032.52 4482.35 70.23 3.00  22.40 1949.78
   08:47:24.950.18-Apr-2020 3032.52 4483.22 70.23 3.00  22.60 1949.78
   08:47:25.150.18-Apr-2020 3032.52 4482.28 70.23 3.00  22.80 1949.78
