~Version Information
 VERS.                  2.0:   CWLS log ASCII Standard -VERSION 2.0
 WRAP.                   NO:   One line per depth step
~Well Information Block
#MNEM.UNIT     VALUE/NAME     DESCRIPTION
#---------     -----------    ---------------------------
 STRT.S             15:57:21 18-Apr-20: START TIME 15:57:21 18-Apr-20
 STOP.S             16:04:15 18-Apr-20: STOP TIME  16:04:15 18-Apr-20
 STEP.S                   0.00: STEP TIME
 NULL.                 -999.25: NULL VALUE
 DFWT.                        :  DIST FWL TEXT
 DFST.                        :  DIST FSL TEXT
 DMF .                        :  DRILL MEAS FROM
 STIM.      16.29.52 23-Mar-20:  START TIME
 DATE.      16.29.52 23-Mar-20:  END TIME
 SPUD.               23-Mar-20:  SPUD DATE
 NREF.                    Grid:  NORTH REFERENCE
 HPTY.       Minimum Curvature:  HOLE POS TYPE
 DMOD.             Drill Model:  DRILL MOD DESC
 SVYD.                  Survey:  SURVEY DESC
 ILTD.               Lithology:  INTERP LTH DESC
 FTOP.          Formation Tops:  FORM TOPS DESC
 SON .        AZ-XX-0906252240:  JOB NUMBER
 RIG .             West Chirag:  RIG NAME
 PDAT.          Mean Sea Level:  PERMANENT DATUM
 FLD .                     ACG:  FIELD NAME
 CTRY.              Azerbaijan:  COUNTRY NAME
 WELL.           J23 (Slot 07):  WELL NAME
 SRVC.          Turan Drilling:  CONTRACTOR
 COMP.     BP Exploration (Casoian Sea) Ltd:  COMPANY
 WTYP.                Deviated:  WELL TYPE
 MDS .        Operator Entered:  MAG DATA SOURCE
 UWI .                     N/A:  UNIQUE WELL IDENTIFIER
 API .                     N/A:  API NUMBER
 BASE.              Azerbaijan:  LOGGING EQUIPMENT BASE LOCATION
 REGN.                   EESSA:  REGION
 PROV.                    Baku:  PROVINCE
 STAT.                    Baku:  STATE NAME
 MWDS.                     N/A:  MWD SHOP
 JOBN.        AZ-XX-0906252240:  JOB TICKET NUMB
 DOE .                     N/A:  DOE NUMBER
 DCON.         Sperry Drilling:  DIRECTNL CONTR
 UNIT.                     N/A:  LOGGING EQUIPMENT ID
 CNTY.                        :  COUNTY
 LOC .                        :  LOCATION
 LMF .             Drill Floor:  LOG MEASURED FROM
 TVDS.m                  43.00:  TVDSS CORRECTN
 LATI.deg                40.13:  LATITUDE
 LONG.deg                51.22:  LONGITUDE
 WHNS.m                   9.43:  WELL HEAD N/S
 WHEW.m                  -8.91:  WELL HEAD E/W
 UTMX.m              519005.06:  UTM X
 UTMY.m             4443793.85:  UTM Y
 DFWL.m                   0.00:  DISTANCE FWL
 DFSL.m                   0.00:  DISTANCE FSL
 SDEP.m                   0.00:  START DEPTH
 TDD .m                   0.00:  TOTAL DEPTH (DRILLER)
 VSDR.deg               179.88:  VERT SEC DIRECT
 GVFD.g                   1.00:  GRAVITY FIELD
 MFLD.nT              50281.00:  MAGNETIC FIELD
 MDIP.deg                59.58:  MAGNETIC DIP
 MDEC.deg                 6.48:  MAGNETIC DECL
 GRDC.deg                 0.14:  GRID CORRECTION
 AZTC.deg                 6.34:  AZM TOTAL CORR
 EPD .m                   0.00:  ELEVATION
 EGL .m                   0.00:  GROUND ELEVATION
 WDMS.m                 169.80:  WD ELEV
 APD .m                  43.00:  DEPTH ABOVE PD
 DEP .m                 354.17:  DEPTH
 AGAP.m                  43.00:  AIR GAP
 VSEW.m                  -8.91:  VERT SEC E/W
 VSNS.m                   9.43:  VERT SEC N/S
 EKB .m                   0.00:  KB ELEVATION
 EDF .m                  43.00:  DF ELEVATION
 TDL .m                1326.00:  TOTAL DEPTH (LOGGER)
 VSC .                       0:  VS TO CLOSURE
 MAGU.                 1850704:  MAGUTM CHECKSUM
~Parameter Information Block
#MNEM.UNIT       Value        Description
#---------     -----------    ---------------------------
 AV  .mps                 1.17:  Ann Velocity 
 AZIF.deg               184.04:  Azm, Final 
 BHAT.        Rotary Steerable:  BHA Type 
 BREV.rev            620000.00:  Rev Bit Total 
 BROT.°/30m               0.20:  Build Rotating 
 BS  .in                 14.75:  Bit Size 
 BSZ .in                 14.75:  Bit Size 
 BTPL.psig              618.00:  Bit Press Loss 
 CABU.                      No:  Customer Abuse 
 COMM.                     ¬)g:  Run Comments 1 
 TCS .hr                 87.68:  Time Ciculation Ended 
 CV  .mps                 3.10:  Crit Velocity 
 DD1 .          Rashad Habibov:  Direct Drillr 1 
 DD2 .         Rasim Ibrahimov:  Direct Drillr 2 
 DDSV.               Geo-Pilot:  DD Service 
 DEFF.%                  98.00:  % Det Eff 
 DLRX.°/30m               1.48:  Dogleg Rot Max 
 DLSO.°/30m               0.50:  Dogleg Oriented 
 DLSX.°/30m               1.48:  Dogleg Str Max 
 DRET.      06.18.56 19-Apr-20:  Drill End Time 
 DRST.      15.00.56 15-Apr-20:  Drill Start Tim 
 DTIM.hr                 51.73:  Time Drilling 
 EDEP.m                3410.01:  End Depth 
 ENG1.        Marcelo Sandoval:  Engineer 1 
 ENG2.        Davud Huseynzade:  Engineer 2 
 ENG3.          Ruslan Safarov:  Engineer 3 
 ETIM.      04.00.56 20-Apr-20:  End Time 
 FLOI.gpm              1000.00:  Flow In 
 FLON.gpm               600.00:  Flow In Min 
 FLOS.cptm                0.00:  Fluid Loss 
 FLOX.gpm              1200.00:  Flow In Max 
 HFLO.                      No:  High Flow 
 HPRE.                     Yes:  High Pressure 
 HTEM.                      No:  High Temp 
 HYDO.m                   1.80:  Hydro Offset 
 IFIN.deg                70.04:  Inc, Final 
 IMAX.deg                70.56:  Inc Max 
 IMIN.deg                69.85:  Inc Min 
 IMND.m                3103.24:  Inc Min Depth 
 IMXD.m                2876.63:  Inc Max Depth 
 JARR.                      No:  Jarring 
 LETM.      06.18.56 19-Apr-20:  Log End Time 
 LOST.hr                     0:  Lost Rig Time 
 LSTM.      15.00.56 15-Apr-20:  Log Start Time 
 MDCL.ppm             42000.00:  Mud Chlorides 
 MDES.     Inversion Oil/Synthetic:  Mud Desc 
 DFD .sg                  1.58:  Mud Density 
 MDMN.sg                  1.58:  Dens Mud Min 
 MDMX.sg                  1.58:  Dens Mud Max 
 MOIL.                      71:  Run Mud Oil % 
 MOWR.                   71:29:  Run Mud OWR 
 MSND.                       0:  Run Mud Sand % 
 MSOL.                    23.3:  Run Mud Solids% 
 DFV .spqt               84.00:  Mud Viscosity 
 MWOD.in                  9.50:  MWD Tool OD 
 MWSI.                      No:  Serv Intrp, MWD 
 OTIM.hr                139.62:  Time Operating 
 PMAX.psia             5364.69:  Press Op, Max 
 PV  .cP                 80.00:  Mud PV 
 RUN .                     700:  Run Number 
 ROPA.m/hr               25.00:  ROP Avg 
 ROPN.m/hr               11.00:  ROP Min 
 ROPX.m/hr               36.00:  ROP Max 
 RPMA.rpm               130.00:  RPM Surface Avg 
 RPMN.rpm               120.00:  RPM Surface Min 
 RPMX.rpm               140.00:  RPM Surface Max 
 RRUN.                    0700:  Rig Run Number 
 SAZI.deg               183.25:  Azm, Start 
 SDEP.m                2084.00:  Start Depth 
 SIDD.                      No:  Serv Intrp, DD 
 SINC.deg                70.38:  Inc, Start 
 SPPA.psig             4800.00:  SPP Avg 
 SPPN.psig             4400.00:  SPP Min 
 SPPX.psig             5350.00:  SPP Max 
 STIM.      16.30.56 14-Apr-20:  Start Time 
 SVCS.                 DD, MWD:  Services 
 SVER.                    9.20:  Sperry Version 
 TDAT.m                1326.00:  Tot Depth Attmp 
 TDDF.                      No:  Trip for DD 
 TDLG.m                1326.00:  Tot Depth Loggd 
 TFF .                      No:  Trip for Fail 
 TQAA.f-kp               19.00:  Torque Abs Avg 
 TQAN.f-kp                8.00:  Torque Abs Min 
 TQAX.f-kp               27.00:  Torque Abs Max 
 TRRT.°/30m               0.50:  Turn Rotating 
 MRT .                    HCIM:  Maximum Recorded Temperature 
 TTMX.degC               82.35:  Max Tool Temp 
 VS01.       905245875X1Z1W1C8:  Virtual Str1 SN 
 VS02.       90608022F11V7D1A9:  Virtual Str2 SN 
 VS03.            90605473R5C9:  Virtual Str3 SN 
 WBMN.klb                11.00:  WOB Min 
 WOBA.klb                21.00:  WOB Avg 
 WOBX.klb                30.00:  WOB Max 
 YP  .lhf2               45.00:  Yield Point 
~Curve Information Block
#MNEM.UNIT                 API CODE     Curve Description
#---------               -----------    ---------------------------
 TIME.HHMMSS            00 000 000 000:  GT Time & Date
 GTDEPTH.m              00 000 000 000:  GT Depth
 GTPQH.psia             00 000 000 000:  GT HR Quartz Pressure
 GTTQ.degC              00 000 000 000:  GT Quartz Temperature
 GTTN.NONE              00 000 000 000:  GT Test Number
 GTET.sec               00 000 000 000:  GT Elapsed Test Time
 GTTVD.m                00 000 000 000:  GT True Vertical Depth
#Other Information
#
#WARRANTY: Halliburton will use its best efforts to furnish customers with 
#accurate information and interpretations that are part of, and incident to, the services 
#provided.  However, Halliburton cannot and does not warrant the accuracy 
#or correctness of such information and interpretations.  Under no circumstances should any 
#such information or interpretation be relied upon as the sole basis for any drilling, 
#completion, production, or financial decision or any procedure involving any risk to the 
#safety of any drilling venture, drilling rig or its crew or any other third party.  The 
#Customer has full responsibility for all drilling, completion and production operation.  
#Halliburton makes no representations or warranties, either expressed or 
#implied, including, but not limited to, the implied warranties of merchantability or fitness 
#for a particular purpose, with respect to the services rendered.  In no event will 
#Halliburton be liable for failure to obtain any particular results or for 
#any damages, including, but not limited to, indirect, special or consequential damages, 
#resulting from the use of any information or interpretation provided by Halliburton.
#
~A           TIME           GTDEPTH  GTPQH  GTTQ  GTTN  GTET   GTTVD  
# ...
   16:00:25.184.18-Apr-2020 3140.11 3319.45 67.54 7.00 183.98 1986.54
   16:00:25.384.18-Apr-2020 3140.11 3319.45 67.54 7.00 184.18 1986.54
   16:00:25.584.18-Apr-2020 3140.11 3319.54 67.54 7.00 184.38 1986.54
   16:00:25.784.18-Apr-2020 3140.11 3319.57 67.54 7.00 184.58 1986.54
   16:00:25.984.18-Apr-2020 3140.11 3319.59 67.54 7.00 184.78 1986.54
   16:00:26.184.18-Apr-2020 3140.11 3319.63 67.54 7.00 184.98 1986.54
   16:00:26.384.18-Apr-2020 3140.11 3319.63 67.54 7.00 185.18 1986.54
   16:00:26.584.18-Apr-2020 3140.11 3319.66 67.54 7.00 185.38 1986.54
   16:00:26.784.18-Apr-2020 3140.11 3319.70 67.54 7.00 185.58 1986.54
   16:00:26.983.18-Apr-2020 3140.11 3319.72 67.54 7.00 185.78 1986.54
   16:00:27.183.18-Apr-2020 3140.11 3319.74 67.54 7.00 185.98 1986.54
   16:00:27.383.18-Apr-2020 3140.11 3319.74 67.54 7.00 186.18 1986.54
   16:00:27.583.18-Apr-2020 3140.11 3319.78 67.54 7.00 186.38 1986.54
   16:00:27.783.18-Apr-2020 3140.11 3319.80 67.54 7.00 186.58 1986.54
   16:00:27.983.18-Apr-2020 3140.11 3319.81 67.54 7.00 186.78 1986.54
   16:00:28.183.18-Apr-2020 3140.11 3319.84 67.54 7.00 186.98 1986.54
   16:00:28.383.18-Apr-2020 3140.11 3319.85 67.54 7.00 187.18 1986.54
   16:00:28.583.18-Apr-2020 3140.11 3319.87 67.54 7.00 187.38 1986.54
   16:00:28.783.18-Apr-2020 3140.11 3319.88 67.54 7.00 187.58 1986.54
   16:00:28.983.18-Apr-2020 3140.11 3319.90 67.54 7.00 187.78 1986.54
   16:00:29.183.18-Apr-2020 3140.11 3319.90 67.54 7.00 187.98 1986.54
   16:00:29.383.18-Apr-2020 3140.11 3319.90 67.54 7.00 188.18 1986.54
   16:00:29.583.18-Apr-2020 3140.11 3319.95 67.54 7.00 188.38 1986.54
   16:00:29.783.18-Apr-2020 3140.11 3319.95 67.54 7.00 188.58 1986.54
   16:00:29.983.18-Apr-2020 3140.11 3319.95 67.54 7.00 188.78 1986.54
   16:00:30.183.18-Apr-2020 3140.11 3319.98 67.54 7.00 188.98 1986.54
   16:00:30.383.18-Apr-2020 3140.11 3319.98 67.54 7.00 189.18 1986.54
   16:00:30.583.18-Apr-2020 3140.11 3319.99 67.54 7.00 189.38 1986.54
   16:00:30.783.18-Apr-2020 3140.11 3320.00 67.54 7.00 189.58 1986.54
   16:00:30.983.18-Apr-2020 3140.11 3320.00 67.54 7.00 189.78 1986.54
   16:00:31.183.18-Apr-2020 3140.11 3320.01 67.54 7.00 189.98 1986.54
   16:00:31.383.18-Apr-2020 3140.11 3320.01 67.54 7.00 190.18 1986.54
   16:00:31.583.18-Apr-2020 3140.11 3320.03 67.54 7.00 190.38 1986.54
   16:00:31.783.18-Apr-2020 3140.11 3320.04 67.53 7.00 190.58 1986.54
   16:00:31.983.18-Apr-2020 3140.11 3320.05 67.53 7.00 190.78 1986.54
   16:00:32.183.18-Apr-2020 3140.11 3320.05 67.53 7.00 190.98 1986.54
   16:00:32.383.18-Apr-2020 3140.11 3320.06 67.53 7.00 191.18 1986.54
   16:00:32.583.18-Apr-2020 3140.11 3320.07 67.53 7.00 191.38 1986.54
   16:00:32.783.18-Apr-2020 3140.11 3320.08 67.53 7.00 191.58 1986.54
   16:00:32.983.18-Apr-2020 3140.11 3320.09 67.53 7.00 191.78 1986.54
   16:00:33.183.18-Apr-2020 3140.11 3320.08 67.53 7.00 191.98 1986.54
   16:00:33.383.18-Apr-2020 3140.11 3320.08 67.53 7.00 192.18 1986.54
   16:00:33.583.18-Apr-2020 3140.11 3320.10 67.53 7.00 192.38 1986.54
   16:00:33.783.18-Apr-2020 3140.11 3320.10 67.53 7.00 192.58 1986.54
   16:00:33.983.18-Apr-2020 3140.11 3320.10 67.53 7.00 192.78 1986.54
   16:00:34.183.18-Apr-2020 3140.11 3320.10 67.53 7.00 192.98 1986.54
   16:00:34.383.18-Apr-2020 3140.11 3320.10 67.53 7.00 193.18 1986.54
   16:00:34.583.18-Apr-2020 3140.11 3320.13 67.53 7.00 193.38 1986.54
   16:00:34.783.18-Apr-2020 3140.11 3320.11 67.53 7.00 193.58 1986.54
   16:00:34.983.18-Apr-2020 3140.11 3320.12 67.53 7.00 193.78 1986.54
   16:00:35.183.18-Apr-2020 3140.11 3320.14 67.53 7.00 193.98 1986.54
   16:00:35.383.18-Apr-2020 3140.11 3320.14 67.53 7.00 194.18 1986.54
   16:00:35.582.18-Apr-2020 3140.11 3320.14 67.53 7.00 194.38 1986.54
   16:00:35.782.18-Apr-2020 3140.11 3320.14 67.53 7.00 194.58 1986.54
   16:00:35.982.18-Apr-2020 3140.11 3320.14 67.53 7.00 194.78 1986.54
   16:00:36.182.18-Apr-2020 3140.11 3320.15 67.53 7.00 194.98 1986.54
   16:00:36.382.18-Apr-2020 3140.11 3320.14 67.53 7.00 195.18 1986.54
   16:00:36.582.18-Apr-2020 3140.11 3320.16 67.53 7.00 195.38 1986.54
   16:00:36.782.18-Apr-2020 3140.11 3320.13 67.53 7.00 195.58 1986.54
   16:00:36.982.18-Apr-2020 3140.11 3320.18 67.53 7.00 195.78 1986.54
   16:00:37.182.18-Apr-2020 3140.11 3320.17 67.53 7.00 195.98 1986.54
   16:00:37.382.18-Apr-2020 3140.11 3320.17 67.53 7.00 196.18 1986.54
   16:00:37.582.18-Apr-2020 3140.11 3320.16 67.53 7.00 196.38 1986.54
   16:00:37.782.18-Apr-2020 3140.11 3320.17 67.53 7.00 196.58 1986.54
   16:00:37.982.18-Apr-2020 3140.11 3320.18 67.53 7.00 196.78 1986.54
   16:00:38.182.18-Apr-2020 3140.11 3320.18 67.53 7.00 196.98 1986.54
   16:00:38.382.18-Apr-2020 3140.11 3320.18 67.53 7.00 197.18 1986.54
   16:00:38.582.18-Apr-2020 3140.11 3320.18 67.53 7.00 197.38 1986.54
   16:00:38.782.18-Apr-2020 3140.11 3320.19 67.53 7.00 197.58 1986.54
   16:00:38.982.18-Apr-2020 3140.11 3320.17 67.53 7.00 197.78 1986.54
   16:00:39.182.18-Apr-2020 3140.11 3320.18 67.53 7.00 197.98 1986.54
   16:00:39.382.18-Apr-2020 3140.11 3320.18 67.53 7.00 198.18 1986.54
   16:00:39.582.18-Apr-2020 3140.11 3320.19 67.53 7.00 198.38 1986.54
   16:00:39.782.18-Apr-2020 3140.11 3320.19 67.53 7.00 198.58 1986.54
   16:00:39.982.18-Apr-2020 3140.11 3320.20 67.53 7.00 198.78 1986.54
   16:00:40.182.18-Apr-2020 3140.11 3320.18 67.53 7.00 198.98 1986.54
   16:00:40.382.18-Apr-2020 3140.11 3320.18 67.53 7.00 199.18 1986.54
   16:00:40.582.18-Apr-2020 3140.11 3320.20 67.53 7.00 199.38 1986.54
   16:00:40.782.18-Apr-2020 3140.11 3320.21 67.53 7.00 199.58 1986.54
   16:00:40.982.18-Apr-2020 3140.11 3320.20 67.53 7.00 199.78 1986.54
   16:00:41.182.18-Apr-2020 3140.11 3320.19 67.53 7.00 199.98 1986.54
   16:00:41.382.18-Apr-2020 3140.11 3320.19 67.53 7.00 200.18 1986.54
   16:00:41.582.18-Apr-2020 3140.11 3320.21 67.53 7.00 200.38 1986.54
   16:00:41.782.18-Apr-2020 3140.11 3320.21 67.53 7.00 200.58 1986.54
   16:00:41.982.18-Apr-2020 3140.11 3320.20 67.53 7.00 200.78 1986.54
   16:00:42.182.18-Apr-2020 3140.11 3320.21 67.53 7.00 200.98 1986.54
   16:00:42.382.18-Apr-2020 3140.11 3320.21 67.53 7.00 201.18 1986.54
   16:00:42.582.18-Apr-2020 3140.11 3320.22 67.53 7.00 201.38 1986.54
   16:00:42.782.18-Apr-2020 3140.11 3320.22 67.53 7.00 201.58 1986.54
   16:00:42.982.18-Apr-2020 3140.11 3320.21 67.53 7.00 201.78 1986.54
   16:00:43.182.18-Apr-2020 3140.11 3320.22 67.53 7.00 201.98 1986.54
   16:00:43.382.18-Apr-2020 3140.11 3320.22 67.53 7.00 202.18 1986.54
   16:00:43.582.18-Apr-2020 3140.11 3320.22 67.53 7.00 202.38 1986.54
   16:00:43.782.18-Apr-2020 3140.11 3320.23 67.53 7.00 202.58 1986.54
   16:00:43.982.18-Apr-2020 3140.11 3320.23 67.53 7.00 202.78 1986.54
   16:00:44.181.18-Apr-2020 3140.11 3320.22 67.53 7.00 202.98 1986.54
   16:00:44.381.18-Apr-2020 3140.11 3320.23 67.53 7.00 203.18 1986.54
   16:00:44.581.18-Apr-2020 3140.11 3320.23 67.53 7.00 203.38 1986.54
   16:00:44.781.18-Apr-2020 3140.11 3320.23 67.52 7.00 203.58 1986.54
   16:00:44.981.18-Apr-2020 3140.11 3320.23 67.52 7.00 203.78 1986.54
   16:00:45.181.18-Apr-2020 3140.11 3320.23 67.52 7.00 203.98 1986.54
   16:00:45.381.18-Apr-2020 3140.11 3320.23 67.52 7.00 204.18 1986.54
   16:00:45.581.18-Apr-2020 3140.11 3320.23 67.52 7.00 204.38 1986.54
   16:00:45.781.18-Apr-2020 3140.11 3320.24 67.52 7.00 204.58 1986.54
   16:00:45.981.18-Apr-2020 3140.11 3320.22 67.52 7.00 204.78 1986.54
   16:00:46.181.18-Apr-2020 3140.11 3320.24 67.52 7.00 204.98 1986.54
   16:00:46.381.18-Apr-2020 3140.11 3320.24 67.52 7.00 205.18 1986.54
   16:00:46.581.18-Apr-2020 3140.11 3320.23 67.52 7.00 205.38 1986.54
   16:00:46.781.18-Apr-2020 3140.11 3320.22 67.52 7.00 205.58 1986.54
   16:00:46.981.18-Apr-2020 3140.11 3320.24 67.52 7.00 205.78 1986.54
   16:00:47.181.18-Apr-2020 3140.11 3320.24 67.52 7.00 205.98 1986.54
   16:00:47.381.18-Apr-2020 3140.11 3320.24 67.52 7.00 206.18 1986.54
   16:00:47.581.18-Apr-2020 3140.11 3320.25 67.52 7.00 206.38 1986.54
   16:00:47.781.18-Apr-2020 3140.11 3320.22 67.52 7.00 206.58 1986.54
   16:00:47.981.18-Apr-2020 3140.11 3320.25 67.52 7.00 206.78 1986.54
