~Version Information
 VERS.                  2.0:   CWLS log ASCII Standard -VERSION 2.0
 WRAP.                   NO:   One line per depth step
~Well Information Block
#MNEM.UNIT     VALUE/NAME     DESCRIPTION
#---------     -----------    ---------------------------
 STRT.S             15:57:21 18-Apr-20: START TIME 15:57:21 18-Apr-20
 STOP.S             16:04:15 18-Apr-20: STOP TIME  16:04:15 18-Apr-20
 STEP.S                   0.00: STEP TIME
 NULL.                 -999.25: NULL VALUE
 DFWT.                        :  DIST FWL TEXT
 DFST.                        :  DIST FSL TEXT
 DMF .                        :  DRILL MEAS FROM
 STIM.      16.29.52 23-Mar-20:  START TIME
 DATE.      16.29.52 23-Mar-20:  END TIME
 SPUD.               23-Mar-20:  SPUD DATE
 NREF.                    Grid:  NORTH REFERENCE
 HPTY.       Minimum Curvature:  HOLE POS TYPE
 DMOD.             Drill Model:  DRILL MOD DESC
 SVYD.                  Survey:  SURVEY DESC
 ILTD.               Lithology:  INTERP LTH DESC
 FTOP.          Formation Tops:  FORM TOPS DESC
 SON .        AZ-XX-0906252240:  JOB NUMBER
 RIG .             West Chirag:  RIG NAME
 PDAT.          Mean Sea Level:  PERMANENT DATUM
 FLD .                     ACG:  FIELD NAME
 CTRY.              Azerbaijan:  COUNTRY NAME
 WELL.           J23 (Slot 07):  WELL NAME
 SRVC.          Turan Drilling:  CONTRACTOR
 COMP.     BP Exploration (Casoian Sea) Ltd:  COMPANY
 WTYP.                Deviated:  WELL TYPE
 MDS .        Operator Entered:  MAG DATA SOURCE
 UWI .                     N/A:  UNIQUE WELL IDENTIFIER
 API .                     N/A:  API NUMBER
 BASE.              Azerbaijan:  LOGGING EQUIPMENT BASE LOCATION
 REGN.                   EESSA:  REGION
 PROV.                    Baku:  PROVINCE
 STAT.                    Baku:  STATE NAME
 MWDS.                     N/A:  MWD SHOP
 JOBN.        AZ-XX-0906252240:  JOB TICKET NUMB
 DOE .                     N/A:  DOE NUMBER
 DCON.         Sperry Drilling:  DIRECTNL CONTR
 UNIT.                     N/A:  LOGGING EQUIPMENT ID
 CNTY.                        :  COUNTY
 LOC .                        :  LOCATION
 LMF .             Drill Floor:  LOG MEASURED FROM
 TVDS.m                  43.00:  TVDSS CORRECTN
 LATI.deg                40.13:  LATITUDE
 LONG.deg                51.22:  LONGITUDE
 WHNS.m                   9.43:  WELL HEAD N/S
 WHEW.m                  -8.91:  WELL HEAD E/W
 UTMX.m              519005.06:  UTM X
 UTMY.m             4443793.85:  UTM Y
 DFWL.m                   0.00:  DISTANCE FWL
 DFSL.m                   0.00:  DISTANCE FSL
 SDEP.m                   0.00:  START DEPTH
 TDD .m                   0.00:  TOTAL DEPTH (DRILLER)
 VSDR.deg               179.88:  VERT SEC DIRECT
 GVFD.g                   1.00:  GRAVITY FIELD
 MFLD.nT              50281.00:  MAGNETIC FIELD
 MDIP.deg                59.58:  MAGNETIC DIP
 MDEC.deg                 6.48:  MAGNETIC DECL
 GRDC.deg                 0.14:  GRID CORRECTION
 AZTC.deg                 6.34:  AZM TOTAL CORR
 EPD .m                   0.00:  ELEVATION
 EGL .m                   0.00:  GROUND ELEVATION
 WDMS.m                 169.80:  WD ELEV
 APD .m                  43.00:  DEPTH ABOVE PD
 DEP .m                 354.17:  DEPTH
 AGAP.m                  43.00:  AIR GAP
 VSEW.m                  -8.91:  VERT SEC E/W
 VSNS.m                   9.43:  VERT SEC N/S
 EKB .m                   0.00:  KB ELEVATION
 EDF .m                  43.00:  DF ELEVATION
 TDL .m                1326.00:  TOTAL DEPTH (LOGGER)
 VSC .                       0:  VS TO CLOSURE
 MAGU.                 1850704:  MAGUTM CHECKSUM
~Parameter Information Block
#MNEM.UNIT       Value        Description
#---------     -----------    ---------------------------
 AV  .mps                 1.17:  Ann Velocity 
 AZIF.deg               184.04:  Azm, Final 
 BHAT.        Rotary Steerable:  BHA Type 
 BREV.rev            620000.00:  Rev Bit Total 
 BROT.°/30m               0.20:  Build Rotating 
 BS  .in                 14.75:  Bit Size 
 BSZ .in                 14.75:  Bit Size 
 BTPL.psig              618.00:  Bit Press Loss 
 CABU.                      No:  Customer Abuse 
 COMM.                     ¬)g:  Run Comments 1 
 TCS .hr                 87.68:  Time Ciculation Ended 
 CV  .mps                 3.10:  Crit Velocity 
 DD1 .          Rashad Habibov:  Direct Drillr 1 
 DD2 .         Rasim Ibrahimov:  Direct Drillr 2 
 DDSV.               Geo-Pilot:  DD Service 
 DEFF.%                  98.00:  % Det Eff 
 DLRX.°/30m               1.48:  Dogleg Rot Max 
 DLSO.°/30m               0.50:  Dogleg Oriented 
 DLSX.°/30m               1.48:  Dogleg Str Max 
 DRET.      06.18.56 19-Apr-20:  Drill End Time 
 DRST.      15.00.56 15-Apr-20:  Drill Start Tim 
 DTIM.hr                 51.73:  Time Drilling 
 EDEP.m                3410.01:  End Depth 
 ENG1.        Marcelo Sandoval:  Engineer 1 
 ENG2.        Davud Huseynzade:  Engineer 2 
 ENG3.          Ruslan Safarov:  Engineer 3 
 ETIM.      04.00.56 20-Apr-20:  End Time 
 FLOI.gpm              1000.00:  Flow In 
 FLON.gpm               600.00:  Flow In Min 
 FLOS.cptm                0.00:  Fluid Loss 
 FLOX.gpm              1200.00:  Flow In Max 
 HFLO.                      No:  High Flow 
 HPRE.                     Yes:  High Pressure 
 HTEM.                      No:  High Temp 
 HYDO.m                   1.80:  Hydro Offset 
 IFIN.deg                70.04:  Inc, Final 
 IMAX.deg                70.56:  Inc Max 
 IMIN.deg                69.85:  Inc Min 
 IMND.m                3103.24:  Inc Min Depth 
 IMXD.m                2876.63:  Inc Max Depth 
 JARR.                      No:  Jarring 
 LETM.      06.18.56 19-Apr-20:  Log End Time 
 LOST.hr                     0:  Lost Rig Time 
 LSTM.      15.00.56 15-Apr-20:  Log Start Time 
 MDCL.ppm             42000.00:  Mud Chlorides 
 MDES.     Inversion Oil/Synthetic:  Mud Desc 
 DFD .sg                  1.58:  Mud Density 
 MDMN.sg                  1.58:  Dens Mud Min 
 MDMX.sg                  1.58:  Dens Mud Max 
 MOIL.                      71:  Run Mud Oil % 
 MOWR.                   71:29:  Run Mud OWR 
 MSND.                       0:  Run Mud Sand % 
 MSOL.                    23.3:  Run Mud Solids% 
 DFV .spqt               84.00:  Mud Viscosity 
 MWOD.in                  9.50:  MWD Tool OD 
 MWSI.                      No:  Serv Intrp, MWD 
 OTIM.hr                139.62:  Time Operating 
 PMAX.psia             5364.69:  Press Op, Max 
 PV  .cP                 80.00:  Mud PV 
 RUN .                     700:  Run Number 
 ROPA.m/hr               25.00:  ROP Avg 
 ROPN.m/hr               11.00:  ROP Min 
 ROPX.m/hr               36.00:  ROP Max 
 RPMA.rpm               130.00:  RPM Surface Avg 
 RPMN.rpm               120.00:  RPM Surface Min 
 RPMX.rpm               140.00:  RPM Surface Max 
 RRUN.                    0700:  Rig Run Number 
 SAZI.deg               183.25:  Azm, Start 
 SDEP.m                2084.00:  Start Depth 
 SIDD.                      No:  Serv Intrp, DD 
 SINC.deg                70.38:  Inc, Start 
 SPPA.psig             4800.00:  SPP Avg 
 SPPN.psig             4400.00:  SPP Min 
 SPPX.psig             5350.00:  SPP Max 
 STIM.      16.30.56 14-Apr-20:  Start Time 
 SVCS.                 DD, MWD:  Services 
 SVER.                    9.20:  Sperry Version 
 TDAT.m                1326.00:  Tot Depth Attmp 
 TDDF.                      No:  Trip for DD 
 TDLG.m                1326.00:  Tot Depth Loggd 
 TFF .                      No:  Trip for Fail 
 TQAA.f-kp               19.00:  Torque Abs Avg 
 TQAN.f-kp                8.00:  Torque Abs Min 
 TQAX.f-kp               27.00:  Torque Abs Max 
 TRRT.°/30m               0.50:  Turn Rotating 
 MRT .                    HCIM:  Maximum Recorded Temperature 
 TTMX.degC               82.35:  Max Tool Temp 
 VS01.       905245875X1Z1W1C8:  Virtual Str1 SN 
 VS02.       90608022F11V7D1A9:  Virtual Str2 SN 
 VS03.            90605473R5C9:  Virtual Str3 SN 
 WBMN.klb                11.00:  WOB Min 
 WOBA.klb                21.00:  WOB Avg 
 WOBX.klb                30.00:  WOB Max 
 YP  .lhf2               45.00:  Yield Point 
~Curve Information Block
#MNEM.UNIT                 API CODE     Curve Description
#---------               -----------    ---------------------------
 TIME.HHMMSS            00 000 000 000:  GT Time & Date
 GTDEPTH.m              00 000 000 000:  GT Depth
 GTPQH.psia             00 000 000 000:  GT HR Quartz Pressure
 GTTQ.degC              00 000 000 000:  GT Quartz Temperature
 GTTN.NONE              00 000 000 000:  GT Test Number
 GTET.sec               00 000 000 000:  GT Elapsed Test Time
 GTTVD.m                00 000 000 000:  GT True Vertical Depth
#Other Information
#
#WARRANTY: Halliburton will use its best efforts to furnish customers with 
#accurate information and interpretations that are part of, and incident to, the services 
#provided.  However, Halliburton cannot and does not warrant the accuracy 
#or correctness of such information and interpretations.  Under no circumstances should any 
#such information or interpretation be relied upon as the sole basis for any drilling, 
#completion, production, or financial decision or any procedure involving any risk to the 
#safety of any drilling venture, drilling rig or its crew or any other third party.  The 
#Customer has full responsibility for all drilling, completion and production operation.  
#Halliburton makes no representations or warranties, either expressed or 
#implied, including, but not limited to, the implied warranties of merchantability or fitness 
#for a particular purpose, with respect to the services rendered.  In no event will 
#Halliburton be liable for failure to obtain any particular results or for 
#any damages, including, but not limited to, indirect, special or consequential damages, 
#resulting from the use of any information or interpretation provided by Halliburton.
#
~A           TIME           GTDEPTH  GTPQH  GTTQ  GTTN  GTET   GTTVD  
# ...
   16:01:11.178.18-Apr-2020 3140.11 3320.28 67.50 7.00 229.97 1986.54
   16:01:11.378.18-Apr-2020 3140.11 3320.28 67.50 7.00 230.17 1986.54
   16:01:11.578.18-Apr-2020 3140.11 3320.28 67.50 7.00 230.37 1986.54
   16:01:11.778.18-Apr-2020 3140.11 3320.28 67.50 7.00 230.57 1986.54
   16:01:11.978.18-Apr-2020 3140.11 3320.27 67.50 7.00 230.77 1986.54
   16:01:12.178.18-Apr-2020 3140.11 3320.28 67.50 7.00 230.97 1986.54
   16:01:12.378.18-Apr-2020 3140.11 3320.29 67.50 7.00 231.17 1986.54
   16:01:12.578.18-Apr-2020 3140.11 3320.29 67.50 7.00 231.37 1986.54
   16:01:12.778.18-Apr-2020 3140.11 3320.28 67.50 7.00 231.57 1986.54
   16:01:12.978.18-Apr-2020 3140.11 3320.29 67.50 7.00 231.77 1986.54
   16:01:13.178.18-Apr-2020 3140.11 3320.28 67.50 7.00 231.97 1986.54
   16:01:13.378.18-Apr-2020 3140.11 3320.28 67.50 7.00 232.17 1986.54
   16:01:13.578.18-Apr-2020 3140.11 3320.28 67.50 7.00 232.37 1986.54
   16:01:13.778.18-Apr-2020 3140.11 3320.28 67.50 7.00 232.57 1986.54
   16:01:13.978.18-Apr-2020 3140.11 3320.28 67.50 7.00 232.77 1986.54
   16:01:14.178.18-Apr-2020 3140.11 3320.28 67.50 7.00 232.97 1986.54
   16:01:14.378.18-Apr-2020 3140.11 3320.28 67.50 7.00 233.17 1986.54
   16:01:14.578.18-Apr-2020 3140.11 3320.28 67.50 7.00 233.37 1986.54
   16:01:14.778.18-Apr-2020 3140.11 3320.27 67.50 7.00 233.57 1986.54
   16:01:14.978.18-Apr-2020 3140.11 3320.29 67.50 7.00 233.77 1986.54
   16:01:15.178.18-Apr-2020 3140.11 3320.27 67.50 7.00 233.97 1986.54
   16:01:15.378.18-Apr-2020 3140.11 3320.27 67.50 7.00 234.17 1986.54
   16:01:15.578.18-Apr-2020 3140.11 3320.28 67.50 7.00 234.37 1986.54
   16:01:15.778.18-Apr-2020 3140.11 3320.28 67.50 7.00 234.57 1986.54
   16:01:15.978.18-Apr-2020 3140.11 3320.27 67.50 7.00 234.77 1986.54
   16:01:16.178.18-Apr-2020 3140.11 3320.29 67.50 7.00 234.97 1986.54
   16:01:16.378.18-Apr-2020 3140.11 3320.27 67.50 7.00 235.17 1986.54
   16:01:16.578.18-Apr-2020 3140.11 3320.27 67.50 7.00 235.37 1986.54
   16:01:16.778.18-Apr-2020 3140.11 3320.28 67.50 7.00 235.57 1986.54
   16:01:16.978.18-Apr-2020 3140.11 3320.27 67.50 7.00 235.77 1986.54
   16:01:17.178.18-Apr-2020 3140.11 3320.28 67.50 7.00 235.97 1986.54
   16:01:17.378.18-Apr-2020 3140.11 3320.28 67.50 7.00 236.17 1986.54
   16:01:17.578.18-Apr-2020 3140.11 3320.25 67.50 7.00 236.37 1986.54
   16:01:17.778.18-Apr-2020 3140.11 3320.30 67.50 7.00 236.57 1986.54
   16:01:17.978.18-Apr-2020 3140.11 3320.28 67.50 7.00 236.77 1986.54
   16:01:18.178.18-Apr-2020 3140.11 3320.28 67.50 7.00 236.97 1986.54
   16:01:18.378.18-Apr-2020 3140.11 3320.28 67.50 7.00 237.17 1986.54
   16:01:18.578.18-Apr-2020 3140.11 3320.27 67.50 7.00 237.37 1986.54
   16:01:18.777.18-Apr-2020 3140.11 3320.28 67.50 7.00 237.57 1986.54
   16:01:18.977.18-Apr-2020 3140.11 3320.29 67.50 7.00 237.77 1986.54
   16:01:19.177.18-Apr-2020 3140.11 3320.28 67.50 7.00 237.97 1986.54
   16:01:19.377.18-Apr-2020 3140.11 3320.28 67.50 7.00 238.17 1986.54
   16:01:19.577.18-Apr-2020 3140.11 3320.29 67.50 7.00 238.37 1986.54
   16:01:19.777.18-Apr-2020 3140.11 3320.28 67.50 7.00 238.57 1986.54
   16:01:19.977.18-Apr-2020 3140.11 3320.28 67.50 7.00 238.77 1986.54
   16:01:20.177.18-Apr-2020 3140.11 3320.27 67.50 7.00 238.97 1986.54
   16:01:20.377.18-Apr-2020 3140.11 3320.28 67.50 7.00 239.17 1986.54
   16:01:20.577.18-Apr-2020 3140.11 3320.28 67.50 7.00 239.37 1986.54
   16:01:20.777.18-Apr-2020 3140.11 3320.28 67.50 7.00 239.57 1986.54
   16:01:20.977.18-Apr-2020 3140.11 3320.28 67.50 7.00 239.77 1986.54
   16:01:21.177.18-Apr-2020 3140.11 3320.29 67.50 7.00 239.97 1986.54
   16:01:21.377.18-Apr-2020 3140.11 3320.29 67.50 7.00 240.17 1986.54
   16:01:21.577.18-Apr-2020 3140.11 3320.27 67.50 7.00 240.37 1986.54
   16:01:21.777.18-Apr-2020 3140.11 3320.28 67.50 7.00 240.57 1986.54
   16:01:21.977.18-Apr-2020 3140.11 3320.29 67.50 7.00 240.77 1986.54
   16:01:22.177.18-Apr-2020 3140.11 3320.29 67.50 7.00 240.97 1986.54
   16:01:22.377.18-Apr-2020 3140.11 3320.29 67.50 7.00 241.17 1986.54
   16:01:22.577.18-Apr-2020 3140.11 3320.28 67.50 7.00 241.37 1986.54
   16:01:22.777.18-Apr-2020 3140.11 3320.29 67.50 7.00 241.57 1986.54
   16:01:22.977.18-Apr-2020 3140.11 3320.28 67.50 7.00 241.77 1986.54
   16:01:23.177.18-Apr-2020 3140.11 3320.28 67.50 7.00 241.97 1986.54
   16:01:23.377.18-Apr-2020 3140.11 3320.28 67.50 7.00 242.17 1986.54
   16:01:23.577.18-Apr-2020 3140.11 3320.27 67.49 7.00 242.37 1986.54
   16:01:23.777.18-Apr-2020 3140.11 3320.29 67.49 7.00 242.57 1986.54
   16:01:23.977.18-Apr-2020 3140.11 3320.29 67.49 7.00 242.77 1986.54
   16:01:24.177.18-Apr-2020 3140.11 3320.28 67.49 7.00 242.97 1986.54
   16:01:24.377.18-Apr-2020 3140.11 3320.28 67.49 7.00 243.17 1986.54
   16:01:24.577.18-Apr-2020 3140.11 3320.27 67.49 7.00 243.37 1986.54
   16:01:24.777.18-Apr-2020 3140.11 3320.29 67.49 7.00 243.57 1986.54
   16:01:24.977.18-Apr-2020 3140.11 3320.27 67.49 7.00 243.77 1986.54
   16:01:25.177.18-Apr-2020 3140.11 3320.28 67.49 7.00 243.97 1986.54
   16:01:25.377.18-Apr-2020 3140.11 3320.28 67.49 7.00 244.17 1986.54
   16:01:25.577.18-Apr-2020 3140.11 3320.29 67.49 7.00 244.37 1986.54
   16:01:25.777.18-Apr-2020 3140.11 3320.28 67.49 7.00 244.57 1986.54
   16:01:25.977.18-Apr-2020 3140.11 3320.28 67.49 7.00 244.77 1986.54
   16:01:26.177.18-Apr-2020 3140.11 3320.28 67.49 7.00 244.97 1986.54
   16:01:26.377.18-Apr-2020 3140.11 3320.28 67.49 7.00 245.17 1986.54
   16:01:26.577.18-Apr-2020 3140.11 3320.29 67.49 7.00 245.37 1986.54
   16:01:26.777.18-Apr-2020 3140.11 3320.28 67.49 7.00 245.57 1986.54
   16:01:26.977.18-Apr-2020 3140.11 3320.27 67.49 7.00 245.77 1986.54
   16:01:27.177.18-Apr-2020 3140.11 3320.27 67.49 7.00 245.97 1986.54
   16:01:27.376.18-Apr-2020 3140.11 3320.27 67.49 7.00 246.17 1986.54
   16:01:27.576.18-Apr-2020 3140.11 3320.28 67.49 7.00 246.37 1986.54
   16:01:27.776.18-Apr-2020 3140.11 3320.27 67.49 7.00 246.57 1986.54
   16:01:27.976.18-Apr-2020 3140.11 3320.29 67.49 7.00 246.77 1986.54
   16:01:28.176.18-Apr-2020 3140.11 3320.28 67.49 7.00 246.97 1986.54
   16:01:28.376.18-Apr-2020 3140.11 3320.28 67.49 7.00 247.17 1986.54
   16:01:28.576.18-Apr-2020 3140.11 3320.28 67.49 7.00 247.37 1986.54
   16:01:28.776.18-Apr-2020 3140.11 3320.28 67.49 7.00 247.57 1986.54
   16:01:28.976.18-Apr-2020 3140.11 3320.29 67.49 7.00 247.77 1986.54
   16:01:29.176.18-Apr-2020 3140.11 3320.29 67.49 7.00 247.97 1986.54
   16:01:29.376.18-Apr-2020 3140.11 3320.29 67.49 7.00 248.17 1986.54
   16:01:29.576.18-Apr-2020 3140.11 3320.29 67.49 7.00 248.37 1986.54
   16:01:29.776.18-Apr-2020 3140.11 3320.28 67.49 7.00 248.57 1986.54
   16:01:29.976.18-Apr-2020 3140.11 3320.28 67.49 7.00 248.77 1986.54
   16:01:30.176.18-Apr-2020 3140.11 3320.28 67.49 7.00 248.97 1986.54
   16:01:30.376.18-Apr-2020 3140.11 3320.28 67.49 7.00 249.17 1986.54
   16:01:30.576.18-Apr-2020 3140.11 3320.28 67.49 7.00 249.37 1986.54
   16:01:30.776.18-Apr-2020 3140.11 3320.29 67.49 7.00 249.57 1986.54
   16:01:30.976.18-Apr-2020 3140.11 3320.28 67.49 7.00 249.77 1986.54
   16:01:31.176.18-Apr-2020 3140.11 3320.26 67.49 7.00 249.97 1986.54
   16:01:31.376.18-Apr-2020 3140.11 3320.26 67.49 7.00 250.17 1986.54
   16:01:31.576.18-Apr-2020 3140.11 3320.30 67.49 7.00 250.37 1986.54
   16:01:31.776.18-Apr-2020 3140.11 3320.29 67.49 7.00 250.57 1986.54
   16:01:31.976.18-Apr-2020 3140.11 3320.29 67.49 7.00 250.77 1986.54
   16:01:32.176.18-Apr-2020 3140.11 3320.28 67.49 7.00 250.97 1986.54
   16:01:32.376.18-Apr-2020 3140.11 3320.28 67.49 7.00 251.17 1986.54
   16:01:32.576.18-Apr-2020 3140.11 3320.28 67.49 7.00 251.37 1986.54
   16:01:32.776.18-Apr-2020 3140.11 3320.28 67.49 7.00 251.57 1986.54
   16:01:32.976.18-Apr-2020 3140.11 3320.28 67.49 7.00 251.77 1986.54
   16:01:33.176.18-Apr-2020 3140.11 3320.28 67.49 7.00 251.97 1986.54
   16:01:33.376.18-Apr-2020 3140.11 3320.28 67.49 7.00 252.17 1986.54
   16:01:33.576.18-Apr-2020 3140.11 3320.29 67.49 7.00 252.37 1986.54
   16:01:33.776.18-Apr-2020 3140.11 3320.26 67.49 7.00 252.57 1986.54
   16:01:33.976.18-Apr-2020 3140.11 3320.28 67.49 7.00 252.77 1986.54
