~Version Information
 VERS.                  2.0:   CWLS log ASCII Standard -VERSION 2.0
 WRAP.                   NO:   One line per depth step
~Well Information Block
#MNEM.UNIT     VALUE/NAME     DESCRIPTION
#---------     -----------    ---------------------------
 STRT.S             15:57:21 18-Apr-20: START TIME 15:57:21 18-Apr-20
 STOP.S             16:04:15 18-Apr-20: STOP TIME  16:04:15 18-Apr-20
 STEP.S                   0.00: STEP TIME
 NULL.                 -999.25: NULL VALUE
 DFWT.                        :  DIST FWL TEXT
 DFST.                        :  DIST FSL TEXT
 DMF .                        :  DRILL MEAS FROM
 STIM.      16.29.52 23-Mar-20:  START TIME
 DATE.      16.29.52 23-Mar-20:  END TIME
 SPUD.               23-Mar-20:  SPUD DATE
 NREF.                    Grid:  NORTH REFERENCE
 HPTY.       Minimum Curvature:  HOLE POS TYPE
 DMOD.             Drill Model:  DRILL MOD DESC
 SVYD.                  Survey:  SURVEY DESC
 ILTD.               Lithology:  INTERP LTH DESC
 FTOP.          Formation Tops:  FORM TOPS DESC
 SON .        AZ-XX-0906252240:  JOB NUMBER
 RIG .             West Chirag:  RIG NAME
 PDAT.          Mean Sea Level:  PERMANENT DATUM
 FLD .                     ACG:  FIELD NAME
 CTRY.              Azerbaijan:  COUNTRY NAME
 WELL.           J23 (Slot 07):  WELL NAME
 SRVC.          Turan Drilling:  CONTRACTOR
 COMP.     BP Exploration (Casoian Sea) Ltd:  COMPANY
 WTYP.                Deviated:  WELL TYPE
 MDS .        Operator Entered:  MAG DATA SOURCE
 UWI .                     N/A:  UNIQUE WELL IDENTIFIER
 API .                     N/A:  API NUMBER
 BASE.              Azerbaijan:  LOGGING EQUIPMENT BASE LOCATION
 REGN.                   EESSA:  REGION
 PROV.                    Baku:  PROVINCE
 STAT.                    Baku:  STATE NAME
 MWDS.                     N/A:  MWD SHOP
 JOBN.        AZ-XX-0906252240:  JOB TICKET NUMB
 DOE .                     N/A:  DOE NUMBER
 DCON.         Sperry Drilling:  DIRECTNL CONTR
 UNIT.                     N/A:  LOGGING EQUIPMENT ID
 CNTY.                        :  COUNTY
 LOC .                        :  LOCATION
 LMF .             Drill Floor:  LOG MEASURED FROM
 TVDS.m                  43.00:  TVDSS CORRECTN
 LATI.deg                40.13:  LATITUDE
 LONG.deg                51.22:  LONGITUDE
 WHNS.m                   9.43:  WELL HEAD N/S
 WHEW.m                  -8.91:  WELL HEAD E/W
 UTMX.m              519005.06:  UTM X
 UTMY.m             4443793.85:  UTM Y
 DFWL.m                   0.00:  DISTANCE FWL
 DFSL.m                   0.00:  DISTANCE FSL
 SDEP.m                   0.00:  START DEPTH
 TDD .m                   0.00:  TOTAL DEPTH (DRILLER)
 VSDR.deg               179.88:  VERT SEC DIRECT
 GVFD.g                   1.00:  GRAVITY FIELD
 MFLD.nT              50281.00:  MAGNETIC FIELD
 MDIP.deg                59.58:  MAGNETIC DIP
 MDEC.deg                 6.48:  MAGNETIC DECL
 GRDC.deg                 0.14:  GRID CORRECTION
 AZTC.deg                 6.34:  AZM TOTAL CORR
 EPD .m                   0.00:  ELEVATION
 EGL .m                   0.00:  GROUND ELEVATION
 WDMS.m                 169.80:  WD ELEV
 APD .m                  43.00:  DEPTH ABOVE PD
 DEP .m                 354.17:  DEPTH
 AGAP.m                  43.00:  AIR GAP
 VSEW.m                  -8.91:  VERT SEC E/W
 VSNS.m                   9.43:  VERT SEC N/S
 EKB .m                   0.00:  KB ELEVATION
 EDF .m                  43.00:  DF ELEVATION
 TDL .m                1326.00:  TOTAL DEPTH (LOGGER)
 VSC .                       0:  VS TO CLOSURE
 MAGU.                 1850704:  MAGUTM CHECKSUM
~Parameter Information Block
#MNEM.UNIT       Value        Description
#---------     -----------    ---------------------------
 AV  .mps                 1.17:  Ann Velocity 
 AZIF.deg               184.04:  Azm, Final 
 BHAT.        Rotary Steerable:  BHA Type 
 BREV.rev            620000.00:  Rev Bit Total 
 BROT.°/30m               0.20:  Build Rotating 
 BS  .in                 14.75:  Bit Size 
 BSZ .in                 14.75:  Bit Size 
 BTPL.psig              618.00:  Bit Press Loss 
 CABU.                      No:  Customer Abuse 
 COMM.                     ¬)g:  Run Comments 1 
 TCS .hr                 87.68:  Time Ciculation Ended 
 CV  .mps                 3.10:  Crit Velocity 
 DD1 .          Rashad Habibov:  Direct Drillr 1 
 DD2 .         Rasim Ibrahimov:  Direct Drillr 2 
 DDSV.               Geo-Pilot:  DD Service 
 DEFF.%                  98.00:  % Det Eff 
 DLRX.°/30m               1.48:  Dogleg Rot Max 
 DLSO.°/30m               0.50:  Dogleg Oriented 
 DLSX.°/30m               1.48:  Dogleg Str Max 
 DRET.      06.18.56 19-Apr-20:  Drill End Time 
 DRST.      15.00.56 15-Apr-20:  Drill Start Tim 
 DTIM.hr                 51.73:  Time Drilling 
 EDEP.m                3410.01:  End Depth 
 ENG1.        Marcelo Sandoval:  Engineer 1 
 ENG2.        Davud Huseynzade:  Engineer 2 
 ENG3.          Ruslan Safarov:  Engineer 3 
 ETIM.      04.00.56 20-Apr-20:  End Time 
 FLOI.gpm              1000.00:  Flow In 
 FLON.gpm               600.00:  Flow In Min 
 FLOS.cptm                0.00:  Fluid Loss 
 FLOX.gpm              1200.00:  Flow In Max 
 HFLO.                      No:  High Flow 
 HPRE.                     Yes:  High Pressure 
 HTEM.                      No:  High Temp 
 HYDO.m                   1.80:  Hydro Offset 
 IFIN.deg                70.04:  Inc, Final 
 IMAX.deg                70.56:  Inc Max 
 IMIN.deg                69.85:  Inc Min 
 IMND.m                3103.24:  Inc Min Depth 
 IMXD.m                2876.63:  Inc Max Depth 
 JARR.                      No:  Jarring 
 LETM.      06.18.56 19-Apr-20:  Log End Time 
 LOST.hr                     0:  Lost Rig Time 
 LSTM.      15.00.56 15-Apr-20:  Log Start Time 
 MDCL.ppm             42000.00:  Mud Chlorides 
 MDES.     Inversion Oil/Synthetic:  Mud Desc 
 DFD .sg                  1.58:  Mud Density 
 MDMN.sg                  1.58:  Dens Mud Min 
 MDMX.sg                  1.58:  Dens Mud Max 
 MOIL.                      71:  Run Mud Oil % 
 MOWR.                   71:29:  Run Mud OWR 
 MSND.                       0:  Run Mud Sand % 
 MSOL.                    23.3:  Run Mud Solids% 
 DFV .spqt               84.00:  Mud Viscosity 
 MWOD.in                  9.50:  MWD Tool OD 
 MWSI.                      No:  Serv Intrp, MWD 
 OTIM.hr                139.62:  Time Operating 
 PMAX.psia             5364.69:  Press Op, Max 
 PV  .cP                 80.00:  Mud PV 
 RUN .                     700:  Run Number 
 ROPA.m/hr               25.00:  ROP Avg 
 ROPN.m/hr               11.00:  ROP Min 
 ROPX.m/hr               36.00:  ROP Max 
 RPMA.rpm               130.00:  RPM Surface Avg 
 RPMN.rpm               120.00:  RPM Surface Min 
 RPMX.rpm               140.00:  RPM Surface Max 
 RRUN.                    0700:  Rig Run Number 
 SAZI.deg               183.25:  Azm, Start 
 SDEP.m                2084.00:  Start Depth 
 SIDD.                      No:  Serv Intrp, DD 
 SINC.deg                70.38:  Inc, Start 
 SPPA.psig             4800.00:  SPP Avg 
 SPPN.psig             4400.00:  SPP Min 
 SPPX.psig             5350.00:  SPP Max 
 STIM.      16.30.56 14-Apr-20:  Start Time 
 SVCS.                 DD, MWD:  Services 
 SVER.                    9.20:  Sperry Version 
 TDAT.m                1326.00:  Tot Depth Attmp 
 TDDF.                      No:  Trip for DD 
 TDLG.m                1326.00:  Tot Depth Loggd 
 TFF .                      No:  Trip for Fail 
 TQAA.f-kp               19.00:  Torque Abs Avg 
 TQAN.f-kp                8.00:  Torque Abs Min 
 TQAX.f-kp               27.00:  Torque Abs Max 
 TRRT.°/30m               0.50:  Turn Rotating 
 MRT .                    HCIM:  Maximum Recorded Temperature 
 TTMX.degC               82.35:  Max Tool Temp 
 VS01.       905245875X1Z1W1C8:  Virtual Str1 SN 
 VS02.       90608022F11V7D1A9:  Virtual Str2 SN 
 VS03.            90605473R5C9:  Virtual Str3 SN 
 WBMN.klb                11.00:  WOB Min 
 WOBA.klb                21.00:  WOB Avg 
 WOBX.klb                30.00:  WOB Max 
 YP  .lhf2               45.00:  Yield Point 
~Curve Information Block
#MNEM.UNIT                 API CODE     Curve Description
#---------               -----------    ---------------------------
 TIME.HHMMSS            00 000 000 000:  GT Time & Date
 GTDEPTH.m              00 000 000 000:  GT Depth
 GTPQH.psia             00 000 000 000:  GT HR Quartz Pressure
 GTTQ.degC              00 000 000 000:  GT Quartz Temperature
 GTTN.NONE              00 000 000 000:  GT Test Number
 GTET.sec               00 000 000 000:  GT Elapsed Test Time
 GTTVD.m                00 000 000 000:  GT True Vertical Depth
#Other Information
#
#WARRANTY: Halliburton will use its best efforts to furnish customers with 
#accurate information and interpretations that are part of, and incident to, the services 
#provided.  However, Halliburton cannot and does not warrant the accuracy 
#or correctness of such information and interpretations.  Under no circumstances should any 
#such information or interpretation be relied upon as the sole basis for any drilling, 
#completion, production, or financial decision or any procedure involving any risk to the 
#safety of any drilling venture, drilling rig or its crew or any other third party.  The 
#Customer has full responsibility for all drilling, completion and production operation.  
#Halliburton makes no representations or warranties, either expressed or 
#implied, including, but not limited to, the implied warranties of merchantability or fitness 
#for a particular purpose, with respect to the services rendered.  In no event will 
#Halliburton be liable for failure to obtain any particular results or for 
#any damages, including, but not limited to, indirect, special or consequential damages, 
#resulting from the use of any information or interpretation provided by Halliburton.
#
~A           TIME           GTDEPTH  GTPQH  GTTQ  GTTN  GTET   GTTVD  
# ...
   15:59:16.192.18-Apr-2020 3140.11 3320.38 67.60 7.00 114.99 1986.54
   15:59:16.392.18-Apr-2020 3140.11 3320.38 67.60 7.00 115.19 1986.54
   15:59:16.592.18-Apr-2020 3140.11 3320.39 67.60 7.00 115.39 1986.54
   15:59:16.792.18-Apr-2020 3140.11 3320.38 67.60 7.00 115.59 1986.54
   15:59:16.992.18-Apr-2020 3140.11 3320.38 67.60 7.00 115.79 1986.54
   15:59:17.192.18-Apr-2020 3140.11 3320.38 67.60 7.00 115.99 1986.54
   15:59:17.392.18-Apr-2020 3140.11 3320.38 67.60 7.00 116.19 1986.54
   15:59:17.592.18-Apr-2020 3140.11 3320.39 67.60 7.00 116.39 1986.54
   15:59:17.792.18-Apr-2020 3140.11 3320.39 67.60 7.00 116.59 1986.54
   15:59:17.991.18-Apr-2020 3140.11 3320.39 67.60 7.00 116.79 1986.54
   15:59:18.191.18-Apr-2020 3140.11 3320.39 67.60 7.00 116.99 1986.54
   15:59:18.391.18-Apr-2020 3140.11 3320.39 67.60 7.00 117.19 1986.54
   15:59:18.591.18-Apr-2020 3140.11 3320.35 67.60 7.00 117.39 1986.54
   15:59:18.791.18-Apr-2020 3140.11 3320.42 67.60 7.00 117.59 1986.54
   15:59:18.991.18-Apr-2020 3140.11 3320.39 67.60 7.00 117.79 1986.54
   15:59:19.191.18-Apr-2020 3140.11 3320.38 67.60 7.00 117.99 1986.54
   15:59:19.391.18-Apr-2020 3140.11 3320.38 67.60 7.00 118.19 1986.54
   15:59:19.591.18-Apr-2020 3140.11 3320.39 67.60 7.00 118.39 1986.54
   15:59:19.791.18-Apr-2020 3140.11 3320.38 67.60 7.00 118.59 1986.54
   15:59:19.991.18-Apr-2020 3140.11 3320.37 67.60 7.00 118.79 1986.54
   15:59:20.191.18-Apr-2020 3140.11 3320.38 67.60 7.00 118.99 1986.54
   15:59:20.391.18-Apr-2020 3140.11 3320.38 67.60 7.00 119.19 1986.54
   15:59:20.591.18-Apr-2020 3140.11 3320.39 67.60 7.00 119.39 1986.54
   15:59:20.791.18-Apr-2020 3140.11 3320.39 67.60 7.00 119.59 1986.54
   15:59:20.991.18-Apr-2020 3140.11 3320.38 67.60 7.00 119.79 1986.54
   15:59:21.191.18-Apr-2020 3140.11 3320.35 67.60 7.00 119.99 1986.54
   15:59:21.391.18-Apr-2020 3140.11 3320.35 67.60 7.00 120.19 1986.54
   15:59:21.591.18-Apr-2020 3140.11 3320.41 67.60 7.00 120.39 1986.54
   15:59:21.791.18-Apr-2020 3140.11 3320.37 67.60 7.00 120.59 1986.54
   15:59:21.991.18-Apr-2020 3140.11 3320.39 67.60 7.00 120.79 1986.54
   15:59:22.191.18-Apr-2020 3140.11 3320.40 67.60 7.00 120.99 1986.54
   15:59:22.391.18-Apr-2020 3140.11 3320.40 67.60 7.00 121.19 1986.54
   15:59:22.591.18-Apr-2020 3140.11 3320.39 67.60 7.00 121.39 1986.54
   15:59:22.791.18-Apr-2020 3140.11 3320.39 67.60 7.00 121.59 1986.54
   15:59:22.991.18-Apr-2020 3140.11 3320.37 67.60 7.00 121.79 1986.54
   15:59:23.191.18-Apr-2020 3140.11 3320.41 67.60 7.00 121.99 1986.54
   15:59:23.391.18-Apr-2020 3140.11 3320.41 67.60 7.00 122.19 1986.54
   15:59:23.591.18-Apr-2020 3140.11 3320.39 67.60 7.00 122.39 1986.54
   15:59:23.791.18-Apr-2020 3140.11 3320.40 67.60 7.00 122.59 1986.54
   15:59:23.991.18-Apr-2020 3140.11 3320.39 67.60 7.00 122.79 1986.54
   15:59:24.191.18-Apr-2020 3140.11 3320.40 67.60 7.00 122.99 1986.54
   15:59:24.391.18-Apr-2020 3140.11 3320.39 67.60 7.00 123.19 1986.54
   15:59:24.591.18-Apr-2020 3140.11 3320.39 67.60 7.00 123.39 1986.54
   15:59:24.791.18-Apr-2020 3140.11 3320.41 67.60 7.00 123.59 1986.54
   15:59:24.991.18-Apr-2020 3140.11 3320.40 67.60 7.00 123.79 1986.54
   15:59:25.191.18-Apr-2020 3140.11 3320.38 67.60 7.00 123.99 1986.54
   15:59:25.391.18-Apr-2020 3140.11 3320.38 67.60 7.00 124.19 1986.54
   15:59:25.591.18-Apr-2020 3140.11 3320.42 67.59 7.00 124.39 1986.54
   15:59:25.791.18-Apr-2020 3140.11 3320.40 67.59 7.00 124.59 1986.54
   15:59:25.991.18-Apr-2020 3140.11 3320.40 67.59 7.00 124.79 1986.54
   15:59:26.191.18-Apr-2020 3140.11 3320.40 67.59 7.00 124.99 1986.54
   15:59:26.391.18-Apr-2020 3140.11 3320.40 67.59 7.00 125.19 1986.54
   15:59:26.590.18-Apr-2020 3140.11 3320.38 67.59 7.00 125.39 1986.54
   15:59:26.790.18-Apr-2020 3140.11 3320.39 67.59 7.00 125.59 1986.54
   15:59:26.990.18-Apr-2020 3140.11 3320.40 67.59 7.00 125.79 1986.54
   15:59:27.190.18-Apr-2020 3140.11 3320.41 67.59 7.00 125.99 1986.54
   15:59:27.390.18-Apr-2020 3140.11 3320.41 67.59 7.00 126.19 1986.54
   15:59:27.590.18-Apr-2020 3140.11 3320.41 67.59 7.00 126.39 1986.54
   15:59:27.790.18-Apr-2020 3140.11 3320.42 67.59 7.00 126.59 1986.54
   15:59:27.990.18-Apr-2020 3140.11 3320.40 67.59 7.00 126.79 1986.54
   15:59:28.190.18-Apr-2020 3140.11 3320.39 67.59 7.00 126.99 1986.54
   15:59:28.390.18-Apr-2020 3140.11 3320.42 67.59 7.00 127.19 1986.54
   15:59:28.590.18-Apr-2020 3140.11 3320.40 67.59 7.00 127.39 1986.54
   15:59:28.790.18-Apr-2020 3140.11 3320.40 67.59 7.00 127.59 1986.54
   15:59:28.990.18-Apr-2020 3140.11 3320.42 67.59 7.00 127.79 1986.54
   15:59:29.190.18-Apr-2020 3140.11 3320.42 67.59 7.00 127.99 1986.54
   15:59:29.390.18-Apr-2020 3140.11 3320.42 67.59 7.00 128.19 1986.54
   15:59:29.590.18-Apr-2020 3140.11 3320.40 67.59 7.00 128.39 1986.54
   15:59:29.790.18-Apr-2020 3140.11 3320.40 67.59 7.00 128.59 1986.54
   15:59:29.990.18-Apr-2020 3140.11 3320.41 67.59 7.00 128.79 1986.54
   15:59:30.190.18-Apr-2020 3140.11 3320.40 67.59 7.00 128.99 1986.54
   15:59:30.390.18-Apr-2020 3140.11 3320.40 67.59 7.00 129.19 1986.54
   15:59:30.590.18-Apr-2020 3140.11 3320.41 67.59 7.00 129.39 1986.54
   15:59:30.790.18-Apr-2020 3140.11 3320.40 67.59 7.00 129.58 1986.54
   15:59:30.990.18-Apr-2020 3140.11 3320.42 67.59 7.00 129.78 1986.54
   15:59:31.190.18-Apr-2020 3140.11 3320.40 67.59 7.00 129.98 1986.54
   15:59:31.390.18-Apr-2020 3140.11 3320.40 67.59 7.00 130.18 1986.54
   15:59:31.590.18-Apr-2020 3140.11 3320.44 67.59 7.00 130.38 1986.54
   15:59:31.790.18-Apr-2020 3140.11 3320.41 67.59 7.00 130.58 1986.54
   15:59:31.990.18-Apr-2020 3140.11 3320.41 67.59 7.00 130.78 1986.54
   15:59:32.190.18-Apr-2020 3140.11 3320.41 67.59 7.00 130.98 1986.54
   15:59:32.390.18-Apr-2020 3140.11 3320.40 67.59 7.00 131.18 1986.54
   15:59:32.590.18-Apr-2020 3140.11 3320.42 67.59 7.00 131.38 1986.54
   15:59:32.790.18-Apr-2020 3140.11 3320.42 67.59 7.00 131.58 1986.54
   15:59:32.990.18-Apr-2020 3140.11 3320.40 67.59 7.00 131.78 1986.54
   15:59:33.190.18-Apr-2020 3140.11 3320.40 67.59 7.00 131.98 1986.54
   15:59:33.390.18-Apr-2020 3140.11 3320.40 67.59 7.00 132.18 1986.54
   15:59:33.590.18-Apr-2020 3140.11 3320.39 67.59 7.00 132.38 1986.54
   15:59:33.790.18-Apr-2020 3140.11 3320.41 67.59 7.00 132.58 1986.54
   15:59:33.990.18-Apr-2020 3140.11 3320.42 67.59 7.00 132.78 1986.54
   15:59:34.190.18-Apr-2020 3140.11 3320.42 67.59 7.00 132.98 1986.54
   15:59:34.390.18-Apr-2020 3140.11 3320.42 67.59 7.00 133.18 1986.54
   15:59:34.590.18-Apr-2020 3140.11 3320.42 67.59 7.00 133.38 1986.54
   15:59:34.790.18-Apr-2020 3140.11 3320.38 67.59 7.00 133.58 1986.54
   15:59:34.990.18-Apr-2020 3140.11 3320.44 67.59 7.00 133.78 1986.54
   15:59:35.189.18-Apr-2020 3140.11 3320.41 67.59 7.00 133.98 1986.54
   15:59:35.389.18-Apr-2020 3140.11 3320.41 67.59 7.00 134.18 1986.54
   15:59:35.589.18-Apr-2020 3140.11 3320.43 67.59 7.00 134.38 1986.54
   15:59:35.789.18-Apr-2020 3140.11 3320.42 67.59 7.00 134.58 1986.54
   15:59:35.989.18-Apr-2020 3140.11 3320.41 67.58 7.00 134.78 1986.54
   15:59:36.189.18-Apr-2020 3140.11 3320.41 67.58 7.00 134.98 1986.54
   15:59:36.389.18-Apr-2020 3140.11 3320.42 67.58 7.00 135.18 1986.54
   15:59:36.589.18-Apr-2020 3140.11 3320.43 67.58 7.00 135.38 1986.54
   15:59:36.789.18-Apr-2020 3140.11 3320.43 67.58 7.00 135.58 1986.54
   15:59:36.989.18-Apr-2020 3140.11 3320.42 67.58 7.00 135.78 1986.54
   15:59:37.189.18-Apr-2020 3140.11 3320.43 67.58 7.00 135.98 1986.54
   15:59:37.389.18-Apr-2020 3140.11 3320.43 67.58 7.00 136.18 1986.54
   15:59:37.589.18-Apr-2020 3140.11 3320.41 67.58 7.00 136.38 1986.54
   15:59:37.789.18-Apr-2020 3140.11 3320.42 67.58 7.00 136.58 1986.54
   15:59:37.989.18-Apr-2020 3140.11 3320.42 67.58 7.00 136.78 1986.54
   15:59:38.189.18-Apr-2020 3140.11 3320.41 67.58 7.00 136.98 1986.54
   15:59:38.389.18-Apr-2020 3140.11 3320.41 67.58 7.00 137.18 1986.54
   15:59:38.589.18-Apr-2020 3140.11 3320.44 67.58 7.00 137.38 1986.54
   15:59:38.789.18-Apr-2020 3140.11 3320.43 67.58 7.00 137.58 1986.54
   15:59:38.989.18-Apr-2020 3140.11 3320.42 67.58 7.00 137.78 1986.54
