~Version Information
 VERS.                  2.0:   CWLS log ASCII Standard -VERSION 2.0
 WRAP.                   NO:   One line per depth step
~Well Information Block
#MNEM.UNIT     VALUE/NAME     DESCRIPTION
#---------     -----------    ---------------------------
 STRT.S             00:39:23 18-Apr-20: START TIME 00:39:23 18-Apr-20
 STOP.S             00:46:19 18-Apr-20: STOP TIME  00:46:19 18-Apr-20
 STEP.S                   0.00: STEP TIME
 NULL.                 -999.25: NULL VALUE
 DFWT.                        :  DIST FWL TEXT
 DFST.                        :  DIST FSL TEXT
 DMF .                        :  DRILL MEAS FROM
 STIM.      16.29.52 23-Mar-20:  START TIME
 DATE.      16.29.52 23-Mar-20:  END TIME
 SPUD.               23-Mar-20:  SPUD DATE
 NREF.                    Grid:  NORTH REFERENCE
 HPTY.       Minimum Curvature:  HOLE POS TYPE
 DMOD.             Drill Model:  DRILL MOD DESC
 SVYD.                  Survey:  SURVEY DESC
 ILTD.               Lithology:  INTERP LTH DESC
 FTOP.          Formation Tops:  FORM TOPS DESC
 SON .        AZ-XX-0906252240:  JOB NUMBER
 RIG .             West Chirag:  RIG NAME
 PDAT.          Mean Sea Level:  PERMANENT DATUM
 FLD .                     ACG:  FIELD NAME
 CTRY.              Azerbaijan:  COUNTRY NAME
 WELL.           J23 (Slot 07):  WELL NAME
 SRVC.          Turan Drilling:  CONTRACTOR
 COMP.     BP Exploration (Casoian Sea) Ltd:  COMPANY
 WTYP.                Deviated:  WELL TYPE
 MDS .        Operator Entered:  MAG DATA SOURCE
 UWI .                     N/A:  UNIQUE WELL IDENTIFIER
 API .                     N/A:  API NUMBER
 BASE.              Azerbaijan:  LOGGING EQUIPMENT BASE LOCATION
 REGN.                   EESSA:  REGION
 PROV.                    Baku:  PROVINCE
 STAT.                    Baku:  STATE NAME
 MWDS.                     N/A:  MWD SHOP
 JOBN.        AZ-XX-0906252240:  JOB TICKET NUMB
 DOE .                     N/A:  DOE NUMBER
 DCON.         Sperry Drilling:  DIRECTNL CONTR
 UNIT.                     N/A:  LOGGING EQUIPMENT ID
 CNTY.                        :  COUNTY
 LOC .                        :  LOCATION
 LMF .             Drill Floor:  LOG MEASURED FROM
 TVDS.m                  43.00:  TVDSS CORRECTN
 LATI.deg                40.13:  LATITUDE
 LONG.deg                51.22:  LONGITUDE
 WHNS.m                   9.43:  WELL HEAD N/S
 WHEW.m                  -8.91:  WELL HEAD E/W
 UTMX.m              519005.06:  UTM X
 UTMY.m             4443793.85:  UTM Y
 DFWL.m                   0.00:  DISTANCE FWL
 DFSL.m                   0.00:  DISTANCE FSL
 SDEP.m                   0.00:  START DEPTH
 TDD .m                   0.00:  TOTAL DEPTH (DRILLER)
 VSDR.deg               179.88:  VERT SEC DIRECT
 GVFD.g                   1.00:  GRAVITY FIELD
 MFLD.nT              50281.00:  MAGNETIC FIELD
 MDIP.deg                59.58:  MAGNETIC DIP
 MDEC.deg                 6.48:  MAGNETIC DECL
 GRDC.deg                 0.14:  GRID CORRECTION
 AZTC.deg                 6.34:  AZM TOTAL CORR
 EPD .m                   0.00:  ELEVATION
 EGL .m                   0.00:  GROUND ELEVATION
 WDMS.m                 169.80:  WD ELEV
 APD .m                  43.00:  DEPTH ABOVE PD
 DEP .m                 354.17:  DEPTH
 AGAP.m                  43.00:  AIR GAP
 VSEW.m                  -8.91:  VERT SEC E/W
 VSNS.m                   9.43:  VERT SEC N/S
 EKB .m                   0.00:  KB ELEVATION
 EDF .m                  43.00:  DF ELEVATION
 TDL .m                1326.00:  TOTAL DEPTH (LOGGER)
 VSC .                       0:  VS TO CLOSURE
 MAGU.                 1850704:  MAGUTM CHECKSUM
~Parameter Information Block
#MNEM.UNIT       Value        Description
#---------     -----------    ---------------------------
 AV  .mps                 1.17:  Ann Velocity 
 AZIF.deg               184.04:  Azm, Final 
 BHAT.        Rotary Steerable:  BHA Type 
 BREV.rev            620000.00:  Rev Bit Total 
 BROT.°/30m               0.20:  Build Rotating 
 BS  .in                 14.75:  Bit Size 
 BSZ .in                 14.75:  Bit Size 
 BTPL.psig              618.00:  Bit Press Loss 
 CABU.                      No:  Customer Abuse 
 COMM.                     TŠT:  Run Comments 1 
 TCS .hr                 87.68:  Time Ciculation Ended 
 CV  .mps                 3.10:  Crit Velocity 
 DD1 .          Rashad Habibov:  Direct Drillr 1 
 DD2 .         Rasim Ibrahimov:  Direct Drillr 2 
 DDSV.               Geo-Pilot:  DD Service 
 DEFF.%                  98.00:  % Det Eff 
 DLRX.°/30m               1.48:  Dogleg Rot Max 
 DLSO.°/30m               0.50:  Dogleg Oriented 
 DLSX.°/30m               1.48:  Dogleg Str Max 
 DRET.      06.18.56 19-Apr-20:  Drill End Time 
 DRST.      15.00.56 15-Apr-20:  Drill Start Tim 
 DTIM.hr                 51.73:  Time Drilling 
 EDEP.m                3410.01:  End Depth 
 ENG1.        Marcelo Sandoval:  Engineer 1 
 ENG2.        Davud Huseynzade:  Engineer 2 
 ENG3.          Ruslan Safarov:  Engineer 3 
 ETIM.      04.00.56 20-Apr-20:  End Time 
 FLOI.gpm              1000.00:  Flow In 
 FLON.gpm               600.00:  Flow In Min 
 FLOS.cptm                0.00:  Fluid Loss 
 FLOX.gpm              1200.00:  Flow In Max 
 HFLO.                      No:  High Flow 
 HPRE.                     Yes:  High Pressure 
 HTEM.                      No:  High Temp 
 HYDO.m                   1.80:  Hydro Offset 
 IFIN.deg                70.04:  Inc, Final 
 IMAX.deg                70.56:  Inc Max 
 IMIN.deg                69.85:  Inc Min 
 IMND.m                3103.24:  Inc Min Depth 
 IMXD.m                2876.63:  Inc Max Depth 
 JARR.                      No:  Jarring 
 LETM.      06.18.56 19-Apr-20:  Log End Time 
 LOST.hr                     0:  Lost Rig Time 
 LSTM.      15.00.56 15-Apr-20:  Log Start Time 
 MDCL.ppm             42000.00:  Mud Chlorides 
 MDES.     Inversion Oil/Synthetic:  Mud Desc 
 DFD .sg                  1.58:  Mud Density 
 MDMN.sg                  1.58:  Dens Mud Min 
 MDMX.sg                  1.58:  Dens Mud Max 
 MOIL.                      71:  Run Mud Oil % 
 MOWR.                   71:29:  Run Mud OWR 
 MSND.                       0:  Run Mud Sand % 
 MSOL.                    23.3:  Run Mud Solids% 
 DFV .spqt               84.00:  Mud Viscosity 
 MWOD.in                  9.50:  MWD Tool OD 
 MWSI.                      No:  Serv Intrp, MWD 
 OTIM.hr                139.62:  Time Operating 
 PMAX.psia             5364.69:  Press Op, Max 
 PV  .cP                 80.00:  Mud PV 
 RUN .                     700:  Run Number 
 ROPA.m/hr               25.00:  ROP Avg 
 ROPN.m/hr               11.00:  ROP Min 
 ROPX.m/hr               36.00:  ROP Max 
 RPMA.rpm               130.00:  RPM Surface Avg 
 RPMN.rpm               120.00:  RPM Surface Min 
 RPMX.rpm               140.00:  RPM Surface Max 
 RRUN.                    0700:  Rig Run Number 
 SAZI.deg               183.25:  Azm, Start 
 SDEP.m                2084.00:  Start Depth 
 SIDD.                      No:  Serv Intrp, DD 
 SINC.deg                70.38:  Inc, Start 
 SPPA.psig             4800.00:  SPP Avg 
 SPPN.psig             4400.00:  SPP Min 
 SPPX.psig             5350.00:  SPP Max 
 STIM.      16.30.56 14-Apr-20:  Start Time 
 SVCS.                 DD, MWD:  Services 
 SVER.                    9.20:  Sperry Version 
 TDAT.m                1326.00:  Tot Depth Attmp 
 TDDF.                      No:  Trip for DD 
 TDLG.m                1326.00:  Tot Depth Loggd 
 TFF .                      No:  Trip for Fail 
 TQAA.f-kp               19.00:  Torque Abs Avg 
 TQAN.f-kp                8.00:  Torque Abs Min 
 TQAX.f-kp               27.00:  Torque Abs Max 
 TRRT.°/30m               0.50:  Turn Rotating 
 MRT .                    HCIM:  Maximum Recorded Temperature 
 TTMX.degC               82.35:  Max Tool Temp 
 VS01.       905245875X1Z1W1C8:  Virtual Str1 SN 
 VS02.       90608022F11V7D1A9:  Virtual Str2 SN 
 VS03.            90605473R5C9:  Virtual Str3 SN 
 WBMN.klb                11.00:  WOB Min 
 WOBA.klb                21.00:  WOB Avg 
 WOBX.klb                30.00:  WOB Max 
 YP  .lhf2               45.00:  Yield Point 
~Curve Information Block
#MNEM.UNIT                 API CODE     Curve Description
#---------               -----------    ---------------------------
 TIME.HHMMSS            00 000 000 000:  GT Time & Date
 GTDEPTH.m              00 000 000 000:  GT Depth
 GTPQH.psia             00 000 000 000:  GT HR Quartz Pressure
 GTTQ.degC              00 000 000 000:  GT Quartz Temperature
 GTTN.NONE              00 000 000 000:  GT Test Number
 GTET.sec               00 000 000 000:  GT Elapsed Test Time
 GTTVD.m                00 000 000 000:  GT True Vertical Depth
#Other Information
#
#WARRANTY: Halliburton will use its best efforts to furnish customers with 
#accurate information and interpretations that are part of, and incident to, the services 
#provided.  However, Halliburton cannot and does not warrant the accuracy 
#or correctness of such information and interpretations.  Under no circumstances should any 
#such information or interpretation be relied upon as the sole basis for any drilling, 
#completion, production, or financial decision or any procedure involving any risk to the 
#safety of any drilling venture, drilling rig or its crew or any other third party.  The 
#Customer has full responsibility for all drilling, completion and production operation.  
#Halliburton makes no representations or warranties, either expressed or 
#implied, including, but not limited to, the implied warranties of merchantability or fitness 
#for a particular purpose, with respect to the services rendered.  In no event will 
#Halliburton be liable for failure to obtain any particular results or for 
#any damages, including, but not limited to, indirect, special or consequential damages, 
#resulting from the use of any information or interpretation provided by Halliburton.
#
~A           TIME           GTDEPTH  GTPQH  GTTQ  GTTN  GTET   GTTVD  
# ...
   00:44:45.360.18-Apr-2020 2932.07 3431.45 63.00 1.00 322.05 1915.77
   00:44:45.560.18-Apr-2020 2932.07 3431.47 63.00 1.00 322.25 1915.77
   00:44:45.760.18-Apr-2020 2932.07 3431.47 62.99 1.00 322.45 1915.77
   00:44:45.960.18-Apr-2020 2932.07 3431.46 62.99 1.00 322.65 1915.77
   00:44:46.161.18-Apr-2020 2932.07 3431.45 62.99 1.00 322.85 1915.77
   00:44:46.361.18-Apr-2020 2932.07 3431.46 62.99 1.00 323.05 1915.77
   00:44:46.561.18-Apr-2020 2932.07 3431.46 62.99 1.00 323.25 1915.77
   00:44:46.761.18-Apr-2020 2932.07 3431.46 62.99 1.00 323.45 1915.77
   00:44:46.961.18-Apr-2020 2932.07 3431.45 62.99 1.00 323.65 1915.77
   00:44:47.161.18-Apr-2020 2932.07 3431.45 62.99 1.00 323.85 1915.77
   00:44:47.361.18-Apr-2020 2932.07 3431.45 62.99 1.00 324.05 1915.77
   00:44:47.561.18-Apr-2020 2932.07 3431.45 62.99 1.00 324.25 1915.77
   00:44:47.761.18-Apr-2020 2932.07 3431.45 62.99 1.00 324.45 1915.77
   00:44:47.961.18-Apr-2020 2932.07 3431.44 62.99 1.00 324.65 1915.77
   00:44:48.161.18-Apr-2020 2932.07 3431.45 62.99 1.00 324.85 1915.77
   00:44:48.361.18-Apr-2020 2932.07 3431.45 62.99 1.00 325.05 1915.77
   00:44:48.561.18-Apr-2020 2932.07 3431.45 62.99 1.00 325.25 1915.77
   00:44:48.761.18-Apr-2020 2932.07 3431.43 62.99 1.00 325.45 1915.77
   00:44:48.961.18-Apr-2020 2932.07 3431.46 62.99 1.00 325.65 1915.77
   00:44:49.161.18-Apr-2020 2932.07 3431.44 62.99 1.00 325.85 1915.77
   00:44:49.361.18-Apr-2020 2932.07 3431.45 62.99 1.00 326.05 1915.77
   00:44:49.561.18-Apr-2020 2932.07 3431.45 62.99 1.00 326.25 1915.77
   00:44:49.761.18-Apr-2020 2932.07 3431.44 62.99 1.00 326.45 1915.77
   00:44:49.961.18-Apr-2020 2932.07 3431.45 62.99 1.00 326.65 1915.77
   00:44:50.161.18-Apr-2020 2932.07 3431.44 62.99 1.00 326.85 1915.77
   00:44:50.361.18-Apr-2020 2932.07 3431.44 62.99 1.00 327.05 1915.77
   00:44:50.561.18-Apr-2020 2932.07 3431.44 62.99 1.00 327.25 1915.77
   00:44:50.761.18-Apr-2020 2932.07 3431.45 62.99 1.00 327.45 1915.77
   00:44:50.961.18-Apr-2020 2932.07 3431.45 62.98 1.00 327.65 1915.77
   00:44:51.161.18-Apr-2020 2932.07 3431.44 62.98 1.00 327.85 1915.77
   00:44:51.361.18-Apr-2020 2932.07 3431.43 62.98 1.00 328.05 1915.77
   00:44:51.561.18-Apr-2020 2932.07 3431.43 62.98 1.00 328.25 1915.77
   00:44:51.761.18-Apr-2020 2932.07 3431.43 62.98 1.00 328.45 1915.77
   00:44:51.961.18-Apr-2020 2932.07 3431.44 62.98 1.00 328.65 1915.77
   00:44:52.161.18-Apr-2020 2932.07 3431.45 62.98 1.00 328.85 1915.77
   00:44:52.362.18-Apr-2020 2932.07 3431.45 62.98 1.00 329.05 1915.77
   00:44:52.562.18-Apr-2020 2932.07 3431.45 62.98 1.00 329.25 1915.77
   00:44:52.762.18-Apr-2020 2932.07 3431.44 62.98 1.00 329.45 1915.77
   00:44:52.962.18-Apr-2020 2932.07 3431.44 62.98 1.00 329.65 1915.77
   00:44:53.162.18-Apr-2020 2932.07 3431.44 62.98 1.00 329.85 1915.77
   00:44:53.362.18-Apr-2020 2932.07 3431.45 62.98 1.00 330.05 1915.77
   00:44:53.562.18-Apr-2020 2932.07 3431.45 62.98 1.00 330.25 1915.77
   00:44:53.762.18-Apr-2020 2932.07 3431.45 62.98 1.00 330.45 1915.77
   00:44:53.962.18-Apr-2020 2932.07 3431.45 62.98 1.00 330.65 1915.77
   00:44:54.162.18-Apr-2020 2932.07 3431.45 62.98 1.00 330.85 1915.77
   00:44:54.362.18-Apr-2020 2932.07 3431.46 62.98 1.00 331.05 1915.77
   00:44:54.562.18-Apr-2020 2932.07 3431.46 62.98 1.00 331.25 1915.77
   00:44:54.762.18-Apr-2020 2932.07 3431.44 62.98 1.00 331.45 1915.77
   00:44:54.962.18-Apr-2020 2932.07 3431.45 62.98 1.00 331.65 1915.77
   00:44:55.162.18-Apr-2020 2932.07 3431.45 62.98 1.00 331.85 1915.77
   00:44:55.362.18-Apr-2020 2932.07 3431.44 62.98 1.00 332.05 1915.77
   00:44:55.562.18-Apr-2020 2932.07 3431.44 62.98 1.00 332.25 1915.77
   00:44:55.762.18-Apr-2020 2932.07 3431.44 62.98 1.00 332.45 1915.77
   00:44:55.962.18-Apr-2020 2932.07 3431.44 62.98 1.00 332.65 1915.77
   00:44:56.162.18-Apr-2020 2932.07 3431.44 62.98 1.00 332.85 1915.77
   00:44:56.362.18-Apr-2020 2932.07 3431.44 62.97 1.00 333.05 1915.77
   00:44:56.562.18-Apr-2020 2932.07 3431.44 62.97 1.00 333.25 1915.77
   00:44:56.762.18-Apr-2020 2932.07 3431.44 62.97 1.00 333.45 1915.77
   00:44:56.962.18-Apr-2020 2932.07 3431.44 62.97 1.00 333.65 1915.77
   00:44:57.162.18-Apr-2020 2932.07 3431.44 62.97 1.00 333.85 1915.77
   00:44:57.362.18-Apr-2020 2932.07 3431.43 62.97 1.00 334.05 1915.77
   00:44:57.562.18-Apr-2020 2932.07 3431.43 62.97 1.00 334.25 1915.77
   00:44:57.762.18-Apr-2020 2932.07 3431.44 62.97 1.00 334.45 1915.77
   00:44:57.962.18-Apr-2020 2932.07 3431.43 62.97 1.00 334.65 1915.77
   00:44:58.162.18-Apr-2020 2932.07 3431.44 62.97 1.00 334.85 1915.77
   00:44:58.362.18-Apr-2020 2932.07 3431.45 62.97 1.00 335.05 1915.77
   00:44:58.563.18-Apr-2020 2932.07 3431.45 62.97 1.00 335.25 1915.77
   00:44:58.763.18-Apr-2020 2932.07 3431.42 62.97 1.00 335.45 1915.77
   00:44:58.963.18-Apr-2020 2932.07 3431.45 62.97 1.00 335.65 1915.77
   00:44:59.163.18-Apr-2020 2932.07 3431.43 62.97 1.00 335.85 1915.77
   00:44:59.363.18-Apr-2020 2932.07 3431.44 62.97 1.00 336.05 1915.77
   00:44:59.563.18-Apr-2020 2932.07 3431.44 62.97 1.00 336.25 1915.77
   00:44:59.763.18-Apr-2020 2932.07 3431.44 62.97 1.00 336.45 1915.77
   00:44:59.963.18-Apr-2020 2932.07 3431.44 62.97 1.00 336.65 1915.77
   00:45:00.163.18-Apr-2020 2932.07 3431.44 62.97 1.00 336.85 1915.77
   00:45:00.363.18-Apr-2020 2932.07 3431.45 62.97 1.00 337.05 1915.77
   00:45:00.563.18-Apr-2020 2932.07 3431.44 62.97 1.00 337.25 1915.77
   00:45:00.763.18-Apr-2020 2932.07 3431.44 62.97 1.00 337.45 1915.77
   00:45:00.963.18-Apr-2020 2932.07 3431.45 62.97 1.00 337.65 1915.77
   00:45:01.163.18-Apr-2020 2932.07 3431.45 62.97 1.00 337.85 1915.77
   00:45:01.363.18-Apr-2020 2932.07 3431.45 62.96 1.00 338.05 1915.77
   00:45:01.563.18-Apr-2020 2932.07 3431.45 62.96 1.00 338.25 1915.77
   00:45:01.763.18-Apr-2020 2932.07 3431.44 62.96 1.00 338.45 1915.77
   00:45:01.963.18-Apr-2020 2932.07 3431.45 62.96 1.00 338.65 1915.77
   00:45:02.163.18-Apr-2020 2932.07 3431.44 62.96 1.00 338.85 1915.77
   00:45:02.363.18-Apr-2020 2932.07 3431.45 62.96 1.00 339.05 1915.77
   00:45:02.563.18-Apr-2020 2932.07 3431.45 62.96 1.00 339.25 1915.77
   00:45:02.763.18-Apr-2020 2932.07 3431.44 62.96 1.00 339.45 1915.77
   00:45:02.963.18-Apr-2020 2932.07 3431.44 62.96 1.00 339.65 1915.77
   00:45:03.163.18-Apr-2020 2932.07 3431.43 62.96 1.00 339.85 1915.77
   00:45:03.363.18-Apr-2020 2932.07 3431.43 62.96 1.00 340.05 1915.77
   00:45:03.563.18-Apr-2020 2932.07 3431.43 62.96 1.00 340.26 1915.77
   00:45:03.763.18-Apr-2020 2932.07 3431.43 62.96 1.00 340.46 1915.77
   00:45:03.963.18-Apr-2020 2932.07 3431.43 62.96 1.00 340.66 1915.77
   00:45:04.163.18-Apr-2020 2932.07 3431.44 62.96 1.00 340.86 1915.77
   00:45:04.363.18-Apr-2020 2932.07 3431.43 62.96 1.00 341.06 1915.77
   00:45:04.563.18-Apr-2020 2932.07 3431.43 62.96 1.00 341.26 1915.77
   00:45:04.764.18-Apr-2020 2932.07 3431.43 62.96 1.00 341.46 1915.77
   00:45:04.964.18-Apr-2020 2932.07 3431.43 62.96 1.00 341.66 1915.77
   00:45:05.164.18-Apr-2020 2932.07 3431.43 62.96 1.00 341.86 1915.77
   00:45:05.364.18-Apr-2020 2932.07 3431.43 62.96 1.00 342.06 1915.77
   00:45:05.564.18-Apr-2020 2932.07 3431.43 62.96 1.00 342.26 1915.77
   00:45:05.764.18-Apr-2020 2932.07 3431.43 62.96 1.00 342.46 1915.77
   00:45:05.964.18-Apr-2020 2932.07 3431.42 62.96 1.00 342.66 1915.77
   00:45:06.164.18-Apr-2020 2932.07 3431.43 62.96 1.00 342.86 1915.77
   00:45:06.364.18-Apr-2020 2932.07 3431.42 62.96 1.00 343.06 1915.77
   00:45:06.564.18-Apr-2020 2932.07 3431.42 62.96 1.00 343.26 1915.77
   00:45:06.764.18-Apr-2020 2932.07 3431.43 62.95 1.00 343.46 1915.77
   00:45:06.964.18-Apr-2020 2932.07 3431.42 62.95 1.00 343.66 1915.77
   00:45:07.164.18-Apr-2020 2932.07 3431.43 62.95 1.00 343.86 1915.77
   00:45:07.364.18-Apr-2020 2932.07 3431.42 62.95 1.00 344.06 1915.77
   00:45:07.564.18-Apr-2020 2932.07 3431.42 62.95 1.00 344.26 1915.77
   00:45:07.764.18-Apr-2020 2932.07 3431.43 62.95 1.00 344.46 1915.77
   00:45:07.964.18-Apr-2020 2932.07 3431.42 62.95 1.00 344.66 1915.77
   00:45:08.164.18-Apr-2020 2932.07 3431.42 62.95 1.00 344.86 1915.77
