~Version Information
 VERS.                  2.0:   CWLS log ASCII Standard -VERSION 2.0
 WRAP.                   NO:   One line per depth step
~Well Information Block
#MNEM.UNIT     VALUE/NAME     DESCRIPTION
#---------     -----------    ---------------------------
 STRT.S             00:39:23 18-Apr-20: START TIME 00:39:23 18-Apr-20
 STOP.S             00:46:19 18-Apr-20: STOP TIME  00:46:19 18-Apr-20
 STEP.S                   0.00: STEP TIME
 NULL.                 -999.25: NULL VALUE
 DFWT.                        :  DIST FWL TEXT
 DFST.                        :  DIST FSL TEXT
 DMF .                        :  DRILL MEAS FROM
 STIM.      16.29.52 23-Mar-20:  START TIME
 DATE.      16.29.52 23-Mar-20:  END TIME
 SPUD.               23-Mar-20:  SPUD DATE
 NREF.                    Grid:  NORTH REFERENCE
 HPTY.       Minimum Curvature:  HOLE POS TYPE
 DMOD.             Drill Model:  DRILL MOD DESC
 SVYD.                  Survey:  SURVEY DESC
 ILTD.               Lithology:  INTERP LTH DESC
 FTOP.          Formation Tops:  FORM TOPS DESC
 SON .        AZ-XX-0906252240:  JOB NUMBER
 RIG .             West Chirag:  RIG NAME
 PDAT.          Mean Sea Level:  PERMANENT DATUM
 FLD .                     ACG:  FIELD NAME
 CTRY.              Azerbaijan:  COUNTRY NAME
 WELL.           J23 (Slot 07):  WELL NAME
 SRVC.          Turan Drilling:  CONTRACTOR
 COMP.     BP Exploration (Casoian Sea) Ltd:  COMPANY
 WTYP.                Deviated:  WELL TYPE
 MDS .        Operator Entered:  MAG DATA SOURCE
 UWI .                     N/A:  UNIQUE WELL IDENTIFIER
 API .                     N/A:  API NUMBER
 BASE.              Azerbaijan:  LOGGING EQUIPMENT BASE LOCATION
 REGN.                   EESSA:  REGION
 PROV.                    Baku:  PROVINCE
 STAT.                    Baku:  STATE NAME
 MWDS.                     N/A:  MWD SHOP
 JOBN.        AZ-XX-0906252240:  JOB TICKET NUMB
 DOE .                     N/A:  DOE NUMBER
 DCON.         Sperry Drilling:  DIRECTNL CONTR
 UNIT.                     N/A:  LOGGING EQUIPMENT ID
 CNTY.                        :  COUNTY
 LOC .                        :  LOCATION
 LMF .             Drill Floor:  LOG MEASURED FROM
 TVDS.m                  43.00:  TVDSS CORRECTN
 LATI.deg                40.13:  LATITUDE
 LONG.deg                51.22:  LONGITUDE
 WHNS.m                   9.43:  WELL HEAD N/S
 WHEW.m                  -8.91:  WELL HEAD E/W
 UTMX.m              519005.06:  UTM X
 UTMY.m             4443793.85:  UTM Y
 DFWL.m                   0.00:  DISTANCE FWL
 DFSL.m                   0.00:  DISTANCE FSL
 SDEP.m                   0.00:  START DEPTH
 TDD .m                   0.00:  TOTAL DEPTH (DRILLER)
 VSDR.deg               179.88:  VERT SEC DIRECT
 GVFD.g                   1.00:  GRAVITY FIELD
 MFLD.nT              50281.00:  MAGNETIC FIELD
 MDIP.deg                59.58:  MAGNETIC DIP
 MDEC.deg                 6.48:  MAGNETIC DECL
 GRDC.deg                 0.14:  GRID CORRECTION
 AZTC.deg                 6.34:  AZM TOTAL CORR
 EPD .m                   0.00:  ELEVATION
 EGL .m                   0.00:  GROUND ELEVATION
 WDMS.m                 169.80:  WD ELEV
 APD .m                  43.00:  DEPTH ABOVE PD
 DEP .m                 354.17:  DEPTH
 AGAP.m                  43.00:  AIR GAP
 VSEW.m                  -8.91:  VERT SEC E/W
 VSNS.m                   9.43:  VERT SEC N/S
 EKB .m                   0.00:  KB ELEVATION
 EDF .m                  43.00:  DF ELEVATION
 TDL .m                1326.00:  TOTAL DEPTH (LOGGER)
 VSC .                       0:  VS TO CLOSURE
 MAGU.                 1850704:  MAGUTM CHECKSUM
~Parameter Information Block
#MNEM.UNIT       Value        Description
#---------     -----------    ---------------------------
 AV  .mps                 1.17:  Ann Velocity 
 AZIF.deg               184.04:  Azm, Final 
 BHAT.        Rotary Steerable:  BHA Type 
 BREV.rev            620000.00:  Rev Bit Total 
 BROT.°/30m               0.20:  Build Rotating 
 BS  .in                 14.75:  Bit Size 
 BSZ .in                 14.75:  Bit Size 
 BTPL.psig              618.00:  Bit Press Loss 
 CABU.                      No:  Customer Abuse 
 COMM.                     TŠT:  Run Comments 1 
 TCS .hr                 87.68:  Time Ciculation Ended 
 CV  .mps                 3.10:  Crit Velocity 
 DD1 .          Rashad Habibov:  Direct Drillr 1 
 DD2 .         Rasim Ibrahimov:  Direct Drillr 2 
 DDSV.               Geo-Pilot:  DD Service 
 DEFF.%                  98.00:  % Det Eff 
 DLRX.°/30m               1.48:  Dogleg Rot Max 
 DLSO.°/30m               0.50:  Dogleg Oriented 
 DLSX.°/30m               1.48:  Dogleg Str Max 
 DRET.      06.18.56 19-Apr-20:  Drill End Time 
 DRST.      15.00.56 15-Apr-20:  Drill Start Tim 
 DTIM.hr                 51.73:  Time Drilling 
 EDEP.m                3410.01:  End Depth 
 ENG1.        Marcelo Sandoval:  Engineer 1 
 ENG2.        Davud Huseynzade:  Engineer 2 
 ENG3.          Ruslan Safarov:  Engineer 3 
 ETIM.      04.00.56 20-Apr-20:  End Time 
 FLOI.gpm              1000.00:  Flow In 
 FLON.gpm               600.00:  Flow In Min 
 FLOS.cptm                0.00:  Fluid Loss 
 FLOX.gpm              1200.00:  Flow In Max 
 HFLO.                      No:  High Flow 
 HPRE.                     Yes:  High Pressure 
 HTEM.                      No:  High Temp 
 HYDO.m                   1.80:  Hydro Offset 
 IFIN.deg                70.04:  Inc, Final 
 IMAX.deg                70.56:  Inc Max 
 IMIN.deg                69.85:  Inc Min 
 IMND.m                3103.24:  Inc Min Depth 
 IMXD.m                2876.63:  Inc Max Depth 
 JARR.                      No:  Jarring 
 LETM.      06.18.56 19-Apr-20:  Log End Time 
 LOST.hr                     0:  Lost Rig Time 
 LSTM.      15.00.56 15-Apr-20:  Log Start Time 
 MDCL.ppm             42000.00:  Mud Chlorides 
 MDES.     Inversion Oil/Synthetic:  Mud Desc 
 DFD .sg                  1.58:  Mud Density 
 MDMN.sg                  1.58:  Dens Mud Min 
 MDMX.sg                  1.58:  Dens Mud Max 
 MOIL.                      71:  Run Mud Oil % 
 MOWR.                   71:29:  Run Mud OWR 
 MSND.                       0:  Run Mud Sand % 
 MSOL.                    23.3:  Run Mud Solids% 
 DFV .spqt               84.00:  Mud Viscosity 
 MWOD.in                  9.50:  MWD Tool OD 
 MWSI.                      No:  Serv Intrp, MWD 
 OTIM.hr                139.62:  Time Operating 
 PMAX.psia             5364.69:  Press Op, Max 
 PV  .cP                 80.00:  Mud PV 
 RUN .                     700:  Run Number 
 ROPA.m/hr               25.00:  ROP Avg 
 ROPN.m/hr               11.00:  ROP Min 
 ROPX.m/hr               36.00:  ROP Max 
 RPMA.rpm               130.00:  RPM Surface Avg 
 RPMN.rpm               120.00:  RPM Surface Min 
 RPMX.rpm               140.00:  RPM Surface Max 
 RRUN.                    0700:  Rig Run Number 
 SAZI.deg               183.25:  Azm, Start 
 SDEP.m                2084.00:  Start Depth 
 SIDD.                      No:  Serv Intrp, DD 
 SINC.deg                70.38:  Inc, Start 
 SPPA.psig             4800.00:  SPP Avg 
 SPPN.psig             4400.00:  SPP Min 
 SPPX.psig             5350.00:  SPP Max 
 STIM.      16.30.56 14-Apr-20:  Start Time 
 SVCS.                 DD, MWD:  Services 
 SVER.                    9.20:  Sperry Version 
 TDAT.m                1326.00:  Tot Depth Attmp 
 TDDF.                      No:  Trip for DD 
 TDLG.m                1326.00:  Tot Depth Loggd 
 TFF .                      No:  Trip for Fail 
 TQAA.f-kp               19.00:  Torque Abs Avg 
 TQAN.f-kp                8.00:  Torque Abs Min 
 TQAX.f-kp               27.00:  Torque Abs Max 
 TRRT.°/30m               0.50:  Turn Rotating 
 MRT .                    HCIM:  Maximum Recorded Temperature 
 TTMX.degC               82.35:  Max Tool Temp 
 VS01.       905245875X1Z1W1C8:  Virtual Str1 SN 
 VS02.       90608022F11V7D1A9:  Virtual Str2 SN 
 VS03.            90605473R5C9:  Virtual Str3 SN 
 WBMN.klb                11.00:  WOB Min 
 WOBA.klb                21.00:  WOB Avg 
 WOBX.klb                30.00:  WOB Max 
 YP  .lhf2               45.00:  Yield Point 
~Curve Information Block
#MNEM.UNIT                 API CODE     Curve Description
#---------               -----------    ---------------------------
 TIME.HHMMSS            00 000 000 000:  GT Time & Date
 GTDEPTH.m              00 000 000 000:  GT Depth
 GTPQH.psia             00 000 000 000:  GT HR Quartz Pressure
 GTTQ.degC              00 000 000 000:  GT Quartz Temperature
 GTTN.NONE              00 000 000 000:  GT Test Number
 GTET.sec               00 000 000 000:  GT Elapsed Test Time
 GTTVD.m                00 000 000 000:  GT True Vertical Depth
#Other Information
#
#WARRANTY: Halliburton will use its best efforts to furnish customers with 
#accurate information and interpretations that are part of, and incident to, the services 
#provided.  However, Halliburton cannot and does not warrant the accuracy 
#or correctness of such information and interpretations.  Under no circumstances should any 
#such information or interpretation be relied upon as the sole basis for any drilling, 
#completion, production, or financial decision or any procedure involving any risk to the 
#safety of any drilling venture, drilling rig or its crew or any other third party.  The 
#Customer has full responsibility for all drilling, completion and production operation.  
#Halliburton makes no representations or warranties, either expressed or 
#implied, including, but not limited to, the implied warranties of merchantability or fitness 
#for a particular purpose, with respect to the services rendered.  In no event will 
#Halliburton be liable for failure to obtain any particular results or for 
#any damages, including, but not limited to, indirect, special or consequential damages, 
#resulting from the use of any information or interpretation provided by Halliburton.
#
~A           TIME           GTDEPTH  GTPQH  GTTQ  GTTN  GTET   GTTVD  
# ...
   00:41:18.327.18-Apr-2020 2932.07 3431.68 63.37 1.00 115.02 1915.77
   00:41:18.527.18-Apr-2020 2932.07 3431.68 63.37 1.00 115.22 1915.77
   00:41:18.727.18-Apr-2020 2932.07 3431.68 63.37 1.00 115.42 1915.77
   00:41:18.927.18-Apr-2020 2932.07 3431.68 63.36 1.00 115.62 1915.77
   00:41:19.127.18-Apr-2020 2932.07 3431.70 63.36 1.00 115.82 1915.77
   00:41:19.327.18-Apr-2020 2932.07 3431.69 63.36 1.00 116.02 1915.77
   00:41:19.527.18-Apr-2020 2932.07 3431.69 63.36 1.00 116.22 1915.77
   00:41:19.727.18-Apr-2020 2932.07 3431.70 63.36 1.00 116.42 1915.77
   00:41:19.927.18-Apr-2020 2932.07 3431.66 63.36 1.00 116.62 1915.77
   00:41:20.127.18-Apr-2020 2932.07 3431.66 63.36 1.00 116.82 1915.77
   00:41:20.327.18-Apr-2020 2932.07 3431.70 63.36 1.00 117.02 1915.77
   00:41:20.527.18-Apr-2020 2932.07 3431.67 63.36 1.00 117.22 1915.77
   00:41:20.727.18-Apr-2020 2932.07 3431.69 63.36 1.00 117.42 1915.77
   00:41:20.927.18-Apr-2020 2932.07 3431.71 63.36 1.00 117.62 1915.77
   00:41:21.127.18-Apr-2020 2932.07 3431.71 63.36 1.00 117.82 1915.77
   00:41:21.327.18-Apr-2020 2932.07 3431.72 63.36 1.00 118.02 1915.77
   00:41:21.527.18-Apr-2020 2932.07 3431.72 63.36 1.00 118.22 1915.77
   00:41:21.727.18-Apr-2020 2932.07 3431.69 63.36 1.00 118.42 1915.77
   00:41:21.927.18-Apr-2020 2932.07 3431.71 63.36 1.00 118.62 1915.77
   00:41:22.128.18-Apr-2020 2932.07 3431.71 63.36 1.00 118.82 1915.77
   00:41:22.328.18-Apr-2020 2932.07 3431.68 63.36 1.00 119.02 1915.77
   00:41:22.528.18-Apr-2020 2932.07 3431.68 63.36 1.00 119.22 1915.77
   00:41:22.728.18-Apr-2020 2932.07 3431.68 63.36 1.00 119.42 1915.77
   00:41:22.928.18-Apr-2020 2932.07 3431.68 63.36 1.00 119.62 1915.77
   00:41:23.128.18-Apr-2020 2932.07 3431.67 63.36 1.00 119.82 1915.77
   00:41:23.328.18-Apr-2020 2932.07 3431.68 63.36 1.00 120.02 1915.77
   00:41:23.528.18-Apr-2020 2932.07 3431.67 63.36 1.00 120.22 1915.77
   00:41:23.728.18-Apr-2020 2932.07 3431.68 63.36 1.00 120.42 1915.77
   00:41:23.928.18-Apr-2020 2932.07 3431.67 63.36 1.00 120.62 1915.77
   00:41:24.128.18-Apr-2020 2932.07 3431.68 63.36 1.00 120.82 1915.77
   00:41:24.328.18-Apr-2020 2932.07 3431.67 63.36 1.00 121.02 1915.77
   00:41:24.528.18-Apr-2020 2932.07 3431.66 63.36 1.00 121.22 1915.77
   00:41:24.728.18-Apr-2020 2932.07 3431.69 63.36 1.00 121.42 1915.77
   00:41:24.928.18-Apr-2020 2932.07 3431.69 63.35 1.00 121.62 1915.77
   00:41:25.128.18-Apr-2020 2932.07 3431.66 63.35 1.00 121.82 1915.77
   00:41:25.328.18-Apr-2020 2932.07 3431.66 63.35 1.00 122.02 1915.77
   00:41:25.528.18-Apr-2020 2932.07 3431.66 63.35 1.00 122.22 1915.77
   00:41:25.728.18-Apr-2020 2932.07 3431.68 63.35 1.00 122.42 1915.77
   00:41:25.928.18-Apr-2020 2932.07 3431.68 63.35 1.00 122.62 1915.77
   00:41:26.128.18-Apr-2020 2932.07 3431.66 63.35 1.00 122.82 1915.77
   00:41:26.328.18-Apr-2020 2932.07 3431.64 63.35 1.00 123.02 1915.77
   00:41:26.528.18-Apr-2020 2932.07 3431.64 63.35 1.00 123.22 1915.77
   00:41:26.728.18-Apr-2020 2932.07 3431.66 63.35 1.00 123.42 1915.77
   00:41:26.928.18-Apr-2020 2932.07 3431.65 63.35 1.00 123.62 1915.77
   00:41:27.128.18-Apr-2020 2932.07 3431.66 63.35 1.00 123.82 1915.77
   00:41:27.328.18-Apr-2020 2932.07 3431.67 63.35 1.00 124.02 1915.77
   00:41:27.528.18-Apr-2020 2932.07 3431.67 63.35 1.00 124.22 1915.77
   00:41:27.728.18-Apr-2020 2932.07 3431.66 63.35 1.00 124.42 1915.77
   00:41:27.928.18-Apr-2020 2932.07 3431.68 63.35 1.00 124.62 1915.77
   00:41:28.128.18-Apr-2020 2932.07 3431.65 63.35 1.00 124.82 1915.77
   00:41:28.329.18-Apr-2020 2932.07 3431.66 63.35 1.00 125.02 1915.77
   00:41:28.529.18-Apr-2020 2932.07 3431.65 63.35 1.00 125.22 1915.77
   00:41:28.729.18-Apr-2020 2932.07 3431.64 63.35 1.00 125.42 1915.77
   00:41:28.929.18-Apr-2020 2932.07 3431.65 63.35 1.00 125.62 1915.77
   00:41:29.129.18-Apr-2020 2932.07 3431.65 63.35 1.00 125.82 1915.77
   00:41:29.329.18-Apr-2020 2932.07 3431.62 63.35 1.00 126.02 1915.77
   00:41:29.529.18-Apr-2020 2932.07 3431.62 63.35 1.00 126.22 1915.77
   00:41:29.729.18-Apr-2020 2932.07 3431.64 63.35 1.00 126.42 1915.77
   00:41:29.929.18-Apr-2020 2932.07 3431.64 63.35 1.00 126.62 1915.77
   00:41:30.129.18-Apr-2020 2932.07 3431.63 63.35 1.00 126.82 1915.77
   00:41:30.329.18-Apr-2020 2932.07 3431.63 63.35 1.00 127.02 1915.77
   00:41:30.529.18-Apr-2020 2932.07 3431.63 63.35 1.00 127.22 1915.77
   00:41:30.729.18-Apr-2020 2932.07 3431.62 63.35 1.00 127.42 1915.77
   00:41:30.929.18-Apr-2020 2932.07 3431.64 63.34 1.00 127.62 1915.77
   00:41:31.129.18-Apr-2020 2932.07 3431.64 63.34 1.00 127.82 1915.77
   00:41:31.329.18-Apr-2020 2932.07 3431.64 63.34 1.00 128.02 1915.77
   00:41:31.529.18-Apr-2020 2932.07 3431.65 63.34 1.00 128.22 1915.77
   00:41:31.729.18-Apr-2020 2932.07 3431.63 63.34 1.00 128.42 1915.77
   00:41:31.929.18-Apr-2020 2932.07 3431.60 63.34 1.00 128.62 1915.77
   00:41:32.129.18-Apr-2020 2932.07 3431.63 63.34 1.00 128.82 1915.77
   00:41:32.329.18-Apr-2020 2932.07 3431.60 63.34 1.00 129.02 1915.77
   00:41:32.529.18-Apr-2020 2932.07 3431.60 63.34 1.00 129.22 1915.77
   00:41:32.729.18-Apr-2020 2932.07 3431.60 63.34 1.00 129.42 1915.77
   00:41:32.929.18-Apr-2020 2932.07 3431.61 63.34 1.00 129.62 1915.77
   00:41:33.129.18-Apr-2020 2932.07 3431.61 63.34 1.00 129.82 1915.77
   00:41:33.329.18-Apr-2020 2932.07 3431.60 63.34 1.00 130.02 1915.77
   00:41:33.529.18-Apr-2020 2932.07 3431.60 63.34 1.00 130.22 1915.77
   00:41:33.729.18-Apr-2020 2932.07 3431.61 63.34 1.00 130.42 1915.77
   00:41:33.929.18-Apr-2020 2932.07 3431.61 63.34 1.00 130.62 1915.77
   00:41:34.129.18-Apr-2020 2932.07 3431.61 63.34 1.00 130.82 1915.77
   00:41:34.329.18-Apr-2020 2932.07 3431.60 63.34 1.00 131.02 1915.77
   00:41:34.530.18-Apr-2020 2932.07 3431.60 63.34 1.00 131.22 1915.77
   00:41:34.730.18-Apr-2020 2932.07 3431.59 63.34 1.00 131.42 1915.77
   00:41:34.930.18-Apr-2020 2932.07 3431.57 63.34 1.00 131.62 1915.77
   00:41:35.130.18-Apr-2020 2932.07 3431.61 63.34 1.00 131.82 1915.77
   00:41:35.330.18-Apr-2020 2932.07 3431.61 63.34 1.00 132.02 1915.77
   00:41:35.530.18-Apr-2020 2932.07 3431.61 63.34 1.00 132.22 1915.77
   00:41:35.730.18-Apr-2020 2932.07 3431.56 63.34 1.00 132.42 1915.77
   00:41:35.930.18-Apr-2020 2932.07 3431.59 63.34 1.00 132.62 1915.77
   00:41:36.130.18-Apr-2020 2932.07 3431.61 63.34 1.00 132.82 1915.77
   00:41:36.330.18-Apr-2020 2932.07 3431.56 63.34 1.00 133.02 1915.77
   00:41:36.530.18-Apr-2020 2932.07 3431.57 63.34 1.00 133.22 1915.77
   00:41:36.730.18-Apr-2020 2932.07 3431.54 63.34 1.00 133.42 1915.77
   00:41:36.930.18-Apr-2020 2932.07 3431.58 63.34 1.00 133.62 1915.77
   00:41:37.130.18-Apr-2020 2932.07 3431.56 63.33 1.00 133.82 1915.77
   00:41:37.330.18-Apr-2020 2932.07 3431.56 63.33 1.00 134.02 1915.77
   00:41:37.530.18-Apr-2020 2932.07 3431.56 63.33 1.00 134.22 1915.77
   00:41:37.730.18-Apr-2020 2932.07 3431.54 63.33 1.00 134.42 1915.77
   00:41:37.930.18-Apr-2020 2932.07 3431.54 63.33 1.00 134.62 1915.77
   00:41:38.130.18-Apr-2020 2932.07 3431.60 63.33 1.00 134.82 1915.77
   00:41:38.330.18-Apr-2020 2932.07 3431.56 63.33 1.00 135.02 1915.77
   00:41:38.530.18-Apr-2020 2932.07 3431.56 63.33 1.00 135.22 1915.77
   00:41:38.730.18-Apr-2020 2932.07 3431.53 63.33 1.00 135.42 1915.77
   00:41:38.930.18-Apr-2020 2932.07 3431.54 63.33 1.00 135.62 1915.77
   00:41:39.130.18-Apr-2020 2932.07 3431.54 63.33 1.00 135.82 1915.77
   00:41:39.330.18-Apr-2020 2932.07 3431.55 63.33 1.00 136.02 1915.77
   00:41:39.530.18-Apr-2020 2932.07 3431.54 63.33 1.00 136.22 1915.77
   00:41:39.730.18-Apr-2020 2932.07 3431.55 63.33 1.00 136.42 1915.77
   00:41:39.930.18-Apr-2020 2932.07 3431.54 63.33 1.00 136.62 1915.77
   00:41:40.130.18-Apr-2020 2932.07 3431.53 63.33 1.00 136.82 1915.77
   00:41:40.330.18-Apr-2020 2932.07 3431.54 63.33 1.00 137.02 1915.77
   00:41:40.530.18-Apr-2020 2932.07 3431.55 63.33 1.00 137.22 1915.77
   00:41:40.731.18-Apr-2020 2932.07 3431.55 63.33 1.00 137.42 1915.77
   00:41:40.931.18-Apr-2020 2932.07 3431.56 63.33 1.00 137.62 1915.77
   00:41:41.131.18-Apr-2020 2932.07 3431.56 63.33 1.00 137.82 1915.77
