~Version Information
 VERS.                  2.0:   CWLS log ASCII Standard -VERSION 2.0
 WRAP.                   NO:   One line per depth step
~Well Information Block
#MNEM.UNIT     VALUE/NAME     DESCRIPTION
#---------     -----------    ---------------------------
 STRT.S             00:39:23 18-Apr-20: START TIME 00:39:23 18-Apr-20
 STOP.S             00:46:19 18-Apr-20: STOP TIME  00:46:19 18-Apr-20
 STEP.S                   0.00: STEP TIME
 NULL.                 -999.25: NULL VALUE
 DFWT.                        :  DIST FWL TEXT
 DFST.                        :  DIST FSL TEXT
 DMF .                        :  DRILL MEAS FROM
 STIM.      16.29.52 23-Mar-20:  START TIME
 DATE.      16.29.52 23-Mar-20:  END TIME
 SPUD.               23-Mar-20:  SPUD DATE
 NREF.                    Grid:  NORTH REFERENCE
 HPTY.       Minimum Curvature:  HOLE POS TYPE
 DMOD.             Drill Model:  DRILL MOD DESC
 SVYD.                  Survey:  SURVEY DESC
 ILTD.               Lithology:  INTERP LTH DESC
 FTOP.          Formation Tops:  FORM TOPS DESC
 SON .        AZ-XX-0906252240:  JOB NUMBER
 RIG .             West Chirag:  RIG NAME
 PDAT.          Mean Sea Level:  PERMANENT DATUM
 FLD .                     ACG:  FIELD NAME
 CTRY.              Azerbaijan:  COUNTRY NAME
 WELL.           J23 (Slot 07):  WELL NAME
 SRVC.          Turan Drilling:  CONTRACTOR
 COMP.     BP Exploration (Casoian Sea) Ltd:  COMPANY
 WTYP.                Deviated:  WELL TYPE
 MDS .        Operator Entered:  MAG DATA SOURCE
 UWI .                     N/A:  UNIQUE WELL IDENTIFIER
 API .                     N/A:  API NUMBER
 BASE.              Azerbaijan:  LOGGING EQUIPMENT BASE LOCATION
 REGN.                   EESSA:  REGION
 PROV.                    Baku:  PROVINCE
 STAT.                    Baku:  STATE NAME
 MWDS.                     N/A:  MWD SHOP
 JOBN.        AZ-XX-0906252240:  JOB TICKET NUMB
 DOE .                     N/A:  DOE NUMBER
 DCON.         Sperry Drilling:  DIRECTNL CONTR
 UNIT.                     N/A:  LOGGING EQUIPMENT ID
 CNTY.                        :  COUNTY
 LOC .                        :  LOCATION
 LMF .             Drill Floor:  LOG MEASURED FROM
 TVDS.m                  43.00:  TVDSS CORRECTN
 LATI.deg                40.13:  LATITUDE
 LONG.deg                51.22:  LONGITUDE
 WHNS.m                   9.43:  WELL HEAD N/S
 WHEW.m                  -8.91:  WELL HEAD E/W
 UTMX.m              519005.06:  UTM X
 UTMY.m             4443793.85:  UTM Y
 DFWL.m                   0.00:  DISTANCE FWL
 DFSL.m                   0.00:  DISTANCE FSL
 SDEP.m                   0.00:  START DEPTH
 TDD .m                   0.00:  TOTAL DEPTH (DRILLER)
 VSDR.deg               179.88:  VERT SEC DIRECT
 GVFD.g                   1.00:  GRAVITY FIELD
 MFLD.nT              50281.00:  MAGNETIC FIELD
 MDIP.deg                59.58:  MAGNETIC DIP
 MDEC.deg                 6.48:  MAGNETIC DECL
 GRDC.deg                 0.14:  GRID CORRECTION
 AZTC.deg                 6.34:  AZM TOTAL CORR
 EPD .m                   0.00:  ELEVATION
 EGL .m                   0.00:  GROUND ELEVATION
 WDMS.m                 169.80:  WD ELEV
 APD .m                  43.00:  DEPTH ABOVE PD
 DEP .m                 354.17:  DEPTH
 AGAP.m                  43.00:  AIR GAP
 VSEW.m                  -8.91:  VERT SEC E/W
 VSNS.m                   9.43:  VERT SEC N/S
 EKB .m                   0.00:  KB ELEVATION
 EDF .m                  43.00:  DF ELEVATION
 TDL .m                1326.00:  TOTAL DEPTH (LOGGER)
 VSC .                       0:  VS TO CLOSURE
 MAGU.                 1850704:  MAGUTM CHECKSUM
~Parameter Information Block
#MNEM.UNIT       Value        Description
#---------     -----------    ---------------------------
 AV  .mps                 1.17:  Ann Velocity 
 AZIF.deg               184.04:  Azm, Final 
 BHAT.        Rotary Steerable:  BHA Type 
 BREV.rev            620000.00:  Rev Bit Total 
 BROT.°/30m               0.20:  Build Rotating 
 BS  .in                 14.75:  Bit Size 
 BSZ .in                 14.75:  Bit Size 
 BTPL.psig              618.00:  Bit Press Loss 
 CABU.                      No:  Customer Abuse 
 COMM.                     TŠT:  Run Comments 1 
 TCS .hr                 87.68:  Time Ciculation Ended 
 CV  .mps                 3.10:  Crit Velocity 
 DD1 .          Rashad Habibov:  Direct Drillr 1 
 DD2 .         Rasim Ibrahimov:  Direct Drillr 2 
 DDSV.               Geo-Pilot:  DD Service 
 DEFF.%                  98.00:  % Det Eff 
 DLRX.°/30m               1.48:  Dogleg Rot Max 
 DLSO.°/30m               0.50:  Dogleg Oriented 
 DLSX.°/30m               1.48:  Dogleg Str Max 
 DRET.      06.18.56 19-Apr-20:  Drill End Time 
 DRST.      15.00.56 15-Apr-20:  Drill Start Tim 
 DTIM.hr                 51.73:  Time Drilling 
 EDEP.m                3410.01:  End Depth 
 ENG1.        Marcelo Sandoval:  Engineer 1 
 ENG2.        Davud Huseynzade:  Engineer 2 
 ENG3.          Ruslan Safarov:  Engineer 3 
 ETIM.      04.00.56 20-Apr-20:  End Time 
 FLOI.gpm              1000.00:  Flow In 
 FLON.gpm               600.00:  Flow In Min 
 FLOS.cptm                0.00:  Fluid Loss 
 FLOX.gpm              1200.00:  Flow In Max 
 HFLO.                      No:  High Flow 
 HPRE.                     Yes:  High Pressure 
 HTEM.                      No:  High Temp 
 HYDO.m                   1.80:  Hydro Offset 
 IFIN.deg                70.04:  Inc, Final 
 IMAX.deg                70.56:  Inc Max 
 IMIN.deg                69.85:  Inc Min 
 IMND.m                3103.24:  Inc Min Depth 
 IMXD.m                2876.63:  Inc Max Depth 
 JARR.                      No:  Jarring 
 LETM.      06.18.56 19-Apr-20:  Log End Time 
 LOST.hr                     0:  Lost Rig Time 
 LSTM.      15.00.56 15-Apr-20:  Log Start Time 
 MDCL.ppm             42000.00:  Mud Chlorides 
 MDES.     Inversion Oil/Synthetic:  Mud Desc 
 DFD .sg                  1.58:  Mud Density 
 MDMN.sg                  1.58:  Dens Mud Min 
 MDMX.sg                  1.58:  Dens Mud Max 
 MOIL.                      71:  Run Mud Oil % 
 MOWR.                   71:29:  Run Mud OWR 
 MSND.                       0:  Run Mud Sand % 
 MSOL.                    23.3:  Run Mud Solids% 
 DFV .spqt               84.00:  Mud Viscosity 
 MWOD.in                  9.50:  MWD Tool OD 
 MWSI.                      No:  Serv Intrp, MWD 
 OTIM.hr                139.62:  Time Operating 
 PMAX.psia             5364.69:  Press Op, Max 
 PV  .cP                 80.00:  Mud PV 
 RUN .                     700:  Run Number 
 ROPA.m/hr               25.00:  ROP Avg 
 ROPN.m/hr               11.00:  ROP Min 
 ROPX.m/hr               36.00:  ROP Max 
 RPMA.rpm               130.00:  RPM Surface Avg 
 RPMN.rpm               120.00:  RPM Surface Min 
 RPMX.rpm               140.00:  RPM Surface Max 
 RRUN.                    0700:  Rig Run Number 
 SAZI.deg               183.25:  Azm, Start 
 SDEP.m                2084.00:  Start Depth 
 SIDD.                      No:  Serv Intrp, DD 
 SINC.deg                70.38:  Inc, Start 
 SPPA.psig             4800.00:  SPP Avg 
 SPPN.psig             4400.00:  SPP Min 
 SPPX.psig             5350.00:  SPP Max 
 STIM.      16.30.56 14-Apr-20:  Start Time 
 SVCS.                 DD, MWD:  Services 
 SVER.                    9.20:  Sperry Version 
 TDAT.m                1326.00:  Tot Depth Attmp 
 TDDF.                      No:  Trip for DD 
 TDLG.m                1326.00:  Tot Depth Loggd 
 TFF .                      No:  Trip for Fail 
 TQAA.f-kp               19.00:  Torque Abs Avg 
 TQAN.f-kp                8.00:  Torque Abs Min 
 TQAX.f-kp               27.00:  Torque Abs Max 
 TRRT.°/30m               0.50:  Turn Rotating 
 MRT .                    HCIM:  Maximum Recorded Temperature 
 TTMX.degC               82.35:  Max Tool Temp 
 VS01.       905245875X1Z1W1C8:  Virtual Str1 SN 
 VS02.       90608022F11V7D1A9:  Virtual Str2 SN 
 VS03.            90605473R5C9:  Virtual Str3 SN 
 WBMN.klb                11.00:  WOB Min 
 WOBA.klb                21.00:  WOB Avg 
 WOBX.klb                30.00:  WOB Max 
 YP  .lhf2               45.00:  Yield Point 
~Curve Information Block
#MNEM.UNIT                 API CODE     Curve Description
#---------               -----------    ---------------------------
 TIME.HHMMSS            00 000 000 000:  GT Time & Date
 GTDEPTH.m              00 000 000 000:  GT Depth
 GTPQH.psia             00 000 000 000:  GT HR Quartz Pressure
 GTTQ.degC              00 000 000 000:  GT Quartz Temperature
 GTTN.NONE              00 000 000 000:  GT Test Number
 GTET.sec               00 000 000 000:  GT Elapsed Test Time
 GTTVD.m                00 000 000 000:  GT True Vertical Depth
#Other Information
#
#WARRANTY: Halliburton will use its best efforts to furnish customers with 
#accurate information and interpretations that are part of, and incident to, the services 
#provided.  However, Halliburton cannot and does not warrant the accuracy 
#or correctness of such information and interpretations.  Under no circumstances should any 
#such information or interpretation be relied upon as the sole basis for any drilling, 
#completion, production, or financial decision or any procedure involving any risk to the 
#safety of any drilling venture, drilling rig or its crew or any other third party.  The 
#Customer has full responsibility for all drilling, completion and production operation.  
#Halliburton makes no representations or warranties, either expressed or 
#implied, including, but not limited to, the implied warranties of merchantability or fitness 
#for a particular purpose, with respect to the services rendered.  In no event will 
#Halliburton be liable for failure to obtain any particular results or for 
#any damages, including, but not limited to, indirect, special or consequential damages, 
#resulting from the use of any information or interpretation provided by Halliburton.
#
~A           TIME           GTDEPTH  GTPQH  GTTQ  GTTN  GTET   GTTVD  
# ...
   00:43:36.349.18-Apr-2020 2932.07 3431.35 63.12 1.00 253.04 1915.77
   00:43:36.549.18-Apr-2020 2932.07 3431.35 63.12 1.00 253.24 1915.77
   00:43:36.749.18-Apr-2020 2932.07 3431.34 63.12 1.00 253.44 1915.77
   00:43:36.949.18-Apr-2020 2932.07 3431.35 63.12 1.00 253.64 1915.77
   00:43:37.149.18-Apr-2020 2932.07 3431.35 63.12 1.00 253.84 1915.77
   00:43:37.349.18-Apr-2020 2932.07 3431.35 63.12 1.00 254.04 1915.77
   00:43:37.549.18-Apr-2020 2932.07 3431.35 63.12 1.00 254.24 1915.77
   00:43:37.749.18-Apr-2020 2932.07 3431.33 63.12 1.00 254.44 1915.77
   00:43:37.949.18-Apr-2020 2932.07 3431.35 63.12 1.00 254.64 1915.77
   00:43:38.150.18-Apr-2020 2932.07 3431.35 63.12 1.00 254.84 1915.77
   00:43:38.350.18-Apr-2020 2932.07 3431.35 63.12 1.00 255.04 1915.77
   00:43:38.550.18-Apr-2020 2932.07 3431.35 63.12 1.00 255.24 1915.77
   00:43:38.750.18-Apr-2020 2932.07 3431.35 63.12 1.00 255.44 1915.77
   00:43:38.950.18-Apr-2020 2932.07 3431.34 63.12 1.00 255.64 1915.77
   00:43:39.150.18-Apr-2020 2932.07 3431.34 63.12 1.00 255.84 1915.77
   00:43:39.350.18-Apr-2020 2932.07 3431.34 63.12 1.00 256.04 1915.77
   00:43:39.550.18-Apr-2020 2932.07 3431.34 63.12 1.00 256.24 1915.77
   00:43:39.750.18-Apr-2020 2932.07 3431.33 63.12 1.00 256.44 1915.77
   00:43:39.950.18-Apr-2020 2932.07 3431.33 63.12 1.00 256.64 1915.77
   00:43:40.150.18-Apr-2020 2932.07 3431.35 63.12 1.00 256.84 1915.77
   00:43:40.350.18-Apr-2020 2932.07 3431.34 63.12 1.00 257.04 1915.77
   00:43:40.550.18-Apr-2020 2932.07 3431.34 63.12 1.00 257.24 1915.77
   00:43:40.750.18-Apr-2020 2932.07 3431.32 63.12 1.00 257.44 1915.77
   00:43:40.950.18-Apr-2020 2932.07 3431.35 63.12 1.00 257.64 1915.77
   00:43:41.150.18-Apr-2020 2932.07 3431.35 63.12 1.00 257.84 1915.77
   00:43:41.350.18-Apr-2020 2932.07 3431.34 63.12 1.00 258.04 1915.77
   00:43:41.550.18-Apr-2020 2932.07 3431.34 63.12 1.00 258.24 1915.77
   00:43:41.750.18-Apr-2020 2932.07 3431.33 63.11 1.00 258.44 1915.77
   00:43:41.950.18-Apr-2020 2932.07 3431.33 63.11 1.00 258.64 1915.77
   00:43:42.150.18-Apr-2020 2932.07 3431.33 63.11 1.00 258.84 1915.77
   00:43:42.350.18-Apr-2020 2932.07 3431.33 63.11 1.00 259.04 1915.77
   00:43:42.550.18-Apr-2020 2932.07 3431.33 63.11 1.00 259.24 1915.77
   00:43:42.750.18-Apr-2020 2932.07 3431.32 63.11 1.00 259.44 1915.77
   00:43:42.950.18-Apr-2020 2932.07 3431.33 63.11 1.00 259.64 1915.77
   00:43:43.150.18-Apr-2020 2932.07 3431.33 63.11 1.00 259.84 1915.77
   00:43:43.350.18-Apr-2020 2932.07 3431.32 63.11 1.00 260.04 1915.77
   00:43:43.550.18-Apr-2020 2932.07 3431.35 63.11 1.00 260.24 1915.77
   00:43:43.750.18-Apr-2020 2932.07 3431.33 63.11 1.00 260.44 1915.77
   00:43:43.950.18-Apr-2020 2932.07 3431.34 63.11 1.00 260.64 1915.77
   00:43:44.150.18-Apr-2020 2932.07 3431.34 63.11 1.00 260.84 1915.77
   00:43:44.351.18-Apr-2020 2932.07 3431.33 63.11 1.00 261.04 1915.77
   00:43:44.551.18-Apr-2020 2932.07 3431.35 63.11 1.00 261.24 1915.77
   00:43:44.751.18-Apr-2020 2932.07 3431.34 63.11 1.00 261.44 1915.77
   00:43:44.951.18-Apr-2020 2932.07 3431.36 63.11 1.00 261.64 1915.77
   00:43:45.151.18-Apr-2020 2932.07 3431.35 63.11 1.00 261.84 1915.77
   00:43:45.351.18-Apr-2020 2932.07 3431.35 63.11 1.00 262.04 1915.77
   00:43:45.551.18-Apr-2020 2932.07 3431.35 63.11 1.00 262.24 1915.77
   00:43:45.751.18-Apr-2020 2932.07 3431.34 63.11 1.00 262.44 1915.77
   00:43:45.951.18-Apr-2020 2932.07 3431.33 63.11 1.00 262.64 1915.77
   00:43:46.151.18-Apr-2020 2932.07 3431.35 63.11 1.00 262.84 1915.77
   00:43:46.351.18-Apr-2020 2932.07 3431.32 63.11 1.00 263.04 1915.77
   00:43:46.551.18-Apr-2020 2932.07 3431.32 63.11 1.00 263.24 1915.77
   00:43:46.751.18-Apr-2020 2932.07 3431.34 63.11 1.00 263.44 1915.77
   00:43:46.951.18-Apr-2020 2932.07 3431.32 63.11 1.00 263.64 1915.77
   00:43:47.151.18-Apr-2020 2932.07 3431.33 63.11 1.00 263.84 1915.77
   00:43:47.351.18-Apr-2020 2932.07 3431.35 63.10 1.00 264.04 1915.77
   00:43:47.551.18-Apr-2020 2932.07 3431.35 63.10 1.00 264.24 1915.77
   00:43:47.751.18-Apr-2020 2932.07 3431.32 63.10 1.00 264.44 1915.77
   00:43:47.951.18-Apr-2020 2932.07 3431.33 63.10 1.00 264.64 1915.77
   00:43:48.151.18-Apr-2020 2932.07 3431.33 63.10 1.00 264.84 1915.77
   00:43:48.351.18-Apr-2020 2932.07 3431.32 63.10 1.00 265.04 1915.77
   00:43:48.551.18-Apr-2020 2932.07 3431.32 63.10 1.00 265.24 1915.77
   00:43:48.751.18-Apr-2020 2932.07 3431.33 63.10 1.00 265.44 1915.77
   00:43:48.951.18-Apr-2020 2932.07 3431.33 63.10 1.00 265.64 1915.77
   00:43:49.151.18-Apr-2020 2932.07 3431.32 63.10 1.00 265.84 1915.77
   00:43:49.351.18-Apr-2020 2932.07 3431.32 63.10 1.00 266.04 1915.77
   00:43:49.551.18-Apr-2020 2932.07 3431.32 63.10 1.00 266.24 1915.77
   00:43:49.751.18-Apr-2020 2932.07 3431.32 63.10 1.00 266.44 1915.77
   00:43:49.951.18-Apr-2020 2932.07 3431.30 63.10 1.00 266.64 1915.77
   00:43:50.151.18-Apr-2020 2932.07 3431.34 63.10 1.00 266.84 1915.77
   00:43:50.351.18-Apr-2020 2932.07 3431.33 63.10 1.00 267.04 1915.77
   00:43:50.552.18-Apr-2020 2932.07 3431.33 63.10 1.00 267.24 1915.77
   00:43:50.752.18-Apr-2020 2932.07 3431.33 63.10 1.00 267.44 1915.77
   00:43:50.952.18-Apr-2020 2932.07 3431.33 63.10 1.00 267.64 1915.77
   00:43:51.152.18-Apr-2020 2932.07 3431.33 63.10 1.00 267.84 1915.77
   00:43:51.352.18-Apr-2020 2932.07 3431.33 63.10 1.00 268.04 1915.77
   00:43:51.552.18-Apr-2020 2932.07 3431.34 63.10 1.00 268.24 1915.77
   00:43:51.752.18-Apr-2020 2932.07 3431.33 63.10 1.00 268.44 1915.77
   00:43:51.952.18-Apr-2020 2932.07 3431.33 63.10 1.00 268.64 1915.77
   00:43:52.152.18-Apr-2020 2932.07 3431.32 63.10 1.00 268.84 1915.77
   00:43:52.352.18-Apr-2020 2932.07 3431.32 63.10 1.00 269.04 1915.77
   00:43:52.552.18-Apr-2020 2932.07 3431.32 63.10 1.00 269.24 1915.77
   00:43:52.752.18-Apr-2020 2932.07 3431.33 63.09 1.00 269.44 1915.77
   00:43:52.952.18-Apr-2020 2932.07 3431.33 63.09 1.00 269.64 1915.77
   00:43:53.152.18-Apr-2020 2932.07 3431.32 63.09 1.00 269.84 1915.77
   00:43:53.352.18-Apr-2020 2932.07 3431.32 63.09 1.00 270.04 1915.77
   00:43:53.552.18-Apr-2020 2932.07 3431.34 63.09 1.00 270.24 1915.77
   00:43:53.752.18-Apr-2020 2932.07 3431.31 63.09 1.00 270.44 1915.77
   00:43:53.952.18-Apr-2020 2932.07 3431.31 63.09 1.00 270.64 1915.77
   00:43:54.152.18-Apr-2020 2932.07 3431.33 63.09 1.00 270.84 1915.77
   00:43:54.352.18-Apr-2020 2932.07 3431.32 63.09 1.00 271.04 1915.77
   00:43:54.552.18-Apr-2020 2932.07 3431.32 63.09 1.00 271.24 1915.77
   00:43:54.752.18-Apr-2020 2932.07 3431.31 63.09 1.00 271.44 1915.77
   00:43:54.952.18-Apr-2020 2932.07 3431.33 63.09 1.00 271.64 1915.77
   00:43:55.152.18-Apr-2020 2932.07 3431.30 63.09 1.00 271.84 1915.77
   00:43:55.352.18-Apr-2020 2932.07 3431.33 63.09 1.00 272.04 1915.77
   00:43:55.552.18-Apr-2020 2932.07 3431.33 63.09 1.00 272.24 1915.77
   00:43:55.752.18-Apr-2020 2932.07 3431.32 63.09 1.00 272.44 1915.77
   00:43:55.952.18-Apr-2020 2932.07 3431.32 63.09 1.00 272.64 1915.77
   00:43:56.152.18-Apr-2020 2932.07 3431.32 63.09 1.00 272.84 1915.77
   00:43:56.352.18-Apr-2020 2932.07 3431.30 63.09 1.00 273.04 1915.77
   00:43:56.552.18-Apr-2020 2932.07 3431.34 63.09 1.00 273.24 1915.77
   00:43:56.753.18-Apr-2020 2932.07 3431.33 63.09 1.00 273.44 1915.77
   00:43:56.953.18-Apr-2020 2932.07 3431.32 63.09 1.00 273.64 1915.77
   00:43:57.153.18-Apr-2020 2932.07 3431.32 63.09 1.00 273.84 1915.77
   00:43:57.353.18-Apr-2020 2932.07 3431.33 63.09 1.00 274.04 1915.77
   00:43:57.553.18-Apr-2020 2932.07 3431.33 63.09 1.00 274.24 1915.77
   00:43:57.753.18-Apr-2020 2932.07 3431.33 63.09 1.00 274.44 1915.77
   00:43:57.953.18-Apr-2020 2932.07 3428.79 63.08 1.00 274.64 1915.77
   00:43:58.153.18-Apr-2020 2932.07 3419.89 63.08 1.00 274.84 1915.77
   00:43:58.353.18-Apr-2020 2932.07 3421.29 63.08 1.00 275.04 1915.77
   00:43:58.553.18-Apr-2020 2932.07 3421.92 63.08 1.00 275.24 1915.77
   00:43:58.753.18-Apr-2020 2932.07 3422.26 63.08 1.00 275.44 1915.77
   00:43:58.953.18-Apr-2020 2932.07 3422.41 63.08 1.00 275.64 1915.77
   00:43:59.153.18-Apr-2020 2932.07 3422.58 63.08 1.00 275.84 1915.77
