~Version Information
 VERS.                  2.0:   CWLS log ASCII Standard -VERSION 2.0
 WRAP.                   NO:   One line per depth step
~Well Information Block
#MNEM.UNIT     VALUE/NAME     DESCRIPTION
#---------     -----------    ---------------------------
 STRT.S             13:35:33 18-Apr-20: START TIME 13:35:33 18-Apr-20
 STOP.S             13:42:31 18-Apr-20: STOP TIME  13:42:31 18-Apr-20
 STEP.S                   0.00: STEP TIME
 NULL.                 -999.25: NULL VALUE
 DFWT.                        :  DIST FWL TEXT
 DFST.                        :  DIST FSL TEXT
 DMF .                        :  DRILL MEAS FROM
 STIM.      16.29.52 23-Mar-20:  START TIME
 DATE.      16.29.52 23-Mar-20:  END TIME
 SPUD.               23-Mar-20:  SPUD DATE
 NREF.                    Grid:  NORTH REFERENCE
 HPTY.       Minimum Curvature:  HOLE POS TYPE
 DMOD.             Drill Model:  DRILL MOD DESC
 SVYD.                  Survey:  SURVEY DESC
 ILTD.               Lithology:  INTERP LTH DESC
 FTOP.          Formation Tops:  FORM TOPS DESC
 SON .        AZ-XX-0906252240:  JOB NUMBER
 RIG .             West Chirag:  RIG NAME
 PDAT.          Mean Sea Level:  PERMANENT DATUM
 FLD .                     ACG:  FIELD NAME
 CTRY.              Azerbaijan:  COUNTRY NAME
 WELL.           J23 (Slot 07):  WELL NAME
 SRVC.          Turan Drilling:  CONTRACTOR
 COMP.     BP Exploration (Casoian Sea) Ltd:  COMPANY
 WTYP.                Deviated:  WELL TYPE
 MDS .        Operator Entered:  MAG DATA SOURCE
 UWI .                     N/A:  UNIQUE WELL IDENTIFIER
 API .                     N/A:  API NUMBER
 BASE.              Azerbaijan:  LOGGING EQUIPMENT BASE LOCATION
 REGN.                   EESSA:  REGION
 PROV.                    Baku:  PROVINCE
 STAT.                    Baku:  STATE NAME
 MWDS.                     N/A:  MWD SHOP
 JOBN.        AZ-XX-0906252240:  JOB TICKET NUMB
 DOE .                     N/A:  DOE NUMBER
 DCON.         Sperry Drilling:  DIRECTNL CONTR
 UNIT.                     N/A:  LOGGING EQUIPMENT ID
 CNTY.                        :  COUNTY
 LOC .                        :  LOCATION
 LMF .             Drill Floor:  LOG MEASURED FROM
 TVDS.m                  43.00:  TVDSS CORRECTN
 LATI.deg                40.13:  LATITUDE
 LONG.deg                51.22:  LONGITUDE
 WHNS.m                   9.43:  WELL HEAD N/S
 WHEW.m                  -8.91:  WELL HEAD E/W
 UTMX.m              519005.06:  UTM X
 UTMY.m             4443793.85:  UTM Y
 DFWL.m                   0.00:  DISTANCE FWL
 DFSL.m                   0.00:  DISTANCE FSL
 SDEP.m                   0.00:  START DEPTH
 TDD .m                   0.00:  TOTAL DEPTH (DRILLER)
 VSDR.deg               179.88:  VERT SEC DIRECT
 GVFD.g                   1.00:  GRAVITY FIELD
 MFLD.nT              50281.00:  MAGNETIC FIELD
 MDIP.deg                59.58:  MAGNETIC DIP
 MDEC.deg                 6.48:  MAGNETIC DECL
 GRDC.deg                 0.14:  GRID CORRECTION
 AZTC.deg                 6.34:  AZM TOTAL CORR
 EPD .m                   0.00:  ELEVATION
 EGL .m                   0.00:  GROUND ELEVATION
 WDMS.m                 169.80:  WD ELEV
 APD .m                  43.00:  DEPTH ABOVE PD
 DEP .m                 354.17:  DEPTH
 AGAP.m                  43.00:  AIR GAP
 VSEW.m                  -8.91:  VERT SEC E/W
 VSNS.m                   9.43:  VERT SEC N/S
 EKB .m                   0.00:  KB ELEVATION
 EDF .m                  43.00:  DF ELEVATION
 TDL .m                1326.00:  TOTAL DEPTH (LOGGER)
 VSC .                       0:  VS TO CLOSURE
 MAGU.                 1850704:  MAGUTM CHECKSUM
~Parameter Information Block
#MNEM.UNIT       Value        Description
#---------     -----------    ---------------------------
 AV  .mps                 1.17:  Ann Velocity 
 AZIF.deg               184.04:  Azm, Final 
 BHAT.        Rotary Steerable:  BHA Type 
 BREV.rev            620000.00:  Rev Bit Total 
 BROT.°/30m               0.20:  Build Rotating 
 BS  .in                 14.75:  Bit Size 
 BSZ .in                 14.75:  Bit Size 
 BTPL.psig              618.00:  Bit Press Loss 
 CABU.                      No:  Customer Abuse 
 COMM.                     ôÎT:  Run Comments 1 
 TCS .hr                 87.68:  Time Ciculation Ended 
 CV  .mps                 3.10:  Crit Velocity 
 DD1 .          Rashad Habibov:  Direct Drillr 1 
 DD2 .         Rasim Ibrahimov:  Direct Drillr 2 
 DDSV.               Geo-Pilot:  DD Service 
 DEFF.%                  98.00:  % Det Eff 
 DLRX.°/30m               1.48:  Dogleg Rot Max 
 DLSO.°/30m               0.50:  Dogleg Oriented 
 DLSX.°/30m               1.48:  Dogleg Str Max 
 DRET.      06.18.56 19-Apr-20:  Drill End Time 
 DRST.      15.00.56 15-Apr-20:  Drill Start Tim 
 DTIM.hr                 51.73:  Time Drilling 
 EDEP.m                3410.01:  End Depth 
 ENG1.        Marcelo Sandoval:  Engineer 1 
 ENG2.        Davud Huseynzade:  Engineer 2 
 ENG3.          Ruslan Safarov:  Engineer 3 
 ETIM.      04.00.56 20-Apr-20:  End Time 
 FLOI.gpm              1000.00:  Flow In 
 FLON.gpm               600.00:  Flow In Min 
 FLOS.cptm                0.00:  Fluid Loss 
 FLOX.gpm              1200.00:  Flow In Max 
 HFLO.                      No:  High Flow 
 HPRE.                     Yes:  High Pressure 
 HTEM.                      No:  High Temp 
 HYDO.m                   1.80:  Hydro Offset 
 IFIN.deg                70.04:  Inc, Final 
 IMAX.deg                70.56:  Inc Max 
 IMIN.deg                69.85:  Inc Min 
 IMND.m                3103.24:  Inc Min Depth 
 IMXD.m                2876.63:  Inc Max Depth 
 JARR.                      No:  Jarring 
 LETM.      06.18.56 19-Apr-20:  Log End Time 
 LOST.hr                     0:  Lost Rig Time 
 LSTM.      15.00.56 15-Apr-20:  Log Start Time 
 MDCL.ppm             42000.00:  Mud Chlorides 
 MDES.     Inversion Oil/Synthetic:  Mud Desc 
 DFD .sg                  1.58:  Mud Density 
 MDMN.sg                  1.58:  Dens Mud Min 
 MDMX.sg                  1.58:  Dens Mud Max 
 MOIL.                      71:  Run Mud Oil % 
 MOWR.                   71:29:  Run Mud OWR 
 MSND.                       0:  Run Mud Sand % 
 MSOL.                    23.3:  Run Mud Solids% 
 DFV .spqt               84.00:  Mud Viscosity 
 MWOD.in                  9.50:  MWD Tool OD 
 MWSI.                      No:  Serv Intrp, MWD 
 OTIM.hr                139.62:  Time Operating 
 PMAX.psia             5364.69:  Press Op, Max 
 PV  .cP                 80.00:  Mud PV 
 RUN .                     700:  Run Number 
 ROPA.m/hr               25.00:  ROP Avg 
 ROPN.m/hr               11.00:  ROP Min 
 ROPX.m/hr               36.00:  ROP Max 
 RPMA.rpm               130.00:  RPM Surface Avg 
 RPMN.rpm               120.00:  RPM Surface Min 
 RPMX.rpm               140.00:  RPM Surface Max 
 RRUN.                    0700:  Rig Run Number 
 SAZI.deg               183.25:  Azm, Start 
 SDEP.m                2084.00:  Start Depth 
 SIDD.                      No:  Serv Intrp, DD 
 SINC.deg                70.38:  Inc, Start 
 SPPA.psig             4800.00:  SPP Avg 
 SPPN.psig             4400.00:  SPP Min 
 SPPX.psig             5350.00:  SPP Max 
 STIM.      16.30.56 14-Apr-20:  Start Time 
 SVCS.                 DD, MWD:  Services 
 SVER.                    9.20:  Sperry Version 
 TDAT.m                1326.00:  Tot Depth Attmp 
 TDDF.                      No:  Trip for DD 
 TDLG.m                1326.00:  Tot Depth Loggd 
 TFF .                      No:  Trip for Fail 
 TQAA.f-kp               19.00:  Torque Abs Avg 
 TQAN.f-kp                8.00:  Torque Abs Min 
 TQAX.f-kp               27.00:  Torque Abs Max 
 TRRT.°/30m               0.50:  Turn Rotating 
 MRT .                    HCIM:  Maximum Recorded Temperature 
 TTMX.degC               82.35:  Max Tool Temp 
 VS01.       905245875X1Z1W1C8:  Virtual Str1 SN 
 VS02.       90608022F11V7D1A9:  Virtual Str2 SN 
 VS03.            90605473R5C9:  Virtual Str3 SN 
 WBMN.klb                11.00:  WOB Min 
 WOBA.klb                21.00:  WOB Avg 
 WOBX.klb                30.00:  WOB Max 
 YP  .lhf2               45.00:  Yield Point 
~Curve Information Block
#MNEM.UNIT                 API CODE     Curve Description
#---------               -----------    ---------------------------
 TIME.HHMMSS            00 000 000 000:  GT Time & Date
 GTDEPTH.m              00 000 000 000:  GT Depth
 GTPQH.psia             00 000 000 000:  GT HR Quartz Pressure
 GTTQ.degC              00 000 000 000:  GT Quartz Temperature
 GTTN.NONE              00 000 000 000:  GT Test Number
 GTET.sec               00 000 000 000:  GT Elapsed Test Time
 GTTVD.m                00 000 000 000:  GT True Vertical Depth
#Other Information
#
#WARRANTY: Halliburton will use its best efforts to furnish customers with 
#accurate information and interpretations that are part of, and incident to, the services 
#provided.  However, Halliburton cannot and does not warrant the accuracy 
#or correctness of such information and interpretations.  Under no circumstances should any 
#such information or interpretation be relied upon as the sole basis for any drilling, 
#completion, production, or financial decision or any procedure involving any risk to the 
#safety of any drilling venture, drilling rig or its crew or any other third party.  The 
#Customer has full responsibility for all drilling, completion and production operation.  
#Halliburton makes no representations or warranties, either expressed or 
#implied, including, but not limited to, the implied warranties of merchantability or fitness 
#for a particular purpose, with respect to the services rendered.  In no event will 
#Halliburton be liable for failure to obtain any particular results or for 
#any damages, including, but not limited to, indirect, special or consequential damages, 
#resulting from the use of any information or interpretation provided by Halliburton.
#
~A           TIME           GTDEPTH  GTPQH  GTTQ  GTTN  GTET   GTTVD  
# ...
   13:39:23.361.18-Apr-2020 3111.02 3318.27 70.11 5.00 230.10 1976.62
   13:39:23.561.18-Apr-2020 3111.02 3318.27 70.11 5.00 230.30 1976.62
   13:39:23.761.18-Apr-2020 3111.02 3318.26 70.11 5.00 230.50 1976.62
   13:39:23.961.18-Apr-2020 3111.02 3318.26 70.11 5.00 230.70 1976.62
   13:39:24.161.18-Apr-2020 3111.02 3318.26 70.11 5.00 230.90 1976.62
   13:39:24.361.18-Apr-2020 3111.02 3318.27 70.10 5.00 231.10 1976.62
   13:39:24.561.18-Apr-2020 3111.02 3318.27 70.10 5.00 231.30 1976.62
   13:39:24.761.18-Apr-2020 3111.02 3318.25 70.10 5.00 231.50 1976.62
   13:39:24.961.18-Apr-2020 3111.02 3318.26 70.10 5.00 231.70 1976.62
   13:39:25.161.18-Apr-2020 3111.02 3318.26 70.10 5.00 231.90 1976.62
   13:39:25.362.18-Apr-2020 3111.02 3318.26 70.10 5.00 232.10 1976.62
   13:39:25.562.18-Apr-2020 3111.02 3318.26 70.10 5.00 232.30 1976.62
   13:39:25.762.18-Apr-2020 3111.02 3318.26 70.10 5.00 232.50 1976.62
   13:39:25.962.18-Apr-2020 3111.02 3318.26 70.10 5.00 232.70 1976.62
   13:39:26.162.18-Apr-2020 3111.02 3318.26 70.09 5.00 232.90 1976.62
   13:39:26.362.18-Apr-2020 3111.02 3318.26 70.09 5.00 233.10 1976.62
   13:39:26.562.18-Apr-2020 3111.02 3318.26 70.09 5.00 233.30 1976.62
   13:39:26.762.18-Apr-2020 3111.02 3318.25 70.09 5.00 233.51 1976.62
   13:39:26.962.18-Apr-2020 3111.02 3318.26 70.09 5.00 233.71 1976.62
   13:39:27.162.18-Apr-2020 3111.02 3318.26 70.09 5.00 233.91 1976.62
   13:39:27.362.18-Apr-2020 3111.02 3318.26 70.09 5.00 234.11 1976.62
   13:39:27.563.18-Apr-2020 3111.02 3318.26 70.09 5.00 234.31 1976.62
   13:39:27.763.18-Apr-2020 3111.02 3318.25 70.09 5.00 234.51 1976.62
   13:39:27.963.18-Apr-2020 3111.02 3318.26 70.09 5.00 234.71 1976.62
   13:39:28.163.18-Apr-2020 3111.02 3318.26 70.08 5.00 234.91 1976.62
   13:39:28.363.18-Apr-2020 3111.02 3318.26 70.08 5.00 235.11 1976.62
   13:39:28.563.18-Apr-2020 3111.02 3318.26 70.08 5.00 235.31 1976.62
   13:39:28.763.18-Apr-2020 3111.02 3318.25 70.08 5.00 235.51 1976.62
   13:39:28.963.18-Apr-2020 3111.02 3318.28 70.08 5.00 235.71 1976.62
   13:39:29.163.18-Apr-2020 3111.02 3318.26 70.08 5.00 235.91 1976.62
   13:39:29.363.18-Apr-2020 3111.02 3318.26 70.08 5.00 236.11 1976.62
   13:39:29.563.18-Apr-2020 3111.02 3318.26 70.08 5.00 236.31 1976.62
   13:39:29.764.18-Apr-2020 3111.02 3318.26 70.08 5.00 236.51 1976.62
   13:39:29.964.18-Apr-2020 3111.02 3318.26 70.07 5.00 236.71 1976.62
   13:39:30.164.18-Apr-2020 3111.02 3318.26 70.07 5.00 236.91 1976.62
   13:39:30.364.18-Apr-2020 3111.02 3318.26 70.07 5.00 237.11 1976.62
   13:39:30.564.18-Apr-2020 3111.02 3318.26 70.07 5.00 237.31 1976.62
   13:39:30.764.18-Apr-2020 3111.02 3318.26 70.07 5.00 237.51 1976.62
   13:39:30.964.18-Apr-2020 3111.02 3318.25 70.07 5.00 237.71 1976.62
   13:39:31.164.18-Apr-2020 3111.02 3318.26 70.07 5.00 237.91 1976.62
   13:39:31.364.18-Apr-2020 3111.02 3318.26 70.07 5.00 238.11 1976.62
   13:39:31.564.18-Apr-2020 3111.02 3318.26 70.07 5.00 238.31 1976.62
   13:39:31.764.18-Apr-2020 3111.02 3318.27 70.07 5.00 238.51 1976.62
   13:39:31.964.18-Apr-2020 3111.02 3318.25 70.06 5.00 238.71 1976.62
   13:39:32.165.18-Apr-2020 3111.02 3318.26 70.06 5.00 238.91 1976.62
   13:39:32.365.18-Apr-2020 3111.02 3318.27 70.06 5.00 239.11 1976.62
   13:39:32.565.18-Apr-2020 3111.02 3318.27 70.06 5.00 239.31 1976.62
   13:39:32.765.18-Apr-2020 3111.02 3318.27 70.06 5.00 239.51 1976.62
   13:39:32.965.18-Apr-2020 3111.02 3318.26 70.06 5.00 239.71 1976.62
   13:39:33.165.18-Apr-2020 3111.02 3318.26 70.06 5.00 239.91 1976.62
   13:39:33.365.18-Apr-2020 3111.02 3318.26 70.06 5.00 240.11 1976.62
   13:39:33.565.18-Apr-2020 3111.02 3318.26 70.06 5.00 240.31 1976.62
   13:39:33.765.18-Apr-2020 3111.02 3318.26 70.05 5.00 240.51 1976.62
   13:39:33.965.18-Apr-2020 3111.02 3318.26 70.05 5.00 240.71 1976.62
   13:39:34.165.18-Apr-2020 3111.02 3318.27 70.05 5.00 240.91 1976.62
   13:39:34.366.18-Apr-2020 3111.02 3318.26 70.05 5.00 241.11 1976.62
   13:39:34.566.18-Apr-2020 3111.02 3318.26 70.05 5.00 241.31 1976.62
   13:39:34.766.18-Apr-2020 3111.02 3318.26 70.05 5.00 241.51 1976.62
   13:39:34.966.18-Apr-2020 3111.02 3318.27 70.05 5.00 241.71 1976.62
   13:39:35.166.18-Apr-2020 3111.02 3318.27 70.05 5.00 241.91 1976.62
   13:39:35.366.18-Apr-2020 3111.02 3318.26 70.05 5.00 242.11 1976.62
   13:39:35.566.18-Apr-2020 3111.02 3318.26 70.05 5.00 242.31 1976.62
   13:39:35.766.18-Apr-2020 3111.02 3318.26 70.04 5.00 242.51 1976.62
   13:39:35.966.18-Apr-2020 3111.02 3318.27 70.04 5.00 242.71 1976.62
   13:39:36.166.18-Apr-2020 3111.02 3318.26 70.04 5.00 242.91 1976.62
   13:39:36.366.18-Apr-2020 3111.02 3318.27 70.04 5.00 243.11 1976.62
   13:39:36.567.18-Apr-2020 3111.02 3318.27 70.04 5.00 243.31 1976.62
   13:39:36.767.18-Apr-2020 3111.02 3318.26 70.04 5.00 243.51 1976.62
   13:39:36.967.18-Apr-2020 3111.02 3318.26 70.04 5.00 243.71 1976.62
   13:39:37.167.18-Apr-2020 3111.02 3318.27 70.04 5.00 243.91 1976.62
   13:39:37.367.18-Apr-2020 3111.02 3318.25 70.04 5.00 244.11 1976.62
   13:39:37.567.18-Apr-2020 3111.02 3318.25 70.04 5.00 244.31 1976.62
   13:39:37.767.18-Apr-2020 3111.02 3318.27 70.03 5.00 244.51 1976.62
   13:39:37.967.18-Apr-2020 3111.02 3318.25 70.03 5.00 244.71 1976.62
   13:39:38.167.18-Apr-2020 3111.02 3318.28 70.03 5.00 244.91 1976.62
   13:39:38.367.18-Apr-2020 3111.02 3318.28 70.03 5.00 245.11 1976.62
   13:39:38.567.18-Apr-2020 3111.02 3318.28 70.03 5.00 245.31 1976.62
   13:39:38.768.18-Apr-2020 3111.02 3318.27 70.03 5.00 245.51 1976.62
   13:39:38.968.18-Apr-2020 3111.02 3318.25 70.03 5.00 245.71 1976.62
   13:39:39.168.18-Apr-2020 3111.02 3318.26 70.03 5.00 245.91 1976.62
   13:39:39.368.18-Apr-2020 3111.02 3318.27 70.02 5.00 246.11 1976.62
   13:39:39.568.18-Apr-2020 3111.02 3318.27 70.02 5.00 246.31 1976.62
   13:39:39.768.18-Apr-2020 3111.02 3318.24 70.02 5.00 246.51 1976.62
   13:39:39.968.18-Apr-2020 3111.02 3318.26 70.02 5.00 246.71 1976.62
   13:39:40.168.18-Apr-2020 3111.02 3318.25 70.02 5.00 246.91 1976.62
   13:39:40.368.18-Apr-2020 3111.02 3318.27 70.02 5.00 247.11 1976.62
   13:39:40.568.18-Apr-2020 3111.02 3318.27 70.02 5.00 247.31 1976.62
   13:39:40.768.18-Apr-2020 3111.02 3318.25 70.02 5.00 247.51 1976.62
   13:39:40.969.18-Apr-2020 3111.02 3318.26 70.02 5.00 247.71 1976.62
   13:39:41.169.18-Apr-2020 3111.02 3318.26 70.02 5.00 247.91 1976.62
   13:39:41.369.18-Apr-2020 3111.02 3318.27 70.01 5.00 248.11 1976.62
   13:39:41.569.18-Apr-2020 3111.02 3318.27 70.01 5.00 248.31 1976.62
   13:39:41.769.18-Apr-2020 3111.02 3318.26 70.01 5.00 248.51 1976.62
   13:39:41.969.18-Apr-2020 3111.02 3318.27 70.01 5.00 248.71 1976.62
   13:39:42.169.18-Apr-2020 3111.02 3318.27 70.01 5.00 248.91 1976.62
   13:39:42.369.18-Apr-2020 3111.02 3318.26 70.01 5.00 249.11 1976.62
   13:39:42.569.18-Apr-2020 3111.02 3318.26 70.01 5.00 249.31 1976.62
   13:39:42.769.18-Apr-2020 3111.02 3318.27 70.01 5.00 249.51 1976.62
   13:39:42.969.18-Apr-2020 3111.02 3318.27 70.01 5.00 249.71 1976.62
   13:39:43.170.18-Apr-2020 3111.02 3318.27 70.00 5.00 249.91 1976.62
   13:39:43.370.18-Apr-2020 3111.02 3318.26 70.00 5.00 250.11 1976.62
   13:39:43.570.18-Apr-2020 3111.02 3318.26 70.00 5.00 250.31 1976.62
   13:39:43.770.18-Apr-2020 3111.02 3318.27 70.00 5.00 250.51 1976.62
   13:39:43.970.18-Apr-2020 3111.02 3318.27 70.00 5.00 250.71 1976.62
   13:39:44.170.18-Apr-2020 3111.02 3318.28 70.00 5.00 250.91 1976.62
   13:39:44.370.18-Apr-2020 3111.02 3318.27 70.00 5.00 251.11 1976.62
   13:39:44.570.18-Apr-2020 3111.02 3318.27 70.00 5.00 251.31 1976.62
   13:39:44.770.18-Apr-2020 3111.02 3318.26 70.00 5.00 251.51 1976.62
   13:39:44.970.18-Apr-2020 3111.02 3318.27 70.00 5.00 251.71 1976.62
   13:39:45.170.18-Apr-2020 3111.02 3318.25 69.99 5.00 251.91 1976.62
   13:39:45.371.18-Apr-2020 3111.02 3318.25 69.99 5.00 252.11 1976.62
   13:39:45.571.18-Apr-2020 3111.02 3318.25 69.99 5.00 252.31 1976.62
   13:39:45.771.18-Apr-2020 3111.02 3318.25 69.99 5.00 252.51 1976.62
   13:39:45.971.18-Apr-2020 3111.02 3318.26 69.99 5.00 252.71 1976.62
   13:39:46.171.18-Apr-2020 3111.02 3318.25 69.99 5.00 252.91 1976.62
