~Version Information
 VERS.                  2.0:   CWLS log ASCII Standard -VERSION 2.0
 WRAP.                   NO:   One line per depth step
~Well Information Block
#MNEM.UNIT     VALUE/NAME     DESCRIPTION
#---------     -----------    ---------------------------
 STRT.S             07:07:08 18-Apr-20: START TIME 07:07:08 18-Apr-20
 STOP.S             07:14:03 18-Apr-20: STOP TIME  07:14:03 18-Apr-20
 STEP.S                   0.00: STEP TIME
 NULL.                 -999.25: NULL VALUE
 DFWT.                        :  DIST FWL TEXT
 DFST.                        :  DIST FSL TEXT
 DMF .                        :  DRILL MEAS FROM
 STIM.      16.29.52 23-Mar-20:  START TIME
 DATE.      16.29.52 23-Mar-20:  END TIME
 SPUD.               23-Mar-20:  SPUD DATE
 NREF.                    Grid:  NORTH REFERENCE
 HPTY.       Minimum Curvature:  HOLE POS TYPE
 DMOD.             Drill Model:  DRILL MOD DESC
 SVYD.                  Survey:  SURVEY DESC
 ILTD.               Lithology:  INTERP LTH DESC
 FTOP.          Formation Tops:  FORM TOPS DESC
 SON .        AZ-XX-0906252240:  JOB NUMBER
 RIG .             West Chirag:  RIG NAME
 PDAT.          Mean Sea Level:  PERMANENT DATUM
 FLD .                     ACG:  FIELD NAME
 CTRY.              Azerbaijan:  COUNTRY NAME
 WELL.           J23 (Slot 07):  WELL NAME
 SRVC.          Turan Drilling:  CONTRACTOR
 COMP.     BP Exploration (Casoian Sea) Ltd:  COMPANY
 WTYP.                Deviated:  WELL TYPE
 MDS .        Operator Entered:  MAG DATA SOURCE
 UWI .                     N/A:  UNIQUE WELL IDENTIFIER
 API .                     N/A:  API NUMBER
 BASE.              Azerbaijan:  LOGGING EQUIPMENT BASE LOCATION
 REGN.                   EESSA:  REGION
 PROV.                    Baku:  PROVINCE
 STAT.                    Baku:  STATE NAME
 MWDS.                     N/A:  MWD SHOP
 JOBN.        AZ-XX-0906252240:  JOB TICKET NUMB
 DOE .                     N/A:  DOE NUMBER
 DCON.         Sperry Drilling:  DIRECTNL CONTR
 UNIT.                     N/A:  LOGGING EQUIPMENT ID
 CNTY.                        :  COUNTY
 LOC .                        :  LOCATION
 LMF .             Drill Floor:  LOG MEASURED FROM
 TVDS.m                  43.00:  TVDSS CORRECTN
 LATI.deg                40.13:  LATITUDE
 LONG.deg                51.22:  LONGITUDE
 WHNS.m                   9.43:  WELL HEAD N/S
 WHEW.m                  -8.91:  WELL HEAD E/W
 UTMX.m              519005.06:  UTM X
 UTMY.m             4443793.85:  UTM Y
 DFWL.m                   0.00:  DISTANCE FWL
 DFSL.m                   0.00:  DISTANCE FSL
 SDEP.m                   0.00:  START DEPTH
 TDD .m                   0.00:  TOTAL DEPTH (DRILLER)
 VSDR.deg               179.88:  VERT SEC DIRECT
 GVFD.g                   1.00:  GRAVITY FIELD
 MFLD.nT              50281.00:  MAGNETIC FIELD
 MDIP.deg                59.58:  MAGNETIC DIP
 MDEC.deg                 6.48:  MAGNETIC DECL
 GRDC.deg                 0.14:  GRID CORRECTION
 AZTC.deg                 6.34:  AZM TOTAL CORR
 EPD .m                   0.00:  ELEVATION
 EGL .m                   0.00:  GROUND ELEVATION
 WDMS.m                 169.80:  WD ELEV
 APD .m                  43.00:  DEPTH ABOVE PD
 DEP .m                 354.17:  DEPTH
 AGAP.m                  43.00:  AIR GAP
 VSEW.m                  -8.91:  VERT SEC E/W
 VSNS.m                   9.43:  VERT SEC N/S
 EKB .m                   0.00:  KB ELEVATION
 EDF .m                  43.00:  DF ELEVATION
 TDL .m                1326.00:  TOTAL DEPTH (LOGGER)
 VSC .                       0:  VS TO CLOSURE
 MAGU.                 1850704:  MAGUTM CHECKSUM
~Parameter Information Block
#MNEM.UNIT       Value        Description
#---------     -----------    ---------------------------
 AV  .mps                 1.17:  Ann Velocity 
 AZIF.deg               184.04:  Azm, Final 
 BHAT.        Rotary Steerable:  BHA Type 
 BREV.rev            620000.00:  Rev Bit Total 
 BROT.°/30m               0.20:  Build Rotating 
 BS  .in                 14.75:  Bit Size 
 BSZ .in                 14.75:  Bit Size 
 BTPL.psig              618.00:  Bit Press Loss 
 CABU.                      No:  Customer Abuse 
 COMM.                     îb:  Run Comments 1 
 TCS .hr                 87.68:  Time Ciculation Ended 
 CV  .mps                 3.10:  Crit Velocity 
 DD1 .          Rashad Habibov:  Direct Drillr 1 
 DD2 .         Rasim Ibrahimov:  Direct Drillr 2 
 DDSV.               Geo-Pilot:  DD Service 
 DEFF.%                  98.00:  % Det Eff 
 DLRX.°/30m               1.48:  Dogleg Rot Max 
 DLSO.°/30m               0.50:  Dogleg Oriented 
 DLSX.°/30m               1.48:  Dogleg Str Max 
 DRET.      06.18.56 19-Apr-20:  Drill End Time 
 DRST.      15.00.56 15-Apr-20:  Drill Start Tim 
 DTIM.hr                 51.73:  Time Drilling 
 EDEP.m                3410.01:  End Depth 
 ENG1.        Marcelo Sandoval:  Engineer 1 
 ENG2.        Davud Huseynzade:  Engineer 2 
 ENG3.          Ruslan Safarov:  Engineer 3 
 ETIM.      04.00.56 20-Apr-20:  End Time 
 FLOI.gpm              1000.00:  Flow In 
 FLON.gpm               600.00:  Flow In Min 
 FLOS.cptm                0.00:  Fluid Loss 
 FLOX.gpm              1200.00:  Flow In Max 
 HFLO.                      No:  High Flow 
 HPRE.                     Yes:  High Pressure 
 HTEM.                      No:  High Temp 
 HYDO.m                   1.80:  Hydro Offset 
 IFIN.deg                70.04:  Inc, Final 
 IMAX.deg                70.56:  Inc Max 
 IMIN.deg                69.85:  Inc Min 
 IMND.m                3103.24:  Inc Min Depth 
 IMXD.m                2876.63:  Inc Max Depth 
 JARR.                      No:  Jarring 
 LETM.      06.18.56 19-Apr-20:  Log End Time 
 LOST.hr                     0:  Lost Rig Time 
 LSTM.      15.00.56 15-Apr-20:  Log Start Time 
 MDCL.ppm             42000.00:  Mud Chlorides 
 MDES.     Inversion Oil/Synthetic:  Mud Desc 
 DFD .sg                  1.58:  Mud Density 
 MDMN.sg                  1.58:  Dens Mud Min 
 MDMX.sg                  1.58:  Dens Mud Max 
 MOIL.                      71:  Run Mud Oil % 
 MOWR.                   71:29:  Run Mud OWR 
 MSND.                       0:  Run Mud Sand % 
 MSOL.                    23.3:  Run Mud Solids% 
 DFV .spqt               84.00:  Mud Viscosity 
 MWOD.in                  9.50:  MWD Tool OD 
 MWSI.                      No:  Serv Intrp, MWD 
 OTIM.hr                139.62:  Time Operating 
 PMAX.psia             5364.69:  Press Op, Max 
 PV  .cP                 80.00:  Mud PV 
 RUN .                     700:  Run Number 
 ROPA.m/hr               25.00:  ROP Avg 
 ROPN.m/hr               11.00:  ROP Min 
 ROPX.m/hr               36.00:  ROP Max 
 RPMA.rpm               130.00:  RPM Surface Avg 
 RPMN.rpm               120.00:  RPM Surface Min 
 RPMX.rpm               140.00:  RPM Surface Max 
 RRUN.                    0700:  Rig Run Number 
 SAZI.deg               183.25:  Azm, Start 
 SDEP.m                2084.00:  Start Depth 
 SIDD.                      No:  Serv Intrp, DD 
 SINC.deg                70.38:  Inc, Start 
 SPPA.psig             4800.00:  SPP Avg 
 SPPN.psig             4400.00:  SPP Min 
 SPPX.psig             5350.00:  SPP Max 
 STIM.      16.30.56 14-Apr-20:  Start Time 
 SVCS.                 DD, MWD:  Services 
 SVER.                    9.20:  Sperry Version 
 TDAT.m                1326.00:  Tot Depth Attmp 
 TDDF.                      No:  Trip for DD 
 TDLG.m                1326.00:  Tot Depth Loggd 
 TFF .                      No:  Trip for Fail 
 TQAA.f-kp               19.00:  Torque Abs Avg 
 TQAN.f-kp                8.00:  Torque Abs Min 
 TQAX.f-kp               27.00:  Torque Abs Max 
 TRRT.°/30m               0.50:  Turn Rotating 
 MRT .                    HCIM:  Maximum Recorded Temperature 
 TTMX.degC               82.35:  Max Tool Temp 
 VS01.       905245875X1Z1W1C8:  Virtual Str1 SN 
 VS02.       90608022F11V7D1A9:  Virtual Str2 SN 
 VS03.            90605473R5C9:  Virtual Str3 SN 
 WBMN.klb                11.00:  WOB Min 
 WOBA.klb                21.00:  WOB Avg 
 WOBX.klb                30.00:  WOB Max 
 YP  .lhf2               45.00:  Yield Point 
~Curve Information Block
#MNEM.UNIT                 API CODE     Curve Description
#---------               -----------    ---------------------------
 TIME.HHMMSS            00 000 000 000:  GT Time & Date
 GTDEPTH.m              00 000 000 000:  GT Depth
 GTPQH.psia             00 000 000 000:  GT HR Quartz Pressure
 GTTQ.degC              00 000 000 000:  GT Quartz Temperature
 GTTN.NONE              00 000 000 000:  GT Test Number
 GTET.sec               00 000 000 000:  GT Elapsed Test Time
 GTTVD.m                00 000 000 000:  GT True Vertical Depth
#Other Information
#
#WARRANTY: Halliburton will use its best efforts to furnish customers with 
#accurate information and interpretations that are part of, and incident to, the services 
#provided.  However, Halliburton cannot and does not warrant the accuracy 
#or correctness of such information and interpretations.  Under no circumstances should any 
#such information or interpretation be relied upon as the sole basis for any drilling, 
#completion, production, or financial decision or any procedure involving any risk to the 
#safety of any drilling venture, drilling rig or its crew or any other third party.  The 
#Customer has full responsibility for all drilling, completion and production operation.  
#Halliburton makes no representations or warranties, either expressed or 
#implied, including, but not limited to, the implied warranties of merchantability or fitness 
#for a particular purpose, with respect to the services rendered.  In no event will 
#Halliburton be liable for failure to obtain any particular results or for 
#any damages, including, but not limited to, indirect, special or consequential damages, 
#resulting from the use of any information or interpretation provided by Halliburton.
#
~A           TIME           GTDEPTH  GTPQH  GTTQ  GTTN  GTET   GTTVD  
# ...
   07:12:53.672.18-Apr-2020 3016.07 3390.30 69.77 2.00 345.04 1944.23
   07:12:53.872.18-Apr-2020 3016.07 3390.30 69.77 2.00 345.24 1944.23
   07:12:54.072.18-Apr-2020 3016.07 3390.31 69.77 2.00 345.44 1944.23
   07:12:54.272.18-Apr-2020 3016.07 3390.30 69.77 2.00 345.64 1944.23
   07:12:54.472.18-Apr-2020 3016.07 3390.30 69.77 2.00 345.84 1944.23
   07:12:54.672.18-Apr-2020 3016.07 3390.30 69.77 2.00 346.04 1944.23
   07:12:54.872.18-Apr-2020 3016.07 3390.30 69.77 2.00 346.24 1944.23
   07:12:55.072.18-Apr-2020 3016.07 3390.29 69.77 2.00 346.44 1944.23
   07:12:55.272.18-Apr-2020 3016.07 3390.30 69.77 2.00 346.64 1944.23
   07:12:55.472.18-Apr-2020 3016.07 3390.30 69.77 2.00 346.84 1944.23
   07:12:55.672.18-Apr-2020 3016.07 3390.31 69.77 2.00 347.04 1944.23
   07:12:55.873.18-Apr-2020 3016.07 3390.29 69.77 2.00 347.24 1944.23
   07:12:56.073.18-Apr-2020 3016.07 3390.27 69.76 2.00 347.44 1944.23
   07:12:56.273.18-Apr-2020 3016.07 3390.30 69.76 2.00 347.64 1944.23
   07:12:56.473.18-Apr-2020 3016.07 3390.30 69.76 2.00 347.84 1944.23
   07:12:56.673.18-Apr-2020 3016.07 3390.28 69.76 2.00 348.04 1944.23
   07:12:56.873.18-Apr-2020 3016.07 3390.28 69.76 2.00 348.24 1944.23
   07:12:57.073.18-Apr-2020 3016.07 3390.31 69.76 2.00 348.44 1944.23
   07:12:57.273.18-Apr-2020 3016.07 3390.31 69.76 2.00 348.64 1944.23
   07:12:57.473.18-Apr-2020 3016.07 3390.29 69.76 2.00 348.84 1944.23
   07:12:57.673.18-Apr-2020 3016.07 3390.29 69.76 2.00 349.04 1944.23
   07:12:57.873.18-Apr-2020 3016.07 3390.29 69.76 2.00 349.24 1944.23
   07:12:58.073.18-Apr-2020 3016.07 3390.31 69.76 2.00 349.44 1944.23
   07:12:58.273.18-Apr-2020 3016.07 3390.30 69.76 2.00 349.64 1944.23
   07:12:58.473.18-Apr-2020 3016.07 3390.28 69.76 2.00 349.84 1944.23
   07:12:58.673.18-Apr-2020 3016.07 3390.31 69.76 2.00 350.04 1944.23
   07:12:58.873.18-Apr-2020 3016.07 3390.31 69.76 2.00 350.24 1944.23
   07:12:59.073.18-Apr-2020 3016.07 3390.31 69.75 2.00 350.44 1944.23
   07:12:59.273.18-Apr-2020 3016.07 3390.29 69.75 2.00 350.64 1944.23
   07:12:59.473.18-Apr-2020 3016.07 3390.27 69.75 2.00 350.84 1944.23
   07:12:59.673.18-Apr-2020 3016.07 3390.31 69.75 2.00 351.04 1944.23
   07:12:59.873.18-Apr-2020 3016.07 3390.31 69.75 2.00 351.24 1944.23
   07:13:00.073.18-Apr-2020 3016.07 3390.31 69.75 2.00 351.44 1944.23
   07:13:00.273.18-Apr-2020 3016.07 3390.30 69.75 2.00 351.64 1944.23
   07:13:00.473.18-Apr-2020 3016.07 3390.31 69.75 2.00 351.84 1944.23
   07:13:00.673.18-Apr-2020 3016.07 3390.30 69.75 2.00 352.04 1944.23
   07:13:00.873.18-Apr-2020 3016.07 3390.30 69.75 2.00 352.24 1944.23
   07:13:01.073.18-Apr-2020 3016.07 3390.30 69.75 2.00 352.44 1944.23
   07:13:01.273.18-Apr-2020 3016.07 3390.30 69.75 2.00 352.64 1944.23
   07:13:01.473.18-Apr-2020 3016.07 3390.29 69.75 2.00 352.84 1944.23
   07:13:01.673.18-Apr-2020 3016.07 3390.29 69.74 2.00 353.04 1944.23
   07:13:01.873.18-Apr-2020 3016.07 3390.29 69.74 2.00 353.24 1944.23
   07:13:02.073.18-Apr-2020 3016.07 3390.29 69.74 2.00 353.44 1944.23
   07:13:02.273.18-Apr-2020 3016.07 3390.29 69.74 2.00 353.64 1944.23
   07:13:02.473.18-Apr-2020 3016.07 3390.28 69.74 2.00 353.84 1944.23
   07:13:02.673.18-Apr-2020 3016.07 3390.31 69.74 2.00 354.04 1944.23
   07:13:02.873.18-Apr-2020 3016.07 3390.31 69.74 2.00 354.24 1944.23
   07:13:03.073.18-Apr-2020 3016.07 3390.31 69.74 2.00 354.44 1944.23
   07:13:03.273.18-Apr-2020 3016.07 3390.30 69.74 2.00 354.64 1944.23
   07:13:03.473.18-Apr-2020 3016.07 3390.30 69.74 2.00 354.84 1944.23
   07:13:03.673.18-Apr-2020 3016.07 3390.30 69.74 2.00 355.04 1944.23
   07:13:03.873.18-Apr-2020 3016.07 3390.29 69.74 2.00 355.24 1944.23
   07:13:04.073.18-Apr-2020 3016.07 3390.29 69.74 2.00 355.44 1944.23
   07:13:04.273.18-Apr-2020 3016.07 3390.29 69.74 2.00 355.64 1944.23
   07:13:04.473.18-Apr-2020 3016.07 3390.29 69.73 2.00 355.84 1944.23
   07:13:04.673.18-Apr-2020 3016.07 3390.28 69.73 2.00 356.04 1944.23
   07:13:04.873.18-Apr-2020 3016.07 3390.28 69.73 2.00 356.24 1944.23
   07:13:05.073.18-Apr-2020 3016.07 3390.27 69.73 2.00 356.44 1944.23
   07:13:05.274.18-Apr-2020 3016.07 3390.29 69.73 2.00 356.64 1944.23
   07:13:05.474.18-Apr-2020 3016.07 3390.30 69.73 2.00 356.84 1944.23
   07:13:05.674.18-Apr-2020 3016.07 3390.28 69.73 2.00 357.04 1944.23
   07:13:05.874.18-Apr-2020 3016.07 3390.28 69.73 2.00 357.24 1944.23
   07:13:06.074.18-Apr-2020 3016.07 3390.29 69.73 2.00 357.44 1944.23
   07:13:06.274.18-Apr-2020 3016.07 3390.30 69.73 2.00 357.64 1944.23
   07:13:06.474.18-Apr-2020 3016.07 3390.29 69.73 2.00 357.84 1944.23
   07:13:06.674.18-Apr-2020 3016.07 3390.29 69.73 2.00 358.04 1944.23
   07:13:06.874.18-Apr-2020 3016.07 3390.29 69.73 2.00 358.24 1944.23
   07:13:07.074.18-Apr-2020 3016.07 3390.31 69.73 2.00 358.44 1944.23
   07:13:07.274.18-Apr-2020 3016.07 3390.30 69.72 2.00 358.64 1944.23
   07:13:07.474.18-Apr-2020 3016.07 3390.27 69.72 2.00 358.84 1944.23
   07:13:07.674.18-Apr-2020 3016.07 3390.31 69.72 2.00 359.04 1944.23
   07:13:07.874.18-Apr-2020 3016.07 3390.31 69.72 2.00 359.24 1944.23
   07:13:08.074.18-Apr-2020 3016.07 3390.30 69.72 2.00 359.44 1944.23
   07:13:08.274.18-Apr-2020 3016.07 3390.29 69.72 2.00 359.64 1944.23
   07:13:08.474.18-Apr-2020 3016.07 3390.27 69.72 2.00 359.84 1944.23
   07:13:08.674.18-Apr-2020 3016.07 3390.32 69.72 2.00 360.04 1944.23
   07:13:08.874.18-Apr-2020 3016.07 3390.32 69.72 2.00 360.24 1944.23
   07:13:09.074.18-Apr-2020 3016.07 3390.31 69.72 2.00 360.44 1944.23
   07:13:09.274.18-Apr-2020 3016.07 3390.30 69.72 2.00 360.64 1944.23
   07:13:09.474.18-Apr-2020 3016.07 3390.30 69.72 2.00 360.84 1944.23
   07:13:09.674.18-Apr-2020 3016.07 3390.30 69.72 2.00 361.04 1944.23
   07:13:09.874.18-Apr-2020 3016.07 3390.30 69.72 2.00 361.24 1944.23
   07:13:10.074.18-Apr-2020 3016.07 3390.29 69.71 2.00 361.44 1944.23
   07:13:10.274.18-Apr-2020 3016.07 3390.29 69.71 2.00 361.64 1944.23
   07:13:10.474.18-Apr-2020 3016.07 3390.30 69.71 2.00 361.84 1944.23
   07:13:10.674.18-Apr-2020 3016.07 3390.29 69.71 2.00 362.04 1944.23
   07:13:10.874.18-Apr-2020 3016.07 3390.29 69.71 2.00 362.24 1944.23
   07:13:11.074.18-Apr-2020 3016.07 3390.29 69.71 2.00 362.44 1944.23
   07:13:11.274.18-Apr-2020 3016.07 3390.29 69.71 2.00 362.64 1944.23
   07:13:11.474.18-Apr-2020 3016.07 3390.27 69.71 2.00 362.84 1944.23
   07:13:11.674.18-Apr-2020 3016.07 3390.30 69.71 2.00 363.04 1944.23
   07:13:11.874.18-Apr-2020 3016.07 3390.30 69.71 2.00 363.24 1944.23
   07:13:12.074.18-Apr-2020 3016.07 3390.30 69.71 2.00 363.44 1944.23
   07:13:12.274.18-Apr-2020 3016.07 3390.29 69.71 2.00 363.64 1944.23
   07:13:12.474.18-Apr-2020 3016.07 3390.29 69.71 2.00 363.84 1944.23
   07:13:12.674.18-Apr-2020 3016.07 3390.30 69.71 2.00 364.04 1944.23
   07:13:12.874.18-Apr-2020 3016.07 3390.30 69.71 2.00 364.24 1944.23
   07:13:13.074.18-Apr-2020 3016.07 3390.31 69.70 2.00 364.44 1944.23
   07:13:13.274.18-Apr-2020 3016.07 3390.31 69.70 2.00 364.64 1944.23
   07:13:13.474.18-Apr-2020 3016.07 3390.32 69.70 2.00 364.84 1944.23
   07:13:13.674.18-Apr-2020 3016.07 3390.33 69.70 2.00 365.04 1944.23
   07:13:13.874.18-Apr-2020 3016.07 3390.33 69.70 2.00 365.24 1944.23
   07:13:14.074.18-Apr-2020 3016.07 3390.30 69.70 2.00 365.44 1944.23
   07:13:14.274.18-Apr-2020 3016.07 3390.34 69.70 2.00 365.64 1944.23
   07:13:14.475.18-Apr-2020 3016.07 3391.96 69.70 2.00 365.84 1944.23
   07:13:14.675.18-Apr-2020 3016.07 3392.71 69.70 2.00 366.04 1944.23
   07:13:14.875.18-Apr-2020 3016.07 3392.71 69.70 2.00 366.24 1944.23
   07:13:15.075.18-Apr-2020 3016.07 3392.68 69.70 2.00 366.44 1944.23
   07:13:15.275.18-Apr-2020 3016.07 3392.63 69.70 2.00 366.64 1944.23
   07:13:15.475.18-Apr-2020 3016.07 3392.59 69.70 2.00 366.84 1944.23
   07:13:15.675.18-Apr-2020 3016.07 3392.50 69.70 2.00 367.04 1944.23
   07:13:15.875.18-Apr-2020 3016.07 3392.43 69.69 2.00 367.24 1944.23
   07:13:16.075.18-Apr-2020 3016.07 3392.35 69.69 2.00 367.44 1944.23
   07:13:16.275.18-Apr-2020 3016.07 3392.26 69.69 2.00 367.64 1944.23
   07:13:16.475.18-Apr-2020 3016.07 3392.15 69.69 2.00 367.84 1944.23
