~Version Information
 VERS.                  2.0:   CWLS log ASCII Standard -VERSION 2.0
 WRAP.                   NO:   One line per depth step
~Well Information Block
#MNEM.UNIT     VALUE/NAME     DESCRIPTION
#---------     -----------    ---------------------------
 STRT.S             13:35:33 18-Apr-20: START TIME 13:35:33 18-Apr-20
 STOP.S             13:42:31 18-Apr-20: STOP TIME  13:42:31 18-Apr-20
 STEP.S                   0.00: STEP TIME
 NULL.                 -999.25: NULL VALUE
 DFWT.                        :  DIST FWL TEXT
 DFST.                        :  DIST FSL TEXT
 DMF .                        :  DRILL MEAS FROM
 STIM.      16.29.52 23-Mar-20:  START TIME
 DATE.      16.29.52 23-Mar-20:  END TIME
 SPUD.               23-Mar-20:  SPUD DATE
 NREF.                    Grid:  NORTH REFERENCE
 HPTY.       Minimum Curvature:  HOLE POS TYPE
 DMOD.             Drill Model:  DRILL MOD DESC
 SVYD.                  Survey:  SURVEY DESC
 ILTD.               Lithology:  INTERP LTH DESC
 FTOP.          Formation Tops:  FORM TOPS DESC
 SON .        AZ-XX-0906252240:  JOB NUMBER
 RIG .             West Chirag:  RIG NAME
 PDAT.          Mean Sea Level:  PERMANENT DATUM
 FLD .                     ACG:  FIELD NAME
 CTRY.              Azerbaijan:  COUNTRY NAME
 WELL.           J23 (Slot 07):  WELL NAME
 SRVC.          Turan Drilling:  CONTRACTOR
 COMP.     BP Exploration (Casoian Sea) Ltd:  COMPANY
 WTYP.                Deviated:  WELL TYPE
 MDS .        Operator Entered:  MAG DATA SOURCE
 UWI .                     N/A:  UNIQUE WELL IDENTIFIER
 API .                     N/A:  API NUMBER
 BASE.              Azerbaijan:  LOGGING EQUIPMENT BASE LOCATION
 REGN.                   EESSA:  REGION
 PROV.                    Baku:  PROVINCE
 STAT.                    Baku:  STATE NAME
 MWDS.                     N/A:  MWD SHOP
 JOBN.        AZ-XX-0906252240:  JOB TICKET NUMB
 DOE .                     N/A:  DOE NUMBER
 DCON.         Sperry Drilling:  DIRECTNL CONTR
 UNIT.                     N/A:  LOGGING EQUIPMENT ID
 CNTY.                        :  COUNTY
 LOC .                        :  LOCATION
 LMF .             Drill Floor:  LOG MEASURED FROM
 TVDS.m                  43.00:  TVDSS CORRECTN
 LATI.deg                40.13:  LATITUDE
 LONG.deg                51.22:  LONGITUDE
 WHNS.m                   9.43:  WELL HEAD N/S
 WHEW.m                  -8.91:  WELL HEAD E/W
 UTMX.m              519005.06:  UTM X
 UTMY.m             4443793.85:  UTM Y
 DFWL.m                   0.00:  DISTANCE FWL
 DFSL.m                   0.00:  DISTANCE FSL
 SDEP.m                   0.00:  START DEPTH
 TDD .m                   0.00:  TOTAL DEPTH (DRILLER)
 VSDR.deg               179.88:  VERT SEC DIRECT
 GVFD.g                   1.00:  GRAVITY FIELD
 MFLD.nT              50281.00:  MAGNETIC FIELD
 MDIP.deg                59.58:  MAGNETIC DIP
 MDEC.deg                 6.48:  MAGNETIC DECL
 GRDC.deg                 0.14:  GRID CORRECTION
 AZTC.deg                 6.34:  AZM TOTAL CORR
 EPD .m                   0.00:  ELEVATION
 EGL .m                   0.00:  GROUND ELEVATION
 WDMS.m                 169.80:  WD ELEV
 APD .m                  43.00:  DEPTH ABOVE PD
 DEP .m                 354.17:  DEPTH
 AGAP.m                  43.00:  AIR GAP
 VSEW.m                  -8.91:  VERT SEC E/W
 VSNS.m                   9.43:  VERT SEC N/S
 EKB .m                   0.00:  KB ELEVATION
 EDF .m                  43.00:  DF ELEVATION
 TDL .m                1326.00:  TOTAL DEPTH (LOGGER)
 VSC .                       0:  VS TO CLOSURE
 MAGU.                 1850704:  MAGUTM CHECKSUM
~Parameter Information Block
#MNEM.UNIT       Value        Description
#---------     -----------    ---------------------------
 AV  .mps                 1.17:  Ann Velocity 
 AZIF.deg               184.04:  Azm, Final 
 BHAT.        Rotary Steerable:  BHA Type 
 BREV.rev            620000.00:  Rev Bit Total 
 BROT.°/30m               0.20:  Build Rotating 
 BS  .in                 14.75:  Bit Size 
 BSZ .in                 14.75:  Bit Size 
 BTPL.psig              618.00:  Bit Press Loss 
 CABU.                      No:  Customer Abuse 
 COMM.                     ôÎT:  Run Comments 1 
 TCS .hr                 87.68:  Time Ciculation Ended 
 CV  .mps                 3.10:  Crit Velocity 
 DD1 .          Rashad Habibov:  Direct Drillr 1 
 DD2 .         Rasim Ibrahimov:  Direct Drillr 2 
 DDSV.               Geo-Pilot:  DD Service 
 DEFF.%                  98.00:  % Det Eff 
 DLRX.°/30m               1.48:  Dogleg Rot Max 
 DLSO.°/30m               0.50:  Dogleg Oriented 
 DLSX.°/30m               1.48:  Dogleg Str Max 
 DRET.      06.18.56 19-Apr-20:  Drill End Time 
 DRST.      15.00.56 15-Apr-20:  Drill Start Tim 
 DTIM.hr                 51.73:  Time Drilling 
 EDEP.m                3410.01:  End Depth 
 ENG1.        Marcelo Sandoval:  Engineer 1 
 ENG2.        Davud Huseynzade:  Engineer 2 
 ENG3.          Ruslan Safarov:  Engineer 3 
 ETIM.      04.00.56 20-Apr-20:  End Time 
 FLOI.gpm              1000.00:  Flow In 
 FLON.gpm               600.00:  Flow In Min 
 FLOS.cptm                0.00:  Fluid Loss 
 FLOX.gpm              1200.00:  Flow In Max 
 HFLO.                      No:  High Flow 
 HPRE.                     Yes:  High Pressure 
 HTEM.                      No:  High Temp 
 HYDO.m                   1.80:  Hydro Offset 
 IFIN.deg                70.04:  Inc, Final 
 IMAX.deg                70.56:  Inc Max 
 IMIN.deg                69.85:  Inc Min 
 IMND.m                3103.24:  Inc Min Depth 
 IMXD.m                2876.63:  Inc Max Depth 
 JARR.                      No:  Jarring 
 LETM.      06.18.56 19-Apr-20:  Log End Time 
 LOST.hr                     0:  Lost Rig Time 
 LSTM.      15.00.56 15-Apr-20:  Log Start Time 
 MDCL.ppm             42000.00:  Mud Chlorides 
 MDES.     Inversion Oil/Synthetic:  Mud Desc 
 DFD .sg                  1.58:  Mud Density 
 MDMN.sg                  1.58:  Dens Mud Min 
 MDMX.sg                  1.58:  Dens Mud Max 
 MOIL.                      71:  Run Mud Oil % 
 MOWR.                   71:29:  Run Mud OWR 
 MSND.                       0:  Run Mud Sand % 
 MSOL.                    23.3:  Run Mud Solids% 
 DFV .spqt               84.00:  Mud Viscosity 
 MWOD.in                  9.50:  MWD Tool OD 
 MWSI.                      No:  Serv Intrp, MWD 
 OTIM.hr                139.62:  Time Operating 
 PMAX.psia             5364.69:  Press Op, Max 
 PV  .cP                 80.00:  Mud PV 
 RUN .                     700:  Run Number 
 ROPA.m/hr               25.00:  ROP Avg 
 ROPN.m/hr               11.00:  ROP Min 
 ROPX.m/hr               36.00:  ROP Max 
 RPMA.rpm               130.00:  RPM Surface Avg 
 RPMN.rpm               120.00:  RPM Surface Min 
 RPMX.rpm               140.00:  RPM Surface Max 
 RRUN.                    0700:  Rig Run Number 
 SAZI.deg               183.25:  Azm, Start 
 SDEP.m                2084.00:  Start Depth 
 SIDD.                      No:  Serv Intrp, DD 
 SINC.deg                70.38:  Inc, Start 
 SPPA.psig             4800.00:  SPP Avg 
 SPPN.psig             4400.00:  SPP Min 
 SPPX.psig             5350.00:  SPP Max 
 STIM.      16.30.56 14-Apr-20:  Start Time 
 SVCS.                 DD, MWD:  Services 
 SVER.                    9.20:  Sperry Version 
 TDAT.m                1326.00:  Tot Depth Attmp 
 TDDF.                      No:  Trip for DD 
 TDLG.m                1326.00:  Tot Depth Loggd 
 TFF .                      No:  Trip for Fail 
 TQAA.f-kp               19.00:  Torque Abs Avg 
 TQAN.f-kp                8.00:  Torque Abs Min 
 TQAX.f-kp               27.00:  Torque Abs Max 
 TRRT.°/30m               0.50:  Turn Rotating 
 MRT .                    HCIM:  Maximum Recorded Temperature 
 TTMX.degC               82.35:  Max Tool Temp 
 VS01.       905245875X1Z1W1C8:  Virtual Str1 SN 
 VS02.       90608022F11V7D1A9:  Virtual Str2 SN 
 VS03.            90605473R5C9:  Virtual Str3 SN 
 WBMN.klb                11.00:  WOB Min 
 WOBA.klb                21.00:  WOB Avg 
 WOBX.klb                30.00:  WOB Max 
 YP  .lhf2               45.00:  Yield Point 
~Curve Information Block
#MNEM.UNIT                 API CODE     Curve Description
#---------               -----------    ---------------------------
 TIME.HHMMSS            00 000 000 000:  GT Time & Date
 GTDEPTH.m              00 000 000 000:  GT Depth
 GTPQH.psia             00 000 000 000:  GT HR Quartz Pressure
 GTTQ.degC              00 000 000 000:  GT Quartz Temperature
 GTTN.NONE              00 000 000 000:  GT Test Number
 GTET.sec               00 000 000 000:  GT Elapsed Test Time
 GTTVD.m                00 000 000 000:  GT True Vertical Depth
#Other Information
#
#WARRANTY: Halliburton will use its best efforts to furnish customers with 
#accurate information and interpretations that are part of, and incident to, the services 
#provided.  However, Halliburton cannot and does not warrant the accuracy 
#or correctness of such information and interpretations.  Under no circumstances should any 
#such information or interpretation be relied upon as the sole basis for any drilling, 
#completion, production, or financial decision or any procedure involving any risk to the 
#safety of any drilling venture, drilling rig or its crew or any other third party.  The 
#Customer has full responsibility for all drilling, completion and production operation.  
#Halliburton makes no representations or warranties, either expressed or 
#implied, including, but not limited to, the implied warranties of merchantability or fitness 
#for a particular purpose, with respect to the services rendered.  In no event will 
#Halliburton be liable for failure to obtain any particular results or for 
#any damages, including, but not limited to, indirect, special or consequential damages, 
#resulting from the use of any information or interpretation provided by Halliburton.
#
~A           TIME           GTDEPTH  GTPQH  GTTQ  GTTN  GTET   GTTVD  
# ...
   13:38:14.330.18-Apr-2020 3111.02 3318.25 70.47 5.00 161.07 1976.62
   13:38:14.530.18-Apr-2020 3111.02 3318.25 70.47 5.00 161.27 1976.62
   13:38:14.730.18-Apr-2020 3111.02 3318.24 70.46 5.00 161.47 1976.62
   13:38:14.930.18-Apr-2020 3111.02 3318.26 70.46 5.00 161.67 1976.62
   13:38:15.130.18-Apr-2020 3111.02 3318.26 70.46 5.00 161.87 1976.62
   13:38:15.330.18-Apr-2020 3111.02 3318.25 70.46 5.00 162.07 1976.62
   13:38:15.530.18-Apr-2020 3111.02 3318.25 70.46 5.00 162.27 1976.62
   13:38:15.730.18-Apr-2020 3111.02 3318.25 70.46 5.00 162.47 1976.62
   13:38:15.930.18-Apr-2020 3111.02 3318.25 70.46 5.00 162.67 1976.62
   13:38:16.130.18-Apr-2020 3111.02 3318.26 70.46 5.00 162.87 1976.62
   13:38:16.330.18-Apr-2020 3111.02 3318.24 70.46 5.00 163.07 1976.62
   13:38:16.531.18-Apr-2020 3111.02 3318.24 70.46 5.00 163.27 1976.62
   13:38:16.731.18-Apr-2020 3111.02 3318.25 70.45 5.00 163.47 1976.62
   13:38:16.931.18-Apr-2020 3111.02 3318.24 70.45 5.00 163.67 1976.62
   13:38:17.131.18-Apr-2020 3111.02 3318.24 70.45 5.00 163.87 1976.62
   13:38:17.331.18-Apr-2020 3111.02 3318.25 70.45 5.00 164.07 1976.62
   13:38:17.531.18-Apr-2020 3111.02 3318.25 70.45 5.00 164.27 1976.62
   13:38:17.731.18-Apr-2020 3111.02 3318.25 70.45 5.00 164.47 1976.62
   13:38:17.931.18-Apr-2020 3111.02 3318.24 70.45 5.00 164.67 1976.62
   13:38:18.131.18-Apr-2020 3111.02 3318.24 70.45 5.00 164.87 1976.62
   13:38:18.331.18-Apr-2020 3111.02 3318.24 70.45 5.00 165.07 1976.62
   13:38:18.531.18-Apr-2020 3111.02 3318.24 70.45 5.00 165.27 1976.62
   13:38:18.732.18-Apr-2020 3111.02 3318.25 70.44 5.00 165.47 1976.62
   13:38:18.932.18-Apr-2020 3111.02 3318.24 70.44 5.00 165.67 1976.62
   13:38:19.132.18-Apr-2020 3111.02 3318.24 70.44 5.00 165.87 1976.62
   13:38:19.332.18-Apr-2020 3111.02 3318.25 70.44 5.00 166.07 1976.62
   13:38:19.532.18-Apr-2020 3111.02 3318.25 70.44 5.00 166.27 1976.62
   13:38:19.732.18-Apr-2020 3111.02 3318.24 70.44 5.00 166.47 1976.62
   13:38:19.932.18-Apr-2020 3111.02 3318.24 70.44 5.00 166.67 1976.62
   13:38:20.132.18-Apr-2020 3111.02 3318.25 70.44 5.00 166.88 1976.62
   13:38:20.332.18-Apr-2020 3111.02 3318.24 70.44 5.00 167.08 1976.62
   13:38:20.532.18-Apr-2020 3111.02 3318.24 70.44 5.00 167.28 1976.62
   13:38:20.732.18-Apr-2020 3111.02 3318.24 70.43 5.00 167.48 1976.62
   13:38:20.933.18-Apr-2020 3111.02 3318.22 70.43 5.00 167.68 1976.62
   13:38:21.133.18-Apr-2020 3111.02 3311.09 70.43 5.00 167.88 1976.62
   13:38:21.333.18-Apr-2020 3111.02 3309.12 70.43 5.00 168.08 1976.62
   13:38:21.533.18-Apr-2020 3111.02 3309.12 70.43 5.00 168.28 1976.62
   13:38:21.733.18-Apr-2020 3111.02 3309.58 70.43 5.00 168.48 1976.62
   13:38:21.933.18-Apr-2020 3111.02 3309.69 70.43 5.00 168.68 1976.62
   13:38:22.133.18-Apr-2020 3111.02 3309.79 70.43 5.00 168.88 1976.62
   13:38:22.333.18-Apr-2020 3111.02 3309.91 70.43 5.00 169.08 1976.62
   13:38:22.533.18-Apr-2020 3111.02 3309.91 70.43 5.00 169.28 1976.62
   13:38:22.733.18-Apr-2020 3111.02 3310.23 70.42 5.00 169.48 1976.62
   13:38:22.933.18-Apr-2020 3111.02 3310.28 70.42 5.00 169.68 1976.62
   13:38:23.134.18-Apr-2020 3111.02 3310.45 70.42 5.00 169.88 1976.62
   13:38:23.334.18-Apr-2020 3111.02 3310.40 70.42 5.00 170.08 1976.62
   13:38:23.534.18-Apr-2020 3111.02 3310.40 70.42 5.00 170.28 1976.62
   13:38:23.734.18-Apr-2020 3111.02 3310.69 70.42 5.00 170.48 1976.62
   13:38:23.934.18-Apr-2020 3111.02 3310.73 70.42 5.00 170.68 1976.62
   13:38:24.134.18-Apr-2020 3111.02 3310.60 70.42 5.00 170.88 1976.62
   13:38:24.334.18-Apr-2020 3111.02 3310.87 70.42 5.00 171.08 1976.62
   13:38:24.534.18-Apr-2020 3111.02 3310.87 70.42 5.00 171.28 1976.62
   13:38:24.734.18-Apr-2020 3111.02 3310.88 70.41 5.00 171.48 1976.62
   13:38:24.934.18-Apr-2020 3111.02 3310.90 70.41 5.00 171.68 1976.62
   13:38:25.134.18-Apr-2020 3111.02 3310.91 70.41 5.00 171.88 1976.62
   13:38:25.335.18-Apr-2020 3111.02 3310.99 70.41 5.00 172.08 1976.62
   13:38:25.535.18-Apr-2020 3111.02 3310.99 70.41 5.00 172.28 1976.62
   13:38:25.735.18-Apr-2020 3111.02 3311.15 70.41 5.00 172.48 1976.62
   13:38:25.935.18-Apr-2020 3111.02 3311.14 70.41 5.00 172.68 1976.62
   13:38:26.135.18-Apr-2020 3111.02 3311.21 70.41 5.00 172.88 1976.62
   13:38:26.335.18-Apr-2020 3111.02 3311.20 70.41 5.00 173.08 1976.62
   13:38:26.535.18-Apr-2020 3111.02 3311.20 70.41 5.00 173.28 1976.62
   13:38:26.735.18-Apr-2020 3111.02 3311.34 70.40 5.00 173.48 1976.62
   13:38:26.935.18-Apr-2020 3111.02 3311.29 70.40 5.00 173.68 1976.62
   13:38:27.135.18-Apr-2020 3111.02 3311.23 70.40 5.00 173.88 1976.62
   13:38:27.335.18-Apr-2020 3111.02 3311.35 70.40 5.00 174.08 1976.62
   13:38:27.536.18-Apr-2020 3111.02 3311.35 70.40 5.00 174.28 1976.62
   13:38:27.736.18-Apr-2020 3111.02 3311.46 70.40 5.00 174.48 1976.62
   13:38:27.936.18-Apr-2020 3111.02 3311.49 70.40 5.00 174.68 1976.62
   13:38:28.136.18-Apr-2020 3111.02 3311.52 70.40 5.00 174.88 1976.62
   13:38:28.336.18-Apr-2020 3111.02 3311.56 70.40 5.00 175.08 1976.62
   13:38:28.536.18-Apr-2020 3111.02 3311.56 70.40 5.00 175.28 1976.62
   13:38:28.736.18-Apr-2020 3111.02 3311.68 70.39 5.00 175.48 1976.62
   13:38:28.936.18-Apr-2020 3111.02 3311.62 70.39 5.00 175.68 1976.62
   13:38:29.136.18-Apr-2020 3111.02 3311.72 70.39 5.00 175.88 1976.62
   13:38:29.336.18-Apr-2020 3111.02 3311.66 70.39 5.00 176.08 1976.62
   13:38:29.536.18-Apr-2020 3111.02 3311.66 70.39 5.00 176.28 1976.62
   13:38:29.737.18-Apr-2020 3111.02 3311.72 70.39 5.00 176.48 1976.62
   13:38:29.937.18-Apr-2020 3111.02 3311.68 70.39 5.00 176.68 1976.62
   13:38:30.137.18-Apr-2020 3111.02 3311.82 70.39 5.00 176.88 1976.62
   13:38:30.337.18-Apr-2020 3111.02 3311.87 70.38 5.00 177.08 1976.62
   13:38:30.537.18-Apr-2020 3111.02 3311.87 70.38 5.00 177.28 1976.62
   13:38:30.737.18-Apr-2020 3111.02 3311.87 70.38 5.00 177.48 1976.62
   13:38:30.937.18-Apr-2020 3111.02 3311.89 70.38 5.00 177.68 1976.62
   13:38:31.137.18-Apr-2020 3111.02 3311.90 70.38 5.00 177.88 1976.62
   13:38:31.337.18-Apr-2020 3111.02 3311.86 70.38 5.00 178.08 1976.62
   13:38:31.537.18-Apr-2020 3111.02 3311.86 70.38 5.00 178.28 1976.62
   13:38:31.737.18-Apr-2020 3111.02 3318.02 70.38 5.00 178.48 1976.62
   13:38:31.938.18-Apr-2020 3111.02 3318.26 70.38 5.00 178.68 1976.62
   13:38:32.138.18-Apr-2020 3111.02 3318.27 70.38 5.00 178.88 1976.62
   13:38:32.338.18-Apr-2020 3111.02 3318.28 70.37 5.00 179.08 1976.62
   13:38:32.538.18-Apr-2020 3111.02 3318.28 70.37 5.00 179.28 1976.62
   13:38:32.738.18-Apr-2020 3111.02 3318.28 70.37 5.00 179.48 1976.62
   13:38:32.938.18-Apr-2020 3111.02 3318.29 70.37 5.00 179.68 1976.62
   13:38:33.138.18-Apr-2020 3111.02 3318.29 70.37 5.00 179.88 1976.62
   13:38:33.338.18-Apr-2020 3111.02 3318.28 70.37 5.00 180.08 1976.62
   13:38:33.538.18-Apr-2020 3111.02 3318.28 70.37 5.00 180.28 1976.62
   13:38:33.738.18-Apr-2020 3111.02 3318.29 70.37 5.00 180.48 1976.62
   13:38:33.938.18-Apr-2020 3111.02 3318.29 70.37 5.00 180.68 1976.62
   13:38:34.138.18-Apr-2020 3111.02 3318.29 70.37 5.00 180.88 1976.62
   13:38:34.339.18-Apr-2020 3111.02 3318.29 70.36 5.00 181.08 1976.62
   13:38:34.539.18-Apr-2020 3111.02 3318.29 70.36 5.00 181.28 1976.62
   13:38:34.739.18-Apr-2020 3111.02 3318.29 70.36 5.00 181.48 1976.62
   13:38:34.939.18-Apr-2020 3111.02 3318.29 70.36 5.00 181.68 1976.62
   13:38:35.139.18-Apr-2020 3111.02 3318.29 70.36 5.00 181.88 1976.62
   13:38:35.339.18-Apr-2020 3111.02 3318.28 70.36 5.00 182.08 1976.62
   13:38:35.539.18-Apr-2020 3111.02 3318.28 70.36 5.00 182.28 1976.62
   13:38:35.739.18-Apr-2020 3111.02 3318.29 70.36 5.00 182.48 1976.62
   13:38:35.939.18-Apr-2020 3111.02 3318.28 70.36 5.00 182.68 1976.62
   13:38:36.139.18-Apr-2020 3111.02 3318.27 70.36 5.00 182.88 1976.62
   13:38:36.339.18-Apr-2020 3111.02 3318.27 70.35 5.00 183.08 1976.62
   13:38:36.540.18-Apr-2020 3111.02 3318.27 70.35 5.00 183.28 1976.62
   13:38:36.740.18-Apr-2020 3111.02 3318.27 70.35 5.00 183.48 1976.62
   13:38:36.940.18-Apr-2020 3111.02 3318.27 70.35 5.00 183.68 1976.62
   13:38:37.140.18-Apr-2020 3111.02 3318.28 70.35 5.00 183.88 1976.62
