~Version Information
 VERS.                  2.0:   CWLS log ASCII Standard -VERSION 2.0
 WRAP.                   NO:   One line per depth step
~Well Information Block
#MNEM.UNIT     VALUE/NAME     DESCRIPTION
#---------     -----------    ---------------------------
 STRT.S             15:35:19 18-Apr-20: START TIME 15:35:19 18-Apr-20
 STOP.S             15:42:14 18-Apr-20: STOP TIME  15:42:14 18-Apr-20
 STEP.S                   0.00: STEP TIME
 NULL.                 -999.25: NULL VALUE
 DFWT.                        :  DIST FWL TEXT
 DFST.                        :  DIST FSL TEXT
 DMF .                        :  DRILL MEAS FROM
 STIM.      16.29.52 23-Mar-20:  START TIME
 DATE.      16.29.52 23-Mar-20:  END TIME
 SPUD.               23-Mar-20:  SPUD DATE
 NREF.                    Grid:  NORTH REFERENCE
 HPTY.       Minimum Curvature:  HOLE POS TYPE
 DMOD.             Drill Model:  DRILL MOD DESC
 SVYD.                  Survey:  SURVEY DESC
 ILTD.               Lithology:  INTERP LTH DESC
 FTOP.          Formation Tops:  FORM TOPS DESC
 SON .        AZ-XX-0906252240:  JOB NUMBER
 RIG .             West Chirag:  RIG NAME
 PDAT.          Mean Sea Level:  PERMANENT DATUM
 FLD .                     ACG:  FIELD NAME
 CTRY.              Azerbaijan:  COUNTRY NAME
 WELL.           J23 (Slot 07):  WELL NAME
 SRVC.          Turan Drilling:  CONTRACTOR
 COMP.     BP Exploration (Casoian Sea) Ltd:  COMPANY
 WTYP.                Deviated:  WELL TYPE
 MDS .        Operator Entered:  MAG DATA SOURCE
 UWI .                     N/A:  UNIQUE WELL IDENTIFIER
 API .                     N/A:  API NUMBER
 BASE.              Azerbaijan:  LOGGING EQUIPMENT BASE LOCATION
 REGN.                   EESSA:  REGION
 PROV.                    Baku:  PROVINCE
 STAT.                    Baku:  STATE NAME
 MWDS.                     N/A:  MWD SHOP
 JOBN.        AZ-XX-0906252240:  JOB TICKET NUMB
 DOE .                     N/A:  DOE NUMBER
 DCON.         Sperry Drilling:  DIRECTNL CONTR
 UNIT.                     N/A:  LOGGING EQUIPMENT ID
 CNTY.                        :  COUNTY
 LOC .                        :  LOCATION
 LMF .             Drill Floor:  LOG MEASURED FROM
 TVDS.m                  43.00:  TVDSS CORRECTN
 LATI.deg                40.13:  LATITUDE
 LONG.deg                51.22:  LONGITUDE
 WHNS.m                   9.43:  WELL HEAD N/S
 WHEW.m                  -8.91:  WELL HEAD E/W
 UTMX.m              519005.06:  UTM X
 UTMY.m             4443793.85:  UTM Y
 DFWL.m                   0.00:  DISTANCE FWL
 DFSL.m                   0.00:  DISTANCE FSL
 SDEP.m                   0.00:  START DEPTH
 TDD .m                   0.00:  TOTAL DEPTH (DRILLER)
 VSDR.deg               179.88:  VERT SEC DIRECT
 GVFD.g                   1.00:  GRAVITY FIELD
 MFLD.nT              50281.00:  MAGNETIC FIELD
 MDIP.deg                59.58:  MAGNETIC DIP
 MDEC.deg                 6.48:  MAGNETIC DECL
 GRDC.deg                 0.14:  GRID CORRECTION
 AZTC.deg                 6.34:  AZM TOTAL CORR
 EPD .m                   0.00:  ELEVATION
 EGL .m                   0.00:  GROUND ELEVATION
 WDMS.m                 169.80:  WD ELEV
 APD .m                  43.00:  DEPTH ABOVE PD
 DEP .m                 354.17:  DEPTH
 AGAP.m                  43.00:  AIR GAP
 VSEW.m                  -8.91:  VERT SEC E/W
 VSNS.m                   9.43:  VERT SEC N/S
 EKB .m                   0.00:  KB ELEVATION
 EDF .m                  43.00:  DF ELEVATION
 TDL .m                1326.00:  TOTAL DEPTH (LOGGER)
 VSC .                       0:  VS TO CLOSURE
 MAGU.                 1850704:  MAGUTM CHECKSUM
~Parameter Information Block
#MNEM.UNIT       Value        Description
#---------     -----------    ---------------------------
 AV  .mps                 1.17:  Ann Velocity 
 AZIF.deg               184.04:  Azm, Final 
 BHAT.        Rotary Steerable:  BHA Type 
 BREV.rev            620000.00:  Rev Bit Total 
 BROT.°/30m               0.20:  Build Rotating 
 BS  .in                 14.75:  Bit Size 
 BSZ .in                 14.75:  Bit Size 
 BTPL.psig              618.00:  Bit Press Loss 
 CABU.                      No:  Customer Abuse 
 COMM.                     ü—`:  Run Comments 1 
 TCS .hr                 87.68:  Time Ciculation Ended 
 CV  .mps                 3.10:  Crit Velocity 
 DD1 .          Rashad Habibov:  Direct Drillr 1 
 DD2 .         Rasim Ibrahimov:  Direct Drillr 2 
 DDSV.               Geo-Pilot:  DD Service 
 DEFF.%                  98.00:  % Det Eff 
 DLRX.°/30m               1.48:  Dogleg Rot Max 
 DLSO.°/30m               0.50:  Dogleg Oriented 
 DLSX.°/30m               1.48:  Dogleg Str Max 
 DRET.      06.18.56 19-Apr-20:  Drill End Time 
 DRST.      15.00.56 15-Apr-20:  Drill Start Tim 
 DTIM.hr                 51.73:  Time Drilling 
 EDEP.m                3410.01:  End Depth 
 ENG1.        Marcelo Sandoval:  Engineer 1 
 ENG2.        Davud Huseynzade:  Engineer 2 
 ENG3.          Ruslan Safarov:  Engineer 3 
 ETIM.      04.00.56 20-Apr-20:  End Time 
 FLOI.gpm              1000.00:  Flow In 
 FLON.gpm               600.00:  Flow In Min 
 FLOS.cptm                0.00:  Fluid Loss 
 FLOX.gpm              1200.00:  Flow In Max 
 HFLO.                      No:  High Flow 
 HPRE.                     Yes:  High Pressure 
 HTEM.                      No:  High Temp 
 HYDO.m                   1.80:  Hydro Offset 
 IFIN.deg                70.04:  Inc, Final 
 IMAX.deg                70.56:  Inc Max 
 IMIN.deg                69.85:  Inc Min 
 IMND.m                3103.24:  Inc Min Depth 
 IMXD.m                2876.63:  Inc Max Depth 
 JARR.                      No:  Jarring 
 LETM.      06.18.56 19-Apr-20:  Log End Time 
 LOST.hr                     0:  Lost Rig Time 
 LSTM.      15.00.56 15-Apr-20:  Log Start Time 
 MDCL.ppm             42000.00:  Mud Chlorides 
 MDES.     Inversion Oil/Synthetic:  Mud Desc 
 DFD .sg                  1.58:  Mud Density 
 MDMN.sg                  1.58:  Dens Mud Min 
 MDMX.sg                  1.58:  Dens Mud Max 
 MOIL.                      71:  Run Mud Oil % 
 MOWR.                   71:29:  Run Mud OWR 
 MSND.                       0:  Run Mud Sand % 
 MSOL.                    23.3:  Run Mud Solids% 
 DFV .spqt               84.00:  Mud Viscosity 
 MWOD.in                  9.50:  MWD Tool OD 
 MWSI.                      No:  Serv Intrp, MWD 
 OTIM.hr                139.62:  Time Operating 
 PMAX.psia             5364.69:  Press Op, Max 
 PV  .cP                 80.00:  Mud PV 
 RUN .                     700:  Run Number 
 ROPA.m/hr               25.00:  ROP Avg 
 ROPN.m/hr               11.00:  ROP Min 
 ROPX.m/hr               36.00:  ROP Max 
 RPMA.rpm               130.00:  RPM Surface Avg 
 RPMN.rpm               120.00:  RPM Surface Min 
 RPMX.rpm               140.00:  RPM Surface Max 
 RRUN.                    0700:  Rig Run Number 
 SAZI.deg               183.25:  Azm, Start 
 SDEP.m                2084.00:  Start Depth 
 SIDD.                      No:  Serv Intrp, DD 
 SINC.deg                70.38:  Inc, Start 
 SPPA.psig             4800.00:  SPP Avg 
 SPPN.psig             4400.00:  SPP Min 
 SPPX.psig             5350.00:  SPP Max 
 STIM.      16.30.56 14-Apr-20:  Start Time 
 SVCS.                 DD, MWD:  Services 
 SVER.                    9.20:  Sperry Version 
 TDAT.m                1326.00:  Tot Depth Attmp 
 TDDF.                      No:  Trip for DD 
 TDLG.m                1326.00:  Tot Depth Loggd 
 TFF .                      No:  Trip for Fail 
 TQAA.f-kp               19.00:  Torque Abs Avg 
 TQAN.f-kp                8.00:  Torque Abs Min 
 TQAX.f-kp               27.00:  Torque Abs Max 
 TRRT.°/30m               0.50:  Turn Rotating 
 MRT .                    HCIM:  Maximum Recorded Temperature 
 TTMX.degC               82.35:  Max Tool Temp 
 VS01.       905245875X1Z1W1C8:  Virtual Str1 SN 
 VS02.       90608022F11V7D1A9:  Virtual Str2 SN 
 VS03.            90605473R5C9:  Virtual Str3 SN 
 WBMN.klb                11.00:  WOB Min 
 WOBA.klb                21.00:  WOB Avg 
 WOBX.klb                30.00:  WOB Max 
 YP  .lhf2               45.00:  Yield Point 
~Curve Information Block
#MNEM.UNIT                 API CODE     Curve Description
#---------               -----------    ---------------------------
 TIME.HHMMSS            00 000 000 000:  GT Time & Date
 GTDEPTH.m              00 000 000 000:  GT Depth
 GTPQH.psia             00 000 000 000:  GT HR Quartz Pressure
 GTTQ.degC              00 000 000 000:  GT Quartz Temperature
 GTTN.NONE              00 000 000 000:  GT Test Number
 GTET.sec               00 000 000 000:  GT Elapsed Test Time
 GTTVD.m                00 000 000 000:  GT True Vertical Depth
#Other Information
#
#WARRANTY: Halliburton will use its best efforts to furnish customers with 
#accurate information and interpretations that are part of, and incident to, the services 
#provided.  However, Halliburton cannot and does not warrant the accuracy 
#or correctness of such information and interpretations.  Under no circumstances should any 
#such information or interpretation be relied upon as the sole basis for any drilling, 
#completion, production, or financial decision or any procedure involving any risk to the 
#safety of any drilling venture, drilling rig or its crew or any other third party.  The 
#Customer has full responsibility for all drilling, completion and production operation.  
#Halliburton makes no representations or warranties, either expressed or 
#implied, including, but not limited to, the implied warranties of merchantability or fitness 
#for a particular purpose, with respect to the services rendered.  In no event will 
#Halliburton be liable for failure to obtain any particular results or for 
#any damages, including, but not limited to, indirect, special or consequential damages, 
#resulting from the use of any information or interpretation provided by Halliburton.
#
~A           TIME           GTDEPTH  GTPQH  GTTQ  GTTN  GTET   GTTVD  
   15:35:19.358.18-Apr-2020 3140.87 4582.29 72.06 6.00   0.00 1986.80
   15:35:19.558.18-Apr-2020 3140.87 4580.79 72.06 6.00   0.20 1986.80
   15:35:19.758.18-Apr-2020 3140.87 4580.60 72.06 6.00   0.40 1986.80
   15:35:19.958.18-Apr-2020 3140.87 4577.86 72.06 6.00   0.60 1986.80
   15:35:20.158.18-Apr-2020 3140.87 4579.89 72.06 6.00   0.80 1986.80
   15:35:20.358.18-Apr-2020 3140.87 4580.65 72.06 6.00   1.00 1986.80
   15:35:20.558.18-Apr-2020 3140.87 4580.65 72.06 6.00   1.20 1986.80
   15:35:20.758.18-Apr-2020 3140.87 4579.35 72.06 6.00   1.40 1986.80
   15:35:20.958.18-Apr-2020 3140.87 4582.34 72.06 6.00   1.60 1986.80
   15:35:21.158.18-Apr-2020 3140.87 4583.03 72.06 6.00   1.80 1986.80
   15:35:21.358.18-Apr-2020 3140.87 4583.12 72.05 6.00   2.00 1986.80
   15:35:21.558.18-Apr-2020 3140.87 4583.12 72.05 6.00   2.20 1986.80
   15:35:21.758.18-Apr-2020 3140.87 4582.36 72.05 6.00   2.40 1986.80
   15:35:21.958.18-Apr-2020 3140.87 4584.00 72.05 6.00   2.60 1986.80
   15:35:22.158.18-Apr-2020 3140.87 4583.92 72.05 6.00   2.80 1986.80
   15:35:22.358.18-Apr-2020 3140.87 4583.11 72.05 6.00   3.00 1986.80
   15:35:22.558.18-Apr-2020 3140.87 4583.11 72.05 6.00   3.20 1986.80
   15:35:22.758.18-Apr-2020 3140.87 4581.31 72.05 6.00   3.40 1986.80
   15:35:22.958.18-Apr-2020 3140.87 4580.75 72.05 6.00   3.60 1986.80
   15:35:23.158.18-Apr-2020 3140.87 4580.40 72.05 6.00   3.80 1986.80
   15:35:23.358.18-Apr-2020 3140.87 4579.32 72.05 6.00   4.00 1986.80
   15:35:23.558.18-Apr-2020 3140.87 4578.48 72.04 6.00   4.20 1986.80
   15:35:23.758.18-Apr-2020 3140.87 4578.52 72.04 6.00   4.40 1986.80
   15:35:23.958.18-Apr-2020 3140.87 4577.92 72.04 6.00   4.60 1986.80
   15:35:24.158.18-Apr-2020 3140.87 4576.92 72.04 6.00   4.80 1986.80
   15:35:24.358.18-Apr-2020 3140.87 4576.21 72.04 6.00   5.00 1986.80
   15:35:24.558.18-Apr-2020 3140.87 4575.47 72.04 6.00   5.20 1986.80
   15:35:24.758.18-Apr-2020 3140.87 4572.89 72.04 6.00   5.40 1986.80
   15:35:24.958.18-Apr-2020 3140.87 4574.17 72.04 6.00   5.60 1986.80
   15:35:25.157.18-Apr-2020 3140.87 4573.38 72.04 6.00   5.80 1986.80
   15:35:25.357.18-Apr-2020 3140.87 4572.47 72.04 6.00   6.00 1986.80
   15:35:25.557.18-Apr-2020 3140.87 4572.47 72.04 6.00   6.20 1986.80
   15:35:25.757.18-Apr-2020 3140.87 4572.06 72.03 6.00   6.40 1986.80
   15:35:25.957.18-Apr-2020 3140.87 4571.80 72.03 6.00   6.60 1986.80
   15:35:26.157.18-Apr-2020 3140.87 4571.83 72.03 6.00   6.80 1986.80
   15:35:26.357.18-Apr-2020 3140.87 4571.63 72.03 6.00   7.00 1986.80
   15:35:26.557.18-Apr-2020 3140.87 4571.63 72.03 6.00   7.20 1986.80
   15:35:26.757.18-Apr-2020 3140.87 4572.01 72.03 6.00   7.40 1986.80
   15:35:26.957.18-Apr-2020 3140.87 4571.97 72.03 6.00   7.60 1986.80
   15:35:27.157.18-Apr-2020 3140.87 4572.55 72.03 6.00   7.80 1986.80
   15:35:27.357.18-Apr-2020 3140.87 4572.45 72.03 6.00   8.00 1986.80
   15:35:27.557.18-Apr-2020 3140.87 4571.65 72.03 6.00   8.20 1986.80
   15:35:27.757.18-Apr-2020 3140.87 4569.24 72.03 6.00   8.40 1986.80
   15:35:27.957.18-Apr-2020 3140.87 4571.66 72.02 6.00   8.60 1986.80
   15:35:28.157.18-Apr-2020 3140.87 4570.32 72.02 6.00   8.80 1986.80
   15:35:28.357.18-Apr-2020 3140.87 4568.80 72.02 6.00   9.00 1986.80
   15:35:28.557.18-Apr-2020 3140.87 4567.88 72.02 6.00   9.20 1986.80
   15:35:28.757.18-Apr-2020 3140.87 4569.01 72.02 6.00   9.40 1986.80
   15:35:28.957.18-Apr-2020 3140.87 4568.47 72.02 6.00   9.60 1986.80
   15:35:29.157.18-Apr-2020 3140.87 4565.57 72.02 6.00   9.80 1986.80
   15:35:29.357.18-Apr-2020 3140.87 4569.06 72.02 6.00  10.00 1986.80
   15:35:29.557.18-Apr-2020 3140.87 4569.06 72.02 6.00  10.20 1986.80
   15:35:29.757.18-Apr-2020 3140.87 4565.78 72.02 6.00  10.40 1986.80
   15:35:29.957.18-Apr-2020 3140.87 4569.29 72.02 6.00  10.60 1986.80
   15:35:30.157.18-Apr-2020 3140.87 4569.74 72.01 6.00  10.80 1986.80
   15:35:30.357.18-Apr-2020 3140.87 4568.05 72.01 6.00  11.00 1986.80
   15:35:30.557.18-Apr-2020 3140.87 4568.05 72.01 6.00  11.20 1986.80
   15:35:30.757.18-Apr-2020 3140.87 4570.89 72.01 6.00  11.40 1986.80
   15:35:30.957.18-Apr-2020 3140.87 4570.94 72.01 6.00  11.60 1986.80
   15:35:31.157.18-Apr-2020 3140.87 4568.12 72.01 6.00  11.80 1986.80
   15:35:31.357.18-Apr-2020 3140.87 4571.64 72.01 6.00  12.00 1986.80
   15:35:31.557.18-Apr-2020 3140.87 4572.02 72.01 6.00  12.20 1986.80
   15:35:31.757.18-Apr-2020 3140.87 4572.00 72.01 6.00  12.40 1986.80
   15:35:31.957.18-Apr-2020 3140.87 4572.51 72.01 6.00  12.60 1986.80
   15:35:32.157.18-Apr-2020 3140.87 4573.17 72.01 6.00  12.80 1986.80
   15:35:32.357.18-Apr-2020 3140.87 4573.33 72.00 6.00  13.00 1986.80
   15:35:32.557.18-Apr-2020 3140.87 4572.79 72.00 6.00  13.20 1986.80
   15:35:32.757.18-Apr-2020 3140.87 4573.10 72.00 6.00  13.40 1986.80
   15:35:32.957.18-Apr-2020 3140.87 4573.69 72.00 6.00  13.60 1986.80
   15:35:33.157.18-Apr-2020 3140.87 4573.33 72.00 6.00  13.80 1986.80
   15:35:33.357.18-Apr-2020 3140.87 4573.37 72.00 6.00  14.00 1986.80
   15:35:33.557.18-Apr-2020 3140.87 4573.37 72.00 6.00  14.20 1986.80
   15:35:33.756.18-Apr-2020 3140.87 4574.00 72.00 6.00  14.40 1986.80
   15:35:33.956.18-Apr-2020 3140.87 4570.94 72.00 6.00  14.60 1986.80
   15:35:34.156.18-Apr-2020 3140.87 4574.85 72.00 6.00  14.80 1986.80
   15:35:34.356.18-Apr-2020 3140.87 4574.74 72.00 6.00  15.00 1986.80
   15:35:34.556.18-Apr-2020 3140.87 4574.74 72.00 6.00  15.20 1986.80
   15:35:34.756.18-Apr-2020 3140.87 4574.82 71.99 6.00  15.40 1986.80
   15:35:34.956.18-Apr-2020 3140.87 4576.42 71.99 6.00  15.60 1986.80
   15:35:35.156.18-Apr-2020 3140.87 4576.68 71.99 6.00  15.80 1986.80
   15:35:35.356.18-Apr-2020 3140.87 4576.46 71.99 6.00  16.00 1986.80
   15:35:35.556.18-Apr-2020 3140.87 4576.46 71.99 6.00  16.20 1986.80
   15:35:35.756.18-Apr-2020 3140.87 4576.46 71.99 6.00  16.40 1986.80
   15:35:35.956.18-Apr-2020 3140.87 4577.91 71.99 6.00  16.60 1986.80
   15:35:36.156.18-Apr-2020 3140.87 4577.92 71.99 6.00  16.80 1986.80
   15:35:36.356.18-Apr-2020 3140.87 4578.64 71.99 6.00  17.00 1986.80
   15:35:36.556.18-Apr-2020 3140.87 4578.64 71.99 6.00  17.20 1986.80
   15:35:36.756.18-Apr-2020 3140.87 4576.08 71.98 6.00  17.40 1986.80
   15:35:36.956.18-Apr-2020 3140.87 4578.78 71.98 6.00  17.60 1986.80
   15:35:37.156.18-Apr-2020 3140.87 4578.95 71.98 6.00  17.80 1986.80
   15:35:37.356.18-Apr-2020 3140.87 4575.11 71.98 6.00  18.00 1986.80
   15:35:37.556.18-Apr-2020 3140.87 4575.11 71.98 6.00  18.20 1986.80
   15:35:37.756.18-Apr-2020 3140.87 4578.60 71.98 6.00  18.40 1986.80
   15:35:37.956.18-Apr-2020 3140.87 4577.70 71.98 6.00  18.60 1986.80
   15:35:38.156.18-Apr-2020 3140.87 4577.44 71.98 6.00  18.80 1986.80
   15:35:38.356.18-Apr-2020 3140.87 4575.08 71.98 6.00  19.00 1986.80
   15:35:38.556.18-Apr-2020 3140.87 4575.08 71.98 6.00  19.20 1986.80
   15:35:38.756.18-Apr-2020 3140.87 4577.36 71.98 6.00  19.40 1986.80
   15:35:38.956.18-Apr-2020 3140.87 4576.57 71.97 6.00  19.60 1986.80
   15:35:39.156.18-Apr-2020 3140.87 4576.69 71.97 6.00  19.80 1986.80
   15:35:39.356.18-Apr-2020 3140.87 4576.49 71.97 6.00  20.00 1986.80
   15:35:39.556.18-Apr-2020 3140.87 4574.05 71.97 6.00  20.20 1986.80
   15:35:39.756.18-Apr-2020 3140.87 4576.72 71.97 6.00  20.40 1986.80
   15:35:39.956.18-Apr-2020 3140.87 4576.26 71.97 6.00  20.60 1986.80
   15:35:40.156.18-Apr-2020 3140.87 4574.91 71.97 6.00  20.80 1986.80
   15:35:40.356.18-Apr-2020 3140.87 4575.97 71.97 6.00  21.00 1986.80
   15:35:40.556.18-Apr-2020 3140.87 4575.97 71.97 6.00  21.20 1986.80
   15:35:40.756.18-Apr-2020 3140.87 4576.13 71.97 6.00  21.40 1986.80
   15:35:40.956.18-Apr-2020 3140.87 4575.83 71.97 6.00  21.60 1986.80
   15:35:41.156.18-Apr-2020 3140.87 4575.26 71.96 6.00  21.80 1986.80
   15:35:41.356.18-Apr-2020 3140.87 4576.29 71.96 6.00  22.00 1986.80
   15:35:41.556.18-Apr-2020 3140.87 4576.29 71.96 6.00  22.20 1986.80
   15:35:41.756.18-Apr-2020 3140.87 4574.93 71.96 6.00  22.40 1986.80
   15:35:41.956.18-Apr-2020 3140.87 4574.88 71.96 6.00  22.60 1986.80
   15:35:42.156.18-Apr-2020 3140.87 4574.01 71.96 6.00  22.80 1986.80
