~Version Information
 VERS.                  2.0:   CWLS log ASCII Standard -VERSION 2.0
 WRAP.                   NO:   One line per depth step
~Well Information Block
#MNEM.UNIT     VALUE/NAME     DESCRIPTION
#---------     -----------    ---------------------------
 STRT.S             13:35:33 18-Apr-20: START TIME 13:35:33 18-Apr-20
 STOP.S             13:42:31 18-Apr-20: STOP TIME  13:42:31 18-Apr-20
 STEP.S                   0.00: STEP TIME
 NULL.                 -999.25: NULL VALUE
 DFWT.                        :  DIST FWL TEXT
 DFST.                        :  DIST FSL TEXT
 DMF .                        :  DRILL MEAS FROM
 STIM.      16.29.52 23-Mar-20:  START TIME
 DATE.      16.29.52 23-Mar-20:  END TIME
 SPUD.               23-Mar-20:  SPUD DATE
 NREF.                    Grid:  NORTH REFERENCE
 HPTY.       Minimum Curvature:  HOLE POS TYPE
 DMOD.             Drill Model:  DRILL MOD DESC
 SVYD.                  Survey:  SURVEY DESC
 ILTD.               Lithology:  INTERP LTH DESC
 FTOP.          Formation Tops:  FORM TOPS DESC
 SON .        AZ-XX-0906252240:  JOB NUMBER
 RIG .             West Chirag:  RIG NAME
 PDAT.          Mean Sea Level:  PERMANENT DATUM
 FLD .                     ACG:  FIELD NAME
 CTRY.              Azerbaijan:  COUNTRY NAME
 WELL.           J23 (Slot 07):  WELL NAME
 SRVC.          Turan Drilling:  CONTRACTOR
 COMP.     BP Exploration (Casoian Sea) Ltd:  COMPANY
 WTYP.                Deviated:  WELL TYPE
 MDS .        Operator Entered:  MAG DATA SOURCE
 UWI .                     N/A:  UNIQUE WELL IDENTIFIER
 API .                     N/A:  API NUMBER
 BASE.              Azerbaijan:  LOGGING EQUIPMENT BASE LOCATION
 REGN.                   EESSA:  REGION
 PROV.                    Baku:  PROVINCE
 STAT.                    Baku:  STATE NAME
 MWDS.                     N/A:  MWD SHOP
 JOBN.        AZ-XX-0906252240:  JOB TICKET NUMB
 DOE .                     N/A:  DOE NUMBER
 DCON.         Sperry Drilling:  DIRECTNL CONTR
 UNIT.                     N/A:  LOGGING EQUIPMENT ID
 CNTY.                        :  COUNTY
 LOC .                        :  LOCATION
 LMF .             Drill Floor:  LOG MEASURED FROM
 TVDS.m                  43.00:  TVDSS CORRECTN
 LATI.deg                40.13:  LATITUDE
 LONG.deg                51.22:  LONGITUDE
 WHNS.m                   9.43:  WELL HEAD N/S
 WHEW.m                  -8.91:  WELL HEAD E/W
 UTMX.m              519005.06:  UTM X
 UTMY.m             4443793.85:  UTM Y
 DFWL.m                   0.00:  DISTANCE FWL
 DFSL.m                   0.00:  DISTANCE FSL
 SDEP.m                   0.00:  START DEPTH
 TDD .m                   0.00:  TOTAL DEPTH (DRILLER)
 VSDR.deg               179.88:  VERT SEC DIRECT
 GVFD.g                   1.00:  GRAVITY FIELD
 MFLD.nT              50281.00:  MAGNETIC FIELD
 MDIP.deg                59.58:  MAGNETIC DIP
 MDEC.deg                 6.48:  MAGNETIC DECL
 GRDC.deg                 0.14:  GRID CORRECTION
 AZTC.deg                 6.34:  AZM TOTAL CORR
 EPD .m                   0.00:  ELEVATION
 EGL .m                   0.00:  GROUND ELEVATION
 WDMS.m                 169.80:  WD ELEV
 APD .m                  43.00:  DEPTH ABOVE PD
 DEP .m                 354.17:  DEPTH
 AGAP.m                  43.00:  AIR GAP
 VSEW.m                  -8.91:  VERT SEC E/W
 VSNS.m                   9.43:  VERT SEC N/S
 EKB .m                   0.00:  KB ELEVATION
 EDF .m                  43.00:  DF ELEVATION
 TDL .m                1326.00:  TOTAL DEPTH (LOGGER)
 VSC .                       0:  VS TO CLOSURE
 MAGU.                 1850704:  MAGUTM CHECKSUM
~Parameter Information Block
#MNEM.UNIT       Value        Description
#---------     -----------    ---------------------------
 AV  .mps                 1.17:  Ann Velocity 
 AZIF.deg               184.04:  Azm, Final 
 BHAT.        Rotary Steerable:  BHA Type 
 BREV.rev            620000.00:  Rev Bit Total 
 BROT.°/30m               0.20:  Build Rotating 
 BS  .in                 14.75:  Bit Size 
 BSZ .in                 14.75:  Bit Size 
 BTPL.psig              618.00:  Bit Press Loss 
 CABU.                      No:  Customer Abuse 
 COMM.                     ôÎT:  Run Comments 1 
 TCS .hr                 87.68:  Time Ciculation Ended 
 CV  .mps                 3.10:  Crit Velocity 
 DD1 .          Rashad Habibov:  Direct Drillr 1 
 DD2 .         Rasim Ibrahimov:  Direct Drillr 2 
 DDSV.               Geo-Pilot:  DD Service 
 DEFF.%                  98.00:  % Det Eff 
 DLRX.°/30m               1.48:  Dogleg Rot Max 
 DLSO.°/30m               0.50:  Dogleg Oriented 
 DLSX.°/30m               1.48:  Dogleg Str Max 
 DRET.      06.18.56 19-Apr-20:  Drill End Time 
 DRST.      15.00.56 15-Apr-20:  Drill Start Tim 
 DTIM.hr                 51.73:  Time Drilling 
 EDEP.m                3410.01:  End Depth 
 ENG1.        Marcelo Sandoval:  Engineer 1 
 ENG2.        Davud Huseynzade:  Engineer 2 
 ENG3.          Ruslan Safarov:  Engineer 3 
 ETIM.      04.00.56 20-Apr-20:  End Time 
 FLOI.gpm              1000.00:  Flow In 
 FLON.gpm               600.00:  Flow In Min 
 FLOS.cptm                0.00:  Fluid Loss 
 FLOX.gpm              1200.00:  Flow In Max 
 HFLO.                      No:  High Flow 
 HPRE.                     Yes:  High Pressure 
 HTEM.                      No:  High Temp 
 HYDO.m                   1.80:  Hydro Offset 
 IFIN.deg                70.04:  Inc, Final 
 IMAX.deg                70.56:  Inc Max 
 IMIN.deg                69.85:  Inc Min 
 IMND.m                3103.24:  Inc Min Depth 
 IMXD.m                2876.63:  Inc Max Depth 
 JARR.                      No:  Jarring 
 LETM.      06.18.56 19-Apr-20:  Log End Time 
 LOST.hr                     0:  Lost Rig Time 
 LSTM.      15.00.56 15-Apr-20:  Log Start Time 
 MDCL.ppm             42000.00:  Mud Chlorides 
 MDES.     Inversion Oil/Synthetic:  Mud Desc 
 DFD .sg                  1.58:  Mud Density 
 MDMN.sg                  1.58:  Dens Mud Min 
 MDMX.sg                  1.58:  Dens Mud Max 
 MOIL.                      71:  Run Mud Oil % 
 MOWR.                   71:29:  Run Mud OWR 
 MSND.                       0:  Run Mud Sand % 
 MSOL.                    23.3:  Run Mud Solids% 
 DFV .spqt               84.00:  Mud Viscosity 
 MWOD.in                  9.50:  MWD Tool OD 
 MWSI.                      No:  Serv Intrp, MWD 
 OTIM.hr                139.62:  Time Operating 
 PMAX.psia             5364.69:  Press Op, Max 
 PV  .cP                 80.00:  Mud PV 
 RUN .                     700:  Run Number 
 ROPA.m/hr               25.00:  ROP Avg 
 ROPN.m/hr               11.00:  ROP Min 
 ROPX.m/hr               36.00:  ROP Max 
 RPMA.rpm               130.00:  RPM Surface Avg 
 RPMN.rpm               120.00:  RPM Surface Min 
 RPMX.rpm               140.00:  RPM Surface Max 
 RRUN.                    0700:  Rig Run Number 
 SAZI.deg               183.25:  Azm, Start 
 SDEP.m                2084.00:  Start Depth 
 SIDD.                      No:  Serv Intrp, DD 
 SINC.deg                70.38:  Inc, Start 
 SPPA.psig             4800.00:  SPP Avg 
 SPPN.psig             4400.00:  SPP Min 
 SPPX.psig             5350.00:  SPP Max 
 STIM.      16.30.56 14-Apr-20:  Start Time 
 SVCS.                 DD, MWD:  Services 
 SVER.                    9.20:  Sperry Version 
 TDAT.m                1326.00:  Tot Depth Attmp 
 TDDF.                      No:  Trip for DD 
 TDLG.m                1326.00:  Tot Depth Loggd 
 TFF .                      No:  Trip for Fail 
 TQAA.f-kp               19.00:  Torque Abs Avg 
 TQAN.f-kp                8.00:  Torque Abs Min 
 TQAX.f-kp               27.00:  Torque Abs Max 
 TRRT.°/30m               0.50:  Turn Rotating 
 MRT .                    HCIM:  Maximum Recorded Temperature 
 TTMX.degC               82.35:  Max Tool Temp 
 VS01.       905245875X1Z1W1C8:  Virtual Str1 SN 
 VS02.       90608022F11V7D1A9:  Virtual Str2 SN 
 VS03.            90605473R5C9:  Virtual Str3 SN 
 WBMN.klb                11.00:  WOB Min 
 WOBA.klb                21.00:  WOB Avg 
 WOBX.klb                30.00:  WOB Max 
 YP  .lhf2               45.00:  Yield Point 
~Curve Information Block
#MNEM.UNIT                 API CODE     Curve Description
#---------               -----------    ---------------------------
 TIME.HHMMSS            00 000 000 000:  GT Time & Date
 GTDEPTH.m              00 000 000 000:  GT Depth
 GTPQH.psia             00 000 000 000:  GT HR Quartz Pressure
 GTTQ.degC              00 000 000 000:  GT Quartz Temperature
 GTTN.NONE              00 000 000 000:  GT Test Number
 GTET.sec               00 000 000 000:  GT Elapsed Test Time
 GTTVD.m                00 000 000 000:  GT True Vertical Depth
#Other Information
#
#WARRANTY: Halliburton will use its best efforts to furnish customers with 
#accurate information and interpretations that are part of, and incident to, the services 
#provided.  However, Halliburton cannot and does not warrant the accuracy 
#or correctness of such information and interpretations.  Under no circumstances should any 
#such information or interpretation be relied upon as the sole basis for any drilling, 
#completion, production, or financial decision or any procedure involving any risk to the 
#safety of any drilling venture, drilling rig or its crew or any other third party.  The 
#Customer has full responsibility for all drilling, completion and production operation.  
#Halliburton makes no representations or warranties, either expressed or 
#implied, including, but not limited to, the implied warranties of merchantability or fitness 
#for a particular purpose, with respect to the services rendered.  In no event will 
#Halliburton be liable for failure to obtain any particular results or for 
#any damages, including, but not limited to, indirect, special or consequential damages, 
#resulting from the use of any information or interpretation provided by Halliburton.
#
~A           TIME           GTDEPTH  GTPQH  GTTQ  GTTN  GTET   GTTVD  
# ...
   13:37:51.319.18-Apr-2020 3111.02 3318.30 70.58 5.00 138.06 1976.62
   13:37:51.519.18-Apr-2020 3111.02 3318.30 70.58 5.00 138.26 1976.62
   13:37:51.719.18-Apr-2020 3111.02 3318.30 70.58 5.00 138.46 1976.62
   13:37:51.920.18-Apr-2020 3111.02 3318.29 70.58 5.00 138.66 1976.62
   13:37:52.120.18-Apr-2020 3111.02 3318.30 70.58 5.00 138.86 1976.62
   13:37:52.320.18-Apr-2020 3111.02 3318.29 70.58 5.00 139.06 1976.62
   13:37:52.520.18-Apr-2020 3111.02 3318.29 70.58 5.00 139.26 1976.62
   13:37:52.720.18-Apr-2020 3111.02 3318.29 70.58 5.00 139.46 1976.62
   13:37:52.920.18-Apr-2020 3111.02 3318.29 70.57 5.00 139.66 1976.62
   13:37:53.120.18-Apr-2020 3111.02 3318.30 70.57 5.00 139.86 1976.62
   13:37:53.320.18-Apr-2020 3111.02 3318.29 70.57 5.00 140.06 1976.62
   13:37:53.520.18-Apr-2020 3111.02 3318.29 70.57 5.00 140.26 1976.62
   13:37:53.720.18-Apr-2020 3111.02 3318.28 70.57 5.00 140.46 1976.62
   13:37:53.920.18-Apr-2020 3111.02 3318.29 70.57 5.00 140.66 1976.62
   13:37:54.120.18-Apr-2020 3111.02 3318.29 70.57 5.00 140.86 1976.62
   13:37:54.321.18-Apr-2020 3111.02 3318.30 70.57 5.00 141.06 1976.62
   13:37:54.521.18-Apr-2020 3111.02 3318.30 70.57 5.00 141.26 1976.62
   13:37:54.721.18-Apr-2020 3111.02 3318.28 70.57 5.00 141.46 1976.62
   13:37:54.921.18-Apr-2020 3111.02 3318.29 70.56 5.00 141.66 1976.62
   13:37:55.121.18-Apr-2020 3111.02 3318.29 70.56 5.00 141.86 1976.62
   13:37:55.321.18-Apr-2020 3111.02 3318.30 70.56 5.00 142.06 1976.62
   13:37:55.521.18-Apr-2020 3111.02 3318.30 70.56 5.00 142.26 1976.62
   13:37:55.721.18-Apr-2020 3111.02 3318.28 70.56 5.00 142.46 1976.62
   13:37:55.921.18-Apr-2020 3111.02 3318.29 70.56 5.00 142.66 1976.62
   13:37:56.121.18-Apr-2020 3111.02 3318.28 70.56 5.00 142.86 1976.62
   13:37:56.321.18-Apr-2020 3111.02 3318.25 70.56 5.00 143.06 1976.62
   13:37:56.522.18-Apr-2020 3111.02 3318.25 70.56 5.00 143.26 1976.62
   13:37:56.722.18-Apr-2020 3111.02 3318.29 70.56 5.00 143.46 1976.62
   13:37:56.922.18-Apr-2020 3111.02 3318.28 70.55 5.00 143.66 1976.62
   13:37:57.122.18-Apr-2020 3111.02 3318.28 70.55 5.00 143.86 1976.62
   13:37:57.322.18-Apr-2020 3111.02 3318.28 70.55 5.00 144.06 1976.62
   13:37:57.522.18-Apr-2020 3111.02 3318.28 70.55 5.00 144.26 1976.62
   13:37:57.722.18-Apr-2020 3111.02 3318.28 70.55 5.00 144.46 1976.62
   13:37:57.922.18-Apr-2020 3111.02 3318.28 70.55 5.00 144.67 1976.62
   13:37:58.122.18-Apr-2020 3111.02 3318.28 70.55 5.00 144.87 1976.62
   13:37:58.322.18-Apr-2020 3111.02 3318.29 70.55 5.00 145.07 1976.62
   13:37:58.522.18-Apr-2020 3111.02 3318.29 70.55 5.00 145.27 1976.62
   13:37:58.723.18-Apr-2020 3111.02 3318.27 70.55 5.00 145.47 1976.62
   13:37:58.923.18-Apr-2020 3111.02 3318.26 70.54 5.00 145.67 1976.62
   13:37:59.123.18-Apr-2020 3111.02 3318.25 70.54 5.00 145.87 1976.62
   13:37:59.323.18-Apr-2020 3111.02 3318.27 70.54 5.00 146.07 1976.62
   13:37:59.523.18-Apr-2020 3111.02 3318.27 70.54 5.00 146.27 1976.62
   13:37:59.723.18-Apr-2020 3111.02 3318.27 70.54 5.00 146.47 1976.62
   13:37:59.923.18-Apr-2020 3111.02 3318.27 70.54 5.00 146.67 1976.62
   13:38:00.123.18-Apr-2020 3111.02 3318.27 70.54 5.00 146.87 1976.62
   13:38:00.323.18-Apr-2020 3111.02 3318.26 70.54 5.00 147.07 1976.62
   13:38:00.523.18-Apr-2020 3111.02 3318.26 70.54 5.00 147.27 1976.62
   13:38:00.723.18-Apr-2020 3111.02 3318.26 70.54 5.00 147.47 1976.62
   13:38:00.924.18-Apr-2020 3111.02 3318.27 70.53 5.00 147.67 1976.62
   13:38:01.124.18-Apr-2020 3111.02 3318.26 70.53 5.00 147.87 1976.62
   13:38:01.324.18-Apr-2020 3111.02 3318.26 70.53 5.00 148.07 1976.62
   13:38:01.524.18-Apr-2020 3111.02 3318.26 70.53 5.00 148.27 1976.62
   13:38:01.724.18-Apr-2020 3111.02 3318.27 70.53 5.00 148.47 1976.62
   13:38:01.924.18-Apr-2020 3111.02 3318.26 70.53 5.00 148.67 1976.62
   13:38:02.124.18-Apr-2020 3111.02 3318.26 70.53 5.00 148.87 1976.62
   13:38:02.324.18-Apr-2020 3111.02 3318.25 70.53 5.00 149.07 1976.62
   13:38:02.524.18-Apr-2020 3111.02 3318.25 70.53 5.00 149.27 1976.62
   13:38:02.724.18-Apr-2020 3111.02 3318.27 70.53 5.00 149.47 1976.62
   13:38:02.924.18-Apr-2020 3111.02 3318.28 70.52 5.00 149.67 1976.62
   13:38:03.125.18-Apr-2020 3111.02 3318.27 70.52 5.00 149.87 1976.62
   13:38:03.325.18-Apr-2020 3111.02 3318.27 70.52 5.00 150.07 1976.62
   13:38:03.525.18-Apr-2020 3111.02 3318.27 70.52 5.00 150.27 1976.62
   13:38:03.725.18-Apr-2020 3111.02 3318.28 70.52 5.00 150.47 1976.62
   13:38:03.925.18-Apr-2020 3111.02 3318.27 70.52 5.00 150.67 1976.62
   13:38:04.125.18-Apr-2020 3111.02 3318.26 70.52 5.00 150.87 1976.62
   13:38:04.325.18-Apr-2020 3111.02 3318.26 70.52 5.00 151.07 1976.62
   13:38:04.525.18-Apr-2020 3111.02 3318.26 70.52 5.00 151.27 1976.62
   13:38:04.725.18-Apr-2020 3111.02 3318.27 70.52 5.00 151.47 1976.62
   13:38:04.925.18-Apr-2020 3111.02 3318.24 70.51 5.00 151.67 1976.62
   13:38:05.125.18-Apr-2020 3111.02 3318.27 70.51 5.00 151.87 1976.62
   13:38:05.326.18-Apr-2020 3111.02 3318.27 70.51 5.00 152.07 1976.62
   13:38:05.526.18-Apr-2020 3111.02 3318.27 70.51 5.00 152.27 1976.62
   13:38:05.726.18-Apr-2020 3111.02 3318.26 70.51 5.00 152.47 1976.62
   13:38:05.926.18-Apr-2020 3111.02 3318.26 70.51 5.00 152.67 1976.62
   13:38:06.126.18-Apr-2020 3111.02 3318.26 70.51 5.00 152.87 1976.62
   13:38:06.326.18-Apr-2020 3111.02 3318.27 70.51 5.00 153.07 1976.62
   13:38:06.526.18-Apr-2020 3111.02 3318.27 70.51 5.00 153.27 1976.62
   13:38:06.726.18-Apr-2020 3111.02 3318.24 70.51 5.00 153.47 1976.62
   13:38:06.926.18-Apr-2020 3111.02 3318.27 70.50 5.00 153.67 1976.62
   13:38:07.126.18-Apr-2020 3111.02 3318.26 70.50 5.00 153.87 1976.62
   13:38:07.326.18-Apr-2020 3111.02 3318.26 70.50 5.00 154.07 1976.62
   13:38:07.527.18-Apr-2020 3111.02 3318.26 70.50 5.00 154.27 1976.62
   13:38:07.727.18-Apr-2020 3111.02 3318.25 70.50 5.00 154.47 1976.62
   13:38:07.927.18-Apr-2020 3111.02 3318.26 70.50 5.00 154.67 1976.62
   13:38:08.127.18-Apr-2020 3111.02 3318.27 70.50 5.00 154.87 1976.62
   13:38:08.327.18-Apr-2020 3111.02 3318.26 70.50 5.00 155.07 1976.62
   13:38:08.527.18-Apr-2020 3111.02 3318.26 70.50 5.00 155.27 1976.62
   13:38:08.727.18-Apr-2020 3111.02 3318.25 70.50 5.00 155.47 1976.62
   13:38:08.927.18-Apr-2020 3111.02 3318.28 70.49 5.00 155.67 1976.62
   13:38:09.127.18-Apr-2020 3111.02 3318.26 70.49 5.00 155.87 1976.62
   13:38:09.327.18-Apr-2020 3111.02 3318.25 70.49 5.00 156.07 1976.62
   13:38:09.527.18-Apr-2020 3111.02 3318.25 70.49 5.00 156.27 1976.62
   13:38:09.728.18-Apr-2020 3111.02 3318.26 70.49 5.00 156.47 1976.62
   13:38:09.928.18-Apr-2020 3111.02 3318.25 70.49 5.00 156.67 1976.62
   13:38:10.128.18-Apr-2020 3111.02 3318.26 70.49 5.00 156.87 1976.62
   13:38:10.328.18-Apr-2020 3111.02 3318.24 70.49 5.00 157.07 1976.62
   13:38:10.528.18-Apr-2020 3111.02 3318.24 70.49 5.00 157.27 1976.62
   13:38:10.728.18-Apr-2020 3111.02 3318.26 70.48 5.00 157.47 1976.62
   13:38:10.928.18-Apr-2020 3111.02 3318.25 70.48 5.00 157.67 1976.62
   13:38:11.128.18-Apr-2020 3111.02 3318.24 70.48 5.00 157.87 1976.62
   13:38:11.328.18-Apr-2020 3111.02 3318.25 70.48 5.00 158.07 1976.62
   13:38:11.528.18-Apr-2020 3111.02 3318.25 70.48 5.00 158.27 1976.62
   13:38:11.728.18-Apr-2020 3111.02 3318.26 70.48 5.00 158.47 1976.62
   13:38:11.929.18-Apr-2020 3111.02 3318.25 70.48 5.00 158.67 1976.62
   13:38:12.129.18-Apr-2020 3111.02 3318.25 70.48 5.00 158.87 1976.62
   13:38:12.329.18-Apr-2020 3111.02 3318.24 70.48 5.00 159.07 1976.62
   13:38:12.529.18-Apr-2020 3111.02 3318.24 70.48 5.00 159.27 1976.62
   13:38:12.729.18-Apr-2020 3111.02 3318.25 70.47 5.00 159.47 1976.62
   13:38:12.929.18-Apr-2020 3111.02 3318.25 70.47 5.00 159.67 1976.62
   13:38:13.129.18-Apr-2020 3111.02 3318.24 70.47 5.00 159.87 1976.62
   13:38:13.329.18-Apr-2020 3111.02 3318.25 70.47 5.00 160.07 1976.62
   13:38:13.529.18-Apr-2020 3111.02 3318.24 70.47 5.00 160.27 1976.62
   13:38:13.729.18-Apr-2020 3111.02 3318.25 70.47 5.00 160.47 1976.62
   13:38:13.929.18-Apr-2020 3111.02 3318.25 70.47 5.00 160.67 1976.62
   13:38:14.129.18-Apr-2020 3111.02 3318.24 70.47 5.00 160.87 1976.62
