~Version Information
 VERS.                  2.0:   CWLS log ASCII Standard -VERSION 2.0
 WRAP.                   NO:   One line per depth step
~Well Information Block
#MNEM.UNIT     VALUE/NAME     DESCRIPTION
#---------     -----------    ---------------------------
 STRT.S             13:35:33 18-Apr-20: START TIME 13:35:33 18-Apr-20
 STOP.S             13:42:31 18-Apr-20: STOP TIME  13:42:31 18-Apr-20
 STEP.S                   0.00: STEP TIME
 NULL.                 -999.25: NULL VALUE
 DFWT.                        :  DIST FWL TEXT
 DFST.                        :  DIST FSL TEXT
 DMF .                        :  DRILL MEAS FROM
 STIM.      16.29.52 23-Mar-20:  START TIME
 DATE.      16.29.52 23-Mar-20:  END TIME
 SPUD.               23-Mar-20:  SPUD DATE
 NREF.                    Grid:  NORTH REFERENCE
 HPTY.       Minimum Curvature:  HOLE POS TYPE
 DMOD.             Drill Model:  DRILL MOD DESC
 SVYD.                  Survey:  SURVEY DESC
 ILTD.               Lithology:  INTERP LTH DESC
 FTOP.          Formation Tops:  FORM TOPS DESC
 SON .        AZ-XX-0906252240:  JOB NUMBER
 RIG .             West Chirag:  RIG NAME
 PDAT.          Mean Sea Level:  PERMANENT DATUM
 FLD .                     ACG:  FIELD NAME
 CTRY.              Azerbaijan:  COUNTRY NAME
 WELL.           J23 (Slot 07):  WELL NAME
 SRVC.          Turan Drilling:  CONTRACTOR
 COMP.     BP Exploration (Casoian Sea) Ltd:  COMPANY
 WTYP.                Deviated:  WELL TYPE
 MDS .        Operator Entered:  MAG DATA SOURCE
 UWI .                     N/A:  UNIQUE WELL IDENTIFIER
 API .                     N/A:  API NUMBER
 BASE.              Azerbaijan:  LOGGING EQUIPMENT BASE LOCATION
 REGN.                   EESSA:  REGION
 PROV.                    Baku:  PROVINCE
 STAT.                    Baku:  STATE NAME
 MWDS.                     N/A:  MWD SHOP
 JOBN.        AZ-XX-0906252240:  JOB TICKET NUMB
 DOE .                     N/A:  DOE NUMBER
 DCON.         Sperry Drilling:  DIRECTNL CONTR
 UNIT.                     N/A:  LOGGING EQUIPMENT ID
 CNTY.                        :  COUNTY
 LOC .                        :  LOCATION
 LMF .             Drill Floor:  LOG MEASURED FROM
 TVDS.m                  43.00:  TVDSS CORRECTN
 LATI.deg                40.13:  LATITUDE
 LONG.deg                51.22:  LONGITUDE
 WHNS.m                   9.43:  WELL HEAD N/S
 WHEW.m                  -8.91:  WELL HEAD E/W
 UTMX.m              519005.06:  UTM X
 UTMY.m             4443793.85:  UTM Y
 DFWL.m                   0.00:  DISTANCE FWL
 DFSL.m                   0.00:  DISTANCE FSL
 SDEP.m                   0.00:  START DEPTH
 TDD .m                   0.00:  TOTAL DEPTH (DRILLER)
 VSDR.deg               179.88:  VERT SEC DIRECT
 GVFD.g                   1.00:  GRAVITY FIELD
 MFLD.nT              50281.00:  MAGNETIC FIELD
 MDIP.deg                59.58:  MAGNETIC DIP
 MDEC.deg                 6.48:  MAGNETIC DECL
 GRDC.deg                 0.14:  GRID CORRECTION
 AZTC.deg                 6.34:  AZM TOTAL CORR
 EPD .m                   0.00:  ELEVATION
 EGL .m                   0.00:  GROUND ELEVATION
 WDMS.m                 169.80:  WD ELEV
 APD .m                  43.00:  DEPTH ABOVE PD
 DEP .m                 354.17:  DEPTH
 AGAP.m                  43.00:  AIR GAP
 VSEW.m                  -8.91:  VERT SEC E/W
 VSNS.m                   9.43:  VERT SEC N/S
 EKB .m                   0.00:  KB ELEVATION
 EDF .m                  43.00:  DF ELEVATION
 TDL .m                1326.00:  TOTAL DEPTH (LOGGER)
 VSC .                       0:  VS TO CLOSURE
 MAGU.                 1850704:  MAGUTM CHECKSUM
~Parameter Information Block
#MNEM.UNIT       Value        Description
#---------     -----------    ---------------------------
 AV  .mps                 1.17:  Ann Velocity 
 AZIF.deg               184.04:  Azm, Final 
 BHAT.        Rotary Steerable:  BHA Type 
 BREV.rev            620000.00:  Rev Bit Total 
 BROT.°/30m               0.20:  Build Rotating 
 BS  .in                 14.75:  Bit Size 
 BSZ .in                 14.75:  Bit Size 
 BTPL.psig              618.00:  Bit Press Loss 
 CABU.                      No:  Customer Abuse 
 COMM.                     ôÎT:  Run Comments 1 
 TCS .hr                 87.68:  Time Ciculation Ended 
 CV  .mps                 3.10:  Crit Velocity 
 DD1 .          Rashad Habibov:  Direct Drillr 1 
 DD2 .         Rasim Ibrahimov:  Direct Drillr 2 
 DDSV.               Geo-Pilot:  DD Service 
 DEFF.%                  98.00:  % Det Eff 
 DLRX.°/30m               1.48:  Dogleg Rot Max 
 DLSO.°/30m               0.50:  Dogleg Oriented 
 DLSX.°/30m               1.48:  Dogleg Str Max 
 DRET.      06.18.56 19-Apr-20:  Drill End Time 
 DRST.      15.00.56 15-Apr-20:  Drill Start Tim 
 DTIM.hr                 51.73:  Time Drilling 
 EDEP.m                3410.01:  End Depth 
 ENG1.        Marcelo Sandoval:  Engineer 1 
 ENG2.        Davud Huseynzade:  Engineer 2 
 ENG3.          Ruslan Safarov:  Engineer 3 
 ETIM.      04.00.56 20-Apr-20:  End Time 
 FLOI.gpm              1000.00:  Flow In 
 FLON.gpm               600.00:  Flow In Min 
 FLOS.cptm                0.00:  Fluid Loss 
 FLOX.gpm              1200.00:  Flow In Max 
 HFLO.                      No:  High Flow 
 HPRE.                     Yes:  High Pressure 
 HTEM.                      No:  High Temp 
 HYDO.m                   1.80:  Hydro Offset 
 IFIN.deg                70.04:  Inc, Final 
 IMAX.deg                70.56:  Inc Max 
 IMIN.deg                69.85:  Inc Min 
 IMND.m                3103.24:  Inc Min Depth 
 IMXD.m                2876.63:  Inc Max Depth 
 JARR.                      No:  Jarring 
 LETM.      06.18.56 19-Apr-20:  Log End Time 
 LOST.hr                     0:  Lost Rig Time 
 LSTM.      15.00.56 15-Apr-20:  Log Start Time 
 MDCL.ppm             42000.00:  Mud Chlorides 
 MDES.     Inversion Oil/Synthetic:  Mud Desc 
 DFD .sg                  1.58:  Mud Density 
 MDMN.sg                  1.58:  Dens Mud Min 
 MDMX.sg                  1.58:  Dens Mud Max 
 MOIL.                      71:  Run Mud Oil % 
 MOWR.                   71:29:  Run Mud OWR 
 MSND.                       0:  Run Mud Sand % 
 MSOL.                    23.3:  Run Mud Solids% 
 DFV .spqt               84.00:  Mud Viscosity 
 MWOD.in                  9.50:  MWD Tool OD 
 MWSI.                      No:  Serv Intrp, MWD 
 OTIM.hr                139.62:  Time Operating 
 PMAX.psia             5364.69:  Press Op, Max 
 PV  .cP                 80.00:  Mud PV 
 RUN .                     700:  Run Number 
 ROPA.m/hr               25.00:  ROP Avg 
 ROPN.m/hr               11.00:  ROP Min 
 ROPX.m/hr               36.00:  ROP Max 
 RPMA.rpm               130.00:  RPM Surface Avg 
 RPMN.rpm               120.00:  RPM Surface Min 
 RPMX.rpm               140.00:  RPM Surface Max 
 RRUN.                    0700:  Rig Run Number 
 SAZI.deg               183.25:  Azm, Start 
 SDEP.m                2084.00:  Start Depth 
 SIDD.                      No:  Serv Intrp, DD 
 SINC.deg                70.38:  Inc, Start 
 SPPA.psig             4800.00:  SPP Avg 
 SPPN.psig             4400.00:  SPP Min 
 SPPX.psig             5350.00:  SPP Max 
 STIM.      16.30.56 14-Apr-20:  Start Time 
 SVCS.                 DD, MWD:  Services 
 SVER.                    9.20:  Sperry Version 
 TDAT.m                1326.00:  Tot Depth Attmp 
 TDDF.                      No:  Trip for DD 
 TDLG.m                1326.00:  Tot Depth Loggd 
 TFF .                      No:  Trip for Fail 
 TQAA.f-kp               19.00:  Torque Abs Avg 
 TQAN.f-kp                8.00:  Torque Abs Min 
 TQAX.f-kp               27.00:  Torque Abs Max 
 TRRT.°/30m               0.50:  Turn Rotating 
 MRT .                    HCIM:  Maximum Recorded Temperature 
 TTMX.degC               82.35:  Max Tool Temp 
 VS01.       905245875X1Z1W1C8:  Virtual Str1 SN 
 VS02.       90608022F11V7D1A9:  Virtual Str2 SN 
 VS03.            90605473R5C9:  Virtual Str3 SN 
 WBMN.klb                11.00:  WOB Min 
 WOBA.klb                21.00:  WOB Avg 
 WOBX.klb                30.00:  WOB Max 
 YP  .lhf2               45.00:  Yield Point 
~Curve Information Block
#MNEM.UNIT                 API CODE     Curve Description
#---------               -----------    ---------------------------
 TIME.HHMMSS            00 000 000 000:  GT Time & Date
 GTDEPTH.m              00 000 000 000:  GT Depth
 GTPQH.psia             00 000 000 000:  GT HR Quartz Pressure
 GTTQ.degC              00 000 000 000:  GT Quartz Temperature
 GTTN.NONE              00 000 000 000:  GT Test Number
 GTET.sec               00 000 000 000:  GT Elapsed Test Time
 GTTVD.m                00 000 000 000:  GT True Vertical Depth
#Other Information
#
#WARRANTY: Halliburton will use its best efforts to furnish customers with 
#accurate information and interpretations that are part of, and incident to, the services 
#provided.  However, Halliburton cannot and does not warrant the accuracy 
#or correctness of such information and interpretations.  Under no circumstances should any 
#such information or interpretation be relied upon as the sole basis for any drilling, 
#completion, production, or financial decision or any procedure involving any risk to the 
#safety of any drilling venture, drilling rig or its crew or any other third party.  The 
#Customer has full responsibility for all drilling, completion and production operation.  
#Halliburton makes no representations or warranties, either expressed or 
#implied, including, but not limited to, the implied warranties of merchantability or fitness 
#for a particular purpose, with respect to the services rendered.  In no event will 
#Halliburton be liable for failure to obtain any particular results or for 
#any damages, including, but not limited to, indirect, special or consequential damages, 
#resulting from the use of any information or interpretation provided by Halliburton.
#
~A           TIME           GTDEPTH  GTPQH  GTTQ  GTTN  GTET   GTTVD  
# ...
   13:35:56.267.18-Apr-2020 3111.02 4547.21 71.20 5.00  23.01 1976.62
   13:35:56.468.18-Apr-2020 3111.02 4547.21 71.20 5.00  23.21 1976.62
   13:35:56.668.18-Apr-2020 3111.02 4545.79 71.20 5.00  23.41 1976.62
   13:35:56.868.18-Apr-2020 3111.02 4545.97 71.20 5.00  23.61 1976.62
   13:35:57.068.18-Apr-2020 3111.02 4546.37 71.20 5.00  23.81 1976.62
   13:35:57.268.18-Apr-2020 3111.02 4543.56 71.19 5.00  24.01 1976.62
   13:35:57.468.18-Apr-2020 3111.02 4543.56 71.19 5.00  24.21 1976.62
   13:35:57.668.18-Apr-2020 3111.02 4545.10 71.19 5.00  24.41 1976.62
   13:35:57.868.18-Apr-2020 3111.02 4544.54 71.19 5.00  24.61 1976.62
   13:35:58.068.18-Apr-2020 3111.02 4542.11 71.19 5.00  24.81 1976.62
   13:35:58.268.18-Apr-2020 3111.02 4544.33 71.19 5.00  25.01 1976.62
   13:35:58.468.18-Apr-2020 3111.02 4544.33 71.19 5.00  25.21 1976.62
   13:35:58.669.18-Apr-2020 3111.02 4542.99 71.19 5.00  25.41 1976.62
   13:35:58.869.18-Apr-2020 3111.02 4541.23 71.19 5.00  25.61 1976.62
   13:35:59.069.18-Apr-2020 3111.02 4542.88 71.19 5.00  25.81 1976.62
   13:35:59.269.18-Apr-2020 3111.02 4542.95 71.18 5.00  26.01 1976.62
   13:35:59.469.18-Apr-2020 3111.02 4542.95 71.18 5.00  26.21 1976.62
   13:35:59.669.18-Apr-2020 3111.02 4542.45 71.18 5.00  26.41 1976.62
   13:35:59.869.18-Apr-2020 3111.02 4543.18 71.18 5.00  26.61 1976.62
   13:36:00.069.18-Apr-2020 3111.02 4542.47 71.18 5.00  26.81 1976.62
   13:36:00.269.18-Apr-2020 3111.02 4542.18 71.18 5.00  27.01 1976.62
   13:36:00.469.18-Apr-2020 3111.02 4542.18 71.18 5.00  27.21 1976.62
   13:36:00.669.18-Apr-2020 3111.02 4541.24 71.18 5.00  27.41 1976.62
   13:36:00.870.18-Apr-2020 3111.02 4541.33 71.18 5.00  27.61 1976.62
   13:36:01.070.18-Apr-2020 3111.02 4541.93 71.17 5.00  27.81 1976.62
   13:36:01.270.18-Apr-2020 3111.02 4541.67 71.17 5.00  28.01 1976.62
   13:36:01.470.18-Apr-2020 3111.02 4541.67 71.17 5.00  28.21 1976.62
   13:36:01.670.18-Apr-2020 3111.02 4540.54 71.17 5.00  28.41 1976.62
   13:36:01.870.18-Apr-2020 3111.02 4539.91 71.17 5.00  28.61 1976.62
   13:36:02.070.18-Apr-2020 3111.02 4541.49 71.17 5.00  28.81 1976.62
   13:36:02.270.18-Apr-2020 3111.02 4541.42 71.17 5.00  29.01 1976.62
   13:36:02.470.18-Apr-2020 3111.02 4541.42 71.17 5.00  29.21 1976.62
   13:36:02.670.18-Apr-2020 3111.02 4542.73 71.17 5.00  29.41 1976.62
   13:36:02.870.18-Apr-2020 3111.02 4542.37 71.17 5.00  29.61 1976.62
   13:36:03.071.18-Apr-2020 3111.02 4542.08 71.16 5.00  29.81 1976.62
   13:36:03.271.18-Apr-2020 3111.02 4542.48 71.16 5.00  30.01 1976.62
   13:36:03.471.18-Apr-2020 3111.02 4542.48 71.16 5.00  30.21 1976.62
   13:36:03.671.18-Apr-2020 3111.02 4541.80 71.16 5.00  30.41 1976.62
   13:36:03.871.18-Apr-2020 3111.02 4541.77 71.16 5.00  30.61 1976.62
   13:36:04.071.18-Apr-2020 3111.02 4541.66 71.16 5.00  30.81 1976.62
   13:36:04.271.18-Apr-2020 3111.02 4541.55 71.16 5.00  31.01 1976.62
   13:36:04.471.18-Apr-2020 3111.02 4541.55 71.16 5.00  31.21 1976.62
   13:36:04.671.18-Apr-2020 3111.02 4542.71 71.16 5.00  31.41 1976.62
   13:36:04.871.18-Apr-2020 3111.02 4542.15 71.15 5.00  31.61 1976.62
   13:36:05.071.18-Apr-2020 3111.02 4540.53 71.15 5.00  31.81 1976.62
   13:36:05.272.18-Apr-2020 3111.02 4542.65 71.15 5.00  32.01 1976.62
   13:36:05.472.18-Apr-2020 3111.02 4542.65 71.15 5.00  32.21 1976.62
   13:36:05.672.18-Apr-2020 3111.02 4543.27 71.15 5.00  32.41 1976.62
   13:36:05.872.18-Apr-2020 3111.02 4543.10 71.15 5.00  32.61 1976.62
   13:36:06.072.18-Apr-2020 3111.02 4541.48 71.15 5.00  32.81 1976.62
   13:36:06.272.18-Apr-2020 3111.02 4544.77 71.15 5.00  33.01 1976.62
   13:36:06.472.18-Apr-2020 3111.02 4544.77 71.15 5.00  33.21 1976.62
   13:36:06.672.18-Apr-2020 3111.02 4543.66 71.15 5.00  33.42 1976.62
   13:36:06.872.18-Apr-2020 3111.02 4543.46 71.14 5.00  33.62 1976.62
   13:36:07.072.18-Apr-2020 3111.02 4541.30 71.14 5.00  33.82 1976.62
   13:36:07.272.18-Apr-2020 3111.02 4543.88 71.14 5.00  34.02 1976.62
   13:36:07.473.18-Apr-2020 3111.02 4543.88 71.14 5.00  34.22 1976.62
   13:36:07.673.18-Apr-2020 3111.02 4543.63 71.14 5.00  34.42 1976.62
   13:36:07.873.18-Apr-2020 3111.02 4543.47 71.14 5.00  34.62 1976.62
   13:36:08.073.18-Apr-2020 3111.02 4541.76 71.14 5.00  34.82 1976.62
   13:36:08.273.18-Apr-2020 3111.02 4544.73 71.14 5.00  35.02 1976.62
   13:36:08.473.18-Apr-2020 3111.02 4544.73 71.14 5.00  35.22 1976.62
   13:36:08.673.18-Apr-2020 3111.02 4544.10 71.13 5.00  35.42 1976.62
   13:36:08.873.18-Apr-2020 3111.02 4544.82 71.13 5.00  35.62 1976.62
   13:36:09.073.18-Apr-2020 3111.02 4545.51 71.13 5.00  35.82 1976.62
   13:36:09.273.18-Apr-2020 3111.02 4545.08 71.13 5.00  36.02 1976.62
   13:36:09.473.18-Apr-2020 3111.02 4545.08 71.13 5.00  36.22 1976.62
   13:36:09.674.18-Apr-2020 3111.02 4544.49 71.13 5.00  36.42 1976.62
   13:36:09.874.18-Apr-2020 3111.02 4544.13 71.13 5.00  36.62 1976.62
   13:36:10.074.18-Apr-2020 3111.02 4544.57 71.13 5.00  36.82 1976.62
   13:36:10.274.18-Apr-2020 3111.02 4544.47 71.13 5.00  37.02 1976.62
   13:36:10.474.18-Apr-2020 3111.02 4544.47 71.13 5.00  37.22 1976.62
   13:36:10.674.18-Apr-2020 3111.02 4544.01 71.12 5.00  37.42 1976.62
   13:36:10.874.18-Apr-2020 3111.02 4542.27 71.12 5.00  37.62 1976.62
   13:36:11.074.18-Apr-2020 3111.02 4544.05 71.12 5.00  37.82 1976.62
   13:36:11.274.18-Apr-2020 3111.02 4544.37 71.12 5.00  38.02 1976.62
   13:36:11.474.18-Apr-2020 3111.02 4544.37 71.12 5.00  38.22 1976.62
   13:36:11.674.18-Apr-2020 3111.02 4545.21 71.12 5.00  38.42 1976.62
   13:36:11.875.18-Apr-2020 3111.02 4545.67 71.12 5.00  38.62 1976.62
   13:36:12.075.18-Apr-2020 3111.02 4545.15 71.12 5.00  38.82 1976.62
   13:36:12.275.18-Apr-2020 3111.02 4544.96 71.12 5.00  39.02 1976.62
   13:36:12.475.18-Apr-2020 3111.02 4544.96 71.12 5.00  39.22 1976.62
   13:36:12.675.18-Apr-2020 3111.02 4544.55 71.11 5.00  39.42 1976.62
   13:36:12.875.18-Apr-2020 3111.02 4544.31 71.11 5.00  39.62 1976.62
   13:36:13.075.18-Apr-2020 3111.02 4544.17 71.11 5.00  39.82 1976.62
   13:36:13.275.18-Apr-2020 3111.02 4544.13 71.11 5.00  40.02 1976.62
   13:36:13.475.18-Apr-2020 3111.02 4544.13 71.11 5.00  40.22 1976.62
   13:36:13.675.18-Apr-2020 3111.02 4543.29 71.11 5.00  40.42 1976.62
   13:36:13.875.18-Apr-2020 3111.02 4542.86 71.11 5.00  40.62 1976.62
   13:36:14.076.18-Apr-2020 3111.02 4542.16 71.11 5.00  40.82 1976.62
   13:36:14.276.18-Apr-2020 3111.02 4544.02 71.10 5.00  41.02 1976.62
   13:36:14.476.18-Apr-2020 3111.02 4544.02 71.10 5.00  41.22 1976.62
   13:36:14.676.18-Apr-2020 3111.02 4540.69 71.10 5.00  41.42 1976.62
   13:36:14.876.18-Apr-2020 3111.02 4544.55 71.10 5.00  41.62 1976.62
   13:36:15.076.18-Apr-2020 3111.02 4543.95 71.10 5.00  41.82 1976.62
   13:36:15.276.18-Apr-2020 3111.02 4543.90 71.10 5.00  42.02 1976.62
   13:36:15.476.18-Apr-2020 3111.02 4543.90 71.10 5.00  42.22 1976.62
   13:36:15.676.18-Apr-2020 3111.02 4543.54 71.10 5.00  42.42 1976.62
   13:36:15.876.18-Apr-2020 3111.02 4543.28 71.10 5.00  42.62 1976.62
   13:36:16.076.18-Apr-2020 3111.02 4540.52 71.10 5.00  42.82 1976.62
   13:36:16.276.18-Apr-2020 3111.02 4543.06 71.09 5.00  43.02 1976.62
   13:36:16.477.18-Apr-2020 3111.02 4543.06 71.09 5.00  43.22 1976.62
   13:36:16.677.18-Apr-2020 3111.02 4539.41 71.09 5.00  43.42 1976.62
   13:36:16.877.18-Apr-2020 3111.02 4543.04 71.09 5.00  43.62 1976.62
   13:36:17.077.18-Apr-2020 3111.02 4542.70 71.09 5.00  43.82 1976.62
   13:36:17.277.18-Apr-2020 3111.02 4541.41 71.09 5.00  44.02 1976.62
   13:36:17.477.18-Apr-2020 3111.02 4541.41 71.09 5.00  44.22 1976.62
   13:36:17.677.18-Apr-2020 3111.02 4542.67 71.09 5.00  44.42 1976.62
   13:36:17.877.18-Apr-2020 3111.02 4543.04 71.09 5.00  44.62 1976.62
   13:36:18.077.18-Apr-2020 3111.02 4542.38 71.08 5.00  44.82 1976.62
   13:36:18.277.18-Apr-2020 3111.02 4543.18 71.08 5.00  45.02 1976.62
   13:36:18.477.18-Apr-2020 3111.02 4543.18 71.08 5.00  45.22 1976.62
   13:36:18.678.18-Apr-2020 3111.02 4542.04 71.08 5.00  45.42 1976.62
   13:36:18.878.18-Apr-2020 3111.02 4541.78 71.08 5.00  45.62 1976.62
   13:36:19.078.18-Apr-2020 3111.02 4542.04 71.08 5.00  45.82 1976.62
