~Version Information
 VERS.                  2.0:   CWLS log ASCII Standard -VERSION 2.0
 WRAP.                   NO:   One line per depth step
~Well Information Block
#MNEM.UNIT     VALUE/NAME     DESCRIPTION
#---------     -----------    ---------------------------
 STRT.S             13:35:33 18-Apr-20: START TIME 13:35:33 18-Apr-20
 STOP.S             13:42:31 18-Apr-20: STOP TIME  13:42:31 18-Apr-20
 STEP.S                   0.00: STEP TIME
 NULL.                 -999.25: NULL VALUE
 DFWT.                        :  DIST FWL TEXT
 DFST.                        :  DIST FSL TEXT
 DMF .                        :  DRILL MEAS FROM
 STIM.      16.29.52 23-Mar-20:  START TIME
 DATE.      16.29.52 23-Mar-20:  END TIME
 SPUD.               23-Mar-20:  SPUD DATE
 NREF.                    Grid:  NORTH REFERENCE
 HPTY.       Minimum Curvature:  HOLE POS TYPE
 DMOD.             Drill Model:  DRILL MOD DESC
 SVYD.                  Survey:  SURVEY DESC
 ILTD.               Lithology:  INTERP LTH DESC
 FTOP.          Formation Tops:  FORM TOPS DESC
 SON .        AZ-XX-0906252240:  JOB NUMBER
 RIG .             West Chirag:  RIG NAME
 PDAT.          Mean Sea Level:  PERMANENT DATUM
 FLD .                     ACG:  FIELD NAME
 CTRY.              Azerbaijan:  COUNTRY NAME
 WELL.           J23 (Slot 07):  WELL NAME
 SRVC.          Turan Drilling:  CONTRACTOR
 COMP.     BP Exploration (Casoian Sea) Ltd:  COMPANY
 WTYP.                Deviated:  WELL TYPE
 MDS .        Operator Entered:  MAG DATA SOURCE
 UWI .                     N/A:  UNIQUE WELL IDENTIFIER
 API .                     N/A:  API NUMBER
 BASE.              Azerbaijan:  LOGGING EQUIPMENT BASE LOCATION
 REGN.                   EESSA:  REGION
 PROV.                    Baku:  PROVINCE
 STAT.                    Baku:  STATE NAME
 MWDS.                     N/A:  MWD SHOP
 JOBN.        AZ-XX-0906252240:  JOB TICKET NUMB
 DOE .                     N/A:  DOE NUMBER
 DCON.         Sperry Drilling:  DIRECTNL CONTR
 UNIT.                     N/A:  LOGGING EQUIPMENT ID
 CNTY.                        :  COUNTY
 LOC .                        :  LOCATION
 LMF .             Drill Floor:  LOG MEASURED FROM
 TVDS.m                  43.00:  TVDSS CORRECTN
 LATI.deg                40.13:  LATITUDE
 LONG.deg                51.22:  LONGITUDE
 WHNS.m                   9.43:  WELL HEAD N/S
 WHEW.m                  -8.91:  WELL HEAD E/W
 UTMX.m              519005.06:  UTM X
 UTMY.m             4443793.85:  UTM Y
 DFWL.m                   0.00:  DISTANCE FWL
 DFSL.m                   0.00:  DISTANCE FSL
 SDEP.m                   0.00:  START DEPTH
 TDD .m                   0.00:  TOTAL DEPTH (DRILLER)
 VSDR.deg               179.88:  VERT SEC DIRECT
 GVFD.g                   1.00:  GRAVITY FIELD
 MFLD.nT              50281.00:  MAGNETIC FIELD
 MDIP.deg                59.58:  MAGNETIC DIP
 MDEC.deg                 6.48:  MAGNETIC DECL
 GRDC.deg                 0.14:  GRID CORRECTION
 AZTC.deg                 6.34:  AZM TOTAL CORR
 EPD .m                   0.00:  ELEVATION
 EGL .m                   0.00:  GROUND ELEVATION
 WDMS.m                 169.80:  WD ELEV
 APD .m                  43.00:  DEPTH ABOVE PD
 DEP .m                 354.17:  DEPTH
 AGAP.m                  43.00:  AIR GAP
 VSEW.m                  -8.91:  VERT SEC E/W
 VSNS.m                   9.43:  VERT SEC N/S
 EKB .m                   0.00:  KB ELEVATION
 EDF .m                  43.00:  DF ELEVATION
 TDL .m                1326.00:  TOTAL DEPTH (LOGGER)
 VSC .                       0:  VS TO CLOSURE
 MAGU.                 1850704:  MAGUTM CHECKSUM
~Parameter Information Block
#MNEM.UNIT       Value        Description
#---------     -----------    ---------------------------
 AV  .mps                 1.17:  Ann Velocity 
 AZIF.deg               184.04:  Azm, Final 
 BHAT.        Rotary Steerable:  BHA Type 
 BREV.rev            620000.00:  Rev Bit Total 
 BROT.°/30m               0.20:  Build Rotating 
 BS  .in                 14.75:  Bit Size 
 BSZ .in                 14.75:  Bit Size 
 BTPL.psig              618.00:  Bit Press Loss 
 CABU.                      No:  Customer Abuse 
 COMM.                     ôÎT:  Run Comments 1 
 TCS .hr                 87.68:  Time Ciculation Ended 
 CV  .mps                 3.10:  Crit Velocity 
 DD1 .          Rashad Habibov:  Direct Drillr 1 
 DD2 .         Rasim Ibrahimov:  Direct Drillr 2 
 DDSV.               Geo-Pilot:  DD Service 
 DEFF.%                  98.00:  % Det Eff 
 DLRX.°/30m               1.48:  Dogleg Rot Max 
 DLSO.°/30m               0.50:  Dogleg Oriented 
 DLSX.°/30m               1.48:  Dogleg Str Max 
 DRET.      06.18.56 19-Apr-20:  Drill End Time 
 DRST.      15.00.56 15-Apr-20:  Drill Start Tim 
 DTIM.hr                 51.73:  Time Drilling 
 EDEP.m                3410.01:  End Depth 
 ENG1.        Marcelo Sandoval:  Engineer 1 
 ENG2.        Davud Huseynzade:  Engineer 2 
 ENG3.          Ruslan Safarov:  Engineer 3 
 ETIM.      04.00.56 20-Apr-20:  End Time 
 FLOI.gpm              1000.00:  Flow In 
 FLON.gpm               600.00:  Flow In Min 
 FLOS.cptm                0.00:  Fluid Loss 
 FLOX.gpm              1200.00:  Flow In Max 
 HFLO.                      No:  High Flow 
 HPRE.                     Yes:  High Pressure 
 HTEM.                      No:  High Temp 
 HYDO.m                   1.80:  Hydro Offset 
 IFIN.deg                70.04:  Inc, Final 
 IMAX.deg                70.56:  Inc Max 
 IMIN.deg                69.85:  Inc Min 
 IMND.m                3103.24:  Inc Min Depth 
 IMXD.m                2876.63:  Inc Max Depth 
 JARR.                      No:  Jarring 
 LETM.      06.18.56 19-Apr-20:  Log End Time 
 LOST.hr                     0:  Lost Rig Time 
 LSTM.      15.00.56 15-Apr-20:  Log Start Time 
 MDCL.ppm             42000.00:  Mud Chlorides 
 MDES.     Inversion Oil/Synthetic:  Mud Desc 
 DFD .sg                  1.58:  Mud Density 
 MDMN.sg                  1.58:  Dens Mud Min 
 MDMX.sg                  1.58:  Dens Mud Max 
 MOIL.                      71:  Run Mud Oil % 
 MOWR.                   71:29:  Run Mud OWR 
 MSND.                       0:  Run Mud Sand % 
 MSOL.                    23.3:  Run Mud Solids% 
 DFV .spqt               84.00:  Mud Viscosity 
 MWOD.in                  9.50:  MWD Tool OD 
 MWSI.                      No:  Serv Intrp, MWD 
 OTIM.hr                139.62:  Time Operating 
 PMAX.psia             5364.69:  Press Op, Max 
 PV  .cP                 80.00:  Mud PV 
 RUN .                     700:  Run Number 
 ROPA.m/hr               25.00:  ROP Avg 
 ROPN.m/hr               11.00:  ROP Min 
 ROPX.m/hr               36.00:  ROP Max 
 RPMA.rpm               130.00:  RPM Surface Avg 
 RPMN.rpm               120.00:  RPM Surface Min 
 RPMX.rpm               140.00:  RPM Surface Max 
 RRUN.                    0700:  Rig Run Number 
 SAZI.deg               183.25:  Azm, Start 
 SDEP.m                2084.00:  Start Depth 
 SIDD.                      No:  Serv Intrp, DD 
 SINC.deg                70.38:  Inc, Start 
 SPPA.psig             4800.00:  SPP Avg 
 SPPN.psig             4400.00:  SPP Min 
 SPPX.psig             5350.00:  SPP Max 
 STIM.      16.30.56 14-Apr-20:  Start Time 
 SVCS.                 DD, MWD:  Services 
 SVER.                    9.20:  Sperry Version 
 TDAT.m                1326.00:  Tot Depth Attmp 
 TDDF.                      No:  Trip for DD 
 TDLG.m                1326.00:  Tot Depth Loggd 
 TFF .                      No:  Trip for Fail 
 TQAA.f-kp               19.00:  Torque Abs Avg 
 TQAN.f-kp                8.00:  Torque Abs Min 
 TQAX.f-kp               27.00:  Torque Abs Max 
 TRRT.°/30m               0.50:  Turn Rotating 
 MRT .                    HCIM:  Maximum Recorded Temperature 
 TTMX.degC               82.35:  Max Tool Temp 
 VS01.       905245875X1Z1W1C8:  Virtual Str1 SN 
 VS02.       90608022F11V7D1A9:  Virtual Str2 SN 
 VS03.            90605473R5C9:  Virtual Str3 SN 
 WBMN.klb                11.00:  WOB Min 
 WOBA.klb                21.00:  WOB Avg 
 WOBX.klb                30.00:  WOB Max 
 YP  .lhf2               45.00:  Yield Point 
~Curve Information Block
#MNEM.UNIT                 API CODE     Curve Description
#---------               -----------    ---------------------------
 TIME.HHMMSS            00 000 000 000:  GT Time & Date
 GTDEPTH.m              00 000 000 000:  GT Depth
 GTPQH.psia             00 000 000 000:  GT HR Quartz Pressure
 GTTQ.degC              00 000 000 000:  GT Quartz Temperature
 GTTN.NONE              00 000 000 000:  GT Test Number
 GTET.sec               00 000 000 000:  GT Elapsed Test Time
 GTTVD.m                00 000 000 000:  GT True Vertical Depth
#Other Information
#
#WARRANTY: Halliburton will use its best efforts to furnish customers with 
#accurate information and interpretations that are part of, and incident to, the services 
#provided.  However, Halliburton cannot and does not warrant the accuracy 
#or correctness of such information and interpretations.  Under no circumstances should any 
#such information or interpretation be relied upon as the sole basis for any drilling, 
#completion, production, or financial decision or any procedure involving any risk to the 
#safety of any drilling venture, drilling rig or its crew or any other third party.  The 
#Customer has full responsibility for all drilling, completion and production operation.  
#Halliburton makes no representations or warranties, either expressed or 
#implied, including, but not limited to, the implied warranties of merchantability or fitness 
#for a particular purpose, with respect to the services rendered.  In no event will 
#Halliburton be liable for failure to obtain any particular results or for 
#any damages, including, but not limited to, indirect, special or consequential damages, 
#resulting from the use of any information or interpretation provided by Halliburton.
#
~A           TIME           GTDEPTH  GTPQH  GTTQ  GTTN  GTET   GTTVD  
# ...
   13:38:37.340.18-Apr-2020 3111.02 3318.28 70.35 5.00 184.08 1976.62
   13:38:37.540.18-Apr-2020 3111.02 3318.28 70.35 5.00 184.28 1976.62
   13:38:37.740.18-Apr-2020 3111.02 3318.27 70.35 5.00 184.48 1976.62
   13:38:37.940.18-Apr-2020 3111.02 3318.27 70.35 5.00 184.68 1976.62
   13:38:38.140.18-Apr-2020 3111.02 3318.27 70.34 5.00 184.88 1976.62
   13:38:38.340.18-Apr-2020 3111.02 3318.28 70.34 5.00 185.08 1976.62
   13:38:38.540.18-Apr-2020 3111.02 3318.28 70.34 5.00 185.28 1976.62
   13:38:38.741.18-Apr-2020 3111.02 3318.27 70.34 5.00 185.48 1976.62
   13:38:38.941.18-Apr-2020 3111.02 3318.25 70.34 5.00 185.68 1976.62
   13:38:39.141.18-Apr-2020 3111.02 3318.25 70.34 5.00 185.88 1976.62
   13:38:39.341.18-Apr-2020 3111.02 3318.28 70.34 5.00 186.08 1976.62
   13:38:39.541.18-Apr-2020 3111.02 3318.28 70.34 5.00 186.28 1976.62
   13:38:39.741.18-Apr-2020 3111.02 3318.26 70.34 5.00 186.48 1976.62
   13:38:39.941.18-Apr-2020 3111.02 3318.26 70.34 5.00 186.68 1976.62
   13:38:40.141.18-Apr-2020 3111.02 3318.27 70.33 5.00 186.88 1976.62
   13:38:40.341.18-Apr-2020 3111.02 3318.26 70.33 5.00 187.08 1976.62
   13:38:40.541.18-Apr-2020 3111.02 3318.26 70.33 5.00 187.28 1976.62
   13:38:40.741.18-Apr-2020 3111.02 3318.26 70.33 5.00 187.48 1976.62
   13:38:40.942.18-Apr-2020 3111.02 3318.26 70.33 5.00 187.68 1976.62
   13:38:41.142.18-Apr-2020 3111.02 3318.26 70.33 5.00 187.88 1976.62
   13:38:41.342.18-Apr-2020 3111.02 3318.26 70.33 5.00 188.08 1976.62
   13:38:41.542.18-Apr-2020 3111.02 3318.26 70.33 5.00 188.28 1976.62
   13:38:41.742.18-Apr-2020 3111.02 3318.25 70.33 5.00 188.48 1976.62
   13:38:41.942.18-Apr-2020 3111.02 3318.27 70.33 5.00 188.68 1976.62
   13:38:42.142.18-Apr-2020 3111.02 3318.27 70.32 5.00 188.88 1976.62
   13:38:42.342.18-Apr-2020 3111.02 3318.26 70.32 5.00 189.09 1976.62
   13:38:42.542.18-Apr-2020 3111.02 3318.26 70.32 5.00 189.29 1976.62
   13:38:42.742.18-Apr-2020 3111.02 3318.26 70.32 5.00 189.49 1976.62
   13:38:42.942.18-Apr-2020 3111.02 3318.26 70.32 5.00 189.69 1976.62
   13:38:43.143.18-Apr-2020 3111.02 3318.26 70.32 5.00 189.89 1976.62
   13:38:43.343.18-Apr-2020 3111.02 3318.25 70.32 5.00 190.09 1976.62
   13:38:43.543.18-Apr-2020 3111.02 3318.25 70.32 5.00 190.29 1976.62
   13:38:43.743.18-Apr-2020 3111.02 3318.26 70.32 5.00 190.49 1976.62
   13:38:43.943.18-Apr-2020 3111.02 3318.24 70.31 5.00 190.69 1976.62
   13:38:44.143.18-Apr-2020 3111.02 3318.25 70.31 5.00 190.89 1976.62
   13:38:44.343.18-Apr-2020 3111.02 3318.24 70.31 5.00 191.09 1976.62
   13:38:44.543.18-Apr-2020 3111.02 3318.24 70.31 5.00 191.29 1976.62
   13:38:44.743.18-Apr-2020 3111.02 3318.25 70.31 5.00 191.49 1976.62
   13:38:44.943.18-Apr-2020 3111.02 3318.25 70.31 5.00 191.69 1976.62
   13:38:45.143.18-Apr-2020 3111.02 3318.24 70.31 5.00 191.89 1976.62
   13:38:45.344.18-Apr-2020 3111.02 3318.25 70.31 5.00 192.09 1976.62
   13:38:45.544.18-Apr-2020 3111.02 3318.25 70.31 5.00 192.29 1976.62
   13:38:45.744.18-Apr-2020 3111.02 3318.25 70.31 5.00 192.49 1976.62
   13:38:45.944.18-Apr-2020 3111.02 3318.25 70.30 5.00 192.69 1976.62
   13:38:46.144.18-Apr-2020 3111.02 3318.25 70.30 5.00 192.89 1976.62
   13:38:46.344.18-Apr-2020 3111.02 3318.25 70.30 5.00 193.09 1976.62
   13:38:46.544.18-Apr-2020 3111.02 3318.25 70.30 5.00 193.29 1976.62
   13:38:46.744.18-Apr-2020 3111.02 3318.24 70.30 5.00 193.49 1976.62
   13:38:46.944.18-Apr-2020 3111.02 3318.24 70.30 5.00 193.69 1976.62
   13:38:47.144.18-Apr-2020 3111.02 3318.24 70.30 5.00 193.89 1976.62
   13:38:47.344.18-Apr-2020 3111.02 3318.25 70.30 5.00 194.09 1976.62
   13:38:47.545.18-Apr-2020 3111.02 3318.25 70.30 5.00 194.29 1976.62
   13:38:47.745.18-Apr-2020 3111.02 3318.24 70.30 5.00 194.49 1976.62
   13:38:47.945.18-Apr-2020 3111.02 3318.25 70.29 5.00 194.69 1976.62
   13:38:48.145.18-Apr-2020 3111.02 3318.24 70.29 5.00 194.89 1976.62
   13:38:48.345.18-Apr-2020 3111.02 3318.23 70.29 5.00 195.09 1976.62
   13:38:48.545.18-Apr-2020 3111.02 3318.23 70.29 5.00 195.29 1976.62
   13:38:48.745.18-Apr-2020 3111.02 3318.24 70.29 5.00 195.49 1976.62
   13:38:48.945.18-Apr-2020 3111.02 3318.25 70.29 5.00 195.69 1976.62
   13:38:49.145.18-Apr-2020 3111.02 3318.25 70.29 5.00 195.89 1976.62
   13:38:49.345.18-Apr-2020 3111.02 3318.25 70.29 5.00 196.09 1976.62
   13:38:49.545.18-Apr-2020 3111.02 3318.25 70.29 5.00 196.29 1976.62
   13:38:49.746.18-Apr-2020 3111.02 3318.24 70.29 5.00 196.49 1976.62
   13:38:49.946.18-Apr-2020 3111.02 3318.23 70.28 5.00 196.69 1976.62
   13:38:50.146.18-Apr-2020 3111.02 3318.24 70.28 5.00 196.89 1976.62
   13:38:50.346.18-Apr-2020 3111.02 3318.25 70.28 5.00 197.09 1976.62
   13:38:50.546.18-Apr-2020 3111.02 3318.25 70.28 5.00 197.29 1976.62
   13:38:50.746.18-Apr-2020 3111.02 3318.24 70.28 5.00 197.49 1976.62
   13:38:50.946.18-Apr-2020 3111.02 3318.23 70.28 5.00 197.69 1976.62
   13:38:51.146.18-Apr-2020 3111.02 3318.26 70.28 5.00 197.89 1976.62
   13:38:51.346.18-Apr-2020 3111.02 3318.26 70.28 5.00 198.09 1976.62
   13:38:51.546.18-Apr-2020 3111.02 3318.26 70.28 5.00 198.29 1976.62
   13:38:51.746.18-Apr-2020 3111.02 3318.25 70.27 5.00 198.49 1976.62
   13:38:51.947.18-Apr-2020 3111.02 3318.26 70.27 5.00 198.69 1976.62
   13:38:52.147.18-Apr-2020 3111.02 3318.25 70.27 5.00 198.89 1976.62
   13:38:52.347.18-Apr-2020 3111.02 3318.25 70.27 5.00 199.09 1976.62
   13:38:52.547.18-Apr-2020 3111.02 3318.25 70.27 5.00 199.29 1976.62
   13:38:52.747.18-Apr-2020 3111.02 3318.25 70.27 5.00 199.49 1976.62
   13:38:52.947.18-Apr-2020 3111.02 3318.26 70.27 5.00 199.69 1976.62
   13:38:53.147.18-Apr-2020 3111.02 3318.24 70.27 5.00 199.89 1976.62
   13:38:53.347.18-Apr-2020 3111.02 3318.23 70.27 5.00 200.09 1976.62
   13:38:53.547.18-Apr-2020 3111.02 3318.23 70.27 5.00 200.29 1976.62
   13:38:53.747.18-Apr-2020 3111.02 3318.24 70.26 5.00 200.49 1976.62
   13:38:53.947.18-Apr-2020 3111.02 3318.24 70.26 5.00 200.69 1976.62
   13:38:54.147.18-Apr-2020 3111.02 3318.24 70.26 5.00 200.89 1976.62
   13:38:54.348.18-Apr-2020 3111.02 3318.24 70.26 5.00 201.09 1976.62
   13:38:54.548.18-Apr-2020 3111.02 3318.24 70.26 5.00 201.29 1976.62
   13:38:54.748.18-Apr-2020 3111.02 3318.24 70.26 5.00 201.49 1976.62
   13:38:54.948.18-Apr-2020 3111.02 3318.25 70.26 5.00 201.69 1976.62
   13:38:55.148.18-Apr-2020 3111.02 3318.25 70.26 5.00 201.89 1976.62
   13:38:55.348.18-Apr-2020 3111.02 3318.24 70.26 5.00 202.09 1976.62
   13:38:55.548.18-Apr-2020 3111.02 3318.24 70.26 5.00 202.29 1976.62
   13:38:55.748.18-Apr-2020 3111.02 3318.25 70.25 5.00 202.49 1976.62
   13:38:55.948.18-Apr-2020 3111.02 3318.25 70.25 5.00 202.69 1976.62
   13:38:56.148.18-Apr-2020 3111.02 3318.24 70.25 5.00 202.89 1976.62
   13:38:56.348.18-Apr-2020 3111.02 3318.25 70.25 5.00 203.09 1976.62
   13:38:56.549.18-Apr-2020 3111.02 3318.25 70.25 5.00 203.29 1976.62
   13:38:56.749.18-Apr-2020 3111.02 3318.25 70.25 5.00 203.49 1976.62
   13:38:56.949.18-Apr-2020 3111.02 3318.24 70.25 5.00 203.69 1976.62
   13:38:57.149.18-Apr-2020 3111.02 3318.25 70.25 5.00 203.89 1976.62
   13:38:57.349.18-Apr-2020 3111.02 3318.24 70.25 5.00 204.09 1976.62
   13:38:57.549.18-Apr-2020 3111.02 3318.24 70.25 5.00 204.29 1976.62
   13:38:57.749.18-Apr-2020 3111.02 3318.25 70.24 5.00 204.49 1976.62
   13:38:57.949.18-Apr-2020 3111.02 3318.24 70.24 5.00 204.69 1976.62
   13:38:58.149.18-Apr-2020 3111.02 3318.25 70.24 5.00 204.89 1976.62
   13:38:58.349.18-Apr-2020 3111.02 3318.25 70.24 5.00 205.09 1976.62
   13:38:58.549.18-Apr-2020 3111.02 3318.25 70.24 5.00 205.29 1976.62
   13:38:58.750.18-Apr-2020 3111.02 3318.25 70.24 5.00 205.49 1976.62
   13:38:58.950.18-Apr-2020 3111.02 3318.25 70.24 5.00 205.69 1976.62
   13:38:59.150.18-Apr-2020 3111.02 3318.24 70.24 5.00 205.89 1976.62
   13:38:59.350.18-Apr-2020 3111.02 3318.26 70.24 5.00 206.09 1976.62
   13:38:59.550.18-Apr-2020 3111.02 3318.26 70.24 5.00 206.29 1976.62
   13:38:59.750.18-Apr-2020 3111.02 3318.25 70.23 5.00 206.49 1976.62
   13:38:59.950.18-Apr-2020 3111.02 3318.24 70.23 5.00 206.69 1976.62
   13:39:00.150.18-Apr-2020 3111.02 3318.24 70.23 5.00 206.89 1976.62
