~Version Information
 VERS.                  2.0:   CWLS log ASCII Standard -VERSION 2.0
 WRAP.                   NO:   One line per depth step
~Well Information Block
#MNEM.UNIT     VALUE/NAME     DESCRIPTION
#---------     -----------    ---------------------------
 STRT.S             11:18:22 18-Apr-20: START TIME 11:18:22 18-Apr-20
 STOP.S             11:25:23 18-Apr-20: STOP TIME  11:25:23 18-Apr-20
 STEP.S                   0.00: STEP TIME
 NULL.                 -999.25: NULL VALUE
 DFWT.                        :  DIST FWL TEXT
 DFST.                        :  DIST FSL TEXT
 DMF .                        :  DRILL MEAS FROM
 STIM.      16.29.52 23-Mar-20:  START TIME
 DATE.      16.29.52 23-Mar-20:  END TIME
 SPUD.               23-Mar-20:  SPUD DATE
 NREF.                    Grid:  NORTH REFERENCE
 HPTY.       Minimum Curvature:  HOLE POS TYPE
 DMOD.             Drill Model:  DRILL MOD DESC
 SVYD.                  Survey:  SURVEY DESC
 ILTD.               Lithology:  INTERP LTH DESC
 FTOP.          Formation Tops:  FORM TOPS DESC
 SON .        AZ-XX-0906252240:  JOB NUMBER
 RIG .             West Chirag:  RIG NAME
 PDAT.          Mean Sea Level:  PERMANENT DATUM
 FLD .                     ACG:  FIELD NAME
 CTRY.              Azerbaijan:  COUNTRY NAME
 WELL.           J23 (Slot 07):  WELL NAME
 SRVC.          Turan Drilling:  CONTRACTOR
 COMP.     BP Exploration (Casoian Sea) Ltd:  COMPANY
 WTYP.                Deviated:  WELL TYPE
 MDS .        Operator Entered:  MAG DATA SOURCE
 UWI .                     N/A:  UNIQUE WELL IDENTIFIER
 API .                     N/A:  API NUMBER
 BASE.              Azerbaijan:  LOGGING EQUIPMENT BASE LOCATION
 REGN.                   EESSA:  REGION
 PROV.                    Baku:  PROVINCE
 STAT.                    Baku:  STATE NAME
 MWDS.                     N/A:  MWD SHOP
 JOBN.        AZ-XX-0906252240:  JOB TICKET NUMB
 DOE .                     N/A:  DOE NUMBER
 DCON.         Sperry Drilling:  DIRECTNL CONTR
 UNIT.                     N/A:  LOGGING EQUIPMENT ID
 CNTY.                        :  COUNTY
 LOC .                        :  LOCATION
 LMF .             Drill Floor:  LOG MEASURED FROM
 TVDS.m                  43.00:  TVDSS CORRECTN
 LATI.deg                40.13:  LATITUDE
 LONG.deg                51.22:  LONGITUDE
 WHNS.m                   9.43:  WELL HEAD N/S
 WHEW.m                  -8.91:  WELL HEAD E/W
 UTMX.m              519005.06:  UTM X
 UTMY.m             4443793.85:  UTM Y
 DFWL.m                   0.00:  DISTANCE FWL
 DFSL.m                   0.00:  DISTANCE FSL
 SDEP.m                   0.00:  START DEPTH
 TDD .m                   0.00:  TOTAL DEPTH (DRILLER)
 VSDR.deg               179.88:  VERT SEC DIRECT
 GVFD.g                   1.00:  GRAVITY FIELD
 MFLD.nT              50281.00:  MAGNETIC FIELD
 MDIP.deg                59.58:  MAGNETIC DIP
 MDEC.deg                 6.48:  MAGNETIC DECL
 GRDC.deg                 0.14:  GRID CORRECTION
 AZTC.deg                 6.34:  AZM TOTAL CORR
 EPD .m                   0.00:  ELEVATION
 EGL .m                   0.00:  GROUND ELEVATION
 WDMS.m                 169.80:  WD ELEV
 APD .m                  43.00:  DEPTH ABOVE PD
 DEP .m                 354.17:  DEPTH
 AGAP.m                  43.00:  AIR GAP
 VSEW.m                  -8.91:  VERT SEC E/W
 VSNS.m                   9.43:  VERT SEC N/S
 EKB .m                   0.00:  KB ELEVATION
 EDF .m                  43.00:  DF ELEVATION
 TDL .m                1326.00:  TOTAL DEPTH (LOGGER)
 VSC .                       0:  VS TO CLOSURE
 MAGU.                 1850704:  MAGUTM CHECKSUM
~Parameter Information Block
#MNEM.UNIT       Value        Description
#---------     -----------    ---------------------------
 AV  .mps                 1.17:  Ann Velocity 
 AZIF.deg               184.04:  Azm, Final 
 BHAT.        Rotary Steerable:  BHA Type 
 BREV.rev            620000.00:  Rev Bit Total 
 BROT.°/30m               0.20:  Build Rotating 
 BS  .in                 14.75:  Bit Size 
 BSZ .in                 14.75:  Bit Size 
 BTPL.psig              618.00:  Bit Press Loss 
 CABU.                      No:  Customer Abuse 
 TCS .hr                 87.68:  Time Ciculation Ended 
 CV  .mps                 3.10:  Crit Velocity 
 DD1 .          Rashad Habibov:  Direct Drillr 1 
 DD2 .         Rasim Ibrahimov:  Direct Drillr 2 
 DDSV.               Geo-Pilot:  DD Service 
 DEFF.%                  98.00:  % Det Eff 
 DLRX.°/30m               1.48:  Dogleg Rot Max 
 DLSO.°/30m               0.50:  Dogleg Oriented 
 DLSX.°/30m               1.48:  Dogleg Str Max 
 DRET.      06.18.56 19-Apr-20:  Drill End Time 
 DRST.      15.00.56 15-Apr-20:  Drill Start Tim 
 DTIM.hr                 51.73:  Time Drilling 
 EDEP.m                3410.01:  End Depth 
 ENG1.        Marcelo Sandoval:  Engineer 1 
 ENG2.        Davud Huseynzade:  Engineer 2 
 ENG3.          Ruslan Safarov:  Engineer 3 
 ETIM.      04.00.56 20-Apr-20:  End Time 
 FLOI.gpm              1000.00:  Flow In 
 FLON.gpm               600.00:  Flow In Min 
 FLOS.cptm                0.00:  Fluid Loss 
 FLOX.gpm              1200.00:  Flow In Max 
 HFLO.                      No:  High Flow 
 HPRE.                     Yes:  High Pressure 
 HTEM.                      No:  High Temp 
 HYDO.m                   1.80:  Hydro Offset 
 IFIN.deg                70.04:  Inc, Final 
 IMAX.deg                70.56:  Inc Max 
 IMIN.deg                69.85:  Inc Min 
 IMND.m                3103.24:  Inc Min Depth 
 IMXD.m                2876.63:  Inc Max Depth 
 JARR.                      No:  Jarring 
 LETM.      06.18.56 19-Apr-20:  Log End Time 
 LOST.hr                     0:  Lost Rig Time 
 LSTM.      15.00.56 15-Apr-20:  Log Start Time 
 MDCL.ppm             42000.00:  Mud Chlorides 
 MDES.     Inversion Oil/Synthetic:  Mud Desc 
 DFD .sg                  1.58:  Mud Density 
 MDMN.sg                  1.58:  Dens Mud Min 
 MDMX.sg                  1.58:  Dens Mud Max 
 MOIL.                      71:  Run Mud Oil % 
 MOWR.                   71:29:  Run Mud OWR 
 MSND.                       0:  Run Mud Sand % 
 MSOL.                    23.3:  Run Mud Solids% 
 DFV .spqt               84.00:  Mud Viscosity 
 MWOD.in                  9.50:  MWD Tool OD 
 MWSI.                      No:  Serv Intrp, MWD 
 OTIM.hr                139.62:  Time Operating 
 PMAX.psia             5364.69:  Press Op, Max 
 PV  .cP                 80.00:  Mud PV 
 RUN .                     700:  Run Number 
 ROPA.m/hr               25.00:  ROP Avg 
 ROPN.m/hr               11.00:  ROP Min 
 ROPX.m/hr               36.00:  ROP Max 
 RPMA.rpm               130.00:  RPM Surface Avg 
 RPMN.rpm               120.00:  RPM Surface Min 
 RPMX.rpm               140.00:  RPM Surface Max 
 RRUN.                    0700:  Rig Run Number 
 SAZI.deg               183.25:  Azm, Start 
 SDEP.m                2084.00:  Start Depth 
 SIDD.                      No:  Serv Intrp, DD 
 SINC.deg                70.38:  Inc, Start 
 SPPA.psig             4800.00:  SPP Avg 
 SPPN.psig             4400.00:  SPP Min 
 SPPX.psig             5350.00:  SPP Max 
 STIM.      16.30.56 14-Apr-20:  Start Time 
 SVCS.                 DD, MWD:  Services 
 SVER.                    9.20:  Sperry Version 
 TDAT.m                1326.00:  Tot Depth Attmp 
 TDDF.                      No:  Trip for DD 
 TDLG.m                1326.00:  Tot Depth Loggd 
 TFF .                      No:  Trip for Fail 
 TQAA.f-kp               19.00:  Torque Abs Avg 
 TQAN.f-kp                8.00:  Torque Abs Min 
 TQAX.f-kp               27.00:  Torque Abs Max 
 TRRT.°/30m               0.50:  Turn Rotating 
 MRT .                    HCIM:  Maximum Recorded Temperature 
 TTMX.degC               82.35:  Max Tool Temp 
 VS01.       905245875X1Z1W1C8:  Virtual Str1 SN 
 VS02.       90608022F11V7D1A9:  Virtual Str2 SN 
 VS03.            90605473R5C9:  Virtual Str3 SN 
 WBMN.klb                11.00:  WOB Min 
 WOBA.klb                21.00:  WOB Avg 
 WOBX.klb                30.00:  WOB Max 
 YP  .lhf2               45.00:  Yield Point 
~Curve Information Block
#MNEM.UNIT                 API CODE     Curve Description
#---------               -----------    ---------------------------
 TIME.HHMMSS            00 000 000 000:  GT Time & Date
 GTDEPTH.m              00 000 000 000:  GT Depth
 GTPQH.psia             00 000 000 000:  GT HR Quartz Pressure
 GTTQ.degC              00 000 000 000:  GT Quartz Temperature
 GTTN.NONE              00 000 000 000:  GT Test Number
 GTET.sec               00 000 000 000:  GT Elapsed Test Time
 GTTVD.m                00 000 000 000:  GT True Vertical Depth
#Other Information
#
#WARRANTY: Halliburton will use its best efforts to furnish customers with 
#accurate information and interpretations that are part of, and incident to, the services 
#provided.  However, Halliburton cannot and does not warrant the accuracy 
#or correctness of such information and interpretations.  Under no circumstances should any 
#such information or interpretation be relied upon as the sole basis for any drilling, 
#completion, production, or financial decision or any procedure involving any risk to the 
#safety of any drilling venture, drilling rig or its crew or any other third party.  The 
#Customer has full responsibility for all drilling, completion and production operation.  
#Halliburton makes no representations or warranties, either expressed or 
#implied, including, but not limited to, the implied warranties of merchantability or fitness 
#for a particular purpose, with respect to the services rendered.  In no event will 
#Halliburton be liable for failure to obtain any particular results or for 
#any damages, including, but not limited to, indirect, special or consequential damages, 
#resulting from the use of any information or interpretation provided by Halliburton.
#
~A           TIME           GTDEPTH  GTPQH  GTTQ  GTTN  GTET   GTTVD  
   11:18:22.568.18-Apr-2020 3074.89 4511.77 70.22 4.00   0.00 1964.21
   11:18:22.768.18-Apr-2020 3074.89 4511.77 70.22 4.00   0.20 1964.21
   11:18:22.969.18-Apr-2020 3074.89 4512.28 70.22 4.00   0.40 1964.21
   11:18:23.169.18-Apr-2020 3074.89 4509.83 70.22 4.00   0.60 1964.21
   11:18:23.369.18-Apr-2020 3074.89 4511.63 70.22 4.00   0.80 1964.21
   11:18:23.569.18-Apr-2020 3074.89 4509.42 70.22 4.00   1.00 1964.21
   11:18:23.769.18-Apr-2020 3074.89 4508.46 70.22 4.00   1.20 1964.21
   11:18:23.969.18-Apr-2020 3074.89 4505.69 70.22 4.00   1.40 1964.21
   11:18:24.169.18-Apr-2020 3074.89 4507.14 70.21 4.00   1.60 1964.21
   11:18:24.369.18-Apr-2020 3074.89 4506.32 70.21 4.00   1.80 1964.21
   11:18:24.569.18-Apr-2020 3074.89 4506.95 70.21 4.00   2.00 1964.21
   11:18:24.769.18-Apr-2020 3074.89 4506.95 70.21 4.00   2.20 1964.21
   11:18:24.969.18-Apr-2020 3074.89 4506.50 70.21 4.00   2.40 1964.21
   11:18:25.169.18-Apr-2020 3074.89 4505.74 70.21 4.00   2.60 1964.21
   11:18:25.369.18-Apr-2020 3074.89 4506.75 70.21 4.00   2.80 1964.21
   11:18:25.569.18-Apr-2020 3074.89 4506.97 70.21 4.00   3.00 1964.21
   11:18:25.769.18-Apr-2020 3074.89 4506.97 70.21 4.00   3.20 1964.21
   11:18:25.969.18-Apr-2020 3074.89 4507.58 70.21 4.00   3.40 1964.21
   11:18:26.169.18-Apr-2020 3074.89 4507.77 70.21 4.00   3.60 1964.21
   11:18:26.369.18-Apr-2020 3074.89 4507.17 70.20 4.00   3.80 1964.21
   11:18:26.569.18-Apr-2020 3074.89 4506.22 70.20 4.00   4.00 1964.21
   11:18:26.769.18-Apr-2020 3074.89 4506.22 70.20 4.00   4.20 1964.21
   11:18:26.969.18-Apr-2020 3074.89 4505.17 70.20 4.00   4.40 1964.21
   11:18:27.169.18-Apr-2020 3074.89 4504.58 70.20 4.00   4.60 1964.21
   11:18:27.369.18-Apr-2020 3074.89 4504.06 70.20 4.00   4.80 1964.21
   11:18:27.569.18-Apr-2020 3074.89 4501.86 70.20 4.00   5.00 1964.21
   11:18:27.769.18-Apr-2020 3074.89 4501.86 70.20 4.00   5.20 1964.21
   11:18:27.969.18-Apr-2020 3074.89 4503.04 70.20 4.00   5.40 1964.21
   11:18:28.169.18-Apr-2020 3074.89 4503.59 70.20 4.00   5.60 1964.21
   11:18:28.369.18-Apr-2020 3074.89 4503.60 70.20 4.00   5.80 1964.21
   11:18:28.569.18-Apr-2020 3074.89 4504.12 70.19 4.00   6.00 1964.21
   11:18:28.769.18-Apr-2020 3074.89 4504.12 70.19 4.00   6.20 1964.21
   11:18:28.969.18-Apr-2020 3074.89 4504.43 70.19 4.00   6.40 1964.21
   11:18:29.169.18-Apr-2020 3074.89 4504.53 70.19 4.00   6.60 1964.21
   11:18:29.369.18-Apr-2020 3074.89 4504.77 70.19 4.00   6.80 1964.21
   11:18:29.569.18-Apr-2020 3074.89 4505.49 70.19 4.00   7.00 1964.21
   11:18:29.769.18-Apr-2020 3074.89 4505.49 70.19 4.00   7.20 1964.21
   11:18:29.969.18-Apr-2020 3074.89 4506.18 70.19 4.00   7.40 1964.21
   11:18:30.169.18-Apr-2020 3074.89 4506.65 70.19 4.00   7.60 1964.21
   11:18:30.370.18-Apr-2020 3074.89 4507.04 70.19 4.00   7.80 1964.21
   11:18:30.570.18-Apr-2020 3074.89 4506.74 70.19 4.00   8.00 1964.21
   11:18:30.770.18-Apr-2020 3074.89 4506.74 70.19 4.00   8.20 1964.21
   11:18:30.970.18-Apr-2020 3074.89 4508.68 70.18 4.00   8.40 1964.21
   11:18:31.170.18-Apr-2020 3074.89 4509.06 70.18 4.00   8.60 1964.21
   11:18:31.370.18-Apr-2020 3074.89 4506.71 70.18 4.00   8.80 1964.21
   11:18:31.570.18-Apr-2020 3074.89 4509.97 70.18 4.00   9.00 1964.21
   11:18:31.770.18-Apr-2020 3074.89 4509.38 70.18 4.00   9.20 1964.21
   11:18:31.970.18-Apr-2020 3074.89 4509.77 70.18 4.00   9.40 1964.21
   11:18:32.170.18-Apr-2020 3074.89 4507.81 70.18 4.00   9.60 1964.21
   11:18:32.370.18-Apr-2020 3074.89 4509.65 70.18 4.00   9.80 1964.21
   11:18:32.570.18-Apr-2020 3074.89 4509.10 70.18 4.00  10.00 1964.21
   11:18:32.770.18-Apr-2020 3074.89 4509.10 70.18 4.00  10.20 1964.21
   11:18:32.970.18-Apr-2020 3074.89 4509.85 70.18 4.00  10.40 1964.21
   11:18:33.170.18-Apr-2020 3074.89 4509.58 70.17 4.00  10.60 1964.21
   11:18:33.370.18-Apr-2020 3074.89 4507.24 70.17 4.00  10.80 1964.21
   11:18:33.570.18-Apr-2020 3074.89 4510.51 70.17 4.00  11.00 1964.21
   11:18:33.770.18-Apr-2020 3074.89 4510.51 70.17 4.00  11.20 1964.21
   11:18:33.970.18-Apr-2020 3074.89 4510.17 70.17 4.00  11.40 1964.21
   11:18:34.170.18-Apr-2020 3074.89 4509.85 70.17 4.00  11.60 1964.21
   11:18:34.370.18-Apr-2020 3074.89 4511.70 70.17 4.00  11.80 1964.21
   11:18:34.570.18-Apr-2020 3074.89 4512.27 70.17 4.00  12.00 1964.21
   11:18:34.770.18-Apr-2020 3074.89 4512.27 70.17 4.00  12.20 1964.21
   11:18:34.970.18-Apr-2020 3074.89 4513.27 70.17 4.00  12.40 1964.21
   11:18:35.170.18-Apr-2020 3074.89 4513.05 70.17 4.00  12.60 1964.21
   11:18:35.370.18-Apr-2020 3074.89 4512.31 70.16 4.00  12.80 1964.21
   11:18:35.570.18-Apr-2020 3074.89 4512.71 70.16 4.00  13.00 1964.21
   11:18:35.770.18-Apr-2020 3074.89 4512.51 70.16 4.00  13.20 1964.21
   11:18:35.970.18-Apr-2020 3074.89 4511.88 70.16 4.00  13.40 1964.21
   11:18:36.170.18-Apr-2020 3074.89 4511.83 70.16 4.00  13.60 1964.21
   11:18:36.370.18-Apr-2020 3074.89 4511.99 70.16 4.00  13.80 1964.21
   11:18:36.570.18-Apr-2020 3074.89 4511.62 70.16 4.00  14.00 1964.21
   11:18:36.770.18-Apr-2020 3074.89 4511.62 70.16 4.00  14.20 1964.21
   11:18:36.970.18-Apr-2020 3074.89 4511.62 70.16 4.00  14.40 1964.21
   11:18:37.170.18-Apr-2020 3074.89 4511.28 70.16 4.00  14.60 1964.21
   11:18:37.370.18-Apr-2020 3074.89 4511.28 70.16 4.00  14.80 1964.21
   11:18:37.570.18-Apr-2020 3074.89 4510.93 70.15 4.00  15.00 1964.21
   11:18:37.770.18-Apr-2020 3074.89 4511.55 70.15 4.00  15.20 1964.21
   11:18:37.971.18-Apr-2020 3074.89 4511.22 70.15 4.00  15.40 1964.21
   11:18:38.171.18-Apr-2020 3074.89 4510.80 70.15 4.00  15.60 1964.21
   11:18:38.371.18-Apr-2020 3074.89 4511.03 70.15 4.00  15.80 1964.21
   11:18:38.571.18-Apr-2020 3074.89 4510.94 70.15 4.00  16.00 1964.21
   11:18:38.771.18-Apr-2020 3074.89 4510.94 70.15 4.00  16.20 1964.21
   11:18:38.971.18-Apr-2020 3074.89 4510.43 70.15 4.00  16.40 1964.21
   11:18:39.171.18-Apr-2020 3074.89 4510.64 70.15 4.00  16.60 1964.21
   11:18:39.371.18-Apr-2020 3074.89 4510.49 70.15 4.00  16.80 1964.21
   11:18:39.571.18-Apr-2020 3074.89 4507.70 70.15 4.00  17.00 1964.21
   11:18:39.771.18-Apr-2020 3074.89 4510.25 70.14 4.00  17.20 1964.21
   11:18:39.971.18-Apr-2020 3074.89 4510.14 70.14 4.00  17.40 1964.21
   11:18:40.171.18-Apr-2020 3074.89 4508.97 70.14 4.00  17.60 1964.21
   11:18:40.371.18-Apr-2020 3074.89 4508.63 70.14 4.00  17.80 1964.21
   11:18:40.571.18-Apr-2020 3074.89 4509.95 70.14 4.00  18.00 1964.21
   11:18:40.771.18-Apr-2020 3074.89 4509.95 70.14 4.00  18.20 1964.21
   11:18:40.971.18-Apr-2020 3074.89 4509.17 70.14 4.00  18.40 1964.21
   11:18:41.171.18-Apr-2020 3074.89 4508.41 70.14 4.00  18.60 1964.21
   11:18:41.371.18-Apr-2020 3074.89 4507.22 70.14 4.00  18.80 1964.21
   11:18:41.571.18-Apr-2020 3074.89 4507.76 70.14 4.00  19.00 1964.21
   11:18:41.771.18-Apr-2020 3074.89 4507.76 70.14 4.00  19.20 1964.21
   11:18:41.971.18-Apr-2020 3074.89 4505.10 70.13 4.00  19.40 1964.21
   11:18:42.171.18-Apr-2020 3074.89 4506.68 70.13 4.00  19.60 1964.21
   11:18:42.371.18-Apr-2020 3074.89 4506.46 70.13 4.00  19.80 1964.21
   11:18:42.571.18-Apr-2020 3074.89 4506.87 70.13 4.00  20.00 1964.21
   11:18:42.771.18-Apr-2020 3074.89 4506.87 70.13 4.00  20.20 1964.21
   11:18:42.971.18-Apr-2020 3074.89 4506.34 70.13 4.00  20.40 1964.21
   11:18:43.171.18-Apr-2020 3074.89 4504.37 70.13 4.00  20.60 1964.21
   11:18:43.371.18-Apr-2020 3074.89 4507.11 70.13 4.00  20.80 1964.21
   11:18:43.571.18-Apr-2020 3074.89 4506.95 70.13 4.00  21.00 1964.21
   11:18:43.771.18-Apr-2020 3074.89 4507.54 70.13 4.00  21.20 1964.21
   11:18:43.971.18-Apr-2020 3074.89 4507.51 70.13 4.00  21.40 1964.21
   11:18:44.171.18-Apr-2020 3074.89 4507.71 70.12 4.00  21.60 1964.21
   11:18:44.371.18-Apr-2020 3074.89 4507.30 70.12 4.00  21.80 1964.21
   11:18:44.571.18-Apr-2020 3074.89 4506.82 70.12 4.00  22.00 1964.21
   11:18:44.771.18-Apr-2020 3074.89 4506.82 70.12 4.00  22.20 1964.21
   11:18:44.971.18-Apr-2020 3074.89 4506.59 70.12 4.00  22.40 1964.21
   11:18:45.171.18-Apr-2020 3074.89 4506.71 70.12 4.00  22.60 1964.21
   11:18:45.372.18-Apr-2020 3074.89 4506.60 70.12 4.00  22.80 1964.21
