~Version Information
 VERS.                  2.0:   CWLS log ASCII Standard -VERSION 2.0
 WRAP.                   NO:   One line per depth step
~Well Information Block
#MNEM.UNIT     VALUE/NAME     DESCRIPTION
#---------     -----------    ---------------------------
 STRT.S             11:18:22 18-Apr-20: START TIME 11:18:22 18-Apr-20
 STOP.S             11:25:23 18-Apr-20: STOP TIME  11:25:23 18-Apr-20
 STEP.S                   0.00: STEP TIME
 NULL.                 -999.25: NULL VALUE
 DFWT.                        :  DIST FWL TEXT
 DFST.                        :  DIST FSL TEXT
 DMF .                        :  DRILL MEAS FROM
 STIM.      16.29.52 23-Mar-20:  START TIME
 DATE.      16.29.52 23-Mar-20:  END TIME
 SPUD.               23-Mar-20:  SPUD DATE
 NREF.                    Grid:  NORTH REFERENCE
 HPTY.       Minimum Curvature:  HOLE POS TYPE
 DMOD.             Drill Model:  DRILL MOD DESC
 SVYD.                  Survey:  SURVEY DESC
 ILTD.               Lithology:  INTERP LTH DESC
 FTOP.          Formation Tops:  FORM TOPS DESC
 SON .        AZ-XX-0906252240:  JOB NUMBER
 RIG .             West Chirag:  RIG NAME
 PDAT.          Mean Sea Level:  PERMANENT DATUM
 FLD .                     ACG:  FIELD NAME
 CTRY.              Azerbaijan:  COUNTRY NAME
 WELL.           J23 (Slot 07):  WELL NAME
 SRVC.          Turan Drilling:  CONTRACTOR
 COMP.     BP Exploration (Casoian Sea) Ltd:  COMPANY
 WTYP.                Deviated:  WELL TYPE
 MDS .        Operator Entered:  MAG DATA SOURCE
 UWI .                     N/A:  UNIQUE WELL IDENTIFIER
 API .                     N/A:  API NUMBER
 BASE.              Azerbaijan:  LOGGING EQUIPMENT BASE LOCATION
 REGN.                   EESSA:  REGION
 PROV.                    Baku:  PROVINCE
 STAT.                    Baku:  STATE NAME
 MWDS.                     N/A:  MWD SHOP
 JOBN.        AZ-XX-0906252240:  JOB TICKET NUMB
 DOE .                     N/A:  DOE NUMBER
 DCON.         Sperry Drilling:  DIRECTNL CONTR
 UNIT.                     N/A:  LOGGING EQUIPMENT ID
 CNTY.                        :  COUNTY
 LOC .                        :  LOCATION
 LMF .             Drill Floor:  LOG MEASURED FROM
 TVDS.m                  43.00:  TVDSS CORRECTN
 LATI.deg                40.13:  LATITUDE
 LONG.deg                51.22:  LONGITUDE
 WHNS.m                   9.43:  WELL HEAD N/S
 WHEW.m                  -8.91:  WELL HEAD E/W
 UTMX.m              519005.06:  UTM X
 UTMY.m             4443793.85:  UTM Y
 DFWL.m                   0.00:  DISTANCE FWL
 DFSL.m                   0.00:  DISTANCE FSL
 SDEP.m                   0.00:  START DEPTH
 TDD .m                   0.00:  TOTAL DEPTH (DRILLER)
 VSDR.deg               179.88:  VERT SEC DIRECT
 GVFD.g                   1.00:  GRAVITY FIELD
 MFLD.nT              50281.00:  MAGNETIC FIELD
 MDIP.deg                59.58:  MAGNETIC DIP
 MDEC.deg                 6.48:  MAGNETIC DECL
 GRDC.deg                 0.14:  GRID CORRECTION
 AZTC.deg                 6.34:  AZM TOTAL CORR
 EPD .m                   0.00:  ELEVATION
 EGL .m                   0.00:  GROUND ELEVATION
 WDMS.m                 169.80:  WD ELEV
 APD .m                  43.00:  DEPTH ABOVE PD
 DEP .m                 354.17:  DEPTH
 AGAP.m                  43.00:  AIR GAP
 VSEW.m                  -8.91:  VERT SEC E/W
 VSNS.m                   9.43:  VERT SEC N/S
 EKB .m                   0.00:  KB ELEVATION
 EDF .m                  43.00:  DF ELEVATION
 TDL .m                1326.00:  TOTAL DEPTH (LOGGER)
 VSC .                       0:  VS TO CLOSURE
 MAGU.                 1850704:  MAGUTM CHECKSUM
~Parameter Information Block
#MNEM.UNIT       Value        Description
#---------     -----------    ---------------------------
 AV  .mps                 1.17:  Ann Velocity 
 AZIF.deg               184.04:  Azm, Final 
 BHAT.        Rotary Steerable:  BHA Type 
 BREV.rev            620000.00:  Rev Bit Total 
 BROT.°/30m               0.20:  Build Rotating 
 BS  .in                 14.75:  Bit Size 
 BSZ .in                 14.75:  Bit Size 
 BTPL.psig              618.00:  Bit Press Loss 
 CABU.                      No:  Customer Abuse 
 TCS .hr                 87.68:  Time Ciculation Ended 
 CV  .mps                 3.10:  Crit Velocity 
 DD1 .          Rashad Habibov:  Direct Drillr 1 
 DD2 .         Rasim Ibrahimov:  Direct Drillr 2 
 DDSV.               Geo-Pilot:  DD Service 
 DEFF.%                  98.00:  % Det Eff 
 DLRX.°/30m               1.48:  Dogleg Rot Max 
 DLSO.°/30m               0.50:  Dogleg Oriented 
 DLSX.°/30m               1.48:  Dogleg Str Max 
 DRET.      06.18.56 19-Apr-20:  Drill End Time 
 DRST.      15.00.56 15-Apr-20:  Drill Start Tim 
 DTIM.hr                 51.73:  Time Drilling 
 EDEP.m                3410.01:  End Depth 
 ENG1.        Marcelo Sandoval:  Engineer 1 
 ENG2.        Davud Huseynzade:  Engineer 2 
 ENG3.          Ruslan Safarov:  Engineer 3 
 ETIM.      04.00.56 20-Apr-20:  End Time 
 FLOI.gpm              1000.00:  Flow In 
 FLON.gpm               600.00:  Flow In Min 
 FLOS.cptm                0.00:  Fluid Loss 
 FLOX.gpm              1200.00:  Flow In Max 
 HFLO.                      No:  High Flow 
 HPRE.                     Yes:  High Pressure 
 HTEM.                      No:  High Temp 
 HYDO.m                   1.80:  Hydro Offset 
 IFIN.deg                70.04:  Inc, Final 
 IMAX.deg                70.56:  Inc Max 
 IMIN.deg                69.85:  Inc Min 
 IMND.m                3103.24:  Inc Min Depth 
 IMXD.m                2876.63:  Inc Max Depth 
 JARR.                      No:  Jarring 
 LETM.      06.18.56 19-Apr-20:  Log End Time 
 LOST.hr                     0:  Lost Rig Time 
 LSTM.      15.00.56 15-Apr-20:  Log Start Time 
 MDCL.ppm             42000.00:  Mud Chlorides 
 MDES.     Inversion Oil/Synthetic:  Mud Desc 
 DFD .sg                  1.58:  Mud Density 
 MDMN.sg                  1.58:  Dens Mud Min 
 MDMX.sg                  1.58:  Dens Mud Max 
 MOIL.                      71:  Run Mud Oil % 
 MOWR.                   71:29:  Run Mud OWR 
 MSND.                       0:  Run Mud Sand % 
 MSOL.                    23.3:  Run Mud Solids% 
 DFV .spqt               84.00:  Mud Viscosity 
 MWOD.in                  9.50:  MWD Tool OD 
 MWSI.                      No:  Serv Intrp, MWD 
 OTIM.hr                139.62:  Time Operating 
 PMAX.psia             5364.69:  Press Op, Max 
 PV  .cP                 80.00:  Mud PV 
 RUN .                     700:  Run Number 
 ROPA.m/hr               25.00:  ROP Avg 
 ROPN.m/hr               11.00:  ROP Min 
 ROPX.m/hr               36.00:  ROP Max 
 RPMA.rpm               130.00:  RPM Surface Avg 
 RPMN.rpm               120.00:  RPM Surface Min 
 RPMX.rpm               140.00:  RPM Surface Max 
 RRUN.                    0700:  Rig Run Number 
 SAZI.deg               183.25:  Azm, Start 
 SDEP.m                2084.00:  Start Depth 
 SIDD.                      No:  Serv Intrp, DD 
 SINC.deg                70.38:  Inc, Start 
 SPPA.psig             4800.00:  SPP Avg 
 SPPN.psig             4400.00:  SPP Min 
 SPPX.psig             5350.00:  SPP Max 
 STIM.      16.30.56 14-Apr-20:  Start Time 
 SVCS.                 DD, MWD:  Services 
 SVER.                    9.20:  Sperry Version 
 TDAT.m                1326.00:  Tot Depth Attmp 
 TDDF.                      No:  Trip for DD 
 TDLG.m                1326.00:  Tot Depth Loggd 
 TFF .                      No:  Trip for Fail 
 TQAA.f-kp               19.00:  Torque Abs Avg 
 TQAN.f-kp                8.00:  Torque Abs Min 
 TQAX.f-kp               27.00:  Torque Abs Max 
 TRRT.°/30m               0.50:  Turn Rotating 
 MRT .                    HCIM:  Maximum Recorded Temperature 
 TTMX.degC               82.35:  Max Tool Temp 
 VS01.       905245875X1Z1W1C8:  Virtual Str1 SN 
 VS02.       90608022F11V7D1A9:  Virtual Str2 SN 
 VS03.            90605473R5C9:  Virtual Str3 SN 
 WBMN.klb                11.00:  WOB Min 
 WOBA.klb                21.00:  WOB Avg 
 WOBX.klb                30.00:  WOB Max 
 YP  .lhf2               45.00:  Yield Point 
~Curve Information Block
#MNEM.UNIT                 API CODE     Curve Description
#---------               -----------    ---------------------------
 TIME.HHMMSS            00 000 000 000:  GT Time & Date
 GTDEPTH.m              00 000 000 000:  GT Depth
 GTPQH.psia             00 000 000 000:  GT HR Quartz Pressure
 GTTQ.degC              00 000 000 000:  GT Quartz Temperature
 GTTN.NONE              00 000 000 000:  GT Test Number
 GTET.sec               00 000 000 000:  GT Elapsed Test Time
 GTTVD.m                00 000 000 000:  GT True Vertical Depth
#Other Information
#
#WARRANTY: Halliburton will use its best efforts to furnish customers with 
#accurate information and interpretations that are part of, and incident to, the services 
#provided.  However, Halliburton cannot and does not warrant the accuracy 
#or correctness of such information and interpretations.  Under no circumstances should any 
#such information or interpretation be relied upon as the sole basis for any drilling, 
#completion, production, or financial decision or any procedure involving any risk to the 
#safety of any drilling venture, drilling rig or its crew or any other third party.  The 
#Customer has full responsibility for all drilling, completion and production operation.  
#Halliburton makes no representations or warranties, either expressed or 
#implied, including, but not limited to, the implied warranties of merchantability or fitness 
#for a particular purpose, with respect to the services rendered.  In no event will 
#Halliburton be liable for failure to obtain any particular results or for 
#any damages, including, but not limited to, indirect, special or consequential damages, 
#resulting from the use of any information or interpretation provided by Halliburton.
#
~A           TIME           GTDEPTH  GTPQH  GTTQ  GTTN  GTET   GTTVD  
# ...
   11:19:08.575.18-Apr-2020 3074.89 4508.93 70.01 4.00  46.01 1964.21
   11:19:08.775.18-Apr-2020 3074.89 4508.93 70.01 4.00  46.21 1964.21
   11:19:08.975.18-Apr-2020 3074.89 4506.24 70.01 4.00  46.41 1964.21
   11:19:09.175.18-Apr-2020 3074.89 4508.68 70.01 4.00  46.61 1964.21
   11:19:09.375.18-Apr-2020 3074.89 4508.67 70.01 4.00  46.81 1964.21
   11:19:09.575.18-Apr-2020 3074.89 4508.30 70.00 4.00  47.01 1964.21
   11:19:09.775.18-Apr-2020 3074.89 4508.30 70.00 4.00  47.21 1964.21
   11:19:09.975.18-Apr-2020 3074.89 4509.16 70.00 4.00  47.41 1964.21
   11:19:10.175.18-Apr-2020 3074.89 4508.76 70.00 4.00  47.61 1964.21
   11:19:10.375.18-Apr-2020 3074.89 4509.15 70.00 4.00  47.81 1964.21
   11:19:10.575.18-Apr-2020 3074.89 4508.97 70.00 4.00  48.01 1964.21
   11:19:10.775.18-Apr-2020 3074.89 4509.03 70.00 4.00  48.21 1964.21
   11:19:10.975.18-Apr-2020 3074.89 4508.16 70.00 4.00  48.41 1964.21
   11:19:11.175.18-Apr-2020 3074.89 4507.84 70.00 4.00  48.61 1964.21
   11:19:11.375.18-Apr-2020 3074.89 4507.85 70.00 4.00  48.81 1964.21
   11:19:11.575.18-Apr-2020 3074.89 4507.58 70.00 4.00  49.01 1964.21
   11:19:11.775.18-Apr-2020 3074.89 4507.58 70.00 4.00  49.21 1964.21
   11:19:11.975.18-Apr-2020 3074.89 4507.82 69.99 4.00  49.41 1964.21
   11:19:12.175.18-Apr-2020 3074.89 4507.68 69.99 4.00  49.61 1964.21
   11:19:12.375.18-Apr-2020 3074.89 4507.10 69.99 4.00  49.81 1964.21
   11:19:12.575.18-Apr-2020 3074.89 4504.74 69.99 4.00  50.01 1964.21
   11:19:12.775.18-Apr-2020 3074.89 4504.74 69.99 4.00  50.21 1964.21
   11:19:12.975.18-Apr-2020 3074.89 4507.72 69.99 4.00  50.41 1964.21
   11:19:13.175.18-Apr-2020 3074.89 4507.88 69.99 4.00  50.61 1964.21
   11:19:13.375.18-Apr-2020 3074.89 4508.42 69.99 4.00  50.81 1964.21
   11:19:13.575.18-Apr-2020 3074.89 4508.68 69.99 4.00  51.01 1964.21
   11:19:13.775.18-Apr-2020 3074.89 4508.68 69.99 4.00  51.21 1964.21
   11:19:13.975.18-Apr-2020 3074.89 4508.12 69.98 4.00  51.41 1964.21
   11:19:14.175.18-Apr-2020 3074.89 4508.53 69.98 4.00  51.61 1964.21
   11:19:14.375.18-Apr-2020 3074.89 4508.24 69.98 4.00  51.81 1964.21
   11:19:14.575.18-Apr-2020 3074.89 4508.09 69.98 4.00  52.01 1964.21
   11:19:14.775.18-Apr-2020 3074.89 4508.20 69.98 4.00  52.21 1964.21
   11:19:14.975.18-Apr-2020 3074.89 4508.28 69.98 4.00  52.41 1964.21
   11:19:15.176.18-Apr-2020 3074.89 4507.39 69.98 4.00  52.61 1964.21
   11:19:15.376.18-Apr-2020 3074.89 4506.31 69.98 4.00  52.81 1964.21
   11:19:15.576.18-Apr-2020 3074.89 4508.79 69.98 4.00  53.01 1964.21
   11:19:15.776.18-Apr-2020 3074.89 4508.79 69.98 4.00  53.21 1964.21
   11:19:15.976.18-Apr-2020 3074.89 4505.91 69.98 4.00  53.41 1964.21
   11:19:16.176.18-Apr-2020 3074.89 4509.12 69.97 4.00  53.61 1964.21
   11:19:16.376.18-Apr-2020 3074.89 4508.44 69.97 4.00  53.81 1964.21
   11:19:16.576.18-Apr-2020 3074.89 4447.90 69.97 4.00  54.01 1964.21
   11:19:16.776.18-Apr-2020 3074.89 4447.90 69.97 4.00  54.21 1964.21
   11:19:16.976.18-Apr-2020 3074.89 4530.12 69.97 4.00  54.41 1964.21
   11:19:17.176.18-Apr-2020 3074.89 4568.96 69.97 4.00  54.61 1964.21
   11:19:17.376.18-Apr-2020 3074.89 4587.30 69.97 4.00  54.81 1964.21
   11:19:17.576.18-Apr-2020 3074.89 4602.02 69.97 4.00  55.01 1964.21
   11:19:17.776.18-Apr-2020 3074.89 4602.02 69.97 4.00  55.21 1964.21
   11:19:17.976.18-Apr-2020 3074.89 4589.30 69.97 4.00  55.41 1964.21
   11:19:18.176.18-Apr-2020 3074.89 4596.83 69.97 4.00  55.61 1964.21
   11:19:18.376.18-Apr-2020 3074.89 4601.78 69.97 4.00  55.81 1964.21
   11:19:18.576.18-Apr-2020 3074.89 4599.75 69.96 4.00  56.01 1964.21
   11:19:18.776.18-Apr-2020 3074.89 4595.98 69.96 4.00  56.21 1964.21
   11:19:18.976.18-Apr-2020 3074.89 4593.46 69.96 4.00  56.41 1964.21
   11:19:19.176.18-Apr-2020 3074.89 4589.94 69.96 4.00  56.61 1964.21
   11:19:19.376.18-Apr-2020 3074.89 4589.83 69.96 4.00  56.81 1964.21
   11:19:19.576.18-Apr-2020 3074.89 4583.75 69.96 4.00  57.01 1964.21
   11:19:19.776.18-Apr-2020 3074.89 4583.75 69.96 4.00  57.21 1964.21
   11:19:19.976.18-Apr-2020 3074.89 4583.85 69.96 4.00  57.41 1964.21
   11:19:20.176.18-Apr-2020 3074.89 4566.37 69.96 4.00  57.61 1964.21
   11:19:20.376.18-Apr-2020 3074.89 4570.60 69.96 4.00  57.81 1964.21
   11:19:20.576.18-Apr-2020 3074.89 4593.64 69.96 4.00  58.01 1964.21
   11:19:20.776.18-Apr-2020 3074.89 4593.64 69.96 4.00  58.21 1964.21
   11:19:20.976.18-Apr-2020 3074.89 4612.54 69.95 4.00  58.41 1964.21
   11:19:21.176.18-Apr-2020 3074.89 4592.53 69.95 4.00  58.61 1964.21
   11:19:21.376.18-Apr-2020 3074.89 4557.88 69.95 4.00  58.81 1964.21
   11:19:21.576.18-Apr-2020 3074.89 4552.53 69.95 4.00  59.01 1964.21
   11:19:21.776.18-Apr-2020 3074.89 4552.53 69.95 4.00  59.21 1964.21
   11:19:21.976.18-Apr-2020 3074.89 4553.03 69.95 4.00  59.41 1964.21
   11:19:22.176.18-Apr-2020 3074.89 4550.89 69.95 4.00  59.61 1964.21
   11:19:22.376.18-Apr-2020 3074.89 4546.34 69.95 4.00  59.81 1964.21
   11:19:22.577.18-Apr-2020 3074.89 4555.53 69.95 4.00  60.01 1964.21
   11:19:22.777.18-Apr-2020 3074.89 4556.33 69.95 4.00  60.21 1964.21
   11:19:22.977.18-Apr-2020 3074.89 4556.05 69.95 4.00  60.41 1964.21
   11:19:23.177.18-Apr-2020 3074.89 4547.22 69.94 4.00  60.61 1964.21
   11:19:23.377.18-Apr-2020 3074.89 4541.86 69.94 4.00  60.81 1964.21
   11:19:23.577.18-Apr-2020 3074.89 4538.92 69.94 4.00  61.01 1964.21
   11:19:23.777.18-Apr-2020 3074.89 4538.92 69.94 4.00  61.21 1964.21
   11:19:23.977.18-Apr-2020 3074.89 4536.85 69.94 4.00  61.41 1964.21
   11:19:24.177.18-Apr-2020 3074.89 4537.09 69.94 4.00  61.61 1964.21
   11:19:24.377.18-Apr-2020 3074.89 4537.98 69.94 4.00  61.81 1964.21
   11:19:24.577.18-Apr-2020 3074.89 4542.57 69.94 4.00  62.01 1964.21
   11:19:24.777.18-Apr-2020 3074.89 4542.57 69.94 4.00  62.21 1964.21
   11:19:24.977.18-Apr-2020 3074.89 4541.63 69.94 4.00  62.41 1964.21
   11:19:25.177.18-Apr-2020 3074.89 4543.87 69.94 4.00  62.61 1964.21
   11:19:25.377.18-Apr-2020 3074.89 4545.55 69.93 4.00  62.81 1964.21
   11:19:25.577.18-Apr-2020 3074.89 4548.27 69.93 4.00  63.01 1964.21
   11:19:25.777.18-Apr-2020 3074.89 4548.27 69.93 4.00  63.21 1964.21
   11:19:25.977.18-Apr-2020 3074.89 4549.38 69.93 4.00  63.41 1964.21
   11:19:26.177.18-Apr-2020 3074.89 4551.71 69.93 4.00  63.61 1964.21
   11:19:26.377.18-Apr-2020 3074.89 4551.15 69.93 4.00  63.81 1964.21
   11:19:26.577.18-Apr-2020 3074.89 4551.28 69.93 4.00  64.01 1964.21
   11:19:26.777.18-Apr-2020 3074.89 4551.28 69.93 4.00  64.21 1964.21
   11:19:26.977.18-Apr-2020 3074.89 4551.71 69.93 4.00  64.41 1964.21
   11:19:27.177.18-Apr-2020 3074.89 4551.83 69.93 4.00  64.61 1964.21
   11:19:27.377.18-Apr-2020 3074.89 4552.62 69.93 4.00  64.81 1964.21
   11:19:27.577.18-Apr-2020 3074.89 4552.41 69.93 4.00  65.01 1964.21
   11:19:27.777.18-Apr-2020 3074.89 4552.41 69.93 4.00  65.21 1964.21
   11:19:27.977.18-Apr-2020 3074.89 4553.56 69.92 4.00  65.41 1964.21
   11:19:28.177.18-Apr-2020 3074.89 4553.44 69.92 4.00  65.61 1964.21
   11:19:28.377.18-Apr-2020 3074.89 4554.21 69.92 4.00  65.81 1964.21
   11:19:28.577.18-Apr-2020 3074.89 4554.31 69.92 4.00  66.01 1964.21
   11:19:28.777.18-Apr-2020 3074.89 4554.31 69.92 4.00  66.21 1964.21
   11:19:28.977.18-Apr-2020 3074.89 4681.76 69.92 4.00  66.41 1964.21
   11:19:29.177.18-Apr-2020 3074.89 4536.51 69.92 4.00  66.61 1964.21
   11:19:29.377.18-Apr-2020 3074.89 4531.23 69.92 4.00  66.81 1964.21
   11:19:29.577.18-Apr-2020 3074.89 4528.09 69.92 4.00  67.01 1964.21
   11:19:29.777.18-Apr-2020 3074.89 4528.09 69.92 4.00  67.21 1964.21
   11:19:29.978.18-Apr-2020 3074.89 4526.81 69.91 4.00  67.41 1964.21
   11:19:30.178.18-Apr-2020 3074.89 4527.17 69.91 4.00  67.61 1964.21
   11:19:30.378.18-Apr-2020 3074.89 4525.15 69.91 4.00  67.81 1964.21
   11:19:30.578.18-Apr-2020 3074.89 4456.51 69.91 4.00  68.01 1964.21
   11:19:30.778.18-Apr-2020 3074.89 4278.66 69.91 4.00  68.21 1964.21
   11:19:30.978.18-Apr-2020 3074.89 4053.65 69.91 4.00  68.41 1964.21
   11:19:31.178.18-Apr-2020 3074.89 3865.30 69.91 4.00  68.61 1964.21
   11:19:31.378.18-Apr-2020 3074.89 3717.29 69.91 4.00  68.81 1964.21
