~Version Information
 VERS.                  2.0:   CWLS log ASCII Standard -VERSION 2.0
 WRAP.                   NO:   One line per depth step
~Well Information Block
#MNEM.UNIT     VALUE/NAME     DESCRIPTION
#---------     -----------    ---------------------------
 STRT.S             00:39:23 18-Apr-20: START TIME 00:39:23 18-Apr-20
 STOP.S             00:46:19 18-Apr-20: STOP TIME  00:46:19 18-Apr-20
 STEP.S                   0.00: STEP TIME
 NULL.                 -999.25: NULL VALUE
 DFWT.                        :  DIST FWL TEXT
 DFST.                        :  DIST FSL TEXT
 DMF .                        :  DRILL MEAS FROM
 STIM.      16.29.52 23-Mar-20:  START TIME
 DATE.      16.29.52 23-Mar-20:  END TIME
 SPUD.               23-Mar-20:  SPUD DATE
 NREF.                    Grid:  NORTH REFERENCE
 HPTY.       Minimum Curvature:  HOLE POS TYPE
 DMOD.             Drill Model:  DRILL MOD DESC
 SVYD.                  Survey:  SURVEY DESC
 ILTD.               Lithology:  INTERP LTH DESC
 FTOP.          Formation Tops:  FORM TOPS DESC
 SON .        AZ-XX-0906252240:  JOB NUMBER
 RIG .             West Chirag:  RIG NAME
 PDAT.          Mean Sea Level:  PERMANENT DATUM
 FLD .                     ACG:  FIELD NAME
 CTRY.              Azerbaijan:  COUNTRY NAME
 WELL.           J23 (Slot 07):  WELL NAME
 SRVC.          Turan Drilling:  CONTRACTOR
 COMP.     BP Exploration (Casoian Sea) Ltd:  COMPANY
 WTYP.                Deviated:  WELL TYPE
 MDS .        Operator Entered:  MAG DATA SOURCE
 UWI .                     N/A:  UNIQUE WELL IDENTIFIER
 API .                     N/A:  API NUMBER
 BASE.              Azerbaijan:  LOGGING EQUIPMENT BASE LOCATION
 REGN.                   EESSA:  REGION
 PROV.                    Baku:  PROVINCE
 STAT.                    Baku:  STATE NAME
 MWDS.                     N/A:  MWD SHOP
 JOBN.        AZ-XX-0906252240:  JOB TICKET NUMB
 DOE .                     N/A:  DOE NUMBER
 DCON.         Sperry Drilling:  DIRECTNL CONTR
 UNIT.                     N/A:  LOGGING EQUIPMENT ID
 CNTY.                        :  COUNTY
 LOC .                        :  LOCATION
 LMF .             Drill Floor:  LOG MEASURED FROM
 TVDS.m                  43.00:  TVDSS CORRECTN
 LATI.deg                40.13:  LATITUDE
 LONG.deg                51.22:  LONGITUDE
 WHNS.m                   9.43:  WELL HEAD N/S
 WHEW.m                  -8.91:  WELL HEAD E/W
 UTMX.m              519005.06:  UTM X
 UTMY.m             4443793.85:  UTM Y
 DFWL.m                   0.00:  DISTANCE FWL
 DFSL.m                   0.00:  DISTANCE FSL
 SDEP.m                   0.00:  START DEPTH
 TDD .m                   0.00:  TOTAL DEPTH (DRILLER)
 VSDR.deg               179.88:  VERT SEC DIRECT
 GVFD.g                   1.00:  GRAVITY FIELD
 MFLD.nT              50281.00:  MAGNETIC FIELD
 MDIP.deg                59.58:  MAGNETIC DIP
 MDEC.deg                 6.48:  MAGNETIC DECL
 GRDC.deg                 0.14:  GRID CORRECTION
 AZTC.deg                 6.34:  AZM TOTAL CORR
 EPD .m                   0.00:  ELEVATION
 EGL .m                   0.00:  GROUND ELEVATION
 WDMS.m                 169.80:  WD ELEV
 APD .m                  43.00:  DEPTH ABOVE PD
 DEP .m                 354.17:  DEPTH
 AGAP.m                  43.00:  AIR GAP
 VSEW.m                  -8.91:  VERT SEC E/W
 VSNS.m                   9.43:  VERT SEC N/S
 EKB .m                   0.00:  KB ELEVATION
 EDF .m                  43.00:  DF ELEVATION
 TDL .m                1326.00:  TOTAL DEPTH (LOGGER)
 VSC .                       0:  VS TO CLOSURE
 MAGU.                 1850704:  MAGUTM CHECKSUM
~Parameter Information Block
#MNEM.UNIT       Value        Description
#---------     -----------    ---------------------------
 AV  .mps                 1.17:  Ann Velocity 
 AZIF.deg               184.04:  Azm, Final 
 BHAT.        Rotary Steerable:  BHA Type 
 BREV.rev            620000.00:  Rev Bit Total 
 BROT.°/30m               0.20:  Build Rotating 
 BS  .in                 14.75:  Bit Size 
 BSZ .in                 14.75:  Bit Size 
 BTPL.psig              618.00:  Bit Press Loss 
 CABU.                      No:  Customer Abuse 
 COMM.                     TŠT:  Run Comments 1 
 TCS .hr                 87.68:  Time Ciculation Ended 
 CV  .mps                 3.10:  Crit Velocity 
 DD1 .          Rashad Habibov:  Direct Drillr 1 
 DD2 .         Rasim Ibrahimov:  Direct Drillr 2 
 DDSV.               Geo-Pilot:  DD Service 
 DEFF.%                  98.00:  % Det Eff 
 DLRX.°/30m               1.48:  Dogleg Rot Max 
 DLSO.°/30m               0.50:  Dogleg Oriented 
 DLSX.°/30m               1.48:  Dogleg Str Max 
 DRET.      06.18.56 19-Apr-20:  Drill End Time 
 DRST.      15.00.56 15-Apr-20:  Drill Start Tim 
 DTIM.hr                 51.73:  Time Drilling 
 EDEP.m                3410.01:  End Depth 
 ENG1.        Marcelo Sandoval:  Engineer 1 
 ENG2.        Davud Huseynzade:  Engineer 2 
 ENG3.          Ruslan Safarov:  Engineer 3 
 ETIM.      04.00.56 20-Apr-20:  End Time 
 FLOI.gpm              1000.00:  Flow In 
 FLON.gpm               600.00:  Flow In Min 
 FLOS.cptm                0.00:  Fluid Loss 
 FLOX.gpm              1200.00:  Flow In Max 
 HFLO.                      No:  High Flow 
 HPRE.                     Yes:  High Pressure 
 HTEM.                      No:  High Temp 
 HYDO.m                   1.80:  Hydro Offset 
 IFIN.deg                70.04:  Inc, Final 
 IMAX.deg                70.56:  Inc Max 
 IMIN.deg                69.85:  Inc Min 
 IMND.m                3103.24:  Inc Min Depth 
 IMXD.m                2876.63:  Inc Max Depth 
 JARR.                      No:  Jarring 
 LETM.      06.18.56 19-Apr-20:  Log End Time 
 LOST.hr                     0:  Lost Rig Time 
 LSTM.      15.00.56 15-Apr-20:  Log Start Time 
 MDCL.ppm             42000.00:  Mud Chlorides 
 MDES.     Inversion Oil/Synthetic:  Mud Desc 
 DFD .sg                  1.58:  Mud Density 
 MDMN.sg                  1.58:  Dens Mud Min 
 MDMX.sg                  1.58:  Dens Mud Max 
 MOIL.                      71:  Run Mud Oil % 
 MOWR.                   71:29:  Run Mud OWR 
 MSND.                       0:  Run Mud Sand % 
 MSOL.                    23.3:  Run Mud Solids% 
 DFV .spqt               84.00:  Mud Viscosity 
 MWOD.in                  9.50:  MWD Tool OD 
 MWSI.                      No:  Serv Intrp, MWD 
 OTIM.hr                139.62:  Time Operating 
 PMAX.psia             5364.69:  Press Op, Max 
 PV  .cP                 80.00:  Mud PV 
 RUN .                     700:  Run Number 
 ROPA.m/hr               25.00:  ROP Avg 
 ROPN.m/hr               11.00:  ROP Min 
 ROPX.m/hr               36.00:  ROP Max 
 RPMA.rpm               130.00:  RPM Surface Avg 
 RPMN.rpm               120.00:  RPM Surface Min 
 RPMX.rpm               140.00:  RPM Surface Max 
 RRUN.                    0700:  Rig Run Number 
 SAZI.deg               183.25:  Azm, Start 
 SDEP.m                2084.00:  Start Depth 
 SIDD.                      No:  Serv Intrp, DD 
 SINC.deg                70.38:  Inc, Start 
 SPPA.psig             4800.00:  SPP Avg 
 SPPN.psig             4400.00:  SPP Min 
 SPPX.psig             5350.00:  SPP Max 
 STIM.      16.30.56 14-Apr-20:  Start Time 
 SVCS.                 DD, MWD:  Services 
 SVER.                    9.20:  Sperry Version 
 TDAT.m                1326.00:  Tot Depth Attmp 
 TDDF.                      No:  Trip for DD 
 TDLG.m                1326.00:  Tot Depth Loggd 
 TFF .                      No:  Trip for Fail 
 TQAA.f-kp               19.00:  Torque Abs Avg 
 TQAN.f-kp                8.00:  Torque Abs Min 
 TQAX.f-kp               27.00:  Torque Abs Max 
 TRRT.°/30m               0.50:  Turn Rotating 
 MRT .                    HCIM:  Maximum Recorded Temperature 
 TTMX.degC               82.35:  Max Tool Temp 
 VS01.       905245875X1Z1W1C8:  Virtual Str1 SN 
 VS02.       90608022F11V7D1A9:  Virtual Str2 SN 
 VS03.            90605473R5C9:  Virtual Str3 SN 
 WBMN.klb                11.00:  WOB Min 
 WOBA.klb                21.00:  WOB Avg 
 WOBX.klb                30.00:  WOB Max 
 YP  .lhf2               45.00:  Yield Point 
~Curve Information Block
#MNEM.UNIT                 API CODE     Curve Description
#---------               -----------    ---------------------------
 TIME.HHMMSS            00 000 000 000:  GT Time & Date
 GTDEPTH.m              00 000 000 000:  GT Depth
 GTPQH.psia             00 000 000 000:  GT HR Quartz Pressure
 GTTQ.degC              00 000 000 000:  GT Quartz Temperature
 GTTN.NONE              00 000 000 000:  GT Test Number
 GTET.sec               00 000 000 000:  GT Elapsed Test Time
 GTTVD.m                00 000 000 000:  GT True Vertical Depth
#Other Information
#
#WARRANTY: Halliburton will use its best efforts to furnish customers with 
#accurate information and interpretations that are part of, and incident to, the services 
#provided.  However, Halliburton cannot and does not warrant the accuracy 
#or correctness of such information and interpretations.  Under no circumstances should any 
#such information or interpretation be relied upon as the sole basis for any drilling, 
#completion, production, or financial decision or any procedure involving any risk to the 
#safety of any drilling venture, drilling rig or its crew or any other third party.  The 
#Customer has full responsibility for all drilling, completion and production operation.  
#Halliburton makes no representations or warranties, either expressed or 
#implied, including, but not limited to, the implied warranties of merchantability or fitness 
#for a particular purpose, with respect to the services rendered.  In no event will 
#Halliburton be liable for failure to obtain any particular results or for 
#any damages, including, but not limited to, indirect, special or consequential damages, 
#resulting from the use of any information or interpretation provided by Halliburton.
#
~A           TIME           GTDEPTH  GTPQH  GTTQ  GTTN  GTET   GTTVD  
# ...
   00:45:08.364.18-Apr-2020 2932.07 3431.42 62.95 1.00 345.06 1915.77
   00:45:08.564.18-Apr-2020 2932.07 3431.43 62.95 1.00 345.26 1915.77
   00:45:08.764.18-Apr-2020 2932.07 3431.43 62.95 1.00 345.46 1915.77
   00:45:08.964.18-Apr-2020 2932.07 3431.42 62.95 1.00 345.66 1915.77
   00:45:09.164.18-Apr-2020 2932.07 3431.43 62.95 1.00 345.86 1915.77
   00:45:09.364.18-Apr-2020 2932.07 3431.43 62.95 1.00 346.06 1915.77
   00:45:09.564.18-Apr-2020 2932.07 3431.43 62.95 1.00 346.26 1915.77
   00:45:09.764.18-Apr-2020 2932.07 3431.42 62.95 1.00 346.46 1915.77
   00:45:09.964.18-Apr-2020 2932.07 3431.43 62.95 1.00 346.66 1915.77
   00:45:10.164.18-Apr-2020 2932.07 3431.42 62.95 1.00 346.86 1915.77
   00:45:10.364.18-Apr-2020 2932.07 3431.43 62.95 1.00 347.06 1915.77
   00:45:10.564.18-Apr-2020 2932.07 3431.43 62.95 1.00 347.26 1915.77
   00:45:10.764.18-Apr-2020 2932.07 3431.43 62.95 1.00 347.46 1915.77
   00:45:10.965.18-Apr-2020 2932.07 3431.43 62.95 1.00 347.66 1915.77
   00:45:11.165.18-Apr-2020 2932.07 3431.43 62.95 1.00 347.86 1915.77
   00:45:11.365.18-Apr-2020 2932.07 3431.42 62.95 1.00 348.06 1915.77
   00:45:11.565.18-Apr-2020 2932.07 3431.42 62.95 1.00 348.26 1915.77
   00:45:11.765.18-Apr-2020 2932.07 3431.43 62.95 1.00 348.46 1915.77
   00:45:11.965.18-Apr-2020 2932.07 3431.43 62.94 1.00 348.66 1915.77
   00:45:12.165.18-Apr-2020 2932.07 3431.43 62.94 1.00 348.86 1915.77
   00:45:12.365.18-Apr-2020 2932.07 3431.43 62.94 1.00 349.06 1915.77
   00:45:12.565.18-Apr-2020 2932.07 3431.43 62.94 1.00 349.26 1915.77
   00:45:12.765.18-Apr-2020 2932.07 3431.44 62.94 1.00 349.46 1915.77
   00:45:12.965.18-Apr-2020 2932.07 3431.43 62.94 1.00 349.66 1915.77
   00:45:13.165.18-Apr-2020 2932.07 3431.43 62.94 1.00 349.86 1915.77
   00:45:13.365.18-Apr-2020 2932.07 3431.44 62.94 1.00 350.06 1915.77
   00:45:13.565.18-Apr-2020 2932.07 3431.44 62.94 1.00 350.26 1915.77
   00:45:13.765.18-Apr-2020 2932.07 3431.43 62.94 1.00 350.46 1915.77
   00:45:13.965.18-Apr-2020 2932.07 3431.43 62.94 1.00 350.66 1915.77
   00:45:14.165.18-Apr-2020 2932.07 3431.43 62.94 1.00 350.86 1915.77
   00:45:14.365.18-Apr-2020 2932.07 3431.42 62.94 1.00 351.06 1915.77
   00:45:14.565.18-Apr-2020 2932.07 3431.42 62.94 1.00 351.26 1915.77
   00:45:14.765.18-Apr-2020 2932.07 3431.42 62.94 1.00 351.46 1915.77
   00:45:14.965.18-Apr-2020 2932.07 3431.42 62.94 1.00 351.66 1915.77
   00:45:15.165.18-Apr-2020 2932.07 3431.43 62.94 1.00 351.86 1915.77
   00:45:15.365.18-Apr-2020 2932.07 3431.42 62.94 1.00 352.06 1915.77
   00:45:15.565.18-Apr-2020 2932.07 3431.42 62.94 1.00 352.26 1915.77
   00:45:15.765.18-Apr-2020 2932.07 3431.42 62.94 1.00 352.46 1915.77
   00:45:15.965.18-Apr-2020 2932.07 3431.42 62.94 1.00 352.66 1915.77
   00:45:16.165.18-Apr-2020 2932.07 3431.42 62.94 1.00 352.86 1915.77
   00:45:16.365.18-Apr-2020 2932.07 3431.41 62.94 1.00 353.06 1915.77
   00:45:16.565.18-Apr-2020 2932.07 3431.43 62.94 1.00 353.26 1915.77
   00:45:16.765.18-Apr-2020 2932.07 3431.42 62.94 1.00 353.46 1915.77
   00:45:16.965.18-Apr-2020 2932.07 3431.42 62.94 1.00 353.66 1915.77
   00:45:17.166.18-Apr-2020 2932.07 3431.40 62.93 1.00 353.86 1915.77
   00:45:17.366.18-Apr-2020 2932.07 3431.43 62.93 1.00 354.06 1915.77
   00:45:17.566.18-Apr-2020 2932.07 3431.43 62.93 1.00 354.26 1915.77
   00:45:17.766.18-Apr-2020 2932.07 3431.42 62.93 1.00 354.46 1915.77
   00:45:17.966.18-Apr-2020 2932.07 3431.42 62.93 1.00 354.66 1915.77
   00:45:18.166.18-Apr-2020 2932.07 3431.41 62.93 1.00 354.86 1915.77
   00:45:18.366.18-Apr-2020 2932.07 3431.41 62.93 1.00 355.06 1915.77
   00:45:18.566.18-Apr-2020 2932.07 3431.41 62.93 1.00 355.26 1915.77
   00:45:18.766.18-Apr-2020 2932.07 3431.41 62.93 1.00 355.46 1915.77
   00:45:18.966.18-Apr-2020 2932.07 3431.42 62.93 1.00 355.66 1915.77
   00:45:19.166.18-Apr-2020 2932.07 3431.41 62.93 1.00 355.86 1915.77
   00:45:19.366.18-Apr-2020 2932.07 3431.40 62.93 1.00 356.06 1915.77
   00:45:19.566.18-Apr-2020 2932.07 3431.40 62.93 1.00 356.26 1915.77
   00:45:19.766.18-Apr-2020 2932.07 3431.42 62.93 1.00 356.46 1915.77
   00:45:19.966.18-Apr-2020 2932.07 3431.41 62.93 1.00 356.66 1915.77
   00:45:20.166.18-Apr-2020 2932.07 3431.40 62.93 1.00 356.86 1915.77
   00:45:20.366.18-Apr-2020 2932.07 3431.41 62.93 1.00 357.06 1915.77
   00:45:20.566.18-Apr-2020 2932.07 3431.41 62.93 1.00 357.26 1915.77
   00:45:20.766.18-Apr-2020 2932.07 3431.42 62.93 1.00 357.46 1915.77
   00:45:20.966.18-Apr-2020 2932.07 3431.40 62.93 1.00 357.66 1915.77
   00:45:21.166.18-Apr-2020 2932.07 3431.42 62.93 1.00 357.86 1915.77
   00:45:21.366.18-Apr-2020 2932.07 3431.41 62.93 1.00 358.06 1915.77
   00:45:21.566.18-Apr-2020 2932.07 3431.41 62.93 1.00 358.26 1915.77
   00:45:21.766.18-Apr-2020 2932.07 3431.40 62.93 1.00 358.46 1915.77
   00:45:21.966.18-Apr-2020 2932.07 3431.41 62.93 1.00 358.66 1915.77
   00:45:22.166.18-Apr-2020 2932.07 3431.41 62.93 1.00 358.86 1915.77
   00:45:22.366.18-Apr-2020 2932.07 3431.41 62.92 1.00 359.06 1915.77
   00:45:22.566.18-Apr-2020 2932.07 3431.41 62.92 1.00 359.26 1915.77
   00:45:22.766.18-Apr-2020 2932.07 3431.41 62.92 1.00 359.46 1915.77
   00:45:22.966.18-Apr-2020 2932.07 3431.42 62.92 1.00 359.66 1915.77
   00:45:23.166.18-Apr-2020 2932.07 3431.42 62.92 1.00 359.86 1915.77
   00:45:23.367.18-Apr-2020 2932.07 3431.41 62.92 1.00 360.06 1915.77
   00:45:23.567.18-Apr-2020 2932.07 3431.41 62.92 1.00 360.26 1915.77
   00:45:23.767.18-Apr-2020 2932.07 3431.40 62.92 1.00 360.46 1915.77
   00:45:23.967.18-Apr-2020 2932.07 3431.42 62.92 1.00 360.66 1915.77
   00:45:24.167.18-Apr-2020 2932.07 3431.41 62.92 1.00 360.86 1915.77
   00:45:24.367.18-Apr-2020 2932.07 3431.41 62.92 1.00 361.06 1915.77
   00:45:24.567.18-Apr-2020 2932.07 3431.40 62.92 1.00 361.26 1915.77
   00:45:24.767.18-Apr-2020 2932.07 3431.41 62.92 1.00 361.46 1915.77
   00:45:24.967.18-Apr-2020 2932.07 3431.41 62.92 1.00 361.66 1915.77
   00:45:25.167.18-Apr-2020 2932.07 3431.42 62.92 1.00 361.86 1915.77
   00:45:25.367.18-Apr-2020 2932.07 3431.41 62.92 1.00 362.06 1915.77
   00:45:25.567.18-Apr-2020 2932.07 3431.41 62.92 1.00 362.26 1915.77
   00:45:25.767.18-Apr-2020 2932.07 3431.42 62.92 1.00 362.46 1915.77
   00:45:25.967.18-Apr-2020 2932.07 3431.43 62.92 1.00 362.66 1915.77
   00:45:26.167.18-Apr-2020 2932.07 3431.41 62.92 1.00 362.86 1915.77
   00:45:26.367.18-Apr-2020 2932.07 3431.40 62.92 1.00 363.06 1915.77
   00:45:26.567.18-Apr-2020 2932.07 3431.40 62.92 1.00 363.26 1915.77
   00:45:26.767.18-Apr-2020 2932.07 3431.42 62.92 1.00 363.46 1915.77
   00:45:26.967.18-Apr-2020 2932.07 3431.40 62.92 1.00 363.66 1915.77
   00:45:27.167.18-Apr-2020 2932.07 3431.40 62.92 1.00 363.86 1915.77
   00:45:27.367.18-Apr-2020 2932.07 3431.39 62.92 1.00 364.06 1915.77
   00:45:27.567.18-Apr-2020 2932.07 3431.39 62.91 1.00 364.26 1915.77
   00:45:27.767.18-Apr-2020 2932.07 3431.41 62.91 1.00 364.46 1915.77
   00:45:27.967.18-Apr-2020 2932.07 3431.39 62.91 1.00 364.66 1915.77
   00:45:28.167.18-Apr-2020 2932.07 3431.40 62.91 1.00 364.86 1915.77
   00:45:28.367.18-Apr-2020 2932.07 3431.39 62.91 1.00 365.06 1915.77
   00:45:28.567.18-Apr-2020 2932.07 3431.39 62.91 1.00 365.26 1915.77
   00:45:28.767.18-Apr-2020 2932.07 3431.38 62.91 1.00 365.46 1915.77
   00:45:28.967.18-Apr-2020 2932.07 3431.40 62.91 1.00 365.66 1915.77
   00:45:29.167.18-Apr-2020 2932.07 3431.40 62.91 1.00 365.86 1915.77
   00:45:29.367.18-Apr-2020 2932.07 3431.40 62.91 1.00 366.06 1915.77
   00:45:29.568.18-Apr-2020 2932.07 3431.40 62.91 1.00 366.26 1915.77
   00:45:29.768.18-Apr-2020 2932.07 3431.40 62.91 1.00 366.46 1915.77
   00:45:29.968.18-Apr-2020 2932.07 3431.39 62.91 1.00 366.66 1915.77
   00:45:30.168.18-Apr-2020 2932.07 3431.40 62.91 1.00 366.86 1915.77
   00:45:30.368.18-Apr-2020 2932.07 3431.39 62.91 1.00 367.06 1915.77
   00:45:30.568.18-Apr-2020 2932.07 3431.39 62.91 1.00 367.26 1915.77
   00:45:30.768.18-Apr-2020 2932.07 3431.40 62.91 1.00 367.46 1915.77
   00:45:30.968.18-Apr-2020 2932.07 3431.39 62.91 1.00 367.66 1915.77
   00:45:31.168.18-Apr-2020 2932.07 3431.39 62.91 1.00 367.86 1915.77
