~Version Information
 VERS.                  2.0:   CWLS log ASCII Standard -VERSION 2.0
 WRAP.                   NO:   One line per depth step
~Well Information Block
#MNEM.UNIT     VALUE/NAME     DESCRIPTION
#---------     -----------    ---------------------------
 STRT.S             13:35:33 18-Apr-20: START TIME 13:35:33 18-Apr-20
 STOP.S             13:42:31 18-Apr-20: STOP TIME  13:42:31 18-Apr-20
 STEP.S                   0.00: STEP TIME
 NULL.                 -999.25: NULL VALUE
 DFWT.                        :  DIST FWL TEXT
 DFST.                        :  DIST FSL TEXT
 DMF .                        :  DRILL MEAS FROM
 STIM.      16.29.52 23-Mar-20:  START TIME
 DATE.      16.29.52 23-Mar-20:  END TIME
 SPUD.               23-Mar-20:  SPUD DATE
 NREF.                    Grid:  NORTH REFERENCE
 HPTY.       Minimum Curvature:  HOLE POS TYPE
 DMOD.             Drill Model:  DRILL MOD DESC
 SVYD.                  Survey:  SURVEY DESC
 ILTD.               Lithology:  INTERP LTH DESC
 FTOP.          Formation Tops:  FORM TOPS DESC
 SON .        AZ-XX-0906252240:  JOB NUMBER
 RIG .             West Chirag:  RIG NAME
 PDAT.          Mean Sea Level:  PERMANENT DATUM
 FLD .                     ACG:  FIELD NAME
 CTRY.              Azerbaijan:  COUNTRY NAME
 WELL.           J23 (Slot 07):  WELL NAME
 SRVC.          Turan Drilling:  CONTRACTOR
 COMP.     BP Exploration (Casoian Sea) Ltd:  COMPANY
 WTYP.                Deviated:  WELL TYPE
 MDS .        Operator Entered:  MAG DATA SOURCE
 UWI .                     N/A:  UNIQUE WELL IDENTIFIER
 API .                     N/A:  API NUMBER
 BASE.              Azerbaijan:  LOGGING EQUIPMENT BASE LOCATION
 REGN.                   EESSA:  REGION
 PROV.                    Baku:  PROVINCE
 STAT.                    Baku:  STATE NAME
 MWDS.                     N/A:  MWD SHOP
 JOBN.        AZ-XX-0906252240:  JOB TICKET NUMB
 DOE .                     N/A:  DOE NUMBER
 DCON.         Sperry Drilling:  DIRECTNL CONTR
 UNIT.                     N/A:  LOGGING EQUIPMENT ID
 CNTY.                        :  COUNTY
 LOC .                        :  LOCATION
 LMF .             Drill Floor:  LOG MEASURED FROM
 TVDS.m                  43.00:  TVDSS CORRECTN
 LATI.deg                40.13:  LATITUDE
 LONG.deg                51.22:  LONGITUDE
 WHNS.m                   9.43:  WELL HEAD N/S
 WHEW.m                  -8.91:  WELL HEAD E/W
 UTMX.m              519005.06:  UTM X
 UTMY.m             4443793.85:  UTM Y
 DFWL.m                   0.00:  DISTANCE FWL
 DFSL.m                   0.00:  DISTANCE FSL
 SDEP.m                   0.00:  START DEPTH
 TDD .m                   0.00:  TOTAL DEPTH (DRILLER)
 VSDR.deg               179.88:  VERT SEC DIRECT
 GVFD.g                   1.00:  GRAVITY FIELD
 MFLD.nT              50281.00:  MAGNETIC FIELD
 MDIP.deg                59.58:  MAGNETIC DIP
 MDEC.deg                 6.48:  MAGNETIC DECL
 GRDC.deg                 0.14:  GRID CORRECTION
 AZTC.deg                 6.34:  AZM TOTAL CORR
 EPD .m                   0.00:  ELEVATION
 EGL .m                   0.00:  GROUND ELEVATION
 WDMS.m                 169.80:  WD ELEV
 APD .m                  43.00:  DEPTH ABOVE PD
 DEP .m                 354.17:  DEPTH
 AGAP.m                  43.00:  AIR GAP
 VSEW.m                  -8.91:  VERT SEC E/W
 VSNS.m                   9.43:  VERT SEC N/S
 EKB .m                   0.00:  KB ELEVATION
 EDF .m                  43.00:  DF ELEVATION
 TDL .m                1326.00:  TOTAL DEPTH (LOGGER)
 VSC .                       0:  VS TO CLOSURE
 MAGU.                 1850704:  MAGUTM CHECKSUM
~Parameter Information Block
#MNEM.UNIT       Value        Description
#---------     -----------    ---------------------------
 AV  .mps                 1.17:  Ann Velocity 
 AZIF.deg               184.04:  Azm, Final 
 BHAT.        Rotary Steerable:  BHA Type 
 BREV.rev            620000.00:  Rev Bit Total 
 BROT.°/30m               0.20:  Build Rotating 
 BS  .in                 14.75:  Bit Size 
 BSZ .in                 14.75:  Bit Size 
 BTPL.psig              618.00:  Bit Press Loss 
 CABU.                      No:  Customer Abuse 
 COMM.                     ôÎT:  Run Comments 1 
 TCS .hr                 87.68:  Time Ciculation Ended 
 CV  .mps                 3.10:  Crit Velocity 
 DD1 .          Rashad Habibov:  Direct Drillr 1 
 DD2 .         Rasim Ibrahimov:  Direct Drillr 2 
 DDSV.               Geo-Pilot:  DD Service 
 DEFF.%                  98.00:  % Det Eff 
 DLRX.°/30m               1.48:  Dogleg Rot Max 
 DLSO.°/30m               0.50:  Dogleg Oriented 
 DLSX.°/30m               1.48:  Dogleg Str Max 
 DRET.      06.18.56 19-Apr-20:  Drill End Time 
 DRST.      15.00.56 15-Apr-20:  Drill Start Tim 
 DTIM.hr                 51.73:  Time Drilling 
 EDEP.m                3410.01:  End Depth 
 ENG1.        Marcelo Sandoval:  Engineer 1 
 ENG2.        Davud Huseynzade:  Engineer 2 
 ENG3.          Ruslan Safarov:  Engineer 3 
 ETIM.      04.00.56 20-Apr-20:  End Time 
 FLOI.gpm              1000.00:  Flow In 
 FLON.gpm               600.00:  Flow In Min 
 FLOS.cptm                0.00:  Fluid Loss 
 FLOX.gpm              1200.00:  Flow In Max 
 HFLO.                      No:  High Flow 
 HPRE.                     Yes:  High Pressure 
 HTEM.                      No:  High Temp 
 HYDO.m                   1.80:  Hydro Offset 
 IFIN.deg                70.04:  Inc, Final 
 IMAX.deg                70.56:  Inc Max 
 IMIN.deg                69.85:  Inc Min 
 IMND.m                3103.24:  Inc Min Depth 
 IMXD.m                2876.63:  Inc Max Depth 
 JARR.                      No:  Jarring 
 LETM.      06.18.56 19-Apr-20:  Log End Time 
 LOST.hr                     0:  Lost Rig Time 
 LSTM.      15.00.56 15-Apr-20:  Log Start Time 
 MDCL.ppm             42000.00:  Mud Chlorides 
 MDES.     Inversion Oil/Synthetic:  Mud Desc 
 DFD .sg                  1.58:  Mud Density 
 MDMN.sg                  1.58:  Dens Mud Min 
 MDMX.sg                  1.58:  Dens Mud Max 
 MOIL.                      71:  Run Mud Oil % 
 MOWR.                   71:29:  Run Mud OWR 
 MSND.                       0:  Run Mud Sand % 
 MSOL.                    23.3:  Run Mud Solids% 
 DFV .spqt               84.00:  Mud Viscosity 
 MWOD.in                  9.50:  MWD Tool OD 
 MWSI.                      No:  Serv Intrp, MWD 
 OTIM.hr                139.62:  Time Operating 
 PMAX.psia             5364.69:  Press Op, Max 
 PV  .cP                 80.00:  Mud PV 
 RUN .                     700:  Run Number 
 ROPA.m/hr               25.00:  ROP Avg 
 ROPN.m/hr               11.00:  ROP Min 
 ROPX.m/hr               36.00:  ROP Max 
 RPMA.rpm               130.00:  RPM Surface Avg 
 RPMN.rpm               120.00:  RPM Surface Min 
 RPMX.rpm               140.00:  RPM Surface Max 
 RRUN.                    0700:  Rig Run Number 
 SAZI.deg               183.25:  Azm, Start 
 SDEP.m                2084.00:  Start Depth 
 SIDD.                      No:  Serv Intrp, DD 
 SINC.deg                70.38:  Inc, Start 
 SPPA.psig             4800.00:  SPP Avg 
 SPPN.psig             4400.00:  SPP Min 
 SPPX.psig             5350.00:  SPP Max 
 STIM.      16.30.56 14-Apr-20:  Start Time 
 SVCS.                 DD, MWD:  Services 
 SVER.                    9.20:  Sperry Version 
 TDAT.m                1326.00:  Tot Depth Attmp 
 TDDF.                      No:  Trip for DD 
 TDLG.m                1326.00:  Tot Depth Loggd 
 TFF .                      No:  Trip for Fail 
 TQAA.f-kp               19.00:  Torque Abs Avg 
 TQAN.f-kp                8.00:  Torque Abs Min 
 TQAX.f-kp               27.00:  Torque Abs Max 
 TRRT.°/30m               0.50:  Turn Rotating 
 MRT .                    HCIM:  Maximum Recorded Temperature 
 TTMX.degC               82.35:  Max Tool Temp 
 VS01.       905245875X1Z1W1C8:  Virtual Str1 SN 
 VS02.       90608022F11V7D1A9:  Virtual Str2 SN 
 VS03.            90605473R5C9:  Virtual Str3 SN 
 WBMN.klb                11.00:  WOB Min 
 WOBA.klb                21.00:  WOB Avg 
 WOBX.klb                30.00:  WOB Max 
 YP  .lhf2               45.00:  Yield Point 
~Curve Information Block
#MNEM.UNIT                 API CODE     Curve Description
#---------               -----------    ---------------------------
 TIME.HHMMSS            00 000 000 000:  GT Time & Date
 GTDEPTH.m              00 000 000 000:  GT Depth
 GTPQH.psia             00 000 000 000:  GT HR Quartz Pressure
 GTTQ.degC              00 000 000 000:  GT Quartz Temperature
 GTTN.NONE              00 000 000 000:  GT Test Number
 GTET.sec               00 000 000 000:  GT Elapsed Test Time
 GTTVD.m                00 000 000 000:  GT True Vertical Depth
#Other Information
#
#WARRANTY: Halliburton will use its best efforts to furnish customers with 
#accurate information and interpretations that are part of, and incident to, the services 
#provided.  However, Halliburton cannot and does not warrant the accuracy 
#or correctness of such information and interpretations.  Under no circumstances should any 
#such information or interpretation be relied upon as the sole basis for any drilling, 
#completion, production, or financial decision or any procedure involving any risk to the 
#safety of any drilling venture, drilling rig or its crew or any other third party.  The 
#Customer has full responsibility for all drilling, completion and production operation.  
#Halliburton makes no representations or warranties, either expressed or 
#implied, including, but not limited to, the implied warranties of merchantability or fitness 
#for a particular purpose, with respect to the services rendered.  In no event will 
#Halliburton be liable for failure to obtain any particular results or for 
#any damages, including, but not limited to, indirect, special or consequential damages, 
#resulting from the use of any information or interpretation provided by Halliburton.
#
~A           TIME           GTDEPTH  GTPQH  GTTQ  GTTN  GTET   GTTVD  
# ...
   13:40:55.402.18-Apr-2020 3111.02 3318.28 69.62 5.00 322.14 1976.62
   13:40:55.602.18-Apr-2020 3111.02 3318.28 69.62 5.00 322.34 1976.62
   13:40:55.802.18-Apr-2020 3111.02 3318.28 69.62 5.00 322.55 1976.62
   13:40:56.002.18-Apr-2020 3111.02 3318.28 69.61 5.00 322.75 1976.62
   13:40:56.202.18-Apr-2020 3111.02 3318.27 69.61 5.00 322.95 1976.62
   13:40:56.402.18-Apr-2020 3111.02 3318.28 69.61 5.00 323.15 1976.62
   13:40:56.603.18-Apr-2020 3111.02 3318.28 69.61 5.00 323.35 1976.62
   13:40:56.803.18-Apr-2020 3111.02 3318.28 69.61 5.00 323.55 1976.62
   13:40:57.003.18-Apr-2020 3111.02 3318.26 69.61 5.00 323.75 1976.62
   13:40:57.203.18-Apr-2020 3111.02 3318.28 69.61 5.00 323.95 1976.62
   13:40:57.403.18-Apr-2020 3111.02 3318.27 69.61 5.00 324.15 1976.62
   13:40:57.603.18-Apr-2020 3111.02 3318.27 69.61 5.00 324.35 1976.62
   13:40:57.803.18-Apr-2020 3111.02 3318.27 69.61 5.00 324.55 1976.62
   13:40:58.003.18-Apr-2020 3111.02 3318.26 69.60 5.00 324.75 1976.62
   13:40:58.203.18-Apr-2020 3111.02 3318.25 69.60 5.00 324.95 1976.62
   13:40:58.403.18-Apr-2020 3111.02 3318.28 69.60 5.00 325.15 1976.62
   13:40:58.603.18-Apr-2020 3111.02 3318.28 69.60 5.00 325.35 1976.62
   13:40:58.804.18-Apr-2020 3111.02 3318.27 69.60 5.00 325.55 1976.62
   13:40:59.004.18-Apr-2020 3111.02 3318.27 69.60 5.00 325.75 1976.62
   13:40:59.204.18-Apr-2020 3111.02 3318.26 69.60 5.00 325.95 1976.62
   13:40:59.404.18-Apr-2020 3111.02 3318.27 69.60 5.00 326.15 1976.62
   13:40:59.604.18-Apr-2020 3111.02 3318.27 69.60 5.00 326.35 1976.62
   13:40:59.804.18-Apr-2020 3111.02 3318.27 69.59 5.00 326.55 1976.62
   13:41:00.004.18-Apr-2020 3111.02 3318.27 69.59 5.00 326.75 1976.62
   13:41:00.204.18-Apr-2020 3111.02 3318.26 69.59 5.00 326.95 1976.62
   13:41:00.404.18-Apr-2020 3111.02 3318.27 69.59 5.00 327.15 1976.62
   13:41:00.604.18-Apr-2020 3111.02 3318.27 69.59 5.00 327.35 1976.62
   13:41:00.804.18-Apr-2020 3111.02 3318.26 69.59 5.00 327.55 1976.62
   13:41:01.005.18-Apr-2020 3111.02 3318.27 69.59 5.00 327.75 1976.62
   13:41:01.205.18-Apr-2020 3111.02 3318.27 69.59 5.00 327.95 1976.62
   13:41:01.405.18-Apr-2020 3111.02 3318.25 69.59 5.00 328.15 1976.62
   13:41:01.605.18-Apr-2020 3111.02 3318.25 69.59 5.00 328.35 1976.62
   13:41:01.805.18-Apr-2020 3111.02 3318.27 69.58 5.00 328.55 1976.62
   13:41:02.005.18-Apr-2020 3111.02 3318.26 69.58 5.00 328.75 1976.62
   13:41:02.205.18-Apr-2020 3111.02 3318.26 69.58 5.00 328.95 1976.62
   13:41:02.405.18-Apr-2020 3111.02 3318.25 69.58 5.00 329.15 1976.62
   13:41:02.605.18-Apr-2020 3111.02 3318.25 69.58 5.00 329.35 1976.62
   13:41:02.805.18-Apr-2020 3111.02 3318.27 69.58 5.00 329.55 1976.62
   13:41:03.005.18-Apr-2020 3111.02 3318.27 69.58 5.00 329.75 1976.62
   13:41:03.206.18-Apr-2020 3111.02 3318.26 69.58 5.00 329.95 1976.62
   13:41:03.406.18-Apr-2020 3111.02 3318.26 69.58 5.00 330.15 1976.62
   13:41:03.606.18-Apr-2020 3111.02 3318.26 69.58 5.00 330.35 1976.62
   13:41:03.806.18-Apr-2020 3111.02 3318.28 69.57 5.00 330.55 1976.62
   13:41:04.006.18-Apr-2020 3111.02 3318.28 69.57 5.00 330.75 1976.62
   13:41:04.206.18-Apr-2020 3111.02 3318.26 69.57 5.00 330.95 1976.62
   13:41:04.406.18-Apr-2020 3111.02 3318.27 69.57 5.00 331.15 1976.62
   13:41:04.606.18-Apr-2020 3111.02 3318.27 69.57 5.00 331.35 1976.62
   13:41:04.806.18-Apr-2020 3111.02 3318.27 69.57 5.00 331.55 1976.62
   13:41:05.006.18-Apr-2020 3111.02 3318.28 69.57 5.00 331.75 1976.62
   13:41:05.206.18-Apr-2020 3111.02 3318.26 69.57 5.00 331.95 1976.62
   13:41:05.407.18-Apr-2020 3111.02 3318.26 69.56 5.00 332.15 1976.62
   13:41:05.607.18-Apr-2020 3111.02 3318.26 69.56 5.00 332.35 1976.62
   13:41:05.807.18-Apr-2020 3111.02 3318.27 69.56 5.00 332.55 1976.62
   13:41:06.007.18-Apr-2020 3111.02 3318.26 69.56 5.00 332.75 1976.62
   13:41:06.207.18-Apr-2020 3111.02 3318.26 69.56 5.00 332.95 1976.62
   13:41:06.407.18-Apr-2020 3111.02 3318.26 69.56 5.00 333.15 1976.62
   13:41:06.607.18-Apr-2020 3111.02 3318.26 69.56 5.00 333.35 1976.62
   13:41:06.807.18-Apr-2020 3111.02 3318.26 69.56 5.00 333.55 1976.62
   13:41:07.007.18-Apr-2020 3111.02 3318.26 69.56 5.00 333.75 1976.62
   13:41:07.207.18-Apr-2020 3111.02 3318.26 69.55 5.00 333.95 1976.62
   13:41:07.407.18-Apr-2020 3111.02 3318.27 69.55 5.00 334.15 1976.62
   13:41:07.608.18-Apr-2020 3111.02 3318.27 69.55 5.00 334.35 1976.62
   13:41:07.808.18-Apr-2020 3111.02 3318.27 69.55 5.00 334.55 1976.62
   13:41:08.008.18-Apr-2020 3111.02 3318.27 69.55 5.00 334.75 1976.62
   13:41:08.208.18-Apr-2020 3111.02 3318.27 69.55 5.00 334.95 1976.62
   13:41:08.408.18-Apr-2020 3111.02 3318.27 69.55 5.00 335.15 1976.62
   13:41:08.608.18-Apr-2020 3111.02 3318.27 69.55 5.00 335.35 1976.62
   13:41:08.808.18-Apr-2020 3111.02 3318.26 69.55 5.00 335.55 1976.62
   13:41:09.008.18-Apr-2020 3111.02 3318.26 69.54 5.00 335.75 1976.62
   13:41:09.208.18-Apr-2020 3111.02 3318.26 69.54 5.00 335.95 1976.62
   13:41:09.408.18-Apr-2020 3111.02 3318.27 69.54 5.00 336.15 1976.62
   13:41:09.608.18-Apr-2020 3111.02 3318.27 69.54 5.00 336.35 1976.62
   13:41:09.808.18-Apr-2020 3111.02 3318.26 69.54 5.00 336.55 1976.62
   13:41:10.009.18-Apr-2020 3111.02 3318.26 69.54 5.00 336.75 1976.62
   13:41:10.209.18-Apr-2020 3111.02 3318.26 69.54 5.00 336.95 1976.62
   13:41:10.409.18-Apr-2020 3111.02 3318.25 69.54 5.00 337.15 1976.62
   13:41:10.609.18-Apr-2020 3111.02 3318.25 69.54 5.00 337.35 1976.62
   13:41:10.809.18-Apr-2020 3111.02 3318.27 69.54 5.00 337.55 1976.62
   13:41:11.009.18-Apr-2020 3111.02 3318.27 69.53 5.00 337.75 1976.62
   13:41:11.209.18-Apr-2020 3111.02 3318.25 69.53 5.00 337.95 1976.62
   13:41:11.409.18-Apr-2020 3111.02 3318.26 69.53 5.00 338.15 1976.62
   13:41:11.609.18-Apr-2020 3111.02 3318.26 69.53 5.00 338.35 1976.62
   13:41:11.809.18-Apr-2020 3111.02 3318.25 69.53 5.00 338.55 1976.62
   13:41:12.009.18-Apr-2020 3111.02 3318.27 69.53 5.00 338.75 1976.62
   13:41:12.210.18-Apr-2020 3111.02 3318.27 69.53 5.00 338.95 1976.62
   13:41:12.410.18-Apr-2020 3111.02 3318.26 69.53 5.00 339.15 1976.62
   13:41:12.610.18-Apr-2020 3111.02 3318.26 69.53 5.00 339.35 1976.62
   13:41:12.810.18-Apr-2020 3111.02 3318.26 69.52 5.00 339.55 1976.62
   13:41:13.010.18-Apr-2020 3111.02 3318.25 69.52 5.00 339.75 1976.62
   13:41:13.210.18-Apr-2020 3111.02 3318.28 69.52 5.00 339.95 1976.62
   13:41:13.410.18-Apr-2020 3111.02 3318.27 69.52 5.00 340.15 1976.62
   13:41:13.610.18-Apr-2020 3111.02 3318.27 69.52 5.00 340.35 1976.62
   13:41:13.810.18-Apr-2020 3111.02 3318.25 69.52 5.00 340.55 1976.62
   13:41:14.010.18-Apr-2020 3111.02 3318.28 69.52 5.00 340.75 1976.62
   13:41:14.210.18-Apr-2020 3111.02 3318.27 69.52 5.00 340.95 1976.62
   13:41:14.411.18-Apr-2020 3111.02 3318.26 69.52 5.00 341.15 1976.62
   13:41:14.611.18-Apr-2020 3111.02 3318.26 69.52 5.00 341.35 1976.62
   13:41:14.811.18-Apr-2020 3111.02 3318.26 69.51 5.00 341.55 1976.62
   13:41:15.011.18-Apr-2020 3111.02 3318.27 69.51 5.00 341.75 1976.62
   13:41:15.211.18-Apr-2020 3111.02 3318.26 69.51 5.00 341.95 1976.62
   13:41:15.411.18-Apr-2020 3111.02 3318.26 69.51 5.00 342.15 1976.62
   13:41:15.611.18-Apr-2020 3111.02 3318.26 69.51 5.00 342.35 1976.62
   13:41:15.811.18-Apr-2020 3111.02 3318.27 69.51 5.00 342.55 1976.62
   13:41:16.011.18-Apr-2020 3111.02 3318.28 69.51 5.00 342.75 1976.62
   13:41:16.211.18-Apr-2020 3111.02 3318.27 69.51 5.00 342.95 1976.62
   13:41:16.411.18-Apr-2020 3111.02 3318.27 69.51 5.00 343.15 1976.62
   13:41:16.612.18-Apr-2020 3111.02 3318.27 69.51 5.00 343.35 1976.62
   13:41:16.812.18-Apr-2020 3111.02 3318.26 69.50 5.00 343.55 1976.62
   13:41:17.012.18-Apr-2020 3111.02 3318.28 69.50 5.00 343.75 1976.62
   13:41:17.212.18-Apr-2020 3111.02 3318.27 69.50 5.00 343.95 1976.62
   13:41:17.412.18-Apr-2020 3111.02 3318.25 69.50 5.00 344.15 1976.62
   13:41:17.612.18-Apr-2020 3111.02 3318.25 69.50 5.00 344.35 1976.62
   13:41:17.812.18-Apr-2020 3111.02 3318.26 69.50 5.00 344.55 1976.62
   13:41:18.012.18-Apr-2020 3111.02 3318.26 69.50 5.00 344.76 1976.62
   13:41:18.212.18-Apr-2020 3111.02 3318.25 69.50 5.00 344.96 1976.62
