~Version Information
 VERS.                  2.0:   CWLS log ASCII Standard -VERSION 2.0
 WRAP.                   NO:   One line per depth step
~Well Information Block
#MNEM.UNIT     VALUE/NAME     DESCRIPTION
#---------     -----------    ---------------------------
 STRT.S             15:57:21 18-Apr-20: START TIME 15:57:21 18-Apr-20
 STOP.S             16:04:15 18-Apr-20: STOP TIME  16:04:15 18-Apr-20
 STEP.S                   0.00: STEP TIME
 NULL.                 -999.25: NULL VALUE
 DFWT.                        :  DIST FWL TEXT
 DFST.                        :  DIST FSL TEXT
 DMF .                        :  DRILL MEAS FROM
 STIM.      16.29.52 23-Mar-20:  START TIME
 DATE.      16.29.52 23-Mar-20:  END TIME
 SPUD.               23-Mar-20:  SPUD DATE
 NREF.                    Grid:  NORTH REFERENCE
 HPTY.       Minimum Curvature:  HOLE POS TYPE
 DMOD.             Drill Model:  DRILL MOD DESC
 SVYD.                  Survey:  SURVEY DESC
 ILTD.               Lithology:  INTERP LTH DESC
 FTOP.          Formation Tops:  FORM TOPS DESC
 SON .        AZ-XX-0906252240:  JOB NUMBER
 RIG .             West Chirag:  RIG NAME
 PDAT.          Mean Sea Level:  PERMANENT DATUM
 FLD .                     ACG:  FIELD NAME
 CTRY.              Azerbaijan:  COUNTRY NAME
 WELL.           J23 (Slot 07):  WELL NAME
 SRVC.          Turan Drilling:  CONTRACTOR
 COMP.     BP Exploration (Casoian Sea) Ltd:  COMPANY
 WTYP.                Deviated:  WELL TYPE
 MDS .        Operator Entered:  MAG DATA SOURCE
 UWI .                     N/A:  UNIQUE WELL IDENTIFIER
 API .                     N/A:  API NUMBER
 BASE.              Azerbaijan:  LOGGING EQUIPMENT BASE LOCATION
 REGN.                   EESSA:  REGION
 PROV.                    Baku:  PROVINCE
 STAT.                    Baku:  STATE NAME
 MWDS.                     N/A:  MWD SHOP
 JOBN.        AZ-XX-0906252240:  JOB TICKET NUMB
 DOE .                     N/A:  DOE NUMBER
 DCON.         Sperry Drilling:  DIRECTNL CONTR
 UNIT.                     N/A:  LOGGING EQUIPMENT ID
 CNTY.                        :  COUNTY
 LOC .                        :  LOCATION
 LMF .             Drill Floor:  LOG MEASURED FROM
 TVDS.m                  43.00:  TVDSS CORRECTN
 LATI.deg                40.13:  LATITUDE
 LONG.deg                51.22:  LONGITUDE
 WHNS.m                   9.43:  WELL HEAD N/S
 WHEW.m                  -8.91:  WELL HEAD E/W
 UTMX.m              519005.06:  UTM X
 UTMY.m             4443793.85:  UTM Y
 DFWL.m                   0.00:  DISTANCE FWL
 DFSL.m                   0.00:  DISTANCE FSL
 SDEP.m                   0.00:  START DEPTH
 TDD .m                   0.00:  TOTAL DEPTH (DRILLER)
 VSDR.deg               179.88:  VERT SEC DIRECT
 GVFD.g                   1.00:  GRAVITY FIELD
 MFLD.nT              50281.00:  MAGNETIC FIELD
 MDIP.deg                59.58:  MAGNETIC DIP
 MDEC.deg                 6.48:  MAGNETIC DECL
 GRDC.deg                 0.14:  GRID CORRECTION
 AZTC.deg                 6.34:  AZM TOTAL CORR
 EPD .m                   0.00:  ELEVATION
 EGL .m                   0.00:  GROUND ELEVATION
 WDMS.m                 169.80:  WD ELEV
 APD .m                  43.00:  DEPTH ABOVE PD
 DEP .m                 354.17:  DEPTH
 AGAP.m                  43.00:  AIR GAP
 VSEW.m                  -8.91:  VERT SEC E/W
 VSNS.m                   9.43:  VERT SEC N/S
 EKB .m                   0.00:  KB ELEVATION
 EDF .m                  43.00:  DF ELEVATION
 TDL .m                1326.00:  TOTAL DEPTH (LOGGER)
 VSC .                       0:  VS TO CLOSURE
 MAGU.                 1850704:  MAGUTM CHECKSUM
~Parameter Information Block
#MNEM.UNIT       Value        Description
#---------     -----------    ---------------------------
 AV  .mps                 1.17:  Ann Velocity 
 AZIF.deg               184.04:  Azm, Final 
 BHAT.        Rotary Steerable:  BHA Type 
 BREV.rev            620000.00:  Rev Bit Total 
 BROT.°/30m               0.20:  Build Rotating 
 BS  .in                 14.75:  Bit Size 
 BSZ .in                 14.75:  Bit Size 
 BTPL.psig              618.00:  Bit Press Loss 
 CABU.                      No:  Customer Abuse 
 COMM.                     ¬)g:  Run Comments 1 
 TCS .hr                 87.68:  Time Ciculation Ended 
 CV  .mps                 3.10:  Crit Velocity 
 DD1 .          Rashad Habibov:  Direct Drillr 1 
 DD2 .         Rasim Ibrahimov:  Direct Drillr 2 
 DDSV.               Geo-Pilot:  DD Service 
 DEFF.%                  98.00:  % Det Eff 
 DLRX.°/30m               1.48:  Dogleg Rot Max 
 DLSO.°/30m               0.50:  Dogleg Oriented 
 DLSX.°/30m               1.48:  Dogleg Str Max 
 DRET.      06.18.56 19-Apr-20:  Drill End Time 
 DRST.      15.00.56 15-Apr-20:  Drill Start Tim 
 DTIM.hr                 51.73:  Time Drilling 
 EDEP.m                3410.01:  End Depth 
 ENG1.        Marcelo Sandoval:  Engineer 1 
 ENG2.        Davud Huseynzade:  Engineer 2 
 ENG3.          Ruslan Safarov:  Engineer 3 
 ETIM.      04.00.56 20-Apr-20:  End Time 
 FLOI.gpm              1000.00:  Flow In 
 FLON.gpm               600.00:  Flow In Min 
 FLOS.cptm                0.00:  Fluid Loss 
 FLOX.gpm              1200.00:  Flow In Max 
 HFLO.                      No:  High Flow 
 HPRE.                     Yes:  High Pressure 
 HTEM.                      No:  High Temp 
 HYDO.m                   1.80:  Hydro Offset 
 IFIN.deg                70.04:  Inc, Final 
 IMAX.deg                70.56:  Inc Max 
 IMIN.deg                69.85:  Inc Min 
 IMND.m                3103.24:  Inc Min Depth 
 IMXD.m                2876.63:  Inc Max Depth 
 JARR.                      No:  Jarring 
 LETM.      06.18.56 19-Apr-20:  Log End Time 
 LOST.hr                     0:  Lost Rig Time 
 LSTM.      15.00.56 15-Apr-20:  Log Start Time 
 MDCL.ppm             42000.00:  Mud Chlorides 
 MDES.     Inversion Oil/Synthetic:  Mud Desc 
 DFD .sg                  1.58:  Mud Density 
 MDMN.sg                  1.58:  Dens Mud Min 
 MDMX.sg                  1.58:  Dens Mud Max 
 MOIL.                      71:  Run Mud Oil % 
 MOWR.                   71:29:  Run Mud OWR 
 MSND.                       0:  Run Mud Sand % 
 MSOL.                    23.3:  Run Mud Solids% 
 DFV .spqt               84.00:  Mud Viscosity 
 MWOD.in                  9.50:  MWD Tool OD 
 MWSI.                      No:  Serv Intrp, MWD 
 OTIM.hr                139.62:  Time Operating 
 PMAX.psia             5364.69:  Press Op, Max 
 PV  .cP                 80.00:  Mud PV 
 RUN .                     700:  Run Number 
 ROPA.m/hr               25.00:  ROP Avg 
 ROPN.m/hr               11.00:  ROP Min 
 ROPX.m/hr               36.00:  ROP Max 
 RPMA.rpm               130.00:  RPM Surface Avg 
 RPMN.rpm               120.00:  RPM Surface Min 
 RPMX.rpm               140.00:  RPM Surface Max 
 RRUN.                    0700:  Rig Run Number 
 SAZI.deg               183.25:  Azm, Start 
 SDEP.m                2084.00:  Start Depth 
 SIDD.                      No:  Serv Intrp, DD 
 SINC.deg                70.38:  Inc, Start 
 SPPA.psig             4800.00:  SPP Avg 
 SPPN.psig             4400.00:  SPP Min 
 SPPX.psig             5350.00:  SPP Max 
 STIM.      16.30.56 14-Apr-20:  Start Time 
 SVCS.                 DD, MWD:  Services 
 SVER.                    9.20:  Sperry Version 
 TDAT.m                1326.00:  Tot Depth Attmp 
 TDDF.                      No:  Trip for DD 
 TDLG.m                1326.00:  Tot Depth Loggd 
 TFF .                      No:  Trip for Fail 
 TQAA.f-kp               19.00:  Torque Abs Avg 
 TQAN.f-kp                8.00:  Torque Abs Min 
 TQAX.f-kp               27.00:  Torque Abs Max 
 TRRT.°/30m               0.50:  Turn Rotating 
 MRT .                    HCIM:  Maximum Recorded Temperature 
 TTMX.degC               82.35:  Max Tool Temp 
 VS01.       905245875X1Z1W1C8:  Virtual Str1 SN 
 VS02.       90608022F11V7D1A9:  Virtual Str2 SN 
 VS03.            90605473R5C9:  Virtual Str3 SN 
 WBMN.klb                11.00:  WOB Min 
 WOBA.klb                21.00:  WOB Avg 
 WOBX.klb                30.00:  WOB Max 
 YP  .lhf2               45.00:  Yield Point 
~Curve Information Block
#MNEM.UNIT                 API CODE     Curve Description
#---------               -----------    ---------------------------
 TIME.HHMMSS            00 000 000 000:  GT Time & Date
 GTDEPTH.m              00 000 000 000:  GT Depth
 GTPQH.psia             00 000 000 000:  GT HR Quartz Pressure
 GTTQ.degC              00 000 000 000:  GT Quartz Temperature
 GTTN.NONE              00 000 000 000:  GT Test Number
 GTET.sec               00 000 000 000:  GT Elapsed Test Time
 GTTVD.m                00 000 000 000:  GT True Vertical Depth
#Other Information
#
#WARRANTY: Halliburton will use its best efforts to furnish customers with 
#accurate information and interpretations that are part of, and incident to, the services 
#provided.  However, Halliburton cannot and does not warrant the accuracy 
#or correctness of such information and interpretations.  Under no circumstances should any 
#such information or interpretation be relied upon as the sole basis for any drilling, 
#completion, production, or financial decision or any procedure involving any risk to the 
#safety of any drilling venture, drilling rig or its crew or any other third party.  The 
#Customer has full responsibility for all drilling, completion and production operation.  
#Halliburton makes no representations or warranties, either expressed or 
#implied, including, but not limited to, the implied warranties of merchantability or fitness 
#for a particular purpose, with respect to the services rendered.  In no event will 
#Halliburton be liable for failure to obtain any particular results or for 
#any damages, including, but not limited to, indirect, special or consequential damages, 
#resulting from the use of any information or interpretation provided by Halliburton.
#
~A           TIME           GTDEPTH  GTPQH  GTTQ  GTTN  GTET   GTTVD  
# ...
   15:58:07.200.18-Apr-2020 3140.11 3769.02 67.72 7.00  45.99 1986.54
   15:58:07.400.18-Apr-2020 3140.11 3769.02 67.72 7.00  46.19 1986.54
   15:58:07.600.18-Apr-2020 3140.11 3676.37 67.72 7.00  46.39 1986.54
   15:58:07.800.18-Apr-2020 3140.11 3624.00 67.72 7.00  46.59 1986.54
   15:58:08.000.18-Apr-2020 3140.11 3577.65 67.72 7.00  46.79 1986.54
   15:58:08.200.18-Apr-2020 3140.11 3533.53 67.72 7.00  46.99 1986.54
   15:58:08.400.18-Apr-2020 3140.11 3496.33 67.72 7.00  47.19 1986.54
   15:58:08.600.18-Apr-2020 3140.11 3465.76 67.72 7.00  47.39 1986.54
   15:58:08.800.18-Apr-2020 3140.11 3425.84 67.71 7.00  47.59 1986.54
   15:58:08.999.18-Apr-2020 3140.11 3391.73 67.71 7.00  47.79 1986.54
   15:58:09.199.18-Apr-2020 3140.11 3375.21 67.71 7.00  47.99 1986.54
   15:58:09.399.18-Apr-2020 3140.11 3375.21 67.71 7.00  48.19 1986.54
   15:58:09.599.18-Apr-2020 3140.11 3304.70 67.71 7.00  48.39 1986.54
   15:58:09.799.18-Apr-2020 3140.11 3280.89 67.71 7.00  48.59 1986.54
   15:58:09.999.18-Apr-2020 3140.11 4115.63 67.71 7.00  48.79 1986.54
   15:58:10.199.18-Apr-2020 3140.11 4278.32 67.71 7.00  48.99 1986.54
   15:58:10.399.18-Apr-2020 3140.11 4278.32 67.71 7.00  49.19 1986.54
   15:58:10.599.18-Apr-2020 3140.11 4111.63 67.71 7.00  49.39 1986.54
   15:58:10.799.18-Apr-2020 3140.11 4031.65 67.71 7.00  49.59 1986.54
   15:58:10.999.18-Apr-2020 3140.11 3961.08 67.71 7.00  49.79 1986.54
   15:58:11.199.18-Apr-2020 3140.11 3895.59 67.71 7.00  49.99 1986.54
   15:58:11.399.18-Apr-2020 3140.11 3895.59 67.71 7.00  50.19 1986.54
   15:58:11.599.18-Apr-2020 3140.11 3774.36 67.70 7.00  50.39 1986.54
   15:58:11.799.18-Apr-2020 3140.11 3724.70 67.70 7.00  50.59 1986.54
   15:58:11.999.18-Apr-2020 3140.11 3679.36 67.70 7.00  50.79 1986.54
   15:58:12.199.18-Apr-2020 3140.11 3629.39 67.70 7.00  50.99 1986.54
   15:58:12.399.18-Apr-2020 3140.11 3582.63 67.70 7.00  51.19 1986.54
   15:58:12.599.18-Apr-2020 3140.11 3538.31 67.70 7.00  51.39 1986.54
   15:58:12.799.18-Apr-2020 3140.11 3504.35 67.70 7.00  51.59 1986.54
   15:58:12.999.18-Apr-2020 3140.11 3510.22 67.70 7.00  51.79 1986.54
   15:58:13.199.18-Apr-2020 3140.11 3531.53 67.70 7.00  51.99 1986.54
   15:58:13.399.18-Apr-2020 3140.11 3531.53 67.70 7.00  52.19 1986.54
   15:58:13.599.18-Apr-2020 3140.11 3514.54 67.70 7.00  52.39 1986.54
   15:58:13.799.18-Apr-2020 3140.11 3521.15 67.70 7.00  52.59 1986.54
   15:58:13.999.18-Apr-2020 3140.11 3523.55 67.70 7.00  52.79 1986.54
   15:58:14.199.18-Apr-2020 3140.11 3539.68 67.70 7.00  52.99 1986.54
   15:58:14.399.18-Apr-2020 3140.11 3539.68 67.70 7.00  53.19 1986.54
   15:58:14.599.18-Apr-2020 3140.11 4328.05 67.70 7.00  53.39 1986.54
   15:58:14.799.18-Apr-2020 3140.11 4724.60 67.70 7.00  53.59 1986.54
   15:58:14.999.18-Apr-2020 3140.11 4693.33 67.69 7.00  53.79 1986.54
   15:58:15.199.18-Apr-2020 3140.11 4650.71 67.69 7.00  53.99 1986.54
   15:58:15.399.18-Apr-2020 3140.11 4650.71 67.69 7.00  54.19 1986.54
   15:58:15.599.18-Apr-2020 3140.11 4672.38 67.69 7.00  54.39 1986.54
   15:58:15.799.18-Apr-2020 3140.11 4636.00 67.69 7.00  54.59 1986.54
   15:58:15.999.18-Apr-2020 3140.11 4624.60 67.69 7.00  54.79 1986.54
   15:58:16.199.18-Apr-2020 3140.11 4616.61 67.69 7.00  54.99 1986.54
   15:58:16.399.18-Apr-2020 3140.11 4608.04 67.69 7.00  55.19 1986.54
   15:58:16.599.18-Apr-2020 3140.11 4607.85 67.69 7.00  55.39 1986.54
   15:58:16.799.18-Apr-2020 3140.11 4607.60 67.69 7.00  55.59 1986.54
   15:58:16.999.18-Apr-2020 3140.11 4606.40 67.69 7.00  55.79 1986.54
   15:58:17.199.18-Apr-2020 3140.11 4606.65 67.69 7.00  55.99 1986.54
   15:58:17.399.18-Apr-2020 3140.11 4606.65 67.69 7.00  56.19 1986.54
   15:58:17.598.18-Apr-2020 3140.11 4607.71 67.69 7.00  56.39 1986.54
   15:58:17.798.18-Apr-2020 3140.11 4607.31 67.69 7.00  56.59 1986.54
   15:58:17.998.18-Apr-2020 3140.11 4606.73 67.69 7.00  56.79 1986.54
   15:58:18.198.18-Apr-2020 3140.11 4611.84 67.69 7.00  56.99 1986.54
   15:58:18.398.18-Apr-2020 3140.11 4611.84 67.69 7.00  57.19 1986.54
   15:58:18.598.18-Apr-2020 3140.11 4609.79 67.70 7.00  57.39 1986.54
   15:58:18.798.18-Apr-2020 3140.11 4607.46 67.70 7.00  57.59 1986.54
   15:58:18.998.18-Apr-2020 3140.11 4608.79 67.70 7.00  57.79 1986.54
   15:58:19.198.18-Apr-2020 3140.11 4608.49 67.70 7.00  57.99 1986.54
   15:58:19.398.18-Apr-2020 3140.11 4608.49 67.70 7.00  58.19 1986.54
   15:58:19.598.18-Apr-2020 3140.11 4607.56 67.70 7.00  58.39 1986.54
   15:58:19.798.18-Apr-2020 3140.11 4606.07 67.70 7.00  58.59 1986.54
   15:58:19.998.18-Apr-2020 3140.11 4608.16 67.70 7.00  58.79 1986.54
   15:58:20.198.18-Apr-2020 3140.11 4608.29 67.70 7.00  58.99 1986.54
   15:58:20.398.18-Apr-2020 3140.11 4608.24 67.70 7.00  59.19 1986.54
   15:58:20.598.18-Apr-2020 3140.11 4607.97 67.70 7.00  59.39 1986.54
   15:58:20.798.18-Apr-2020 3140.11 4608.00 67.70 7.00  59.59 1986.54
   15:58:20.998.18-Apr-2020 3140.11 4608.11 67.70 7.00  59.79 1986.54
   15:58:21.198.18-Apr-2020 3140.11 4608.55 67.70 7.00  59.99 1986.54
   15:58:21.398.18-Apr-2020 3140.11 4608.55 67.70 7.00  60.19 1986.54
   15:58:21.598.18-Apr-2020 3140.11 4608.08 67.70 7.00  60.39 1986.54
   15:58:21.798.18-Apr-2020 3140.11 4607.88 67.70 7.00  60.59 1986.54
   15:58:21.998.18-Apr-2020 3140.11 4607.88 67.70 7.00  60.79 1986.54
   15:58:22.198.18-Apr-2020 3140.11 4607.79 67.70 7.00  60.99 1986.54
   15:58:22.398.18-Apr-2020 3140.11 4607.79 67.70 7.00  61.19 1986.54
   15:58:22.598.18-Apr-2020 3140.11 4747.79 67.70 7.00  61.39 1986.54
   15:58:22.798.18-Apr-2020 3140.11 4584.42 67.70 7.00  61.59 1986.54
   15:58:22.998.18-Apr-2020 3140.11 4579.89 67.70 7.00  61.79 1986.54
   15:58:23.198.18-Apr-2020 3140.11 4577.96 67.70 7.00  61.99 1986.54
   15:58:23.398.18-Apr-2020 3140.11 4577.96 67.70 7.00  62.19 1986.54
   15:58:23.598.18-Apr-2020 3140.11 4578.44 67.70 7.00  62.39 1986.54
   15:58:23.798.18-Apr-2020 3140.11 4579.48 67.70 7.00  62.59 1986.54
   15:58:23.998.18-Apr-2020 3140.11 4580.68 67.70 7.00  62.79 1986.54
   15:58:24.198.18-Apr-2020 3140.11 4580.05 67.70 7.00  62.99 1986.54
   15:58:24.398.18-Apr-2020 3140.11 4534.51 67.70 7.00  63.19 1986.54
   15:58:24.598.18-Apr-2020 3140.11 4364.71 67.70 7.00  63.39 1986.54
   15:58:24.798.18-Apr-2020 3140.11 4129.31 67.70 7.00  63.59 1986.54
   15:58:24.998.18-Apr-2020 3140.11 3898.50 67.70 7.00  63.79 1986.54
   15:58:25.198.18-Apr-2020 3140.11 3705.69 67.70 7.00  63.99 1986.54
   15:58:25.398.18-Apr-2020 3140.11 3705.69 67.70 7.00  64.19 1986.54
   15:58:25.598.18-Apr-2020 3140.11 3424.64 67.70 7.00  64.39 1986.54
   15:58:25.798.18-Apr-2020 3140.11 3313.85 67.69 7.00  64.59 1986.54
   15:58:25.998.18-Apr-2020 3140.11 3213.78 67.69 7.00  64.79 1986.54
   15:58:26.197.18-Apr-2020 3140.11 3123.08 67.69 7.00  64.99 1986.54
   15:58:26.397.18-Apr-2020 3140.11 3123.08 67.69 7.00  65.19 1986.54
   15:58:26.597.18-Apr-2020 3140.11 2946.69 67.69 7.00  65.39 1986.54
   15:58:26.797.18-Apr-2020 3140.11 2849.05 67.69 7.00  65.59 1986.54
   15:58:26.997.18-Apr-2020 3140.11 2763.82 67.69 7.00  65.79 1986.54
   15:58:27.197.18-Apr-2020 3140.11 2687.30 67.69 7.00  65.99 1986.54
   15:58:27.397.18-Apr-2020 3140.11 2687.30 67.69 7.00  66.19 1986.54
   15:58:27.597.18-Apr-2020 3140.11 2554.85 67.69 7.00  66.39 1986.54
   15:58:27.797.18-Apr-2020 3140.11 2497.55 67.69 7.00  66.59 1986.54
   15:58:27.997.18-Apr-2020 3140.11 2446.16 67.68 7.00  66.79 1986.54
   15:58:28.197.18-Apr-2020 3140.11 2400.87 67.68 7.00  66.99 1986.54
   15:58:28.397.18-Apr-2020 3140.11 2409.02 67.68 7.00  67.19 1986.54
   15:58:28.597.18-Apr-2020 3140.11 2469.21 67.68 7.00  67.39 1986.54
   15:58:28.797.18-Apr-2020 3140.11 2559.19 67.68 7.00  67.59 1986.54
   15:58:28.997.18-Apr-2020 3140.11 2653.68 67.68 7.00  67.79 1986.54
   15:58:29.197.18-Apr-2020 3140.11 2735.16 67.68 7.00  67.99 1986.54
   15:58:29.397.18-Apr-2020 3140.11 2735.16 67.68 7.00  68.19 1986.54
   15:58:29.597.18-Apr-2020 3140.11 2854.10 67.67 7.00  68.39 1986.54
   15:58:29.797.18-Apr-2020 3140.11 2897.58 67.67 7.00  68.59 1986.54
   15:58:29.997.18-Apr-2020 3140.11 2934.44 67.67 7.00  68.79 1986.54
