~Version Information
 VERS.                  2.0:   CWLS log ASCII Standard -VERSION 2.0
 WRAP.                   NO:   One line per depth step
~Well Information Block
#MNEM.UNIT     VALUE/NAME     DESCRIPTION
#---------     -----------    ---------------------------
 STRT.S             15:35:19 18-Apr-20: START TIME 15:35:19 18-Apr-20
 STOP.S             15:42:14 18-Apr-20: STOP TIME  15:42:14 18-Apr-20
 STEP.S                   0.00: STEP TIME
 NULL.                 -999.25: NULL VALUE
 DFWT.                        :  DIST FWL TEXT
 DFST.                        :  DIST FSL TEXT
 DMF .                        :  DRILL MEAS FROM
 STIM.      16.29.52 23-Mar-20:  START TIME
 DATE.      16.29.52 23-Mar-20:  END TIME
 SPUD.               23-Mar-20:  SPUD DATE
 NREF.                    Grid:  NORTH REFERENCE
 HPTY.       Minimum Curvature:  HOLE POS TYPE
 DMOD.             Drill Model:  DRILL MOD DESC
 SVYD.                  Survey:  SURVEY DESC
 ILTD.               Lithology:  INTERP LTH DESC
 FTOP.          Formation Tops:  FORM TOPS DESC
 SON .        AZ-XX-0906252240:  JOB NUMBER
 RIG .             West Chirag:  RIG NAME
 PDAT.          Mean Sea Level:  PERMANENT DATUM
 FLD .                     ACG:  FIELD NAME
 CTRY.              Azerbaijan:  COUNTRY NAME
 WELL.           J23 (Slot 07):  WELL NAME
 SRVC.          Turan Drilling:  CONTRACTOR
 COMP.     BP Exploration (Casoian Sea) Ltd:  COMPANY
 WTYP.                Deviated:  WELL TYPE
 MDS .        Operator Entered:  MAG DATA SOURCE
 UWI .                     N/A:  UNIQUE WELL IDENTIFIER
 API .                     N/A:  API NUMBER
 BASE.              Azerbaijan:  LOGGING EQUIPMENT BASE LOCATION
 REGN.                   EESSA:  REGION
 PROV.                    Baku:  PROVINCE
 STAT.                    Baku:  STATE NAME
 MWDS.                     N/A:  MWD SHOP
 JOBN.        AZ-XX-0906252240:  JOB TICKET NUMB
 DOE .                     N/A:  DOE NUMBER
 DCON.         Sperry Drilling:  DIRECTNL CONTR
 UNIT.                     N/A:  LOGGING EQUIPMENT ID
 CNTY.                        :  COUNTY
 LOC .                        :  LOCATION
 LMF .             Drill Floor:  LOG MEASURED FROM
 TVDS.m                  43.00:  TVDSS CORRECTN
 LATI.deg                40.13:  LATITUDE
 LONG.deg                51.22:  LONGITUDE
 WHNS.m                   9.43:  WELL HEAD N/S
 WHEW.m                  -8.91:  WELL HEAD E/W
 UTMX.m              519005.06:  UTM X
 UTMY.m             4443793.85:  UTM Y
 DFWL.m                   0.00:  DISTANCE FWL
 DFSL.m                   0.00:  DISTANCE FSL
 SDEP.m                   0.00:  START DEPTH
 TDD .m                   0.00:  TOTAL DEPTH (DRILLER)
 VSDR.deg               179.88:  VERT SEC DIRECT
 GVFD.g                   1.00:  GRAVITY FIELD
 MFLD.nT              50281.00:  MAGNETIC FIELD
 MDIP.deg                59.58:  MAGNETIC DIP
 MDEC.deg                 6.48:  MAGNETIC DECL
 GRDC.deg                 0.14:  GRID CORRECTION
 AZTC.deg                 6.34:  AZM TOTAL CORR
 EPD .m                   0.00:  ELEVATION
 EGL .m                   0.00:  GROUND ELEVATION
 WDMS.m                 169.80:  WD ELEV
 APD .m                  43.00:  DEPTH ABOVE PD
 DEP .m                 354.17:  DEPTH
 AGAP.m                  43.00:  AIR GAP
 VSEW.m                  -8.91:  VERT SEC E/W
 VSNS.m                   9.43:  VERT SEC N/S
 EKB .m                   0.00:  KB ELEVATION
 EDF .m                  43.00:  DF ELEVATION
 TDL .m                1326.00:  TOTAL DEPTH (LOGGER)
 VSC .                       0:  VS TO CLOSURE
 MAGU.                 1850704:  MAGUTM CHECKSUM
~Parameter Information Block
#MNEM.UNIT       Value        Description
#---------     -----------    ---------------------------
 AV  .mps                 1.17:  Ann Velocity 
 AZIF.deg               184.04:  Azm, Final 
 BHAT.        Rotary Steerable:  BHA Type 
 BREV.rev            620000.00:  Rev Bit Total 
 BROT.°/30m               0.20:  Build Rotating 
 BS  .in                 14.75:  Bit Size 
 BSZ .in                 14.75:  Bit Size 
 BTPL.psig              618.00:  Bit Press Loss 
 CABU.                      No:  Customer Abuse 
 COMM.                     ü—`:  Run Comments 1 
 TCS .hr                 87.68:  Time Ciculation Ended 
 CV  .mps                 3.10:  Crit Velocity 
 DD1 .          Rashad Habibov:  Direct Drillr 1 
 DD2 .         Rasim Ibrahimov:  Direct Drillr 2 
 DDSV.               Geo-Pilot:  DD Service 
 DEFF.%                  98.00:  % Det Eff 
 DLRX.°/30m               1.48:  Dogleg Rot Max 
 DLSO.°/30m               0.50:  Dogleg Oriented 
 DLSX.°/30m               1.48:  Dogleg Str Max 
 DRET.      06.18.56 19-Apr-20:  Drill End Time 
 DRST.      15.00.56 15-Apr-20:  Drill Start Tim 
 DTIM.hr                 51.73:  Time Drilling 
 EDEP.m                3410.01:  End Depth 
 ENG1.        Marcelo Sandoval:  Engineer 1 
 ENG2.        Davud Huseynzade:  Engineer 2 
 ENG3.          Ruslan Safarov:  Engineer 3 
 ETIM.      04.00.56 20-Apr-20:  End Time 
 FLOI.gpm              1000.00:  Flow In 
 FLON.gpm               600.00:  Flow In Min 
 FLOS.cptm                0.00:  Fluid Loss 
 FLOX.gpm              1200.00:  Flow In Max 
 HFLO.                      No:  High Flow 
 HPRE.                     Yes:  High Pressure 
 HTEM.                      No:  High Temp 
 HYDO.m                   1.80:  Hydro Offset 
 IFIN.deg                70.04:  Inc, Final 
 IMAX.deg                70.56:  Inc Max 
 IMIN.deg                69.85:  Inc Min 
 IMND.m                3103.24:  Inc Min Depth 
 IMXD.m                2876.63:  Inc Max Depth 
 JARR.                      No:  Jarring 
 LETM.      06.18.56 19-Apr-20:  Log End Time 
 LOST.hr                     0:  Lost Rig Time 
 LSTM.      15.00.56 15-Apr-20:  Log Start Time 
 MDCL.ppm             42000.00:  Mud Chlorides 
 MDES.     Inversion Oil/Synthetic:  Mud Desc 
 DFD .sg                  1.58:  Mud Density 
 MDMN.sg                  1.58:  Dens Mud Min 
 MDMX.sg                  1.58:  Dens Mud Max 
 MOIL.                      71:  Run Mud Oil % 
 MOWR.                   71:29:  Run Mud OWR 
 MSND.                       0:  Run Mud Sand % 
 MSOL.                    23.3:  Run Mud Solids% 
 DFV .spqt               84.00:  Mud Viscosity 
 MWOD.in                  9.50:  MWD Tool OD 
 MWSI.                      No:  Serv Intrp, MWD 
 OTIM.hr                139.62:  Time Operating 
 PMAX.psia             5364.69:  Press Op, Max 
 PV  .cP                 80.00:  Mud PV 
 RUN .                     700:  Run Number 
 ROPA.m/hr               25.00:  ROP Avg 
 ROPN.m/hr               11.00:  ROP Min 
 ROPX.m/hr               36.00:  ROP Max 
 RPMA.rpm               130.00:  RPM Surface Avg 
 RPMN.rpm               120.00:  RPM Surface Min 
 RPMX.rpm               140.00:  RPM Surface Max 
 RRUN.                    0700:  Rig Run Number 
 SAZI.deg               183.25:  Azm, Start 
 SDEP.m                2084.00:  Start Depth 
 SIDD.                      No:  Serv Intrp, DD 
 SINC.deg                70.38:  Inc, Start 
 SPPA.psig             4800.00:  SPP Avg 
 SPPN.psig             4400.00:  SPP Min 
 SPPX.psig             5350.00:  SPP Max 
 STIM.      16.30.56 14-Apr-20:  Start Time 
 SVCS.                 DD, MWD:  Services 
 SVER.                    9.20:  Sperry Version 
 TDAT.m                1326.00:  Tot Depth Attmp 
 TDDF.                      No:  Trip for DD 
 TDLG.m                1326.00:  Tot Depth Loggd 
 TFF .                      No:  Trip for Fail 
 TQAA.f-kp               19.00:  Torque Abs Avg 
 TQAN.f-kp                8.00:  Torque Abs Min 
 TQAX.f-kp               27.00:  Torque Abs Max 
 TRRT.°/30m               0.50:  Turn Rotating 
 MRT .                    HCIM:  Maximum Recorded Temperature 
 TTMX.degC               82.35:  Max Tool Temp 
 VS01.       905245875X1Z1W1C8:  Virtual Str1 SN 
 VS02.       90608022F11V7D1A9:  Virtual Str2 SN 
 VS03.            90605473R5C9:  Virtual Str3 SN 
 WBMN.klb                11.00:  WOB Min 
 WOBA.klb                21.00:  WOB Avg 
 WOBX.klb                30.00:  WOB Max 
 YP  .lhf2               45.00:  Yield Point 
~Curve Information Block
#MNEM.UNIT                 API CODE     Curve Description
#---------               -----------    ---------------------------
 TIME.HHMMSS            00 000 000 000:  GT Time & Date
 GTDEPTH.m              00 000 000 000:  GT Depth
 GTPQH.psia             00 000 000 000:  GT HR Quartz Pressure
 GTTQ.degC              00 000 000 000:  GT Quartz Temperature
 GTTN.NONE              00 000 000 000:  GT Test Number
 GTET.sec               00 000 000 000:  GT Elapsed Test Time
 GTTVD.m                00 000 000 000:  GT True Vertical Depth
#Other Information
#
#WARRANTY: Halliburton will use its best efforts to furnish customers with 
#accurate information and interpretations that are part of, and incident to, the services 
#provided.  However, Halliburton cannot and does not warrant the accuracy 
#or correctness of such information and interpretations.  Under no circumstances should any 
#such information or interpretation be relied upon as the sole basis for any drilling, 
#completion, production, or financial decision or any procedure involving any risk to the 
#safety of any drilling venture, drilling rig or its crew or any other third party.  The 
#Customer has full responsibility for all drilling, completion and production operation.  
#Halliburton makes no representations or warranties, either expressed or 
#implied, including, but not limited to, the implied warranties of merchantability or fitness 
#for a particular purpose, with respect to the services rendered.  In no event will 
#Halliburton be liable for failure to obtain any particular results or for 
#any damages, including, but not limited to, indirect, special or consequential damages, 
#resulting from the use of any information or interpretation provided by Halliburton.
#
~A           TIME           GTDEPTH  GTPQH  GTTQ  GTTN  GTET   GTTVD  
# ...
   15:38:46.334.18-Apr-2020 3140.87 1521.64 71.12 6.00 206.98 1986.80
   15:38:46.534.18-Apr-2020 3140.87 1521.64 71.12 6.00 207.18 1986.80
   15:38:46.734.18-Apr-2020 3140.87 1521.73 71.12 6.00 207.38 1986.80
   15:38:46.934.18-Apr-2020 3140.87 1521.76 71.12 6.00 207.58 1986.80
   15:38:47.134.18-Apr-2020 3140.87 1521.80 71.12 6.00 207.78 1986.80
   15:38:47.334.18-Apr-2020 3140.87 1521.84 71.12 6.00 207.98 1986.80
   15:38:47.534.18-Apr-2020 3140.87 1521.87 71.12 6.00 208.18 1986.80
   15:38:47.734.18-Apr-2020 3140.87 1521.91 71.12 6.00 208.38 1986.80
   15:38:47.934.18-Apr-2020 3140.87 1521.94 71.12 6.00 208.58 1986.80
   15:38:48.134.18-Apr-2020 3140.87 1521.97 71.12 6.00 208.78 1986.80
   15:38:48.334.18-Apr-2020 3140.87 1522.01 71.12 6.00 208.98 1986.80
   15:38:48.534.18-Apr-2020 3140.87 1522.06 71.11 6.00 209.18 1986.80
   15:38:48.734.18-Apr-2020 3140.87 1522.09 71.11 6.00 209.38 1986.80
   15:38:48.934.18-Apr-2020 3140.87 1522.11 71.11 6.00 209.58 1986.80
   15:38:49.134.18-Apr-2020 3140.87 1522.18 71.11 6.00 209.78 1986.80
   15:38:49.334.18-Apr-2020 3140.87 1522.23 71.11 6.00 209.98 1986.80
   15:38:49.534.18-Apr-2020 3140.87 1522.23 71.11 6.00 210.18 1986.80
   15:38:49.734.18-Apr-2020 3140.87 1522.30 71.11 6.00 210.38 1986.80
   15:38:49.934.18-Apr-2020 3140.87 1522.34 71.11 6.00 210.58 1986.80
   15:38:50.134.18-Apr-2020 3140.87 1522.36 71.11 6.00 210.78 1986.80
   15:38:50.334.18-Apr-2020 3140.87 1522.42 71.11 6.00 210.98 1986.80
   15:38:50.534.18-Apr-2020 3140.87 1522.42 71.11 6.00 211.18 1986.80
   15:38:50.734.18-Apr-2020 3140.87 1522.50 71.11 6.00 211.38 1986.80
   15:38:50.934.18-Apr-2020 3140.87 1522.52 71.11 6.00 211.58 1986.80
   15:38:51.134.18-Apr-2020 3140.87 1522.55 71.10 6.00 211.78 1986.80
   15:38:51.334.18-Apr-2020 3140.87 1522.61 71.10 6.00 211.98 1986.80
   15:38:51.534.18-Apr-2020 3140.87 1522.64 71.10 6.00 212.18 1986.80
   15:38:51.734.18-Apr-2020 3140.87 1522.65 71.10 6.00 212.38 1986.80
   15:38:51.934.18-Apr-2020 3140.87 1522.71 71.10 6.00 212.58 1986.80
   15:38:52.134.18-Apr-2020 3140.87 1522.75 71.10 6.00 212.78 1986.80
   15:38:52.333.18-Apr-2020 3140.87 1522.78 71.10 6.00 212.98 1986.80
   15:38:52.533.18-Apr-2020 3140.87 1522.81 71.10 6.00 213.18 1986.80
   15:38:52.733.18-Apr-2020 3140.87 1522.85 71.10 6.00 213.38 1986.80
   15:38:52.933.18-Apr-2020 3140.87 1522.87 71.10 6.00 213.58 1986.80
   15:38:53.133.18-Apr-2020 3140.87 1522.91 71.10 6.00 213.78 1986.80
   15:38:53.333.18-Apr-2020 3140.87 1522.93 71.10 6.00 213.98 1986.80
   15:38:53.533.18-Apr-2020 3140.87 1522.93 71.10 6.00 214.18 1986.80
   15:38:53.733.18-Apr-2020 3140.87 1522.98 71.09 6.00 214.38 1986.80
   15:38:53.933.18-Apr-2020 3140.87 1523.00 71.09 6.00 214.58 1986.80
   15:38:54.133.18-Apr-2020 3140.87 1523.02 71.09 6.00 214.78 1986.80
   15:38:54.333.18-Apr-2020 3140.87 1523.05 71.09 6.00 214.98 1986.80
   15:38:54.533.18-Apr-2020 3140.87 1523.05 71.09 6.00 215.18 1986.80
   15:38:54.733.18-Apr-2020 3140.87 1523.08 71.09 6.00 215.38 1986.80
   15:38:54.933.18-Apr-2020 3140.87 1523.12 71.09 6.00 215.58 1986.80
   15:38:55.133.18-Apr-2020 3140.87 1523.14 71.09 6.00 215.78 1986.80
   15:38:55.333.18-Apr-2020 3140.87 1523.15 71.09 6.00 215.97 1986.80
   15:38:55.533.18-Apr-2020 3140.87 1523.15 71.09 6.00 216.17 1986.80
   15:38:55.733.18-Apr-2020 3140.87 1523.21 71.09 6.00 216.37 1986.80
   15:38:55.933.18-Apr-2020 3140.87 1523.22 71.09 6.00 216.57 1986.80
   15:38:56.133.18-Apr-2020 3140.87 1523.25 71.09 6.00 216.77 1986.80
   15:38:56.333.18-Apr-2020 3140.87 1523.26 71.08 6.00 216.97 1986.80
   15:38:56.533.18-Apr-2020 3140.87 1523.26 71.08 6.00 217.17 1986.80
   15:38:56.733.18-Apr-2020 3140.87 1523.30 71.08 6.00 217.37 1986.80
   15:38:56.933.18-Apr-2020 3140.87 1523.32 71.08 6.00 217.57 1986.80
   15:38:57.133.18-Apr-2020 3140.87 1523.34 71.08 6.00 217.77 1986.80
   15:38:57.333.18-Apr-2020 3140.87 1523.35 71.08 6.00 217.97 1986.80
   15:38:57.533.18-Apr-2020 3140.87 1523.35 71.08 6.00 218.17 1986.80
   15:38:57.733.18-Apr-2020 3140.87 1523.41 71.08 6.00 218.37 1986.80
   15:38:57.933.18-Apr-2020 3140.87 1523.41 71.08 6.00 218.57 1986.80
   15:38:58.133.18-Apr-2020 3140.87 1523.46 71.08 6.00 218.77 1986.80
   15:38:58.333.18-Apr-2020 3140.87 1523.48 71.08 6.00 218.97 1986.80
   15:38:58.533.18-Apr-2020 3140.87 1523.48 71.08 6.00 219.17 1986.80
   15:38:58.733.18-Apr-2020 3140.87 1523.53 71.08 6.00 219.37 1986.80
   15:38:58.933.18-Apr-2020 3140.87 1523.53 71.07 6.00 219.57 1986.80
   15:38:59.133.18-Apr-2020 3140.87 1523.57 71.07 6.00 219.77 1986.80
   15:38:59.333.18-Apr-2020 3140.87 1523.60 71.07 6.00 219.97 1986.80
   15:38:59.533.18-Apr-2020 3140.87 1523.61 71.07 6.00 220.17 1986.80
   15:38:59.733.18-Apr-2020 3140.87 1523.64 71.07 6.00 220.37 1986.80
   15:38:59.933.18-Apr-2020 3140.87 1523.65 71.07 6.00 220.57 1986.80
   15:39:00.133.18-Apr-2020 3140.87 1523.66 71.07 6.00 220.77 1986.80
   15:39:00.333.18-Apr-2020 3140.87 1523.70 71.07 6.00 220.97 1986.80
   15:39:00.533.18-Apr-2020 3140.87 1523.70 71.07 6.00 221.17 1986.80
   15:39:00.733.18-Apr-2020 3140.87 1523.73 71.07 6.00 221.37 1986.80
   15:39:00.932.18-Apr-2020 3140.87 1523.76 71.07 6.00 221.57 1986.80
   15:39:01.132.18-Apr-2020 3140.87 1523.78 71.07 6.00 221.77 1986.80
   15:39:01.332.18-Apr-2020 3140.87 1523.80 71.07 6.00 221.97 1986.80
   15:39:01.532.18-Apr-2020 3140.87 1523.80 71.07 6.00 222.17 1986.80
   15:39:01.732.18-Apr-2020 3140.87 1523.84 71.06 6.00 222.37 1986.80
   15:39:01.932.18-Apr-2020 3140.87 1523.86 71.06 6.00 222.57 1986.80
   15:39:02.132.18-Apr-2020 3140.87 1523.87 71.06 6.00 222.77 1986.80
   15:39:02.332.18-Apr-2020 3140.87 1523.89 71.06 6.00 222.97 1986.80
   15:39:02.532.18-Apr-2020 3140.87 1523.89 71.06 6.00 223.17 1986.80
   15:39:02.732.18-Apr-2020 3140.87 1523.93 71.06 6.00 223.37 1986.80
   15:39:02.932.18-Apr-2020 3140.87 1523.95 71.06 6.00 223.57 1986.80
   15:39:03.132.18-Apr-2020 3140.87 1523.97 71.06 6.00 223.77 1986.80
   15:39:03.332.18-Apr-2020 3140.87 1523.99 71.06 6.00 223.97 1986.80
   15:39:03.532.18-Apr-2020 3140.87 1523.99 71.06 6.00 224.17 1986.80
   15:39:03.732.18-Apr-2020 3140.87 1524.04 71.06 6.00 224.37 1986.80
   15:39:03.932.18-Apr-2020 3140.87 1524.06 71.05 6.00 224.57 1986.80
   15:39:04.132.18-Apr-2020 3140.87 1524.11 71.05 6.00 224.77 1986.80
   15:39:04.332.18-Apr-2020 3140.87 1524.22 71.05 6.00 224.97 1986.80
   15:39:04.532.18-Apr-2020 3140.87 1524.25 71.05 6.00 225.17 1986.80
   15:39:04.732.18-Apr-2020 3140.87 1524.28 71.05 6.00 225.37 1986.80
   15:39:04.932.18-Apr-2020 3140.87 1524.30 71.05 6.00 225.57 1986.80
   15:39:05.132.18-Apr-2020 3140.87 1524.32 71.05 6.00 225.77 1986.80
   15:39:05.332.18-Apr-2020 3140.87 1524.33 71.05 6.00 225.97 1986.80
   15:39:05.532.18-Apr-2020 3140.87 1524.33 71.05 6.00 226.17 1986.80
   15:39:05.732.18-Apr-2020 3140.87 1524.38 71.05 6.00 226.37 1986.80
   15:39:05.932.18-Apr-2020 3140.87 1524.38 71.05 6.00 226.57 1986.80
   15:39:06.132.18-Apr-2020 3140.87 1524.40 71.05 6.00 226.77 1986.80
   15:39:06.332.18-Apr-2020 3140.87 1524.42 71.05 6.00 226.97 1986.80
   15:39:06.532.18-Apr-2020 3140.87 1524.42 71.05 6.00 227.17 1986.80
   15:39:06.732.18-Apr-2020 3140.87 1524.46 71.04 6.00 227.37 1986.80
   15:39:06.932.18-Apr-2020 3140.87 1524.47 71.04 6.00 227.57 1986.80
   15:39:07.132.18-Apr-2020 3140.87 1524.52 71.04 6.00 227.77 1986.80
   15:39:07.332.18-Apr-2020 3140.87 1524.52 71.04 6.00 227.97 1986.80
   15:39:07.532.18-Apr-2020 3140.87 1524.54 71.04 6.00 228.17 1986.80
   15:39:07.732.18-Apr-2020 3140.87 1524.56 71.04 6.00 228.37 1986.80
   15:39:07.932.18-Apr-2020 3140.87 1524.56 71.04 6.00 228.57 1986.80
   15:39:08.132.18-Apr-2020 3140.87 1524.61 71.04 6.00 228.77 1986.80
   15:39:08.332.18-Apr-2020 3140.87 1524.62 71.04 6.00 228.97 1986.80
   15:39:08.532.18-Apr-2020 3140.87 1524.64 71.04 6.00 229.17 1986.80
   15:39:08.732.18-Apr-2020 3140.87 1524.65 71.04 6.00 229.37 1986.80
   15:39:08.932.18-Apr-2020 3140.87 1524.68 71.04 6.00 229.57 1986.80
   15:39:09.132.18-Apr-2020 3140.87 1524.68 71.03 6.00 229.77 1986.80
