~Version Information
 VERS.                  2.0:   CWLS log ASCII Standard -VERSION 2.0
 WRAP.                   NO:   One line per depth step
~Well Information Block
#MNEM.UNIT     VALUE/NAME     DESCRIPTION
#---------     -----------    ---------------------------
 STRT.S             15:35:19 18-Apr-20: START TIME 15:35:19 18-Apr-20
 STOP.S             15:42:14 18-Apr-20: STOP TIME  15:42:14 18-Apr-20
 STEP.S                   0.00: STEP TIME
 NULL.                 -999.25: NULL VALUE
 DFWT.                        :  DIST FWL TEXT
 DFST.                        :  DIST FSL TEXT
 DMF .                        :  DRILL MEAS FROM
 STIM.      16.29.52 23-Mar-20:  START TIME
 DATE.      16.29.52 23-Mar-20:  END TIME
 SPUD.               23-Mar-20:  SPUD DATE
 NREF.                    Grid:  NORTH REFERENCE
 HPTY.       Minimum Curvature:  HOLE POS TYPE
 DMOD.             Drill Model:  DRILL MOD DESC
 SVYD.                  Survey:  SURVEY DESC
 ILTD.               Lithology:  INTERP LTH DESC
 FTOP.          Formation Tops:  FORM TOPS DESC
 SON .        AZ-XX-0906252240:  JOB NUMBER
 RIG .             West Chirag:  RIG NAME
 PDAT.          Mean Sea Level:  PERMANENT DATUM
 FLD .                     ACG:  FIELD NAME
 CTRY.              Azerbaijan:  COUNTRY NAME
 WELL.           J23 (Slot 07):  WELL NAME
 SRVC.          Turan Drilling:  CONTRACTOR
 COMP.     BP Exploration (Casoian Sea) Ltd:  COMPANY
 WTYP.                Deviated:  WELL TYPE
 MDS .        Operator Entered:  MAG DATA SOURCE
 UWI .                     N/A:  UNIQUE WELL IDENTIFIER
 API .                     N/A:  API NUMBER
 BASE.              Azerbaijan:  LOGGING EQUIPMENT BASE LOCATION
 REGN.                   EESSA:  REGION
 PROV.                    Baku:  PROVINCE
 STAT.                    Baku:  STATE NAME
 MWDS.                     N/A:  MWD SHOP
 JOBN.        AZ-XX-0906252240:  JOB TICKET NUMB
 DOE .                     N/A:  DOE NUMBER
 DCON.         Sperry Drilling:  DIRECTNL CONTR
 UNIT.                     N/A:  LOGGING EQUIPMENT ID
 CNTY.                        :  COUNTY
 LOC .                        :  LOCATION
 LMF .             Drill Floor:  LOG MEASURED FROM
 TVDS.m                  43.00:  TVDSS CORRECTN
 LATI.deg                40.13:  LATITUDE
 LONG.deg                51.22:  LONGITUDE
 WHNS.m                   9.43:  WELL HEAD N/S
 WHEW.m                  -8.91:  WELL HEAD E/W
 UTMX.m              519005.06:  UTM X
 UTMY.m             4443793.85:  UTM Y
 DFWL.m                   0.00:  DISTANCE FWL
 DFSL.m                   0.00:  DISTANCE FSL
 SDEP.m                   0.00:  START DEPTH
 TDD .m                   0.00:  TOTAL DEPTH (DRILLER)
 VSDR.deg               179.88:  VERT SEC DIRECT
 GVFD.g                   1.00:  GRAVITY FIELD
 MFLD.nT              50281.00:  MAGNETIC FIELD
 MDIP.deg                59.58:  MAGNETIC DIP
 MDEC.deg                 6.48:  MAGNETIC DECL
 GRDC.deg                 0.14:  GRID CORRECTION
 AZTC.deg                 6.34:  AZM TOTAL CORR
 EPD .m                   0.00:  ELEVATION
 EGL .m                   0.00:  GROUND ELEVATION
 WDMS.m                 169.80:  WD ELEV
 APD .m                  43.00:  DEPTH ABOVE PD
 DEP .m                 354.17:  DEPTH
 AGAP.m                  43.00:  AIR GAP
 VSEW.m                  -8.91:  VERT SEC E/W
 VSNS.m                   9.43:  VERT SEC N/S
 EKB .m                   0.00:  KB ELEVATION
 EDF .m                  43.00:  DF ELEVATION
 TDL .m                1326.00:  TOTAL DEPTH (LOGGER)
 VSC .                       0:  VS TO CLOSURE
 MAGU.                 1850704:  MAGUTM CHECKSUM
~Parameter Information Block
#MNEM.UNIT       Value        Description
#---------     -----------    ---------------------------
 AV  .mps                 1.17:  Ann Velocity 
 AZIF.deg               184.04:  Azm, Final 
 BHAT.        Rotary Steerable:  BHA Type 
 BREV.rev            620000.00:  Rev Bit Total 
 BROT.°/30m               0.20:  Build Rotating 
 BS  .in                 14.75:  Bit Size 
 BSZ .in                 14.75:  Bit Size 
 BTPL.psig              618.00:  Bit Press Loss 
 CABU.                      No:  Customer Abuse 
 COMM.                     ü—`:  Run Comments 1 
 TCS .hr                 87.68:  Time Ciculation Ended 
 CV  .mps                 3.10:  Crit Velocity 
 DD1 .          Rashad Habibov:  Direct Drillr 1 
 DD2 .         Rasim Ibrahimov:  Direct Drillr 2 
 DDSV.               Geo-Pilot:  DD Service 
 DEFF.%                  98.00:  % Det Eff 
 DLRX.°/30m               1.48:  Dogleg Rot Max 
 DLSO.°/30m               0.50:  Dogleg Oriented 
 DLSX.°/30m               1.48:  Dogleg Str Max 
 DRET.      06.18.56 19-Apr-20:  Drill End Time 
 DRST.      15.00.56 15-Apr-20:  Drill Start Tim 
 DTIM.hr                 51.73:  Time Drilling 
 EDEP.m                3410.01:  End Depth 
 ENG1.        Marcelo Sandoval:  Engineer 1 
 ENG2.        Davud Huseynzade:  Engineer 2 
 ENG3.          Ruslan Safarov:  Engineer 3 
 ETIM.      04.00.56 20-Apr-20:  End Time 
 FLOI.gpm              1000.00:  Flow In 
 FLON.gpm               600.00:  Flow In Min 
 FLOS.cptm                0.00:  Fluid Loss 
 FLOX.gpm              1200.00:  Flow In Max 
 HFLO.                      No:  High Flow 
 HPRE.                     Yes:  High Pressure 
 HTEM.                      No:  High Temp 
 HYDO.m                   1.80:  Hydro Offset 
 IFIN.deg                70.04:  Inc, Final 
 IMAX.deg                70.56:  Inc Max 
 IMIN.deg                69.85:  Inc Min 
 IMND.m                3103.24:  Inc Min Depth 
 IMXD.m                2876.63:  Inc Max Depth 
 JARR.                      No:  Jarring 
 LETM.      06.18.56 19-Apr-20:  Log End Time 
 LOST.hr                     0:  Lost Rig Time 
 LSTM.      15.00.56 15-Apr-20:  Log Start Time 
 MDCL.ppm             42000.00:  Mud Chlorides 
 MDES.     Inversion Oil/Synthetic:  Mud Desc 
 DFD .sg                  1.58:  Mud Density 
 MDMN.sg                  1.58:  Dens Mud Min 
 MDMX.sg                  1.58:  Dens Mud Max 
 MOIL.                      71:  Run Mud Oil % 
 MOWR.                   71:29:  Run Mud OWR 
 MSND.                       0:  Run Mud Sand % 
 MSOL.                    23.3:  Run Mud Solids% 
 DFV .spqt               84.00:  Mud Viscosity 
 MWOD.in                  9.50:  MWD Tool OD 
 MWSI.                      No:  Serv Intrp, MWD 
 OTIM.hr                139.62:  Time Operating 
 PMAX.psia             5364.69:  Press Op, Max 
 PV  .cP                 80.00:  Mud PV 
 RUN .                     700:  Run Number 
 ROPA.m/hr               25.00:  ROP Avg 
 ROPN.m/hr               11.00:  ROP Min 
 ROPX.m/hr               36.00:  ROP Max 
 RPMA.rpm               130.00:  RPM Surface Avg 
 RPMN.rpm               120.00:  RPM Surface Min 
 RPMX.rpm               140.00:  RPM Surface Max 
 RRUN.                    0700:  Rig Run Number 
 SAZI.deg               183.25:  Azm, Start 
 SDEP.m                2084.00:  Start Depth 
 SIDD.                      No:  Serv Intrp, DD 
 SINC.deg                70.38:  Inc, Start 
 SPPA.psig             4800.00:  SPP Avg 
 SPPN.psig             4400.00:  SPP Min 
 SPPX.psig             5350.00:  SPP Max 
 STIM.      16.30.56 14-Apr-20:  Start Time 
 SVCS.                 DD, MWD:  Services 
 SVER.                    9.20:  Sperry Version 
 TDAT.m                1326.00:  Tot Depth Attmp 
 TDDF.                      No:  Trip for DD 
 TDLG.m                1326.00:  Tot Depth Loggd 
 TFF .                      No:  Trip for Fail 
 TQAA.f-kp               19.00:  Torque Abs Avg 
 TQAN.f-kp                8.00:  Torque Abs Min 
 TQAX.f-kp               27.00:  Torque Abs Max 
 TRRT.°/30m               0.50:  Turn Rotating 
 MRT .                    HCIM:  Maximum Recorded Temperature 
 TTMX.degC               82.35:  Max Tool Temp 
 VS01.       905245875X1Z1W1C8:  Virtual Str1 SN 
 VS02.       90608022F11V7D1A9:  Virtual Str2 SN 
 VS03.            90605473R5C9:  Virtual Str3 SN 
 WBMN.klb                11.00:  WOB Min 
 WOBA.klb                21.00:  WOB Avg 
 WOBX.klb                30.00:  WOB Max 
 YP  .lhf2               45.00:  Yield Point 
~Curve Information Block
#MNEM.UNIT                 API CODE     Curve Description
#---------               -----------    ---------------------------
 TIME.HHMMSS            00 000 000 000:  GT Time & Date
 GTDEPTH.m              00 000 000 000:  GT Depth
 GTPQH.psia             00 000 000 000:  GT HR Quartz Pressure
 GTTQ.degC              00 000 000 000:  GT Quartz Temperature
 GTTN.NONE              00 000 000 000:  GT Test Number
 GTET.sec               00 000 000 000:  GT Elapsed Test Time
 GTTVD.m                00 000 000 000:  GT True Vertical Depth
#Other Information
#
#WARRANTY: Halliburton will use its best efforts to furnish customers with 
#accurate information and interpretations that are part of, and incident to, the services 
#provided.  However, Halliburton cannot and does not warrant the accuracy 
#or correctness of such information and interpretations.  Under no circumstances should any 
#such information or interpretation be relied upon as the sole basis for any drilling, 
#completion, production, or financial decision or any procedure involving any risk to the 
#safety of any drilling venture, drilling rig or its crew or any other third party.  The 
#Customer has full responsibility for all drilling, completion and production operation.  
#Halliburton makes no representations or warranties, either expressed or 
#implied, including, but not limited to, the implied warranties of merchantability or fitness 
#for a particular purpose, with respect to the services rendered.  In no event will 
#Halliburton be liable for failure to obtain any particular results or for 
#any damages, including, but not limited to, indirect, special or consequential damages, 
#resulting from the use of any information or interpretation provided by Halliburton.
#
~A           TIME           GTDEPTH  GTPQH  GTTQ  GTTN  GTET   GTTVD  
# ...
   15:41:50.313.18-Apr-2020 3140.87 3912.78 70.41 6.00 390.95 1986.80
   15:41:50.513.18-Apr-2020 3140.87 3905.53 70.41 6.00 391.15 1986.80
   15:41:50.713.18-Apr-2020 3140.87 3906.35 70.41 6.00 391.35 1986.80
   15:41:50.913.18-Apr-2020 3140.87 3960.65 70.41 6.00 391.55 1986.80
   15:41:51.113.18-Apr-2020 3140.87 4033.65 70.41 6.00 391.75 1986.80
   15:41:51.313.18-Apr-2020 3140.87 4111.61 70.41 6.00 391.95 1986.80
   15:41:51.513.18-Apr-2020 3140.87 4180.60 70.41 6.00 392.15 1986.80
   15:41:51.713.18-Apr-2020 3140.87 4200.43 70.41 6.00 392.35 1986.80
   15:41:51.913.18-Apr-2020 3140.87 4211.87 70.41 6.00 392.55 1986.80
   15:41:52.113.18-Apr-2020 3140.87 4224.41 70.41 6.00 392.75 1986.80
   15:41:52.313.18-Apr-2020 3140.87 4237.88 70.41 6.00 392.95 1986.80
   15:41:52.513.18-Apr-2020 3140.87 4237.88 70.41 6.00 393.15 1986.80
   15:41:52.713.18-Apr-2020 3140.87 4267.30 70.41 6.00 393.35 1986.80
   15:41:52.913.18-Apr-2020 3140.87 4283.08 70.41 6.00 393.55 1986.80
   15:41:53.113.18-Apr-2020 3140.87 4299.14 70.41 6.00 393.75 1986.80
   15:41:53.313.18-Apr-2020 3140.87 4317.46 70.41 6.00 393.95 1986.80
   15:41:53.512.18-Apr-2020 3140.87 4317.46 70.41 6.00 394.15 1986.80
   15:41:53.712.18-Apr-2020 3140.87 4354.05 70.41 6.00 394.35 1986.80
   15:41:53.912.18-Apr-2020 3140.87 4372.56 70.41 6.00 394.55 1986.80
   15:41:54.112.18-Apr-2020 3140.87 4391.63 70.41 6.00 394.75 1986.80
   15:41:54.312.18-Apr-2020 3140.87 4411.16 70.41 6.00 394.95 1986.80
   15:41:54.512.18-Apr-2020 3140.87 4411.16 70.41 6.00 395.15 1986.80
   15:41:54.712.18-Apr-2020 3140.87 4452.41 70.41 6.00 395.35 1986.80
   15:41:54.912.18-Apr-2020 3140.87 4473.44 70.41 6.00 395.55 1986.80
   15:41:55.112.18-Apr-2020 3140.87 4495.11 70.41 6.00 395.75 1986.80
   15:41:55.312.18-Apr-2020 3140.87 4517.15 70.41 6.00 395.95 1986.80
   15:41:55.512.18-Apr-2020 3140.87 4517.15 70.41 6.00 396.15 1986.80
   15:41:55.712.18-Apr-2020 3140.87 4564.52 70.41 6.00 396.35 1986.80
   15:41:55.912.18-Apr-2020 3140.87 4570.54 70.41 6.00 396.55 1986.80
   15:41:56.112.18-Apr-2020 3140.87 4568.44 70.41 6.00 396.75 1986.80
   15:41:56.312.18-Apr-2020 3140.87 4570.98 70.41 6.00 396.95 1986.80
   15:41:56.512.18-Apr-2020 3140.87 4570.98 70.41 6.00 397.15 1986.80
   15:41:56.712.18-Apr-2020 3140.87 4569.08 70.41 6.00 397.35 1986.80
   15:41:56.912.18-Apr-2020 3140.87 4570.36 70.41 6.00 397.55 1986.80
   15:41:57.112.18-Apr-2020 3140.87 4570.30 70.41 6.00 397.75 1986.80
   15:41:57.312.18-Apr-2020 3140.87 4569.87 70.41 6.00 397.95 1986.80
   15:41:57.512.18-Apr-2020 3140.87 4569.87 70.41 6.00 398.15 1986.80
   15:41:57.712.18-Apr-2020 3140.87 4568.36 70.41 6.00 398.35 1986.80
   15:41:57.912.18-Apr-2020 3140.87 4570.42 70.41 6.00 398.55 1986.80
   15:41:58.112.18-Apr-2020 3140.87 4568.91 70.41 6.00 398.75 1986.80
   15:41:58.312.18-Apr-2020 3140.87 4566.06 70.41 6.00 398.95 1986.80
   15:41:58.512.18-Apr-2020 3140.87 4560.92 70.41 6.00 399.15 1986.80
   15:41:58.712.18-Apr-2020 3140.87 4556.49 70.41 6.00 399.35 1986.80
   15:41:58.912.18-Apr-2020 3140.87 4552.82 70.41 6.00 399.55 1986.80
   15:41:59.112.18-Apr-2020 3140.87 4545.99 70.41 6.00 399.75 1986.80
   15:41:59.312.18-Apr-2020 3140.87 4538.49 70.41 6.00 399.95 1986.80
   15:41:59.512.18-Apr-2020 3140.87 4538.49 70.41 6.00 400.15 1986.80
   15:41:59.712.18-Apr-2020 3140.87 4525.12 70.41 6.00 400.35 1986.80
   15:41:59.912.18-Apr-2020 3140.87 4519.21 70.41 6.00 400.55 1986.80
   15:42:00.112.18-Apr-2020 3140.87 4515.80 70.41 6.00 400.75 1986.80
   15:42:00.312.18-Apr-2020 3140.87 4512.72 70.41 6.00 400.95 1986.80
   15:42:00.512.18-Apr-2020 3140.87 4512.72 70.41 6.00 401.15 1986.80
   15:42:00.712.18-Apr-2020 3140.87 4500.88 70.41 6.00 401.35 1986.80
   15:42:00.912.18-Apr-2020 3140.87 4503.88 70.41 6.00 401.55 1986.80
   15:42:01.112.18-Apr-2020 3140.87 4511.30 70.41 6.00 401.75 1986.80
   15:42:01.312.18-Apr-2020 3140.87 4592.58 70.40 6.00 401.95 1986.80
   15:42:01.512.18-Apr-2020 3140.87 4592.58 70.40 6.00 402.15 1986.80
   15:42:01.712.18-Apr-2020 3140.87 4796.78 70.40 6.00 402.35 1986.80
   15:42:01.912.18-Apr-2020 3140.87 4714.90 70.40 6.00 402.55 1986.80
   15:42:02.112.18-Apr-2020 3140.87 4700.40 70.40 6.00 402.75 1986.80
   15:42:02.311.18-Apr-2020 3140.87 4744.01 70.40 6.00 402.95 1986.80
   15:42:02.511.18-Apr-2020 3140.87 4814.69 70.40 6.00 403.15 1986.80
   15:42:02.711.18-Apr-2020 3140.87 4824.89 70.40 6.00 403.35 1986.80
   15:42:02.911.18-Apr-2020 3140.87 4676.23 70.40 6.00 403.55 1986.80
   15:42:03.111.18-Apr-2020 3140.87 4672.47 70.40 6.00 403.75 1986.80
   15:42:03.311.18-Apr-2020 3140.87 4655.35 70.40 6.00 403.95 1986.80
   15:42:03.511.18-Apr-2020 3140.87 4799.77 70.40 6.00 404.15 1986.80
   15:42:03.711.18-Apr-2020 3140.87 4858.02 70.40 6.00 404.35 1986.80
   15:42:03.911.18-Apr-2020 3140.87 4724.23 70.40 6.00 404.55 1986.80
   15:42:04.111.18-Apr-2020 3140.87 4714.88 70.40 6.00 404.75 1986.80
   15:42:04.311.18-Apr-2020 3140.87 4638.18 70.40 6.00 404.95 1986.80
   15:42:04.511.18-Apr-2020 3140.87 4638.18 70.40 6.00 405.15 1986.80
   15:42:04.711.18-Apr-2020 3140.87 4712.65 70.39 6.00 405.35 1986.80
   15:42:04.911.18-Apr-2020 3140.87 4586.90 70.39 6.00 405.55 1986.80
   15:42:05.111.18-Apr-2020 3140.87 4779.55 70.39 6.00 405.75 1986.80
   15:42:05.311.18-Apr-2020 3140.87 4786.56 70.39 6.00 405.95 1986.80
   15:42:05.511.18-Apr-2020 3140.87 4786.56 70.39 6.00 406.15 1986.80
   15:42:05.711.18-Apr-2020 3140.87 4574.94 70.39 6.00 406.35 1986.80
   15:42:05.911.18-Apr-2020 3140.87 4574.42 70.39 6.00 406.55 1986.80
   15:42:06.111.18-Apr-2020 3140.87 4579.39 70.39 6.00 406.75 1986.80
   15:42:06.311.18-Apr-2020 3140.87 4598.51 70.39 6.00 406.95 1986.80
   15:42:06.511.18-Apr-2020 3140.87 4668.56 70.39 6.00 407.15 1986.80
   15:42:06.711.18-Apr-2020 3140.87 4797.25 70.39 6.00 407.35 1986.80
   15:42:06.911.18-Apr-2020 3140.87 4594.20 70.39 6.00 407.55 1986.80
   15:42:07.111.18-Apr-2020 3140.87 4600.46 70.38 6.00 407.75 1986.80
   15:42:07.311.18-Apr-2020 3140.87 4576.27 70.38 6.00 407.95 1986.80
   15:42:07.511.18-Apr-2020 3140.87 4590.98 70.38 6.00 408.15 1986.80
   15:42:07.711.18-Apr-2020 3140.87 4702.71 70.38 6.00 408.35 1986.80
   15:42:07.911.18-Apr-2020 3140.87 4643.90 70.38 6.00 408.55 1986.80
   15:42:08.111.18-Apr-2020 3140.87 4844.43 70.38 6.00 408.75 1986.80
   15:42:08.311.18-Apr-2020 3140.87 4667.12 70.38 6.00 408.95 1986.80
   15:42:08.511.18-Apr-2020 3140.87 4667.12 70.38 6.00 409.15 1986.80
   15:42:08.711.18-Apr-2020 3140.87 4572.56 70.38 6.00 409.35 1986.80
   15:42:08.911.18-Apr-2020 3140.87 4599.01 70.38 6.00 409.55 1986.80
   15:42:09.111.18-Apr-2020 3140.87 4594.75 70.38 6.00 409.75 1986.80
   15:42:09.311.18-Apr-2020 3140.87 4580.19 70.38 6.00 409.95 1986.80
   15:42:09.511.18-Apr-2020 3140.87 4580.19 70.38 6.00 410.15 1986.80
   15:42:09.711.18-Apr-2020 3140.87 4617.41 70.37 6.00 410.35 1986.80
   15:42:09.911.18-Apr-2020 3140.87 4577.34 70.37 6.00 410.55 1986.80
   15:42:10.111.18-Apr-2020 3140.87 4581.87 70.37 6.00 410.75 1986.80
   15:42:10.311.18-Apr-2020 3140.87 4630.09 70.37 6.00 410.95 1986.80
   15:42:10.511.18-Apr-2020 3140.87 4612.41 70.37 6.00 411.15 1986.80
   15:42:10.711.18-Apr-2020 3140.87 4587.22 70.37 6.00 411.35 1986.80
   15:42:10.910.18-Apr-2020 3140.87 4570.75 70.37 6.00 411.55 1986.80
   15:42:11.110.18-Apr-2020 3140.87 4570.19 70.37 6.00 411.75 1986.80
   15:42:11.310.18-Apr-2020 3140.87 4567.30 70.37 6.00 411.95 1986.80
   15:42:11.510.18-Apr-2020 3140.87 4570.28 70.36 6.00 412.15 1986.80
   15:42:11.710.18-Apr-2020 3140.87 4570.01 70.36 6.00 412.35 1986.80
   15:42:11.910.18-Apr-2020 3140.87 4569.57 70.36 6.00 412.55 1986.80
   15:42:12.110.18-Apr-2020 3140.87 4570.08 70.36 6.00 412.75 1986.80
   15:42:12.310.18-Apr-2020 3140.87 4570.78 70.36 6.00 412.95 1986.80
   15:42:12.510.18-Apr-2020 3140.87 4570.78 70.36 6.00 413.15 1986.80
   15:42:12.710.18-Apr-2020 3140.87 4571.02 70.36 6.00 413.35 1986.80
   15:42:12.910.18-Apr-2020 3140.87 4570.65 70.36 6.00 413.55 1986.80
   15:42:13.110.18-Apr-2020 3140.87 4571.38 70.36 6.00 413.75 1986.80
