~Version Information
 VERS.                  2.0:   CWLS log ASCII Standard -VERSION 2.0
 WRAP.                   NO:   One line per depth step
~Well Information Block
#MNEM.UNIT     VALUE/NAME     DESCRIPTION
#---------     -----------    ---------------------------
 STRT.S             00:39:23 18-Apr-20: START TIME 00:39:23 18-Apr-20
 STOP.S             00:46:19 18-Apr-20: STOP TIME  00:46:19 18-Apr-20
 STEP.S                   0.00: STEP TIME
 NULL.                 -999.25: NULL VALUE
 DFWT.                        :  DIST FWL TEXT
 DFST.                        :  DIST FSL TEXT
 DMF .                        :  DRILL MEAS FROM
 STIM.      16.29.52 23-Mar-20:  START TIME
 DATE.      16.29.52 23-Mar-20:  END TIME
 SPUD.               23-Mar-20:  SPUD DATE
 NREF.                    Grid:  NORTH REFERENCE
 HPTY.       Minimum Curvature:  HOLE POS TYPE
 DMOD.             Drill Model:  DRILL MOD DESC
 SVYD.                  Survey:  SURVEY DESC
 ILTD.               Lithology:  INTERP LTH DESC
 FTOP.          Formation Tops:  FORM TOPS DESC
 SON .        AZ-XX-0906252240:  JOB NUMBER
 RIG .             West Chirag:  RIG NAME
 PDAT.          Mean Sea Level:  PERMANENT DATUM
 FLD .                     ACG:  FIELD NAME
 CTRY.              Azerbaijan:  COUNTRY NAME
 WELL.           J23 (Slot 07):  WELL NAME
 SRVC.          Turan Drilling:  CONTRACTOR
 COMP.     BP Exploration (Casoian Sea) Ltd:  COMPANY
 WTYP.                Deviated:  WELL TYPE
 MDS .        Operator Entered:  MAG DATA SOURCE
 UWI .                     N/A:  UNIQUE WELL IDENTIFIER
 API .                     N/A:  API NUMBER
 BASE.              Azerbaijan:  LOGGING EQUIPMENT BASE LOCATION
 REGN.                   EESSA:  REGION
 PROV.                    Baku:  PROVINCE
 STAT.                    Baku:  STATE NAME
 MWDS.                     N/A:  MWD SHOP
 JOBN.        AZ-XX-0906252240:  JOB TICKET NUMB
 DOE .                     N/A:  DOE NUMBER
 DCON.         Sperry Drilling:  DIRECTNL CONTR
 UNIT.                     N/A:  LOGGING EQUIPMENT ID
 CNTY.                        :  COUNTY
 LOC .                        :  LOCATION
 LMF .             Drill Floor:  LOG MEASURED FROM
 TVDS.m                  43.00:  TVDSS CORRECTN
 LATI.deg                40.13:  LATITUDE
 LONG.deg                51.22:  LONGITUDE
 WHNS.m                   9.43:  WELL HEAD N/S
 WHEW.m                  -8.91:  WELL HEAD E/W
 UTMX.m              519005.06:  UTM X
 UTMY.m             4443793.85:  UTM Y
 DFWL.m                   0.00:  DISTANCE FWL
 DFSL.m                   0.00:  DISTANCE FSL
 SDEP.m                   0.00:  START DEPTH
 TDD .m                   0.00:  TOTAL DEPTH (DRILLER)
 VSDR.deg               179.88:  VERT SEC DIRECT
 GVFD.g                   1.00:  GRAVITY FIELD
 MFLD.nT              50281.00:  MAGNETIC FIELD
 MDIP.deg                59.58:  MAGNETIC DIP
 MDEC.deg                 6.48:  MAGNETIC DECL
 GRDC.deg                 0.14:  GRID CORRECTION
 AZTC.deg                 6.34:  AZM TOTAL CORR
 EPD .m                   0.00:  ELEVATION
 EGL .m                   0.00:  GROUND ELEVATION
 WDMS.m                 169.80:  WD ELEV
 APD .m                  43.00:  DEPTH ABOVE PD
 DEP .m                 354.17:  DEPTH
 AGAP.m                  43.00:  AIR GAP
 VSEW.m                  -8.91:  VERT SEC E/W
 VSNS.m                   9.43:  VERT SEC N/S
 EKB .m                   0.00:  KB ELEVATION
 EDF .m                  43.00:  DF ELEVATION
 TDL .m                1326.00:  TOTAL DEPTH (LOGGER)
 VSC .                       0:  VS TO CLOSURE
 MAGU.                 1850704:  MAGUTM CHECKSUM
~Parameter Information Block
#MNEM.UNIT       Value        Description
#---------     -----------    ---------------------------
 AV  .mps                 1.17:  Ann Velocity 
 AZIF.deg               184.04:  Azm, Final 
 BHAT.        Rotary Steerable:  BHA Type 
 BREV.rev            620000.00:  Rev Bit Total 
 BROT.°/30m               0.20:  Build Rotating 
 BS  .in                 14.75:  Bit Size 
 BSZ .in                 14.75:  Bit Size 
 BTPL.psig              618.00:  Bit Press Loss 
 CABU.                      No:  Customer Abuse 
 COMM.                     TŠT:  Run Comments 1 
 TCS .hr                 87.68:  Time Ciculation Ended 
 CV  .mps                 3.10:  Crit Velocity 
 DD1 .          Rashad Habibov:  Direct Drillr 1 
 DD2 .         Rasim Ibrahimov:  Direct Drillr 2 
 DDSV.               Geo-Pilot:  DD Service 
 DEFF.%                  98.00:  % Det Eff 
 DLRX.°/30m               1.48:  Dogleg Rot Max 
 DLSO.°/30m               0.50:  Dogleg Oriented 
 DLSX.°/30m               1.48:  Dogleg Str Max 
 DRET.      06.18.56 19-Apr-20:  Drill End Time 
 DRST.      15.00.56 15-Apr-20:  Drill Start Tim 
 DTIM.hr                 51.73:  Time Drilling 
 EDEP.m                3410.01:  End Depth 
 ENG1.        Marcelo Sandoval:  Engineer 1 
 ENG2.        Davud Huseynzade:  Engineer 2 
 ENG3.          Ruslan Safarov:  Engineer 3 
 ETIM.      04.00.56 20-Apr-20:  End Time 
 FLOI.gpm              1000.00:  Flow In 
 FLON.gpm               600.00:  Flow In Min 
 FLOS.cptm                0.00:  Fluid Loss 
 FLOX.gpm              1200.00:  Flow In Max 
 HFLO.                      No:  High Flow 
 HPRE.                     Yes:  High Pressure 
 HTEM.                      No:  High Temp 
 HYDO.m                   1.80:  Hydro Offset 
 IFIN.deg                70.04:  Inc, Final 
 IMAX.deg                70.56:  Inc Max 
 IMIN.deg                69.85:  Inc Min 
 IMND.m                3103.24:  Inc Min Depth 
 IMXD.m                2876.63:  Inc Max Depth 
 JARR.                      No:  Jarring 
 LETM.      06.18.56 19-Apr-20:  Log End Time 
 LOST.hr                     0:  Lost Rig Time 
 LSTM.      15.00.56 15-Apr-20:  Log Start Time 
 MDCL.ppm             42000.00:  Mud Chlorides 
 MDES.     Inversion Oil/Synthetic:  Mud Desc 
 DFD .sg                  1.58:  Mud Density 
 MDMN.sg                  1.58:  Dens Mud Min 
 MDMX.sg                  1.58:  Dens Mud Max 
 MOIL.                      71:  Run Mud Oil % 
 MOWR.                   71:29:  Run Mud OWR 
 MSND.                       0:  Run Mud Sand % 
 MSOL.                    23.3:  Run Mud Solids% 
 DFV .spqt               84.00:  Mud Viscosity 
 MWOD.in                  9.50:  MWD Tool OD 
 MWSI.                      No:  Serv Intrp, MWD 
 OTIM.hr                139.62:  Time Operating 
 PMAX.psia             5364.69:  Press Op, Max 
 PV  .cP                 80.00:  Mud PV 
 RUN .                     700:  Run Number 
 ROPA.m/hr               25.00:  ROP Avg 
 ROPN.m/hr               11.00:  ROP Min 
 ROPX.m/hr               36.00:  ROP Max 
 RPMA.rpm               130.00:  RPM Surface Avg 
 RPMN.rpm               120.00:  RPM Surface Min 
 RPMX.rpm               140.00:  RPM Surface Max 
 RRUN.                    0700:  Rig Run Number 
 SAZI.deg               183.25:  Azm, Start 
 SDEP.m                2084.00:  Start Depth 
 SIDD.                      No:  Serv Intrp, DD 
 SINC.deg                70.38:  Inc, Start 
 SPPA.psig             4800.00:  SPP Avg 
 SPPN.psig             4400.00:  SPP Min 
 SPPX.psig             5350.00:  SPP Max 
 STIM.      16.30.56 14-Apr-20:  Start Time 
 SVCS.                 DD, MWD:  Services 
 SVER.                    9.20:  Sperry Version 
 TDAT.m                1326.00:  Tot Depth Attmp 
 TDDF.                      No:  Trip for DD 
 TDLG.m                1326.00:  Tot Depth Loggd 
 TFF .                      No:  Trip for Fail 
 TQAA.f-kp               19.00:  Torque Abs Avg 
 TQAN.f-kp                8.00:  Torque Abs Min 
 TQAX.f-kp               27.00:  Torque Abs Max 
 TRRT.°/30m               0.50:  Turn Rotating 
 MRT .                    HCIM:  Maximum Recorded Temperature 
 TTMX.degC               82.35:  Max Tool Temp 
 VS01.       905245875X1Z1W1C8:  Virtual Str1 SN 
 VS02.       90608022F11V7D1A9:  Virtual Str2 SN 
 VS03.            90605473R5C9:  Virtual Str3 SN 
 WBMN.klb                11.00:  WOB Min 
 WOBA.klb                21.00:  WOB Avg 
 WOBX.klb                30.00:  WOB Max 
 YP  .lhf2               45.00:  Yield Point 
~Curve Information Block
#MNEM.UNIT                 API CODE     Curve Description
#---------               -----------    ---------------------------
 TIME.HHMMSS            00 000 000 000:  GT Time & Date
 GTDEPTH.m              00 000 000 000:  GT Depth
 GTPQH.psia             00 000 000 000:  GT HR Quartz Pressure
 GTTQ.degC              00 000 000 000:  GT Quartz Temperature
 GTTN.NONE              00 000 000 000:  GT Test Number
 GTET.sec               00 000 000 000:  GT Elapsed Test Time
 GTTVD.m                00 000 000 000:  GT True Vertical Depth
#Other Information
#
#WARRANTY: Halliburton will use its best efforts to furnish customers with 
#accurate information and interpretations that are part of, and incident to, the services 
#provided.  However, Halliburton cannot and does not warrant the accuracy 
#or correctness of such information and interpretations.  Under no circumstances should any 
#such information or interpretation be relied upon as the sole basis for any drilling, 
#completion, production, or financial decision or any procedure involving any risk to the 
#safety of any drilling venture, drilling rig or its crew or any other third party.  The 
#Customer has full responsibility for all drilling, completion and production operation.  
#Halliburton makes no representations or warranties, either expressed or 
#implied, including, but not limited to, the implied warranties of merchantability or fitness 
#for a particular purpose, with respect to the services rendered.  In no event will 
#Halliburton be liable for failure to obtain any particular results or for 
#any damages, including, but not limited to, indirect, special or consequential damages, 
#resulting from the use of any information or interpretation provided by Halliburton.
#
~A           TIME           GTDEPTH  GTPQH  GTTQ  GTTN  GTET   GTTVD  
# ...
   00:40:09.316.18-Apr-2020 2932.07 4420.65 63.51 1.00  46.01 1915.77
   00:40:09.516.18-Apr-2020 2932.07 4420.65 63.51 1.00  46.21 1915.77
   00:40:09.716.18-Apr-2020 2932.07 4418.99 63.51 1.00  46.41 1915.77
   00:40:09.916.18-Apr-2020 2932.07 4421.21 63.51 1.00  46.61 1915.77
   00:40:10.116.18-Apr-2020 2932.07 4421.29 63.51 1.00  46.81 1915.77
   00:40:10.316.18-Apr-2020 2932.07 4421.56 63.51 1.00  47.01 1915.77
   00:40:10.516.18-Apr-2020 2932.07 4420.77 63.51 1.00  47.21 1915.77
   00:40:10.716.18-Apr-2020 2932.07 4420.86 63.51 1.00  47.41 1915.77
   00:40:10.916.18-Apr-2020 2932.07 4420.83 63.51 1.00  47.61 1915.77
   00:40:11.116.18-Apr-2020 2932.07 4421.06 63.51 1.00  47.81 1915.77
   00:40:11.316.18-Apr-2020 2932.07 4420.79 63.51 1.00  48.01 1915.77
   00:40:11.516.18-Apr-2020 2932.07 4421.25 63.51 1.00  48.21 1915.77
   00:40:11.716.18-Apr-2020 2932.07 4421.07 63.51 1.00  48.41 1915.77
   00:40:11.916.18-Apr-2020 2932.07 4420.82 63.51 1.00  48.61 1915.77
   00:40:12.116.18-Apr-2020 2932.07 4421.01 63.51 1.00  48.81 1915.77
   00:40:12.316.18-Apr-2020 2932.07 4420.95 63.51 1.00  49.01 1915.77
   00:40:12.516.18-Apr-2020 2932.07 4420.95 63.51 1.00  49.21 1915.77
   00:40:12.716.18-Apr-2020 2932.07 4421.20 63.51 1.00  49.41 1915.77
   00:40:12.916.18-Apr-2020 2932.07 4421.22 63.51 1.00  49.61 1915.77
   00:40:13.116.18-Apr-2020 2932.07 4419.10 63.51 1.00  49.81 1915.77
   00:40:13.316.18-Apr-2020 2932.07 4420.94 63.51 1.00  50.01 1915.77
   00:40:13.516.18-Apr-2020 2932.07 4420.94 63.51 1.00  50.21 1915.77
   00:40:13.716.18-Apr-2020 2932.07 4419.32 63.51 1.00  50.41 1915.77
   00:40:13.916.18-Apr-2020 2932.07 4421.17 63.50 1.00  50.61 1915.77
   00:40:14.117.18-Apr-2020 2932.07 4369.11 63.50 1.00  50.81 1915.77
   00:40:14.317.18-Apr-2020 2932.07 4283.21 63.50 1.00  51.01 1915.77
   00:40:14.517.18-Apr-2020 2932.07 4283.21 63.50 1.00  51.21 1915.77
   00:40:14.717.18-Apr-2020 2932.07 4131.30 63.50 1.00  51.41 1915.77
   00:40:14.917.18-Apr-2020 2932.07 4071.77 63.50 1.00  51.61 1915.77
   00:40:15.117.18-Apr-2020 2932.07 4023.50 63.50 1.00  51.81 1915.77
   00:40:15.317.18-Apr-2020 2932.07 3982.15 63.50 1.00  52.01 1915.77
   00:40:15.517.18-Apr-2020 2932.07 3963.23 63.50 1.00  52.21 1915.77
   00:40:15.717.18-Apr-2020 2932.07 3940.47 63.50 1.00  52.41 1915.77
   00:40:15.917.18-Apr-2020 2932.07 3937.17 63.50 1.00  52.61 1915.77
   00:40:16.117.18-Apr-2020 2932.07 3961.49 63.50 1.00  52.81 1915.77
   00:40:16.317.18-Apr-2020 2932.07 3980.70 63.50 1.00  53.01 1915.77
   00:40:16.517.18-Apr-2020 2932.07 4024.75 63.50 1.00  53.21 1915.77
   00:40:16.717.18-Apr-2020 2932.07 4064.73 63.50 1.00  53.41 1915.77
   00:40:16.917.18-Apr-2020 2932.07 4111.64 63.50 1.00  53.61 1915.77
   00:40:17.117.18-Apr-2020 2932.07 4178.28 63.50 1.00  53.81 1915.77
   00:40:17.317.18-Apr-2020 2932.07 4270.53 63.50 1.00  54.01 1915.77
   00:40:17.517.18-Apr-2020 2932.07 4270.53 63.50 1.00  54.21 1915.77
   00:40:17.717.18-Apr-2020 2932.07 4474.15 63.49 1.00  54.41 1915.77
   00:40:17.917.18-Apr-2020 2932.07 4534.25 63.49 1.00  54.61 1915.77
   00:40:18.117.18-Apr-2020 2932.07 4591.15 63.49 1.00  54.81 1915.77
   00:40:18.317.18-Apr-2020 2932.07 4613.69 63.49 1.00  55.01 1915.77
   00:40:18.517.18-Apr-2020 2932.07 4613.69 63.49 1.00  55.21 1915.77
   00:40:18.717.18-Apr-2020 2932.07 4559.20 63.49 1.00  55.41 1915.77
   00:40:18.917.18-Apr-2020 2932.07 4533.68 63.49 1.00  55.61 1915.77
   00:40:19.117.18-Apr-2020 2932.07 4527.17 63.49 1.00  55.81 1915.77
   00:40:19.317.18-Apr-2020 2932.07 4508.85 63.49 1.00  56.01 1915.77
   00:40:19.517.18-Apr-2020 2932.07 4507.87 63.49 1.00  56.21 1915.77
   00:40:19.717.18-Apr-2020 2932.07 4511.53 63.49 1.00  56.41 1915.77
   00:40:19.917.18-Apr-2020 2932.07 4502.11 63.49 1.00  56.61 1915.77
   00:40:20.117.18-Apr-2020 2932.07 4506.16 63.49 1.00  56.81 1915.77
   00:40:20.318.18-Apr-2020 2932.07 4500.47 63.49 1.00  57.01 1915.77
   00:40:20.518.18-Apr-2020 2932.07 4497.60 63.49 1.00  57.21 1915.77
   00:40:20.718.18-Apr-2020 2932.07 4493.52 63.49 1.00  57.41 1915.77
   00:40:20.918.18-Apr-2020 2932.07 4497.77 63.49 1.00  57.61 1915.77
   00:40:21.118.18-Apr-2020 2932.07 4489.34 63.49 1.00  57.81 1915.77
   00:40:21.318.18-Apr-2020 2932.07 4479.32 63.49 1.00  58.01 1915.77
   00:40:21.518.18-Apr-2020 2932.07 4479.32 63.49 1.00  58.21 1915.77
   00:40:21.718.18-Apr-2020 2932.07 4479.52 63.49 1.00  58.41 1915.77
   00:40:21.918.18-Apr-2020 2932.07 4474.88 63.49 1.00  58.61 1915.77
   00:40:22.118.18-Apr-2020 2932.07 4475.46 63.49 1.00  58.81 1915.77
   00:40:22.318.18-Apr-2020 2932.07 4473.31 63.49 1.00  59.01 1915.77
   00:40:22.518.18-Apr-2020 2932.07 4473.31 63.49 1.00  59.21 1915.77
   00:40:22.718.18-Apr-2020 2932.07 4473.02 63.49 1.00  59.41 1915.77
   00:40:22.918.18-Apr-2020 2932.07 4471.91 63.49 1.00  59.61 1915.77
   00:40:23.118.18-Apr-2020 2932.07 4471.23 63.49 1.00  59.81 1915.77
   00:40:23.318.18-Apr-2020 2932.07 4470.76 63.49 1.00  60.01 1915.77
   00:40:23.518.18-Apr-2020 2932.07 4469.61 63.49 1.00  60.21 1915.77
   00:40:23.718.18-Apr-2020 2932.07 4470.87 63.49 1.00  60.41 1915.77
   00:40:23.918.18-Apr-2020 2932.07 4470.48 63.48 1.00  60.61 1915.77
   00:40:24.118.18-Apr-2020 2932.07 4470.32 63.48 1.00  60.81 1915.77
   00:40:24.318.18-Apr-2020 2932.07 4469.45 63.48 1.00  61.01 1915.77
   00:40:24.518.18-Apr-2020 2932.07 4469.84 63.48 1.00  61.21 1915.77
   00:40:24.718.18-Apr-2020 2932.07 4470.12 63.48 1.00  61.41 1915.77
   00:40:24.918.18-Apr-2020 2932.07 4470.01 63.48 1.00  61.61 1915.77
   00:40:25.118.18-Apr-2020 2932.07 4470.24 63.48 1.00  61.81 1915.77
   00:40:25.318.18-Apr-2020 2932.07 4470.20 63.48 1.00  62.01 1915.77
   00:40:25.518.18-Apr-2020 2932.07 4470.20 63.48 1.00  62.21 1915.77
   00:40:25.718.18-Apr-2020 2932.07 4595.15 63.48 1.00  62.41 1915.77
   00:40:25.918.18-Apr-2020 2932.07 4535.25 63.48 1.00  62.61 1915.77
   00:40:26.118.18-Apr-2020 2932.07 4437.85 63.48 1.00  62.81 1915.77
   00:40:26.318.18-Apr-2020 2932.07 4437.75 63.48 1.00  63.01 1915.77
   00:40:26.519.18-Apr-2020 2932.07 4437.75 63.48 1.00  63.21 1915.77
   00:40:26.719.18-Apr-2020 2932.07 4432.83 63.48 1.00  63.41 1915.77
   00:40:26.919.18-Apr-2020 2932.07 4432.16 63.48 1.00  63.61 1915.77
   00:40:27.119.18-Apr-2020 2932.07 4431.32 63.48 1.00  63.81 1915.77
   00:40:27.319.18-Apr-2020 2932.07 4428.99 63.48 1.00  64.01 1915.77
   00:40:27.519.18-Apr-2020 2932.07 4428.99 63.48 1.00  64.21 1915.77
   00:40:27.719.18-Apr-2020 2932.07 4419.80 63.48 1.00  64.41 1915.77
   00:40:27.919.18-Apr-2020 2932.07 4271.55 63.48 1.00  64.61 1915.77
   00:40:28.119.18-Apr-2020 2932.07 4018.09 63.48 1.00  64.81 1915.77
   00:40:28.319.18-Apr-2020 2932.07 3636.83 63.48 1.00  65.01 1915.77
   00:40:28.519.18-Apr-2020 2932.07 3406.01 63.48 1.00  65.21 1915.77
   00:40:28.719.18-Apr-2020 2932.07 3420.35 63.48 1.00  65.41 1915.77
   00:40:28.919.18-Apr-2020 2932.07 3420.98 63.48 1.00  65.61 1915.77
   00:40:29.119.18-Apr-2020 2932.07 3421.36 63.48 1.00  65.81 1915.77
   00:40:29.319.18-Apr-2020 2932.07 3421.36 63.47 1.00  66.01 1915.77
   00:40:29.519.18-Apr-2020 2932.07 3421.36 63.47 1.00  66.21 1915.77
   00:40:29.719.18-Apr-2020 2932.07 3420.66 63.47 1.00  66.41 1915.77
   00:40:29.919.18-Apr-2020 2932.07 3420.41 63.47 1.00  66.61 1915.77
   00:40:30.119.18-Apr-2020 2932.07 3419.73 63.47 1.00  66.81 1915.77
   00:40:30.319.18-Apr-2020 2932.07 3419.57 63.47 1.00  67.01 1915.77
   00:40:30.519.18-Apr-2020 2932.07 3419.57 63.47 1.00  67.21 1915.77
   00:40:30.719.18-Apr-2020 2932.07 3419.20 63.47 1.00  67.41 1915.77
   00:40:30.919.18-Apr-2020 2932.07 3419.37 63.47 1.00  67.61 1915.77
   00:40:31.119.18-Apr-2020 2932.07 3419.51 63.47 1.00  67.81 1915.77
   00:40:31.319.18-Apr-2020 2932.07 3420.29 63.47 1.00  68.01 1915.77
   00:40:31.519.18-Apr-2020 2932.07 3420.12 63.46 1.00  68.21 1915.77
   00:40:31.719.18-Apr-2020 2932.07 3420.59 63.46 1.00  68.41 1915.77
   00:40:31.919.18-Apr-2020 2932.07 3420.51 63.46 1.00  68.61 1915.77
   00:40:32.119.18-Apr-2020 2932.07 3420.47 63.46 1.00  68.81 1915.77
