~Version Information
 VERS.                  2.0:   CWLS log ASCII Standard -VERSION 2.0
 WRAP.                   NO:   One line per depth step
~Well Information Block
#MNEM.UNIT     VALUE/NAME     DESCRIPTION
#---------     -----------    ---------------------------
 STRT.S             15:35:19 18-Apr-20: START TIME 15:35:19 18-Apr-20
 STOP.S             15:42:14 18-Apr-20: STOP TIME  15:42:14 18-Apr-20
 STEP.S                   0.00: STEP TIME
 NULL.                 -999.25: NULL VALUE
 DFWT.                        :  DIST FWL TEXT
 DFST.                        :  DIST FSL TEXT
 DMF .                        :  DRILL MEAS FROM
 STIM.      16.29.52 23-Mar-20:  START TIME
 DATE.      16.29.52 23-Mar-20:  END TIME
 SPUD.               23-Mar-20:  SPUD DATE
 NREF.                    Grid:  NORTH REFERENCE
 HPTY.       Minimum Curvature:  HOLE POS TYPE
 DMOD.             Drill Model:  DRILL MOD DESC
 SVYD.                  Survey:  SURVEY DESC
 ILTD.               Lithology:  INTERP LTH DESC
 FTOP.          Formation Tops:  FORM TOPS DESC
 SON .        AZ-XX-0906252240:  JOB NUMBER
 RIG .             West Chirag:  RIG NAME
 PDAT.          Mean Sea Level:  PERMANENT DATUM
 FLD .                     ACG:  FIELD NAME
 CTRY.              Azerbaijan:  COUNTRY NAME
 WELL.           J23 (Slot 07):  WELL NAME
 SRVC.          Turan Drilling:  CONTRACTOR
 COMP.     BP Exploration (Casoian Sea) Ltd:  COMPANY
 WTYP.                Deviated:  WELL TYPE
 MDS .        Operator Entered:  MAG DATA SOURCE
 UWI .                     N/A:  UNIQUE WELL IDENTIFIER
 API .                     N/A:  API NUMBER
 BASE.              Azerbaijan:  LOGGING EQUIPMENT BASE LOCATION
 REGN.                   EESSA:  REGION
 PROV.                    Baku:  PROVINCE
 STAT.                    Baku:  STATE NAME
 MWDS.                     N/A:  MWD SHOP
 JOBN.        AZ-XX-0906252240:  JOB TICKET NUMB
 DOE .                     N/A:  DOE NUMBER
 DCON.         Sperry Drilling:  DIRECTNL CONTR
 UNIT.                     N/A:  LOGGING EQUIPMENT ID
 CNTY.                        :  COUNTY
 LOC .                        :  LOCATION
 LMF .             Drill Floor:  LOG MEASURED FROM
 TVDS.m                  43.00:  TVDSS CORRECTN
 LATI.deg                40.13:  LATITUDE
 LONG.deg                51.22:  LONGITUDE
 WHNS.m                   9.43:  WELL HEAD N/S
 WHEW.m                  -8.91:  WELL HEAD E/W
 UTMX.m              519005.06:  UTM X
 UTMY.m             4443793.85:  UTM Y
 DFWL.m                   0.00:  DISTANCE FWL
 DFSL.m                   0.00:  DISTANCE FSL
 SDEP.m                   0.00:  START DEPTH
 TDD .m                   0.00:  TOTAL DEPTH (DRILLER)
 VSDR.deg               179.88:  VERT SEC DIRECT
 GVFD.g                   1.00:  GRAVITY FIELD
 MFLD.nT              50281.00:  MAGNETIC FIELD
 MDIP.deg                59.58:  MAGNETIC DIP
 MDEC.deg                 6.48:  MAGNETIC DECL
 GRDC.deg                 0.14:  GRID CORRECTION
 AZTC.deg                 6.34:  AZM TOTAL CORR
 EPD .m                   0.00:  ELEVATION
 EGL .m                   0.00:  GROUND ELEVATION
 WDMS.m                 169.80:  WD ELEV
 APD .m                  43.00:  DEPTH ABOVE PD
 DEP .m                 354.17:  DEPTH
 AGAP.m                  43.00:  AIR GAP
 VSEW.m                  -8.91:  VERT SEC E/W
 VSNS.m                   9.43:  VERT SEC N/S
 EKB .m                   0.00:  KB ELEVATION
 EDF .m                  43.00:  DF ELEVATION
 TDL .m                1326.00:  TOTAL DEPTH (LOGGER)
 VSC .                       0:  VS TO CLOSURE
 MAGU.                 1850704:  MAGUTM CHECKSUM
~Parameter Information Block
#MNEM.UNIT       Value        Description
#---------     -----------    ---------------------------
 AV  .mps                 1.17:  Ann Velocity 
 AZIF.deg               184.04:  Azm, Final 
 BHAT.        Rotary Steerable:  BHA Type 
 BREV.rev            620000.00:  Rev Bit Total 
 BROT.°/30m               0.20:  Build Rotating 
 BS  .in                 14.75:  Bit Size 
 BSZ .in                 14.75:  Bit Size 
 BTPL.psig              618.00:  Bit Press Loss 
 CABU.                      No:  Customer Abuse 
 COMM.                     ü—`:  Run Comments 1 
 TCS .hr                 87.68:  Time Ciculation Ended 
 CV  .mps                 3.10:  Crit Velocity 
 DD1 .          Rashad Habibov:  Direct Drillr 1 
 DD2 .         Rasim Ibrahimov:  Direct Drillr 2 
 DDSV.               Geo-Pilot:  DD Service 
 DEFF.%                  98.00:  % Det Eff 
 DLRX.°/30m               1.48:  Dogleg Rot Max 
 DLSO.°/30m               0.50:  Dogleg Oriented 
 DLSX.°/30m               1.48:  Dogleg Str Max 
 DRET.      06.18.56 19-Apr-20:  Drill End Time 
 DRST.      15.00.56 15-Apr-20:  Drill Start Tim 
 DTIM.hr                 51.73:  Time Drilling 
 EDEP.m                3410.01:  End Depth 
 ENG1.        Marcelo Sandoval:  Engineer 1 
 ENG2.        Davud Huseynzade:  Engineer 2 
 ENG3.          Ruslan Safarov:  Engineer 3 
 ETIM.      04.00.56 20-Apr-20:  End Time 
 FLOI.gpm              1000.00:  Flow In 
 FLON.gpm               600.00:  Flow In Min 
 FLOS.cptm                0.00:  Fluid Loss 
 FLOX.gpm              1200.00:  Flow In Max 
 HFLO.                      No:  High Flow 
 HPRE.                     Yes:  High Pressure 
 HTEM.                      No:  High Temp 
 HYDO.m                   1.80:  Hydro Offset 
 IFIN.deg                70.04:  Inc, Final 
 IMAX.deg                70.56:  Inc Max 
 IMIN.deg                69.85:  Inc Min 
 IMND.m                3103.24:  Inc Min Depth 
 IMXD.m                2876.63:  Inc Max Depth 
 JARR.                      No:  Jarring 
 LETM.      06.18.56 19-Apr-20:  Log End Time 
 LOST.hr                     0:  Lost Rig Time 
 LSTM.      15.00.56 15-Apr-20:  Log Start Time 
 MDCL.ppm             42000.00:  Mud Chlorides 
 MDES.     Inversion Oil/Synthetic:  Mud Desc 
 DFD .sg                  1.58:  Mud Density 
 MDMN.sg                  1.58:  Dens Mud Min 
 MDMX.sg                  1.58:  Dens Mud Max 
 MOIL.                      71:  Run Mud Oil % 
 MOWR.                   71:29:  Run Mud OWR 
 MSND.                       0:  Run Mud Sand % 
 MSOL.                    23.3:  Run Mud Solids% 
 DFV .spqt               84.00:  Mud Viscosity 
 MWOD.in                  9.50:  MWD Tool OD 
 MWSI.                      No:  Serv Intrp, MWD 
 OTIM.hr                139.62:  Time Operating 
 PMAX.psia             5364.69:  Press Op, Max 
 PV  .cP                 80.00:  Mud PV 
 RUN .                     700:  Run Number 
 ROPA.m/hr               25.00:  ROP Avg 
 ROPN.m/hr               11.00:  ROP Min 
 ROPX.m/hr               36.00:  ROP Max 
 RPMA.rpm               130.00:  RPM Surface Avg 
 RPMN.rpm               120.00:  RPM Surface Min 
 RPMX.rpm               140.00:  RPM Surface Max 
 RRUN.                    0700:  Rig Run Number 
 SAZI.deg               183.25:  Azm, Start 
 SDEP.m                2084.00:  Start Depth 
 SIDD.                      No:  Serv Intrp, DD 
 SINC.deg                70.38:  Inc, Start 
 SPPA.psig             4800.00:  SPP Avg 
 SPPN.psig             4400.00:  SPP Min 
 SPPX.psig             5350.00:  SPP Max 
 STIM.      16.30.56 14-Apr-20:  Start Time 
 SVCS.                 DD, MWD:  Services 
 SVER.                    9.20:  Sperry Version 
 TDAT.m                1326.00:  Tot Depth Attmp 
 TDDF.                      No:  Trip for DD 
 TDLG.m                1326.00:  Tot Depth Loggd 
 TFF .                      No:  Trip for Fail 
 TQAA.f-kp               19.00:  Torque Abs Avg 
 TQAN.f-kp                8.00:  Torque Abs Min 
 TQAX.f-kp               27.00:  Torque Abs Max 
 TRRT.°/30m               0.50:  Turn Rotating 
 MRT .                    HCIM:  Maximum Recorded Temperature 
 TTMX.degC               82.35:  Max Tool Temp 
 VS01.       905245875X1Z1W1C8:  Virtual Str1 SN 
 VS02.       90608022F11V7D1A9:  Virtual Str2 SN 
 VS03.            90605473R5C9:  Virtual Str3 SN 
 WBMN.klb                11.00:  WOB Min 
 WOBA.klb                21.00:  WOB Avg 
 WOBX.klb                30.00:  WOB Max 
 YP  .lhf2               45.00:  Yield Point 
~Curve Information Block
#MNEM.UNIT                 API CODE     Curve Description
#---------               -----------    ---------------------------
 TIME.HHMMSS            00 000 000 000:  GT Time & Date
 GTDEPTH.m              00 000 000 000:  GT Depth
 GTPQH.psia             00 000 000 000:  GT HR Quartz Pressure
 GTTQ.degC              00 000 000 000:  GT Quartz Temperature
 GTTN.NONE              00 000 000 000:  GT Test Number
 GTET.sec               00 000 000 000:  GT Elapsed Test Time
 GTTVD.m                00 000 000 000:  GT True Vertical Depth
#Other Information
#
#WARRANTY: Halliburton will use its best efforts to furnish customers with 
#accurate information and interpretations that are part of, and incident to, the services 
#provided.  However, Halliburton cannot and does not warrant the accuracy 
#or correctness of such information and interpretations.  Under no circumstances should any 
#such information or interpretation be relied upon as the sole basis for any drilling, 
#completion, production, or financial decision or any procedure involving any risk to the 
#safety of any drilling venture, drilling rig or its crew or any other third party.  The 
#Customer has full responsibility for all drilling, completion and production operation.  
#Halliburton makes no representations or warranties, either expressed or 
#implied, including, but not limited to, the implied warranties of merchantability or fitness 
#for a particular purpose, with respect to the services rendered.  In no event will 
#Halliburton be liable for failure to obtain any particular results or for 
#any damages, including, but not limited to, indirect, special or consequential damages, 
#resulting from the use of any information or interpretation provided by Halliburton.
#
~A           TIME           GTDEPTH  GTPQH  GTTQ  GTTN  GTET   GTTVD  
# ...
   15:39:55.326.18-Apr-2020 3140.87 1394.56 70.85 6.00 275.97 1986.80
   15:39:55.526.18-Apr-2020 3140.87 1394.56 70.85 6.00 276.17 1986.80
   15:39:55.726.18-Apr-2020 3140.87 1374.36 70.85 6.00 276.37 1986.80
   15:39:55.926.18-Apr-2020 3140.87 1364.81 70.84 6.00 276.57 1986.80
   15:39:56.126.18-Apr-2020 3140.87 1355.26 70.84 6.00 276.77 1986.80
   15:39:56.326.18-Apr-2020 3140.87 1345.91 70.84 6.00 276.97 1986.80
   15:39:56.526.18-Apr-2020 3140.87 1345.91 70.84 6.00 277.17 1986.80
   15:39:56.726.18-Apr-2020 3140.87 1327.86 70.84 6.00 277.37 1986.80
   15:39:56.926.18-Apr-2020 3140.87 1319.14 70.84 6.00 277.57 1986.80
   15:39:57.126.18-Apr-2020 3140.87 1310.54 70.84 6.00 277.77 1986.80
   15:39:57.326.18-Apr-2020 3140.87 1302.10 70.84 6.00 277.97 1986.80
   15:39:57.526.18-Apr-2020 3140.87 1302.10 70.84 6.00 278.17 1986.80
   15:39:57.726.18-Apr-2020 3140.87 1285.84 70.84 6.00 278.37 1986.80
   15:39:57.926.18-Apr-2020 3140.87 1277.92 70.84 6.00 278.57 1986.80
   15:39:58.126.18-Apr-2020 3140.87 1270.50 70.83 6.00 278.77 1986.80
   15:39:58.326.18-Apr-2020 3140.87 1262.85 70.83 6.00 278.97 1986.80
   15:39:58.526.18-Apr-2020 3140.87 1262.85 70.83 6.00 279.17 1986.80
   15:39:58.726.18-Apr-2020 3140.87 1247.75 70.83 6.00 279.37 1986.80
   15:39:58.926.18-Apr-2020 3140.87 1240.41 70.83 6.00 279.57 1986.80
   15:39:59.126.18-Apr-2020 3140.87 1233.17 70.83 6.00 279.77 1986.80
   15:39:59.326.18-Apr-2020 3140.87 1226.08 70.83 6.00 279.97 1986.80
   15:39:59.526.18-Apr-2020 3140.87 1219.03 70.83 6.00 280.17 1986.80
   15:39:59.726.18-Apr-2020 3140.87 1212.08 70.83 6.00 280.37 1986.80
   15:39:59.926.18-Apr-2020 3140.87 1205.20 70.83 6.00 280.57 1986.80
   15:40:00.126.18-Apr-2020 3140.87 1198.49 70.82 6.00 280.77 1986.80
   15:40:00.326.18-Apr-2020 3140.87 1191.85 70.82 6.00 280.97 1986.80
   15:40:00.526.18-Apr-2020 3140.87 1191.85 70.82 6.00 281.17 1986.80
   15:40:00.726.18-Apr-2020 3140.87 1178.69 70.82 6.00 281.37 1986.80
   15:40:00.926.18-Apr-2020 3140.87 1172.25 70.82 6.00 281.57 1986.80
   15:40:01.126.18-Apr-2020 3140.87 1165.85 70.82 6.00 281.77 1986.80
   15:40:01.325.18-Apr-2020 3140.87 1159.50 70.82 6.00 281.97 1986.80
   15:40:01.525.18-Apr-2020 3140.87 1159.50 70.82 6.00 282.17 1986.80
   15:40:01.725.18-Apr-2020 3140.87 1151.05 70.82 6.00 282.37 1986.80
   15:40:01.925.18-Apr-2020 3140.87 1153.17 70.82 6.00 282.57 1986.80
   15:40:02.125.18-Apr-2020 3140.87 1154.91 70.81 6.00 282.77 1986.80
   15:40:02.325.18-Apr-2020 3140.87 1156.43 70.81 6.00 282.97 1986.80
   15:40:02.525.18-Apr-2020 3140.87 1156.43 70.81 6.00 283.17 1986.80
   15:40:02.725.18-Apr-2020 3140.87 1158.94 70.81 6.00 283.37 1986.80
   15:40:02.925.18-Apr-2020 3140.87 1159.99 70.81 6.00 283.57 1986.80
   15:40:03.125.18-Apr-2020 3140.87 1160.96 70.81 6.00 283.77 1986.80
   15:40:03.325.18-Apr-2020 3140.87 1161.84 70.81 6.00 283.97 1986.80
   15:40:03.525.18-Apr-2020 3140.87 1162.65 70.81 6.00 284.17 1986.80
   15:40:03.725.18-Apr-2020 3140.87 1163.40 70.81 6.00 284.37 1986.80
   15:40:03.925.18-Apr-2020 3140.87 1164.10 70.81 6.00 284.57 1986.80
   15:40:04.125.18-Apr-2020 3140.87 1164.75 70.80 6.00 284.77 1986.80
   15:40:04.325.18-Apr-2020 3140.87 1165.37 70.80 6.00 284.97 1986.80
   15:40:04.525.18-Apr-2020 3140.87 1165.94 70.80 6.00 285.17 1986.80
   15:40:04.725.18-Apr-2020 3140.87 1166.47 70.80 6.00 285.37 1986.80
   15:40:04.925.18-Apr-2020 3140.87 1166.98 70.80 6.00 285.57 1986.80
   15:40:05.125.18-Apr-2020 3140.87 1167.46 70.80 6.00 285.77 1986.80
   15:40:05.325.18-Apr-2020 3140.87 1167.94 70.80 6.00 285.97 1986.80
   15:40:05.525.18-Apr-2020 3140.87 1167.94 70.80 6.00 286.17 1986.80
   15:40:05.725.18-Apr-2020 3140.87 1168.77 70.80 6.00 286.37 1986.80
   15:40:05.925.18-Apr-2020 3140.87 1169.17 70.80 6.00 286.57 1986.80
   15:40:06.125.18-Apr-2020 3140.87 1169.54 70.80 6.00 286.77 1986.80
   15:40:06.325.18-Apr-2020 3140.87 1169.90 70.79 6.00 286.97 1986.80
   15:40:06.525.18-Apr-2020 3140.87 1169.90 70.79 6.00 287.17 1986.80
   15:40:06.725.18-Apr-2020 3140.87 1170.56 70.79 6.00 287.37 1986.80
   15:40:06.925.18-Apr-2020 3140.87 1170.87 70.79 6.00 287.57 1986.80
   15:40:07.125.18-Apr-2020 3140.87 1171.17 70.79 6.00 287.77 1986.80
   15:40:07.325.18-Apr-2020 3140.87 1171.45 70.79 6.00 287.97 1986.80
   15:40:07.525.18-Apr-2020 3140.87 1171.73 70.79 6.00 288.17 1986.80
   15:40:07.725.18-Apr-2020 3140.87 1171.99 70.79 6.00 288.37 1986.80
   15:40:07.925.18-Apr-2020 3140.87 1172.24 70.79 6.00 288.57 1986.80
   15:40:08.125.18-Apr-2020 3140.87 1172.50 70.79 6.00 288.77 1986.80
   15:40:08.325.18-Apr-2020 3140.87 1172.73 70.79 6.00 288.97 1986.80
   15:40:08.525.18-Apr-2020 3140.87 1172.96 70.78 6.00 289.17 1986.80
   15:40:08.725.18-Apr-2020 3140.87 1173.18 70.78 6.00 289.37 1986.80
   15:40:08.925.18-Apr-2020 3140.87 1173.39 70.78 6.00 289.57 1986.80
   15:40:09.125.18-Apr-2020 3140.87 1173.60 70.78 6.00 289.77 1986.80
   15:40:09.325.18-Apr-2020 3140.87 1173.80 70.78 6.00 289.97 1986.80
   15:40:09.525.18-Apr-2020 3140.87 1173.80 70.78 6.00 290.17 1986.80
   15:40:09.725.18-Apr-2020 3140.87 1174.18 70.78 6.00 290.37 1986.80
   15:40:09.925.18-Apr-2020 3140.87 1174.35 70.78 6.00 290.57 1986.80
   15:40:10.124.18-Apr-2020 3140.87 1174.53 70.78 6.00 290.77 1986.80
   15:40:10.324.18-Apr-2020 3140.87 1174.71 70.78 6.00 290.97 1986.80
   15:40:10.524.18-Apr-2020 3140.87 1174.71 70.78 6.00 291.17 1986.80
   15:40:10.724.18-Apr-2020 3140.87 1175.05 70.78 6.00 291.37 1986.80
   15:40:10.924.18-Apr-2020 3140.87 1175.19 70.77 6.00 291.57 1986.80
   15:40:11.124.18-Apr-2020 3140.87 1175.34 70.77 6.00 291.77 1986.80
   15:40:11.324.18-Apr-2020 3140.87 1175.50 70.77 6.00 291.97 1986.80
   15:40:11.524.18-Apr-2020 3140.87 1175.65 70.77 6.00 292.17 1986.80
   15:40:11.724.18-Apr-2020 3140.87 1175.80 70.77 6.00 292.37 1986.80
   15:40:11.924.18-Apr-2020 3140.87 1175.93 70.77 6.00 292.57 1986.80
   15:40:12.124.18-Apr-2020 3140.87 1176.07 70.77 6.00 292.77 1986.80
   15:40:12.324.18-Apr-2020 3140.87 1176.20 70.77 6.00 292.97 1986.80
   15:40:12.524.18-Apr-2020 3140.87 1176.35 70.77 6.00 293.17 1986.80
   15:40:12.724.18-Apr-2020 3140.87 1176.49 70.77 6.00 293.37 1986.80
   15:40:12.924.18-Apr-2020 3140.87 1176.60 70.77 6.00 293.57 1986.80
   15:40:13.124.18-Apr-2020 3140.87 1176.73 70.76 6.00 293.77 1986.80
   15:40:13.324.18-Apr-2020 3140.87 1176.87 70.76 6.00 293.97 1986.80
   15:40:13.524.18-Apr-2020 3140.87 1176.87 70.76 6.00 294.17 1986.80
   15:40:13.724.18-Apr-2020 3140.87 1177.10 70.76 6.00 294.37 1986.80
   15:40:13.924.18-Apr-2020 3140.87 1177.22 70.76 6.00 294.57 1986.80
   15:40:14.124.18-Apr-2020 3140.87 1177.34 70.76 6.00 294.77 1986.80
   15:40:14.324.18-Apr-2020 3140.87 1177.44 70.76 6.00 294.97 1986.80
   15:40:14.524.18-Apr-2020 3140.87 1177.44 70.76 6.00 295.17 1986.80
   15:40:14.724.18-Apr-2020 3140.87 1177.65 70.76 6.00 295.37 1986.80
   15:40:14.924.18-Apr-2020 3140.87 1177.75 70.76 6.00 295.57 1986.80
   15:40:15.124.18-Apr-2020 3140.87 1177.84 70.76 6.00 295.77 1986.80
   15:40:15.324.18-Apr-2020 3140.87 1177.94 70.76 6.00 295.97 1986.80
   15:40:15.524.18-Apr-2020 3140.87 1177.94 70.76 6.00 296.17 1986.80
   15:40:15.724.18-Apr-2020 3140.87 1178.12 70.75 6.00 296.37 1986.80
   15:40:15.924.18-Apr-2020 3140.87 1178.20 70.75 6.00 296.57 1986.80
   15:40:16.124.18-Apr-2020 3140.87 1178.29 70.75 6.00 296.77 1986.80
   15:40:16.324.18-Apr-2020 3140.87 1178.37 70.75 6.00 296.97 1986.80
   15:40:16.524.18-Apr-2020 3140.87 1178.37 70.75 6.00 297.17 1986.80
   15:40:16.724.18-Apr-2020 3140.87 1178.54 70.75 6.00 297.37 1986.80
   15:40:16.924.18-Apr-2020 3140.87 1178.62 70.75 6.00 297.57 1986.80
   15:40:17.124.18-Apr-2020 3140.87 1178.70 70.75 6.00 297.77 1986.80
   15:40:17.324.18-Apr-2020 3140.87 1178.77 70.75 6.00 297.97 1986.80
   15:40:17.524.18-Apr-2020 3140.87 1178.77 70.75 6.00 298.17 1986.80
   15:40:17.724.18-Apr-2020 3140.87 1178.93 70.75 6.00 298.37 1986.80
   15:40:17.924.18-Apr-2020 3140.87 1179.00 70.75 6.00 298.57 1986.80
   15:40:18.124.18-Apr-2020 3140.87 1179.07 70.74 6.00 298.77 1986.80
