~Version Information
 VERS.                  2.0:   CWLS log ASCII Standard -VERSION 2.0
 WRAP.                   NO:   One line per depth step
~Well Information Block
#MNEM.UNIT     VALUE/NAME     DESCRIPTION
#---------     -----------    ---------------------------
 STRT.S             11:18:22 18-Apr-20: START TIME 11:18:22 18-Apr-20
 STOP.S             11:25:23 18-Apr-20: STOP TIME  11:25:23 18-Apr-20
 STEP.S                   0.00: STEP TIME
 NULL.                 -999.25: NULL VALUE
 DFWT.                        :  DIST FWL TEXT
 DFST.                        :  DIST FSL TEXT
 DMF .                        :  DRILL MEAS FROM
 STIM.      16.29.52 23-Mar-20:  START TIME
 DATE.      16.29.52 23-Mar-20:  END TIME
 SPUD.               23-Mar-20:  SPUD DATE
 NREF.                    Grid:  NORTH REFERENCE
 HPTY.       Minimum Curvature:  HOLE POS TYPE
 DMOD.             Drill Model:  DRILL MOD DESC
 SVYD.                  Survey:  SURVEY DESC
 ILTD.               Lithology:  INTERP LTH DESC
 FTOP.          Formation Tops:  FORM TOPS DESC
 SON .        AZ-XX-0906252240:  JOB NUMBER
 RIG .             West Chirag:  RIG NAME
 PDAT.          Mean Sea Level:  PERMANENT DATUM
 FLD .                     ACG:  FIELD NAME
 CTRY.              Azerbaijan:  COUNTRY NAME
 WELL.           J23 (Slot 07):  WELL NAME
 SRVC.          Turan Drilling:  CONTRACTOR
 COMP.     BP Exploration (Casoian Sea) Ltd:  COMPANY
 WTYP.                Deviated:  WELL TYPE
 MDS .        Operator Entered:  MAG DATA SOURCE
 UWI .                     N/A:  UNIQUE WELL IDENTIFIER
 API .                     N/A:  API NUMBER
 BASE.              Azerbaijan:  LOGGING EQUIPMENT BASE LOCATION
 REGN.                   EESSA:  REGION
 PROV.                    Baku:  PROVINCE
 STAT.                    Baku:  STATE NAME
 MWDS.                     N/A:  MWD SHOP
 JOBN.        AZ-XX-0906252240:  JOB TICKET NUMB
 DOE .                     N/A:  DOE NUMBER
 DCON.         Sperry Drilling:  DIRECTNL CONTR
 UNIT.                     N/A:  LOGGING EQUIPMENT ID
 CNTY.                        :  COUNTY
 LOC .                        :  LOCATION
 LMF .             Drill Floor:  LOG MEASURED FROM
 TVDS.m                  43.00:  TVDSS CORRECTN
 LATI.deg                40.13:  LATITUDE
 LONG.deg                51.22:  LONGITUDE
 WHNS.m                   9.43:  WELL HEAD N/S
 WHEW.m                  -8.91:  WELL HEAD E/W
 UTMX.m              519005.06:  UTM X
 UTMY.m             4443793.85:  UTM Y
 DFWL.m                   0.00:  DISTANCE FWL
 DFSL.m                   0.00:  DISTANCE FSL
 SDEP.m                   0.00:  START DEPTH
 TDD .m                   0.00:  TOTAL DEPTH (DRILLER)
 VSDR.deg               179.88:  VERT SEC DIRECT
 GVFD.g                   1.00:  GRAVITY FIELD
 MFLD.nT              50281.00:  MAGNETIC FIELD
 MDIP.deg                59.58:  MAGNETIC DIP
 MDEC.deg                 6.48:  MAGNETIC DECL
 GRDC.deg                 0.14:  GRID CORRECTION
 AZTC.deg                 6.34:  AZM TOTAL CORR
 EPD .m                   0.00:  ELEVATION
 EGL .m                   0.00:  GROUND ELEVATION
 WDMS.m                 169.80:  WD ELEV
 APD .m                  43.00:  DEPTH ABOVE PD
 DEP .m                 354.17:  DEPTH
 AGAP.m                  43.00:  AIR GAP
 VSEW.m                  -8.91:  VERT SEC E/W
 VSNS.m                   9.43:  VERT SEC N/S
 EKB .m                   0.00:  KB ELEVATION
 EDF .m                  43.00:  DF ELEVATION
 TDL .m                1326.00:  TOTAL DEPTH (LOGGER)
 VSC .                       0:  VS TO CLOSURE
 MAGU.                 1850704:  MAGUTM CHECKSUM
~Parameter Information Block
#MNEM.UNIT       Value        Description
#---------     -----------    ---------------------------
 AV  .mps                 1.17:  Ann Velocity 
 AZIF.deg               184.04:  Azm, Final 
 BHAT.        Rotary Steerable:  BHA Type 
 BREV.rev            620000.00:  Rev Bit Total 
 BROT.°/30m               0.20:  Build Rotating 
 BS  .in                 14.75:  Bit Size 
 BSZ .in                 14.75:  Bit Size 
 BTPL.psig              618.00:  Bit Press Loss 
 CABU.                      No:  Customer Abuse 
 TCS .hr                 87.68:  Time Ciculation Ended 
 CV  .mps                 3.10:  Crit Velocity 
 DD1 .          Rashad Habibov:  Direct Drillr 1 
 DD2 .         Rasim Ibrahimov:  Direct Drillr 2 
 DDSV.               Geo-Pilot:  DD Service 
 DEFF.%                  98.00:  % Det Eff 
 DLRX.°/30m               1.48:  Dogleg Rot Max 
 DLSO.°/30m               0.50:  Dogleg Oriented 
 DLSX.°/30m               1.48:  Dogleg Str Max 
 DRET.      06.18.56 19-Apr-20:  Drill End Time 
 DRST.      15.00.56 15-Apr-20:  Drill Start Tim 
 DTIM.hr                 51.73:  Time Drilling 
 EDEP.m                3410.01:  End Depth 
 ENG1.        Marcelo Sandoval:  Engineer 1 
 ENG2.        Davud Huseynzade:  Engineer 2 
 ENG3.          Ruslan Safarov:  Engineer 3 
 ETIM.      04.00.56 20-Apr-20:  End Time 
 FLOI.gpm              1000.00:  Flow In 
 FLON.gpm               600.00:  Flow In Min 
 FLOS.cptm                0.00:  Fluid Loss 
 FLOX.gpm              1200.00:  Flow In Max 
 HFLO.                      No:  High Flow 
 HPRE.                     Yes:  High Pressure 
 HTEM.                      No:  High Temp 
 HYDO.m                   1.80:  Hydro Offset 
 IFIN.deg                70.04:  Inc, Final 
 IMAX.deg                70.56:  Inc Max 
 IMIN.deg                69.85:  Inc Min 
 IMND.m                3103.24:  Inc Min Depth 
 IMXD.m                2876.63:  Inc Max Depth 
 JARR.                      No:  Jarring 
 LETM.      06.18.56 19-Apr-20:  Log End Time 
 LOST.hr                     0:  Lost Rig Time 
 LSTM.      15.00.56 15-Apr-20:  Log Start Time 
 MDCL.ppm             42000.00:  Mud Chlorides 
 MDES.     Inversion Oil/Synthetic:  Mud Desc 
 DFD .sg                  1.58:  Mud Density 
 MDMN.sg                  1.58:  Dens Mud Min 
 MDMX.sg                  1.58:  Dens Mud Max 
 MOIL.                      71:  Run Mud Oil % 
 MOWR.                   71:29:  Run Mud OWR 
 MSND.                       0:  Run Mud Sand % 
 MSOL.                    23.3:  Run Mud Solids% 
 DFV .spqt               84.00:  Mud Viscosity 
 MWOD.in                  9.50:  MWD Tool OD 
 MWSI.                      No:  Serv Intrp, MWD 
 OTIM.hr                139.62:  Time Operating 
 PMAX.psia             5364.69:  Press Op, Max 
 PV  .cP                 80.00:  Mud PV 
 RUN .                     700:  Run Number 
 ROPA.m/hr               25.00:  ROP Avg 
 ROPN.m/hr               11.00:  ROP Min 
 ROPX.m/hr               36.00:  ROP Max 
 RPMA.rpm               130.00:  RPM Surface Avg 
 RPMN.rpm               120.00:  RPM Surface Min 
 RPMX.rpm               140.00:  RPM Surface Max 
 RRUN.                    0700:  Rig Run Number 
 SAZI.deg               183.25:  Azm, Start 
 SDEP.m                2084.00:  Start Depth 
 SIDD.                      No:  Serv Intrp, DD 
 SINC.deg                70.38:  Inc, Start 
 SPPA.psig             4800.00:  SPP Avg 
 SPPN.psig             4400.00:  SPP Min 
 SPPX.psig             5350.00:  SPP Max 
 STIM.      16.30.56 14-Apr-20:  Start Time 
 SVCS.                 DD, MWD:  Services 
 SVER.                    9.20:  Sperry Version 
 TDAT.m                1326.00:  Tot Depth Attmp 
 TDDF.                      No:  Trip for DD 
 TDLG.m                1326.00:  Tot Depth Loggd 
 TFF .                      No:  Trip for Fail 
 TQAA.f-kp               19.00:  Torque Abs Avg 
 TQAN.f-kp                8.00:  Torque Abs Min 
 TQAX.f-kp               27.00:  Torque Abs Max 
 TRRT.°/30m               0.50:  Turn Rotating 
 MRT .                    HCIM:  Maximum Recorded Temperature 
 TTMX.degC               82.35:  Max Tool Temp 
 VS01.       905245875X1Z1W1C8:  Virtual Str1 SN 
 VS02.       90608022F11V7D1A9:  Virtual Str2 SN 
 VS03.            90605473R5C9:  Virtual Str3 SN 
 WBMN.klb                11.00:  WOB Min 
 WOBA.klb                21.00:  WOB Avg 
 WOBX.klb                30.00:  WOB Max 
 YP  .lhf2               45.00:  Yield Point 
~Curve Information Block
#MNEM.UNIT                 API CODE     Curve Description
#---------               -----------    ---------------------------
 TIME.HHMMSS            00 000 000 000:  GT Time & Date
 GTDEPTH.m              00 000 000 000:  GT Depth
 GTPQH.psia             00 000 000 000:  GT HR Quartz Pressure
 GTTQ.degC              00 000 000 000:  GT Quartz Temperature
 GTTN.NONE              00 000 000 000:  GT Test Number
 GTET.sec               00 000 000 000:  GT Elapsed Test Time
 GTTVD.m                00 000 000 000:  GT True Vertical Depth
#Other Information
#
#WARRANTY: Halliburton will use its best efforts to furnish customers with 
#accurate information and interpretations that are part of, and incident to, the services 
#provided.  However, Halliburton cannot and does not warrant the accuracy 
#or correctness of such information and interpretations.  Under no circumstances should any 
#such information or interpretation be relied upon as the sole basis for any drilling, 
#completion, production, or financial decision or any procedure involving any risk to the 
#safety of any drilling venture, drilling rig or its crew or any other third party.  The 
#Customer has full responsibility for all drilling, completion and production operation.  
#Halliburton makes no representations or warranties, either expressed or 
#implied, including, but not limited to, the implied warranties of merchantability or fitness 
#for a particular purpose, with respect to the services rendered.  In no event will 
#Halliburton be liable for failure to obtain any particular results or for 
#any damages, including, but not limited to, indirect, special or consequential damages, 
#resulting from the use of any information or interpretation provided by Halliburton.
#
~A           TIME           GTDEPTH  GTPQH  GTTQ  GTTN  GTET   GTTVD  
# ...
   11:22:35.602.18-Apr-2020 3074.89 3315.65 69.09 4.00 253.03 1964.21
   11:22:35.802.18-Apr-2020 3074.89 3315.65 69.09 4.00 253.23 1964.21
   11:22:36.002.18-Apr-2020 3074.89 3315.68 69.09 4.00 253.43 1964.21
   11:22:36.203.18-Apr-2020 3074.89 3315.63 69.09 4.00 253.63 1964.21
   11:22:36.403.18-Apr-2020 3074.89 3315.69 69.09 4.00 253.83 1964.21
   11:22:36.603.18-Apr-2020 3074.89 3315.69 69.09 4.00 254.03 1964.21
   11:22:36.803.18-Apr-2020 3074.89 3315.69 69.09 4.00 254.23 1964.21
   11:22:37.003.18-Apr-2020 3074.89 3315.67 69.09 4.00 254.43 1964.21
   11:22:37.203.18-Apr-2020 3074.89 3315.67 69.09 4.00 254.63 1964.21
   11:22:37.403.18-Apr-2020 3074.89 3315.67 69.08 4.00 254.83 1964.21
   11:22:37.603.18-Apr-2020 3074.89 3315.67 69.08 4.00 255.03 1964.21
   11:22:37.803.18-Apr-2020 3074.89 3315.67 69.08 4.00 255.23 1964.21
   11:22:38.003.18-Apr-2020 3074.89 3315.67 69.08 4.00 255.43 1964.21
   11:22:38.203.18-Apr-2020 3074.89 3315.67 69.08 4.00 255.63 1964.21
   11:22:38.403.18-Apr-2020 3074.89 3315.67 69.08 4.00 255.83 1964.21
   11:22:38.603.18-Apr-2020 3074.89 3315.66 69.08 4.00 256.03 1964.21
   11:22:38.803.18-Apr-2020 3074.89 3315.66 69.08 4.00 256.23 1964.21
   11:22:39.003.18-Apr-2020 3074.89 3315.67 69.08 4.00 256.43 1964.21
   11:22:39.203.18-Apr-2020 3074.89 3315.66 69.08 4.00 256.63 1964.21
   11:22:39.403.18-Apr-2020 3074.89 3315.68 69.08 4.00 256.83 1964.21
   11:22:39.603.18-Apr-2020 3074.89 3315.67 69.08 4.00 257.03 1964.21
   11:22:39.803.18-Apr-2020 3074.89 3315.67 69.08 4.00 257.23 1964.21
   11:22:40.003.18-Apr-2020 3074.89 3315.67 69.07 4.00 257.43 1964.21
   11:22:40.203.18-Apr-2020 3074.89 3315.67 69.07 4.00 257.63 1964.21
   11:22:40.403.18-Apr-2020 3074.89 3315.66 69.07 4.00 257.83 1964.21
   11:22:40.603.18-Apr-2020 3074.89 3315.66 69.07 4.00 258.03 1964.21
   11:22:40.803.18-Apr-2020 3074.89 3315.66 69.07 4.00 258.23 1964.21
   11:22:41.003.18-Apr-2020 3074.89 3315.65 69.07 4.00 258.43 1964.21
   11:22:41.203.18-Apr-2020 3074.89 3315.65 69.07 4.00 258.63 1964.21
   11:22:41.403.18-Apr-2020 3074.89 3315.66 69.07 4.00 258.83 1964.21
   11:22:41.603.18-Apr-2020 3074.89 3315.66 69.07 4.00 259.03 1964.21
   11:22:41.803.18-Apr-2020 3074.89 3315.66 69.07 4.00 259.23 1964.21
   11:22:42.003.18-Apr-2020 3074.89 3315.67 69.06 4.00 259.43 1964.21
   11:22:42.203.18-Apr-2020 3074.89 3315.68 69.06 4.00 259.63 1964.21
   11:22:42.403.18-Apr-2020 3074.89 3315.64 69.06 4.00 259.83 1964.21
   11:22:42.603.18-Apr-2020 3074.89 3315.69 69.06 4.00 260.03 1964.21
   11:22:42.803.18-Apr-2020 3074.89 3315.69 69.06 4.00 260.23 1964.21
   11:22:43.003.18-Apr-2020 3074.89 3315.67 69.06 4.00 260.43 1964.21
   11:22:43.203.18-Apr-2020 3074.89 3315.66 69.06 4.00 260.63 1964.21
   11:22:43.403.18-Apr-2020 3074.89 3315.67 69.06 4.00 260.84 1964.21
   11:22:43.604.18-Apr-2020 3074.89 3315.66 69.06 4.00 261.04 1964.21
   11:22:43.804.18-Apr-2020 3074.89 3315.66 69.06 4.00 261.24 1964.21
   11:22:44.004.18-Apr-2020 3074.89 3315.67 69.06 4.00 261.44 1964.21
   11:22:44.204.18-Apr-2020 3074.89 3315.66 69.05 4.00 261.64 1964.21
   11:22:44.404.18-Apr-2020 3074.89 3315.66 69.05 4.00 261.84 1964.21
   11:22:44.604.18-Apr-2020 3074.89 3315.64 69.05 4.00 262.04 1964.21
   11:22:44.804.18-Apr-2020 3074.89 3315.64 69.05 4.00 262.24 1964.21
   11:22:45.004.18-Apr-2020 3074.89 3315.67 69.05 4.00 262.44 1964.21
   11:22:45.204.18-Apr-2020 3074.89 3315.64 69.05 4.00 262.64 1964.21
   11:22:45.404.18-Apr-2020 3074.89 3315.69 69.05 4.00 262.84 1964.21
   11:22:45.604.18-Apr-2020 3074.89 3315.68 69.05 4.00 263.04 1964.21
   11:22:45.804.18-Apr-2020 3074.89 3315.68 69.05 4.00 263.24 1964.21
   11:22:46.004.18-Apr-2020 3074.89 3315.68 69.05 4.00 263.44 1964.21
   11:22:46.204.18-Apr-2020 3074.89 3315.67 69.05 4.00 263.64 1964.21
   11:22:46.404.18-Apr-2020 3074.89 3315.68 69.04 4.00 263.84 1964.21
   11:22:46.604.18-Apr-2020 3074.89 3315.67 69.04 4.00 264.04 1964.21
   11:22:46.804.18-Apr-2020 3074.89 3315.67 69.04 4.00 264.24 1964.21
   11:22:47.004.18-Apr-2020 3074.89 3315.66 69.04 4.00 264.44 1964.21
   11:22:47.204.18-Apr-2020 3074.89 3315.67 69.04 4.00 264.64 1964.21
   11:22:47.404.18-Apr-2020 3074.89 3315.67 69.04 4.00 264.84 1964.21
   11:22:47.604.18-Apr-2020 3074.89 3315.67 69.04 4.00 265.04 1964.21
   11:22:47.804.18-Apr-2020 3074.89 3315.67 69.04 4.00 265.24 1964.21
   11:22:48.004.18-Apr-2020 3074.89 3315.66 69.04 4.00 265.44 1964.21
   11:22:48.204.18-Apr-2020 3074.89 3315.65 69.04 4.00 265.64 1964.21
   11:22:48.404.18-Apr-2020 3074.89 3315.68 69.04 4.00 265.84 1964.21
   11:22:48.604.18-Apr-2020 3074.89 3315.67 69.03 4.00 266.04 1964.21
   11:22:48.804.18-Apr-2020 3074.89 3315.67 69.03 4.00 266.24 1964.21
   11:22:49.004.18-Apr-2020 3074.89 3315.67 69.03 4.00 266.44 1964.21
   11:22:49.204.18-Apr-2020 3074.89 3315.66 69.03 4.00 266.64 1964.21
   11:22:49.404.18-Apr-2020 3074.89 3315.67 69.03 4.00 266.84 1964.21
   11:22:49.604.18-Apr-2020 3074.89 3315.66 69.03 4.00 267.04 1964.21
   11:22:49.804.18-Apr-2020 3074.89 3315.66 69.03 4.00 267.24 1964.21
   11:22:50.004.18-Apr-2020 3074.89 3315.66 69.03 4.00 267.44 1964.21
   11:22:50.204.18-Apr-2020 3074.89 3315.66 69.03 4.00 267.64 1964.21
   11:22:50.404.18-Apr-2020 3074.89 3315.68 69.03 4.00 267.84 1964.21
   11:22:50.604.18-Apr-2020 3074.89 3315.67 69.03 4.00 268.04 1964.21
   11:22:50.804.18-Apr-2020 3074.89 3315.67 69.03 4.00 268.24 1964.21
   11:22:51.004.18-Apr-2020 3074.89 3315.68 69.02 4.00 268.44 1964.21
   11:22:51.205.18-Apr-2020 3074.89 3315.67 69.02 4.00 268.64 1964.21
   11:22:51.405.18-Apr-2020 3074.89 3315.65 69.02 4.00 268.84 1964.21
   11:22:51.605.18-Apr-2020 3074.89 3315.68 69.02 4.00 269.04 1964.21
   11:22:51.805.18-Apr-2020 3074.89 3315.68 69.02 4.00 269.24 1964.21
   11:22:52.005.18-Apr-2020 3074.89 3315.68 69.02 4.00 269.44 1964.21
   11:22:52.205.18-Apr-2020 3074.89 3315.66 69.02 4.00 269.64 1964.21
   11:22:52.405.18-Apr-2020 3074.89 3315.66 69.02 4.00 269.84 1964.21
   11:22:52.605.18-Apr-2020 3074.89 3315.66 69.02 4.00 270.04 1964.21
   11:22:52.805.18-Apr-2020 3074.89 3315.66 69.02 4.00 270.24 1964.21
   11:22:53.005.18-Apr-2020 3074.89 3315.66 69.02 4.00 270.44 1964.21
   11:22:53.205.18-Apr-2020 3074.89 3315.66 69.01 4.00 270.64 1964.21
   11:22:53.405.18-Apr-2020 3074.89 3315.66 69.01 4.00 270.84 1964.21
   11:22:53.605.18-Apr-2020 3074.89 3315.64 69.01 4.00 271.04 1964.21
   11:22:53.805.18-Apr-2020 3074.89 3315.64 69.01 4.00 271.24 1964.21
   11:22:54.005.18-Apr-2020 3074.89 3315.68 69.01 4.00 271.44 1964.21
   11:22:54.205.18-Apr-2020 3074.89 3315.63 69.01 4.00 271.64 1964.21
   11:22:54.405.18-Apr-2020 3074.89 3315.70 69.01 4.00 271.84 1964.21
   11:22:54.605.18-Apr-2020 3074.89 3315.67 69.01 4.00 272.04 1964.21
   11:22:54.805.18-Apr-2020 3074.89 3315.67 69.01 4.00 272.24 1964.21
   11:22:55.005.18-Apr-2020 3074.89 3315.66 69.01 4.00 272.44 1964.21
   11:22:55.205.18-Apr-2020 3074.89 3315.67 69.01 4.00 272.64 1964.21
   11:22:55.405.18-Apr-2020 3074.89 3315.67 69.00 4.00 272.84 1964.21
   11:22:55.605.18-Apr-2020 3074.89 3315.66 69.00 4.00 273.04 1964.21
   11:22:55.805.18-Apr-2020 3074.89 3315.66 69.00 4.00 273.24 1964.21
   11:22:56.005.18-Apr-2020 3074.89 3315.66 69.00 4.00 273.44 1964.21
   11:22:56.205.18-Apr-2020 3074.89 3315.66 69.00 4.00 273.64 1964.21
   11:22:56.405.18-Apr-2020 3074.89 3315.67 69.00 4.00 273.84 1964.21
   11:22:56.605.18-Apr-2020 3074.89 3315.65 69.00 4.00 274.04 1964.21
   11:22:56.805.18-Apr-2020 3074.89 3315.65 69.00 4.00 274.24 1964.21
   11:22:57.005.18-Apr-2020 3074.89 3315.65 69.00 4.00 274.44 1964.21
   11:22:57.205.18-Apr-2020 3074.89 3315.65 69.00 4.00 274.64 1964.21
   11:22:57.405.18-Apr-2020 3074.89 3315.67 69.00 4.00 274.84 1964.21
   11:22:57.605.18-Apr-2020 3074.89 3315.66 69.00 4.00 275.04 1964.21
   11:22:57.805.18-Apr-2020 3074.89 3315.66 69.00 4.00 275.24 1964.21
   11:22:58.005.18-Apr-2020 3074.89 3315.65 68.99 4.00 275.44 1964.21
   11:22:58.205.18-Apr-2020 3074.89 3315.65 68.99 4.00 275.64 1964.21
   11:22:58.405.18-Apr-2020 3074.89 3315.66 68.99 4.00 275.84 1964.21
