~Version Information
 VERS.                  2.0:   CWLS log ASCII Standard -VERSION 2.0
 WRAP.                   NO:   One line per depth step
~Well Information Block
#MNEM.UNIT     VALUE/NAME     DESCRIPTION
#---------     -----------    ---------------------------
 STRT.S             11:18:22 18-Apr-20: START TIME 11:18:22 18-Apr-20
 STOP.S             11:25:23 18-Apr-20: STOP TIME  11:25:23 18-Apr-20
 STEP.S                   0.00: STEP TIME
 NULL.                 -999.25: NULL VALUE
 DFWT.                        :  DIST FWL TEXT
 DFST.                        :  DIST FSL TEXT
 DMF .                        :  DRILL MEAS FROM
 STIM.      16.29.52 23-Mar-20:  START TIME
 DATE.      16.29.52 23-Mar-20:  END TIME
 SPUD.               23-Mar-20:  SPUD DATE
 NREF.                    Grid:  NORTH REFERENCE
 HPTY.       Minimum Curvature:  HOLE POS TYPE
 DMOD.             Drill Model:  DRILL MOD DESC
 SVYD.                  Survey:  SURVEY DESC
 ILTD.               Lithology:  INTERP LTH DESC
 FTOP.          Formation Tops:  FORM TOPS DESC
 SON .        AZ-XX-0906252240:  JOB NUMBER
 RIG .             West Chirag:  RIG NAME
 PDAT.          Mean Sea Level:  PERMANENT DATUM
 FLD .                     ACG:  FIELD NAME
 CTRY.              Azerbaijan:  COUNTRY NAME
 WELL.           J23 (Slot 07):  WELL NAME
 SRVC.          Turan Drilling:  CONTRACTOR
 COMP.     BP Exploration (Casoian Sea) Ltd:  COMPANY
 WTYP.                Deviated:  WELL TYPE
 MDS .        Operator Entered:  MAG DATA SOURCE
 UWI .                     N/A:  UNIQUE WELL IDENTIFIER
 API .                     N/A:  API NUMBER
 BASE.              Azerbaijan:  LOGGING EQUIPMENT BASE LOCATION
 REGN.                   EESSA:  REGION
 PROV.                    Baku:  PROVINCE
 STAT.                    Baku:  STATE NAME
 MWDS.                     N/A:  MWD SHOP
 JOBN.        AZ-XX-0906252240:  JOB TICKET NUMB
 DOE .                     N/A:  DOE NUMBER
 DCON.         Sperry Drilling:  DIRECTNL CONTR
 UNIT.                     N/A:  LOGGING EQUIPMENT ID
 CNTY.                        :  COUNTY
 LOC .                        :  LOCATION
 LMF .             Drill Floor:  LOG MEASURED FROM
 TVDS.m                  43.00:  TVDSS CORRECTN
 LATI.deg                40.13:  LATITUDE
 LONG.deg                51.22:  LONGITUDE
 WHNS.m                   9.43:  WELL HEAD N/S
 WHEW.m                  -8.91:  WELL HEAD E/W
 UTMX.m              519005.06:  UTM X
 UTMY.m             4443793.85:  UTM Y
 DFWL.m                   0.00:  DISTANCE FWL
 DFSL.m                   0.00:  DISTANCE FSL
 SDEP.m                   0.00:  START DEPTH
 TDD .m                   0.00:  TOTAL DEPTH (DRILLER)
 VSDR.deg               179.88:  VERT SEC DIRECT
 GVFD.g                   1.00:  GRAVITY FIELD
 MFLD.nT              50281.00:  MAGNETIC FIELD
 MDIP.deg                59.58:  MAGNETIC DIP
 MDEC.deg                 6.48:  MAGNETIC DECL
 GRDC.deg                 0.14:  GRID CORRECTION
 AZTC.deg                 6.34:  AZM TOTAL CORR
 EPD .m                   0.00:  ELEVATION
 EGL .m                   0.00:  GROUND ELEVATION
 WDMS.m                 169.80:  WD ELEV
 APD .m                  43.00:  DEPTH ABOVE PD
 DEP .m                 354.17:  DEPTH
 AGAP.m                  43.00:  AIR GAP
 VSEW.m                  -8.91:  VERT SEC E/W
 VSNS.m                   9.43:  VERT SEC N/S
 EKB .m                   0.00:  KB ELEVATION
 EDF .m                  43.00:  DF ELEVATION
 TDL .m                1326.00:  TOTAL DEPTH (LOGGER)
 VSC .                       0:  VS TO CLOSURE
 MAGU.                 1850704:  MAGUTM CHECKSUM
~Parameter Information Block
#MNEM.UNIT       Value        Description
#---------     -----------    ---------------------------
 AV  .mps                 1.17:  Ann Velocity 
 AZIF.deg               184.04:  Azm, Final 
 BHAT.        Rotary Steerable:  BHA Type 
 BREV.rev            620000.00:  Rev Bit Total 
 BROT.°/30m               0.20:  Build Rotating 
 BS  .in                 14.75:  Bit Size 
 BSZ .in                 14.75:  Bit Size 
 BTPL.psig              618.00:  Bit Press Loss 
 CABU.                      No:  Customer Abuse 
 TCS .hr                 87.68:  Time Ciculation Ended 
 CV  .mps                 3.10:  Crit Velocity 
 DD1 .          Rashad Habibov:  Direct Drillr 1 
 DD2 .         Rasim Ibrahimov:  Direct Drillr 2 
 DDSV.               Geo-Pilot:  DD Service 
 DEFF.%                  98.00:  % Det Eff 
 DLRX.°/30m               1.48:  Dogleg Rot Max 
 DLSO.°/30m               0.50:  Dogleg Oriented 
 DLSX.°/30m               1.48:  Dogleg Str Max 
 DRET.      06.18.56 19-Apr-20:  Drill End Time 
 DRST.      15.00.56 15-Apr-20:  Drill Start Tim 
 DTIM.hr                 51.73:  Time Drilling 
 EDEP.m                3410.01:  End Depth 
 ENG1.        Marcelo Sandoval:  Engineer 1 
 ENG2.        Davud Huseynzade:  Engineer 2 
 ENG3.          Ruslan Safarov:  Engineer 3 
 ETIM.      04.00.56 20-Apr-20:  End Time 
 FLOI.gpm              1000.00:  Flow In 
 FLON.gpm               600.00:  Flow In Min 
 FLOS.cptm                0.00:  Fluid Loss 
 FLOX.gpm              1200.00:  Flow In Max 
 HFLO.                      No:  High Flow 
 HPRE.                     Yes:  High Pressure 
 HTEM.                      No:  High Temp 
 HYDO.m                   1.80:  Hydro Offset 
 IFIN.deg                70.04:  Inc, Final 
 IMAX.deg                70.56:  Inc Max 
 IMIN.deg                69.85:  Inc Min 
 IMND.m                3103.24:  Inc Min Depth 
 IMXD.m                2876.63:  Inc Max Depth 
 JARR.                      No:  Jarring 
 LETM.      06.18.56 19-Apr-20:  Log End Time 
 LOST.hr                     0:  Lost Rig Time 
 LSTM.      15.00.56 15-Apr-20:  Log Start Time 
 MDCL.ppm             42000.00:  Mud Chlorides 
 MDES.     Inversion Oil/Synthetic:  Mud Desc 
 DFD .sg                  1.58:  Mud Density 
 MDMN.sg                  1.58:  Dens Mud Min 
 MDMX.sg                  1.58:  Dens Mud Max 
 MOIL.                      71:  Run Mud Oil % 
 MOWR.                   71:29:  Run Mud OWR 
 MSND.                       0:  Run Mud Sand % 
 MSOL.                    23.3:  Run Mud Solids% 
 DFV .spqt               84.00:  Mud Viscosity 
 MWOD.in                  9.50:  MWD Tool OD 
 MWSI.                      No:  Serv Intrp, MWD 
 OTIM.hr                139.62:  Time Operating 
 PMAX.psia             5364.69:  Press Op, Max 
 PV  .cP                 80.00:  Mud PV 
 RUN .                     700:  Run Number 
 ROPA.m/hr               25.00:  ROP Avg 
 ROPN.m/hr               11.00:  ROP Min 
 ROPX.m/hr               36.00:  ROP Max 
 RPMA.rpm               130.00:  RPM Surface Avg 
 RPMN.rpm               120.00:  RPM Surface Min 
 RPMX.rpm               140.00:  RPM Surface Max 
 RRUN.                    0700:  Rig Run Number 
 SAZI.deg               183.25:  Azm, Start 
 SDEP.m                2084.00:  Start Depth 
 SIDD.                      No:  Serv Intrp, DD 
 SINC.deg                70.38:  Inc, Start 
 SPPA.psig             4800.00:  SPP Avg 
 SPPN.psig             4400.00:  SPP Min 
 SPPX.psig             5350.00:  SPP Max 
 STIM.      16.30.56 14-Apr-20:  Start Time 
 SVCS.                 DD, MWD:  Services 
 SVER.                    9.20:  Sperry Version 
 TDAT.m                1326.00:  Tot Depth Attmp 
 TDDF.                      No:  Trip for DD 
 TDLG.m                1326.00:  Tot Depth Loggd 
 TFF .                      No:  Trip for Fail 
 TQAA.f-kp               19.00:  Torque Abs Avg 
 TQAN.f-kp                8.00:  Torque Abs Min 
 TQAX.f-kp               27.00:  Torque Abs Max 
 TRRT.°/30m               0.50:  Turn Rotating 
 MRT .                    HCIM:  Maximum Recorded Temperature 
 TTMX.degC               82.35:  Max Tool Temp 
 VS01.       905245875X1Z1W1C8:  Virtual Str1 SN 
 VS02.       90608022F11V7D1A9:  Virtual Str2 SN 
 VS03.            90605473R5C9:  Virtual Str3 SN 
 WBMN.klb                11.00:  WOB Min 
 WOBA.klb                21.00:  WOB Avg 
 WOBX.klb                30.00:  WOB Max 
 YP  .lhf2               45.00:  Yield Point 
~Curve Information Block
#MNEM.UNIT                 API CODE     Curve Description
#---------               -----------    ---------------------------
 TIME.HHMMSS            00 000 000 000:  GT Time & Date
 GTDEPTH.m              00 000 000 000:  GT Depth
 GTPQH.psia             00 000 000 000:  GT HR Quartz Pressure
 GTTQ.degC              00 000 000 000:  GT Quartz Temperature
 GTTN.NONE              00 000 000 000:  GT Test Number
 GTET.sec               00 000 000 000:  GT Elapsed Test Time
 GTTVD.m                00 000 000 000:  GT True Vertical Depth
#Other Information
#
#WARRANTY: Halliburton will use its best efforts to furnish customers with 
#accurate information and interpretations that are part of, and incident to, the services 
#provided.  However, Halliburton cannot and does not warrant the accuracy 
#or correctness of such information and interpretations.  Under no circumstances should any 
#such information or interpretation be relied upon as the sole basis for any drilling, 
#completion, production, or financial decision or any procedure involving any risk to the 
#safety of any drilling venture, drilling rig or its crew or any other third party.  The 
#Customer has full responsibility for all drilling, completion and production operation.  
#Halliburton makes no representations or warranties, either expressed or 
#implied, including, but not limited to, the implied warranties of merchantability or fitness 
#for a particular purpose, with respect to the services rendered.  In no event will 
#Halliburton be liable for failure to obtain any particular results or for 
#any damages, including, but not limited to, indirect, special or consequential damages, 
#resulting from the use of any information or interpretation provided by Halliburton.
#
~A           TIME           GTDEPTH  GTPQH  GTTQ  GTTN  GTET   GTTVD  
# ...
   11:18:45.572.18-Apr-2020 3074.89 4506.70 70.12 4.00  23.00 1964.21
   11:18:45.772.18-Apr-2020 3074.89 4506.70 70.12 4.00  23.20 1964.21
   11:18:45.972.18-Apr-2020 3074.89 4503.73 70.12 4.00  23.40 1964.21
   11:18:46.172.18-Apr-2020 3074.89 4507.27 70.12 4.00  23.60 1964.21
   11:18:46.372.18-Apr-2020 3074.89 4506.59 70.11 4.00  23.80 1964.21
   11:18:46.572.18-Apr-2020 3074.89 4507.45 70.11 4.00  24.00 1964.21
   11:18:46.772.18-Apr-2020 3074.89 4507.45 70.11 4.00  24.20 1964.21
   11:18:46.972.18-Apr-2020 3074.89 4507.91 70.11 4.00  24.40 1964.21
   11:18:47.172.18-Apr-2020 3074.89 4507.73 70.11 4.00  24.60 1964.21
   11:18:47.372.18-Apr-2020 3074.89 4508.08 70.11 4.00  24.80 1964.21
   11:18:47.572.18-Apr-2020 3074.89 4508.22 70.11 4.00  25.00 1964.21
   11:18:47.772.18-Apr-2020 3074.89 4508.22 70.11 4.00  25.20 1964.21
   11:18:47.972.18-Apr-2020 3074.89 4507.81 70.11 4.00  25.40 1964.21
   11:18:48.172.18-Apr-2020 3074.89 4507.86 70.11 4.00  25.60 1964.21
   11:18:48.372.18-Apr-2020 3074.89 4508.62 70.11 4.00  25.80 1964.21
   11:18:48.572.18-Apr-2020 3074.89 4508.35 70.10 4.00  26.00 1964.21
   11:18:48.772.18-Apr-2020 3074.89 4508.35 70.10 4.00  26.20 1964.21
   11:18:48.972.18-Apr-2020 3074.89 4509.21 70.10 4.00  26.40 1964.21
   11:18:49.172.18-Apr-2020 3074.89 4509.33 70.10 4.00  26.60 1964.21
   11:18:49.372.18-Apr-2020 3074.89 4507.57 70.10 4.00  26.80 1964.21
   11:18:49.572.18-Apr-2020 3074.89 4509.93 70.10 4.00  27.00 1964.21
   11:18:49.772.18-Apr-2020 3074.89 4509.93 70.10 4.00  27.20 1964.21
   11:18:49.972.18-Apr-2020 3074.89 4509.92 70.10 4.00  27.40 1964.21
   11:18:50.172.18-Apr-2020 3074.89 4510.10 70.10 4.00  27.60 1964.21
   11:18:50.372.18-Apr-2020 3074.89 4507.36 70.10 4.00  27.80 1964.21
   11:18:50.572.18-Apr-2020 3074.89 4510.42 70.10 4.00  28.00 1964.21
   11:18:50.772.18-Apr-2020 3074.89 4510.42 70.10 4.00  28.20 1964.21
   11:18:50.972.18-Apr-2020 3074.89 4509.50 70.09 4.00  28.40 1964.21
   11:18:51.172.18-Apr-2020 3074.89 4507.24 70.09 4.00  28.60 1964.21
   11:18:51.372.18-Apr-2020 3074.89 4509.06 70.09 4.00  28.80 1964.21
   11:18:51.572.18-Apr-2020 3074.89 4509.28 70.09 4.00  29.00 1964.21
   11:18:51.772.18-Apr-2020 3074.89 4509.72 70.09 4.00  29.20 1964.21
   11:18:51.972.18-Apr-2020 3074.89 4509.38 70.09 4.00  29.40 1964.21
   11:18:52.172.18-Apr-2020 3074.89 4509.63 70.09 4.00  29.60 1964.21
   11:18:52.372.18-Apr-2020 3074.89 4507.32 70.09 4.00  29.80 1964.21
   11:18:52.572.18-Apr-2020 3074.89 4510.15 70.09 4.00  30.00 1964.21
   11:18:52.773.18-Apr-2020 3074.89 4510.15 70.09 4.00  30.20 1964.21
   11:18:52.973.18-Apr-2020 3074.89 4510.46 70.08 4.00  30.40 1964.21
   11:18:53.173.18-Apr-2020 3074.89 4510.73 70.08 4.00  30.60 1964.21
   11:18:53.373.18-Apr-2020 3074.89 4510.44 70.08 4.00  30.80 1964.21
   11:18:53.573.18-Apr-2020 3074.89 4510.22 70.08 4.00  31.00 1964.21
   11:18:53.773.18-Apr-2020 3074.89 4510.22 70.08 4.00  31.20 1964.21
   11:18:53.973.18-Apr-2020 3074.89 4509.14 70.08 4.00  31.40 1964.21
   11:18:54.173.18-Apr-2020 3074.89 4509.29 70.08 4.00  31.60 1964.21
   11:18:54.373.18-Apr-2020 3074.89 4509.28 70.08 4.00  31.80 1964.21
   11:18:54.573.18-Apr-2020 3074.89 4509.16 70.08 4.00  32.00 1964.21
   11:18:54.773.18-Apr-2020 3074.89 4509.16 70.08 4.00  32.20 1964.21
   11:18:54.973.18-Apr-2020 3074.89 4508.41 70.08 4.00  32.40 1964.21
   11:18:55.173.18-Apr-2020 3074.89 4505.97 70.07 4.00  32.60 1964.21
   11:18:55.373.18-Apr-2020 3074.89 4509.49 70.07 4.00  32.80 1964.21
   11:18:55.573.18-Apr-2020 3074.89 4509.76 70.07 4.00  33.00 1964.21
   11:18:55.773.18-Apr-2020 3074.89 4509.76 70.07 4.00  33.20 1964.21
   11:18:55.973.18-Apr-2020 3074.89 4508.98 70.07 4.00  33.40 1964.21
   11:18:56.173.18-Apr-2020 3074.89 4508.86 70.07 4.00  33.60 1964.21
   11:18:56.373.18-Apr-2020 3074.89 4508.77 70.06 4.00  33.80 1964.21
   11:18:56.573.18-Apr-2020 3074.89 4509.26 70.06 4.00  34.00 1964.21
   11:18:56.773.18-Apr-2020 3074.89 4509.26 70.06 4.00  34.20 1964.21
   11:18:56.973.18-Apr-2020 3074.89 4506.48 70.06 4.00  34.40 1964.21
   11:18:57.173.18-Apr-2020 3074.89 4508.70 70.06 4.00  34.60 1964.21
   11:18:57.373.18-Apr-2020 3074.89 4508.65 70.06 4.00  34.80 1964.21
   11:18:57.573.18-Apr-2020 3074.89 4506.52 70.06 4.00  35.00 1964.21
   11:18:57.773.18-Apr-2020 3074.89 4506.52 70.06 4.00  35.20 1964.21
   11:18:57.973.18-Apr-2020 3074.89 4507.93 70.06 4.00  35.40 1964.21
   11:18:58.173.18-Apr-2020 3074.89 4508.47 70.06 4.00  35.60 1964.21
   11:18:58.373.18-Apr-2020 3074.89 4508.53 70.06 4.00  35.80 1964.21
   11:18:58.573.18-Apr-2020 3074.89 4505.59 70.05 4.00  36.00 1964.21
   11:18:58.773.18-Apr-2020 3074.89 4508.55 70.05 4.00  36.20 1964.21
   11:18:58.973.18-Apr-2020 3074.89 4507.43 70.05 4.00  36.40 1964.21
   11:18:59.173.18-Apr-2020 3074.89 4507.76 70.05 4.00  36.60 1964.21
   11:18:59.373.18-Apr-2020 3074.89 4504.56 70.05 4.00  36.80 1964.21
   11:18:59.573.18-Apr-2020 3074.89 4507.66 70.05 4.00  37.00 1964.21
   11:18:59.773.18-Apr-2020 3074.89 4507.66 70.05 4.00  37.20 1964.21
   11:18:59.973.18-Apr-2020 3074.89 4507.98 70.05 4.00  37.41 1964.21
   11:19:00.174.18-Apr-2020 3074.89 4507.14 70.05 4.00  37.61 1964.21
   11:19:00.374.18-Apr-2020 3074.89 4505.24 70.05 4.00  37.81 1964.21
   11:19:00.574.18-Apr-2020 3074.89 4507.51 70.05 4.00  38.01 1964.21
   11:19:00.774.18-Apr-2020 3074.89 4507.51 70.05 4.00  38.21 1964.21
   11:19:00.974.18-Apr-2020 3074.89 4508.18 70.04 4.00  38.41 1964.21
   11:19:01.174.18-Apr-2020 3074.89 4508.12 70.04 4.00  38.61 1964.21
   11:19:01.374.18-Apr-2020 3074.89 4508.60 70.04 4.00  38.81 1964.21
   11:19:01.574.18-Apr-2020 3074.89 4508.25 70.04 4.00  39.01 1964.21
   11:19:01.774.18-Apr-2020 3074.89 4508.25 70.04 4.00  39.21 1964.21
   11:19:01.974.18-Apr-2020 3074.89 4507.52 70.04 4.00  39.41 1964.21
   11:19:02.174.18-Apr-2020 3074.89 4507.12 70.04 4.00  39.61 1964.21
   11:19:02.374.18-Apr-2020 3074.89 4507.49 70.04 4.00  39.81 1964.21
   11:19:02.574.18-Apr-2020 3074.89 4507.52 70.04 4.00  40.01 1964.21
   11:19:02.774.18-Apr-2020 3074.89 4507.56 70.04 4.00  40.21 1964.21
   11:19:02.974.18-Apr-2020 3074.89 4507.07 70.03 4.00  40.41 1964.21
   11:19:03.174.18-Apr-2020 3074.89 4506.86 70.03 4.00  40.61 1964.21
   11:19:03.374.18-Apr-2020 3074.89 4505.54 70.03 4.00  40.81 1964.21
   11:19:03.574.18-Apr-2020 3074.89 4507.74 70.03 4.00  41.01 1964.21
   11:19:03.774.18-Apr-2020 3074.89 4507.74 70.03 4.00  41.21 1964.21
   11:19:03.974.18-Apr-2020 3074.89 4508.75 70.03 4.00  41.41 1964.21
   11:19:04.174.18-Apr-2020 3074.89 4508.85 70.03 4.00  41.61 1964.21
   11:19:04.374.18-Apr-2020 3074.89 4508.63 70.03 4.00  41.81 1964.21
   11:19:04.574.18-Apr-2020 3074.89 4508.77 70.03 4.00  42.01 1964.21
   11:19:04.774.18-Apr-2020 3074.89 4508.77 70.03 4.00  42.21 1964.21
   11:19:04.974.18-Apr-2020 3074.89 4508.47 70.03 4.00  42.41 1964.21
   11:19:05.174.18-Apr-2020 3074.89 4508.31 70.02 4.00  42.61 1964.21
   11:19:05.374.18-Apr-2020 3074.89 4508.36 70.02 4.00  42.81 1964.21
   11:19:05.574.18-Apr-2020 3074.89 4508.26 70.02 4.00  43.01 1964.21
   11:19:05.774.18-Apr-2020 3074.89 4508.26 70.02 4.00  43.21 1964.21
   11:19:05.974.18-Apr-2020 3074.89 4508.16 70.02 4.00  43.41 1964.21
   11:19:06.174.18-Apr-2020 3074.89 4508.60 70.02 4.00  43.61 1964.21
   11:19:06.374.18-Apr-2020 3074.89 4506.50 70.02 4.00  43.81 1964.21
   11:19:06.574.18-Apr-2020 3074.89 4509.41 70.02 4.00  44.01 1964.21
   11:19:06.774.18-Apr-2020 3074.89 4509.41 70.02 4.00  44.21 1964.21
   11:19:06.974.18-Apr-2020 3074.89 4508.29 70.02 4.00  44.41 1964.21
   11:19:07.174.18-Apr-2020 3074.89 4507.50 70.02 4.00  44.61 1964.21
   11:19:07.374.18-Apr-2020 3074.89 4509.08 70.01 4.00  44.81 1964.21
   11:19:07.574.18-Apr-2020 3074.89 4509.15 70.01 4.00  45.01 1964.21
   11:19:07.775.18-Apr-2020 3074.89 4509.15 70.01 4.00  45.21 1964.21
   11:19:07.975.18-Apr-2020 3074.89 4509.43 70.01 4.00  45.41 1964.21
   11:19:08.175.18-Apr-2020 3074.89 4508.33 70.01 4.00  45.61 1964.21
   11:19:08.375.18-Apr-2020 3074.89 4505.97 70.01 4.00  45.81 1964.21
