~Version Information
 VERS.                  2.0:   CWLS log ASCII Standard -VERSION 2.0
 WRAP.                   NO:   One line per depth step
~Well Information Block
#MNEM.UNIT     VALUE/NAME     DESCRIPTION
#---------     -----------    ---------------------------
 STRT.S             13:35:33 18-Apr-20: START TIME 13:35:33 18-Apr-20
 STOP.S             13:42:31 18-Apr-20: STOP TIME  13:42:31 18-Apr-20
 STEP.S                   0.00: STEP TIME
 NULL.                 -999.25: NULL VALUE
 DFWT.                        :  DIST FWL TEXT
 DFST.                        :  DIST FSL TEXT
 DMF .                        :  DRILL MEAS FROM
 STIM.      16.29.52 23-Mar-20:  START TIME
 DATE.      16.29.52 23-Mar-20:  END TIME
 SPUD.               23-Mar-20:  SPUD DATE
 NREF.                    Grid:  NORTH REFERENCE
 HPTY.       Minimum Curvature:  HOLE POS TYPE
 DMOD.             Drill Model:  DRILL MOD DESC
 SVYD.                  Survey:  SURVEY DESC
 ILTD.               Lithology:  INTERP LTH DESC
 FTOP.          Formation Tops:  FORM TOPS DESC
 SON .        AZ-XX-0906252240:  JOB NUMBER
 RIG .             West Chirag:  RIG NAME
 PDAT.          Mean Sea Level:  PERMANENT DATUM
 FLD .                     ACG:  FIELD NAME
 CTRY.              Azerbaijan:  COUNTRY NAME
 WELL.           J23 (Slot 07):  WELL NAME
 SRVC.          Turan Drilling:  CONTRACTOR
 COMP.     BP Exploration (Casoian Sea) Ltd:  COMPANY
 WTYP.                Deviated:  WELL TYPE
 MDS .        Operator Entered:  MAG DATA SOURCE
 UWI .                     N/A:  UNIQUE WELL IDENTIFIER
 API .                     N/A:  API NUMBER
 BASE.              Azerbaijan:  LOGGING EQUIPMENT BASE LOCATION
 REGN.                   EESSA:  REGION
 PROV.                    Baku:  PROVINCE
 STAT.                    Baku:  STATE NAME
 MWDS.                     N/A:  MWD SHOP
 JOBN.        AZ-XX-0906252240:  JOB TICKET NUMB
 DOE .                     N/A:  DOE NUMBER
 DCON.         Sperry Drilling:  DIRECTNL CONTR
 UNIT.                     N/A:  LOGGING EQUIPMENT ID
 CNTY.                        :  COUNTY
 LOC .                        :  LOCATION
 LMF .             Drill Floor:  LOG MEASURED FROM
 TVDS.m                  43.00:  TVDSS CORRECTN
 LATI.deg                40.13:  LATITUDE
 LONG.deg                51.22:  LONGITUDE
 WHNS.m                   9.43:  WELL HEAD N/S
 WHEW.m                  -8.91:  WELL HEAD E/W
 UTMX.m              519005.06:  UTM X
 UTMY.m             4443793.85:  UTM Y
 DFWL.m                   0.00:  DISTANCE FWL
 DFSL.m                   0.00:  DISTANCE FSL
 SDEP.m                   0.00:  START DEPTH
 TDD .m                   0.00:  TOTAL DEPTH (DRILLER)
 VSDR.deg               179.88:  VERT SEC DIRECT
 GVFD.g                   1.00:  GRAVITY FIELD
 MFLD.nT              50281.00:  MAGNETIC FIELD
 MDIP.deg                59.58:  MAGNETIC DIP
 MDEC.deg                 6.48:  MAGNETIC DECL
 GRDC.deg                 0.14:  GRID CORRECTION
 AZTC.deg                 6.34:  AZM TOTAL CORR
 EPD .m                   0.00:  ELEVATION
 EGL .m                   0.00:  GROUND ELEVATION
 WDMS.m                 169.80:  WD ELEV
 APD .m                  43.00:  DEPTH ABOVE PD
 DEP .m                 354.17:  DEPTH
 AGAP.m                  43.00:  AIR GAP
 VSEW.m                  -8.91:  VERT SEC E/W
 VSNS.m                   9.43:  VERT SEC N/S
 EKB .m                   0.00:  KB ELEVATION
 EDF .m                  43.00:  DF ELEVATION
 TDL .m                1326.00:  TOTAL DEPTH (LOGGER)
 VSC .                       0:  VS TO CLOSURE
 MAGU.                 1850704:  MAGUTM CHECKSUM
~Parameter Information Block
#MNEM.UNIT       Value        Description
#---------     -----------    ---------------------------
 AV  .mps                 1.17:  Ann Velocity 
 AZIF.deg               184.04:  Azm, Final 
 BHAT.        Rotary Steerable:  BHA Type 
 BREV.rev            620000.00:  Rev Bit Total 
 BROT.°/30m               0.20:  Build Rotating 
 BS  .in                 14.75:  Bit Size 
 BSZ .in                 14.75:  Bit Size 
 BTPL.psig              618.00:  Bit Press Loss 
 CABU.                      No:  Customer Abuse 
 COMM.                     ôÎT:  Run Comments 1 
 TCS .hr                 87.68:  Time Ciculation Ended 
 CV  .mps                 3.10:  Crit Velocity 
 DD1 .          Rashad Habibov:  Direct Drillr 1 
 DD2 .         Rasim Ibrahimov:  Direct Drillr 2 
 DDSV.               Geo-Pilot:  DD Service 
 DEFF.%                  98.00:  % Det Eff 
 DLRX.°/30m               1.48:  Dogleg Rot Max 
 DLSO.°/30m               0.50:  Dogleg Oriented 
 DLSX.°/30m               1.48:  Dogleg Str Max 
 DRET.      06.18.56 19-Apr-20:  Drill End Time 
 DRST.      15.00.56 15-Apr-20:  Drill Start Tim 
 DTIM.hr                 51.73:  Time Drilling 
 EDEP.m                3410.01:  End Depth 
 ENG1.        Marcelo Sandoval:  Engineer 1 
 ENG2.        Davud Huseynzade:  Engineer 2 
 ENG3.          Ruslan Safarov:  Engineer 3 
 ETIM.      04.00.56 20-Apr-20:  End Time 
 FLOI.gpm              1000.00:  Flow In 
 FLON.gpm               600.00:  Flow In Min 
 FLOS.cptm                0.00:  Fluid Loss 
 FLOX.gpm              1200.00:  Flow In Max 
 HFLO.                      No:  High Flow 
 HPRE.                     Yes:  High Pressure 
 HTEM.                      No:  High Temp 
 HYDO.m                   1.80:  Hydro Offset 
 IFIN.deg                70.04:  Inc, Final 
 IMAX.deg                70.56:  Inc Max 
 IMIN.deg                69.85:  Inc Min 
 IMND.m                3103.24:  Inc Min Depth 
 IMXD.m                2876.63:  Inc Max Depth 
 JARR.                      No:  Jarring 
 LETM.      06.18.56 19-Apr-20:  Log End Time 
 LOST.hr                     0:  Lost Rig Time 
 LSTM.      15.00.56 15-Apr-20:  Log Start Time 
 MDCL.ppm             42000.00:  Mud Chlorides 
 MDES.     Inversion Oil/Synthetic:  Mud Desc 
 DFD .sg                  1.58:  Mud Density 
 MDMN.sg                  1.58:  Dens Mud Min 
 MDMX.sg                  1.58:  Dens Mud Max 
 MOIL.                      71:  Run Mud Oil % 
 MOWR.                   71:29:  Run Mud OWR 
 MSND.                       0:  Run Mud Sand % 
 MSOL.                    23.3:  Run Mud Solids% 
 DFV .spqt               84.00:  Mud Viscosity 
 MWOD.in                  9.50:  MWD Tool OD 
 MWSI.                      No:  Serv Intrp, MWD 
 OTIM.hr                139.62:  Time Operating 
 PMAX.psia             5364.69:  Press Op, Max 
 PV  .cP                 80.00:  Mud PV 
 RUN .                     700:  Run Number 
 ROPA.m/hr               25.00:  ROP Avg 
 ROPN.m/hr               11.00:  ROP Min 
 ROPX.m/hr               36.00:  ROP Max 
 RPMA.rpm               130.00:  RPM Surface Avg 
 RPMN.rpm               120.00:  RPM Surface Min 
 RPMX.rpm               140.00:  RPM Surface Max 
 RRUN.                    0700:  Rig Run Number 
 SAZI.deg               183.25:  Azm, Start 
 SDEP.m                2084.00:  Start Depth 
 SIDD.                      No:  Serv Intrp, DD 
 SINC.deg                70.38:  Inc, Start 
 SPPA.psig             4800.00:  SPP Avg 
 SPPN.psig             4400.00:  SPP Min 
 SPPX.psig             5350.00:  SPP Max 
 STIM.      16.30.56 14-Apr-20:  Start Time 
 SVCS.                 DD, MWD:  Services 
 SVER.                    9.20:  Sperry Version 
 TDAT.m                1326.00:  Tot Depth Attmp 
 TDDF.                      No:  Trip for DD 
 TDLG.m                1326.00:  Tot Depth Loggd 
 TFF .                      No:  Trip for Fail 
 TQAA.f-kp               19.00:  Torque Abs Avg 
 TQAN.f-kp                8.00:  Torque Abs Min 
 TQAX.f-kp               27.00:  Torque Abs Max 
 TRRT.°/30m               0.50:  Turn Rotating 
 MRT .                    HCIM:  Maximum Recorded Temperature 
 TTMX.degC               82.35:  Max Tool Temp 
 VS01.       905245875X1Z1W1C8:  Virtual Str1 SN 
 VS02.       90608022F11V7D1A9:  Virtual Str2 SN 
 VS03.            90605473R5C9:  Virtual Str3 SN 
 WBMN.klb                11.00:  WOB Min 
 WOBA.klb                21.00:  WOB Avg 
 WOBX.klb                30.00:  WOB Max 
 YP  .lhf2               45.00:  Yield Point 
~Curve Information Block
#MNEM.UNIT                 API CODE     Curve Description
#---------               -----------    ---------------------------
 TIME.HHMMSS            00 000 000 000:  GT Time & Date
 GTDEPTH.m              00 000 000 000:  GT Depth
 GTPQH.psia             00 000 000 000:  GT HR Quartz Pressure
 GTTQ.degC              00 000 000 000:  GT Quartz Temperature
 GTTN.NONE              00 000 000 000:  GT Test Number
 GTET.sec               00 000 000 000:  GT Elapsed Test Time
 GTTVD.m                00 000 000 000:  GT True Vertical Depth
#Other Information
#
#WARRANTY: Halliburton will use its best efforts to furnish customers with 
#accurate information and interpretations that are part of, and incident to, the services 
#provided.  However, Halliburton cannot and does not warrant the accuracy 
#or correctness of such information and interpretations.  Under no circumstances should any 
#such information or interpretation be relied upon as the sole basis for any drilling, 
#completion, production, or financial decision or any procedure involving any risk to the 
#safety of any drilling venture, drilling rig or its crew or any other third party.  The 
#Customer has full responsibility for all drilling, completion and production operation.  
#Halliburton makes no representations or warranties, either expressed or 
#implied, including, but not limited to, the implied warranties of merchantability or fitness 
#for a particular purpose, with respect to the services rendered.  In no event will 
#Halliburton be liable for failure to obtain any particular results or for 
#any damages, including, but not limited to, indirect, special or consequential damages, 
#resulting from the use of any information or interpretation provided by Halliburton.
#
~A           TIME           GTDEPTH  GTPQH  GTTQ  GTTN  GTET   GTTVD  
# ...
   13:36:42.288.18-Apr-2020 3111.02 3310.95 70.95 5.00  69.03 1976.62
   13:36:42.488.18-Apr-2020 3111.02 3310.95 70.95 5.00  69.23 1976.62
   13:36:42.688.18-Apr-2020 3111.02 3311.16 70.94 5.00  69.43 1976.62
   13:36:42.888.18-Apr-2020 3111.02 3311.35 70.94 5.00  69.63 1976.62
   13:36:43.089.18-Apr-2020 3111.02 3311.32 70.94 5.00  69.83 1976.62
   13:36:43.289.18-Apr-2020 3111.02 3311.44 70.94 5.00  70.03 1976.62
   13:36:43.489.18-Apr-2020 3111.02 3311.44 70.94 5.00  70.23 1976.62
   13:36:43.689.18-Apr-2020 3111.02 3311.04 70.94 5.00  70.43 1976.62
   13:36:43.889.18-Apr-2020 3111.02 3311.16 70.93 5.00  70.63 1976.62
   13:36:44.089.18-Apr-2020 3111.02 3311.24 70.93 5.00  70.83 1976.62
   13:36:44.289.18-Apr-2020 3111.02 3311.24 70.93 5.00  71.03 1976.62
   13:36:44.489.18-Apr-2020 3111.02 3311.24 70.93 5.00  71.23 1976.62
   13:36:44.689.18-Apr-2020 3111.02 3315.48 70.93 5.00  71.43 1976.62
   13:36:44.889.18-Apr-2020 3111.02 3318.05 70.93 5.00  71.63 1976.62
   13:36:45.089.18-Apr-2020 3111.02 3318.09 70.92 5.00  71.83 1976.62
   13:36:45.290.18-Apr-2020 3111.02 3318.09 70.92 5.00  72.03 1976.62
   13:36:45.490.18-Apr-2020 3111.02 3318.09 70.92 5.00  72.23 1976.62
   13:36:45.690.18-Apr-2020 3111.02 3318.16 70.92 5.00  72.43 1976.62
   13:36:45.890.18-Apr-2020 3111.02 3318.15 70.92 5.00  72.63 1976.62
   13:36:46.090.18-Apr-2020 3111.02 3318.17 70.92 5.00  72.83 1976.62
   13:36:46.290.18-Apr-2020 3111.02 3318.16 70.91 5.00  73.03 1976.62
   13:36:46.490.18-Apr-2020 3111.02 3318.16 70.91 5.00  73.23 1976.62
   13:36:46.690.18-Apr-2020 3111.02 3318.15 70.91 5.00  73.43 1976.62
   13:36:46.890.18-Apr-2020 3111.02 3318.15 70.91 5.00  73.63 1976.62
   13:36:47.090.18-Apr-2020 3111.02 3318.15 70.91 5.00  73.83 1976.62
   13:36:47.290.18-Apr-2020 3111.02 3318.15 70.91 5.00  74.03 1976.62
   13:36:47.491.18-Apr-2020 3111.02 3318.15 70.91 5.00  74.23 1976.62
   13:36:47.691.18-Apr-2020 3111.02 3318.15 70.90 5.00  74.43 1976.62
   13:36:47.891.18-Apr-2020 3111.02 3318.15 70.90 5.00  74.63 1976.62
   13:36:48.091.18-Apr-2020 3111.02 3318.14 70.90 5.00  74.83 1976.62
   13:36:48.291.18-Apr-2020 3111.02 3318.15 70.90 5.00  75.03 1976.62
   13:36:48.491.18-Apr-2020 3111.02 3318.15 70.90 5.00  75.23 1976.62
   13:36:48.691.18-Apr-2020 3111.02 3318.14 70.90 5.00  75.43 1976.62
   13:36:48.891.18-Apr-2020 3111.02 3318.14 70.90 5.00  75.63 1976.62
   13:36:49.091.18-Apr-2020 3111.02 3318.15 70.90 5.00  75.83 1976.62
   13:36:49.291.18-Apr-2020 3111.02 3318.15 70.89 5.00  76.03 1976.62
   13:36:49.491.18-Apr-2020 3111.02 3318.15 70.89 5.00  76.23 1976.62
   13:36:49.692.18-Apr-2020 3111.02 3318.14 70.89 5.00  76.43 1976.62
   13:36:49.892.18-Apr-2020 3111.02 3318.14 70.89 5.00  76.63 1976.62
   13:36:50.092.18-Apr-2020 3111.02 3318.14 70.89 5.00  76.83 1976.62
   13:36:50.292.18-Apr-2020 3111.02 3318.13 70.89 5.00  77.03 1976.62
   13:36:50.492.18-Apr-2020 3111.02 3318.13 70.89 5.00  77.23 1976.62
   13:36:50.692.18-Apr-2020 3111.02 3318.14 70.88 5.00  77.43 1976.62
   13:36:50.892.18-Apr-2020 3111.02 3318.12 70.88 5.00  77.63 1976.62
   13:36:51.092.18-Apr-2020 3111.02 3318.14 70.88 5.00  77.84 1976.62
   13:36:51.292.18-Apr-2020 3111.02 3318.15 70.88 5.00  78.04 1976.62
   13:36:51.492.18-Apr-2020 3111.02 3318.15 70.88 5.00  78.24 1976.62
   13:36:51.692.18-Apr-2020 3111.02 3318.16 70.88 5.00  78.44 1976.62
   13:36:51.893.18-Apr-2020 3111.02 3318.16 70.88 5.00  78.64 1976.62
   13:36:52.093.18-Apr-2020 3111.02 3318.15 70.88 5.00  78.84 1976.62
   13:36:52.293.18-Apr-2020 3111.02 3318.17 70.88 5.00  79.04 1976.62
   13:36:52.493.18-Apr-2020 3111.02 3318.17 70.88 5.00  79.24 1976.62
   13:36:52.693.18-Apr-2020 3111.02 3318.18 70.87 5.00  79.44 1976.62
   13:36:52.893.18-Apr-2020 3111.02 3318.18 70.87 5.00  79.64 1976.62
   13:36:53.093.18-Apr-2020 3111.02 3318.17 70.87 5.00  79.84 1976.62
   13:36:53.293.18-Apr-2020 3111.02 3318.17 70.87 5.00  80.04 1976.62
   13:36:53.493.18-Apr-2020 3111.02 3318.17 70.87 5.00  80.24 1976.62
   13:36:53.693.18-Apr-2020 3111.02 3318.20 70.87 5.00  80.44 1976.62
   13:36:53.893.18-Apr-2020 3111.02 3318.21 70.87 5.00  80.64 1976.62
   13:36:54.094.18-Apr-2020 3111.02 3318.21 70.87 5.00  80.84 1976.62
   13:36:54.294.18-Apr-2020 3111.02 3318.22 70.86 5.00  81.04 1976.62
   13:36:54.494.18-Apr-2020 3111.02 3318.22 70.86 5.00  81.24 1976.62
   13:36:54.694.18-Apr-2020 3111.02 3318.22 70.86 5.00  81.44 1976.62
   13:36:54.894.18-Apr-2020 3111.02 3318.22 70.86 5.00  81.64 1976.62
   13:36:55.094.18-Apr-2020 3111.02 3318.22 70.86 5.00  81.84 1976.62
   13:36:55.294.18-Apr-2020 3111.02 3318.24 70.86 5.00  82.04 1976.62
   13:36:55.494.18-Apr-2020 3111.02 3318.24 70.86 5.00  82.24 1976.62
   13:36:55.694.18-Apr-2020 3111.02 3318.23 70.86 5.00  82.44 1976.62
   13:36:55.894.18-Apr-2020 3111.02 3318.23 70.86 5.00  82.64 1976.62
   13:36:56.094.18-Apr-2020 3111.02 3318.25 70.85 5.00  82.84 1976.62
   13:36:56.294.18-Apr-2020 3111.02 3318.25 70.85 5.00  83.04 1976.62
   13:36:56.495.18-Apr-2020 3111.02 3318.25 70.85 5.00  83.24 1976.62
   13:36:56.695.18-Apr-2020 3111.02 3318.25 70.85 5.00  83.44 1976.62
   13:36:56.895.18-Apr-2020 3111.02 3318.25 70.85 5.00  83.64 1976.62
   13:36:57.095.18-Apr-2020 3111.02 3318.26 70.85 5.00  83.84 1976.62
   13:36:57.295.18-Apr-2020 3111.02 3318.26 70.85 5.00  84.04 1976.62
   13:36:57.495.18-Apr-2020 3111.02 3318.26 70.85 5.00  84.24 1976.62
   13:36:57.695.18-Apr-2020 3111.02 3318.24 70.85 5.00  84.44 1976.62
   13:36:57.895.18-Apr-2020 3111.02 3318.27 70.85 5.00  84.64 1976.62
   13:36:58.095.18-Apr-2020 3111.02 3318.27 70.84 5.00  84.84 1976.62
   13:36:58.295.18-Apr-2020 3111.02 3318.28 70.84 5.00  85.04 1976.62
   13:36:58.495.18-Apr-2020 3111.02 3318.28 70.84 5.00  85.24 1976.62
   13:36:58.696.18-Apr-2020 3111.02 3318.27 70.84 5.00  85.44 1976.62
   13:36:58.896.18-Apr-2020 3111.02 3318.29 70.84 5.00  85.64 1976.62
   13:36:59.096.18-Apr-2020 3111.02 3318.28 70.84 5.00  85.84 1976.62
   13:36:59.296.18-Apr-2020 3111.02 3318.28 70.84 5.00  86.04 1976.62
   13:36:59.496.18-Apr-2020 3111.02 3318.28 70.84 5.00  86.24 1976.62
   13:36:59.696.18-Apr-2020 3111.02 3318.29 70.84 5.00  86.44 1976.62
   13:36:59.896.18-Apr-2020 3111.02 3318.29 70.84 5.00  86.64 1976.62
   13:37:00.096.18-Apr-2020 3111.02 3318.28 70.83 5.00  86.84 1976.62
   13:37:00.296.18-Apr-2020 3111.02 3318.28 70.83 5.00  87.04 1976.62
   13:37:00.496.18-Apr-2020 3111.02 3318.28 70.83 5.00  87.24 1976.62
   13:37:00.696.18-Apr-2020 3111.02 3318.30 70.83 5.00  87.44 1976.62
   13:37:00.897.18-Apr-2020 3111.02 3318.30 70.83 5.00  87.64 1976.62
   13:37:01.097.18-Apr-2020 3111.02 3318.30 70.83 5.00  87.84 1976.62
   13:37:01.297.18-Apr-2020 3111.02 3318.30 70.83 5.00  88.04 1976.62
   13:37:01.497.18-Apr-2020 3111.02 3318.30 70.83 5.00  88.24 1976.62
   13:37:01.697.18-Apr-2020 3111.02 3318.30 70.83 5.00  88.44 1976.62
   13:37:01.897.18-Apr-2020 3111.02 3318.31 70.83 5.00  88.64 1976.62
   13:37:02.097.18-Apr-2020 3111.02 3318.32 70.82 5.00  88.84 1976.62
   13:37:02.297.18-Apr-2020 3111.02 3318.31 70.82 5.00  89.04 1976.62
   13:37:02.497.18-Apr-2020 3111.02 3318.31 70.82 5.00  89.24 1976.62
   13:37:02.697.18-Apr-2020 3111.02 3318.31 70.82 5.00  89.44 1976.62
   13:37:02.897.18-Apr-2020 3111.02 3318.30 70.82 5.00  89.64 1976.62
   13:37:03.098.18-Apr-2020 3111.02 3318.33 70.82 5.00  89.84 1976.62
   13:37:03.298.18-Apr-2020 3111.02 3318.32 70.82 5.00  90.04 1976.62
   13:37:03.498.18-Apr-2020 3111.02 3318.32 70.82 5.00  90.24 1976.62
   13:37:03.698.18-Apr-2020 3111.02 3318.30 70.82 5.00  90.44 1976.62
   13:37:03.898.18-Apr-2020 3111.02 3318.31 70.82 5.00  90.64 1976.62
   13:37:04.098.18-Apr-2020 3111.02 3318.33 70.82 5.00  90.84 1976.62
   13:37:04.298.18-Apr-2020 3111.02 3318.33 70.81 5.00  91.04 1976.62
   13:37:04.498.18-Apr-2020 3111.02 3318.33 70.81 5.00  91.24 1976.62
   13:37:04.698.18-Apr-2020 3111.02 3318.32 70.81 5.00  91.44 1976.62
   13:37:04.898.18-Apr-2020 3111.02 3318.33 70.81 5.00  91.64 1976.62
   13:37:05.098.18-Apr-2020 3111.02 3318.33 70.81 5.00  91.84 1976.62
