~Version Information
 VERS.                  2.0:   CWLS log ASCII Standard -VERSION 2.0
 WRAP.                   NO:   One line per depth step
~Well Information Block
#MNEM.UNIT     VALUE/NAME     DESCRIPTION
#---------     -----------    ---------------------------
 STRT.S             00:39:23 18-Apr-20: START TIME 00:39:23 18-Apr-20
 STOP.S             00:46:19 18-Apr-20: STOP TIME  00:46:19 18-Apr-20
 STEP.S                   0.00: STEP TIME
 NULL.                 -999.25: NULL VALUE
 DFWT.                        :  DIST FWL TEXT
 DFST.                        :  DIST FSL TEXT
 DMF .                        :  DRILL MEAS FROM
 STIM.      16.29.52 23-Mar-20:  START TIME
 DATE.      16.29.52 23-Mar-20:  END TIME
 SPUD.               23-Mar-20:  SPUD DATE
 NREF.                    Grid:  NORTH REFERENCE
 HPTY.       Minimum Curvature:  HOLE POS TYPE
 DMOD.             Drill Model:  DRILL MOD DESC
 SVYD.                  Survey:  SURVEY DESC
 ILTD.               Lithology:  INTERP LTH DESC
 FTOP.          Formation Tops:  FORM TOPS DESC
 SON .        AZ-XX-0906252240:  JOB NUMBER
 RIG .             West Chirag:  RIG NAME
 PDAT.          Mean Sea Level:  PERMANENT DATUM
 FLD .                     ACG:  FIELD NAME
 CTRY.              Azerbaijan:  COUNTRY NAME
 WELL.           J23 (Slot 07):  WELL NAME
 SRVC.          Turan Drilling:  CONTRACTOR
 COMP.     BP Exploration (Casoian Sea) Ltd:  COMPANY
 WTYP.                Deviated:  WELL TYPE
 MDS .        Operator Entered:  MAG DATA SOURCE
 UWI .                     N/A:  UNIQUE WELL IDENTIFIER
 API .                     N/A:  API NUMBER
 BASE.              Azerbaijan:  LOGGING EQUIPMENT BASE LOCATION
 REGN.                   EESSA:  REGION
 PROV.                    Baku:  PROVINCE
 STAT.                    Baku:  STATE NAME
 MWDS.                     N/A:  MWD SHOP
 JOBN.        AZ-XX-0906252240:  JOB TICKET NUMB
 DOE .                     N/A:  DOE NUMBER
 DCON.         Sperry Drilling:  DIRECTNL CONTR
 UNIT.                     N/A:  LOGGING EQUIPMENT ID
 CNTY.                        :  COUNTY
 LOC .                        :  LOCATION
 LMF .             Drill Floor:  LOG MEASURED FROM
 TVDS.m                  43.00:  TVDSS CORRECTN
 LATI.deg                40.13:  LATITUDE
 LONG.deg                51.22:  LONGITUDE
 WHNS.m                   9.43:  WELL HEAD N/S
 WHEW.m                  -8.91:  WELL HEAD E/W
 UTMX.m              519005.06:  UTM X
 UTMY.m             4443793.85:  UTM Y
 DFWL.m                   0.00:  DISTANCE FWL
 DFSL.m                   0.00:  DISTANCE FSL
 SDEP.m                   0.00:  START DEPTH
 TDD .m                   0.00:  TOTAL DEPTH (DRILLER)
 VSDR.deg               179.88:  VERT SEC DIRECT
 GVFD.g                   1.00:  GRAVITY FIELD
 MFLD.nT              50281.00:  MAGNETIC FIELD
 MDIP.deg                59.58:  MAGNETIC DIP
 MDEC.deg                 6.48:  MAGNETIC DECL
 GRDC.deg                 0.14:  GRID CORRECTION
 AZTC.deg                 6.34:  AZM TOTAL CORR
 EPD .m                   0.00:  ELEVATION
 EGL .m                   0.00:  GROUND ELEVATION
 WDMS.m                 169.80:  WD ELEV
 APD .m                  43.00:  DEPTH ABOVE PD
 DEP .m                 354.17:  DEPTH
 AGAP.m                  43.00:  AIR GAP
 VSEW.m                  -8.91:  VERT SEC E/W
 VSNS.m                   9.43:  VERT SEC N/S
 EKB .m                   0.00:  KB ELEVATION
 EDF .m                  43.00:  DF ELEVATION
 TDL .m                1326.00:  TOTAL DEPTH (LOGGER)
 VSC .                       0:  VS TO CLOSURE
 MAGU.                 1850704:  MAGUTM CHECKSUM
~Parameter Information Block
#MNEM.UNIT       Value        Description
#---------     -----------    ---------------------------
 AV  .mps                 1.17:  Ann Velocity 
 AZIF.deg               184.04:  Azm, Final 
 BHAT.        Rotary Steerable:  BHA Type 
 BREV.rev            620000.00:  Rev Bit Total 
 BROT.°/30m               0.20:  Build Rotating 
 BS  .in                 14.75:  Bit Size 
 BSZ .in                 14.75:  Bit Size 
 BTPL.psig              618.00:  Bit Press Loss 
 CABU.                      No:  Customer Abuse 
 COMM.                     TŠT:  Run Comments 1 
 TCS .hr                 87.68:  Time Ciculation Ended 
 CV  .mps                 3.10:  Crit Velocity 
 DD1 .          Rashad Habibov:  Direct Drillr 1 
 DD2 .         Rasim Ibrahimov:  Direct Drillr 2 
 DDSV.               Geo-Pilot:  DD Service 
 DEFF.%                  98.00:  % Det Eff 
 DLRX.°/30m               1.48:  Dogleg Rot Max 
 DLSO.°/30m               0.50:  Dogleg Oriented 
 DLSX.°/30m               1.48:  Dogleg Str Max 
 DRET.      06.18.56 19-Apr-20:  Drill End Time 
 DRST.      15.00.56 15-Apr-20:  Drill Start Tim 
 DTIM.hr                 51.73:  Time Drilling 
 EDEP.m                3410.01:  End Depth 
 ENG1.        Marcelo Sandoval:  Engineer 1 
 ENG2.        Davud Huseynzade:  Engineer 2 
 ENG3.          Ruslan Safarov:  Engineer 3 
 ETIM.      04.00.56 20-Apr-20:  End Time 
 FLOI.gpm              1000.00:  Flow In 
 FLON.gpm               600.00:  Flow In Min 
 FLOS.cptm                0.00:  Fluid Loss 
 FLOX.gpm              1200.00:  Flow In Max 
 HFLO.                      No:  High Flow 
 HPRE.                     Yes:  High Pressure 
 HTEM.                      No:  High Temp 
 HYDO.m                   1.80:  Hydro Offset 
 IFIN.deg                70.04:  Inc, Final 
 IMAX.deg                70.56:  Inc Max 
 IMIN.deg                69.85:  Inc Min 
 IMND.m                3103.24:  Inc Min Depth 
 IMXD.m                2876.63:  Inc Max Depth 
 JARR.                      No:  Jarring 
 LETM.      06.18.56 19-Apr-20:  Log End Time 
 LOST.hr                     0:  Lost Rig Time 
 LSTM.      15.00.56 15-Apr-20:  Log Start Time 
 MDCL.ppm             42000.00:  Mud Chlorides 
 MDES.     Inversion Oil/Synthetic:  Mud Desc 
 DFD .sg                  1.58:  Mud Density 
 MDMN.sg                  1.58:  Dens Mud Min 
 MDMX.sg                  1.58:  Dens Mud Max 
 MOIL.                      71:  Run Mud Oil % 
 MOWR.                   71:29:  Run Mud OWR 
 MSND.                       0:  Run Mud Sand % 
 MSOL.                    23.3:  Run Mud Solids% 
 DFV .spqt               84.00:  Mud Viscosity 
 MWOD.in                  9.50:  MWD Tool OD 
 MWSI.                      No:  Serv Intrp, MWD 
 OTIM.hr                139.62:  Time Operating 
 PMAX.psia             5364.69:  Press Op, Max 
 PV  .cP                 80.00:  Mud PV 
 RUN .                     700:  Run Number 
 ROPA.m/hr               25.00:  ROP Avg 
 ROPN.m/hr               11.00:  ROP Min 
 ROPX.m/hr               36.00:  ROP Max 
 RPMA.rpm               130.00:  RPM Surface Avg 
 RPMN.rpm               120.00:  RPM Surface Min 
 RPMX.rpm               140.00:  RPM Surface Max 
 RRUN.                    0700:  Rig Run Number 
 SAZI.deg               183.25:  Azm, Start 
 SDEP.m                2084.00:  Start Depth 
 SIDD.                      No:  Serv Intrp, DD 
 SINC.deg                70.38:  Inc, Start 
 SPPA.psig             4800.00:  SPP Avg 
 SPPN.psig             4400.00:  SPP Min 
 SPPX.psig             5350.00:  SPP Max 
 STIM.      16.30.56 14-Apr-20:  Start Time 
 SVCS.                 DD, MWD:  Services 
 SVER.                    9.20:  Sperry Version 
 TDAT.m                1326.00:  Tot Depth Attmp 
 TDDF.                      No:  Trip for DD 
 TDLG.m                1326.00:  Tot Depth Loggd 
 TFF .                      No:  Trip for Fail 
 TQAA.f-kp               19.00:  Torque Abs Avg 
 TQAN.f-kp                8.00:  Torque Abs Min 
 TQAX.f-kp               27.00:  Torque Abs Max 
 TRRT.°/30m               0.50:  Turn Rotating 
 MRT .                    HCIM:  Maximum Recorded Temperature 
 TTMX.degC               82.35:  Max Tool Temp 
 VS01.       905245875X1Z1W1C8:  Virtual Str1 SN 
 VS02.       90608022F11V7D1A9:  Virtual Str2 SN 
 VS03.            90605473R5C9:  Virtual Str3 SN 
 WBMN.klb                11.00:  WOB Min 
 WOBA.klb                21.00:  WOB Avg 
 WOBX.klb                30.00:  WOB Max 
 YP  .lhf2               45.00:  Yield Point 
~Curve Information Block
#MNEM.UNIT                 API CODE     Curve Description
#---------               -----------    ---------------------------
 TIME.HHMMSS            00 000 000 000:  GT Time & Date
 GTDEPTH.m              00 000 000 000:  GT Depth
 GTPQH.psia             00 000 000 000:  GT HR Quartz Pressure
 GTTQ.degC              00 000 000 000:  GT Quartz Temperature
 GTTN.NONE              00 000 000 000:  GT Test Number
 GTET.sec               00 000 000 000:  GT Elapsed Test Time
 GTTVD.m                00 000 000 000:  GT True Vertical Depth
#Other Information
#
#WARRANTY: Halliburton will use its best efforts to furnish customers with 
#accurate information and interpretations that are part of, and incident to, the services 
#provided.  However, Halliburton cannot and does not warrant the accuracy 
#or correctness of such information and interpretations.  Under no circumstances should any 
#such information or interpretation be relied upon as the sole basis for any drilling, 
#completion, production, or financial decision or any procedure involving any risk to the 
#safety of any drilling venture, drilling rig or its crew or any other third party.  The 
#Customer has full responsibility for all drilling, completion and production operation.  
#Halliburton makes no representations or warranties, either expressed or 
#implied, including, but not limited to, the implied warranties of merchantability or fitness 
#for a particular purpose, with respect to the services rendered.  In no event will 
#Halliburton be liable for failure to obtain any particular results or for 
#any damages, including, but not limited to, indirect, special or consequential damages, 
#resulting from the use of any information or interpretation provided by Halliburton.
#
~A           TIME           GTDEPTH  GTPQH  GTTQ  GTTN  GTET   GTTVD  
# ...
   00:40:32.319.18-Apr-2020 2932.07 3420.33 63.46 1.00  69.01 1915.77
   00:40:32.520.18-Apr-2020 2932.07 3420.33 63.46 1.00  69.21 1915.77
   00:40:32.720.18-Apr-2020 2932.07 3420.45 63.46 1.00  69.41 1915.77
   00:40:32.920.18-Apr-2020 2932.07 3420.13 63.46 1.00  69.61 1915.77
   00:40:33.120.18-Apr-2020 2932.07 3420.18 63.46 1.00  69.81 1915.77
   00:40:33.320.18-Apr-2020 2932.07 3420.19 63.46 1.00  70.01 1915.77
   00:40:33.520.18-Apr-2020 2932.07 3420.19 63.46 1.00  70.21 1915.77
   00:40:33.720.18-Apr-2020 2932.07 3419.75 63.45 1.00  70.41 1915.77
   00:40:33.920.18-Apr-2020 2932.07 3419.57 63.45 1.00  70.61 1915.77
   00:40:34.120.18-Apr-2020 2932.07 3419.47 63.45 1.00  70.81 1915.77
   00:40:34.320.18-Apr-2020 2932.07 3419.26 63.45 1.00  71.01 1915.77
   00:40:34.520.18-Apr-2020 2932.07 3419.26 63.45 1.00  71.21 1915.77
   00:40:34.720.18-Apr-2020 2932.07 3420.62 63.45 1.00  71.41 1915.77
   00:40:34.920.18-Apr-2020 2932.07 3431.31 63.45 1.00  71.61 1915.77
   00:40:35.120.18-Apr-2020 2932.07 3431.36 63.45 1.00  71.81 1915.77
   00:40:35.320.18-Apr-2020 2932.07 3431.41 63.45 1.00  72.01 1915.77
   00:40:35.520.18-Apr-2020 2932.07 3431.42 63.45 1.00  72.21 1915.77
   00:40:35.720.18-Apr-2020 2932.07 3431.45 63.45 1.00  72.41 1915.77
   00:40:35.920.18-Apr-2020 2932.07 3431.45 63.44 1.00  72.61 1915.77
   00:40:36.120.18-Apr-2020 2932.07 3431.48 63.44 1.00  72.81 1915.77
   00:40:36.320.18-Apr-2020 2932.07 3431.49 63.44 1.00  73.01 1915.77
   00:40:36.520.18-Apr-2020 2932.07 3431.49 63.44 1.00  73.21 1915.77
   00:40:36.720.18-Apr-2020 2932.07 3431.51 63.44 1.00  73.41 1915.77
   00:40:36.920.18-Apr-2020 2932.07 3431.51 63.44 1.00  73.61 1915.77
   00:40:37.120.18-Apr-2020 2932.07 3431.52 63.44 1.00  73.81 1915.77
   00:40:37.320.18-Apr-2020 2932.07 3431.55 63.44 1.00  74.01 1915.77
   00:40:37.520.18-Apr-2020 2932.07 3431.55 63.44 1.00  74.21 1915.77
   00:40:37.720.18-Apr-2020 2932.07 3431.56 63.44 1.00  74.41 1915.77
   00:40:37.920.18-Apr-2020 2932.07 3431.55 63.44 1.00  74.61 1915.77
   00:40:38.120.18-Apr-2020 2932.07 3431.58 63.44 1.00  74.81 1915.77
   00:40:38.320.18-Apr-2020 2932.07 3431.59 63.44 1.00  75.01 1915.77
   00:40:38.520.18-Apr-2020 2932.07 3431.59 63.44 1.00  75.21 1915.77
   00:40:38.721.18-Apr-2020 2932.07 3431.58 63.44 1.00  75.41 1915.77
   00:40:38.921.18-Apr-2020 2932.07 3431.58 63.43 1.00  75.61 1915.77
   00:40:39.121.18-Apr-2020 2932.07 3431.57 63.43 1.00  75.81 1915.77
   00:40:39.321.18-Apr-2020 2932.07 3431.59 63.43 1.00  76.01 1915.77
   00:40:39.521.18-Apr-2020 2932.07 3431.59 63.43 1.00  76.21 1915.77
   00:40:39.721.18-Apr-2020 2932.07 3431.57 63.43 1.00  76.41 1915.77
   00:40:39.921.18-Apr-2020 2932.07 3431.61 63.43 1.00  76.61 1915.77
   00:40:40.121.18-Apr-2020 2932.07 3431.60 63.43 1.00  76.81 1915.77
   00:40:40.321.18-Apr-2020 2932.07 3431.62 63.43 1.00  77.01 1915.77
   00:40:40.521.18-Apr-2020 2932.07 3431.62 63.43 1.00  77.21 1915.77
   00:40:40.721.18-Apr-2020 2932.07 3431.59 63.43 1.00  77.41 1915.77
   00:40:40.921.18-Apr-2020 2932.07 3431.61 63.43 1.00  77.61 1915.77
   00:40:41.121.18-Apr-2020 2932.07 3431.62 63.43 1.00  77.81 1915.77
   00:40:41.321.18-Apr-2020 2932.07 3431.62 63.43 1.00  78.01 1915.77
   00:40:41.521.18-Apr-2020 2932.07 3431.62 63.43 1.00  78.21 1915.77
   00:40:41.721.18-Apr-2020 2932.07 3431.64 63.43 1.00  78.41 1915.77
   00:40:41.921.18-Apr-2020 2932.07 3431.64 63.43 1.00  78.61 1915.77
   00:40:42.121.18-Apr-2020 2932.07 3431.65 63.43 1.00  78.81 1915.77
   00:40:42.321.18-Apr-2020 2932.07 3431.65 63.43 1.00  79.01 1915.77
   00:40:42.521.18-Apr-2020 2932.07 3431.65 63.43 1.00  79.21 1915.77
   00:40:42.721.18-Apr-2020 2932.07 3431.66 63.43 1.00  79.41 1915.77
   00:40:42.921.18-Apr-2020 2932.07 3431.68 63.43 1.00  79.61 1915.77
   00:40:43.121.18-Apr-2020 2932.07 3431.66 63.42 1.00  79.81 1915.77
   00:40:43.321.18-Apr-2020 2932.07 3431.66 63.42 1.00  80.01 1915.77
   00:40:43.521.18-Apr-2020 2932.07 3431.66 63.42 1.00  80.21 1915.77
   00:40:43.721.18-Apr-2020 2932.07 3431.66 63.42 1.00  80.41 1915.77
   00:40:43.921.18-Apr-2020 2932.07 3431.68 63.42 1.00  80.61 1915.77
   00:40:44.121.18-Apr-2020 2932.07 3431.68 63.42 1.00  80.81 1915.77
   00:40:44.321.18-Apr-2020 2932.07 3431.68 63.42 1.00  81.01 1915.77
   00:40:44.521.18-Apr-2020 2932.07 3431.68 63.42 1.00  81.21 1915.77
   00:40:44.721.18-Apr-2020 2932.07 3431.69 63.42 1.00  81.41 1915.77
   00:40:44.922.18-Apr-2020 2932.07 3431.72 63.42 1.00  81.61 1915.77
   00:40:45.122.18-Apr-2020 2932.07 3431.70 63.42 1.00  81.81 1915.77
   00:40:45.322.18-Apr-2020 2932.07 3431.72 63.42 1.00  82.01 1915.77
   00:40:45.522.18-Apr-2020 2932.07 3431.72 63.42 1.00  82.21 1915.77
   00:40:45.722.18-Apr-2020 2932.07 3431.69 63.42 1.00  82.41 1915.77
   00:40:45.922.18-Apr-2020 2932.07 3431.71 63.42 1.00  82.61 1915.77
   00:40:46.122.18-Apr-2020 2932.07 3431.73 63.42 1.00  82.81 1915.77
   00:40:46.322.18-Apr-2020 2932.07 3431.75 63.42 1.00  83.01 1915.77
   00:40:46.522.18-Apr-2020 2932.07 3431.75 63.42 1.00  83.21 1915.77
   00:40:46.722.18-Apr-2020 2932.07 3431.73 63.42 1.00  83.41 1915.77
   00:40:46.922.18-Apr-2020 2932.07 3431.75 63.42 1.00  83.61 1915.77
   00:40:47.122.18-Apr-2020 2932.07 3431.75 63.42 1.00  83.81 1915.77
   00:40:47.322.18-Apr-2020 2932.07 3431.75 63.42 1.00  84.01 1915.77
   00:40:47.522.18-Apr-2020 2932.07 3431.75 63.42 1.00  84.21 1915.77
   00:40:47.722.18-Apr-2020 2932.07 3431.75 63.42 1.00  84.41 1915.77
   00:40:47.922.18-Apr-2020 2932.07 3431.75 63.42 1.00  84.61 1915.77
   00:40:48.122.18-Apr-2020 2932.07 3431.72 63.41 1.00  84.81 1915.77
   00:40:48.322.18-Apr-2020 2932.07 3431.75 63.41 1.00  85.01 1915.77
   00:40:48.522.18-Apr-2020 2932.07 3431.73 63.41 1.00  85.21 1915.77
   00:40:48.722.18-Apr-2020 2932.07 3431.75 63.41 1.00  85.41 1915.77
   00:40:48.922.18-Apr-2020 2932.07 3431.84 63.41 1.00  85.61 1915.77
   00:40:49.122.18-Apr-2020 2932.07 3431.83 63.41 1.00  85.81 1915.77
   00:40:49.322.18-Apr-2020 2932.07 3431.82 63.41 1.00  86.01 1915.77
   00:40:49.522.18-Apr-2020 2932.07 3431.82 63.41 1.00  86.21 1915.77
   00:40:49.722.18-Apr-2020 2932.07 3431.82 63.41 1.00  86.41 1915.77
   00:40:49.922.18-Apr-2020 2932.07 3431.80 63.41 1.00  86.61 1915.77
   00:40:50.122.18-Apr-2020 2932.07 3431.77 63.41 1.00  86.81 1915.77
   00:40:50.322.18-Apr-2020 2932.07 3431.78 63.41 1.00  87.01 1915.77
   00:40:50.522.18-Apr-2020 2932.07 3431.78 63.41 1.00  87.21 1915.77
   00:40:50.722.18-Apr-2020 2932.07 3431.79 63.41 1.00  87.41 1915.77
   00:40:50.922.18-Apr-2020 2932.07 3431.78 63.41 1.00  87.61 1915.77
   00:40:51.123.18-Apr-2020 2932.07 3431.78 63.41 1.00  87.81 1915.77
   00:40:51.323.18-Apr-2020 2932.07 3431.77 63.41 1.00  88.01 1915.77
   00:40:51.523.18-Apr-2020 2932.07 3431.78 63.41 1.00  88.21 1915.77
   00:40:51.723.18-Apr-2020 2932.07 3431.79 63.41 1.00  88.41 1915.77
   00:40:51.923.18-Apr-2020 2932.07 3431.86 63.41 1.00  88.61 1915.77
   00:40:52.123.18-Apr-2020 2932.07 3431.86 63.41 1.00  88.81 1915.77
   00:40:52.323.18-Apr-2020 2932.07 3431.84 63.41 1.00  89.01 1915.77
   00:40:52.523.18-Apr-2020 2932.07 3431.84 63.41 1.00  89.21 1915.77
   00:40:52.723.18-Apr-2020 2932.07 3431.81 63.41 1.00  89.41 1915.77
   00:40:52.923.18-Apr-2020 2932.07 3431.81 63.41 1.00  89.61 1915.77
   00:40:53.123.18-Apr-2020 2932.07 3431.80 63.41 1.00  89.81 1915.77
   00:40:53.323.18-Apr-2020 2932.07 3431.78 63.41 1.00  90.01 1915.77
   00:40:53.523.18-Apr-2020 2932.07 3431.78 63.41 1.00  90.21 1915.77
   00:40:53.723.18-Apr-2020 2932.07 3431.78 63.41 1.00  90.41 1915.77
   00:40:53.923.18-Apr-2020 2932.07 3431.77 63.41 1.00  90.61 1915.77
   00:40:54.123.18-Apr-2020 2932.07 3431.79 63.41 1.00  90.81 1915.77
   00:40:54.323.18-Apr-2020 2932.07 3431.78 63.40 1.00  91.01 1915.77
   00:40:54.523.18-Apr-2020 2932.07 3431.78 63.40 1.00  91.21 1915.77
   00:40:54.723.18-Apr-2020 2932.07 3431.79 63.40 1.00  91.41 1915.77
   00:40:54.923.18-Apr-2020 2932.07 3431.79 63.40 1.00  91.61 1915.77
   00:40:55.123.18-Apr-2020 2932.07 3431.78 63.40 1.00  91.81 1915.77
