~Version Information
 VERS.                  2.0:   CWLS log ASCII Standard -VERSION 2.0
 WRAP.                   NO:   One line per depth step
~Well Information Block
#MNEM.UNIT     VALUE/NAME     DESCRIPTION
#---------     -----------    ---------------------------
 STRT.S             15:35:19 18-Apr-20: START TIME 15:35:19 18-Apr-20
 STOP.S             15:42:14 18-Apr-20: STOP TIME  15:42:14 18-Apr-20
 STEP.S                   0.00: STEP TIME
 NULL.                 -999.25: NULL VALUE
 DFWT.                        :  DIST FWL TEXT
 DFST.                        :  DIST FSL TEXT
 DMF .                        :  DRILL MEAS FROM
 STIM.      16.29.52 23-Mar-20:  START TIME
 DATE.      16.29.52 23-Mar-20:  END TIME
 SPUD.               23-Mar-20:  SPUD DATE
 NREF.                    Grid:  NORTH REFERENCE
 HPTY.       Minimum Curvature:  HOLE POS TYPE
 DMOD.             Drill Model:  DRILL MOD DESC
 SVYD.                  Survey:  SURVEY DESC
 ILTD.               Lithology:  INTERP LTH DESC
 FTOP.          Formation Tops:  FORM TOPS DESC
 SON .        AZ-XX-0906252240:  JOB NUMBER
 RIG .             West Chirag:  RIG NAME
 PDAT.          Mean Sea Level:  PERMANENT DATUM
 FLD .                     ACG:  FIELD NAME
 CTRY.              Azerbaijan:  COUNTRY NAME
 WELL.           J23 (Slot 07):  WELL NAME
 SRVC.          Turan Drilling:  CONTRACTOR
 COMP.     BP Exploration (Casoian Sea) Ltd:  COMPANY
 WTYP.                Deviated:  WELL TYPE
 MDS .        Operator Entered:  MAG DATA SOURCE
 UWI .                     N/A:  UNIQUE WELL IDENTIFIER
 API .                     N/A:  API NUMBER
 BASE.              Azerbaijan:  LOGGING EQUIPMENT BASE LOCATION
 REGN.                   EESSA:  REGION
 PROV.                    Baku:  PROVINCE
 STAT.                    Baku:  STATE NAME
 MWDS.                     N/A:  MWD SHOP
 JOBN.        AZ-XX-0906252240:  JOB TICKET NUMB
 DOE .                     N/A:  DOE NUMBER
 DCON.         Sperry Drilling:  DIRECTNL CONTR
 UNIT.                     N/A:  LOGGING EQUIPMENT ID
 CNTY.                        :  COUNTY
 LOC .                        :  LOCATION
 LMF .             Drill Floor:  LOG MEASURED FROM
 TVDS.m                  43.00:  TVDSS CORRECTN
 LATI.deg                40.13:  LATITUDE
 LONG.deg                51.22:  LONGITUDE
 WHNS.m                   9.43:  WELL HEAD N/S
 WHEW.m                  -8.91:  WELL HEAD E/W
 UTMX.m              519005.06:  UTM X
 UTMY.m             4443793.85:  UTM Y
 DFWL.m                   0.00:  DISTANCE FWL
 DFSL.m                   0.00:  DISTANCE FSL
 SDEP.m                   0.00:  START DEPTH
 TDD .m                   0.00:  TOTAL DEPTH (DRILLER)
 VSDR.deg               179.88:  VERT SEC DIRECT
 GVFD.g                   1.00:  GRAVITY FIELD
 MFLD.nT              50281.00:  MAGNETIC FIELD
 MDIP.deg                59.58:  MAGNETIC DIP
 MDEC.deg                 6.48:  MAGNETIC DECL
 GRDC.deg                 0.14:  GRID CORRECTION
 AZTC.deg                 6.34:  AZM TOTAL CORR
 EPD .m                   0.00:  ELEVATION
 EGL .m                   0.00:  GROUND ELEVATION
 WDMS.m                 169.80:  WD ELEV
 APD .m                  43.00:  DEPTH ABOVE PD
 DEP .m                 354.17:  DEPTH
 AGAP.m                  43.00:  AIR GAP
 VSEW.m                  -8.91:  VERT SEC E/W
 VSNS.m                   9.43:  VERT SEC N/S
 EKB .m                   0.00:  KB ELEVATION
 EDF .m                  43.00:  DF ELEVATION
 TDL .m                1326.00:  TOTAL DEPTH (LOGGER)
 VSC .                       0:  VS TO CLOSURE
 MAGU.                 1850704:  MAGUTM CHECKSUM
~Parameter Information Block
#MNEM.UNIT       Value        Description
#---------     -----------    ---------------------------
 AV  .mps                 1.17:  Ann Velocity 
 AZIF.deg               184.04:  Azm, Final 
 BHAT.        Rotary Steerable:  BHA Type 
 BREV.rev            620000.00:  Rev Bit Total 
 BROT.°/30m               0.20:  Build Rotating 
 BS  .in                 14.75:  Bit Size 
 BSZ .in                 14.75:  Bit Size 
 BTPL.psig              618.00:  Bit Press Loss 
 CABU.                      No:  Customer Abuse 
 COMM.                     ü—`:  Run Comments 1 
 TCS .hr                 87.68:  Time Ciculation Ended 
 CV  .mps                 3.10:  Crit Velocity 
 DD1 .          Rashad Habibov:  Direct Drillr 1 
 DD2 .         Rasim Ibrahimov:  Direct Drillr 2 
 DDSV.               Geo-Pilot:  DD Service 
 DEFF.%                  98.00:  % Det Eff 
 DLRX.°/30m               1.48:  Dogleg Rot Max 
 DLSO.°/30m               0.50:  Dogleg Oriented 
 DLSX.°/30m               1.48:  Dogleg Str Max 
 DRET.      06.18.56 19-Apr-20:  Drill End Time 
 DRST.      15.00.56 15-Apr-20:  Drill Start Tim 
 DTIM.hr                 51.73:  Time Drilling 
 EDEP.m                3410.01:  End Depth 
 ENG1.        Marcelo Sandoval:  Engineer 1 
 ENG2.        Davud Huseynzade:  Engineer 2 
 ENG3.          Ruslan Safarov:  Engineer 3 
 ETIM.      04.00.56 20-Apr-20:  End Time 
 FLOI.gpm              1000.00:  Flow In 
 FLON.gpm               600.00:  Flow In Min 
 FLOS.cptm                0.00:  Fluid Loss 
 FLOX.gpm              1200.00:  Flow In Max 
 HFLO.                      No:  High Flow 
 HPRE.                     Yes:  High Pressure 
 HTEM.                      No:  High Temp 
 HYDO.m                   1.80:  Hydro Offset 
 IFIN.deg                70.04:  Inc, Final 
 IMAX.deg                70.56:  Inc Max 
 IMIN.deg                69.85:  Inc Min 
 IMND.m                3103.24:  Inc Min Depth 
 IMXD.m                2876.63:  Inc Max Depth 
 JARR.                      No:  Jarring 
 LETM.      06.18.56 19-Apr-20:  Log End Time 
 LOST.hr                     0:  Lost Rig Time 
 LSTM.      15.00.56 15-Apr-20:  Log Start Time 
 MDCL.ppm             42000.00:  Mud Chlorides 
 MDES.     Inversion Oil/Synthetic:  Mud Desc 
 DFD .sg                  1.58:  Mud Density 
 MDMN.sg                  1.58:  Dens Mud Min 
 MDMX.sg                  1.58:  Dens Mud Max 
 MOIL.                      71:  Run Mud Oil % 
 MOWR.                   71:29:  Run Mud OWR 
 MSND.                       0:  Run Mud Sand % 
 MSOL.                    23.3:  Run Mud Solids% 
 DFV .spqt               84.00:  Mud Viscosity 
 MWOD.in                  9.50:  MWD Tool OD 
 MWSI.                      No:  Serv Intrp, MWD 
 OTIM.hr                139.62:  Time Operating 
 PMAX.psia             5364.69:  Press Op, Max 
 PV  .cP                 80.00:  Mud PV 
 RUN .                     700:  Run Number 
 ROPA.m/hr               25.00:  ROP Avg 
 ROPN.m/hr               11.00:  ROP Min 
 ROPX.m/hr               36.00:  ROP Max 
 RPMA.rpm               130.00:  RPM Surface Avg 
 RPMN.rpm               120.00:  RPM Surface Min 
 RPMX.rpm               140.00:  RPM Surface Max 
 RRUN.                    0700:  Rig Run Number 
 SAZI.deg               183.25:  Azm, Start 
 SDEP.m                2084.00:  Start Depth 
 SIDD.                      No:  Serv Intrp, DD 
 SINC.deg                70.38:  Inc, Start 
 SPPA.psig             4800.00:  SPP Avg 
 SPPN.psig             4400.00:  SPP Min 
 SPPX.psig             5350.00:  SPP Max 
 STIM.      16.30.56 14-Apr-20:  Start Time 
 SVCS.                 DD, MWD:  Services 
 SVER.                    9.20:  Sperry Version 
 TDAT.m                1326.00:  Tot Depth Attmp 
 TDDF.                      No:  Trip for DD 
 TDLG.m                1326.00:  Tot Depth Loggd 
 TFF .                      No:  Trip for Fail 
 TQAA.f-kp               19.00:  Torque Abs Avg 
 TQAN.f-kp                8.00:  Torque Abs Min 
 TQAX.f-kp               27.00:  Torque Abs Max 
 TRRT.°/30m               0.50:  Turn Rotating 
 MRT .                    HCIM:  Maximum Recorded Temperature 
 TTMX.degC               82.35:  Max Tool Temp 
 VS01.       905245875X1Z1W1C8:  Virtual Str1 SN 
 VS02.       90608022F11V7D1A9:  Virtual Str2 SN 
 VS03.            90605473R5C9:  Virtual Str3 SN 
 WBMN.klb                11.00:  WOB Min 
 WOBA.klb                21.00:  WOB Avg 
 WOBX.klb                30.00:  WOB Max 
 YP  .lhf2               45.00:  Yield Point 
~Curve Information Block
#MNEM.UNIT                 API CODE     Curve Description
#---------               -----------    ---------------------------
 TIME.HHMMSS            00 000 000 000:  GT Time & Date
 GTDEPTH.m              00 000 000 000:  GT Depth
 GTPQH.psia             00 000 000 000:  GT HR Quartz Pressure
 GTTQ.degC              00 000 000 000:  GT Quartz Temperature
 GTTN.NONE              00 000 000 000:  GT Test Number
 GTET.sec               00 000 000 000:  GT Elapsed Test Time
 GTTVD.m                00 000 000 000:  GT True Vertical Depth
#Other Information
#
#WARRANTY: Halliburton will use its best efforts to furnish customers with 
#accurate information and interpretations that are part of, and incident to, the services 
#provided.  However, Halliburton cannot and does not warrant the accuracy 
#or correctness of such information and interpretations.  Under no circumstances should any 
#such information or interpretation be relied upon as the sole basis for any drilling, 
#completion, production, or financial decision or any procedure involving any risk to the 
#safety of any drilling venture, drilling rig or its crew or any other third party.  The 
#Customer has full responsibility for all drilling, completion and production operation.  
#Halliburton makes no representations or warranties, either expressed or 
#implied, including, but not limited to, the implied warranties of merchantability or fitness 
#for a particular purpose, with respect to the services rendered.  In no event will 
#Halliburton be liable for failure to obtain any particular results or for 
#any damages, including, but not limited to, indirect, special or consequential damages, 
#resulting from the use of any information or interpretation provided by Halliburton.
#
~A           TIME           GTDEPTH  GTPQH  GTTQ  GTTN  GTET   GTTVD  
# ...
   15:35:42.356.18-Apr-2020 3140.87 4573.43 71.96 6.00  23.00 1986.80
   15:35:42.555.18-Apr-2020 3140.87 4573.43 71.96 6.00  23.20 1986.80
   15:35:42.755.18-Apr-2020 3140.87 4572.97 71.96 6.00  23.40 1986.80
   15:35:42.955.18-Apr-2020 3140.87 4572.54 71.96 6.00  23.60 1986.80
   15:35:43.155.18-Apr-2020 3140.87 4572.23 71.96 6.00  23.80 1986.80
   15:35:43.355.18-Apr-2020 3140.87 4569.47 71.95 6.00  24.00 1986.80
   15:35:43.555.18-Apr-2020 3140.87 4572.19 71.95 6.00  24.20 1986.80
   15:35:43.755.18-Apr-2020 3140.87 4571.84 71.95 6.00  24.40 1986.80
   15:35:43.955.18-Apr-2020 3140.87 4572.22 71.95 6.00  24.60 1986.80
   15:35:44.155.18-Apr-2020 3140.87 4572.85 71.95 6.00  24.80 1986.80
   15:35:44.355.18-Apr-2020 3140.87 4572.40 71.95 6.00  25.00 1986.80
   15:35:44.555.18-Apr-2020 3140.87 4572.55 71.95 6.00  25.20 1986.80
   15:35:44.755.18-Apr-2020 3140.87 4572.71 71.95 6.00  25.40 1986.80
   15:35:44.955.18-Apr-2020 3140.87 4572.30 71.95 6.00  25.60 1986.80
   15:35:45.155.18-Apr-2020 3140.87 4572.26 71.95 6.00  25.80 1986.80
   15:35:45.355.18-Apr-2020 3140.87 4572.12 71.95 6.00  26.00 1986.80
   15:35:45.555.18-Apr-2020 3140.87 4572.12 71.95 6.00  26.20 1986.80
   15:35:45.755.18-Apr-2020 3140.87 4572.40 71.94 6.00  26.40 1986.80
   15:35:45.955.18-Apr-2020 3140.87 4571.39 71.94 6.00  26.60 1986.80
   15:35:46.155.18-Apr-2020 3140.87 4570.10 71.94 6.00  26.80 1986.80
   15:35:46.355.18-Apr-2020 3140.87 4571.88 71.94 6.00  27.00 1986.80
   15:35:46.555.18-Apr-2020 3140.87 4571.88 71.94 6.00  27.20 1986.80
   15:35:46.755.18-Apr-2020 3140.87 4569.90 71.94 6.00  27.40 1986.80
   15:35:46.955.18-Apr-2020 3140.87 4572.90 71.94 6.00  27.60 1986.80
   15:35:47.155.18-Apr-2020 3140.87 4572.22 71.94 6.00  27.80 1986.80
   15:35:47.355.18-Apr-2020 3140.87 4571.75 71.94 6.00  28.00 1986.80
   15:35:47.555.18-Apr-2020 3140.87 4572.73 71.94 6.00  28.20 1986.80
   15:35:47.755.18-Apr-2020 3140.87 4570.21 71.93 6.00  28.40 1986.80
   15:35:47.955.18-Apr-2020 3140.87 4573.28 71.93 6.00  28.60 1986.80
   15:35:48.155.18-Apr-2020 3140.87 4572.38 71.93 6.00  28.80 1986.80
   15:35:48.355.18-Apr-2020 3140.87 4572.07 71.93 6.00  29.00 1986.80
   15:35:48.555.18-Apr-2020 3140.87 4572.37 71.93 6.00  29.20 1986.80
   15:35:48.755.18-Apr-2020 3140.87 4570.54 71.93 6.00  29.40 1986.80
   15:35:48.955.18-Apr-2020 3140.87 4572.20 71.93 6.00  29.60 1986.80
   15:35:49.155.18-Apr-2020 3140.87 4572.89 71.93 6.00  29.80 1986.80
   15:35:49.355.18-Apr-2020 3140.87 4572.36 71.93 6.00  30.00 1986.80
   15:35:49.555.18-Apr-2020 3140.87 4572.36 71.93 6.00  30.20 1986.80
   15:35:49.755.18-Apr-2020 3140.87 4571.60 71.93 6.00  30.40 1986.80
   15:35:49.955.18-Apr-2020 3140.87 4573.31 71.92 6.00  30.60 1986.80
   15:35:50.155.18-Apr-2020 3140.87 4574.07 71.92 6.00  30.80 1986.80
   15:35:50.355.18-Apr-2020 3140.87 4574.19 71.92 6.00  31.00 1986.80
   15:35:50.555.18-Apr-2020 3140.87 4574.19 71.92 6.00  31.20 1986.80
   15:35:50.755.18-Apr-2020 3140.87 4575.27 71.92 6.00  31.40 1986.80
   15:35:50.955.18-Apr-2020 3140.87 4574.82 71.92 6.00  31.60 1986.80
   15:35:51.154.18-Apr-2020 3140.87 4574.71 71.92 6.00  31.80 1986.80
   15:35:51.354.18-Apr-2020 3140.87 4574.39 71.92 6.00  32.00 1986.80
   15:35:51.554.18-Apr-2020 3140.87 4573.73 71.92 6.00  32.20 1986.80
   15:35:51.754.18-Apr-2020 3140.87 4574.21 71.92 6.00  32.40 1986.80
   15:35:51.954.18-Apr-2020 3140.87 4574.27 71.92 6.00  32.60 1986.80
   15:35:52.154.18-Apr-2020 3140.87 4574.14 71.91 6.00  32.80 1986.80
   15:35:52.354.18-Apr-2020 3140.87 4574.36 71.91 6.00  33.00 1986.80
   15:35:52.554.18-Apr-2020 3140.87 4573.28 71.91 6.00  33.20 1986.80
   15:35:52.754.18-Apr-2020 3140.87 4572.54 71.91 6.00  33.40 1986.80
   15:35:52.954.18-Apr-2020 3140.87 4574.59 71.91 6.00  33.60 1986.80
   15:35:53.154.18-Apr-2020 3140.87 4574.80 71.91 6.00  33.80 1986.80
   15:35:53.354.18-Apr-2020 3140.87 4575.09 71.91 6.00  34.00 1986.80
   15:35:53.554.18-Apr-2020 3140.87 4575.09 71.91 6.00  34.20 1986.80
   15:35:53.754.18-Apr-2020 3140.87 4575.71 71.91 6.00  34.40 1986.80
   15:35:53.954.18-Apr-2020 3140.87 4575.98 71.91 6.00  34.60 1986.80
   15:35:54.154.18-Apr-2020 3140.87 4575.85 71.91 6.00  34.80 1986.80
   15:35:54.354.18-Apr-2020 3140.87 4575.35 71.90 6.00  35.00 1986.80
   15:35:54.554.18-Apr-2020 3140.87 4575.35 71.90 6.00  35.20 1986.80
   15:35:54.754.18-Apr-2020 3140.87 4575.13 71.90 6.00  35.40 1986.80
   15:35:54.954.18-Apr-2020 3140.87 4575.29 71.90 6.00  35.60 1986.80
   15:35:55.154.18-Apr-2020 3140.87 4575.59 71.90 6.00  35.80 1986.80
   15:35:55.354.18-Apr-2020 3140.87 4572.26 71.90 6.00  36.00 1986.80
   15:35:55.554.18-Apr-2020 3140.87 4572.26 71.90 6.00  36.20 1986.80
   15:35:55.754.18-Apr-2020 3140.87 4575.27 71.90 6.00  36.40 1986.80
   15:35:55.954.18-Apr-2020 3140.87 4573.41 71.90 6.00  36.60 1986.80
   15:35:56.154.18-Apr-2020 3140.87 4574.87 71.90 6.00  36.80 1986.80
   15:35:56.354.18-Apr-2020 3140.87 4575.44 71.90 6.00  37.00 1986.80
   15:35:56.554.18-Apr-2020 3140.87 4575.44 71.90 6.00  37.20 1986.80
   15:35:56.754.18-Apr-2020 3140.87 4574.65 71.89 6.00  37.40 1986.80
   15:35:56.954.18-Apr-2020 3140.87 4573.39 71.89 6.00  37.60 1986.80
   15:35:57.154.18-Apr-2020 3140.87 4574.88 71.89 6.00  37.80 1986.80
   15:35:57.354.18-Apr-2020 3140.87 4574.82 71.89 6.00  38.00 1986.80
   15:35:57.554.18-Apr-2020 3140.87 4574.82 71.89 6.00  38.20 1986.80
   15:35:57.754.18-Apr-2020 3140.87 4573.93 71.89 6.00  38.40 1986.80
   15:35:57.954.18-Apr-2020 3140.87 4574.43 71.89 6.00  38.60 1986.80
   15:35:58.154.18-Apr-2020 3140.87 4570.53 71.89 6.00  38.80 1986.80
   15:35:58.354.18-Apr-2020 3140.87 4574.08 71.89 6.00  39.00 1986.80
   15:35:58.554.18-Apr-2020 3140.87 4574.08 71.89 6.00  39.20 1986.80
   15:35:58.754.18-Apr-2020 3140.87 4573.12 71.88 6.00  39.40 1986.80
   15:35:58.954.18-Apr-2020 3140.87 4572.86 71.88 6.00  39.60 1986.80
   15:35:59.154.18-Apr-2020 3140.87 4571.84 71.88 6.00  39.80 1986.80
   15:35:59.354.18-Apr-2020 3140.87 4573.85 71.88 6.00  40.00 1986.80
   15:35:59.554.18-Apr-2020 3140.87 4573.84 71.88 6.00  40.20 1986.80
   15:35:59.753.18-Apr-2020 3140.87 4573.17 71.88 6.00  40.40 1986.80
   15:35:59.953.18-Apr-2020 3140.87 4574.23 71.88 6.00  40.60 1986.80
   15:36:00.153.18-Apr-2020 3140.87 4574.13 71.88 6.00  40.80 1986.80
   15:36:00.353.18-Apr-2020 3140.87 4573.53 71.88 6.00  41.00 1986.80
   15:36:00.553.18-Apr-2020 3140.87 4573.53 71.88 6.00  41.20 1986.80
   15:36:00.753.18-Apr-2020 3140.87 4572.86 71.88 6.00  41.40 1986.80
   15:36:00.953.18-Apr-2020 3140.87 4572.04 71.87 6.00  41.60 1986.80
   15:36:01.153.18-Apr-2020 3140.87 4572.32 71.87 6.00  41.80 1986.80
   15:36:01.353.18-Apr-2020 3140.87 4572.45 71.87 6.00  42.00 1986.80
   15:36:01.553.18-Apr-2020 3140.87 4572.45 71.87 6.00  42.20 1986.80
   15:36:01.753.18-Apr-2020 3140.87 4571.82 71.87 6.00  42.40 1986.80
   15:36:01.953.18-Apr-2020 3140.87 4569.02 71.87 6.00  42.60 1986.80
   15:36:02.153.18-Apr-2020 3140.87 4572.80 71.87 6.00  42.80 1986.80
   15:36:02.353.18-Apr-2020 3140.87 4572.39 71.87 6.00  43.00 1986.80
   15:36:02.553.18-Apr-2020 3140.87 4572.39 71.87 6.00  43.19 1986.80
   15:36:02.753.18-Apr-2020 3140.87 4573.28 71.87 6.00  43.39 1986.80
   15:36:02.953.18-Apr-2020 3140.87 4573.37 71.87 6.00  43.59 1986.80
   15:36:03.153.18-Apr-2020 3140.87 4573.26 71.86 6.00  43.79 1986.80
   15:36:03.353.18-Apr-2020 3140.87 4573.45 71.86 6.00  43.99 1986.80
   15:36:03.553.18-Apr-2020 3140.87 4572.93 71.86 6.00  44.19 1986.80
   15:36:03.753.18-Apr-2020 3140.87 4572.61 71.86 6.00  44.39 1986.80
   15:36:03.953.18-Apr-2020 3140.87 4572.80 71.86 6.00  44.59 1986.80
   15:36:04.153.18-Apr-2020 3140.87 4573.03 71.86 6.00  44.79 1986.80
   15:36:04.353.18-Apr-2020 3140.87 4573.08 71.86 6.00  44.99 1986.80
   15:36:04.553.18-Apr-2020 3140.87 4572.70 71.86 6.00  45.19 1986.80
   15:36:04.753.18-Apr-2020 3140.87 4572.27 71.86 6.00  45.39 1986.80
   15:36:04.953.18-Apr-2020 3140.87 4570.68 71.86 6.00  45.59 1986.80
   15:36:05.153.18-Apr-2020 3140.87 4572.64 71.86 6.00  45.79 1986.80
