~Version Information
 VERS.                  2.0:   CWLS log ASCII Standard -VERSION 2.0
 WRAP.                   NO:   One line per depth step
~Well Information Block
#MNEM.UNIT     VALUE/NAME     DESCRIPTION
#---------     -----------    ---------------------------
 STRT.S             00:39:23 18-Apr-20: START TIME 00:39:23 18-Apr-20
 STOP.S             00:46:19 18-Apr-20: STOP TIME  00:46:19 18-Apr-20
 STEP.S                   0.00: STEP TIME
 NULL.                 -999.25: NULL VALUE
 DFWT.                        :  DIST FWL TEXT
 DFST.                        :  DIST FSL TEXT
 DMF .                        :  DRILL MEAS FROM
 STIM.      16.29.52 23-Mar-20:  START TIME
 DATE.      16.29.52 23-Mar-20:  END TIME
 SPUD.               23-Mar-20:  SPUD DATE
 NREF.                    Grid:  NORTH REFERENCE
 HPTY.       Minimum Curvature:  HOLE POS TYPE
 DMOD.             Drill Model:  DRILL MOD DESC
 SVYD.                  Survey:  SURVEY DESC
 ILTD.               Lithology:  INTERP LTH DESC
 FTOP.          Formation Tops:  FORM TOPS DESC
 SON .        AZ-XX-0906252240:  JOB NUMBER
 RIG .             West Chirag:  RIG NAME
 PDAT.          Mean Sea Level:  PERMANENT DATUM
 FLD .                     ACG:  FIELD NAME
 CTRY.              Azerbaijan:  COUNTRY NAME
 WELL.           J23 (Slot 07):  WELL NAME
 SRVC.          Turan Drilling:  CONTRACTOR
 COMP.     BP Exploration (Casoian Sea) Ltd:  COMPANY
 WTYP.                Deviated:  WELL TYPE
 MDS .        Operator Entered:  MAG DATA SOURCE
 UWI .                     N/A:  UNIQUE WELL IDENTIFIER
 API .                     N/A:  API NUMBER
 BASE.              Azerbaijan:  LOGGING EQUIPMENT BASE LOCATION
 REGN.                   EESSA:  REGION
 PROV.                    Baku:  PROVINCE
 STAT.                    Baku:  STATE NAME
 MWDS.                     N/A:  MWD SHOP
 JOBN.        AZ-XX-0906252240:  JOB TICKET NUMB
 DOE .                     N/A:  DOE NUMBER
 DCON.         Sperry Drilling:  DIRECTNL CONTR
 UNIT.                     N/A:  LOGGING EQUIPMENT ID
 CNTY.                        :  COUNTY
 LOC .                        :  LOCATION
 LMF .             Drill Floor:  LOG MEASURED FROM
 TVDS.m                  43.00:  TVDSS CORRECTN
 LATI.deg                40.13:  LATITUDE
 LONG.deg                51.22:  LONGITUDE
 WHNS.m                   9.43:  WELL HEAD N/S
 WHEW.m                  -8.91:  WELL HEAD E/W
 UTMX.m              519005.06:  UTM X
 UTMY.m             4443793.85:  UTM Y
 DFWL.m                   0.00:  DISTANCE FWL
 DFSL.m                   0.00:  DISTANCE FSL
 SDEP.m                   0.00:  START DEPTH
 TDD .m                   0.00:  TOTAL DEPTH (DRILLER)
 VSDR.deg               179.88:  VERT SEC DIRECT
 GVFD.g                   1.00:  GRAVITY FIELD
 MFLD.nT              50281.00:  MAGNETIC FIELD
 MDIP.deg                59.58:  MAGNETIC DIP
 MDEC.deg                 6.48:  MAGNETIC DECL
 GRDC.deg                 0.14:  GRID CORRECTION
 AZTC.deg                 6.34:  AZM TOTAL CORR
 EPD .m                   0.00:  ELEVATION
 EGL .m                   0.00:  GROUND ELEVATION
 WDMS.m                 169.80:  WD ELEV
 APD .m                  43.00:  DEPTH ABOVE PD
 DEP .m                 354.17:  DEPTH
 AGAP.m                  43.00:  AIR GAP
 VSEW.m                  -8.91:  VERT SEC E/W
 VSNS.m                   9.43:  VERT SEC N/S
 EKB .m                   0.00:  KB ELEVATION
 EDF .m                  43.00:  DF ELEVATION
 TDL .m                1326.00:  TOTAL DEPTH (LOGGER)
 VSC .                       0:  VS TO CLOSURE
 MAGU.                 1850704:  MAGUTM CHECKSUM
~Parameter Information Block
#MNEM.UNIT       Value        Description
#---------     -----------    ---------------------------
 AV  .mps                 1.17:  Ann Velocity 
 AZIF.deg               184.04:  Azm, Final 
 BHAT.        Rotary Steerable:  BHA Type 
 BREV.rev            620000.00:  Rev Bit Total 
 BROT.°/30m               0.20:  Build Rotating 
 BS  .in                 14.75:  Bit Size 
 BSZ .in                 14.75:  Bit Size 
 BTPL.psig              618.00:  Bit Press Loss 
 CABU.                      No:  Customer Abuse 
 COMM.                     TŠT:  Run Comments 1 
 TCS .hr                 87.68:  Time Ciculation Ended 
 CV  .mps                 3.10:  Crit Velocity 
 DD1 .          Rashad Habibov:  Direct Drillr 1 
 DD2 .         Rasim Ibrahimov:  Direct Drillr 2 
 DDSV.               Geo-Pilot:  DD Service 
 DEFF.%                  98.00:  % Det Eff 
 DLRX.°/30m               1.48:  Dogleg Rot Max 
 DLSO.°/30m               0.50:  Dogleg Oriented 
 DLSX.°/30m               1.48:  Dogleg Str Max 
 DRET.      06.18.56 19-Apr-20:  Drill End Time 
 DRST.      15.00.56 15-Apr-20:  Drill Start Tim 
 DTIM.hr                 51.73:  Time Drilling 
 EDEP.m                3410.01:  End Depth 
 ENG1.        Marcelo Sandoval:  Engineer 1 
 ENG2.        Davud Huseynzade:  Engineer 2 
 ENG3.          Ruslan Safarov:  Engineer 3 
 ETIM.      04.00.56 20-Apr-20:  End Time 
 FLOI.gpm              1000.00:  Flow In 
 FLON.gpm               600.00:  Flow In Min 
 FLOS.cptm                0.00:  Fluid Loss 
 FLOX.gpm              1200.00:  Flow In Max 
 HFLO.                      No:  High Flow 
 HPRE.                     Yes:  High Pressure 
 HTEM.                      No:  High Temp 
 HYDO.m                   1.80:  Hydro Offset 
 IFIN.deg                70.04:  Inc, Final 
 IMAX.deg                70.56:  Inc Max 
 IMIN.deg                69.85:  Inc Min 
 IMND.m                3103.24:  Inc Min Depth 
 IMXD.m                2876.63:  Inc Max Depth 
 JARR.                      No:  Jarring 
 LETM.      06.18.56 19-Apr-20:  Log End Time 
 LOST.hr                     0:  Lost Rig Time 
 LSTM.      15.00.56 15-Apr-20:  Log Start Time 
 MDCL.ppm             42000.00:  Mud Chlorides 
 MDES.     Inversion Oil/Synthetic:  Mud Desc 
 DFD .sg                  1.58:  Mud Density 
 MDMN.sg                  1.58:  Dens Mud Min 
 MDMX.sg                  1.58:  Dens Mud Max 
 MOIL.                      71:  Run Mud Oil % 
 MOWR.                   71:29:  Run Mud OWR 
 MSND.                       0:  Run Mud Sand % 
 MSOL.                    23.3:  Run Mud Solids% 
 DFV .spqt               84.00:  Mud Viscosity 
 MWOD.in                  9.50:  MWD Tool OD 
 MWSI.                      No:  Serv Intrp, MWD 
 OTIM.hr                139.62:  Time Operating 
 PMAX.psia             5364.69:  Press Op, Max 
 PV  .cP                 80.00:  Mud PV 
 RUN .                     700:  Run Number 
 ROPA.m/hr               25.00:  ROP Avg 
 ROPN.m/hr               11.00:  ROP Min 
 ROPX.m/hr               36.00:  ROP Max 
 RPMA.rpm               130.00:  RPM Surface Avg 
 RPMN.rpm               120.00:  RPM Surface Min 
 RPMX.rpm               140.00:  RPM Surface Max 
 RRUN.                    0700:  Rig Run Number 
 SAZI.deg               183.25:  Azm, Start 
 SDEP.m                2084.00:  Start Depth 
 SIDD.                      No:  Serv Intrp, DD 
 SINC.deg                70.38:  Inc, Start 
 SPPA.psig             4800.00:  SPP Avg 
 SPPN.psig             4400.00:  SPP Min 
 SPPX.psig             5350.00:  SPP Max 
 STIM.      16.30.56 14-Apr-20:  Start Time 
 SVCS.                 DD, MWD:  Services 
 SVER.                    9.20:  Sperry Version 
 TDAT.m                1326.00:  Tot Depth Attmp 
 TDDF.                      No:  Trip for DD 
 TDLG.m                1326.00:  Tot Depth Loggd 
 TFF .                      No:  Trip for Fail 
 TQAA.f-kp               19.00:  Torque Abs Avg 
 TQAN.f-kp                8.00:  Torque Abs Min 
 TQAX.f-kp               27.00:  Torque Abs Max 
 TRRT.°/30m               0.50:  Turn Rotating 
 MRT .                    HCIM:  Maximum Recorded Temperature 
 TTMX.degC               82.35:  Max Tool Temp 
 VS01.       905245875X1Z1W1C8:  Virtual Str1 SN 
 VS02.       90608022F11V7D1A9:  Virtual Str2 SN 
 VS03.            90605473R5C9:  Virtual Str3 SN 
 WBMN.klb                11.00:  WOB Min 
 WOBA.klb                21.00:  WOB Avg 
 WOBX.klb                30.00:  WOB Max 
 YP  .lhf2               45.00:  Yield Point 
~Curve Information Block
#MNEM.UNIT                 API CODE     Curve Description
#---------               -----------    ---------------------------
 TIME.HHMMSS            00 000 000 000:  GT Time & Date
 GTDEPTH.m              00 000 000 000:  GT Depth
 GTPQH.psia             00 000 000 000:  GT HR Quartz Pressure
 GTTQ.degC              00 000 000 000:  GT Quartz Temperature
 GTTN.NONE              00 000 000 000:  GT Test Number
 GTET.sec               00 000 000 000:  GT Elapsed Test Time
 GTTVD.m                00 000 000 000:  GT True Vertical Depth
#Other Information
#
#WARRANTY: Halliburton will use its best efforts to furnish customers with 
#accurate information and interpretations that are part of, and incident to, the services 
#provided.  However, Halliburton cannot and does not warrant the accuracy 
#or correctness of such information and interpretations.  Under no circumstances should any 
#such information or interpretation be relied upon as the sole basis for any drilling, 
#completion, production, or financial decision or any procedure involving any risk to the 
#safety of any drilling venture, drilling rig or its crew or any other third party.  The 
#Customer has full responsibility for all drilling, completion and production operation.  
#Halliburton makes no representations or warranties, either expressed or 
#implied, including, but not limited to, the implied warranties of merchantability or fitness 
#for a particular purpose, with respect to the services rendered.  In no event will 
#Halliburton be liable for failure to obtain any particular results or for 
#any damages, including, but not limited to, indirect, special or consequential damages, 
#resulting from the use of any information or interpretation provided by Halliburton.
#
~A           TIME           GTDEPTH  GTPQH  GTTQ  GTTN  GTET   GTTVD  
   00:39:23.308.18-Apr-2020 2932.07 -999.25 63.61 1.00   0.00 1915.77
   00:39:23.508.18-Apr-2020 2932.07    0.00 63.61 1.00   0.20 1915.77
   00:39:23.708.18-Apr-2020 2932.07    0.00 63.61 1.00   0.40 1915.77
   00:39:23.908.18-Apr-2020 2932.07 4426.92 63.60 1.00   0.60 1915.77
   00:39:24.108.18-Apr-2020 2932.07 4428.39 63.60 1.00   0.80 1915.77
   00:39:24.308.18-Apr-2020 2932.07 4427.40 63.60 1.00   1.00 1915.77
   00:39:24.509.18-Apr-2020 2932.07 4427.06 63.60 1.00   1.20 1915.77
   00:39:24.709.18-Apr-2020 2932.07 4426.25 63.60 1.00   1.40 1915.77
   00:39:24.909.18-Apr-2020 2932.07 4427.84 63.60 1.00   1.60 1915.77
   00:39:25.109.18-Apr-2020 2932.07 4427.83 63.60 1.00   1.80 1915.77
   00:39:25.309.18-Apr-2020 2932.07 4428.08 63.60 1.00   2.00 1915.77
   00:39:25.509.18-Apr-2020 2932.07 4428.08 63.60 1.00   2.20 1915.77
   00:39:25.709.18-Apr-2020 2932.07 4429.35 63.60 1.00   2.40 1915.77
   00:39:25.909.18-Apr-2020 2932.07 4429.00 63.60 1.00   2.60 1915.77
   00:39:26.109.18-Apr-2020 2932.07 4427.93 63.60 1.00   2.80 1915.77
   00:39:26.309.18-Apr-2020 2932.07 4429.72 63.60 1.00   3.00 1915.77
   00:39:26.509.18-Apr-2020 2932.07 4429.72 63.60 1.00   3.20 1915.77
   00:39:26.709.18-Apr-2020 2932.07 4429.27 63.60 1.00   3.40 1915.77
   00:39:26.909.18-Apr-2020 2932.07 4427.22 63.60 1.00   3.60 1915.77
   00:39:27.109.18-Apr-2020 2932.07 4429.09 63.60 1.00   3.80 1915.77
   00:39:27.309.18-Apr-2020 2932.07 4428.42 63.60 1.00   4.00 1915.77
   00:39:27.509.18-Apr-2020 2932.07 4428.42 63.60 1.00   4.20 1915.77
   00:39:27.709.18-Apr-2020 2932.07 4425.84 63.60 1.00   4.40 1915.77
   00:39:27.909.18-Apr-2020 2932.07 4427.19 63.60 1.00   4.60 1915.77
   00:39:28.109.18-Apr-2020 2932.07 4426.04 63.60 1.00   4.80 1915.77
   00:39:28.309.18-Apr-2020 2932.07 4425.05 63.60 1.00   5.00 1915.77
   00:39:28.509.18-Apr-2020 2932.07 4422.55 63.60 1.00   5.20 1915.77
   00:39:28.709.18-Apr-2020 2932.07 4423.72 63.60 1.00   5.40 1915.77
   00:39:28.909.18-Apr-2020 2932.07 4422.49 63.60 1.00   5.60 1915.77
   00:39:29.109.18-Apr-2020 2932.07 4421.70 63.60 1.00   5.80 1915.77
   00:39:29.309.18-Apr-2020 2932.07 4419.15 63.59 1.00   6.00 1915.77
   00:39:29.509.18-Apr-2020 2932.07 4419.15 63.59 1.00   6.20 1915.77
   00:39:29.709.18-Apr-2020 2932.07 4420.03 63.59 1.00   6.40 1915.77
   00:39:29.909.18-Apr-2020 2932.07 4419.62 63.59 1.00   6.60 1915.77
   00:39:30.109.18-Apr-2020 2932.07 4419.45 63.59 1.00   6.80 1915.77
   00:39:30.309.18-Apr-2020 2932.07 4418.47 63.59 1.00   7.00 1915.77
   00:39:30.509.18-Apr-2020 2932.07 4418.47 63.59 1.00   7.20 1915.77
   00:39:30.710.18-Apr-2020 2932.07 4419.70 63.59 1.00   7.40 1915.77
   00:39:30.910.18-Apr-2020 2932.07 4419.58 63.59 1.00   7.60 1915.77
   00:39:31.110.18-Apr-2020 2932.07 4419.51 63.59 1.00   7.80 1915.77
   00:39:31.310.18-Apr-2020 2932.07 4419.51 63.59 1.00   8.00 1915.77
   00:39:31.510.18-Apr-2020 2932.07 4418.85 63.59 1.00   8.20 1915.77
   00:39:31.710.18-Apr-2020 2932.07 4418.83 63.59 1.00   8.40 1915.77
   00:39:31.910.18-Apr-2020 2932.07 4418.68 63.59 1.00   8.60 1915.77
   00:39:32.110.18-Apr-2020 2932.07 4418.02 63.59 1.00   8.80 1915.77
   00:39:32.310.18-Apr-2020 2932.07 4417.87 63.59 1.00   9.00 1915.77
   00:39:32.510.18-Apr-2020 2932.07 4417.87 63.59 1.00   9.20 1915.77
   00:39:32.710.18-Apr-2020 2932.07 4417.23 63.59 1.00   9.40 1915.77
   00:39:32.910.18-Apr-2020 2932.07 4417.10 63.59 1.00   9.60 1915.77
   00:39:33.110.18-Apr-2020 2932.07 4416.79 63.59 1.00   9.80 1915.77
   00:39:33.310.18-Apr-2020 2932.07 4415.07 63.59 1.00  10.00 1915.77
   00:39:33.510.18-Apr-2020 2932.07 4415.07 63.59 1.00  10.20 1915.77
   00:39:33.710.18-Apr-2020 2932.07 4416.76 63.59 1.00  10.40 1915.77
   00:39:33.910.18-Apr-2020 2932.07 4416.78 63.59 1.00  10.60 1915.77
   00:39:34.110.18-Apr-2020 2932.07 4416.79 63.59 1.00  10.80 1915.77
   00:39:34.310.18-Apr-2020 2932.07 4417.50 63.58 1.00  11.00 1915.77
   00:39:34.510.18-Apr-2020 2932.07 4417.50 63.58 1.00  11.20 1915.77
   00:39:34.710.18-Apr-2020 2932.07 4417.42 63.58 1.00  11.40 1915.77
   00:39:34.910.18-Apr-2020 2932.07 4417.59 63.58 1.00  11.60 1915.77
   00:39:35.110.18-Apr-2020 2932.07 4418.31 63.58 1.00  11.80 1915.77
   00:39:35.310.18-Apr-2020 2932.07 4418.56 63.58 1.00  12.00 1915.77
   00:39:35.510.18-Apr-2020 2932.07 4418.88 63.58 1.00  12.20 1915.77
   00:39:35.710.18-Apr-2020 2932.07 4419.32 63.58 1.00  12.40 1915.77
   00:39:35.910.18-Apr-2020 2932.07 4419.93 63.58 1.00  12.60 1915.77
   00:39:36.110.18-Apr-2020 2932.07 4420.26 63.58 1.00  12.80 1915.77
   00:39:36.310.18-Apr-2020 2932.07 4418.57 63.58 1.00  13.00 1915.77
   00:39:36.510.18-Apr-2020 2932.07 4421.01 63.58 1.00  13.20 1915.77
   00:39:36.710.18-Apr-2020 2932.07 4420.82 63.58 1.00  13.40 1915.77
   00:39:36.911.18-Apr-2020 2932.07 4420.82 63.58 1.00  13.60 1915.77
   00:39:37.111.18-Apr-2020 2932.07 4420.05 63.58 1.00  13.80 1915.77
   00:39:37.311.18-Apr-2020 2932.07 4421.57 63.58 1.00  14.00 1915.77
   00:39:37.511.18-Apr-2020 2932.07 4421.57 63.58 1.00  14.20 1915.77
   00:39:37.711.18-Apr-2020 2932.07 4419.17 63.58 1.00  14.40 1915.77
   00:39:37.911.18-Apr-2020 2932.07 4421.75 63.58 1.00  14.60 1915.77
   00:39:38.111.18-Apr-2020 2932.07 4421.74 63.58 1.00  14.80 1915.77
   00:39:38.311.18-Apr-2020 2932.07 4419.91 63.58 1.00  15.00 1915.77
   00:39:38.511.18-Apr-2020 2932.07 4421.98 63.58 1.00  15.20 1915.77
   00:39:38.711.18-Apr-2020 2932.07 4422.24 63.58 1.00  15.40 1915.77
   00:39:38.911.18-Apr-2020 2932.07 4421.50 63.58 1.00  15.60 1915.77
   00:39:39.111.18-Apr-2020 2932.07 4421.72 63.58 1.00  15.80 1915.77
   00:39:39.311.18-Apr-2020 2932.07 4423.03 63.57 1.00  16.00 1915.77
   00:39:39.511.18-Apr-2020 2932.07 4423.03 63.57 1.00  16.20 1915.77
   00:39:39.711.18-Apr-2020 2932.07 4421.60 63.57 1.00  16.40 1915.77
   00:39:39.911.18-Apr-2020 2932.07 4424.33 63.57 1.00  16.60 1915.77
   00:39:40.111.18-Apr-2020 2932.07 4424.16 63.57 1.00  16.80 1915.77
   00:39:40.311.18-Apr-2020 2932.07 4424.19 63.57 1.00  17.00 1915.77
   00:39:40.511.18-Apr-2020 2932.07 4424.19 63.57 1.00  17.20 1915.77
   00:39:40.711.18-Apr-2020 2932.07 4423.87 63.57 1.00  17.40 1915.77
   00:39:40.911.18-Apr-2020 2932.07 4423.95 63.57 1.00  17.60 1915.77
   00:39:41.111.18-Apr-2020 2932.07 4423.76 63.57 1.00  17.80 1915.77
   00:39:41.311.18-Apr-2020 2932.07 4423.57 63.57 1.00  18.00 1915.77
   00:39:41.511.18-Apr-2020 2932.07 4423.57 63.57 1.00  18.20 1915.77
   00:39:41.711.18-Apr-2020 2932.07 4423.29 63.57 1.00  18.40 1915.77
   00:39:41.911.18-Apr-2020 2932.07 4423.04 63.57 1.00  18.60 1915.77
   00:39:42.111.18-Apr-2020 2932.07 4423.16 63.57 1.00  18.80 1915.77
   00:39:42.311.18-Apr-2020 2932.07 4422.90 63.57 1.00  19.00 1915.77
   00:39:42.511.18-Apr-2020 2932.07 4422.90 63.57 1.00  19.20 1915.77
   00:39:42.711.18-Apr-2020 2932.07 4422.99 63.57 1.00  19.40 1915.77
   00:39:42.911.18-Apr-2020 2932.07 4422.90 63.57 1.00  19.60 1915.77
   00:39:43.112.18-Apr-2020 2932.07 4422.86 63.57 1.00  19.80 1915.77
   00:39:43.312.18-Apr-2020 2932.07 4422.20 63.57 1.00  20.00 1915.77
   00:39:43.512.18-Apr-2020 2932.07 4422.20 63.57 1.00  20.20 1915.77
   00:39:43.712.18-Apr-2020 2932.07 4422.40 63.57 1.00  20.40 1915.77
   00:39:43.912.18-Apr-2020 2932.07 4422.35 63.57 1.00  20.60 1915.77
   00:39:44.112.18-Apr-2020 2932.07 4422.18 63.57 1.00  20.80 1915.77
   00:39:44.312.18-Apr-2020 2932.07 4421.98 63.56 1.00  21.00 1915.77
   00:39:44.512.18-Apr-2020 2932.07 4422.22 63.56 1.00  21.20 1915.77
   00:39:44.712.18-Apr-2020 2932.07 4421.79 63.56 1.00  21.40 1915.77
   00:39:44.912.18-Apr-2020 2932.07 4421.70 63.56 1.00  21.60 1915.77
   00:39:45.112.18-Apr-2020 2932.07 4421.85 63.56 1.00  21.80 1915.77
   00:39:45.312.18-Apr-2020 2932.07 4419.87 63.56 1.00  22.00 1915.77
   00:39:45.512.18-Apr-2020 2932.07 4419.87 63.56 1.00  22.20 1915.77
   00:39:45.712.18-Apr-2020 2932.07 4421.19 63.56 1.00  22.40 1915.77
   00:39:45.912.18-Apr-2020 2932.07 4419.25 63.56 1.00  22.60 1915.77
   00:39:46.112.18-Apr-2020 2932.07 4420.79 63.56 1.00  22.80 1915.77
