~Version Information
 VERS.                  2.0:   CWLS log ASCII Standard -VERSION 2.0
 WRAP.                   NO:   One line per depth step
~Well Information Block
#MNEM.UNIT     VALUE/NAME     DESCRIPTION
#---------     -----------    ---------------------------
 STRT.S             06:03:21 17-Sep-21: START TIME 06:03:21 17-Sep-21
 STOP.S             06:11:58 17-Sep-21: STOP TIME  06:11:58 17-Sep-21
 STEP.S                   0.00: STEP TIME
 NULL.                 -999.25: NULL VALUE
 DFWT.                        :  DIST FWL TEXT
 DFST.                        :  DIST FSL TEXT
 DMF .             Drill Floor:  DRILL MEAS FROM
 STIM.      10.59.12 05-Jul-21:  START TIME
 DATE.      10.59.12 10-Sep-21:  END TIME
 SPUD.               05-Jul-21:  SPUD DATE
 NREF.                    Grid:  NORTH REFERENCE
 HPTY.       Minimum Curvature:  HOLE POS TYPE
 DMOD.             Drill Model:  DRILL MOD DESC
 SVYD.                  Survey:  SURVEY DESC
 ILTD.               Lithology:  INTERP LTH DESC
 FTOP.          Formation Tops:  FORM TOPS DESC
 RIG .                     DWG:  RIG NAME
 PDAT.          Mean Sea Level:  PERMANENT DATUM
 FLD .                     ACG:  FIELD NAME
 SON .        AZ-XX-0907115008:  JOB NUMBER
 CTRY.              Azerbaijan:  COUNTRY NAME
 WELL.                    E35A:  WELL NAME
 SRVC.          TURAN DRILLING:  CONTRACTOR
 COMP.     BP Exploration (Caspian Sea LTD):  COMPANY
 UWI .                     N/A:  UNIQUE WELL IDENTIFIER
 API .                     N/A:  API NUMBER
 MDS .        Operator Entered:  MAG DATA SOURCE
 BASE.              Azerbaijan:  LOGGING EQUIPMENT BASE LOCATION
 REGN.                   EESSA:  REGION
 PROV.                    Baku:  PROVINCE
 STAT.                    Baku:  STATE NAME
 MWDS.                    Baku:  MWD SHOP
 JOBN.        AZ-XX-0907115008:  JOB TICKET NUMB
 DOE .                     N/A:  DOE NUMBER
 DCON.         Sperry Drilling:  DIRECTNL CONTR
 UNIT.                     N/A:  LOGGING EQUIPMENT ID
 WTYP.                Deviated:  WELL TYPE
 CNTY.                        :  COUNTY
 LOC .                        :  LOCATION
 LMF .             Drill Floor:  LOG MEASURED FROM
 TVDS.m                  43.16:  TVDSS CORRECTN
 LATI.deg                40.17:  LATITUDE
 LONG.deg                51.17:  LONGITUDE
 WHNS.m                  10.51:  WELL HEAD N/S
 WHEW.m                 -14.82:  WELL HEAD E/W
 UTMX.m              514336.92:  UTM X
 UTMY.m             4448618.56:  UTM Y
 DFWL.m                   0.00:  DISTANCE FWL
 DFSL.m                   0.00:  DISTANCE FSL
 SDEP.m                 849.00:  START DEPTH
 TDD .m                2862.00:  TOTAL DEPTH (DRILLER)
 VSDR.deg               292.10:  VERT SEC DIRECT
 GVFD.g                   1.00:  GRAVITY FIELD
 MFLD.nT              50382.00:  MAGNETIC FIELD
 MDIP.deg                59.68:  MAGNETIC DIP
 MDEC.deg                 6.66:  MAGNETIC DECL
 GRDC.deg                 0.09:  GRID CORRECTION
 AZTC.deg                 6.57:  AZM TOTAL CORR
 EPD .m                   0.00:  ELEVATION
 EGL .m                   0.00:  GROUND ELEVATION
 WDMS.m                 176.20:  WD ELEV
 APD .m                  43.16:  DEPTH ABOVE PD
 DEP .m                 363.42:  DEPTH
 AGAP.m                  43.16:  AIR GAP
 VSEW.m                 -14.82:  VERT SEC E/W
 VSNS.m                  10.51:  VERT SEC N/S
 EKB .m                  43.16:  KB ELEVATION
 EDF .m                  43.16:  DF ELEVATION
 TDL .m                1390.00:  TOTAL DEPTH (LOGGER)
 VSC .                       0:  VS TO CLOSURE
 MAGU.                 1855871:  MAGUTM CHECKSUM
~Parameter Information Block
#MNEM.UNIT       Value        Description
#---------     -----------    ---------------------------
 AV  .mps                 2.28:  Ann Velocity 
 AVMX.mps                 2.67:  Max Ann Veloc 
 AZIF.deg               305.00:  Azm, Final 
 BHAT.        Rotary Steerable:  BHA Type 
 BROT.°/30m               0.45:  Build Rotating 
 BS  .in                 12.25:  Bit Size 
 BSZ .in                 12.25:  Bit Size 
 BTPL.psig              600.00:  Bit Press Loss 
 CABU.                     Yes:  Customer Abuse 
 COMM.                     $t:  Run Comments 1 
 TCS .hr                150.00:  Time Ciculation Ended 
 CV  .mps                 1.24:  Crit Velocity 
 CVMX.mps                 1.66:  Max Crit Veloc 
 DD1 .         Intigam Rahimov:  Direct Drillr 1 
 DD2 .            Azer Ravavov:  Direct Drillr 2 
 DD3 .              Samir Abas:  Direct Drillr 3 
 DDSV.               Geo-Pilot:  DD Service 
 DEFF.%                 100.00:  % Det Eff 
 DLRX.°/30m               1.57:  Dogleg Rot Max 
 DLSO.°/30m               0.00:  Dogleg Oriented 
 DLSX.°/30m               0.00:  Dogleg Str Max 
 DRET.      20.28.06 17-Sep-21:  Drill End Time 
 DRST.      20.27.35 10-Sep-21:  Drill Start Tim 
 DTIM.hr                 54.00:  Time Drilling 
 EDEP.m                5260.00:  End Depth 
 ENG1.      Bakhtiyar Jabbarli:  Engineer 1 
 ENG2.      Natik Hasanaghayev:  Engineer 2 
 ENG3.           Royal Nasirov:  Engineer 3 
 ETIM.      20.27.55 18-Sep-21:  End Time 
 FLOI.gpm              1100.00:  Flow In 
 FLON.gpm               800.00:  Flow In Min 
 FLOS.cptm                0.00:  Fluid Loss 
 FLOX.gpm              1200.00:  Flow In Max 
 DFT .        Mineral Oil Base:  Mud Type 
 HPRE.                      No:  High Pressure 
 HTEM.                      No:  High Temp 
 HYDO.m                   1.80:  Hydro Offset 
 IFIN.deg                72.31:  Inc, Final 
 IMAX.deg                72.36:  Inc Max 
 IMIN.deg                69.36:  Inc Min 
 IMND.m                4192.96:  Inc Min Depth 
 IMXD.m                5128.36:  Inc Max Depth 
 JARR.                      No:  Jarring 
 LETM.      20.29.00 17-Sep-21:  Log End Time 
 LOST.hr                     0:  Lost Rig Time 
 LSTM.      20.27.00 10-Sep-21:  Log Start Time 
 MDCL.ppm            227000.00:  Mud Chlorides 
 MDES.     Inversion Oil/Synthetic:  Mud Desc 
 DFD .sg                  1.45:  Mud Density 
 MDMN.sg                  1.45:  Dens Mud Min 
 MDMX.sg                  1.45:  Dens Mud Max 
 MOIL.                    70.5:  Run Mud Oil % 
 MOWR.                   71:29:  Run Mud OWR 
 MSND.                     0.3:  Run Mud Sand % 
 MSOL.                    19.8:  Run Mud Solids% 
 DFV .spqt               80.00:  Mud Viscosity 
 MWOD.in                  8.00:  MWD Tool OD 
 MWSI.                     Yes:  Serv Intrp, MWD 
 OTIM.hr                180.00:  Time Operating 
 PCON.           Look Like New:  Pad Condition 
 PMAX.psia             9910.94:  Press Op, Max 
 PV  .cP                 35.00:  Mud PV 
 RUN .                    1000:  Run Number 
 ROPA.m/hr               18.00:  ROP Avg 
 ROPN.m/hr                8.00:  ROP Min 
 ROPX.m/hr               23.00:  ROP Max 
 RPMA.rpm               150.00:  RPM Surface Avg 
 RPMN.rpm               120.00:  RPM Surface Min 
 RPMX.rpm               160.00:  RPM Surface Max 
 RRUN.                    L503:  Rig Run Number 
 RTIM.hr                  5.00:  Time Reaming 
 SAZI.deg               298.42:  Azm, Start 
 SDEP.m                3870.00:  Start Depth 
 SIDD.                      No:  Serv Intrp, DD 
 SINC.deg                69.57:  Inc, Start 
 SPPA.psig             5500.00:  SPP Avg 
 SPPN.psig             4400.00:  SPP Min 
 SPPX.psig             5800.00:  SPP Max 
 STIM.      15.29.39 09-Sep-21:  Start Time 
 SVCS.                 DD, MWD:  Services 
 SVER.                    9.20:  Sperry Version 
 TDAT.m                5260.00:  Tot Depth Attmp 
 TDDF.                      No:  Trip for DD 
 TDLG.m                1390.00:  Tot Depth Loggd 
 TFF .                      No:  Trip for Fail 
 TQAA.f-kp               22.00:  Torque Abs Avg 
 TQAN.f-kp               13.00:  Torque Abs Min 
 TQAX.f-kp               27.00:  Torque Abs Max 
 TRRT.°/30m               1.60:  Turn Rotating 
 MRT .                  EWR-M5:  Maximum Recorded Temperature 
 TTMX.degC               92.00:  Max Tool Temp 
 VS01.                12330975:  Virtual Str1 SN 
 VS02.                90658671:  Virtual Str2 SN 
 VS03.                90658508:  Virtual Str3 SN 
 VS04.                90660974:  Virtual Str4 SN 
 VS05.                90654675:  Virtual Str5 SN 
 WBMN.klb                15.00:  WOB Min 
 WITN.     Alexander Yadullayev:  Customer Rep 
 WITN.           Adil Mammadov:  Customer Rep 2 
 WOBA.klb                17.00:  WOB Avg 
 WOBX.klb                18.00:  WOB Max 
 YP  .lhf2               31.00:  Yield Point 
~Curve Information Block
#MNEM.UNIT                 API CODE     Curve Description
#---------               -----------    ---------------------------
 TIME.HHMMSS            00 000 000 000:  GT Time & Date
 GTDEPTH.m              00 000 000 000:  GT Depth
 GTPQH.psia             00 000 000 000:  GT HR Quartz Pressure
 GTTQ.degC              00 000 000 000:  GT Quartz Temperature
 GTTN.NONE              00 000 000 000:  GT Test Number
 GTET.sec               00 000 000 000:  GT Elapsed Test Time
 GTTVD.m                00 000 000 000:  GT True Vertical Depth
#Other Information
#
#WARRANTY: Halliburton will use its best efforts to furnish customers with 
#accurate information and interpretations that are part of, and incident to, the services 
#provided.  However, Halliburton cannot and does not warrant the accuracy 
#or correctness of such information and interpretations.  Under no circumstances should any 
#such information or interpretation be relied upon as the sole basis for any drilling, 
#completion, production, or financial decision or any procedure involving any risk to the 
#safety of any drilling venture, drilling rig or its crew or any other third party.  The 
#Customer has full responsibility for all drilling, completion and production operation.  
#Halliburton makes no representations or warranties, either expressed or 
#implied, including, but not limited to, the implied warranties of merchantability or fitness 
#for a particular purpose, with respect to the services rendered.  In no event will 
#Halliburton be liable for failure to obtain any particular results or for 
#any damages, including, but not limited to, indirect, special or consequential damages, 
#resulting from the use of any information or interpretation provided by Halliburton.
#
~A           TIME           GTDEPTH  GTPQH  GTTQ  GTTN  GTET   GTTVD  
# ...
   06:11:24.551.17-Sep-2021 5057.50 5539.01 79.33 6.00 482.90 2583.80
   06:11:24.751.17-Sep-2021 5057.50 5539.01 79.33 6.00 483.10 2583.80
   06:11:24.951.17-Sep-2021 5057.50 5538.44 79.32 6.00 483.30 2583.80
   06:11:25.151.17-Sep-2021 5057.50 5539.94 79.32 6.00 483.50 2583.80
   06:11:25.351.17-Sep-2021 5057.50 5542.08 79.32 6.00 483.70 2583.80
   06:11:25.551.17-Sep-2021 5057.50 5539.28 79.32 6.00 483.90 2583.80
   06:11:25.751.17-Sep-2021 5057.50 5539.28 79.32 6.00 484.10 2583.80
   06:11:25.951.17-Sep-2021 5057.50 5537.37 79.32 6.00 484.30 2583.80
   06:11:26.151.17-Sep-2021 5057.50 5544.66 79.32 6.00 484.50 2583.80
   06:11:26.351.17-Sep-2021 5057.50 5554.54 79.32 6.00 484.70 2583.80
   06:11:26.551.17-Sep-2021 5057.50 5558.58 79.32 6.00 484.90 2583.80
   06:11:26.751.17-Sep-2021 5057.50 5558.58 79.32 6.00 485.10 2583.80
   06:11:26.951.17-Sep-2021 5057.50 5564.89 79.32 6.00 485.30 2583.80
   06:11:27.151.17-Sep-2021 5057.50 5567.09 79.32 6.00 485.50 2583.80
   06:11:27.351.17-Sep-2021 5057.50 5573.26 79.32 6.00 485.70 2583.80
   06:11:27.551.17-Sep-2021 5057.50 5583.58 79.32 6.00 485.90 2583.80
   06:11:27.751.17-Sep-2021 5057.50 5583.58 79.32 6.00 486.10 2583.80
   06:11:27.951.17-Sep-2021 5057.50 5603.25 79.32 6.00 486.30 2583.80
   06:11:28.151.17-Sep-2021 5057.50 5608.19 79.32 6.00 486.50 2583.80
   06:11:28.350.17-Sep-2021 5057.50 5600.60 79.32 6.00 486.70 2583.80
   06:11:28.550.17-Sep-2021 5057.50 5611.91 79.32 6.00 486.90 2583.80
   06:11:28.750.17-Sep-2021 5057.50 5611.91 79.32 6.00 487.10 2583.80
   06:11:28.950.17-Sep-2021 5057.50 5602.71 79.32 6.00 487.30 2583.80
   06:11:29.150.17-Sep-2021 5057.50 5612.82 79.32 6.00 487.50 2583.80
   06:11:29.350.17-Sep-2021 5057.50 5620.43 79.32 6.00 487.70 2583.80
   06:11:29.550.17-Sep-2021 5057.50 5586.52 79.32 6.00 487.90 2583.80
   06:11:29.750.17-Sep-2021 5057.50 5586.52 79.32 6.00 488.10 2583.80
   06:11:29.950.17-Sep-2021 5057.50 5542.32 79.32 6.00 488.30 2583.80
   06:11:30.150.17-Sep-2021 5057.50 5540.96 79.32 6.00 488.50 2583.80
   06:11:30.350.17-Sep-2021 5057.50 5541.12 79.32 6.00 488.70 2583.80
   06:11:30.550.17-Sep-2021 5057.50 5540.73 79.32 6.00 488.90 2583.80
   06:11:30.750.17-Sep-2021 5057.50 5540.73 79.32 6.00 489.10 2583.80
   06:11:30.950.17-Sep-2021 5057.50 5540.26 79.32 6.00 489.30 2583.80
   06:11:31.150.17-Sep-2021 5057.50 5539.82 79.31 6.00 489.50 2583.80
   06:11:31.350.17-Sep-2021 5057.50 5539.98 79.31 6.00 489.70 2583.80
   06:11:31.550.17-Sep-2021 5057.50 5539.98 79.31 6.00 489.90 2583.80
   06:11:31.750.17-Sep-2021 5057.50 5539.98 79.31 6.00 490.10 2583.80
   06:11:31.950.17-Sep-2021 5057.50 5540.00 79.31 6.00 490.30 2583.80
   06:11:32.150.17-Sep-2021 5057.50 5540.10 79.31 6.00 490.50 2583.80
   06:11:32.350.17-Sep-2021 5057.50 5540.42 79.31 6.00 490.70 2583.80
   06:11:32.550.17-Sep-2021 5057.50 5540.42 79.31 6.00 490.90 2583.80
   06:11:32.750.17-Sep-2021 5057.50 5540.42 79.31 6.00 491.10 2583.80
   06:11:32.950.17-Sep-2021 5057.50 5542.68 79.31 6.00 491.30 2583.80
   06:11:33.149.17-Sep-2021 5057.50 5540.61 79.31 6.00 491.50 2583.80
   06:11:33.349.17-Sep-2021 5057.50 5540.59 79.31 6.00 491.70 2583.80
   06:11:33.549.17-Sep-2021 5057.50 5541.62 79.31 6.00 491.90 2583.80
   06:11:33.749.17-Sep-2021 5057.50 5541.62 79.31 6.00 492.10 2583.80
   06:11:33.949.17-Sep-2021 5057.50 5541.06 79.31 6.00 492.30 2583.80
   06:11:34.149.17-Sep-2021 5057.50 5540.09 79.31 6.00 492.50 2583.80
   06:11:34.349.17-Sep-2021 5057.50 5543.64 79.31 6.00 492.69 2583.80
   06:11:34.549.17-Sep-2021 5057.50 5536.79 79.31 6.00 492.89 2583.80
   06:11:34.749.17-Sep-2021 5057.50 5536.79 79.31 6.00 493.09 2583.80
   06:11:34.949.17-Sep-2021 5057.50 5539.29 79.31 6.00 493.29 2583.80
   06:11:35.149.17-Sep-2021 5057.50 5542.97 79.31 6.00 493.49 2583.80
   06:11:35.349.17-Sep-2021 5057.50 5537.78 79.31 6.00 493.69 2583.80
   06:11:35.549.17-Sep-2021 5057.50 5540.91 79.31 6.00 493.89 2583.80
   06:11:35.749.17-Sep-2021 5057.50 5540.91 79.31 6.00 494.09 2583.80
   06:11:35.949.17-Sep-2021 5057.50 5538.91 79.31 6.00 494.29 2583.80
   06:11:36.149.17-Sep-2021 5057.50 5543.99 79.31 6.00 494.49 2583.80
   06:11:36.349.17-Sep-2021 5057.50 5536.67 79.31 6.00 494.69 2583.80
   06:11:36.549.17-Sep-2021 5057.50 5540.37 79.31 6.00 494.89 2583.80
   06:11:36.749.17-Sep-2021 5057.50 5540.37 79.31 6.00 495.09 2583.80
   06:11:36.949.17-Sep-2021 5057.50 5539.47 79.31 6.00 495.29 2583.80
   06:11:37.149.17-Sep-2021 5057.50 5539.39 79.30 6.00 495.49 2583.80
   06:11:37.349.17-Sep-2021 5057.50 5539.13 79.30 6.00 495.69 2583.80
   06:11:37.549.17-Sep-2021 5057.50 5539.34 79.30 6.00 495.89 2583.80
   06:11:37.748.17-Sep-2021 5057.50 5539.34 79.30 6.00 496.09 2583.80
   06:11:37.948.17-Sep-2021 5057.50 5539.15 79.30 6.00 496.29 2583.80
   06:11:38.148.17-Sep-2021 5057.50 5539.36 79.30 6.00 496.49 2583.80
   06:11:38.348.17-Sep-2021 5057.50 5539.90 79.30 6.00 496.69 2583.80
   06:11:38.548.17-Sep-2021 5057.50 5539.73 79.30 6.00 496.89 2583.80
   06:11:38.748.17-Sep-2021 5057.50 5539.73 79.30 6.00 497.09 2583.80
   06:11:38.948.17-Sep-2021 5057.50 5540.01 79.30 6.00 497.29 2583.80
   06:11:39.148.17-Sep-2021 5057.50 5539.89 79.30 6.00 497.49 2583.80
   06:11:39.348.17-Sep-2021 5057.50 5542.74 79.30 6.00 497.69 2583.80
   06:11:39.548.17-Sep-2021 5057.50 5539.62 79.30 6.00 497.89 2583.80
   06:11:39.748.17-Sep-2021 5057.50 5539.62 79.30 6.00 498.09 2583.80
   06:11:39.948.17-Sep-2021 5057.50 5540.34 79.30 6.00 498.29 2583.80
   06:11:40.148.17-Sep-2021 5057.50 5539.64 79.30 6.00 498.49 2583.80
   06:11:40.348.17-Sep-2021 5057.50 5539.91 79.30 6.00 498.69 2583.80
   06:11:40.548.17-Sep-2021 5057.50 5539.30 79.30 6.00 498.89 2583.80
   06:11:40.748.17-Sep-2021 5057.50 5539.30 79.30 6.00 499.09 2583.80
   06:11:40.948.17-Sep-2021 5057.50 5539.02 79.30 6.00 499.29 2583.80
   06:11:41.148.17-Sep-2021 5057.50 5539.01 79.30 6.00 499.49 2583.80
   06:11:41.348.17-Sep-2021 5057.50 5539.18 79.30 6.00 499.69 2583.80
   06:11:41.548.17-Sep-2021 5057.50 5539.29 79.30 6.00 499.89 2583.80
   06:11:41.748.17-Sep-2021 5057.50 5539.29 79.30 6.00 500.09 2583.80
   06:11:41.948.17-Sep-2021 5057.50 5539.41 79.30 6.00 500.29 2583.80
   06:11:42.148.17-Sep-2021 5057.50 5539.75 79.30 6.00 500.49 2583.80
   06:11:42.347.17-Sep-2021 5057.50 5539.80 79.30 6.00 500.69 2583.80
   06:11:42.547.17-Sep-2021 5057.50 5540.25 79.30 6.00 500.89 2583.80
   06:11:42.747.17-Sep-2021 5057.50 5540.25 79.30 6.00 501.09 2583.80
   06:11:42.947.17-Sep-2021 5057.50 5538.73 79.29 6.00 501.29 2583.80
   06:11:43.147.17-Sep-2021 5057.50 5542.17 79.29 6.00 501.49 2583.80
   06:11:43.347.17-Sep-2021 5057.50 5539.83 79.29 6.00 501.69 2583.80
   06:11:43.547.17-Sep-2021 5057.50 5539.82 79.29 6.00 501.89 2583.80
   06:11:43.747.17-Sep-2021 5057.50 5539.82 79.29 6.00 502.09 2583.80
   06:11:43.947.17-Sep-2021 5057.50 5539.17 79.29 6.00 502.29 2583.80
   06:11:44.147.17-Sep-2021 5057.50 5541.61 79.29 6.00 502.49 2583.80
   06:11:44.347.17-Sep-2021 5057.50 5538.66 79.29 6.00 502.69 2583.80
   06:11:44.547.17-Sep-2021 5057.50 5540.38 79.29 6.00 502.89 2583.80
   06:11:44.747.17-Sep-2021 5057.50 5540.38 79.29 6.00 503.09 2583.80
   06:11:44.947.17-Sep-2021 5057.50 5538.79 79.29 6.00 503.29 2583.80
   06:11:45.147.17-Sep-2021 5057.50 5539.22 79.29 6.00 503.49 2583.80
   06:11:45.347.17-Sep-2021 5057.50 5539.81 79.29 6.00 503.69 2583.80
   06:11:45.547.17-Sep-2021 5057.50 5539.48 79.29 6.00 503.89 2583.80
   06:11:45.747.17-Sep-2021 5057.50 5539.48 79.29 6.00 504.09 2583.80
   06:11:45.947.17-Sep-2021 5057.50 5539.00 79.29 6.00 504.29 2583.80
   06:11:46.147.17-Sep-2021 5057.50 5538.78 79.29 6.00 504.49 2583.80
   06:11:46.347.17-Sep-2021 5057.50 5540.18 79.29 6.00 504.69 2583.80
   06:11:46.547.17-Sep-2021 5057.50 5539.57 79.29 6.00 504.89 2583.80
   06:11:46.747.17-Sep-2021 5057.50 5539.57 79.29 6.00 505.09 2583.80
   06:11:46.947.17-Sep-2021 5057.50 5539.62 79.29 6.00 505.29 2583.80
   06:11:47.146.17-Sep-2021 5057.50 5538.98 79.29 6.00 505.49 2583.80
   06:11:47.346.17-Sep-2021 5057.50 5539.21 79.29 6.00 505.69 2583.80
