~Version Information
 VERS.                  2.0:   CWLS log ASCII Standard -VERSION 2.0
 WRAP.                   NO:   One line per depth step
~Well Information Block
#MNEM.UNIT     VALUE/NAME     DESCRIPTION
#---------     -----------    ---------------------------
 STRT.S             06:03:21 17-Sep-21: START TIME 06:03:21 17-Sep-21
 STOP.S             06:11:58 17-Sep-21: STOP TIME  06:11:58 17-Sep-21
 STEP.S                   0.00: STEP TIME
 NULL.                 -999.25: NULL VALUE
 DFWT.                        :  DIST FWL TEXT
 DFST.                        :  DIST FSL TEXT
 DMF .             Drill Floor:  DRILL MEAS FROM
 STIM.      10.59.12 05-Jul-21:  START TIME
 DATE.      10.59.12 10-Sep-21:  END TIME
 SPUD.               05-Jul-21:  SPUD DATE
 NREF.                    Grid:  NORTH REFERENCE
 HPTY.       Minimum Curvature:  HOLE POS TYPE
 DMOD.             Drill Model:  DRILL MOD DESC
 SVYD.                  Survey:  SURVEY DESC
 ILTD.               Lithology:  INTERP LTH DESC
 FTOP.          Formation Tops:  FORM TOPS DESC
 RIG .                     DWG:  RIG NAME
 PDAT.          Mean Sea Level:  PERMANENT DATUM
 FLD .                     ACG:  FIELD NAME
 SON .        AZ-XX-0907115008:  JOB NUMBER
 CTRY.              Azerbaijan:  COUNTRY NAME
 WELL.                    E35A:  WELL NAME
 SRVC.          TURAN DRILLING:  CONTRACTOR
 COMP.     BP Exploration (Caspian Sea LTD):  COMPANY
 UWI .                     N/A:  UNIQUE WELL IDENTIFIER
 API .                     N/A:  API NUMBER
 MDS .        Operator Entered:  MAG DATA SOURCE
 BASE.              Azerbaijan:  LOGGING EQUIPMENT BASE LOCATION
 REGN.                   EESSA:  REGION
 PROV.                    Baku:  PROVINCE
 STAT.                    Baku:  STATE NAME
 MWDS.                    Baku:  MWD SHOP
 JOBN.        AZ-XX-0907115008:  JOB TICKET NUMB
 DOE .                     N/A:  DOE NUMBER
 DCON.         Sperry Drilling:  DIRECTNL CONTR
 UNIT.                     N/A:  LOGGING EQUIPMENT ID
 WTYP.                Deviated:  WELL TYPE
 CNTY.                        :  COUNTY
 LOC .                        :  LOCATION
 LMF .             Drill Floor:  LOG MEASURED FROM
 TVDS.m                  43.16:  TVDSS CORRECTN
 LATI.deg                40.17:  LATITUDE
 LONG.deg                51.17:  LONGITUDE
 WHNS.m                  10.51:  WELL HEAD N/S
 WHEW.m                 -14.82:  WELL HEAD E/W
 UTMX.m              514336.92:  UTM X
 UTMY.m             4448618.56:  UTM Y
 DFWL.m                   0.00:  DISTANCE FWL
 DFSL.m                   0.00:  DISTANCE FSL
 SDEP.m                 849.00:  START DEPTH
 TDD .m                2862.00:  TOTAL DEPTH (DRILLER)
 VSDR.deg               292.10:  VERT SEC DIRECT
 GVFD.g                   1.00:  GRAVITY FIELD
 MFLD.nT              50382.00:  MAGNETIC FIELD
 MDIP.deg                59.68:  MAGNETIC DIP
 MDEC.deg                 6.66:  MAGNETIC DECL
 GRDC.deg                 0.09:  GRID CORRECTION
 AZTC.deg                 6.57:  AZM TOTAL CORR
 EPD .m                   0.00:  ELEVATION
 EGL .m                   0.00:  GROUND ELEVATION
 WDMS.m                 176.20:  WD ELEV
 APD .m                  43.16:  DEPTH ABOVE PD
 DEP .m                 363.42:  DEPTH
 AGAP.m                  43.16:  AIR GAP
 VSEW.m                 -14.82:  VERT SEC E/W
 VSNS.m                  10.51:  VERT SEC N/S
 EKB .m                  43.16:  KB ELEVATION
 EDF .m                  43.16:  DF ELEVATION
 TDL .m                1390.00:  TOTAL DEPTH (LOGGER)
 VSC .                       0:  VS TO CLOSURE
 MAGU.                 1855871:  MAGUTM CHECKSUM
~Parameter Information Block
#MNEM.UNIT       Value        Description
#---------     -----------    ---------------------------
 AV  .mps                 2.28:  Ann Velocity 
 AVMX.mps                 2.67:  Max Ann Veloc 
 AZIF.deg               305.00:  Azm, Final 
 BHAT.        Rotary Steerable:  BHA Type 
 BROT.°/30m               0.45:  Build Rotating 
 BS  .in                 12.25:  Bit Size 
 BSZ .in                 12.25:  Bit Size 
 BTPL.psig              600.00:  Bit Press Loss 
 CABU.                     Yes:  Customer Abuse 
 COMM.                     $t:  Run Comments 1 
 TCS .hr                150.00:  Time Ciculation Ended 
 CV  .mps                 1.24:  Crit Velocity 
 CVMX.mps                 1.66:  Max Crit Veloc 
 DD1 .         Intigam Rahimov:  Direct Drillr 1 
 DD2 .            Azer Ravavov:  Direct Drillr 2 
 DD3 .              Samir Abas:  Direct Drillr 3 
 DDSV.               Geo-Pilot:  DD Service 
 DEFF.%                 100.00:  % Det Eff 
 DLRX.°/30m               1.57:  Dogleg Rot Max 
 DLSO.°/30m               0.00:  Dogleg Oriented 
 DLSX.°/30m               0.00:  Dogleg Str Max 
 DRET.      20.28.06 17-Sep-21:  Drill End Time 
 DRST.      20.27.35 10-Sep-21:  Drill Start Tim 
 DTIM.hr                 54.00:  Time Drilling 
 EDEP.m                5260.00:  End Depth 
 ENG1.      Bakhtiyar Jabbarli:  Engineer 1 
 ENG2.      Natik Hasanaghayev:  Engineer 2 
 ENG3.           Royal Nasirov:  Engineer 3 
 ETIM.      20.27.55 18-Sep-21:  End Time 
 FLOI.gpm              1100.00:  Flow In 
 FLON.gpm               800.00:  Flow In Min 
 FLOS.cptm                0.00:  Fluid Loss 
 FLOX.gpm              1200.00:  Flow In Max 
 DFT .        Mineral Oil Base:  Mud Type 
 HPRE.                      No:  High Pressure 
 HTEM.                      No:  High Temp 
 HYDO.m                   1.80:  Hydro Offset 
 IFIN.deg                72.31:  Inc, Final 
 IMAX.deg                72.36:  Inc Max 
 IMIN.deg                69.36:  Inc Min 
 IMND.m                4192.96:  Inc Min Depth 
 IMXD.m                5128.36:  Inc Max Depth 
 JARR.                      No:  Jarring 
 LETM.      20.29.00 17-Sep-21:  Log End Time 
 LOST.hr                     0:  Lost Rig Time 
 LSTM.      20.27.00 10-Sep-21:  Log Start Time 
 MDCL.ppm            227000.00:  Mud Chlorides 
 MDES.     Inversion Oil/Synthetic:  Mud Desc 
 DFD .sg                  1.45:  Mud Density 
 MDMN.sg                  1.45:  Dens Mud Min 
 MDMX.sg                  1.45:  Dens Mud Max 
 MOIL.                    70.5:  Run Mud Oil % 
 MOWR.                   71:29:  Run Mud OWR 
 MSND.                     0.3:  Run Mud Sand % 
 MSOL.                    19.8:  Run Mud Solids% 
 DFV .spqt               80.00:  Mud Viscosity 
 MWOD.in                  8.00:  MWD Tool OD 
 MWSI.                     Yes:  Serv Intrp, MWD 
 OTIM.hr                180.00:  Time Operating 
 PCON.           Look Like New:  Pad Condition 
 PMAX.psia             9910.94:  Press Op, Max 
 PV  .cP                 35.00:  Mud PV 
 RUN .                    1000:  Run Number 
 ROPA.m/hr               18.00:  ROP Avg 
 ROPN.m/hr                8.00:  ROP Min 
 ROPX.m/hr               23.00:  ROP Max 
 RPMA.rpm               150.00:  RPM Surface Avg 
 RPMN.rpm               120.00:  RPM Surface Min 
 RPMX.rpm               160.00:  RPM Surface Max 
 RRUN.                    L503:  Rig Run Number 
 RTIM.hr                  5.00:  Time Reaming 
 SAZI.deg               298.42:  Azm, Start 
 SDEP.m                3870.00:  Start Depth 
 SIDD.                      No:  Serv Intrp, DD 
 SINC.deg                69.57:  Inc, Start 
 SPPA.psig             5500.00:  SPP Avg 
 SPPN.psig             4400.00:  SPP Min 
 SPPX.psig             5800.00:  SPP Max 
 STIM.      15.29.39 09-Sep-21:  Start Time 
 SVCS.                 DD, MWD:  Services 
 SVER.                    9.20:  Sperry Version 
 TDAT.m                5260.00:  Tot Depth Attmp 
 TDDF.                      No:  Trip for DD 
 TDLG.m                1390.00:  Tot Depth Loggd 
 TFF .                      No:  Trip for Fail 
 TQAA.f-kp               22.00:  Torque Abs Avg 
 TQAN.f-kp               13.00:  Torque Abs Min 
 TQAX.f-kp               27.00:  Torque Abs Max 
 TRRT.°/30m               1.60:  Turn Rotating 
 MRT .                  EWR-M5:  Maximum Recorded Temperature 
 TTMX.degC               92.00:  Max Tool Temp 
 VS01.                12330975:  Virtual Str1 SN 
 VS02.                90658671:  Virtual Str2 SN 
 VS03.                90658508:  Virtual Str3 SN 
 VS04.                90660974:  Virtual Str4 SN 
 VS05.                90654675:  Virtual Str5 SN 
 WBMN.klb                15.00:  WOB Min 
 WITN.     Alexander Yadullayev:  Customer Rep 
 WITN.           Adil Mammadov:  Customer Rep 2 
 WOBA.klb                17.00:  WOB Avg 
 WOBX.klb                18.00:  WOB Max 
 YP  .lhf2               31.00:  Yield Point 
~Curve Information Block
#MNEM.UNIT                 API CODE     Curve Description
#---------               -----------    ---------------------------
 TIME.HHMMSS            00 000 000 000:  GT Time & Date
 GTDEPTH.m              00 000 000 000:  GT Depth
 GTPQH.psia             00 000 000 000:  GT HR Quartz Pressure
 GTTQ.degC              00 000 000 000:  GT Quartz Temperature
 GTTN.NONE              00 000 000 000:  GT Test Number
 GTET.sec               00 000 000 000:  GT Elapsed Test Time
 GTTVD.m                00 000 000 000:  GT True Vertical Depth
#Other Information
#
#WARRANTY: Halliburton will use its best efforts to furnish customers with 
#accurate information and interpretations that are part of, and incident to, the services 
#provided.  However, Halliburton cannot and does not warrant the accuracy 
#or correctness of such information and interpretations.  Under no circumstances should any 
#such information or interpretation be relied upon as the sole basis for any drilling, 
#completion, production, or financial decision or any procedure involving any risk to the 
#safety of any drilling venture, drilling rig or its crew or any other third party.  The 
#Customer has full responsibility for all drilling, completion and production operation.  
#Halliburton makes no representations or warranties, either expressed or 
#implied, including, but not limited to, the implied warranties of merchantability or fitness 
#for a particular purpose, with respect to the services rendered.  In no event will 
#Halliburton be liable for failure to obtain any particular results or for 
#any damages, including, but not limited to, indirect, special or consequential damages, 
#resulting from the use of any information or interpretation provided by Halliburton.
#
~A           TIME           GTDEPTH  GTPQH  GTTQ  GTTN  GTET   GTTVD  
# ...
   06:05:39.625.17-Sep-2021 5057.50 5543.84 79.91 6.00 137.97 2583.80
   06:05:39.825.17-Sep-2021 5057.50 5543.84 79.91 6.00 138.17 2583.80
   06:05:40.025.17-Sep-2021 5057.50 5543.71 79.91 6.00 138.37 2583.80
   06:05:40.225.17-Sep-2021 5057.50 5543.30 79.91 6.00 138.57 2583.80
   06:05:40.425.17-Sep-2021 5057.50 5544.39 79.91 6.00 138.77 2583.80
   06:05:40.625.17-Sep-2021 5057.50 5543.89 79.91 6.00 138.97 2583.80
   06:05:40.825.17-Sep-2021 5057.50 5543.89 79.91 6.00 139.17 2583.80
   06:05:41.025.17-Sep-2021 5057.50 5543.62 79.91 6.00 139.37 2583.80
   06:05:41.224.17-Sep-2021 5057.50 5543.44 79.91 6.00 139.57 2583.80
   06:05:41.424.17-Sep-2021 5057.50 5543.44 79.91 6.00 139.77 2583.80
   06:05:41.624.17-Sep-2021 5057.50 5543.60 79.91 6.00 139.97 2583.80
   06:05:41.824.17-Sep-2021 5057.50 5543.60 79.91 6.00 140.17 2583.80
   06:05:42.024.17-Sep-2021 5057.50 5543.59 79.91 6.00 140.37 2583.80
   06:05:42.224.17-Sep-2021 5057.50 5543.75 79.91 6.00 140.57 2583.80
   06:05:42.424.17-Sep-2021 5057.50 5543.77 79.91 6.00 140.77 2583.80
   06:05:42.624.17-Sep-2021 5057.50 5543.97 79.91 6.00 140.97 2583.80
   06:05:42.824.17-Sep-2021 5057.50 5543.97 79.91 6.00 141.17 2583.80
   06:05:43.024.17-Sep-2021 5057.50 5547.13 79.91 6.00 141.37 2583.80
   06:05:43.224.17-Sep-2021 5057.50 5542.82 79.91 6.00 141.57 2583.80
   06:05:43.424.17-Sep-2021 5057.50 5546.04 79.90 6.00 141.77 2583.80
   06:05:43.624.17-Sep-2021 5057.50 5543.89 79.90 6.00 141.97 2583.80
   06:05:43.824.17-Sep-2021 5057.50 5543.89 79.90 6.00 142.17 2583.80
   06:05:44.024.17-Sep-2021 5057.50 5544.17 79.90 6.00 142.37 2583.80
   06:05:44.224.17-Sep-2021 5057.50 5543.32 79.90 6.00 142.57 2583.80
   06:05:44.424.17-Sep-2021 5057.50 5543.33 79.90 6.00 142.77 2583.80
   06:05:44.624.17-Sep-2021 5057.50 5543.28 79.90 6.00 142.97 2583.80
   06:05:44.824.17-Sep-2021 5057.50 5543.28 79.90 6.00 143.17 2583.80
   06:05:45.024.17-Sep-2021 5057.50 5543.19 79.90 6.00 143.37 2583.80
   06:05:45.224.17-Sep-2021 5057.50 5543.35 79.90 6.00 143.57 2583.80
   06:05:45.424.17-Sep-2021 5057.50 5543.33 79.90 6.00 143.77 2583.80
   06:05:45.624.17-Sep-2021 5057.50 5543.53 79.90 6.00 143.97 2583.80
   06:05:45.823.17-Sep-2021 5057.50 5543.53 79.90 6.00 144.17 2583.80
   06:05:46.023.17-Sep-2021 5057.50 5543.80 79.90 6.00 144.37 2583.80
   06:05:46.223.17-Sep-2021 5057.50 5544.13 79.90 6.00 144.57 2583.80
   06:05:46.423.17-Sep-2021 5057.50 5547.58 79.90 6.00 144.77 2583.80
   06:05:46.623.17-Sep-2021 5057.50 5542.19 79.90 6.00 144.97 2583.80
   06:05:46.823.17-Sep-2021 5057.50 5542.19 79.90 6.00 145.17 2583.80
   06:05:47.023.17-Sep-2021 5057.50 5544.58 79.90 6.00 145.37 2583.80
   06:05:47.223.17-Sep-2021 5057.50 5544.36 79.90 6.00 145.57 2583.80
   06:05:47.423.17-Sep-2021 5057.50 5543.84 79.90 6.00 145.77 2583.80
   06:05:47.623.17-Sep-2021 5057.50 5543.58 79.90 6.00 145.97 2583.80
   06:05:47.823.17-Sep-2021 5057.50 5543.58 79.90 6.00 146.17 2583.80
   06:05:48.023.17-Sep-2021 5057.50 5541.66 79.90 6.00 146.37 2583.80
   06:05:48.223.17-Sep-2021 5057.50 5545.05 79.90 6.00 146.57 2583.80
   06:05:48.423.17-Sep-2021 5057.50 5542.82 79.90 6.00 146.77 2583.80
   06:05:48.623.17-Sep-2021 5057.50 5546.97 79.90 6.00 146.97 2583.80
   06:05:48.823.17-Sep-2021 5057.50 5546.97 79.90 6.00 147.17 2583.80
   06:05:49.023.17-Sep-2021 5057.50 5543.84 79.89 6.00 147.37 2583.80
   06:05:49.223.17-Sep-2021 5057.50 5543.63 79.89 6.00 147.57 2583.80
   06:05:49.423.17-Sep-2021 5057.50 5545.00 79.89 6.00 147.77 2583.80
   06:05:49.623.17-Sep-2021 5057.50 5543.79 79.89 6.00 147.97 2583.80
   06:05:49.823.17-Sep-2021 5057.50 5543.79 79.89 6.00 148.17 2583.80
   06:05:50.023.17-Sep-2021 5057.50 5544.25 79.89 6.00 148.37 2583.80
   06:05:50.223.17-Sep-2021 5057.50 5543.68 79.89 6.00 148.57 2583.80
   06:05:50.423.17-Sep-2021 5057.50 5543.25 79.89 6.00 148.77 2583.80
   06:05:50.622.17-Sep-2021 5057.50 5543.29 79.89 6.00 148.97 2583.80
   06:05:50.822.17-Sep-2021 5057.50 5543.29 79.89 6.00 149.17 2583.80
   06:05:51.022.17-Sep-2021 5057.50 5543.06 79.89 6.00 149.37 2583.80
   06:05:51.222.17-Sep-2021 5057.50 5543.25 79.89 6.00 149.57 2583.80
   06:05:51.422.17-Sep-2021 5057.50 5543.34 79.89 6.00 149.77 2583.80
   06:05:51.622.17-Sep-2021 5057.50 5543.49 79.89 6.00 149.97 2583.80
   06:05:51.822.17-Sep-2021 5057.50 5543.49 79.89 6.00 150.17 2583.80
   06:05:52.022.17-Sep-2021 5057.50 5543.56 79.89 6.00 150.37 2583.80
   06:05:52.222.17-Sep-2021 5057.50 5543.77 79.89 6.00 150.57 2583.80
   06:05:52.422.17-Sep-2021 5057.50 5543.81 79.89 6.00 150.77 2583.80
   06:05:52.622.17-Sep-2021 5057.50 5547.03 79.89 6.00 150.97 2583.80
   06:05:52.822.17-Sep-2021 5057.50 5547.03 79.89 6.00 151.17 2583.80
   06:05:53.022.17-Sep-2021 5057.50 5545.88 79.89 6.00 151.37 2583.80
   06:05:53.222.17-Sep-2021 5057.50 5543.74 79.89 6.00 151.57 2583.80
   06:05:53.422.17-Sep-2021 5057.50 5543.81 79.89 6.00 151.77 2583.80
   06:05:53.622.17-Sep-2021 5057.50 5544.17 79.89 6.00 151.97 2583.80
   06:05:53.822.17-Sep-2021 5057.50 5544.17 79.89 6.00 152.17 2583.80
   06:05:54.022.17-Sep-2021 5057.50 5543.23 79.89 6.00 152.37 2583.80
   06:05:54.222.17-Sep-2021 5057.50 5543.07 79.89 6.00 152.57 2583.80
   06:05:54.422.17-Sep-2021 5057.50 5543.08 79.88 6.00 152.77 2583.80
   06:05:54.622.17-Sep-2021 5057.50 5542.99 79.88 6.00 152.97 2583.80
   06:05:54.822.17-Sep-2021 5057.50 5542.99 79.88 6.00 153.17 2583.80
   06:05:55.022.17-Sep-2021 5057.50 5543.29 79.88 6.00 153.37 2583.80
   06:05:55.221.17-Sep-2021 5057.50 5543.43 79.88 6.00 153.57 2583.80
   06:05:55.421.17-Sep-2021 5057.50 5543.66 79.88 6.00 153.77 2583.80
   06:05:55.621.17-Sep-2021 5057.50 5543.53 79.88 6.00 153.97 2583.80
   06:05:55.821.17-Sep-2021 5057.50 5543.53 79.88 6.00 154.17 2583.80
   06:05:56.021.17-Sep-2021 5057.50 5547.48 79.88 6.00 154.37 2583.80
   06:05:56.221.17-Sep-2021 5057.50 5542.14 79.88 6.00 154.57 2583.80
   06:05:56.421.17-Sep-2021 5057.50 5544.92 79.88 6.00 154.77 2583.80
   06:05:56.621.17-Sep-2021 5057.50 5544.48 79.88 6.00 154.97 2583.80
   06:05:56.821.17-Sep-2021 5057.50 5544.48 79.88 6.00 155.17 2583.80
   06:05:57.021.17-Sep-2021 5057.50 5543.73 79.88 6.00 155.37 2583.80
   06:05:57.221.17-Sep-2021 5057.50 5543.47 79.88 6.00 155.57 2583.80
   06:05:57.421.17-Sep-2021 5057.50 5546.40 79.88 6.00 155.77 2583.80
   06:05:57.621.17-Sep-2021 5057.50 5541.42 79.88 6.00 155.97 2583.80
   06:05:57.821.17-Sep-2021 5057.50 5541.42 79.88 6.00 156.17 2583.80
   06:05:58.021.17-Sep-2021 5057.50 5544.84 79.88 6.00 156.37 2583.80
   06:05:58.221.17-Sep-2021 5057.50 5546.68 79.88 6.00 156.57 2583.80
   06:05:58.421.17-Sep-2021 5057.50 5541.32 79.88 6.00 156.77 2583.80
   06:05:58.621.17-Sep-2021 5057.50 5543.53 79.88 6.00 156.97 2583.80
   06:05:58.821.17-Sep-2021 5057.50 5543.53 79.88 6.00 157.17 2583.80
   06:05:59.021.17-Sep-2021 5057.50 5544.94 79.88 6.00 157.37 2583.80
   06:05:59.221.17-Sep-2021 5057.50 5543.49 79.88 6.00 157.57 2583.80
   06:05:59.421.17-Sep-2021 5057.50 5542.96 79.88 6.00 157.77 2583.80
   06:05:59.621.17-Sep-2021 5057.50 5544.11 79.88 6.00 157.97 2583.80
   06:05:59.821.17-Sep-2021 5057.50 5544.11 79.88 6.00 158.17 2583.80
   06:06:00.020.17-Sep-2021 5057.50 5542.95 79.88 6.00 158.37 2583.80
   06:06:00.220.17-Sep-2021 5057.50 5543.16 79.87 6.00 158.57 2583.80
   06:06:00.420.17-Sep-2021 5057.50 5543.08 79.87 6.00 158.77 2583.80
   06:06:00.620.17-Sep-2021 5057.50 5542.91 79.87 6.00 158.97 2583.80
   06:06:00.820.17-Sep-2021 5057.50 5542.91 79.87 6.00 159.17 2583.80
   06:06:01.020.17-Sep-2021 5057.50 5543.07 79.87 6.00 159.37 2583.80
   06:06:01.220.17-Sep-2021 5057.50 5543.24 79.87 6.00 159.57 2583.80
   06:06:01.420.17-Sep-2021 5057.50 5543.43 79.87 6.00 159.77 2583.80
   06:06:01.620.17-Sep-2021 5057.50 5543.54 79.87 6.00 159.97 2583.80
   06:06:01.820.17-Sep-2021 5057.50 5543.54 79.87 6.00 160.17 2583.80
   06:06:02.020.17-Sep-2021 5057.50 5543.61 79.87 6.00 160.37 2583.80
   06:06:02.220.17-Sep-2021 5057.50 5547.05 79.87 6.00 160.57 2583.80
   06:06:02.420.17-Sep-2021 5057.50 5542.44 79.87 6.00 160.77 2583.80
