~Version Information
 VERS.                  2.0:   CWLS log ASCII Standard -VERSION 2.0
 WRAP.                   NO:   One line per depth step
~Well Information Block
#MNEM.UNIT     VALUE/NAME     DESCRIPTION
#---------     -----------    ---------------------------
 STRT.S             10:29:45 17-Sep-21: START TIME 10:29:45 17-Sep-21
 STOP.S             10:36:56 17-Sep-21: STOP TIME  10:36:56 17-Sep-21
 STEP.S                   0.00: STEP TIME
 NULL.                 -999.25: NULL VALUE
 DFWT.                        :  DIST FWL TEXT
 DFST.                        :  DIST FSL TEXT
 DMF .             Drill Floor:  DRILL MEAS FROM
 STIM.      10.59.12 05-Jul-21:  START TIME
 DATE.      10.59.12 10-Sep-21:  END TIME
 SPUD.               05-Jul-21:  SPUD DATE
 NREF.                    Grid:  NORTH REFERENCE
 HPTY.       Minimum Curvature:  HOLE POS TYPE
 DMOD.             Drill Model:  DRILL MOD DESC
 SVYD.                  Survey:  SURVEY DESC
 ILTD.               Lithology:  INTERP LTH DESC
 FTOP.          Formation Tops:  FORM TOPS DESC
 RIG .                     DWG:  RIG NAME
 PDAT.          Mean Sea Level:  PERMANENT DATUM
 FLD .                     ACG:  FIELD NAME
 SON .        AZ-XX-0907115008:  JOB NUMBER
 CTRY.              Azerbaijan:  COUNTRY NAME
 WELL.                    E35A:  WELL NAME
 SRVC.          TURAN DRILLING:  CONTRACTOR
 COMP.     BP Exploration (Caspian Sea LTD):  COMPANY
 UWI .                     N/A:  UNIQUE WELL IDENTIFIER
 API .                     N/A:  API NUMBER
 MDS .        Operator Entered:  MAG DATA SOURCE
 BASE.              Azerbaijan:  LOGGING EQUIPMENT BASE LOCATION
 REGN.                   EESSA:  REGION
 PROV.                    Baku:  PROVINCE
 STAT.                    Baku:  STATE NAME
 MWDS.                    Baku:  MWD SHOP
 JOBN.        AZ-XX-0907115008:  JOB TICKET NUMB
 DOE .                     N/A:  DOE NUMBER
 DCON.         Sperry Drilling:  DIRECTNL CONTR
 UNIT.                     N/A:  LOGGING EQUIPMENT ID
 WTYP.                Deviated:  WELL TYPE
 CNTY.                        :  COUNTY
 LOC .                        :  LOCATION
 LMF .             Drill Floor:  LOG MEASURED FROM
 TVDS.m                  43.16:  TVDSS CORRECTN
 LATI.deg                40.17:  LATITUDE
 LONG.deg                51.17:  LONGITUDE
 WHNS.m                  10.51:  WELL HEAD N/S
 WHEW.m                 -14.82:  WELL HEAD E/W
 UTMX.m              514336.92:  UTM X
 UTMY.m             4448618.56:  UTM Y
 DFWL.m                   0.00:  DISTANCE FWL
 DFSL.m                   0.00:  DISTANCE FSL
 SDEP.m                 849.00:  START DEPTH
 TDD .m                2862.00:  TOTAL DEPTH (DRILLER)
 VSDR.deg               292.10:  VERT SEC DIRECT
 GVFD.g                   1.00:  GRAVITY FIELD
 MFLD.nT              50382.00:  MAGNETIC FIELD
 MDIP.deg                59.68:  MAGNETIC DIP
 MDEC.deg                 6.66:  MAGNETIC DECL
 GRDC.deg                 0.09:  GRID CORRECTION
 AZTC.deg                 6.57:  AZM TOTAL CORR
 EPD .m                   0.00:  ELEVATION
 EGL .m                   0.00:  GROUND ELEVATION
 WDMS.m                 176.20:  WD ELEV
 APD .m                  43.16:  DEPTH ABOVE PD
 DEP .m                 363.42:  DEPTH
 AGAP.m                  43.16:  AIR GAP
 VSEW.m                 -14.82:  VERT SEC E/W
 VSNS.m                  10.51:  VERT SEC N/S
 EKB .m                  43.16:  KB ELEVATION
 EDF .m                  43.16:  DF ELEVATION
 TDL .m                1390.00:  TOTAL DEPTH (LOGGER)
 VSC .                       0:  VS TO CLOSURE
 MAGU.                 1855871:  MAGUTM CHECKSUM
~Parameter Information Block
#MNEM.UNIT       Value        Description
#---------     -----------    ---------------------------
 AV  .mps                 2.28:  Ann Velocity 
 AVMX.mps                 2.67:  Max Ann Veloc 
 AZIF.deg               305.00:  Azm, Final 
 BHAT.        Rotary Steerable:  BHA Type 
 BROT.°/30m               0.45:  Build Rotating 
 BS  .in                 12.25:  Bit Size 
 BSZ .in                 12.25:  Bit Size 
 BTPL.psig              600.00:  Bit Press Loss 
 CABU.                     Yes:  Customer Abuse 
 COMM.                     ,)z:  Run Comments 1 
 TCS .hr                150.00:  Time Ciculation Ended 
 CV  .mps                 1.24:  Crit Velocity 
 CVMX.mps                 1.66:  Max Crit Veloc 
 DD1 .         Intigam Rahimov:  Direct Drillr 1 
 DD2 .            Azer Ravavov:  Direct Drillr 2 
 DD3 .              Samir Abas:  Direct Drillr 3 
 DDSV.               Geo-Pilot:  DD Service 
 DEFF.%                 100.00:  % Det Eff 
 DLRX.°/30m               1.57:  Dogleg Rot Max 
 DLSO.°/30m               0.00:  Dogleg Oriented 
 DLSX.°/30m               0.00:  Dogleg Str Max 
 DRET.      20.28.06 17-Sep-21:  Drill End Time 
 DRST.      20.27.35 10-Sep-21:  Drill Start Tim 
 DTIM.hr                 54.00:  Time Drilling 
 EDEP.m                5260.00:  End Depth 
 ENG1.      Bakhtiyar Jabbarli:  Engineer 1 
 ENG2.      Natik Hasanaghayev:  Engineer 2 
 ENG3.           Royal Nasirov:  Engineer 3 
 ETIM.      20.27.55 18-Sep-21:  End Time 
 FLOI.gpm              1100.00:  Flow In 
 FLON.gpm               800.00:  Flow In Min 
 FLOS.cptm                0.00:  Fluid Loss 
 FLOX.gpm              1200.00:  Flow In Max 
 DFT .        Mineral Oil Base:  Mud Type 
 HPRE.                      No:  High Pressure 
 HTEM.                      No:  High Temp 
 HYDO.m                   1.80:  Hydro Offset 
 IFIN.deg                72.31:  Inc, Final 
 IMAX.deg                72.36:  Inc Max 
 IMIN.deg                69.36:  Inc Min 
 IMND.m                4192.96:  Inc Min Depth 
 IMXD.m                5128.36:  Inc Max Depth 
 JARR.                      No:  Jarring 
 LETM.      20.29.00 17-Sep-21:  Log End Time 
 LOST.hr                     0:  Lost Rig Time 
 LSTM.      20.27.00 10-Sep-21:  Log Start Time 
 MDCL.ppm            227000.00:  Mud Chlorides 
 MDES.     Inversion Oil/Synthetic:  Mud Desc 
 DFD .sg                  1.45:  Mud Density 
 MDMN.sg                  1.45:  Dens Mud Min 
 MDMX.sg                  1.45:  Dens Mud Max 
 MOIL.                    70.5:  Run Mud Oil % 
 MOWR.                   71:29:  Run Mud OWR 
 MSND.                     0.3:  Run Mud Sand % 
 MSOL.                    19.8:  Run Mud Solids% 
 DFV .spqt               80.00:  Mud Viscosity 
 MWOD.in                  8.00:  MWD Tool OD 
 MWSI.                     Yes:  Serv Intrp, MWD 
 OTIM.hr                180.00:  Time Operating 
 PCON.           Look Like New:  Pad Condition 
 PMAX.psia             9910.94:  Press Op, Max 
 PV  .cP                 35.00:  Mud PV 
 RUN .                    1000:  Run Number 
 ROPA.m/hr               18.00:  ROP Avg 
 ROPN.m/hr                8.00:  ROP Min 
 ROPX.m/hr               23.00:  ROP Max 
 RPMA.rpm               150.00:  RPM Surface Avg 
 RPMN.rpm               120.00:  RPM Surface Min 
 RPMX.rpm               160.00:  RPM Surface Max 
 RRUN.                    L503:  Rig Run Number 
 RTIM.hr                  5.00:  Time Reaming 
 SAZI.deg               298.42:  Azm, Start 
 SDEP.m                3870.00:  Start Depth 
 SIDD.                      No:  Serv Intrp, DD 
 SINC.deg                69.57:  Inc, Start 
 SPPA.psig             5500.00:  SPP Avg 
 SPPN.psig             4400.00:  SPP Min 
 SPPX.psig             5800.00:  SPP Max 
 STIM.      15.29.39 09-Sep-21:  Start Time 
 SVCS.                 DD, MWD:  Services 
 SVER.                    9.20:  Sperry Version 
 TDAT.m                5260.00:  Tot Depth Attmp 
 TDDF.                      No:  Trip for DD 
 TDLG.m                1390.00:  Tot Depth Loggd 
 TFF .                      No:  Trip for Fail 
 TQAA.f-kp               22.00:  Torque Abs Avg 
 TQAN.f-kp               13.00:  Torque Abs Min 
 TQAX.f-kp               27.00:  Torque Abs Max 
 TRRT.°/30m               1.60:  Turn Rotating 
 MRT .                  EWR-M5:  Maximum Recorded Temperature 
 TTMX.degC               92.00:  Max Tool Temp 
 VS01.                12330975:  Virtual Str1 SN 
 VS02.                90658671:  Virtual Str2 SN 
 VS03.                90658508:  Virtual Str3 SN 
 VS04.                90660974:  Virtual Str4 SN 
 VS05.                90654675:  Virtual Str5 SN 
 WBMN.klb                15.00:  WOB Min 
 WITN.     Alexander Yadullayev:  Customer Rep 
 WITN.           Adil Mammadov:  Customer Rep 2 
 WOBA.klb                17.00:  WOB Avg 
 WOBX.klb                18.00:  WOB Max 
 YP  .lhf2               31.00:  Yield Point 
~Curve Information Block
#MNEM.UNIT                 API CODE     Curve Description
#---------               -----------    ---------------------------
 TIME.HHMMSS            00 000 000 000:  GT Time & Date
 GTDEPTH.m              00 000 000 000:  GT Depth
 GTPQH.psia             00 000 000 000:  GT HR Quartz Pressure
 GTTQ.degC              00 000 000 000:  GT Quartz Temperature
 GTTN.NONE              00 000 000 000:  GT Test Number
 GTET.sec               00 000 000 000:  GT Elapsed Test Time
 GTTVD.m                00 000 000 000:  GT True Vertical Depth
#Other Information
#
#WARRANTY: Halliburton will use its best efforts to furnish customers with 
#accurate information and interpretations that are part of, and incident to, the services 
#provided.  However, Halliburton cannot and does not warrant the accuracy 
#or correctness of such information and interpretations.  Under no circumstances should any 
#such information or interpretation be relied upon as the sole basis for any drilling, 
#completion, production, or financial decision or any procedure involving any risk to the 
#safety of any drilling venture, drilling rig or its crew or any other third party.  The 
#Customer has full responsibility for all drilling, completion and production operation.  
#Halliburton makes no representations or warranties, either expressed or 
#implied, including, but not limited to, the implied warranties of merchantability or fitness 
#for a particular purpose, with respect to the services rendered.  In no event will 
#Halliburton be liable for failure to obtain any particular results or for 
#any damages, including, but not limited to, indirect, special or consequential damages, 
#resulting from the use of any information or interpretation provided by Halliburton.
#
~A           TIME           GTDEPTH  GTPQH  GTTQ  GTTN  GTET   GTTVD  
# ...
   10:34:21.355.17-Sep-2021 4888.00 5434.02 75.87 8.00 276.03 2528.99
   10:34:21.555.17-Sep-2021 4888.00 5434.02 75.87 8.00 276.23 2528.99
   10:34:21.755.17-Sep-2021 4888.00 5433.71 75.87 8.00 276.43 2528.99
   10:34:21.955.17-Sep-2021 4888.00 5434.23 75.87 8.00 276.63 2528.99
   10:34:22.155.17-Sep-2021 4888.00 5434.99 75.87 8.00 276.83 2528.99
   10:34:22.355.17-Sep-2021 4888.00 5434.19 75.87 8.00 277.03 2528.99
   10:34:22.555.17-Sep-2021 4888.00 5434.19 75.87 8.00 277.23 2528.99
   10:34:22.755.17-Sep-2021 4888.00 5434.28 75.87 8.00 277.43 2528.99
   10:34:22.955.17-Sep-2021 4888.00 5434.72 75.87 8.00 277.63 2528.99
   10:34:23.155.17-Sep-2021 4888.00 5434.88 75.87 8.00 277.83 2528.99
   10:34:23.355.17-Sep-2021 4888.00 5434.42 75.87 8.00 278.03 2528.99
   10:34:23.555.17-Sep-2021 4888.00 5434.42 75.87 8.00 278.23 2528.99
   10:34:23.755.17-Sep-2021 4888.00 5435.30 75.87 8.00 278.43 2528.99
   10:34:23.955.17-Sep-2021 4888.00 5436.31 75.87 8.00 278.63 2528.99
   10:34:24.155.17-Sep-2021 4888.00 5434.86 75.87 8.00 278.83 2528.99
   10:34:24.355.17-Sep-2021 4888.00 5434.50 75.87 8.00 279.03 2528.99
   10:34:24.555.17-Sep-2021 4888.00 5434.50 75.87 8.00 279.23 2528.99
   10:34:24.755.17-Sep-2021 4888.00 5435.24 75.87 8.00 279.43 2528.99
   10:34:24.955.17-Sep-2021 4888.00 5434.51 75.87 8.00 279.63 2528.99
   10:34:25.155.17-Sep-2021 4888.00 5434.35 75.87 8.00 279.83 2528.99
   10:34:25.355.17-Sep-2021 4888.00 5434.40 75.87 8.00 280.03 2528.99
   10:34:25.555.17-Sep-2021 4888.00 5434.40 75.87 8.00 280.23 2528.99
   10:34:25.755.17-Sep-2021 4888.00 5433.91 75.87 8.00 280.43 2528.99
   10:34:25.955.17-Sep-2021 4888.00 5432.78 75.87 8.00 280.63 2528.99
   10:34:26.155.17-Sep-2021 4888.00 5432.40 75.87 8.00 280.83 2528.99
   10:34:26.355.17-Sep-2021 4888.00 5433.31 75.87 8.00 281.03 2528.99
   10:34:26.555.17-Sep-2021 4888.00 5433.31 75.87 8.00 281.23 2528.99
   10:34:26.755.17-Sep-2021 4888.00 5434.31 75.87 8.00 281.43 2528.99
   10:34:26.955.17-Sep-2021 4888.00 5434.65 75.87 8.00 281.63 2528.99
   10:34:27.155.17-Sep-2021 4888.00 5434.91 75.87 8.00 281.83 2528.99
   10:34:27.355.17-Sep-2021 4888.00 5437.27 75.87 8.00 282.03 2528.99
   10:34:27.555.17-Sep-2021 4888.00 5437.27 75.87 8.00 282.23 2528.99
   10:34:27.755.17-Sep-2021 4888.00 5434.40 75.87 8.00 282.43 2528.99
   10:34:27.955.17-Sep-2021 4888.00 5434.75 75.87 8.00 282.63 2528.99
   10:34:28.155.17-Sep-2021 4888.00 5435.54 75.87 8.00 282.83 2528.99
   10:34:28.355.17-Sep-2021 4888.00 5438.27 75.87 8.00 283.03 2528.99
   10:34:28.555.17-Sep-2021 4888.00 5438.27 75.87 8.00 283.23 2528.99
   10:34:28.755.17-Sep-2021 4888.00 5434.42 75.87 8.00 283.43 2528.99
   10:34:28.955.17-Sep-2021 4888.00 5433.94 75.87 8.00 283.63 2528.99
   10:34:29.155.17-Sep-2021 4888.00 5435.80 75.87 8.00 283.83 2528.99
   10:34:29.355.17-Sep-2021 4888.00 5434.94 75.87 8.00 284.03 2528.99
   10:34:29.555.17-Sep-2021 4888.00 5434.94 75.87 8.00 284.23 2528.99
   10:34:29.755.17-Sep-2021 4888.00 5434.35 75.87 8.00 284.43 2528.99
   10:34:29.955.17-Sep-2021 4888.00 5434.15 75.87 8.00 284.63 2528.99
   10:34:30.156.17-Sep-2021 4888.00 5434.17 75.87 8.00 284.83 2528.99
   10:34:30.356.17-Sep-2021 4888.00 5436.57 75.87 8.00 285.03 2528.99
   10:34:30.556.17-Sep-2021 4888.00 5436.57 75.87 8.00 285.23 2528.99
   10:34:30.756.17-Sep-2021 4888.00 5434.06 75.87 8.00 285.43 2528.99
   10:34:30.956.17-Sep-2021 4888.00 5433.92 75.87 8.00 285.63 2528.99
   10:34:31.156.17-Sep-2021 4888.00 5434.76 75.87 8.00 285.83 2528.99
   10:34:31.356.17-Sep-2021 4888.00 5433.89 75.87 8.00 286.03 2528.99
   10:34:31.556.17-Sep-2021 4888.00 5433.89 75.87 8.00 286.23 2528.99
   10:34:31.756.17-Sep-2021 4888.00 5434.61 75.87 8.00 286.43 2528.99
   10:34:31.956.17-Sep-2021 4888.00 5434.11 75.87 8.00 286.63 2528.99
   10:34:32.156.17-Sep-2021 4888.00 5434.11 75.87 8.00 286.83 2528.99
   10:34:32.356.17-Sep-2021 4888.00 5434.25 75.87 8.00 287.03 2528.99
   10:34:32.556.17-Sep-2021 4888.00 5434.25 75.87 8.00 287.23 2528.99
   10:34:32.756.17-Sep-2021 4888.00 5434.68 75.87 8.00 287.43 2528.99
   10:34:32.956.17-Sep-2021 4888.00 5434.30 75.87 8.00 287.63 2528.99
   10:34:33.156.17-Sep-2021 4888.00 5434.40 75.87 8.00 287.83 2528.99
   10:34:33.356.17-Sep-2021 4888.00 5437.42 75.87 8.00 288.03 2528.99
   10:34:33.556.17-Sep-2021 4888.00 5437.42 75.87 8.00 288.23 2528.99
   10:34:33.756.17-Sep-2021 4888.00 5434.82 75.87 8.00 288.43 2528.99
   10:34:33.956.17-Sep-2021 4888.00 5434.27 75.87 8.00 288.63 2528.99
   10:34:34.156.17-Sep-2021 4888.00 5435.25 75.87 8.00 288.83 2528.99
   10:34:34.356.17-Sep-2021 4888.00 5434.51 75.87 8.00 289.03 2528.99
   10:34:34.556.17-Sep-2021 4888.00 5434.51 75.87 8.00 289.23 2528.99
   10:34:34.756.17-Sep-2021 4888.00 5434.52 75.87 8.00 289.43 2528.99
   10:34:34.956.17-Sep-2021 4888.00 5434.03 75.87 8.00 289.63 2528.99
   10:34:35.156.17-Sep-2021 4888.00 5433.88 75.87 8.00 289.83 2528.99
   10:34:35.356.17-Sep-2021 4888.00 5433.78 75.87 8.00 290.03 2528.99
   10:34:35.556.17-Sep-2021 4888.00 5433.78 75.87 8.00 290.23 2528.99
   10:34:35.756.17-Sep-2021 4888.00 5434.40 75.87 8.00 290.43 2528.99
   10:34:35.956.17-Sep-2021 4888.00 5434.16 75.87 8.00 290.63 2528.99
   10:34:36.156.17-Sep-2021 4888.00 5434.06 75.87 8.00 290.83 2528.99
   10:34:36.356.17-Sep-2021 4888.00 5434.20 75.87 8.00 291.03 2528.99
   10:34:36.556.17-Sep-2021 4888.00 5434.20 75.87 8.00 291.23 2528.99
   10:34:36.756.17-Sep-2021 4888.00 5435.27 75.87 8.00 291.43 2528.99
   10:34:36.956.17-Sep-2021 4888.00 5436.09 75.87 8.00 291.63 2528.99
   10:34:37.156.17-Sep-2021 4888.00 5434.69 75.87 8.00 291.83 2528.99
   10:34:37.356.17-Sep-2021 4888.00 5434.26 75.87 8.00 292.03 2528.99
   10:34:37.556.17-Sep-2021 4888.00 5434.26 75.87 8.00 292.23 2528.99
   10:34:37.756.17-Sep-2021 4888.00 5435.71 75.87 8.00 292.43 2528.99
   10:34:37.956.17-Sep-2021 4888.00 5436.07 75.87 8.00 292.63 2528.99
   10:34:38.156.17-Sep-2021 4888.00 5434.09 75.87 8.00 292.83 2528.99
   10:34:38.356.17-Sep-2021 4888.00 5433.94 75.87 8.00 293.03 2528.99
   10:34:38.556.17-Sep-2021 4888.00 5433.94 75.87 8.00 293.23 2528.99
   10:34:38.756.17-Sep-2021 4888.00 5437.41 75.87 8.00 293.43 2528.99
   10:34:38.956.17-Sep-2021 4888.00 5432.84 75.87 8.00 293.63 2528.99
   10:34:39.157.17-Sep-2021 4888.00 5434.08 75.87 8.00 293.83 2528.99
   10:34:39.357.17-Sep-2021 4888.00 5433.81 75.87 8.00 294.03 2528.99
   10:34:39.557.17-Sep-2021 4888.00 5433.81 75.87 8.00 294.23 2528.99
   10:34:39.757.17-Sep-2021 4888.00 5431.86 75.87 8.00 294.43 2528.99
   10:34:39.957.17-Sep-2021 4888.00 5433.73 75.87 8.00 294.63 2528.99
   10:34:40.157.17-Sep-2021 4888.00 5434.28 75.87 8.00 294.83 2528.99
   10:34:40.357.17-Sep-2021 4888.00 5435.51 75.87 8.00 295.03 2528.99
   10:34:40.557.17-Sep-2021 4888.00 5435.51 75.87 8.00 295.23 2528.99
   10:34:40.757.17-Sep-2021 4888.00 5432.97 75.87 8.00 295.43 2528.99
   10:34:40.957.17-Sep-2021 4888.00 5434.35 75.87 8.00 295.63 2528.99
   10:34:41.157.17-Sep-2021 4888.00 5434.33 75.87 8.00 295.83 2528.99
   10:34:41.357.17-Sep-2021 4888.00 5434.05 75.87 8.00 296.03 2528.99
   10:34:41.557.17-Sep-2021 4888.00 5434.05 75.87 8.00 296.23 2528.99
   10:34:41.757.17-Sep-2021 4888.00 5433.94 75.87 8.00 296.43 2528.99
   10:34:41.957.17-Sep-2021 4888.00 5434.69 75.87 8.00 296.63 2528.99
   10:34:42.157.17-Sep-2021 4888.00 5434.49 75.87 8.00 296.83 2528.99
   10:34:42.357.17-Sep-2021 4888.00 5434.14 75.87 8.00 297.03 2528.99
   10:34:42.557.17-Sep-2021 4888.00 5434.14 75.87 8.00 297.23 2528.99
   10:34:42.757.17-Sep-2021 4888.00 5436.16 75.87 8.00 297.43 2528.99
   10:34:42.957.17-Sep-2021 4888.00 5434.55 75.87 8.00 297.63 2528.99
   10:34:43.157.17-Sep-2021 4888.00 5434.25 75.87 8.00 297.83 2528.99
   10:34:43.357.17-Sep-2021 4888.00 5434.78 75.87 8.00 298.03 2528.99
   10:34:43.557.17-Sep-2021 4888.00 5434.78 75.87 8.00 298.23 2528.99
   10:34:43.757.17-Sep-2021 4888.00 5434.52 75.87 8.00 298.43 2528.99
   10:34:43.957.17-Sep-2021 4888.00 5433.95 75.87 8.00 298.63 2528.99
   10:34:44.157.17-Sep-2021 4888.00 5434.21 75.87 8.00 298.83 2528.99
