~Version Information
 VERS.                  2.0:   CWLS log ASCII Standard -VERSION 2.0
 WRAP.                   NO:   One line per depth step
~Well Information Block
#MNEM.UNIT     VALUE/NAME     DESCRIPTION
#---------     -----------    ---------------------------
 STRT.S             06:03:21 17-Sep-21: START TIME 06:03:21 17-Sep-21
 STOP.S             06:11:58 17-Sep-21: STOP TIME  06:11:58 17-Sep-21
 STEP.S                   0.00: STEP TIME
 NULL.                 -999.25: NULL VALUE
 DFWT.                        :  DIST FWL TEXT
 DFST.                        :  DIST FSL TEXT
 DMF .             Drill Floor:  DRILL MEAS FROM
 STIM.      10.59.12 05-Jul-21:  START TIME
 DATE.      10.59.12 10-Sep-21:  END TIME
 SPUD.               05-Jul-21:  SPUD DATE
 NREF.                    Grid:  NORTH REFERENCE
 HPTY.       Minimum Curvature:  HOLE POS TYPE
 DMOD.             Drill Model:  DRILL MOD DESC
 SVYD.                  Survey:  SURVEY DESC
 ILTD.               Lithology:  INTERP LTH DESC
 FTOP.          Formation Tops:  FORM TOPS DESC
 RIG .                     DWG:  RIG NAME
 PDAT.          Mean Sea Level:  PERMANENT DATUM
 FLD .                     ACG:  FIELD NAME
 SON .        AZ-XX-0907115008:  JOB NUMBER
 CTRY.              Azerbaijan:  COUNTRY NAME
 WELL.                    E35A:  WELL NAME
 SRVC.          TURAN DRILLING:  CONTRACTOR
 COMP.     BP Exploration (Caspian Sea LTD):  COMPANY
 UWI .                     N/A:  UNIQUE WELL IDENTIFIER
 API .                     N/A:  API NUMBER
 MDS .        Operator Entered:  MAG DATA SOURCE
 BASE.              Azerbaijan:  LOGGING EQUIPMENT BASE LOCATION
 REGN.                   EESSA:  REGION
 PROV.                    Baku:  PROVINCE
 STAT.                    Baku:  STATE NAME
 MWDS.                    Baku:  MWD SHOP
 JOBN.        AZ-XX-0907115008:  JOB TICKET NUMB
 DOE .                     N/A:  DOE NUMBER
 DCON.         Sperry Drilling:  DIRECTNL CONTR
 UNIT.                     N/A:  LOGGING EQUIPMENT ID
 WTYP.                Deviated:  WELL TYPE
 CNTY.                        :  COUNTY
 LOC .                        :  LOCATION
 LMF .             Drill Floor:  LOG MEASURED FROM
 TVDS.m                  43.16:  TVDSS CORRECTN
 LATI.deg                40.17:  LATITUDE
 LONG.deg                51.17:  LONGITUDE
 WHNS.m                  10.51:  WELL HEAD N/S
 WHEW.m                 -14.82:  WELL HEAD E/W
 UTMX.m              514336.92:  UTM X
 UTMY.m             4448618.56:  UTM Y
 DFWL.m                   0.00:  DISTANCE FWL
 DFSL.m                   0.00:  DISTANCE FSL
 SDEP.m                 849.00:  START DEPTH
 TDD .m                2862.00:  TOTAL DEPTH (DRILLER)
 VSDR.deg               292.10:  VERT SEC DIRECT
 GVFD.g                   1.00:  GRAVITY FIELD
 MFLD.nT              50382.00:  MAGNETIC FIELD
 MDIP.deg                59.68:  MAGNETIC DIP
 MDEC.deg                 6.66:  MAGNETIC DECL
 GRDC.deg                 0.09:  GRID CORRECTION
 AZTC.deg                 6.57:  AZM TOTAL CORR
 EPD .m                   0.00:  ELEVATION
 EGL .m                   0.00:  GROUND ELEVATION
 WDMS.m                 176.20:  WD ELEV
 APD .m                  43.16:  DEPTH ABOVE PD
 DEP .m                 363.42:  DEPTH
 AGAP.m                  43.16:  AIR GAP
 VSEW.m                 -14.82:  VERT SEC E/W
 VSNS.m                  10.51:  VERT SEC N/S
 EKB .m                  43.16:  KB ELEVATION
 EDF .m                  43.16:  DF ELEVATION
 TDL .m                1390.00:  TOTAL DEPTH (LOGGER)
 VSC .                       0:  VS TO CLOSURE
 MAGU.                 1855871:  MAGUTM CHECKSUM
~Parameter Information Block
#MNEM.UNIT       Value        Description
#---------     -----------    ---------------------------
 AV  .mps                 2.28:  Ann Velocity 
 AVMX.mps                 2.67:  Max Ann Veloc 
 AZIF.deg               305.00:  Azm, Final 
 BHAT.        Rotary Steerable:  BHA Type 
 BROT.°/30m               0.45:  Build Rotating 
 BS  .in                 12.25:  Bit Size 
 BSZ .in                 12.25:  Bit Size 
 BTPL.psig              600.00:  Bit Press Loss 
 CABU.                     Yes:  Customer Abuse 
 COMM.                     $t:  Run Comments 1 
 TCS .hr                150.00:  Time Ciculation Ended 
 CV  .mps                 1.24:  Crit Velocity 
 CVMX.mps                 1.66:  Max Crit Veloc 
 DD1 .         Intigam Rahimov:  Direct Drillr 1 
 DD2 .            Azer Ravavov:  Direct Drillr 2 
 DD3 .              Samir Abas:  Direct Drillr 3 
 DDSV.               Geo-Pilot:  DD Service 
 DEFF.%                 100.00:  % Det Eff 
 DLRX.°/30m               1.57:  Dogleg Rot Max 
 DLSO.°/30m               0.00:  Dogleg Oriented 
 DLSX.°/30m               0.00:  Dogleg Str Max 
 DRET.      20.28.06 17-Sep-21:  Drill End Time 
 DRST.      20.27.35 10-Sep-21:  Drill Start Tim 
 DTIM.hr                 54.00:  Time Drilling 
 EDEP.m                5260.00:  End Depth 
 ENG1.      Bakhtiyar Jabbarli:  Engineer 1 
 ENG2.      Natik Hasanaghayev:  Engineer 2 
 ENG3.           Royal Nasirov:  Engineer 3 
 ETIM.      20.27.55 18-Sep-21:  End Time 
 FLOI.gpm              1100.00:  Flow In 
 FLON.gpm               800.00:  Flow In Min 
 FLOS.cptm                0.00:  Fluid Loss 
 FLOX.gpm              1200.00:  Flow In Max 
 DFT .        Mineral Oil Base:  Mud Type 
 HPRE.                      No:  High Pressure 
 HTEM.                      No:  High Temp 
 HYDO.m                   1.80:  Hydro Offset 
 IFIN.deg                72.31:  Inc, Final 
 IMAX.deg                72.36:  Inc Max 
 IMIN.deg                69.36:  Inc Min 
 IMND.m                4192.96:  Inc Min Depth 
 IMXD.m                5128.36:  Inc Max Depth 
 JARR.                      No:  Jarring 
 LETM.      20.29.00 17-Sep-21:  Log End Time 
 LOST.hr                     0:  Lost Rig Time 
 LSTM.      20.27.00 10-Sep-21:  Log Start Time 
 MDCL.ppm            227000.00:  Mud Chlorides 
 MDES.     Inversion Oil/Synthetic:  Mud Desc 
 DFD .sg                  1.45:  Mud Density 
 MDMN.sg                  1.45:  Dens Mud Min 
 MDMX.sg                  1.45:  Dens Mud Max 
 MOIL.                    70.5:  Run Mud Oil % 
 MOWR.                   71:29:  Run Mud OWR 
 MSND.                     0.3:  Run Mud Sand % 
 MSOL.                    19.8:  Run Mud Solids% 
 DFV .spqt               80.00:  Mud Viscosity 
 MWOD.in                  8.00:  MWD Tool OD 
 MWSI.                     Yes:  Serv Intrp, MWD 
 OTIM.hr                180.00:  Time Operating 
 PCON.           Look Like New:  Pad Condition 
 PMAX.psia             9910.94:  Press Op, Max 
 PV  .cP                 35.00:  Mud PV 
 RUN .                    1000:  Run Number 
 ROPA.m/hr               18.00:  ROP Avg 
 ROPN.m/hr                8.00:  ROP Min 
 ROPX.m/hr               23.00:  ROP Max 
 RPMA.rpm               150.00:  RPM Surface Avg 
 RPMN.rpm               120.00:  RPM Surface Min 
 RPMX.rpm               160.00:  RPM Surface Max 
 RRUN.                    L503:  Rig Run Number 
 RTIM.hr                  5.00:  Time Reaming 
 SAZI.deg               298.42:  Azm, Start 
 SDEP.m                3870.00:  Start Depth 
 SIDD.                      No:  Serv Intrp, DD 
 SINC.deg                69.57:  Inc, Start 
 SPPA.psig             5500.00:  SPP Avg 
 SPPN.psig             4400.00:  SPP Min 
 SPPX.psig             5800.00:  SPP Max 
 STIM.      15.29.39 09-Sep-21:  Start Time 
 SVCS.                 DD, MWD:  Services 
 SVER.                    9.20:  Sperry Version 
 TDAT.m                5260.00:  Tot Depth Attmp 
 TDDF.                      No:  Trip for DD 
 TDLG.m                1390.00:  Tot Depth Loggd 
 TFF .                      No:  Trip for Fail 
 TQAA.f-kp               22.00:  Torque Abs Avg 
 TQAN.f-kp               13.00:  Torque Abs Min 
 TQAX.f-kp               27.00:  Torque Abs Max 
 TRRT.°/30m               1.60:  Turn Rotating 
 MRT .                  EWR-M5:  Maximum Recorded Temperature 
 TTMX.degC               92.00:  Max Tool Temp 
 VS01.                12330975:  Virtual Str1 SN 
 VS02.                90658671:  Virtual Str2 SN 
 VS03.                90658508:  Virtual Str3 SN 
 VS04.                90660974:  Virtual Str4 SN 
 VS05.                90654675:  Virtual Str5 SN 
 WBMN.klb                15.00:  WOB Min 
 WITN.     Alexander Yadullayev:  Customer Rep 
 WITN.           Adil Mammadov:  Customer Rep 2 
 WOBA.klb                17.00:  WOB Avg 
 WOBX.klb                18.00:  WOB Max 
 YP  .lhf2               31.00:  Yield Point 
~Curve Information Block
#MNEM.UNIT                 API CODE     Curve Description
#---------               -----------    ---------------------------
 TIME.HHMMSS            00 000 000 000:  GT Time & Date
 GTDEPTH.m              00 000 000 000:  GT Depth
 GTPQH.psia             00 000 000 000:  GT HR Quartz Pressure
 GTTQ.degC              00 000 000 000:  GT Quartz Temperature
 GTTN.NONE              00 000 000 000:  GT Test Number
 GTET.sec               00 000 000 000:  GT Elapsed Test Time
 GTTVD.m                00 000 000 000:  GT True Vertical Depth
#Other Information
#
#WARRANTY: Halliburton will use its best efforts to furnish customers with 
#accurate information and interpretations that are part of, and incident to, the services 
#provided.  However, Halliburton cannot and does not warrant the accuracy 
#or correctness of such information and interpretations.  Under no circumstances should any 
#such information or interpretation be relied upon as the sole basis for any drilling, 
#completion, production, or financial decision or any procedure involving any risk to the 
#safety of any drilling venture, drilling rig or its crew or any other third party.  The 
#Customer has full responsibility for all drilling, completion and production operation.  
#Halliburton makes no representations or warranties, either expressed or 
#implied, including, but not limited to, the implied warranties of merchantability or fitness 
#for a particular purpose, with respect to the services rendered.  In no event will 
#Halliburton be liable for failure to obtain any particular results or for 
#any damages, including, but not limited to, indirect, special or consequential damages, 
#resulting from the use of any information or interpretation provided by Halliburton.
#
~A           TIME           GTDEPTH  GTPQH  GTTQ  GTTN  GTET   GTTVD  
# ...
   06:07:11.605.17-Sep-2021 5057.50 5542.93 79.75 6.00 229.95 2583.80
   06:07:11.805.17-Sep-2021 5057.50 5542.93 79.75 6.00 230.15 2583.80
   06:07:12.005.17-Sep-2021 5057.50 5543.16 79.75 6.00 230.35 2583.80
   06:07:12.205.17-Sep-2021 5057.50 5546.55 79.75 6.00 230.55 2583.80
   06:07:12.405.17-Sep-2021 5057.50 5541.63 79.75 6.00 230.75 2583.80
   06:07:12.605.17-Sep-2021 5057.50 5543.96 79.75 6.00 230.95 2583.80
   06:07:12.805.17-Sep-2021 5057.50 5543.96 79.75 6.00 231.15 2583.80
   06:07:13.005.17-Sep-2021 5057.50 5543.51 79.75 6.00 231.35 2583.80
   06:07:13.205.17-Sep-2021 5057.50 5542.77 79.75 6.00 231.55 2583.80
   06:07:13.405.17-Sep-2021 5057.50 5542.67 79.75 6.00 231.75 2583.80
   06:07:13.605.17-Sep-2021 5057.50 5545.97 79.75 6.00 231.95 2583.80
   06:07:13.805.17-Sep-2021 5057.50 5545.97 79.75 6.00 232.15 2583.80
   06:07:14.005.17-Sep-2021 5057.50 5544.15 79.75 6.00 232.35 2583.80
   06:07:14.205.17-Sep-2021 5057.50 5541.80 79.75 6.00 232.55 2583.80
   06:07:14.405.17-Sep-2021 5057.50 5545.75 79.75 6.00 232.75 2583.80
   06:07:14.605.17-Sep-2021 5057.50 5540.62 79.75 6.00 232.95 2583.80
   06:07:14.805.17-Sep-2021 5057.50 5540.62 79.75 6.00 233.15 2583.80
   06:07:15.004.17-Sep-2021 5057.50 5542.47 79.75 6.00 233.35 2583.80
   06:07:15.204.17-Sep-2021 5057.50 5543.59 79.74 6.00 233.55 2583.80
   06:07:15.404.17-Sep-2021 5057.50 5542.92 79.74 6.00 233.75 2583.80
   06:07:15.604.17-Sep-2021 5057.50 5541.85 79.74 6.00 233.95 2583.80
   06:07:15.804.17-Sep-2021 5057.50 5541.85 79.74 6.00 234.15 2583.80
   06:07:16.004.17-Sep-2021 5057.50 5542.53 79.74 6.00 234.35 2583.80
   06:07:16.204.17-Sep-2021 5057.50 5542.31 79.74 6.00 234.55 2583.80
   06:07:16.404.17-Sep-2021 5057.50 5542.52 79.74 6.00 234.75 2583.80
   06:07:16.604.17-Sep-2021 5057.50 5542.41 79.74 6.00 234.95 2583.80
   06:07:16.804.17-Sep-2021 5057.50 5542.41 79.74 6.00 235.15 2583.80
   06:07:17.004.17-Sep-2021 5057.50 5542.44 79.74 6.00 235.35 2583.80
   06:07:17.204.17-Sep-2021 5057.50 5542.44 79.74 6.00 235.55 2583.80
   06:07:17.404.17-Sep-2021 5057.50 5542.57 79.74 6.00 235.75 2583.80
   06:07:17.604.17-Sep-2021 5057.50 5542.71 79.74 6.00 235.95 2583.80
   06:07:17.804.17-Sep-2021 5057.50 5542.71 79.74 6.00 236.15 2583.80
   06:07:18.004.17-Sep-2021 5057.50 5542.88 79.74 6.00 236.35 2583.80
   06:07:18.204.17-Sep-2021 5057.50 5542.91 79.74 6.00 236.55 2583.80
   06:07:18.404.17-Sep-2021 5057.50 5546.40 79.74 6.00 236.75 2583.80
   06:07:18.604.17-Sep-2021 5057.50 5541.42 79.74 6.00 236.95 2583.80
   06:07:18.804.17-Sep-2021 5057.50 5541.42 79.74 6.00 237.15 2583.80
   06:07:19.004.17-Sep-2021 5057.50 5542.78 79.74 6.00 237.35 2583.80
   06:07:19.204.17-Sep-2021 5057.50 5542.86 79.74 6.00 237.55 2583.80
   06:07:19.404.17-Sep-2021 5057.50 5543.07 79.74 6.00 237.75 2583.80
   06:07:19.604.17-Sep-2021 5057.50 5542.32 79.74 6.00 237.95 2583.80
   06:07:19.803.17-Sep-2021 5057.50 5542.32 79.74 6.00 238.15 2583.80
   06:07:20.003.17-Sep-2021 5057.50 5542.17 79.74 6.00 238.35 2583.80
   06:07:20.203.17-Sep-2021 5057.50 5542.30 79.74 6.00 238.55 2583.80
   06:07:20.403.17-Sep-2021 5057.50 5542.17 79.74 6.00 238.75 2583.80
   06:07:20.603.17-Sep-2021 5057.50 5542.23 79.74 6.00 238.95 2583.80
   06:07:20.803.17-Sep-2021 5057.50 5542.23 79.74 6.00 239.15 2583.80
   06:07:21.003.17-Sep-2021 5057.50 5542.44 79.74 6.00 239.35 2583.80
   06:07:21.203.17-Sep-2021 5057.50 5542.60 79.73 6.00 239.55 2583.80
   06:07:21.403.17-Sep-2021 5057.50 5542.57 79.73 6.00 239.75 2583.80
   06:07:21.603.17-Sep-2021 5057.50 5543.01 79.73 6.00 239.95 2583.80
   06:07:21.803.17-Sep-2021 5057.50 5543.01 79.73 6.00 240.15 2583.80
   06:07:22.003.17-Sep-2021 5057.50 5546.18 79.73 6.00 240.35 2583.80
   06:07:22.203.17-Sep-2021 5057.50 5543.59 79.73 6.00 240.55 2583.80
   06:07:22.403.17-Sep-2021 5057.50 5543.49 79.73 6.00 240.75 2583.80
   06:07:22.603.17-Sep-2021 5057.50 5543.40 79.73 6.00 240.95 2583.80
   06:07:22.803.17-Sep-2021 5057.50 5543.40 79.73 6.00 241.15 2583.80
   06:07:23.003.17-Sep-2021 5057.50 5542.54 79.73 6.00 241.35 2583.80
   06:07:23.203.17-Sep-2021 5057.50 5545.80 79.73 6.00 241.55 2583.80
   06:07:23.403.17-Sep-2021 5057.50 5540.13 79.73 6.00 241.75 2583.80
   06:07:23.603.17-Sep-2021 5057.50 5543.81 79.73 6.00 241.95 2583.80
   06:07:23.803.17-Sep-2021 5057.50 5543.81 79.73 6.00 242.15 2583.80
   06:07:24.003.17-Sep-2021 5057.50 5545.50 79.73 6.00 242.35 2583.80
   06:07:24.203.17-Sep-2021 5057.50 5540.40 79.73 6.00 242.55 2583.80
   06:07:24.402.17-Sep-2021 5057.50 5543.21 79.73 6.00 242.75 2583.80
   06:07:24.602.17-Sep-2021 5057.50 5541.81 79.73 6.00 242.95 2583.80
   06:07:24.802.17-Sep-2021 5057.50 5541.81 79.73 6.00 243.15 2583.80
   06:07:25.002.17-Sep-2021 5057.50 5542.06 79.73 6.00 243.35 2583.80
   06:07:25.202.17-Sep-2021 5057.50 5543.07 79.73 6.00 243.55 2583.80
   06:07:25.402.17-Sep-2021 5057.50 5542.10 79.73 6.00 243.75 2583.80
   06:07:25.602.17-Sep-2021 5057.50 5541.69 79.73 6.00 243.95 2583.80
   06:07:25.802.17-Sep-2021 5057.50 5541.69 79.73 6.00 244.15 2583.80
   06:07:26.002.17-Sep-2021 5057.50 5541.98 79.73 6.00 244.35 2583.80
   06:07:26.202.17-Sep-2021 5057.50 5541.99 79.73 6.00 244.55 2583.80
   06:07:26.402.17-Sep-2021 5057.50 5542.20 79.73 6.00 244.75 2583.80
   06:07:26.602.17-Sep-2021 5057.50 5542.07 79.73 6.00 244.95 2583.80
   06:07:26.802.17-Sep-2021 5057.50 5542.07 79.73 6.00 245.15 2583.80
   06:07:27.002.17-Sep-2021 5057.50 5542.32 79.72 6.00 245.35 2583.80
   06:07:27.202.17-Sep-2021 5057.50 5542.51 79.72 6.00 245.55 2583.80
   06:07:27.402.17-Sep-2021 5057.50 5542.62 79.72 6.00 245.75 2583.80
   06:07:27.602.17-Sep-2021 5057.50 5542.82 79.72 6.00 245.95 2583.80
   06:07:27.802.17-Sep-2021 5057.50 5542.82 79.72 6.00 246.15 2583.80
   06:07:28.002.17-Sep-2021 5057.50 5541.28 79.72 6.00 246.35 2583.80
   06:07:28.202.17-Sep-2021 5057.50 5543.33 79.72 6.00 246.55 2583.80
   06:07:28.402.17-Sep-2021 5057.50 5543.21 79.72 6.00 246.75 2583.80
   06:07:28.602.17-Sep-2021 5057.50 5543.36 79.72 6.00 246.95 2583.80
   06:07:28.802.17-Sep-2021 5057.50 5543.36 79.72 6.00 247.15 2583.80
   06:07:29.002.17-Sep-2021 5057.50 5542.60 79.72 6.00 247.35 2583.80
   06:07:29.201.17-Sep-2021 5057.50 5542.32 79.72 6.00 247.55 2583.80
   06:07:29.401.17-Sep-2021 5057.50 5542.03 79.72 6.00 247.75 2583.80
   06:07:29.601.17-Sep-2021 5057.50 5542.09 79.72 6.00 247.95 2583.80
   06:07:29.801.17-Sep-2021 5057.50 5542.09 79.72 6.00 248.15 2583.80
   06:07:30.001.17-Sep-2021 5057.50 5541.90 79.72 6.00 248.35 2583.80
   06:07:30.201.17-Sep-2021 5057.50 5542.02 79.72 6.00 248.55 2583.80
   06:07:30.401.17-Sep-2021 5057.50 5542.09 79.72 6.00 248.75 2583.80
   06:07:30.601.17-Sep-2021 5057.50 5542.48 79.72 6.00 248.95 2583.80
   06:07:30.801.17-Sep-2021 5057.50 5542.48 79.72 6.00 249.15 2583.80
   06:07:31.001.17-Sep-2021 5057.50 5542.61 79.72 6.00 249.35 2583.80
   06:07:31.201.17-Sep-2021 5057.50 5543.70 79.72 6.00 249.55 2583.80
   06:07:31.401.17-Sep-2021 5057.50 5543.43 79.72 6.00 249.75 2583.80
   06:07:31.601.17-Sep-2021 5057.50 5542.57 79.72 6.00 249.95 2583.80
   06:07:31.801.17-Sep-2021 5057.50 5542.57 79.72 6.00 250.15 2583.80
   06:07:32.001.17-Sep-2021 5057.50 5543.40 79.72 6.00 250.35 2583.80
   06:07:32.201.17-Sep-2021 5057.50 5542.64 79.72 6.00 250.55 2583.80
   06:07:32.401.17-Sep-2021 5057.50 5542.72 79.72 6.00 250.75 2583.80
   06:07:32.601.17-Sep-2021 5057.50 5545.57 79.72 6.00 250.95 2583.80
   06:07:32.801.17-Sep-2021 5057.50 5545.57 79.72 6.00 251.15 2583.80
   06:07:33.001.17-Sep-2021 5057.50 5542.62 79.71 6.00 251.35 2583.80
   06:07:33.201.17-Sep-2021 5057.50 5542.25 79.71 6.00 251.55 2583.80
   06:07:33.401.17-Sep-2021 5057.50 5545.69 79.71 6.00 251.75 2583.80
   06:07:33.601.17-Sep-2021 5057.50 5540.18 79.71 6.00 251.95 2583.80
   06:07:33.800.17-Sep-2021 5057.50 5540.18 79.71 6.00 252.15 2583.80
   06:07:34.000.17-Sep-2021 5057.50 5542.37 79.71 6.00 252.35 2583.80
   06:07:34.200.17-Sep-2021 5057.50 5545.72 79.71 6.00 252.55 2583.80
   06:07:34.400.17-Sep-2021 5057.50 5540.18 79.71 6.00 252.75 2583.80
