~Version Information
 VERS.                  2.0:   CWLS log ASCII Standard -VERSION 2.0
 WRAP.                   NO:   One line per depth step
~Well Information Block
#MNEM.UNIT     VALUE/NAME     DESCRIPTION
#---------     -----------    ---------------------------
 STRT.S             05:03:12 17-Sep-21: START TIME 05:03:12 17-Sep-21
 STOP.S             05:12:54 17-Sep-21: STOP TIME  05:12:54 17-Sep-21
 STEP.S                   0.00: STEP TIME
 NULL.                 -999.25: NULL VALUE
 DFWT.                        :  DIST FWL TEXT
 DFST.                        :  DIST FSL TEXT
 DMF .             Drill Floor:  DRILL MEAS FROM
 STIM.      10.59.12 05-Jul-21:  START TIME
 DATE.      10.59.12 10-Sep-21:  END TIME
 SPUD.               05-Jul-21:  SPUD DATE
 NREF.                    Grid:  NORTH REFERENCE
 HPTY.       Minimum Curvature:  HOLE POS TYPE
 DMOD.             Drill Model:  DRILL MOD DESC
 SVYD.                  Survey:  SURVEY DESC
 ILTD.               Lithology:  INTERP LTH DESC
 FTOP.          Formation Tops:  FORM TOPS DESC
 RIG .                     DWG:  RIG NAME
 PDAT.          Mean Sea Level:  PERMANENT DATUM
 FLD .                     ACG:  FIELD NAME
 SON .        AZ-XX-0907115008:  JOB NUMBER
 CTRY.              Azerbaijan:  COUNTRY NAME
 WELL.                    E35A:  WELL NAME
 SRVC.          TURAN DRILLING:  CONTRACTOR
 COMP.     BP Exploration (Caspian Sea LTD):  COMPANY
 UWI .                     N/A:  UNIQUE WELL IDENTIFIER
 API .                     N/A:  API NUMBER
 MDS .        Operator Entered:  MAG DATA SOURCE
 BASE.              Azerbaijan:  LOGGING EQUIPMENT BASE LOCATION
 REGN.                   EESSA:  REGION
 PROV.                    Baku:  PROVINCE
 STAT.                    Baku:  STATE NAME
 MWDS.                    Baku:  MWD SHOP
 JOBN.        AZ-XX-0907115008:  JOB TICKET NUMB
 DOE .                     N/A:  DOE NUMBER
 DCON.         Sperry Drilling:  DIRECTNL CONTR
 UNIT.                     N/A:  LOGGING EQUIPMENT ID
 WTYP.                Deviated:  WELL TYPE
 CNTY.                        :  COUNTY
 LOC .                        :  LOCATION
 LMF .             Drill Floor:  LOG MEASURED FROM
 TVDS.m                  43.16:  TVDSS CORRECTN
 LATI.deg                40.17:  LATITUDE
 LONG.deg                51.17:  LONGITUDE
 WHNS.m                  10.51:  WELL HEAD N/S
 WHEW.m                 -14.82:  WELL HEAD E/W
 UTMX.m              514336.92:  UTM X
 UTMY.m             4448618.56:  UTM Y
 DFWL.m                   0.00:  DISTANCE FWL
 DFSL.m                   0.00:  DISTANCE FSL
 SDEP.m                 849.00:  START DEPTH
 TDD .m                2862.00:  TOTAL DEPTH (DRILLER)
 VSDR.deg               292.10:  VERT SEC DIRECT
 GVFD.g                   1.00:  GRAVITY FIELD
 MFLD.nT              50382.00:  MAGNETIC FIELD
 MDIP.deg                59.68:  MAGNETIC DIP
 MDEC.deg                 6.66:  MAGNETIC DECL
 GRDC.deg                 0.09:  GRID CORRECTION
 AZTC.deg                 6.57:  AZM TOTAL CORR
 EPD .m                   0.00:  ELEVATION
 EGL .m                   0.00:  GROUND ELEVATION
 WDMS.m                 176.20:  WD ELEV
 APD .m                  43.16:  DEPTH ABOVE PD
 DEP .m                 363.42:  DEPTH
 AGAP.m                  43.16:  AIR GAP
 VSEW.m                 -14.82:  VERT SEC E/W
 VSNS.m                  10.51:  VERT SEC N/S
 EKB .m                  43.16:  KB ELEVATION
 EDF .m                  43.16:  DF ELEVATION
 TDL .m                1390.00:  TOTAL DEPTH (LOGGER)
 VSC .                       0:  VS TO CLOSURE
 MAGU.                 1855871:  MAGUTM CHECKSUM
~Parameter Information Block
#MNEM.UNIT       Value        Description
#---------     -----------    ---------------------------
 AV  .mps                 2.28:  Ann Velocity 
 AVMX.mps                 2.67:  Max Ann Veloc 
 AZIF.deg               305.00:  Azm, Final 
 BHAT.        Rotary Steerable:  BHA Type 
 BROT.°/30m               0.45:  Build Rotating 
 BS  .in                 12.25:  Bit Size 
 BSZ .in                 12.25:  Bit Size 
 BTPL.psig              600.00:  Bit Press Loss 
 CABU.                     Yes:  Customer Abuse 
 COMM.                     äÏF:  Run Comments 1 
 TCS .hr                150.00:  Time Ciculation Ended 
 CV  .mps                 1.24:  Crit Velocity 
 CVMX.mps                 1.66:  Max Crit Veloc 
 DD1 .         Intigam Rahimov:  Direct Drillr 1 
 DD2 .            Azer Ravavov:  Direct Drillr 2 
 DD3 .              Samir Abas:  Direct Drillr 3 
 DDSV.               Geo-Pilot:  DD Service 
 DEFF.%                 100.00:  % Det Eff 
 DLRX.°/30m               1.57:  Dogleg Rot Max 
 DLSO.°/30m               0.00:  Dogleg Oriented 
 DLSX.°/30m               0.00:  Dogleg Str Max 
 DRET.      20.28.06 17-Sep-21:  Drill End Time 
 DRST.      20.27.35 10-Sep-21:  Drill Start Tim 
 DTIM.hr                 54.00:  Time Drilling 
 EDEP.m                5260.00:  End Depth 
 ENG1.      Bakhtiyar Jabbarli:  Engineer 1 
 ENG2.      Natik Hasanaghayev:  Engineer 2 
 ENG3.           Royal Nasirov:  Engineer 3 
 ETIM.      20.27.55 18-Sep-21:  End Time 
 FLOI.gpm              1100.00:  Flow In 
 FLON.gpm               800.00:  Flow In Min 
 FLOS.cptm                0.00:  Fluid Loss 
 FLOX.gpm              1200.00:  Flow In Max 
 DFT .        Mineral Oil Base:  Mud Type 
 HPRE.                      No:  High Pressure 
 HTEM.                      No:  High Temp 
 HYDO.m                   1.80:  Hydro Offset 
 IFIN.deg                72.31:  Inc, Final 
 IMAX.deg                72.36:  Inc Max 
 IMIN.deg                69.36:  Inc Min 
 IMND.m                4192.96:  Inc Min Depth 
 IMXD.m                5128.36:  Inc Max Depth 
 JARR.                      No:  Jarring 
 LETM.      20.29.00 17-Sep-21:  Log End Time 
 LOST.hr                     0:  Lost Rig Time 
 LSTM.      20.27.00 10-Sep-21:  Log Start Time 
 MDCL.ppm            227000.00:  Mud Chlorides 
 MDES.     Inversion Oil/Synthetic:  Mud Desc 
 DFD .sg                  1.45:  Mud Density 
 MDMN.sg                  1.45:  Dens Mud Min 
 MDMX.sg                  1.45:  Dens Mud Max 
 MOIL.                    70.5:  Run Mud Oil % 
 MOWR.                   71:29:  Run Mud OWR 
 MSND.                     0.3:  Run Mud Sand % 
 MSOL.                    19.8:  Run Mud Solids% 
 DFV .spqt               80.00:  Mud Viscosity 
 MWOD.in                  8.00:  MWD Tool OD 
 MWSI.                     Yes:  Serv Intrp, MWD 
 OTIM.hr                180.00:  Time Operating 
 PCON.           Look Like New:  Pad Condition 
 PMAX.psia             9910.94:  Press Op, Max 
 PV  .cP                 35.00:  Mud PV 
 RUN .                    1000:  Run Number 
 ROPA.m/hr               18.00:  ROP Avg 
 ROPN.m/hr                8.00:  ROP Min 
 ROPX.m/hr               23.00:  ROP Max 
 RPMA.rpm               150.00:  RPM Surface Avg 
 RPMN.rpm               120.00:  RPM Surface Min 
 RPMX.rpm               160.00:  RPM Surface Max 
 RRUN.                    L503:  Rig Run Number 
 RTIM.hr                  5.00:  Time Reaming 
 SAZI.deg               298.42:  Azm, Start 
 SDEP.m                3870.00:  Start Depth 
 SIDD.                      No:  Serv Intrp, DD 
 SINC.deg                69.57:  Inc, Start 
 SPPA.psig             5500.00:  SPP Avg 
 SPPN.psig             4400.00:  SPP Min 
 SPPX.psig             5800.00:  SPP Max 
 STIM.      15.29.39 09-Sep-21:  Start Time 
 SVCS.                 DD, MWD:  Services 
 SVER.                    9.20:  Sperry Version 
 TDAT.m                5260.00:  Tot Depth Attmp 
 TDDF.                      No:  Trip for DD 
 TDLG.m                1390.00:  Tot Depth Loggd 
 TFF .                      No:  Trip for Fail 
 TQAA.f-kp               22.00:  Torque Abs Avg 
 TQAN.f-kp               13.00:  Torque Abs Min 
 TQAX.f-kp               27.00:  Torque Abs Max 
 TRRT.°/30m               1.60:  Turn Rotating 
 MRT .                  EWR-M5:  Maximum Recorded Temperature 
 TTMX.degC               92.00:  Max Tool Temp 
 VS01.                12330975:  Virtual Str1 SN 
 VS02.                90658671:  Virtual Str2 SN 
 VS03.                90658508:  Virtual Str3 SN 
 VS04.                90660974:  Virtual Str4 SN 
 VS05.                90654675:  Virtual Str5 SN 
 WBMN.klb                15.00:  WOB Min 
 WITN.     Alexander Yadullayev:  Customer Rep 
 WITN.           Adil Mammadov:  Customer Rep 2 
 WOBA.klb                17.00:  WOB Avg 
 WOBX.klb                18.00:  WOB Max 
 YP  .lhf2               31.00:  Yield Point 
~Curve Information Block
#MNEM.UNIT                 API CODE     Curve Description
#---------               -----------    ---------------------------
 TIME.HHMMSS            00 000 000 000:  GT Time & Date
 GTDEPTH.m              00 000 000 000:  GT Depth
 GTPQH.psia             00 000 000 000:  GT HR Quartz Pressure
 GTTQ.degC              00 000 000 000:  GT Quartz Temperature
 GTTN.NONE              00 000 000 000:  GT Test Number
 GTET.sec               00 000 000 000:  GT Elapsed Test Time
 GTTVD.m                00 000 000 000:  GT True Vertical Depth
#Other Information
#
#WARRANTY: Halliburton will use its best efforts to furnish customers with 
#accurate information and interpretations that are part of, and incident to, the services 
#provided.  However, Halliburton cannot and does not warrant the accuracy 
#or correctness of such information and interpretations.  Under no circumstances should any 
#such information or interpretation be relied upon as the sole basis for any drilling, 
#completion, production, or financial decision or any procedure involving any risk to the 
#safety of any drilling venture, drilling rig or its crew or any other third party.  The 
#Customer has full responsibility for all drilling, completion and production operation.  
#Halliburton makes no representations or warranties, either expressed or 
#implied, including, but not limited to, the implied warranties of merchantability or fitness 
#for a particular purpose, with respect to the services rendered.  In no event will 
#Halliburton be liable for failure to obtain any particular results or for 
#any damages, including, but not limited to, indirect, special or consequential damages, 
#resulting from the use of any information or interpretation provided by Halliburton.
#
~A           TIME           GTDEPTH  GTPQH  GTTQ  GTTN  GTET   GTTVD  
# ...
   05:08:35.204.17-Sep-2021 5093.53 3743.97 79.42 5.00 322.35 2594.99
   05:08:35.405.17-Sep-2021 5093.53 3743.97 79.42 5.00 322.55 2594.99
   05:08:35.605.17-Sep-2021 5093.53 3743.99 79.42 5.00 322.75 2594.99
   05:08:35.805.17-Sep-2021 5093.53 3743.96 79.42 5.00 322.95 2594.99
   05:08:36.005.17-Sep-2021 5093.53 3743.96 79.42 5.00 323.15 2594.99
   05:08:36.205.17-Sep-2021 5093.53 3743.96 79.42 5.00 323.35 2594.99
   05:08:36.406.17-Sep-2021 5093.53 3743.96 79.42 5.00 323.55 2594.99
   05:08:36.606.17-Sep-2021 5093.53 3744.01 79.42 5.00 323.75 2594.99
   05:08:36.806.17-Sep-2021 5093.53 3743.99 79.42 5.00 323.95 2594.99
   05:08:37.006.17-Sep-2021 5093.53 3744.00 79.42 5.00 324.15 2594.99
   05:08:37.207.17-Sep-2021 5093.53 3744.01 79.42 5.00 324.35 2594.99
   05:08:37.407.17-Sep-2021 5093.53 3744.01 79.42 5.00 324.55 2594.99
   05:08:37.607.17-Sep-2021 5093.53 3744.07 79.42 5.00 324.75 2594.99
   05:08:37.807.17-Sep-2021 5093.53 3744.10 79.42 5.00 324.95 2594.99
   05:08:38.007.17-Sep-2021 5093.53 3744.17 79.42 5.00 325.15 2594.99
   05:08:38.208.17-Sep-2021 5093.53 3744.07 79.42 5.00 325.35 2594.99
   05:08:38.408.17-Sep-2021 5093.53 3744.07 79.42 5.00 325.55 2594.99
   05:08:38.608.17-Sep-2021 5093.53 3744.13 79.42 5.00 325.75 2594.99
   05:08:38.808.17-Sep-2021 5093.53 3744.12 79.42 5.00 325.95 2594.99
   05:08:39.008.17-Sep-2021 5093.53 3744.12 79.42 5.00 326.15 2594.99
   05:08:39.209.17-Sep-2021 5093.53 3744.13 79.42 5.00 326.35 2594.99
   05:08:39.409.17-Sep-2021 5093.53 3744.13 79.42 5.00 326.55 2594.99
   05:08:39.609.17-Sep-2021 5093.53 3744.18 79.42 5.00 326.75 2594.99
   05:08:39.809.17-Sep-2021 5093.53 3744.19 79.42 5.00 326.95 2594.99
   05:08:40.010.17-Sep-2021 5093.53 3744.21 79.42 5.00 327.15 2594.99
   05:08:40.210.17-Sep-2021 5093.53 3744.22 79.42 5.00 327.35 2594.99
   05:08:40.410.17-Sep-2021 5093.53 3744.22 79.42 5.00 327.55 2594.99
   05:08:40.610.17-Sep-2021 5093.53 3744.23 79.42 5.00 327.75 2594.99
   05:08:40.810.17-Sep-2021 5093.53 3744.27 79.42 5.00 327.95 2594.99
   05:08:41.011.17-Sep-2021 5093.53 3744.32 79.42 5.00 328.15 2594.99
   05:08:41.211.17-Sep-2021 5093.53 3744.45 79.42 5.00 328.35 2594.99
   05:08:41.411.17-Sep-2021 5093.53 3744.45 79.42 5.00 328.55 2594.99
   05:08:41.611.17-Sep-2021 5093.53 3744.38 79.42 5.00 328.75 2594.99
   05:08:41.811.17-Sep-2021 5093.53 3744.36 79.42 5.00 328.95 2594.99
   05:08:42.012.17-Sep-2021 5093.53 3744.32 79.42 5.00 329.15 2594.99
   05:08:42.212.17-Sep-2021 5093.53 3744.30 79.42 5.00 329.35 2594.99
   05:08:42.412.17-Sep-2021 5093.53 3744.30 79.42 5.00 329.55 2594.99
   05:08:42.612.17-Sep-2021 5093.53 3744.24 79.42 5.00 329.76 2594.99
   05:08:42.813.17-Sep-2021 5093.53 3744.24 79.42 5.00 329.96 2594.99
   05:08:43.013.17-Sep-2021 5093.53 3744.16 79.42 5.00 330.16 2594.99
   05:08:43.213.17-Sep-2021 5093.53 3744.16 79.42 5.00 330.36 2594.99
   05:08:43.413.17-Sep-2021 5093.53 3744.16 79.42 5.00 330.56 2594.99
   05:08:43.613.17-Sep-2021 5093.53 3744.14 79.42 5.00 330.76 2594.99
   05:08:43.814.17-Sep-2021 5093.53 3744.10 79.42 5.00 330.96 2594.99
   05:08:44.014.17-Sep-2021 5093.53 3744.15 79.42 5.00 331.16 2594.99
   05:08:44.214.17-Sep-2021 5093.53 3744.19 79.42 5.00 331.36 2594.99
   05:08:44.414.17-Sep-2021 5093.53 3744.19 79.42 5.00 331.56 2594.99
   05:08:44.614.17-Sep-2021 5093.53 3744.18 79.42 5.00 331.76 2594.99
   05:08:44.815.17-Sep-2021 5093.53 3744.18 79.42 5.00 331.96 2594.99
   05:08:45.015.17-Sep-2021 5093.53 3744.02 79.42 5.00 332.16 2594.99
   05:08:45.215.17-Sep-2021 5093.53 3744.11 79.42 5.00 332.36 2594.99
   05:08:45.415.17-Sep-2021 5093.53 3744.11 79.42 5.00 332.56 2594.99
   05:08:45.616.17-Sep-2021 5093.53 3744.09 79.42 5.00 332.76 2594.99
   05:08:45.816.17-Sep-2021 5093.53 3744.14 79.42 5.00 332.96 2594.99
   05:08:46.016.17-Sep-2021 5093.53 3744.13 79.42 5.00 333.16 2594.99
   05:08:46.216.17-Sep-2021 5093.53 3744.17 79.42 5.00 333.36 2594.99
   05:08:46.416.17-Sep-2021 5093.53 3744.17 79.42 5.00 333.56 2594.99
   05:08:46.617.17-Sep-2021 5093.53 3744.18 79.42 5.00 333.76 2594.99
   05:08:46.817.17-Sep-2021 5093.53 3744.19 79.42 5.00 333.96 2594.99
   05:08:47.017.17-Sep-2021 5093.53 3744.21 79.42 5.00 334.16 2594.99
   05:08:47.217.17-Sep-2021 5093.53 3744.24 79.42 5.00 334.36 2594.99
   05:08:47.418.17-Sep-2021 5093.53 3744.24 79.42 5.00 334.56 2594.99
   05:08:47.618.17-Sep-2021 5093.53 3744.30 79.42 5.00 334.76 2594.99
   05:08:47.818.17-Sep-2021 5093.53 3744.38 79.42 5.00 334.96 2594.99
   05:08:48.018.17-Sep-2021 5093.53 3744.43 79.42 5.00 335.16 2594.99
   05:08:48.218.17-Sep-2021 5093.53 3744.34 79.42 5.00 335.36 2594.99
   05:08:48.419.17-Sep-2021 5093.53 3744.34 79.42 5.00 335.56 2594.99
   05:08:48.619.17-Sep-2021 5093.53 3744.37 79.42 5.00 335.76 2594.99
   05:08:48.819.17-Sep-2021 5093.53 3744.37 79.42 5.00 335.96 2594.99
   05:08:49.019.17-Sep-2021 5093.53 3744.38 79.42 5.00 336.16 2594.99
   05:08:49.219.17-Sep-2021 5093.53 3744.38 79.42 5.00 336.36 2594.99
   05:08:49.420.17-Sep-2021 5093.53 3744.38 79.42 5.00 336.56 2594.99
   05:08:49.620.17-Sep-2021 5093.53 3744.43 79.42 5.00 336.76 2594.99
   05:08:49.820.17-Sep-2021 5093.53 3744.46 79.42 5.00 336.96 2594.99
   05:08:50.020.17-Sep-2021 5093.53 3744.46 79.42 5.00 337.16 2594.99
   05:08:50.221.17-Sep-2021 5093.53 3744.46 79.42 5.00 337.36 2594.99
   05:08:50.421.17-Sep-2021 5093.53 3744.46 79.42 5.00 337.56 2594.99
   05:08:50.621.17-Sep-2021 5093.53 3744.47 79.42 5.00 337.76 2594.99
   05:08:50.821.17-Sep-2021 5093.53 3744.50 79.42 5.00 337.96 2594.99
   05:08:51.021.17-Sep-2021 5093.53 3744.53 79.42 5.00 338.16 2594.99
   05:08:51.222.17-Sep-2021 5093.53 3744.61 79.42 5.00 338.36 2594.99
   05:08:51.422.17-Sep-2021 5093.53 3744.61 79.42 5.00 338.56 2594.99
   05:08:51.622.17-Sep-2021 5093.53 3744.48 79.42 5.00 338.76 2594.99
   05:08:51.822.17-Sep-2021 5093.53 3744.44 79.42 5.00 338.97 2594.99
   05:08:52.022.17-Sep-2021 5093.53 3744.43 79.42 5.00 339.17 2594.99
   05:08:52.223.17-Sep-2021 5093.53 3744.44 79.42 5.00 339.37 2594.99
   05:08:52.423.17-Sep-2021 5093.53 3744.44 79.42 5.00 339.57 2594.99
   05:08:52.623.17-Sep-2021 5093.53 3744.36 79.42 5.00 339.77 2594.99
   05:08:52.823.17-Sep-2021 5093.53 3744.27 79.42 5.00 339.97 2594.99
   05:08:53.024.17-Sep-2021 5093.53 3744.32 79.42 5.00 340.17 2594.99
   05:08:53.224.17-Sep-2021 5093.53 3744.33 79.42 5.00 340.37 2594.99
   05:08:53.424.17-Sep-2021 5093.53 3744.33 79.42 5.00 340.57 2594.99
   05:08:53.624.17-Sep-2021 5093.53 3744.18 79.42 5.00 340.77 2594.99
   05:08:53.824.17-Sep-2021 5093.53 3744.10 79.42 5.00 340.97 2594.99
   05:08:54.025.17-Sep-2021 5093.53 3744.13 79.42 5.00 341.17 2594.99
   05:08:54.225.17-Sep-2021 5093.53 3744.15 79.42 5.00 341.37 2594.99
   05:08:54.425.17-Sep-2021 5093.53 3744.15 79.42 5.00 341.57 2594.99
   05:08:54.625.17-Sep-2021 5093.53 3744.25 79.42 5.00 341.77 2594.99
   05:08:54.825.17-Sep-2021 5093.53 3744.22 79.42 5.00 341.97 2594.99
   05:08:55.026.17-Sep-2021 5093.53 3744.20 79.42 5.00 342.17 2594.99
   05:08:55.226.17-Sep-2021 5093.53 3744.16 79.42 5.00 342.37 2594.99
   05:08:55.426.17-Sep-2021 5093.53 3744.16 79.42 5.00 342.57 2594.99
   05:08:55.626.17-Sep-2021 5093.53 3744.21 79.42 5.00 342.77 2594.99
   05:08:55.827.17-Sep-2021 5093.53 3744.21 79.42 5.00 342.97 2594.99
   05:08:56.027.17-Sep-2021 5093.53 3744.25 79.42 5.00 343.17 2594.99
   05:08:56.227.17-Sep-2021 5093.53 3744.26 79.42 5.00 343.37 2594.99
   05:08:56.427.17-Sep-2021 5093.53 3744.26 79.42 5.00 343.57 2594.99
   05:08:56.627.17-Sep-2021 5093.53 3744.29 79.43 5.00 343.77 2594.99
   05:08:56.828.17-Sep-2021 5093.53 3744.30 79.43 5.00 343.97 2594.99
   05:08:57.028.17-Sep-2021 5093.53 3744.31 79.43 5.00 344.17 2594.99
   05:08:57.228.17-Sep-2021 5093.53 3744.34 79.43 5.00 344.37 2594.99
   05:08:57.428.17-Sep-2021 5093.53 3744.34 79.43 5.00 344.57 2594.99
   05:08:57.629.17-Sep-2021 5093.53 3744.39 79.43 5.00 344.77 2594.99
   05:08:57.829.17-Sep-2021 5093.53 3744.32 79.43 5.00 344.97 2594.99
   05:08:58.029.17-Sep-2021 5093.53 3744.43 79.43 5.00 345.17 2594.99
