~Version Information
 VERS.                  2.0:   CWLS log ASCII Standard -VERSION 2.0
 WRAP.                   NO:   One line per depth step
~Well Information Block
#MNEM.UNIT     VALUE/NAME     DESCRIPTION
#---------     -----------    ---------------------------
 STRT.S             06:26:37 17-Sep-21: START TIME 06:26:37 17-Sep-21
 STOP.S             06:35:42 17-Sep-21: STOP TIME  06:35:42 17-Sep-21
 STEP.S                   0.00: STEP TIME
 NULL.                 -999.25: NULL VALUE
 DFWT.                        :  DIST FWL TEXT
 DFST.                        :  DIST FSL TEXT
 DMF .             Drill Floor:  DRILL MEAS FROM
 STIM.      10.59.12 05-Jul-21:  START TIME
 DATE.      10.59.12 10-Sep-21:  END TIME
 SPUD.               05-Jul-21:  SPUD DATE
 NREF.                    Grid:  NORTH REFERENCE
 HPTY.       Minimum Curvature:  HOLE POS TYPE
 DMOD.             Drill Model:  DRILL MOD DESC
 SVYD.                  Survey:  SURVEY DESC
 ILTD.               Lithology:  INTERP LTH DESC
 FTOP.          Formation Tops:  FORM TOPS DESC
 RIG .                     DWG:  RIG NAME
 PDAT.          Mean Sea Level:  PERMANENT DATUM
 FLD .                     ACG:  FIELD NAME
 SON .        AZ-XX-0907115008:  JOB NUMBER
 CTRY.              Azerbaijan:  COUNTRY NAME
 WELL.                    E35A:  WELL NAME
 SRVC.          TURAN DRILLING:  CONTRACTOR
 COMP.     BP Exploration (Caspian Sea LTD):  COMPANY
 UWI .                     N/A:  UNIQUE WELL IDENTIFIER
 API .                     N/A:  API NUMBER
 MDS .        Operator Entered:  MAG DATA SOURCE
 BASE.              Azerbaijan:  LOGGING EQUIPMENT BASE LOCATION
 REGN.                   EESSA:  REGION
 PROV.                    Baku:  PROVINCE
 STAT.                    Baku:  STATE NAME
 MWDS.                    Baku:  MWD SHOP
 JOBN.        AZ-XX-0907115008:  JOB TICKET NUMB
 DOE .                     N/A:  DOE NUMBER
 DCON.         Sperry Drilling:  DIRECTNL CONTR
 UNIT.                     N/A:  LOGGING EQUIPMENT ID
 WTYP.                Deviated:  WELL TYPE
 CNTY.                        :  COUNTY
 LOC .                        :  LOCATION
 LMF .             Drill Floor:  LOG MEASURED FROM
 TVDS.m                  43.16:  TVDSS CORRECTN
 LATI.deg                40.17:  LATITUDE
 LONG.deg                51.17:  LONGITUDE
 WHNS.m                  10.51:  WELL HEAD N/S
 WHEW.m                 -14.82:  WELL HEAD E/W
 UTMX.m              514336.92:  UTM X
 UTMY.m             4448618.56:  UTM Y
 DFWL.m                   0.00:  DISTANCE FWL
 DFSL.m                   0.00:  DISTANCE FSL
 SDEP.m                 849.00:  START DEPTH
 TDD .m                2862.00:  TOTAL DEPTH (DRILLER)
 VSDR.deg               292.10:  VERT SEC DIRECT
 GVFD.g                   1.00:  GRAVITY FIELD
 MFLD.nT              50382.00:  MAGNETIC FIELD
 MDIP.deg                59.68:  MAGNETIC DIP
 MDEC.deg                 6.66:  MAGNETIC DECL
 GRDC.deg                 0.09:  GRID CORRECTION
 AZTC.deg                 6.57:  AZM TOTAL CORR
 EPD .m                   0.00:  ELEVATION
 EGL .m                   0.00:  GROUND ELEVATION
 WDMS.m                 176.20:  WD ELEV
 APD .m                  43.16:  DEPTH ABOVE PD
 DEP .m                 363.42:  DEPTH
 AGAP.m                  43.16:  AIR GAP
 VSEW.m                 -14.82:  VERT SEC E/W
 VSNS.m                  10.51:  VERT SEC N/S
 EKB .m                  43.16:  KB ELEVATION
 EDF .m                  43.16:  DF ELEVATION
 TDL .m                1390.00:  TOTAL DEPTH (LOGGER)
 VSC .                       0:  VS TO CLOSURE
 MAGU.                 1855871:  MAGUTM CHECKSUM
~Parameter Information Block
#MNEM.UNIT       Value        Description
#---------     -----------    ---------------------------
 AV  .mps                 2.28:  Ann Velocity 
 AVMX.mps                 2.67:  Max Ann Veloc 
 AZIF.deg               305.00:  Azm, Final 
 BHAT.        Rotary Steerable:  BHA Type 
 BROT.°/30m               0.45:  Build Rotating 
 BS  .in                 12.25:  Bit Size 
 BSZ .in                 12.25:  Bit Size 
 BTPL.psig              600.00:  Bit Press Loss 
 CABU.                     Yes:  Customer Abuse 
 COMM.                     D5N:  Run Comments 1 
 TCS .hr                150.00:  Time Ciculation Ended 
 CV  .mps                 1.24:  Crit Velocity 
 CVMX.mps                 1.66:  Max Crit Veloc 
 DD1 .         Intigam Rahimov:  Direct Drillr 1 
 DD2 .            Azer Ravavov:  Direct Drillr 2 
 DD3 .              Samir Abas:  Direct Drillr 3 
 DDSV.               Geo-Pilot:  DD Service 
 DEFF.%                 100.00:  % Det Eff 
 DLRX.°/30m               1.57:  Dogleg Rot Max 
 DLSO.°/30m               0.00:  Dogleg Oriented 
 DLSX.°/30m               0.00:  Dogleg Str Max 
 DRET.      20.28.06 17-Sep-21:  Drill End Time 
 DRST.      20.27.35 10-Sep-21:  Drill Start Tim 
 DTIM.hr                 54.00:  Time Drilling 
 EDEP.m                5260.00:  End Depth 
 ENG1.      Bakhtiyar Jabbarli:  Engineer 1 
 ENG2.      Natik Hasanaghayev:  Engineer 2 
 ENG3.           Royal Nasirov:  Engineer 3 
 ETIM.      20.27.55 18-Sep-21:  End Time 
 FLOI.gpm              1100.00:  Flow In 
 FLON.gpm               800.00:  Flow In Min 
 FLOS.cptm                0.00:  Fluid Loss 
 FLOX.gpm              1200.00:  Flow In Max 
 DFT .        Mineral Oil Base:  Mud Type 
 HPRE.                      No:  High Pressure 
 HTEM.                      No:  High Temp 
 HYDO.m                   1.80:  Hydro Offset 
 IFIN.deg                72.31:  Inc, Final 
 IMAX.deg                72.36:  Inc Max 
 IMIN.deg                69.36:  Inc Min 
 IMND.m                4192.96:  Inc Min Depth 
 IMXD.m                5128.36:  Inc Max Depth 
 JARR.                      No:  Jarring 
 LETM.      20.29.00 17-Sep-21:  Log End Time 
 LOST.hr                     0:  Lost Rig Time 
 LSTM.      20.27.00 10-Sep-21:  Log Start Time 
 MDCL.ppm            227000.00:  Mud Chlorides 
 MDES.     Inversion Oil/Synthetic:  Mud Desc 
 DFD .sg                  1.45:  Mud Density 
 MDMN.sg                  1.45:  Dens Mud Min 
 MDMX.sg                  1.45:  Dens Mud Max 
 MOIL.                    70.5:  Run Mud Oil % 
 MOWR.                   71:29:  Run Mud OWR 
 MSND.                     0.3:  Run Mud Sand % 
 MSOL.                    19.8:  Run Mud Solids% 
 DFV .spqt               80.00:  Mud Viscosity 
 MWOD.in                  8.00:  MWD Tool OD 
 MWSI.                     Yes:  Serv Intrp, MWD 
 OTIM.hr                180.00:  Time Operating 
 PCON.           Look Like New:  Pad Condition 
 PMAX.psia             9910.94:  Press Op, Max 
 PV  .cP                 35.00:  Mud PV 
 RUN .                    1000:  Run Number 
 ROPA.m/hr               18.00:  ROP Avg 
 ROPN.m/hr                8.00:  ROP Min 
 ROPX.m/hr               23.00:  ROP Max 
 RPMA.rpm               150.00:  RPM Surface Avg 
 RPMN.rpm               120.00:  RPM Surface Min 
 RPMX.rpm               160.00:  RPM Surface Max 
 RRUN.                    L503:  Rig Run Number 
 RTIM.hr                  5.00:  Time Reaming 
 SAZI.deg               298.42:  Azm, Start 
 SDEP.m                3870.00:  Start Depth 
 SIDD.                      No:  Serv Intrp, DD 
 SINC.deg                69.57:  Inc, Start 
 SPPA.psig             5500.00:  SPP Avg 
 SPPN.psig             4400.00:  SPP Min 
 SPPX.psig             5800.00:  SPP Max 
 STIM.      15.29.39 09-Sep-21:  Start Time 
 SVCS.                 DD, MWD:  Services 
 SVER.                    9.20:  Sperry Version 
 TDAT.m                5260.00:  Tot Depth Attmp 
 TDDF.                      No:  Trip for DD 
 TDLG.m                1390.00:  Tot Depth Loggd 
 TFF .                      No:  Trip for Fail 
 TQAA.f-kp               22.00:  Torque Abs Avg 
 TQAN.f-kp               13.00:  Torque Abs Min 
 TQAX.f-kp               27.00:  Torque Abs Max 
 TRRT.°/30m               1.60:  Turn Rotating 
 MRT .                  EWR-M5:  Maximum Recorded Temperature 
 TTMX.degC               92.00:  Max Tool Temp 
 VS01.                12330975:  Virtual Str1 SN 
 VS02.                90658671:  Virtual Str2 SN 
 VS03.                90658508:  Virtual Str3 SN 
 VS04.                90660974:  Virtual Str4 SN 
 VS05.                90654675:  Virtual Str5 SN 
 WBMN.klb                15.00:  WOB Min 
 WITN.     Alexander Yadullayev:  Customer Rep 
 WITN.           Adil Mammadov:  Customer Rep 2 
 WOBA.klb                17.00:  WOB Avg 
 WOBX.klb                18.00:  WOB Max 
 YP  .lhf2               31.00:  Yield Point 
~Curve Information Block
#MNEM.UNIT                 API CODE     Curve Description
#---------               -----------    ---------------------------
 TIME.HHMMSS            00 000 000 000:  GT Time & Date
 GTDEPTH.m              00 000 000 000:  GT Depth
 GTPQH.psia             00 000 000 000:  GT HR Quartz Pressure
 GTTQ.degC              00 000 000 000:  GT Quartz Temperature
 GTTN.NONE              00 000 000 000:  GT Test Number
 GTET.sec               00 000 000 000:  GT Elapsed Test Time
 GTTVD.m                00 000 000 000:  GT True Vertical Depth
#Other Information
#
#WARRANTY: Halliburton will use its best efforts to furnish customers with 
#accurate information and interpretations that are part of, and incident to, the services 
#provided.  However, Halliburton cannot and does not warrant the accuracy 
#or correctness of such information and interpretations.  Under no circumstances should any 
#such information or interpretation be relied upon as the sole basis for any drilling, 
#completion, production, or financial decision or any procedure involving any risk to the 
#safety of any drilling venture, drilling rig or its crew or any other third party.  The 
#Customer has full responsibility for all drilling, completion and production operation.  
#Halliburton makes no representations or warranties, either expressed or 
#implied, including, but not limited to, the implied warranties of merchantability or fitness 
#for a particular purpose, with respect to the services rendered.  In no event will 
#Halliburton be liable for failure to obtain any particular results or for 
#any damages, including, but not limited to, indirect, special or consequential damages, 
#resulting from the use of any information or interpretation provided by Halliburton.
#
~A           TIME           GTDEPTH  GTPQH  GTTQ  GTTN  GTET   GTTVD  
   06:26:37.357.17-Sep-2021 5057.00 5552.07 78.72 7.00   0.00 2583.65
   06:26:37.557.17-Sep-2021 5057.00 5552.07 78.72 7.00   0.20 2583.65
   06:26:37.757.17-Sep-2021 5057.00 5551.32 78.72 7.00   0.40 2583.65
   06:26:37.957.17-Sep-2021 5057.00 5550.94 78.72 7.00   0.60 2583.65
   06:26:38.157.17-Sep-2021 5057.00 5549.67 78.72 7.00   0.80 2583.65
   06:26:38.356.17-Sep-2021 5057.00 5548.81 78.72 7.00   1.00 2583.65
   06:26:38.556.17-Sep-2021 5057.00 5548.81 78.72 7.00   1.20 2583.65
   06:26:38.756.17-Sep-2021 5057.00 5546.88 78.72 7.00   1.40 2583.65
   06:26:38.956.17-Sep-2021 5057.00 5548.86 78.72 7.00   1.60 2583.65
   06:26:39.156.17-Sep-2021 5057.00 5545.78 78.72 7.00   1.80 2583.65
   06:26:39.356.17-Sep-2021 5057.00 5548.69 78.72 7.00   2.00 2583.65
   06:26:39.556.17-Sep-2021 5057.00 5548.69 78.72 7.00   2.20 2583.65
   06:26:39.756.17-Sep-2021 5057.00 5547.79 78.72 7.00   2.40 2583.65
   06:26:39.956.17-Sep-2021 5057.00 5548.85 78.72 7.00   2.60 2583.65
   06:26:40.156.17-Sep-2021 5057.00 5549.03 78.72 7.00   2.80 2583.65
   06:26:40.356.17-Sep-2021 5057.00 5552.15 78.72 7.00   3.00 2583.65
   06:26:40.556.17-Sep-2021 5057.00 5552.15 78.72 7.00   3.20 2583.65
   06:26:40.756.17-Sep-2021 5057.00 5552.13 78.72 7.00   3.40 2583.65
   06:26:40.956.17-Sep-2021 5057.00 5551.25 78.72 7.00   3.60 2583.65
   06:26:41.156.17-Sep-2021 5057.00 5552.06 78.72 7.00   3.80 2583.65
   06:26:41.356.17-Sep-2021 5057.00 5552.89 78.72 7.00   4.00 2583.65
   06:26:41.556.17-Sep-2021 5057.00 5552.89 78.72 7.00   4.20 2583.65
   06:26:41.756.17-Sep-2021 5057.00 5552.86 78.72 7.00   4.40 2583.65
   06:26:41.956.17-Sep-2021 5057.00 5556.20 78.72 7.00   4.60 2583.65
   06:26:42.156.17-Sep-2021 5057.00 5549.99 78.72 7.00   4.80 2583.65
   06:26:42.356.17-Sep-2021 5057.00 5553.67 78.72 7.00   5.00 2583.65
   06:26:42.556.17-Sep-2021 5057.00 5553.67 78.72 7.00   5.20 2583.65
   06:26:42.756.17-Sep-2021 5057.00 5552.53 78.72 7.00   5.40 2583.65
   06:26:42.956.17-Sep-2021 5057.00 5551.85 78.72 7.00   5.60 2583.65
   06:26:43.155.17-Sep-2021 5057.00 5552.42 78.72 7.00   5.80 2583.65
   06:26:43.355.17-Sep-2021 5057.00 5555.76 78.72 7.00   6.00 2583.65
   06:26:43.555.17-Sep-2021 5057.00 5555.76 78.72 7.00   6.20 2583.65
   06:26:43.755.17-Sep-2021 5057.00 5553.63 78.72 7.00   6.40 2583.65
   06:26:43.955.17-Sep-2021 5057.00 5553.01 78.72 7.00   6.60 2583.65
   06:26:44.155.17-Sep-2021 5057.00 5553.23 78.72 7.00   6.80 2583.65
   06:26:44.355.17-Sep-2021 5057.00 5552.96 78.72 7.00   7.00 2583.65
   06:26:44.555.17-Sep-2021 5057.00 5552.96 78.72 7.00   7.20 2583.65
   06:26:44.755.17-Sep-2021 5057.00 5556.98 78.72 7.00   7.40 2583.65
   06:26:44.955.17-Sep-2021 5057.00 5551.55 78.72 7.00   7.60 2583.65
   06:26:45.155.17-Sep-2021 5057.00 5554.60 78.72 7.00   7.80 2583.65
   06:26:45.355.17-Sep-2021 5057.00 5554.50 78.72 7.00   8.00 2583.65
   06:26:45.555.17-Sep-2021 5057.00 5554.50 78.72 7.00   8.20 2583.65
   06:26:45.755.17-Sep-2021 5057.00 5552.31 78.72 7.00   8.40 2583.65
   06:26:45.955.17-Sep-2021 5057.00 5555.70 78.72 7.00   8.60 2583.65
   06:26:46.155.17-Sep-2021 5057.00 5553.93 78.72 7.00   8.80 2583.65
   06:26:46.355.17-Sep-2021 5057.00 5553.47 78.72 7.00   9.00 2583.65
   06:26:46.555.17-Sep-2021 5057.00 5553.47 78.72 7.00   9.20 2583.65
   06:26:46.755.17-Sep-2021 5057.00 5556.27 78.72 7.00   9.40 2583.65
   06:26:46.955.17-Sep-2021 5057.00 5550.24 78.72 7.00   9.60 2583.65
   06:26:47.155.17-Sep-2021 5057.00 5553.31 78.72 7.00   9.80 2583.65
   06:26:47.355.17-Sep-2021 5057.00 5551.05 78.72 7.00  10.00 2583.65
   06:26:47.555.17-Sep-2021 5057.00 5551.05 78.72 7.00  10.20 2583.65
   06:26:47.754.17-Sep-2021 5057.00 5550.28 78.72 7.00  10.40 2583.65
   06:26:47.954.17-Sep-2021 5057.00 5550.43 78.72 7.00  10.60 2583.65
   06:26:48.154.17-Sep-2021 5057.00 5550.10 78.72 7.00  10.80 2583.65
   06:26:48.354.17-Sep-2021 5057.00 5548.70 78.72 7.00  11.00 2583.65
   06:26:48.554.17-Sep-2021 5057.00 5548.70 78.72 7.00  11.20 2583.65
   06:26:48.754.17-Sep-2021 5057.00 5549.62 78.72 7.00  11.40 2583.65
   06:26:48.954.17-Sep-2021 5057.00 5548.02 78.72 7.00  11.60 2583.65
   06:26:49.154.17-Sep-2021 5057.00 5548.35 78.72 7.00  11.80 2583.65
   06:26:49.354.17-Sep-2021 5057.00 5548.14 78.72 7.00  12.00 2583.65
   06:26:49.554.17-Sep-2021 5057.00 5548.14 78.72 7.00  12.20 2583.65
   06:26:49.754.17-Sep-2021 5057.00 5548.15 78.72 7.00  12.40 2583.65
   06:26:49.954.17-Sep-2021 5057.00 5548.47 78.72 7.00  12.60 2583.65
   06:26:50.154.17-Sep-2021 5057.00 5548.52 78.72 7.00  12.80 2583.65
   06:26:50.354.17-Sep-2021 5057.00 5548.52 78.72 7.00  13.00 2583.65
   06:26:50.554.17-Sep-2021 5057.00 5548.52 78.72 7.00  13.20 2583.65
   06:26:50.754.17-Sep-2021 5057.00 5548.77 78.71 7.00  13.40 2583.65
   06:26:50.954.17-Sep-2021 5057.00 5548.43 78.71 7.00  13.60 2583.65
   06:26:51.154.17-Sep-2021 5057.00 5548.40 78.71 7.00  13.80 2583.65
   06:26:51.354.17-Sep-2021 5057.00 5548.26 78.71 7.00  14.00 2583.65
   06:26:51.554.17-Sep-2021 5057.00 5548.26 78.71 7.00  14.20 2583.65
   06:26:51.754.17-Sep-2021 5057.00 5546.05 78.71 7.00  14.40 2583.65
   06:26:51.954.17-Sep-2021 5057.00 5547.43 78.71 7.00  14.60 2583.65
   06:26:52.154.17-Sep-2021 5057.00 5547.43 78.71 7.00  14.80 2583.65
   06:26:52.354.17-Sep-2021 5057.00 5546.92 78.71 7.00  15.00 2583.65
   06:26:52.553.17-Sep-2021 5057.00 5546.92 78.71 7.00  15.20 2583.65
   06:26:52.753.17-Sep-2021 5057.00 5545.89 78.71 7.00  15.40 2583.65
   06:26:52.953.17-Sep-2021 5057.00 5545.71 78.71 7.00  15.60 2583.65
   06:26:53.153.17-Sep-2021 5057.00 5545.33 78.71 7.00  15.80 2583.65
   06:26:53.353.17-Sep-2021 5057.00 5545.50 78.71 7.00  16.00 2583.65
   06:26:53.553.17-Sep-2021 5057.00 5545.50 78.71 7.00  16.20 2583.65
   06:26:53.753.17-Sep-2021 5057.00 5545.27 78.71 7.00  16.40 2583.65
   06:26:53.953.17-Sep-2021 5057.00 5545.12 78.71 7.00  16.60 2583.65
   06:26:54.153.17-Sep-2021 5057.00 5545.18 78.71 7.00  16.80 2583.65
   06:26:54.353.17-Sep-2021 5057.00 5545.43 78.71 7.00  17.00 2583.65
   06:26:54.553.17-Sep-2021 5057.00 5545.43 78.71 7.00  17.20 2583.65
   06:26:54.753.17-Sep-2021 5057.00 5545.10 78.71 7.00  17.40 2583.65
   06:26:54.953.17-Sep-2021 5057.00 5544.95 78.71 7.00  17.60 2583.65
   06:26:55.153.17-Sep-2021 5057.00 5547.48 78.71 7.00  17.80 2583.65
   06:26:55.353.17-Sep-2021 5057.00 5543.92 78.71 7.00  18.00 2583.65
   06:26:55.553.17-Sep-2021 5057.00 5543.92 78.71 7.00  18.20 2583.65
   06:26:55.753.17-Sep-2021 5057.00 5544.09 78.71 7.00  18.40 2583.65
   06:26:55.953.17-Sep-2021 5057.00 5543.44 78.71 7.00  18.60 2583.65
   06:26:56.153.17-Sep-2021 5057.00 5544.86 78.71 7.00  18.80 2583.65
   06:26:56.353.17-Sep-2021 5057.00 5544.47 78.71 7.00  19.00 2583.65
   06:26:56.553.17-Sep-2021 5057.00 5544.47 78.71 7.00  19.20 2583.65
   06:26:56.753.17-Sep-2021 5057.00 5544.09 78.71 7.00  19.40 2583.65
   06:26:56.953.17-Sep-2021 5057.00 5543.38 78.71 7.00  19.60 2583.65
   06:26:57.152.17-Sep-2021 5057.00 5542.70 78.71 7.00  19.80 2583.65
   06:26:57.352.17-Sep-2021 5057.00 5546.25 78.71 7.00  20.00 2583.65
   06:26:57.552.17-Sep-2021 5057.00 5546.25 78.71 7.00  20.20 2583.65
   06:26:57.752.17-Sep-2021 5057.00 5543.11 78.71 7.00  20.40 2583.65
   06:26:57.952.17-Sep-2021 5057.00 5543.73 78.71 7.00  20.60 2583.65
   06:26:58.152.17-Sep-2021 5057.00 5543.40 78.71 7.00  20.80 2583.65
   06:26:58.352.17-Sep-2021 5057.00 5543.47 78.71 7.00  21.00 2583.65
   06:26:58.552.17-Sep-2021 5057.00 5543.47 78.71 7.00  21.20 2583.65
   06:26:58.752.17-Sep-2021 5057.00 5542.87 78.71 7.00  21.40 2583.65
   06:26:58.952.17-Sep-2021 5057.00 5545.35 78.71 7.00  21.60 2583.65
   06:26:59.152.17-Sep-2021 5057.00 5544.99 78.71 7.00  21.80 2583.65
   06:26:59.352.17-Sep-2021 5057.00 5545.37 78.71 7.00  22.00 2583.65
   06:26:59.552.17-Sep-2021 5057.00 5545.37 78.71 7.00  22.20 2583.65
   06:26:59.752.17-Sep-2021 5057.00 5545.66 78.71 7.00  22.40 2583.65
   06:26:59.952.17-Sep-2021 5057.00 5545.17 78.71 7.00  22.60 2583.65
   06:27:00.152.17-Sep-2021 5057.00 5548.77 78.71 7.00  22.80 2583.65
