~Version Information
 VERS.                  2.0:   CWLS log ASCII Standard -VERSION 2.0
 WRAP.                   NO:   One line per depth step
~Well Information Block
#MNEM.UNIT     VALUE/NAME     DESCRIPTION
#---------     -----------    ---------------------------
 STRT.S             05:03:12 17-Sep-21: START TIME 05:03:12 17-Sep-21
 STOP.S             05:12:54 17-Sep-21: STOP TIME  05:12:54 17-Sep-21
 STEP.S                   0.00: STEP TIME
 NULL.                 -999.25: NULL VALUE
 DFWT.                        :  DIST FWL TEXT
 DFST.                        :  DIST FSL TEXT
 DMF .             Drill Floor:  DRILL MEAS FROM
 STIM.      10.59.12 05-Jul-21:  START TIME
 DATE.      10.59.12 10-Sep-21:  END TIME
 SPUD.               05-Jul-21:  SPUD DATE
 NREF.                    Grid:  NORTH REFERENCE
 HPTY.       Minimum Curvature:  HOLE POS TYPE
 DMOD.             Drill Model:  DRILL MOD DESC
 SVYD.                  Survey:  SURVEY DESC
 ILTD.               Lithology:  INTERP LTH DESC
 FTOP.          Formation Tops:  FORM TOPS DESC
 RIG .                     DWG:  RIG NAME
 PDAT.          Mean Sea Level:  PERMANENT DATUM
 FLD .                     ACG:  FIELD NAME
 SON .        AZ-XX-0907115008:  JOB NUMBER
 CTRY.              Azerbaijan:  COUNTRY NAME
 WELL.                    E35A:  WELL NAME
 SRVC.          TURAN DRILLING:  CONTRACTOR
 COMP.     BP Exploration (Caspian Sea LTD):  COMPANY
 UWI .                     N/A:  UNIQUE WELL IDENTIFIER
 API .                     N/A:  API NUMBER
 MDS .        Operator Entered:  MAG DATA SOURCE
 BASE.              Azerbaijan:  LOGGING EQUIPMENT BASE LOCATION
 REGN.                   EESSA:  REGION
 PROV.                    Baku:  PROVINCE
 STAT.                    Baku:  STATE NAME
 MWDS.                    Baku:  MWD SHOP
 JOBN.        AZ-XX-0907115008:  JOB TICKET NUMB
 DOE .                     N/A:  DOE NUMBER
 DCON.         Sperry Drilling:  DIRECTNL CONTR
 UNIT.                     N/A:  LOGGING EQUIPMENT ID
 WTYP.                Deviated:  WELL TYPE
 CNTY.                        :  COUNTY
 LOC .                        :  LOCATION
 LMF .             Drill Floor:  LOG MEASURED FROM
 TVDS.m                  43.16:  TVDSS CORRECTN
 LATI.deg                40.17:  LATITUDE
 LONG.deg                51.17:  LONGITUDE
 WHNS.m                  10.51:  WELL HEAD N/S
 WHEW.m                 -14.82:  WELL HEAD E/W
 UTMX.m              514336.92:  UTM X
 UTMY.m             4448618.56:  UTM Y
 DFWL.m                   0.00:  DISTANCE FWL
 DFSL.m                   0.00:  DISTANCE FSL
 SDEP.m                 849.00:  START DEPTH
 TDD .m                2862.00:  TOTAL DEPTH (DRILLER)
 VSDR.deg               292.10:  VERT SEC DIRECT
 GVFD.g                   1.00:  GRAVITY FIELD
 MFLD.nT              50382.00:  MAGNETIC FIELD
 MDIP.deg                59.68:  MAGNETIC DIP
 MDEC.deg                 6.66:  MAGNETIC DECL
 GRDC.deg                 0.09:  GRID CORRECTION
 AZTC.deg                 6.57:  AZM TOTAL CORR
 EPD .m                   0.00:  ELEVATION
 EGL .m                   0.00:  GROUND ELEVATION
 WDMS.m                 176.20:  WD ELEV
 APD .m                  43.16:  DEPTH ABOVE PD
 DEP .m                 363.42:  DEPTH
 AGAP.m                  43.16:  AIR GAP
 VSEW.m                 -14.82:  VERT SEC E/W
 VSNS.m                  10.51:  VERT SEC N/S
 EKB .m                  43.16:  KB ELEVATION
 EDF .m                  43.16:  DF ELEVATION
 TDL .m                1390.00:  TOTAL DEPTH (LOGGER)
 VSC .                       0:  VS TO CLOSURE
 MAGU.                 1855871:  MAGUTM CHECKSUM
~Parameter Information Block
#MNEM.UNIT       Value        Description
#---------     -----------    ---------------------------
 AV  .mps                 2.28:  Ann Velocity 
 AVMX.mps                 2.67:  Max Ann Veloc 
 AZIF.deg               305.00:  Azm, Final 
 BHAT.        Rotary Steerable:  BHA Type 
 BROT.°/30m               0.45:  Build Rotating 
 BS  .in                 12.25:  Bit Size 
 BSZ .in                 12.25:  Bit Size 
 BTPL.psig              600.00:  Bit Press Loss 
 CABU.                     Yes:  Customer Abuse 
 COMM.                     äÏF:  Run Comments 1 
 TCS .hr                150.00:  Time Ciculation Ended 
 CV  .mps                 1.24:  Crit Velocity 
 CVMX.mps                 1.66:  Max Crit Veloc 
 DD1 .         Intigam Rahimov:  Direct Drillr 1 
 DD2 .            Azer Ravavov:  Direct Drillr 2 
 DD3 .              Samir Abas:  Direct Drillr 3 
 DDSV.               Geo-Pilot:  DD Service 
 DEFF.%                 100.00:  % Det Eff 
 DLRX.°/30m               1.57:  Dogleg Rot Max 
 DLSO.°/30m               0.00:  Dogleg Oriented 
 DLSX.°/30m               0.00:  Dogleg Str Max 
 DRET.      20.28.06 17-Sep-21:  Drill End Time 
 DRST.      20.27.35 10-Sep-21:  Drill Start Tim 
 DTIM.hr                 54.00:  Time Drilling 
 EDEP.m                5260.00:  End Depth 
 ENG1.      Bakhtiyar Jabbarli:  Engineer 1 
 ENG2.      Natik Hasanaghayev:  Engineer 2 
 ENG3.           Royal Nasirov:  Engineer 3 
 ETIM.      20.27.55 18-Sep-21:  End Time 
 FLOI.gpm              1100.00:  Flow In 
 FLON.gpm               800.00:  Flow In Min 
 FLOS.cptm                0.00:  Fluid Loss 
 FLOX.gpm              1200.00:  Flow In Max 
 DFT .        Mineral Oil Base:  Mud Type 
 HPRE.                      No:  High Pressure 
 HTEM.                      No:  High Temp 
 HYDO.m                   1.80:  Hydro Offset 
 IFIN.deg                72.31:  Inc, Final 
 IMAX.deg                72.36:  Inc Max 
 IMIN.deg                69.36:  Inc Min 
 IMND.m                4192.96:  Inc Min Depth 
 IMXD.m                5128.36:  Inc Max Depth 
 JARR.                      No:  Jarring 
 LETM.      20.29.00 17-Sep-21:  Log End Time 
 LOST.hr                     0:  Lost Rig Time 
 LSTM.      20.27.00 10-Sep-21:  Log Start Time 
 MDCL.ppm            227000.00:  Mud Chlorides 
 MDES.     Inversion Oil/Synthetic:  Mud Desc 
 DFD .sg                  1.45:  Mud Density 
 MDMN.sg                  1.45:  Dens Mud Min 
 MDMX.sg                  1.45:  Dens Mud Max 
 MOIL.                    70.5:  Run Mud Oil % 
 MOWR.                   71:29:  Run Mud OWR 
 MSND.                     0.3:  Run Mud Sand % 
 MSOL.                    19.8:  Run Mud Solids% 
 DFV .spqt               80.00:  Mud Viscosity 
 MWOD.in                  8.00:  MWD Tool OD 
 MWSI.                     Yes:  Serv Intrp, MWD 
 OTIM.hr                180.00:  Time Operating 
 PCON.           Look Like New:  Pad Condition 
 PMAX.psia             9910.94:  Press Op, Max 
 PV  .cP                 35.00:  Mud PV 
 RUN .                    1000:  Run Number 
 ROPA.m/hr               18.00:  ROP Avg 
 ROPN.m/hr                8.00:  ROP Min 
 ROPX.m/hr               23.00:  ROP Max 
 RPMA.rpm               150.00:  RPM Surface Avg 
 RPMN.rpm               120.00:  RPM Surface Min 
 RPMX.rpm               160.00:  RPM Surface Max 
 RRUN.                    L503:  Rig Run Number 
 RTIM.hr                  5.00:  Time Reaming 
 SAZI.deg               298.42:  Azm, Start 
 SDEP.m                3870.00:  Start Depth 
 SIDD.                      No:  Serv Intrp, DD 
 SINC.deg                69.57:  Inc, Start 
 SPPA.psig             5500.00:  SPP Avg 
 SPPN.psig             4400.00:  SPP Min 
 SPPX.psig             5800.00:  SPP Max 
 STIM.      15.29.39 09-Sep-21:  Start Time 
 SVCS.                 DD, MWD:  Services 
 SVER.                    9.20:  Sperry Version 
 TDAT.m                5260.00:  Tot Depth Attmp 
 TDDF.                      No:  Trip for DD 
 TDLG.m                1390.00:  Tot Depth Loggd 
 TFF .                      No:  Trip for Fail 
 TQAA.f-kp               22.00:  Torque Abs Avg 
 TQAN.f-kp               13.00:  Torque Abs Min 
 TQAX.f-kp               27.00:  Torque Abs Max 
 TRRT.°/30m               1.60:  Turn Rotating 
 MRT .                  EWR-M5:  Maximum Recorded Temperature 
 TTMX.degC               92.00:  Max Tool Temp 
 VS01.                12330975:  Virtual Str1 SN 
 VS02.                90658671:  Virtual Str2 SN 
 VS03.                90658508:  Virtual Str3 SN 
 VS04.                90660974:  Virtual Str4 SN 
 VS05.                90654675:  Virtual Str5 SN 
 WBMN.klb                15.00:  WOB Min 
 WITN.     Alexander Yadullayev:  Customer Rep 
 WITN.           Adil Mammadov:  Customer Rep 2 
 WOBA.klb                17.00:  WOB Avg 
 WOBX.klb                18.00:  WOB Max 
 YP  .lhf2               31.00:  Yield Point 
~Curve Information Block
#MNEM.UNIT                 API CODE     Curve Description
#---------               -----------    ---------------------------
 TIME.HHMMSS            00 000 000 000:  GT Time & Date
 GTDEPTH.m              00 000 000 000:  GT Depth
 GTPQH.psia             00 000 000 000:  GT HR Quartz Pressure
 GTTQ.degC              00 000 000 000:  GT Quartz Temperature
 GTTN.NONE              00 000 000 000:  GT Test Number
 GTET.sec               00 000 000 000:  GT Elapsed Test Time
 GTTVD.m                00 000 000 000:  GT True Vertical Depth
#Other Information
#
#WARRANTY: Halliburton will use its best efforts to furnish customers with 
#accurate information and interpretations that are part of, and incident to, the services 
#provided.  However, Halliburton cannot and does not warrant the accuracy 
#or correctness of such information and interpretations.  Under no circumstances should any 
#such information or interpretation be relied upon as the sole basis for any drilling, 
#completion, production, or financial decision or any procedure involving any risk to the 
#safety of any drilling venture, drilling rig or its crew or any other third party.  The 
#Customer has full responsibility for all drilling, completion and production operation.  
#Halliburton makes no representations or warranties, either expressed or 
#implied, including, but not limited to, the implied warranties of merchantability or fitness 
#for a particular purpose, with respect to the services rendered.  In no event will 
#Halliburton be liable for failure to obtain any particular results or for 
#any damages, including, but not limited to, indirect, special or consequential damages, 
#resulting from the use of any information or interpretation provided by Halliburton.
#
~A           TIME           GTDEPTH  GTPQH  GTTQ  GTTN  GTET   GTTVD  
# ...
   05:08:12.180.17-Sep-2021 5093.53 3743.25 79.40 5.00 299.32 2594.99
   05:08:12.380.17-Sep-2021 5093.53 3743.25 79.40 5.00 299.52 2594.99
   05:08:12.580.17-Sep-2021 5093.53 3743.28 79.40 5.00 299.72 2594.99
   05:08:12.780.17-Sep-2021 5093.53 3743.07 79.40 5.00 299.92 2594.99
   05:08:12.980.17-Sep-2021 5093.53 3743.15 79.40 5.00 300.12 2594.99
   05:08:13.181.17-Sep-2021 5093.53 3743.18 79.40 5.00 300.32 2594.99
   05:08:13.381.17-Sep-2021 5093.53 3743.18 79.40 5.00 300.52 2594.99
   05:08:13.581.17-Sep-2021 5093.53 3743.18 79.40 5.00 300.72 2594.99
   05:08:13.781.17-Sep-2021 5093.53 3742.85 79.40 5.00 300.92 2594.99
   05:08:13.981.17-Sep-2021 5093.53 3742.91 79.40 5.00 301.12 2594.99
   05:08:14.182.17-Sep-2021 5093.53 3742.87 79.41 5.00 301.32 2594.99
   05:08:14.382.17-Sep-2021 5093.53 3742.87 79.41 5.00 301.52 2594.99
   05:08:14.582.17-Sep-2021 5093.53 3742.87 79.41 5.00 301.72 2594.99
   05:08:14.782.17-Sep-2021 5093.53 3742.91 79.41 5.00 301.93 2594.99
   05:08:14.983.17-Sep-2021 5093.53 3742.91 79.41 5.00 302.13 2594.99
   05:08:15.183.17-Sep-2021 5093.53 3742.99 79.41 5.00 302.33 2594.99
   05:08:15.383.17-Sep-2021 5093.53 3742.99 79.41 5.00 302.53 2594.99
   05:08:15.583.17-Sep-2021 5093.53 3742.97 79.41 5.00 302.73 2594.99
   05:08:15.783.17-Sep-2021 5093.53 3743.02 79.41 5.00 302.93 2594.99
   05:08:15.984.17-Sep-2021 5093.53 3743.01 79.41 5.00 303.13 2594.99
   05:08:16.184.17-Sep-2021 5093.53 3743.03 79.41 5.00 303.33 2594.99
   05:08:16.384.17-Sep-2021 5093.53 3743.03 79.41 5.00 303.53 2594.99
   05:08:16.584.17-Sep-2021 5093.53 3743.06 79.41 5.00 303.73 2594.99
   05:08:16.785.17-Sep-2021 5093.53 3743.09 79.41 5.00 303.93 2594.99
   05:08:16.985.17-Sep-2021 5093.53 3743.10 79.41 5.00 304.13 2594.99
   05:08:17.185.17-Sep-2021 5093.53 3743.11 79.41 5.00 304.33 2594.99
   05:08:17.385.17-Sep-2021 5093.53 3743.11 79.41 5.00 304.53 2594.99
   05:08:17.585.17-Sep-2021 5093.53 3743.13 79.41 5.00 304.73 2594.99
   05:08:17.786.17-Sep-2021 5093.53 3743.15 79.41 5.00 304.93 2594.99
   05:08:17.986.17-Sep-2021 5093.53 3743.22 79.41 5.00 305.13 2594.99
   05:08:18.186.17-Sep-2021 5093.53 3743.13 79.41 5.00 305.33 2594.99
   05:08:18.386.17-Sep-2021 5093.53 3743.13 79.41 5.00 305.53 2594.99
   05:08:18.586.17-Sep-2021 5093.53 3743.31 79.41 5.00 305.73 2594.99
   05:08:18.787.17-Sep-2021 5093.53 3743.34 79.41 5.00 305.93 2594.99
   05:08:18.987.17-Sep-2021 5093.53 3743.37 79.41 5.00 306.13 2594.99
   05:08:19.187.17-Sep-2021 5093.53 3743.38 79.41 5.00 306.33 2594.99
   05:08:19.387.17-Sep-2021 5093.53 3743.38 79.41 5.00 306.53 2594.99
   05:08:19.588.17-Sep-2021 5093.53 3743.39 79.41 5.00 306.73 2594.99
   05:08:19.788.17-Sep-2021 5093.53 3743.38 79.41 5.00 306.93 2594.99
   05:08:19.988.17-Sep-2021 5093.53 3743.38 79.41 5.00 307.13 2594.99
   05:08:20.188.17-Sep-2021 5093.53 3743.40 79.41 5.00 307.33 2594.99
   05:08:20.388.17-Sep-2021 5093.53 3743.40 79.41 5.00 307.53 2594.99
   05:08:20.589.17-Sep-2021 5093.53 3743.46 79.41 5.00 307.73 2594.99
   05:08:20.789.17-Sep-2021 5093.53 3743.53 79.41 5.00 307.93 2594.99
   05:08:20.989.17-Sep-2021 5093.53 3743.52 79.41 5.00 308.13 2594.99
   05:08:21.189.17-Sep-2021 5093.53 3743.59 79.41 5.00 308.33 2594.99
   05:08:21.389.17-Sep-2021 5093.53 3743.59 79.41 5.00 308.53 2594.99
   05:08:21.590.17-Sep-2021 5093.53 3743.57 79.41 5.00 308.73 2594.99
   05:08:21.790.17-Sep-2021 5093.53 3743.58 79.41 5.00 308.93 2594.99
   05:08:21.990.17-Sep-2021 5093.53 3743.60 79.41 5.00 309.13 2594.99
   05:08:22.190.17-Sep-2021 5093.53 3743.61 79.41 5.00 309.33 2594.99
   05:08:22.391.17-Sep-2021 5093.53 3743.61 79.41 5.00 309.53 2594.99
   05:08:22.591.17-Sep-2021 5093.53 3743.39 79.41 5.00 309.73 2594.99
   05:08:22.791.17-Sep-2021 5093.53 3743.28 79.41 5.00 309.93 2594.99
   05:08:22.991.17-Sep-2021 5093.53 3743.18 79.41 5.00 310.13 2594.99
   05:08:23.191.17-Sep-2021 5093.53 3743.17 79.41 5.00 310.33 2594.99
   05:08:23.392.17-Sep-2021 5093.53 3743.17 79.41 5.00 310.53 2594.99
   05:08:23.592.17-Sep-2021 5093.53 3743.18 79.41 5.00 310.73 2594.99
   05:08:23.792.17-Sep-2021 5093.53 3743.21 79.41 5.00 310.93 2594.99
   05:08:23.992.17-Sep-2021 5093.53 3743.26 79.41 5.00 311.14 2594.99
   05:08:24.192.17-Sep-2021 5093.53 3743.26 79.41 5.00 311.34 2594.99
   05:08:24.393.17-Sep-2021 5093.53 3743.26 79.41 5.00 311.54 2594.99
   05:08:24.593.17-Sep-2021 5093.53 3743.26 79.41 5.00 311.74 2594.99
   05:08:24.793.17-Sep-2021 5093.53 3743.29 79.41 5.00 311.94 2594.99
   05:08:24.993.17-Sep-2021 5093.53 3743.20 79.41 5.00 312.14 2594.99
   05:08:25.194.17-Sep-2021 5093.53 3743.33 79.41 5.00 312.34 2594.99
   05:08:25.394.17-Sep-2021 5093.53 3743.33 79.41 5.00 312.54 2594.99
   05:08:25.594.17-Sep-2021 5093.53 3743.31 79.41 5.00 312.74 2594.99
   05:08:25.794.17-Sep-2021 5093.53 3743.31 79.41 5.00 312.94 2594.99
   05:08:25.994.17-Sep-2021 5093.53 3743.32 79.41 5.00 313.14 2594.99
   05:08:26.195.17-Sep-2021 5093.53 3743.30 79.41 5.00 313.34 2594.99
   05:08:26.395.17-Sep-2021 5093.53 3743.30 79.41 5.00 313.54 2594.99
   05:08:26.595.17-Sep-2021 5093.53 3743.36 79.41 5.00 313.74 2594.99
   05:08:26.795.17-Sep-2021 5093.53 3743.40 79.41 5.00 313.94 2594.99
   05:08:26.996.17-Sep-2021 5093.53 3743.46 79.41 5.00 314.14 2594.99
   05:08:27.196.17-Sep-2021 5093.53 3743.49 79.41 5.00 314.34 2594.99
   05:08:27.396.17-Sep-2021 5093.53 3743.49 79.41 5.00 314.54 2594.99
   05:08:27.596.17-Sep-2021 5093.53 3743.52 79.41 5.00 314.74 2594.99
   05:08:27.796.17-Sep-2021 5093.53 3743.49 79.41 5.00 314.94 2594.99
   05:08:27.997.17-Sep-2021 5093.53 3743.51 79.41 5.00 315.14 2594.99
   05:08:28.197.17-Sep-2021 5093.53 3743.45 79.41 5.00 315.34 2594.99
   05:08:28.397.17-Sep-2021 5093.53 3743.45 79.41 5.00 315.54 2594.99
   05:08:28.597.17-Sep-2021 5093.53 3743.55 79.41 5.00 315.74 2594.99
   05:08:28.797.17-Sep-2021 5093.53 3743.58 79.41 5.00 315.94 2594.99
   05:08:28.998.17-Sep-2021 5093.53 3743.62 79.41 5.00 316.14 2594.99
   05:08:29.198.17-Sep-2021 5093.53 3743.61 79.41 5.00 316.34 2594.99
   05:08:29.398.17-Sep-2021 5093.53 3743.61 79.41 5.00 316.54 2594.99
   05:08:29.598.17-Sep-2021 5093.53 3743.65 79.41 5.00 316.74 2594.99
   05:08:29.799.17-Sep-2021 5093.53 3743.65 79.41 5.00 316.94 2594.99
   05:08:29.999.17-Sep-2021 5093.53 3743.67 79.41 5.00 317.14 2594.99
   05:08:30.199.17-Sep-2021 5093.53 3743.70 79.41 5.00 317.34 2594.99
   05:08:30.399.17-Sep-2021 5093.53 3743.70 79.41 5.00 317.54 2594.99
   05:08:30.599.17-Sep-2021 5093.53 3743.74 79.41 5.00 317.74 2594.99
   05:08:30.800.17-Sep-2021 5093.53 3743.77 79.41 5.00 317.94 2594.99
   05:08:31.000.17-Sep-2021 5093.53 3743.81 79.41 5.00 318.14 2594.99
   05:08:31.200.17-Sep-2021 5093.53 3743.85 79.41 5.00 318.34 2594.99
   05:08:31.400.17-Sep-2021 5093.53 3743.85 79.41 5.00 318.54 2594.99
   05:08:31.600.17-Sep-2021 5093.53 3743.81 79.41 5.00 318.74 2594.99
   05:08:31.801.17-Sep-2021 5093.53 3743.92 79.41 5.00 318.94 2594.99
   05:08:32.001.17-Sep-2021 5093.53 3743.90 79.41 5.00 319.14 2594.99
   05:08:32.201.17-Sep-2021 5093.53 3743.93 79.41 5.00 319.34 2594.99
   05:08:32.401.17-Sep-2021 5093.53 3743.93 79.41 5.00 319.54 2594.99
   05:08:32.602.17-Sep-2021 5093.53 3743.89 79.41 5.00 319.74 2594.99
   05:08:32.802.17-Sep-2021 5093.53 3743.91 79.41 5.00 319.94 2594.99
   05:08:33.002.17-Sep-2021 5093.53 3743.89 79.41 5.00 320.14 2594.99
   05:08:33.202.17-Sep-2021 5093.53 3743.89 79.41 5.00 320.35 2594.99
   05:08:33.402.17-Sep-2021 5093.53 3743.89 79.41 5.00 320.55 2594.99
   05:08:33.603.17-Sep-2021 5093.53 3743.86 79.41 5.00 320.75 2594.99
   05:08:33.803.17-Sep-2021 5093.53 3743.92 79.41 5.00 320.95 2594.99
   05:08:34.003.17-Sep-2021 5093.53 3743.97 79.41 5.00 321.15 2594.99
   05:08:34.203.17-Sep-2021 5093.53 3743.99 79.41 5.00 321.35 2594.99
   05:08:34.403.17-Sep-2021 5093.53 3743.99 79.41 5.00 321.55 2594.99
   05:08:34.604.17-Sep-2021 5093.53 3743.99 79.41 5.00 321.75 2594.99
   05:08:34.804.17-Sep-2021 5093.53 3744.04 79.41 5.00 321.95 2594.99
   05:08:35.004.17-Sep-2021 5093.53 3743.85 79.41 5.00 322.15 2594.99
