~Version Information
 VERS.                  2.0:   CWLS log ASCII Standard -VERSION 2.0
 WRAP.                   NO:   One line per depth step
~Well Information Block
#MNEM.UNIT     VALUE/NAME     DESCRIPTION
#---------     -----------    ---------------------------
 STRT.S             05:03:12 17-Sep-21: START TIME 05:03:12 17-Sep-21
 STOP.S             05:12:54 17-Sep-21: STOP TIME  05:12:54 17-Sep-21
 STEP.S                   0.00: STEP TIME
 NULL.                 -999.25: NULL VALUE
 DFWT.                        :  DIST FWL TEXT
 DFST.                        :  DIST FSL TEXT
 DMF .             Drill Floor:  DRILL MEAS FROM
 STIM.      10.59.12 05-Jul-21:  START TIME
 DATE.      10.59.12 10-Sep-21:  END TIME
 SPUD.               05-Jul-21:  SPUD DATE
 NREF.                    Grid:  NORTH REFERENCE
 HPTY.       Minimum Curvature:  HOLE POS TYPE
 DMOD.             Drill Model:  DRILL MOD DESC
 SVYD.                  Survey:  SURVEY DESC
 ILTD.               Lithology:  INTERP LTH DESC
 FTOP.          Formation Tops:  FORM TOPS DESC
 RIG .                     DWG:  RIG NAME
 PDAT.          Mean Sea Level:  PERMANENT DATUM
 FLD .                     ACG:  FIELD NAME
 SON .        AZ-XX-0907115008:  JOB NUMBER
 CTRY.              Azerbaijan:  COUNTRY NAME
 WELL.                    E35A:  WELL NAME
 SRVC.          TURAN DRILLING:  CONTRACTOR
 COMP.     BP Exploration (Caspian Sea LTD):  COMPANY
 UWI .                     N/A:  UNIQUE WELL IDENTIFIER
 API .                     N/A:  API NUMBER
 MDS .        Operator Entered:  MAG DATA SOURCE
 BASE.              Azerbaijan:  LOGGING EQUIPMENT BASE LOCATION
 REGN.                   EESSA:  REGION
 PROV.                    Baku:  PROVINCE
 STAT.                    Baku:  STATE NAME
 MWDS.                    Baku:  MWD SHOP
 JOBN.        AZ-XX-0907115008:  JOB TICKET NUMB
 DOE .                     N/A:  DOE NUMBER
 DCON.         Sperry Drilling:  DIRECTNL CONTR
 UNIT.                     N/A:  LOGGING EQUIPMENT ID
 WTYP.                Deviated:  WELL TYPE
 CNTY.                        :  COUNTY
 LOC .                        :  LOCATION
 LMF .             Drill Floor:  LOG MEASURED FROM
 TVDS.m                  43.16:  TVDSS CORRECTN
 LATI.deg                40.17:  LATITUDE
 LONG.deg                51.17:  LONGITUDE
 WHNS.m                  10.51:  WELL HEAD N/S
 WHEW.m                 -14.82:  WELL HEAD E/W
 UTMX.m              514336.92:  UTM X
 UTMY.m             4448618.56:  UTM Y
 DFWL.m                   0.00:  DISTANCE FWL
 DFSL.m                   0.00:  DISTANCE FSL
 SDEP.m                 849.00:  START DEPTH
 TDD .m                2862.00:  TOTAL DEPTH (DRILLER)
 VSDR.deg               292.10:  VERT SEC DIRECT
 GVFD.g                   1.00:  GRAVITY FIELD
 MFLD.nT              50382.00:  MAGNETIC FIELD
 MDIP.deg                59.68:  MAGNETIC DIP
 MDEC.deg                 6.66:  MAGNETIC DECL
 GRDC.deg                 0.09:  GRID CORRECTION
 AZTC.deg                 6.57:  AZM TOTAL CORR
 EPD .m                   0.00:  ELEVATION
 EGL .m                   0.00:  GROUND ELEVATION
 WDMS.m                 176.20:  WD ELEV
 APD .m                  43.16:  DEPTH ABOVE PD
 DEP .m                 363.42:  DEPTH
 AGAP.m                  43.16:  AIR GAP
 VSEW.m                 -14.82:  VERT SEC E/W
 VSNS.m                  10.51:  VERT SEC N/S
 EKB .m                  43.16:  KB ELEVATION
 EDF .m                  43.16:  DF ELEVATION
 TDL .m                1390.00:  TOTAL DEPTH (LOGGER)
 VSC .                       0:  VS TO CLOSURE
 MAGU.                 1855871:  MAGUTM CHECKSUM
~Parameter Information Block
#MNEM.UNIT       Value        Description
#---------     -----------    ---------------------------
 AV  .mps                 2.28:  Ann Velocity 
 AVMX.mps                 2.67:  Max Ann Veloc 
 AZIF.deg               305.00:  Azm, Final 
 BHAT.        Rotary Steerable:  BHA Type 
 BROT.°/30m               0.45:  Build Rotating 
 BS  .in                 12.25:  Bit Size 
 BSZ .in                 12.25:  Bit Size 
 BTPL.psig              600.00:  Bit Press Loss 
 CABU.                     Yes:  Customer Abuse 
 COMM.                     äÏF:  Run Comments 1 
 TCS .hr                150.00:  Time Ciculation Ended 
 CV  .mps                 1.24:  Crit Velocity 
 CVMX.mps                 1.66:  Max Crit Veloc 
 DD1 .         Intigam Rahimov:  Direct Drillr 1 
 DD2 .            Azer Ravavov:  Direct Drillr 2 
 DD3 .              Samir Abas:  Direct Drillr 3 
 DDSV.               Geo-Pilot:  DD Service 
 DEFF.%                 100.00:  % Det Eff 
 DLRX.°/30m               1.57:  Dogleg Rot Max 
 DLSO.°/30m               0.00:  Dogleg Oriented 
 DLSX.°/30m               0.00:  Dogleg Str Max 
 DRET.      20.28.06 17-Sep-21:  Drill End Time 
 DRST.      20.27.35 10-Sep-21:  Drill Start Tim 
 DTIM.hr                 54.00:  Time Drilling 
 EDEP.m                5260.00:  End Depth 
 ENG1.      Bakhtiyar Jabbarli:  Engineer 1 
 ENG2.      Natik Hasanaghayev:  Engineer 2 
 ENG3.           Royal Nasirov:  Engineer 3 
 ETIM.      20.27.55 18-Sep-21:  End Time 
 FLOI.gpm              1100.00:  Flow In 
 FLON.gpm               800.00:  Flow In Min 
 FLOS.cptm                0.00:  Fluid Loss 
 FLOX.gpm              1200.00:  Flow In Max 
 DFT .        Mineral Oil Base:  Mud Type 
 HPRE.                      No:  High Pressure 
 HTEM.                      No:  High Temp 
 HYDO.m                   1.80:  Hydro Offset 
 IFIN.deg                72.31:  Inc, Final 
 IMAX.deg                72.36:  Inc Max 
 IMIN.deg                69.36:  Inc Min 
 IMND.m                4192.96:  Inc Min Depth 
 IMXD.m                5128.36:  Inc Max Depth 
 JARR.                      No:  Jarring 
 LETM.      20.29.00 17-Sep-21:  Log End Time 
 LOST.hr                     0:  Lost Rig Time 
 LSTM.      20.27.00 10-Sep-21:  Log Start Time 
 MDCL.ppm            227000.00:  Mud Chlorides 
 MDES.     Inversion Oil/Synthetic:  Mud Desc 
 DFD .sg                  1.45:  Mud Density 
 MDMN.sg                  1.45:  Dens Mud Min 
 MDMX.sg                  1.45:  Dens Mud Max 
 MOIL.                    70.5:  Run Mud Oil % 
 MOWR.                   71:29:  Run Mud OWR 
 MSND.                     0.3:  Run Mud Sand % 
 MSOL.                    19.8:  Run Mud Solids% 
 DFV .spqt               80.00:  Mud Viscosity 
 MWOD.in                  8.00:  MWD Tool OD 
 MWSI.                     Yes:  Serv Intrp, MWD 
 OTIM.hr                180.00:  Time Operating 
 PCON.           Look Like New:  Pad Condition 
 PMAX.psia             9910.94:  Press Op, Max 
 PV  .cP                 35.00:  Mud PV 
 RUN .                    1000:  Run Number 
 ROPA.m/hr               18.00:  ROP Avg 
 ROPN.m/hr                8.00:  ROP Min 
 ROPX.m/hr               23.00:  ROP Max 
 RPMA.rpm               150.00:  RPM Surface Avg 
 RPMN.rpm               120.00:  RPM Surface Min 
 RPMX.rpm               160.00:  RPM Surface Max 
 RRUN.                    L503:  Rig Run Number 
 RTIM.hr                  5.00:  Time Reaming 
 SAZI.deg               298.42:  Azm, Start 
 SDEP.m                3870.00:  Start Depth 
 SIDD.                      No:  Serv Intrp, DD 
 SINC.deg                69.57:  Inc, Start 
 SPPA.psig             5500.00:  SPP Avg 
 SPPN.psig             4400.00:  SPP Min 
 SPPX.psig             5800.00:  SPP Max 
 STIM.      15.29.39 09-Sep-21:  Start Time 
 SVCS.                 DD, MWD:  Services 
 SVER.                    9.20:  Sperry Version 
 TDAT.m                5260.00:  Tot Depth Attmp 
 TDDF.                      No:  Trip for DD 
 TDLG.m                1390.00:  Tot Depth Loggd 
 TFF .                      No:  Trip for Fail 
 TQAA.f-kp               22.00:  Torque Abs Avg 
 TQAN.f-kp               13.00:  Torque Abs Min 
 TQAX.f-kp               27.00:  Torque Abs Max 
 TRRT.°/30m               1.60:  Turn Rotating 
 MRT .                  EWR-M5:  Maximum Recorded Temperature 
 TTMX.degC               92.00:  Max Tool Temp 
 VS01.                12330975:  Virtual Str1 SN 
 VS02.                90658671:  Virtual Str2 SN 
 VS03.                90658508:  Virtual Str3 SN 
 VS04.                90660974:  Virtual Str4 SN 
 VS05.                90654675:  Virtual Str5 SN 
 WBMN.klb                15.00:  WOB Min 
 WITN.     Alexander Yadullayev:  Customer Rep 
 WITN.           Adil Mammadov:  Customer Rep 2 
 WOBA.klb                17.00:  WOB Avg 
 WOBX.klb                18.00:  WOB Max 
 YP  .lhf2               31.00:  Yield Point 
~Curve Information Block
#MNEM.UNIT                 API CODE     Curve Description
#---------               -----------    ---------------------------
 TIME.HHMMSS            00 000 000 000:  GT Time & Date
 GTDEPTH.m              00 000 000 000:  GT Depth
 GTPQH.psia             00 000 000 000:  GT HR Quartz Pressure
 GTTQ.degC              00 000 000 000:  GT Quartz Temperature
 GTTN.NONE              00 000 000 000:  GT Test Number
 GTET.sec               00 000 000 000:  GT Elapsed Test Time
 GTTVD.m                00 000 000 000:  GT True Vertical Depth
#Other Information
#
#WARRANTY: Halliburton will use its best efforts to furnish customers with 
#accurate information and interpretations that are part of, and incident to, the services 
#provided.  However, Halliburton cannot and does not warrant the accuracy 
#or correctness of such information and interpretations.  Under no circumstances should any 
#such information or interpretation be relied upon as the sole basis for any drilling, 
#completion, production, or financial decision or any procedure involving any risk to the 
#safety of any drilling venture, drilling rig or its crew or any other third party.  The 
#Customer has full responsibility for all drilling, completion and production operation.  
#Halliburton makes no representations or warranties, either expressed or 
#implied, including, but not limited to, the implied warranties of merchantability or fitness 
#for a particular purpose, with respect to the services rendered.  In no event will 
#Halliburton be liable for failure to obtain any particular results or for 
#any damages, including, but not limited to, indirect, special or consequential damages, 
#resulting from the use of any information or interpretation provided by Halliburton.
#
~A           TIME           GTDEPTH  GTPQH  GTTQ  GTTN  GTET   GTTVD  
# ...
   05:07:26.130.17-Sep-2021 5093.53 3741.41 79.38 5.00 253.27 2594.99
   05:07:26.330.17-Sep-2021 5093.53 3741.41 79.38 5.00 253.47 2594.99
   05:07:26.530.17-Sep-2021 5093.53 3741.53 79.38 5.00 253.67 2594.99
   05:07:26.731.17-Sep-2021 5093.53 3741.56 79.38 5.00 253.87 2594.99
   05:07:26.931.17-Sep-2021 5093.53 3741.57 79.38 5.00 254.07 2594.99
   05:07:27.131.17-Sep-2021 5093.53 3741.59 79.38 5.00 254.27 2594.99
   05:07:27.331.17-Sep-2021 5093.53 3741.59 79.38 5.00 254.47 2594.99
   05:07:27.531.17-Sep-2021 5093.53 3741.60 79.38 5.00 254.67 2594.99
   05:07:27.732.17-Sep-2021 5093.53 3741.66 79.38 5.00 254.87 2594.99
   05:07:27.932.17-Sep-2021 5093.53 3741.60 79.38 5.00 255.07 2594.99
   05:07:28.132.17-Sep-2021 5093.53 3741.63 79.38 5.00 255.27 2594.99
   05:07:28.332.17-Sep-2021 5093.53 3741.63 79.38 5.00 255.48 2594.99
   05:07:28.533.17-Sep-2021 5093.53 3741.61 79.38 5.00 255.68 2594.99
   05:07:28.733.17-Sep-2021 5093.53 3741.63 79.38 5.00 255.88 2594.99
   05:07:28.933.17-Sep-2021 5093.53 3741.67 79.38 5.00 256.08 2594.99
   05:07:29.133.17-Sep-2021 5093.53 3741.67 79.38 5.00 256.28 2594.99
   05:07:29.333.17-Sep-2021 5093.53 3741.67 79.38 5.00 256.48 2594.99
   05:07:29.534.17-Sep-2021 5093.53 3741.75 79.38 5.00 256.68 2594.99
   05:07:29.734.17-Sep-2021 5093.53 3741.77 79.38 5.00 256.88 2594.99
   05:07:29.934.17-Sep-2021 5093.53 3741.78 79.38 5.00 257.08 2594.99
   05:07:30.134.17-Sep-2021 5093.53 3741.79 79.38 5.00 257.28 2594.99
   05:07:30.334.17-Sep-2021 5093.53 3741.79 79.38 5.00 257.48 2594.99
   05:07:30.535.17-Sep-2021 5093.53 3741.85 79.38 5.00 257.68 2594.99
   05:07:30.735.17-Sep-2021 5093.53 3741.90 79.38 5.00 257.88 2594.99
   05:07:30.935.17-Sep-2021 5093.53 3741.91 79.38 5.00 258.08 2594.99
   05:07:31.135.17-Sep-2021 5093.53 3741.71 79.38 5.00 258.28 2594.99
   05:07:31.336.17-Sep-2021 5093.53 3741.71 79.38 5.00 258.48 2594.99
   05:07:31.536.17-Sep-2021 5093.53 3741.47 79.39 5.00 258.68 2594.99
   05:07:31.736.17-Sep-2021 5093.53 3741.49 79.39 5.00 258.88 2594.99
   05:07:31.936.17-Sep-2021 5093.53 3741.50 79.39 5.00 259.08 2594.99
   05:07:32.136.17-Sep-2021 5093.53 3741.52 79.39 5.00 259.28 2594.99
   05:07:32.337.17-Sep-2021 5093.53 3741.52 79.39 5.00 259.48 2594.99
   05:07:32.537.17-Sep-2021 5093.53 3741.59 79.39 5.00 259.68 2594.99
   05:07:32.737.17-Sep-2021 5093.53 3741.51 79.39 5.00 259.88 2594.99
   05:07:32.937.17-Sep-2021 5093.53 3741.52 79.39 5.00 260.08 2594.99
   05:07:33.138.17-Sep-2021 5093.53 3741.52 79.39 5.00 260.28 2594.99
   05:07:33.338.17-Sep-2021 5093.53 3741.52 79.39 5.00 260.48 2594.99
   05:07:33.538.17-Sep-2021 5093.53 3741.57 79.39 5.00 260.68 2594.99
   05:07:33.738.17-Sep-2021 5093.53 3741.62 79.39 5.00 260.88 2594.99
   05:07:33.938.17-Sep-2021 5093.53 3741.66 79.39 5.00 261.08 2594.99
   05:07:34.139.17-Sep-2021 5093.53 3741.65 79.39 5.00 261.28 2594.99
   05:07:34.339.17-Sep-2021 5093.53 3741.65 79.39 5.00 261.48 2594.99
   05:07:34.539.17-Sep-2021 5093.53 3741.65 79.39 5.00 261.68 2594.99
   05:07:34.739.17-Sep-2021 5093.53 3741.61 79.39 5.00 261.88 2594.99
   05:07:34.939.17-Sep-2021 5093.53 3741.47 79.39 5.00 262.08 2594.99
   05:07:35.140.17-Sep-2021 5093.53 3741.59 79.39 5.00 262.28 2594.99
   05:07:35.340.17-Sep-2021 5093.53 3741.59 79.39 5.00 262.48 2594.99
   05:07:35.540.17-Sep-2021 5093.53 3741.59 79.39 5.00 262.68 2594.99
   05:07:35.740.17-Sep-2021 5093.53 3741.65 79.39 5.00 262.88 2594.99
   05:07:35.941.17-Sep-2021 5093.53 3741.64 79.39 5.00 263.08 2594.99
   05:07:36.141.17-Sep-2021 5093.53 3741.64 79.39 5.00 263.28 2594.99
   05:07:36.341.17-Sep-2021 5093.53 3741.64 79.39 5.00 263.48 2594.99
   05:07:36.541.17-Sep-2021 5093.53 3741.60 79.39 5.00 263.68 2594.99
   05:07:36.741.17-Sep-2021 5093.53 3741.63 79.39 5.00 263.88 2594.99
   05:07:36.942.17-Sep-2021 5093.53 3741.65 79.39 5.00 264.08 2594.99
   05:07:37.142.17-Sep-2021 5093.53 3741.70 79.39 5.00 264.28 2594.99
   05:07:37.342.17-Sep-2021 5093.53 3741.70 79.39 5.00 264.48 2594.99
   05:07:37.542.17-Sep-2021 5093.53 3741.76 79.39 5.00 264.69 2594.99
   05:07:37.742.17-Sep-2021 5093.53 3741.79 79.39 5.00 264.89 2594.99
   05:07:37.943.17-Sep-2021 5093.53 3741.85 79.39 5.00 265.09 2594.99
   05:07:38.143.17-Sep-2021 5093.53 3741.60 79.39 5.00 265.29 2594.99
   05:07:38.343.17-Sep-2021 5093.53 3741.60 79.39 5.00 265.49 2594.99
   05:07:38.543.17-Sep-2021 5093.53 3741.69 79.39 5.00 265.69 2594.99
   05:07:38.744.17-Sep-2021 5093.53 3741.67 79.39 5.00 265.89 2594.99
   05:07:38.944.17-Sep-2021 5093.53 3741.69 79.39 5.00 266.09 2594.99
   05:07:39.144.17-Sep-2021 5093.53 3741.68 79.39 5.00 266.29 2594.99
   05:07:39.344.17-Sep-2021 5093.53 3741.68 79.39 5.00 266.49 2594.99
   05:07:39.544.17-Sep-2021 5093.53 3741.73 79.39 5.00 266.69 2594.99
   05:07:39.745.17-Sep-2021 5093.53 3741.74 79.39 5.00 266.89 2594.99
   05:07:39.945.17-Sep-2021 5093.53 3741.74 79.39 5.00 267.09 2594.99
   05:07:40.145.17-Sep-2021 5093.53 3741.74 79.39 5.00 267.29 2594.99
   05:07:40.345.17-Sep-2021 5093.53 3741.74 79.39 5.00 267.49 2594.99
   05:07:40.545.17-Sep-2021 5093.53 3741.78 79.39 5.00 267.69 2594.99
   05:07:40.746.17-Sep-2021 5093.53 3741.82 79.39 5.00 267.89 2594.99
   05:07:40.946.17-Sep-2021 5093.53 3741.84 79.39 5.00 268.09 2594.99
   05:07:41.146.17-Sep-2021 5093.53 3741.91 79.39 5.00 268.29 2594.99
   05:07:41.346.17-Sep-2021 5093.53 3741.91 79.39 5.00 268.49 2594.99
   05:07:41.547.17-Sep-2021 5093.53 3741.80 79.39 5.00 268.69 2594.99
   05:07:41.747.17-Sep-2021 5093.53 3741.82 79.39 5.00 268.89 2594.99
   05:07:41.947.17-Sep-2021 5093.53 3741.76 79.39 5.00 269.09 2594.99
   05:07:42.147.17-Sep-2021 5093.53 3741.81 79.39 5.00 269.29 2594.99
   05:07:42.347.17-Sep-2021 5093.53 3741.81 79.39 5.00 269.49 2594.99
   05:07:42.548.17-Sep-2021 5093.53 3741.78 79.39 5.00 269.69 2594.99
   05:07:42.748.17-Sep-2021 5093.53 3741.84 79.39 5.00 269.89 2594.99
   05:07:42.948.17-Sep-2021 5093.53 3741.86 79.39 5.00 270.09 2594.99
   05:07:43.148.17-Sep-2021 5093.53 3741.81 79.39 5.00 270.29 2594.99
   05:07:43.349.17-Sep-2021 5093.53 3741.81 79.39 5.00 270.49 2594.99
   05:07:43.549.17-Sep-2021 5093.53 3741.83 79.39 5.00 270.69 2594.99
   05:07:43.749.17-Sep-2021 5093.53 3741.94 79.39 5.00 270.89 2594.99
   05:07:43.949.17-Sep-2021 5093.53 3741.90 79.39 5.00 271.09 2594.99
   05:07:44.149.17-Sep-2021 5093.53 3741.99 79.39 5.00 271.29 2594.99
   05:07:44.350.17-Sep-2021 5093.53 3741.99 79.39 5.00 271.49 2594.99
   05:07:44.550.17-Sep-2021 5093.53 3742.06 79.39 5.00 271.69 2594.99
   05:07:44.750.17-Sep-2021 5093.53 3742.01 79.39 5.00 271.89 2594.99
   05:07:44.950.17-Sep-2021 5093.53 3742.06 79.39 5.00 272.09 2594.99
   05:07:45.150.17-Sep-2021 5093.53 3742.14 79.39 5.00 272.29 2594.99
   05:07:45.351.17-Sep-2021 5093.53 3742.14 79.39 5.00 272.49 2594.99
   05:07:45.551.17-Sep-2021 5093.53 3742.17 79.39 5.00 272.69 2594.99
   05:07:45.751.17-Sep-2021 5093.53 3742.13 79.39 5.00 272.89 2594.99
   05:07:45.951.17-Sep-2021 5093.53 3742.12 79.39 5.00 273.09 2594.99
   05:07:46.152.17-Sep-2021 5093.53 3742.15 79.39 5.00 273.29 2594.99
   05:07:46.352.17-Sep-2021 5093.53 3742.15 79.39 5.00 273.49 2594.99
   05:07:46.552.17-Sep-2021 5093.53 3742.22 79.39 5.00 273.69 2594.99
   05:07:46.752.17-Sep-2021 5093.53 3742.23 79.39 5.00 273.89 2594.99
   05:07:46.952.17-Sep-2021 5093.53 3742.23 79.39 5.00 274.10 2594.99
   05:07:47.153.17-Sep-2021 5093.53 3742.24 79.39 5.00 274.30 2594.99
   05:07:47.353.17-Sep-2021 5093.53 3742.24 79.39 5.00 274.50 2594.99
   05:07:47.553.17-Sep-2021 5093.53 3742.24 79.39 5.00 274.70 2594.99
   05:07:47.753.17-Sep-2021 5093.53 3742.24 79.39 5.00 274.90 2594.99
   05:07:47.953.17-Sep-2021 5093.53 3742.24 79.39 5.00 275.10 2594.99
   05:07:48.154.17-Sep-2021 5093.53 3742.18 79.39 5.00 275.30 2594.99
   05:07:48.354.17-Sep-2021 5093.53 3742.18 79.39 5.00 275.50 2594.99
   05:07:48.554.17-Sep-2021 5093.53 3741.94 79.39 5.00 275.70 2594.99
   05:07:48.754.17-Sep-2021 5093.53 3741.90 79.39 5.00 275.90 2594.99
   05:07:48.955.17-Sep-2021 5093.53 3741.84 79.39 5.00 276.10 2594.99
