~Version Information
 VERS.                  2.0:   CWLS log ASCII Standard -VERSION 2.0
 WRAP.                   NO:   One line per depth step
~Well Information Block
#MNEM.UNIT     VALUE/NAME     DESCRIPTION
#---------     -----------    ---------------------------
 STRT.S             02:32:25 17-Sep-21: START TIME 02:32:25 17-Sep-21
 STOP.S             02:40:50 17-Sep-21: STOP TIME  02:40:50 17-Sep-21
 STEP.S                   0.00: STEP TIME
 NULL.                 -999.25: NULL VALUE
 DFWT.                        :  DIST FWL TEXT
 DFST.                        :  DIST FSL TEXT
 DMF .             Drill Floor:  DRILL MEAS FROM
 STIM.      10.59.12 05-Jul-21:  START TIME
 DATE.      10.59.12 10-Sep-21:  END TIME
 SPUD.               05-Jul-21:  SPUD DATE
 NREF.                    Grid:  NORTH REFERENCE
 HPTY.       Minimum Curvature:  HOLE POS TYPE
 DMOD.             Drill Model:  DRILL MOD DESC
 SVYD.                  Survey:  SURVEY DESC
 ILTD.               Lithology:  INTERP LTH DESC
 FTOP.          Formation Tops:  FORM TOPS DESC
 RIG .                     DWG:  RIG NAME
 PDAT.          Mean Sea Level:  PERMANENT DATUM
 FLD .                     ACG:  FIELD NAME
 SON .        AZ-XX-0907115008:  JOB NUMBER
 CTRY.              Azerbaijan:  COUNTRY NAME
 WELL.                    E35A:  WELL NAME
 SRVC.          TURAN DRILLING:  CONTRACTOR
 COMP.     BP Exploration (Caspian Sea LTD):  COMPANY
 UWI .                     N/A:  UNIQUE WELL IDENTIFIER
 API .                     N/A:  API NUMBER
 MDS .        Operator Entered:  MAG DATA SOURCE
 BASE.              Azerbaijan:  LOGGING EQUIPMENT BASE LOCATION
 REGN.                   EESSA:  REGION
 PROV.                    Baku:  PROVINCE
 STAT.                    Baku:  STATE NAME
 MWDS.                    Baku:  MWD SHOP
 JOBN.        AZ-XX-0907115008:  JOB TICKET NUMB
 DOE .                     N/A:  DOE NUMBER
 DCON.         Sperry Drilling:  DIRECTNL CONTR
 UNIT.                     N/A:  LOGGING EQUIPMENT ID
 WTYP.                Deviated:  WELL TYPE
 CNTY.                        :  COUNTY
 LOC .                        :  LOCATION
 LMF .             Drill Floor:  LOG MEASURED FROM
 TVDS.m                  43.16:  TVDSS CORRECTN
 LATI.deg                40.17:  LATITUDE
 LONG.deg                51.17:  LONGITUDE
 WHNS.m                  10.51:  WELL HEAD N/S
 WHEW.m                 -14.82:  WELL HEAD E/W
 UTMX.m              514336.92:  UTM X
 UTMY.m             4448618.56:  UTM Y
 DFWL.m                   0.00:  DISTANCE FWL
 DFSL.m                   0.00:  DISTANCE FSL
 SDEP.m                 849.00:  START DEPTH
 TDD .m                2862.00:  TOTAL DEPTH (DRILLER)
 VSDR.deg               292.10:  VERT SEC DIRECT
 GVFD.g                   1.00:  GRAVITY FIELD
 MFLD.nT              50382.00:  MAGNETIC FIELD
 MDIP.deg                59.68:  MAGNETIC DIP
 MDEC.deg                 6.66:  MAGNETIC DECL
 GRDC.deg                 0.09:  GRID CORRECTION
 AZTC.deg                 6.57:  AZM TOTAL CORR
 EPD .m                   0.00:  ELEVATION
 EGL .m                   0.00:  GROUND ELEVATION
 WDMS.m                 176.20:  WD ELEV
 APD .m                  43.16:  DEPTH ABOVE PD
 DEP .m                 363.42:  DEPTH
 AGAP.m                  43.16:  AIR GAP
 VSEW.m                 -14.82:  VERT SEC E/W
 VSNS.m                  10.51:  VERT SEC N/S
 EKB .m                  43.16:  KB ELEVATION
 EDF .m                  43.16:  DF ELEVATION
 TDL .m                1390.00:  TOTAL DEPTH (LOGGER)
 VSC .                       0:  VS TO CLOSURE
 MAGU.                 1855871:  MAGUTM CHECKSUM
~Parameter Information Block
#MNEM.UNIT       Value        Description
#---------     -----------    ---------------------------
 AV  .mps                 2.28:  Ann Velocity 
 AVMX.mps                 2.67:  Max Ann Veloc 
 AZIF.deg               305.00:  Azm, Final 
 BHAT.        Rotary Steerable:  BHA Type 
 BROT.°/30m               0.45:  Build Rotating 
 BS  .in                 12.25:  Bit Size 
 BSZ .in                 12.25:  Bit Size 
 BTPL.psig              600.00:  Bit Press Loss 
 CABU.                     Yes:  Customer Abuse 
 COMM.                     Œ$a:  Run Comments 1 
 TCS .hr                150.00:  Time Ciculation Ended 
 CV  .mps                 1.24:  Crit Velocity 
 CVMX.mps                 1.66:  Max Crit Veloc 
 DD1 .         Intigam Rahimov:  Direct Drillr 1 
 DD2 .            Azer Ravavov:  Direct Drillr 2 
 DD3 .              Samir Abas:  Direct Drillr 3 
 DDSV.               Geo-Pilot:  DD Service 
 DEFF.%                 100.00:  % Det Eff 
 DLRX.°/30m               1.57:  Dogleg Rot Max 
 DLSO.°/30m               0.00:  Dogleg Oriented 
 DLSX.°/30m               0.00:  Dogleg Str Max 
 DRET.      20.28.06 17-Sep-21:  Drill End Time 
 DRST.      20.27.35 10-Sep-21:  Drill Start Tim 
 DTIM.hr                 54.00:  Time Drilling 
 EDEP.m                5260.00:  End Depth 
 ENG1.      Bakhtiyar Jabbarli:  Engineer 1 
 ENG2.      Natik Hasanaghayev:  Engineer 2 
 ENG3.           Royal Nasirov:  Engineer 3 
 ETIM.      20.27.55 18-Sep-21:  End Time 
 FLOI.gpm              1100.00:  Flow In 
 FLON.gpm               800.00:  Flow In Min 
 FLOS.cptm                0.00:  Fluid Loss 
 FLOX.gpm              1200.00:  Flow In Max 
 DFT .        Mineral Oil Base:  Mud Type 
 HPRE.                      No:  High Pressure 
 HTEM.                      No:  High Temp 
 HYDO.m                   1.80:  Hydro Offset 
 IFIN.deg                72.31:  Inc, Final 
 IMAX.deg                72.36:  Inc Max 
 IMIN.deg                69.36:  Inc Min 
 IMND.m                4192.96:  Inc Min Depth 
 IMXD.m                5128.36:  Inc Max Depth 
 JARR.                      No:  Jarring 
 LETM.      20.29.00 17-Sep-21:  Log End Time 
 LOST.hr                     0:  Lost Rig Time 
 LSTM.      20.27.00 10-Sep-21:  Log Start Time 
 MDCL.ppm            227000.00:  Mud Chlorides 
 MDES.     Inversion Oil/Synthetic:  Mud Desc 
 DFD .sg                  1.45:  Mud Density 
 MDMN.sg                  1.45:  Dens Mud Min 
 MDMX.sg                  1.45:  Dens Mud Max 
 MOIL.                    70.5:  Run Mud Oil % 
 MOWR.                   71:29:  Run Mud OWR 
 MSND.                     0.3:  Run Mud Sand % 
 MSOL.                    19.8:  Run Mud Solids% 
 DFV .spqt               80.00:  Mud Viscosity 
 MWOD.in                  8.00:  MWD Tool OD 
 MWSI.                     Yes:  Serv Intrp, MWD 
 OTIM.hr                180.00:  Time Operating 
 PCON.           Look Like New:  Pad Condition 
 PMAX.psia             9910.94:  Press Op, Max 
 PV  .cP                 35.00:  Mud PV 
 RUN .                    1000:  Run Number 
 ROPA.m/hr               18.00:  ROP Avg 
 ROPN.m/hr                8.00:  ROP Min 
 ROPX.m/hr               23.00:  ROP Max 
 RPMA.rpm               150.00:  RPM Surface Avg 
 RPMN.rpm               120.00:  RPM Surface Min 
 RPMX.rpm               160.00:  RPM Surface Max 
 RRUN.                    L503:  Rig Run Number 
 RTIM.hr                  5.00:  Time Reaming 
 SAZI.deg               298.42:  Azm, Start 
 SDEP.m                3870.00:  Start Depth 
 SIDD.                      No:  Serv Intrp, DD 
 SINC.deg                69.57:  Inc, Start 
 SPPA.psig             5500.00:  SPP Avg 
 SPPN.psig             4400.00:  SPP Min 
 SPPX.psig             5800.00:  SPP Max 
 STIM.      15.29.39 09-Sep-21:  Start Time 
 SVCS.                 DD, MWD:  Services 
 SVER.                    9.20:  Sperry Version 
 TDAT.m                5260.00:  Tot Depth Attmp 
 TDDF.                      No:  Trip for DD 
 TDLG.m                1390.00:  Tot Depth Loggd 
 TFF .                      No:  Trip for Fail 
 TQAA.f-kp               22.00:  Torque Abs Avg 
 TQAN.f-kp               13.00:  Torque Abs Min 
 TQAX.f-kp               27.00:  Torque Abs Max 
 TRRT.°/30m               1.60:  Turn Rotating 
 MRT .                  EWR-M5:  Maximum Recorded Temperature 
 TTMX.degC               92.00:  Max Tool Temp 
 VS01.                12330975:  Virtual Str1 SN 
 VS02.                90658671:  Virtual Str2 SN 
 VS03.                90658508:  Virtual Str3 SN 
 VS04.                90660974:  Virtual Str4 SN 
 VS05.                90654675:  Virtual Str5 SN 
 WBMN.klb                15.00:  WOB Min 
 WITN.     Alexander Yadullayev:  Customer Rep 
 WITN.           Adil Mammadov:  Customer Rep 2 
 WOBA.klb                17.00:  WOB Avg 
 WOBX.klb                18.00:  WOB Max 
 YP  .lhf2               31.00:  Yield Point 
~Curve Information Block
#MNEM.UNIT                 API CODE     Curve Description
#---------               -----------    ---------------------------
 TIME.HHMMSS            00 000 000 000:  GT Time & Date
 GTDEPTH.m              00 000 000 000:  GT Depth
 GTPQH.psia             00 000 000 000:  GT HR Quartz Pressure
 GTTQ.degC              00 000 000 000:  GT Quartz Temperature
 GTTN.NONE              00 000 000 000:  GT Test Number
 GTET.sec               00 000 000 000:  GT Elapsed Test Time
 GTTVD.m                00 000 000 000:  GT True Vertical Depth
#Other Information
#
#WARRANTY: Halliburton will use its best efforts to furnish customers with 
#accurate information and interpretations that are part of, and incident to, the services 
#provided.  However, Halliburton cannot and does not warrant the accuracy 
#or correctness of such information and interpretations.  Under no circumstances should any 
#such information or interpretation be relied upon as the sole basis for any drilling, 
#completion, production, or financial decision or any procedure involving any risk to the 
#safety of any drilling venture, drilling rig or its crew or any other third party.  The 
#Customer has full responsibility for all drilling, completion and production operation.  
#Halliburton makes no representations or warranties, either expressed or 
#implied, including, but not limited to, the implied warranties of merchantability or fitness 
#for a particular purpose, with respect to the services rendered.  In no event will 
#Halliburton be liable for failure to obtain any particular results or for 
#any damages, including, but not limited to, indirect, special or consequential damages, 
#resulting from the use of any information or interpretation provided by Halliburton.
#
~A           TIME           GTDEPTH  GTPQH  GTTQ  GTTN  GTET   GTTVD  
# ...
   02:39:19.000.17-Sep-2021 5127.50  603.81 80.35 2.00 414.00 2605.35
   02:39:19.200.17-Sep-2021 5127.50  603.81 80.35 2.00 414.20 2605.35
   02:39:19.400.17-Sep-2021 5127.50  604.52 80.35 2.00 414.40 2605.35
   02:39:19.600.17-Sep-2021 5127.50  604.89 80.35 2.00 414.60 2605.35
   02:39:19.800.17-Sep-2021 5127.50  605.26 80.35 2.00 414.80 2605.35
   02:39:20.000.17-Sep-2021 5127.50  605.62 80.35 2.00 415.00 2605.35
   02:39:20.200.17-Sep-2021 5127.50  605.62 80.35 2.00 415.20 2605.35
   02:39:20.400.17-Sep-2021 5127.50  606.68 80.35 2.00 415.40 2605.35
   02:39:20.600.17-Sep-2021 5127.50  607.17 80.35 2.00 415.60 2605.35
   02:39:20.800.17-Sep-2021 5127.50  607.68 80.35 2.00 415.80 2605.35
   02:39:21.000.17-Sep-2021 5127.50  608.24 80.35 2.00 416.00 2605.35
   02:39:21.200.17-Sep-2021 5127.50  608.24 80.35 2.00 416.20 2605.35
   02:39:21.400.17-Sep-2021 5127.50  609.29 80.35 2.00 416.40 2605.35
   02:39:21.600.17-Sep-2021 5127.50  609.77 80.35 2.00 416.60 2605.35
   02:39:21.800.17-Sep-2021 5127.50  610.24 80.35 2.00 416.80 2605.35
   02:39:22.000.17-Sep-2021 5127.50  610.66 80.35 2.00 417.00 2605.35
   02:39:22.200.17-Sep-2021 5127.50  610.66 80.35 2.00 417.20 2605.35
   02:39:22.400.17-Sep-2021 5127.50  611.84 80.35 2.00 417.40 2605.35
   02:39:22.600.17-Sep-2021 5127.50  612.36 80.35 2.00 417.60 2605.35
   02:39:22.800.17-Sep-2021 5127.50  612.84 80.35 2.00 417.80 2605.35
   02:39:23.000.17-Sep-2021 5127.50  613.31 80.35 2.00 418.00 2605.35
   02:39:23.200.17-Sep-2021 5127.50  613.31 80.35 2.00 418.20 2605.35
   02:39:23.400.17-Sep-2021 5127.50  614.20 80.35 2.00 418.40 2605.35
   02:39:23.600.17-Sep-2021 5127.50  614.75 80.35 2.00 418.60 2605.35
   02:39:23.800.17-Sep-2021 5127.50  615.25 80.35 2.00 418.80 2605.35
   02:39:24.000.17-Sep-2021 5127.50  615.75 80.35 2.00 419.00 2605.35
   02:39:24.200.17-Sep-2021 5127.50  615.75 80.35 2.00 419.20 2605.35
   02:39:24.400.17-Sep-2021 5127.50  616.65 80.35 2.00 419.40 2605.35
   02:39:24.600.17-Sep-2021 5127.50  617.07 80.35 2.00 419.60 2605.35
   02:39:24.800.17-Sep-2021 5127.50  617.48 80.35 2.00 419.80 2605.35
   02:39:25.000.17-Sep-2021 5127.50  617.89 80.35 2.00 420.00 2605.35
   02:39:25.200.17-Sep-2021 5127.50  617.89 80.35 2.00 420.20 2605.35
   02:39:25.400.17-Sep-2021 5127.50  618.70 80.35 2.00 420.40 2605.35
   02:39:25.600.17-Sep-2021 5127.50  619.07 80.35 2.00 420.60 2605.35
   02:39:25.800.17-Sep-2021 5127.50  619.43 80.35 2.00 420.80 2605.35
   02:39:26.000.17-Sep-2021 5127.50  619.78 80.35 2.00 421.00 2605.35
   02:39:26.200.17-Sep-2021 5127.50  619.78 80.35 2.00 421.20 2605.35
   02:39:26.400.17-Sep-2021 5127.50  620.49 80.35 2.00 421.40 2605.35
   02:39:26.600.17-Sep-2021 5127.50  621.03 80.35 2.00 421.60 2605.35
   02:39:26.800.17-Sep-2021 5127.50  621.61 80.35 2.00 421.80 2605.35
   02:39:27.000.17-Sep-2021 5127.50  622.17 80.35 2.00 422.00 2605.35
   02:39:27.200.17-Sep-2021 5127.50  622.17 80.35 2.00 422.20 2605.35
   02:39:27.400.17-Sep-2021 5127.50  623.17 80.35 2.00 422.40 2605.35
   02:39:27.600.17-Sep-2021 5127.50  623.61 80.35 2.00 422.60 2605.35
   02:39:27.800.17-Sep-2021 5127.50  624.05 80.35 2.00 422.80 2605.35
   02:39:28.000.17-Sep-2021 5127.50  624.46 80.35 2.00 423.00 2605.35
   02:39:28.200.17-Sep-2021 5127.50  624.46 80.35 2.00 423.20 2605.35
   02:39:28.400.17-Sep-2021 5127.50  625.25 80.35 2.00 423.40 2605.35
   02:39:28.600.17-Sep-2021 5127.50  625.64 80.35 2.00 423.60 2605.35
   02:39:28.800.17-Sep-2021 5127.50  626.05 80.35 2.00 423.80 2605.35
   02:39:29.000.17-Sep-2021 5127.50  626.44 80.35 2.00 424.00 2605.35
   02:39:29.200.17-Sep-2021 5127.50  626.44 80.35 2.00 424.20 2605.35
   02:39:29.400.17-Sep-2021 5127.50  627.25 80.35 2.00 424.40 2605.35
   02:39:29.600.17-Sep-2021 5127.50  627.73 80.35 2.00 424.60 2605.35
   02:39:29.800.17-Sep-2021 5127.50  628.34 80.35 2.00 424.80 2605.35
   02:39:30.000.17-Sep-2021 5127.50  628.94 80.35 2.00 425.00 2605.35
   02:39:30.200.17-Sep-2021 5127.50  628.94 80.35 2.00 425.20 2605.35
   02:39:30.400.17-Sep-2021 5127.50  630.13 80.35 2.00 425.40 2605.35
   02:39:30.600.17-Sep-2021 5127.50  630.80 80.35 2.00 425.60 2605.35
   02:39:30.800.17-Sep-2021 5127.50  631.46 80.35 2.00 425.80 2605.35
   02:39:31.000.17-Sep-2021 5127.50  632.04 80.35 2.00 426.00 2605.35
   02:39:31.200.17-Sep-2021 5127.50  632.04 80.35 2.00 426.20 2605.35
   02:39:31.400.17-Sep-2021 5127.50  633.07 80.35 2.00 426.40 2605.35
   02:39:31.600.17-Sep-2021 5127.50  633.55 80.35 2.00 426.60 2605.35
   02:39:31.800.17-Sep-2021 5127.50  634.05 80.35 2.00 426.80 2605.35
   02:39:32.000.17-Sep-2021 5127.50  634.64 80.35 2.00 427.00 2605.35
   02:39:32.200.17-Sep-2021 5127.50  634.64 80.35 2.00 427.20 2605.35
   02:39:32.400.17-Sep-2021 5127.50  635.85 80.35 2.00 427.40 2605.35
   02:39:32.600.17-Sep-2021 5127.50  636.40 80.35 2.00 427.60 2605.35
   02:39:32.800.17-Sep-2021 5127.50  636.90 80.35 2.00 427.80 2605.35
   02:39:33.000.17-Sep-2021 5127.50  637.38 80.35 2.00 428.00 2605.35
   02:39:33.200.17-Sep-2021 5127.50  637.38 80.35 2.00 428.20 2605.35
   02:39:33.400.17-Sep-2021 5127.50  638.45 80.35 2.00 428.40 2605.35
   02:39:33.600.17-Sep-2021 5127.50  639.09 80.36 2.00 428.60 2605.35
   02:39:33.800.17-Sep-2021 5127.50  639.68 80.36 2.00 428.80 2605.35
   02:39:34.000.17-Sep-2021 5127.50  640.24 80.36 2.00 429.00 2605.35
   02:39:34.200.17-Sep-2021 5127.50  640.24 80.36 2.00 429.20 2605.35
   02:39:34.400.17-Sep-2021 5127.50  641.21 80.36 2.00 429.40 2605.35
   02:39:34.600.17-Sep-2021 5127.50  641.63 80.36 2.00 429.60 2605.35
   02:39:34.800.17-Sep-2021 5127.50  642.03 80.36 2.00 429.80 2605.35
   02:39:35.000.17-Sep-2021 5127.50  642.42 80.36 2.00 430.00 2605.35
   02:39:35.200.17-Sep-2021 5127.50  642.42 80.36 2.00 430.20 2605.35
   02:39:35.400.17-Sep-2021 5127.50  643.21 80.36 2.00 430.40 2605.35
   02:39:35.600.17-Sep-2021 5127.50  643.60 80.36 2.00 430.60 2605.35
   02:39:35.800.17-Sep-2021 5127.50  643.98 80.36 2.00 430.80 2605.35
   02:39:36.000.17-Sep-2021 5127.50  644.35 80.36 2.00 431.00 2605.35
   02:39:36.200.17-Sep-2021 5127.50  644.35 80.36 2.00 431.20 2605.35
   02:39:36.400.17-Sep-2021 5127.50  645.10 80.36 2.00 431.40 2605.35
   02:39:36.600.17-Sep-2021 5127.50  645.55 80.36 2.00 431.60 2605.35
   02:39:36.800.17-Sep-2021 5127.50  646.13 80.36 2.00 431.80 2605.35
   02:39:37.000.17-Sep-2021 5127.50  646.66 80.36 2.00 432.00 2605.35
   02:39:37.200.17-Sep-2021 5127.50  646.66 80.36 2.00 432.20 2605.35
   02:39:37.400.17-Sep-2021 5127.50  647.69 80.36 2.00 432.40 2605.35
   02:39:37.600.17-Sep-2021 5127.50  648.17 80.36 2.00 432.60 2605.35
   02:39:37.800.17-Sep-2021 5127.50  648.60 80.36 2.00 432.80 2605.35
   02:39:38.000.17-Sep-2021 5127.50  649.02 80.36 2.00 433.00 2605.35
   02:39:38.200.17-Sep-2021 5127.50  649.02 80.36 2.00 433.20 2605.35
   02:39:38.400.17-Sep-2021 5127.50  649.84 80.36 2.00 433.40 2605.35
   02:39:38.600.17-Sep-2021 5127.50  650.25 80.36 2.00 433.60 2605.35
   02:39:38.800.17-Sep-2021 5127.50  650.67 80.36 2.00 433.80 2605.35
   02:39:39.000.17-Sep-2021 5127.50  651.11 80.36 2.00 434.00 2605.35
   02:39:39.200.17-Sep-2021 5127.50  651.11 80.36 2.00 434.20 2605.35
   02:39:39.400.17-Sep-2021 5127.50  651.92 80.36 2.00 434.40 2605.35
   02:39:39.600.17-Sep-2021 5127.50  652.48 80.36 2.00 434.60 2605.35
   02:39:39.800.17-Sep-2021 5127.50  653.14 80.36 2.00 434.80 2605.35
   02:39:40.000.17-Sep-2021 5127.50  653.72 80.36 2.00 435.00 2605.35
   02:39:40.200.17-Sep-2021 5127.50  653.72 80.36 2.00 435.20 2605.35
   02:39:40.400.17-Sep-2021 5127.50  654.81 80.36 2.00 435.40 2605.35
   02:39:40.600.17-Sep-2021 5127.50  655.39 80.36 2.00 435.60 2605.35
   02:39:40.800.17-Sep-2021 5127.50  656.01 80.36 2.00 435.80 2605.35
   02:39:41.000.17-Sep-2021 5127.50  656.56 80.36 2.00 436.00 2605.35
   02:39:41.200.17-Sep-2021 5127.50  656.56 80.36 2.00 436.20 2605.35
   02:39:41.400.17-Sep-2021 5127.50  657.59 80.36 2.00 436.40 2605.35
   02:39:41.600.17-Sep-2021 5127.50  658.07 80.36 2.00 436.60 2605.35
   02:39:41.800.17-Sep-2021 5127.50  658.58 80.36 2.00 436.80 2605.35
