~Version Information
 VERS.                  2.0:   CWLS log ASCII Standard -VERSION 2.0
 WRAP.                   NO:   One line per depth step
~Well Information Block
#MNEM.UNIT     VALUE/NAME     DESCRIPTION
#---------     -----------    ---------------------------
 STRT.S             06:26:37 17-Sep-21: START TIME 06:26:37 17-Sep-21
 STOP.S             06:35:42 17-Sep-21: STOP TIME  06:35:42 17-Sep-21
 STEP.S                   0.00: STEP TIME
 NULL.                 -999.25: NULL VALUE
 DFWT.                        :  DIST FWL TEXT
 DFST.                        :  DIST FSL TEXT
 DMF .             Drill Floor:  DRILL MEAS FROM
 STIM.      10.59.12 05-Jul-21:  START TIME
 DATE.      10.59.12 10-Sep-21:  END TIME
 SPUD.               05-Jul-21:  SPUD DATE
 NREF.                    Grid:  NORTH REFERENCE
 HPTY.       Minimum Curvature:  HOLE POS TYPE
 DMOD.             Drill Model:  DRILL MOD DESC
 SVYD.                  Survey:  SURVEY DESC
 ILTD.               Lithology:  INTERP LTH DESC
 FTOP.          Formation Tops:  FORM TOPS DESC
 RIG .                     DWG:  RIG NAME
 PDAT.          Mean Sea Level:  PERMANENT DATUM
 FLD .                     ACG:  FIELD NAME
 SON .        AZ-XX-0907115008:  JOB NUMBER
 CTRY.              Azerbaijan:  COUNTRY NAME
 WELL.                    E35A:  WELL NAME
 SRVC.          TURAN DRILLING:  CONTRACTOR
 COMP.     BP Exploration (Caspian Sea LTD):  COMPANY
 UWI .                     N/A:  UNIQUE WELL IDENTIFIER
 API .                     N/A:  API NUMBER
 MDS .        Operator Entered:  MAG DATA SOURCE
 BASE.              Azerbaijan:  LOGGING EQUIPMENT BASE LOCATION
 REGN.                   EESSA:  REGION
 PROV.                    Baku:  PROVINCE
 STAT.                    Baku:  STATE NAME
 MWDS.                    Baku:  MWD SHOP
 JOBN.        AZ-XX-0907115008:  JOB TICKET NUMB
 DOE .                     N/A:  DOE NUMBER
 DCON.         Sperry Drilling:  DIRECTNL CONTR
 UNIT.                     N/A:  LOGGING EQUIPMENT ID
 WTYP.                Deviated:  WELL TYPE
 CNTY.                        :  COUNTY
 LOC .                        :  LOCATION
 LMF .             Drill Floor:  LOG MEASURED FROM
 TVDS.m                  43.16:  TVDSS CORRECTN
 LATI.deg                40.17:  LATITUDE
 LONG.deg                51.17:  LONGITUDE
 WHNS.m                  10.51:  WELL HEAD N/S
 WHEW.m                 -14.82:  WELL HEAD E/W
 UTMX.m              514336.92:  UTM X
 UTMY.m             4448618.56:  UTM Y
 DFWL.m                   0.00:  DISTANCE FWL
 DFSL.m                   0.00:  DISTANCE FSL
 SDEP.m                 849.00:  START DEPTH
 TDD .m                2862.00:  TOTAL DEPTH (DRILLER)
 VSDR.deg               292.10:  VERT SEC DIRECT
 GVFD.g                   1.00:  GRAVITY FIELD
 MFLD.nT              50382.00:  MAGNETIC FIELD
 MDIP.deg                59.68:  MAGNETIC DIP
 MDEC.deg                 6.66:  MAGNETIC DECL
 GRDC.deg                 0.09:  GRID CORRECTION
 AZTC.deg                 6.57:  AZM TOTAL CORR
 EPD .m                   0.00:  ELEVATION
 EGL .m                   0.00:  GROUND ELEVATION
 WDMS.m                 176.20:  WD ELEV
 APD .m                  43.16:  DEPTH ABOVE PD
 DEP .m                 363.42:  DEPTH
 AGAP.m                  43.16:  AIR GAP
 VSEW.m                 -14.82:  VERT SEC E/W
 VSNS.m                  10.51:  VERT SEC N/S
 EKB .m                  43.16:  KB ELEVATION
 EDF .m                  43.16:  DF ELEVATION
 TDL .m                1390.00:  TOTAL DEPTH (LOGGER)
 VSC .                       0:  VS TO CLOSURE
 MAGU.                 1855871:  MAGUTM CHECKSUM
~Parameter Information Block
#MNEM.UNIT       Value        Description
#---------     -----------    ---------------------------
 AV  .mps                 2.28:  Ann Velocity 
 AVMX.mps                 2.67:  Max Ann Veloc 
 AZIF.deg               305.00:  Azm, Final 
 BHAT.        Rotary Steerable:  BHA Type 
 BROT.°/30m               0.45:  Build Rotating 
 BS  .in                 12.25:  Bit Size 
 BSZ .in                 12.25:  Bit Size 
 BTPL.psig              600.00:  Bit Press Loss 
 CABU.                     Yes:  Customer Abuse 
 COMM.                     D5N:  Run Comments 1 
 TCS .hr                150.00:  Time Ciculation Ended 
 CV  .mps                 1.24:  Crit Velocity 
 CVMX.mps                 1.66:  Max Crit Veloc 
 DD1 .         Intigam Rahimov:  Direct Drillr 1 
 DD2 .            Azer Ravavov:  Direct Drillr 2 
 DD3 .              Samir Abas:  Direct Drillr 3 
 DDSV.               Geo-Pilot:  DD Service 
 DEFF.%                 100.00:  % Det Eff 
 DLRX.°/30m               1.57:  Dogleg Rot Max 
 DLSO.°/30m               0.00:  Dogleg Oriented 
 DLSX.°/30m               0.00:  Dogleg Str Max 
 DRET.      20.28.06 17-Sep-21:  Drill End Time 
 DRST.      20.27.35 10-Sep-21:  Drill Start Tim 
 DTIM.hr                 54.00:  Time Drilling 
 EDEP.m                5260.00:  End Depth 
 ENG1.      Bakhtiyar Jabbarli:  Engineer 1 
 ENG2.      Natik Hasanaghayev:  Engineer 2 
 ENG3.           Royal Nasirov:  Engineer 3 
 ETIM.      20.27.55 18-Sep-21:  End Time 
 FLOI.gpm              1100.00:  Flow In 
 FLON.gpm               800.00:  Flow In Min 
 FLOS.cptm                0.00:  Fluid Loss 
 FLOX.gpm              1200.00:  Flow In Max 
 DFT .        Mineral Oil Base:  Mud Type 
 HPRE.                      No:  High Pressure 
 HTEM.                      No:  High Temp 
 HYDO.m                   1.80:  Hydro Offset 
 IFIN.deg                72.31:  Inc, Final 
 IMAX.deg                72.36:  Inc Max 
 IMIN.deg                69.36:  Inc Min 
 IMND.m                4192.96:  Inc Min Depth 
 IMXD.m                5128.36:  Inc Max Depth 
 JARR.                      No:  Jarring 
 LETM.      20.29.00 17-Sep-21:  Log End Time 
 LOST.hr                     0:  Lost Rig Time 
 LSTM.      20.27.00 10-Sep-21:  Log Start Time 
 MDCL.ppm            227000.00:  Mud Chlorides 
 MDES.     Inversion Oil/Synthetic:  Mud Desc 
 DFD .sg                  1.45:  Mud Density 
 MDMN.sg                  1.45:  Dens Mud Min 
 MDMX.sg                  1.45:  Dens Mud Max 
 MOIL.                    70.5:  Run Mud Oil % 
 MOWR.                   71:29:  Run Mud OWR 
 MSND.                     0.3:  Run Mud Sand % 
 MSOL.                    19.8:  Run Mud Solids% 
 DFV .spqt               80.00:  Mud Viscosity 
 MWOD.in                  8.00:  MWD Tool OD 
 MWSI.                     Yes:  Serv Intrp, MWD 
 OTIM.hr                180.00:  Time Operating 
 PCON.           Look Like New:  Pad Condition 
 PMAX.psia             9910.94:  Press Op, Max 
 PV  .cP                 35.00:  Mud PV 
 RUN .                    1000:  Run Number 
 ROPA.m/hr               18.00:  ROP Avg 
 ROPN.m/hr                8.00:  ROP Min 
 ROPX.m/hr               23.00:  ROP Max 
 RPMA.rpm               150.00:  RPM Surface Avg 
 RPMN.rpm               120.00:  RPM Surface Min 
 RPMX.rpm               160.00:  RPM Surface Max 
 RRUN.                    L503:  Rig Run Number 
 RTIM.hr                  5.00:  Time Reaming 
 SAZI.deg               298.42:  Azm, Start 
 SDEP.m                3870.00:  Start Depth 
 SIDD.                      No:  Serv Intrp, DD 
 SINC.deg                69.57:  Inc, Start 
 SPPA.psig             5500.00:  SPP Avg 
 SPPN.psig             4400.00:  SPP Min 
 SPPX.psig             5800.00:  SPP Max 
 STIM.      15.29.39 09-Sep-21:  Start Time 
 SVCS.                 DD, MWD:  Services 
 SVER.                    9.20:  Sperry Version 
 TDAT.m                5260.00:  Tot Depth Attmp 
 TDDF.                      No:  Trip for DD 
 TDLG.m                1390.00:  Tot Depth Loggd 
 TFF .                      No:  Trip for Fail 
 TQAA.f-kp               22.00:  Torque Abs Avg 
 TQAN.f-kp               13.00:  Torque Abs Min 
 TQAX.f-kp               27.00:  Torque Abs Max 
 TRRT.°/30m               1.60:  Turn Rotating 
 MRT .                  EWR-M5:  Maximum Recorded Temperature 
 TTMX.degC               92.00:  Max Tool Temp 
 VS01.                12330975:  Virtual Str1 SN 
 VS02.                90658671:  Virtual Str2 SN 
 VS03.                90658508:  Virtual Str3 SN 
 VS04.                90660974:  Virtual Str4 SN 
 VS05.                90654675:  Virtual Str5 SN 
 WBMN.klb                15.00:  WOB Min 
 WITN.     Alexander Yadullayev:  Customer Rep 
 WITN.           Adil Mammadov:  Customer Rep 2 
 WOBA.klb                17.00:  WOB Avg 
 WOBX.klb                18.00:  WOB Max 
 YP  .lhf2               31.00:  Yield Point 
~Curve Information Block
#MNEM.UNIT                 API CODE     Curve Description
#---------               -----------    ---------------------------
 TIME.HHMMSS            00 000 000 000:  GT Time & Date
 GTDEPTH.m              00 000 000 000:  GT Depth
 GTPQH.psia             00 000 000 000:  GT HR Quartz Pressure
 GTTQ.degC              00 000 000 000:  GT Quartz Temperature
 GTTN.NONE              00 000 000 000:  GT Test Number
 GTET.sec               00 000 000 000:  GT Elapsed Test Time
 GTTVD.m                00 000 000 000:  GT True Vertical Depth
#Other Information
#
#WARRANTY: Halliburton will use its best efforts to furnish customers with 
#accurate information and interpretations that are part of, and incident to, the services 
#provided.  However, Halliburton cannot and does not warrant the accuracy 
#or correctness of such information and interpretations.  Under no circumstances should any 
#such information or interpretation be relied upon as the sole basis for any drilling, 
#completion, production, or financial decision or any procedure involving any risk to the 
#safety of any drilling venture, drilling rig or its crew or any other third party.  The 
#Customer has full responsibility for all drilling, completion and production operation.  
#Halliburton makes no representations or warranties, either expressed or 
#implied, including, but not limited to, the implied warranties of merchantability or fitness 
#for a particular purpose, with respect to the services rendered.  In no event will 
#Halliburton be liable for failure to obtain any particular results or for 
#any damages, including, but not limited to, indirect, special or consequential damages, 
#resulting from the use of any information or interpretation provided by Halliburton.
#
~A           TIME           GTDEPTH  GTPQH  GTTQ  GTTN  GTET   GTTVD  
# ...
   06:33:31.268.17-Sep-2021 5057.00 5600.78 78.68 7.00 413.91 2583.65
   06:33:31.468.17-Sep-2021 5057.00 5600.78 78.68 7.00 414.11 2583.65
   06:33:31.668.17-Sep-2021 5057.00 5600.51 78.68 7.00 414.31 2583.65
   06:33:31.868.17-Sep-2021 5057.00 5600.41 78.68 7.00 414.51 2583.65
   06:33:32.068.17-Sep-2021 5057.00 5600.36 78.68 7.00 414.71 2583.65
   06:33:32.268.17-Sep-2021 5057.00 5600.40 78.68 7.00 414.91 2583.65
   06:33:32.468.17-Sep-2021 5057.00 5600.40 78.68 7.00 415.11 2583.65
   06:33:32.668.17-Sep-2021 5057.00 5600.31 78.68 7.00 415.31 2583.65
   06:33:32.868.17-Sep-2021 5057.00 5600.41 78.68 7.00 415.51 2583.65
   06:33:33.068.17-Sep-2021 5057.00 5600.45 78.68 7.00 415.71 2583.65
   06:33:33.268.17-Sep-2021 5057.00 5600.55 78.68 7.00 415.91 2583.65
   06:33:33.468.17-Sep-2021 5057.00 5600.55 78.68 7.00 416.11 2583.65
   06:33:33.668.17-Sep-2021 5057.00 5601.43 78.68 7.00 416.31 2583.65
   06:33:33.868.17-Sep-2021 5057.00 5600.68 78.68 7.00 416.51 2583.65
   06:33:34.068.17-Sep-2021 5057.00 5601.48 78.68 7.00 416.71 2583.65
   06:33:34.268.17-Sep-2021 5057.00 5600.92 78.68 7.00 416.91 2583.65
   06:33:34.468.17-Sep-2021 5057.00 5600.92 78.68 7.00 417.11 2583.65
   06:33:34.668.17-Sep-2021 5057.00 5600.93 78.68 7.00 417.31 2583.65
   06:33:34.868.17-Sep-2021 5057.00 5600.83 78.68 7.00 417.51 2583.65
   06:33:35.068.17-Sep-2021 5057.00 5600.50 78.68 7.00 417.71 2583.65
   06:33:35.268.17-Sep-2021 5057.00 5600.31 78.68 7.00 417.91 2583.65
   06:33:35.468.17-Sep-2021 5057.00 5600.31 78.68 7.00 418.11 2583.65
   06:33:35.668.17-Sep-2021 5057.00 5600.71 78.68 7.00 418.31 2583.65
   06:33:35.867.17-Sep-2021 5057.00 5600.19 78.68 7.00 418.51 2583.65
   06:33:36.067.17-Sep-2021 5057.00 5601.00 78.68 7.00 418.71 2583.65
   06:33:36.267.17-Sep-2021 5057.00 5600.17 78.68 7.00 418.91 2583.65
   06:33:36.467.17-Sep-2021 5057.00 5600.17 78.68 7.00 419.11 2583.65
   06:33:36.667.17-Sep-2021 5057.00 5601.06 78.68 7.00 419.31 2583.65
   06:33:36.867.17-Sep-2021 5057.00 5600.94 78.68 7.00 419.51 2583.65
   06:33:37.067.17-Sep-2021 5057.00 5601.05 78.68 7.00 419.71 2583.65
   06:33:37.267.17-Sep-2021 5057.00 5600.91 78.68 7.00 419.91 2583.65
   06:33:37.467.17-Sep-2021 5057.00 5600.91 78.68 7.00 420.11 2583.65
   06:33:37.667.17-Sep-2021 5057.00 5600.57 78.68 7.00 420.31 2583.65
   06:33:37.867.17-Sep-2021 5057.00 5600.52 78.68 7.00 420.51 2583.65
   06:33:38.067.17-Sep-2021 5057.00 5600.64 78.68 7.00 420.71 2583.65
   06:33:38.267.17-Sep-2021 5057.00 5600.46 78.68 7.00 420.91 2583.65
   06:33:38.467.17-Sep-2021 5057.00 5600.46 78.68 7.00 421.11 2583.65
   06:33:38.667.17-Sep-2021 5057.00 5600.45 78.68 7.00 421.31 2583.65
   06:33:38.867.17-Sep-2021 5057.00 5600.56 78.68 7.00 421.51 2583.65
   06:33:39.067.17-Sep-2021 5057.00 5600.48 78.68 7.00 421.71 2583.65
   06:33:39.267.17-Sep-2021 5057.00 5600.65 78.68 7.00 421.91 2583.65
   06:33:39.467.17-Sep-2021 5057.00 5600.65 78.68 7.00 422.11 2583.65
   06:33:39.667.17-Sep-2021 5057.00 5600.62 78.68 7.00 422.31 2583.65
   06:33:39.867.17-Sep-2021 5057.00 5601.57 78.68 7.00 422.51 2583.65
   06:33:40.067.17-Sep-2021 5057.00 5600.81 78.68 7.00 422.71 2583.65
   06:33:40.267.17-Sep-2021 5057.00 5601.74 78.68 7.00 422.91 2583.65
   06:33:40.467.17-Sep-2021 5057.00 5601.74 78.68 7.00 423.11 2583.65
   06:33:40.666.17-Sep-2021 5057.00 5600.99 78.68 7.00 423.31 2583.65
   06:33:40.866.17-Sep-2021 5057.00 5601.19 78.68 7.00 423.51 2583.65
   06:33:41.066.17-Sep-2021 5057.00 5600.63 78.68 7.00 423.71 2583.65
   06:33:41.266.17-Sep-2021 5057.00 5600.68 78.68 7.00 423.91 2583.65
   06:33:41.466.17-Sep-2021 5057.00 5600.68 78.68 7.00 424.11 2583.65
   06:33:41.666.17-Sep-2021 5057.00 5600.58 78.68 7.00 424.31 2583.65
   06:33:41.866.17-Sep-2021 5057.00 5600.51 78.68 7.00 424.51 2583.65
   06:33:42.066.17-Sep-2021 5057.00 5600.57 78.68 7.00 424.71 2583.65
   06:33:42.266.17-Sep-2021 5057.00 5600.56 78.68 7.00 424.91 2583.65
   06:33:42.466.17-Sep-2021 5057.00 5600.56 78.68 7.00 425.11 2583.65
   06:33:42.666.17-Sep-2021 5057.00 5600.63 78.68 7.00 425.31 2583.65
   06:33:42.866.17-Sep-2021 5057.00 5600.67 78.68 7.00 425.51 2583.65
   06:33:43.066.17-Sep-2021 5057.00 5600.85 78.68 7.00 425.71 2583.65
   06:33:43.266.17-Sep-2021 5057.00 5601.78 78.68 7.00 425.91 2583.65
   06:33:43.466.17-Sep-2021 5057.00 5601.78 78.68 7.00 426.11 2583.65
   06:33:43.666.17-Sep-2021 5057.00 5601.62 78.68 7.00 426.31 2583.65
   06:33:43.866.17-Sep-2021 5057.00 5601.49 78.68 7.00 426.51 2583.65
   06:33:44.066.17-Sep-2021 5057.00 5601.13 78.68 7.00 426.71 2583.65
   06:33:44.266.17-Sep-2021 5057.00 5601.07 78.68 7.00 426.91 2583.65
   06:33:44.466.17-Sep-2021 5057.00 5601.07 78.68 7.00 427.11 2583.65
   06:33:44.666.17-Sep-2021 5057.00 5601.15 78.68 7.00 427.31 2583.65
   06:33:44.866.17-Sep-2021 5057.00 5600.43 78.68 7.00 427.51 2583.65
   06:33:45.066.17-Sep-2021 5057.00 5600.89 78.68 7.00 427.71 2583.65
   06:33:45.265.17-Sep-2021 5057.00 5600.81 78.68 7.00 427.91 2583.65
   06:33:45.465.17-Sep-2021 5057.00 5600.81 78.68 7.00 428.11 2583.65
   06:33:45.665.17-Sep-2021 5057.00 5601.62 78.68 7.00 428.31 2583.65
   06:33:45.865.17-Sep-2021 5057.00 5599.94 78.68 7.00 428.51 2583.65
   06:33:46.065.17-Sep-2021 5057.00 5601.04 78.68 7.00 428.71 2583.65
   06:33:46.265.17-Sep-2021 5057.00 5600.82 78.68 7.00 428.91 2583.65
   06:33:46.465.17-Sep-2021 5057.00 5600.82 78.68 7.00 429.11 2583.65
   06:33:46.665.17-Sep-2021 5057.00 5601.07 78.68 7.00 429.31 2583.65
   06:33:46.865.17-Sep-2021 5057.00 5601.33 78.68 7.00 429.51 2583.65
   06:33:47.065.17-Sep-2021 5057.00 5601.16 78.68 7.00 429.71 2583.65
   06:33:47.265.17-Sep-2021 5057.00 5600.98 78.68 7.00 429.91 2583.65
   06:33:47.465.17-Sep-2021 5057.00 5600.98 78.68 7.00 430.11 2583.65
   06:33:47.665.17-Sep-2021 5057.00 5600.77 78.69 7.00 430.31 2583.65
   06:33:47.865.17-Sep-2021 5057.00 5600.88 78.68 7.00 430.51 2583.65
   06:33:48.065.17-Sep-2021 5057.00 5600.77 78.69 7.00 430.71 2583.65
   06:33:48.265.17-Sep-2021 5057.00 5600.60 78.68 7.00 430.91 2583.65
   06:33:48.465.17-Sep-2021 5057.00 5600.60 78.68 7.00 431.11 2583.65
   06:33:48.665.17-Sep-2021 5057.00 5600.69 78.69 7.00 431.31 2583.65
   06:33:48.865.17-Sep-2021 5057.00 5600.78 78.69 7.00 431.51 2583.65
   06:33:49.065.17-Sep-2021 5057.00 5600.85 78.69 7.00 431.71 2583.65
   06:33:49.265.17-Sep-2021 5057.00 5600.89 78.69 7.00 431.91 2583.65
   06:33:49.465.17-Sep-2021 5057.00 5600.89 78.69 7.00 432.11 2583.65
   06:33:49.665.17-Sep-2021 5057.00 5600.82 78.69 7.00 432.31 2583.65
   06:33:49.865.17-Sep-2021 5057.00 5601.71 78.69 7.00 432.51 2583.65
   06:33:50.064.17-Sep-2021 5057.00 5601.56 78.69 7.00 432.71 2583.65
   06:33:50.264.17-Sep-2021 5057.00 5601.34 78.69 7.00 432.91 2583.65
   06:33:50.464.17-Sep-2021 5057.00 5601.34 78.69 7.00 433.11 2583.65
   06:33:50.664.17-Sep-2021 5057.00 5601.14 78.69 7.00 433.31 2583.65
   06:33:50.864.17-Sep-2021 5057.00 5600.98 78.69 7.00 433.51 2583.65
   06:33:51.064.17-Sep-2021 5057.00 5600.94 78.69 7.00 433.71 2583.65
   06:33:51.264.17-Sep-2021 5057.00 5601.04 78.69 7.00 433.91 2583.65
   06:33:51.464.17-Sep-2021 5057.00 5601.04 78.69 7.00 434.11 2583.65
   06:33:51.664.17-Sep-2021 5057.00 5600.93 78.69 7.00 434.31 2583.65
   06:33:51.864.17-Sep-2021 5057.00 5600.99 78.69 7.00 434.51 2583.65
   06:33:52.064.17-Sep-2021 5057.00 5600.95 78.69 7.00 434.71 2583.65
   06:33:52.264.17-Sep-2021 5057.00 5600.97 78.69 7.00 434.91 2583.65
   06:33:52.464.17-Sep-2021 5057.00 5600.97 78.69 7.00 435.11 2583.65
   06:33:52.664.17-Sep-2021 5057.00 5601.06 78.69 7.00 435.31 2583.65
   06:33:52.864.17-Sep-2021 5057.00 5601.44 78.69 7.00 435.51 2583.65
   06:33:53.064.17-Sep-2021 5057.00 5601.44 78.69 7.00 435.71 2583.65
   06:33:53.264.17-Sep-2021 5057.00 5601.33 78.69 7.00 435.91 2583.65
   06:33:53.464.17-Sep-2021 5057.00 5601.33 78.69 7.00 436.11 2583.65
   06:33:53.664.17-Sep-2021 5057.00 5601.73 78.69 7.00 436.31 2583.65
   06:33:53.864.17-Sep-2021 5057.00 5601.19 78.69 7.00 436.51 2583.65
   06:33:54.064.17-Sep-2021 5057.00 5601.11 78.69 7.00 436.71 2583.65
