~Version Information
 VERS.                  2.0:   CWLS log ASCII Standard -VERSION 2.0
 WRAP.                   NO:   One line per depth step
~Well Information Block
#MNEM.UNIT     VALUE/NAME     DESCRIPTION
#---------     -----------    ---------------------------
 STRT.S             06:03:21 17-Sep-21: START TIME 06:03:21 17-Sep-21
 STOP.S             06:11:58 17-Sep-21: STOP TIME  06:11:58 17-Sep-21
 STEP.S                   0.00: STEP TIME
 NULL.                 -999.25: NULL VALUE
 DFWT.                        :  DIST FWL TEXT
 DFST.                        :  DIST FSL TEXT
 DMF .             Drill Floor:  DRILL MEAS FROM
 STIM.      10.59.12 05-Jul-21:  START TIME
 DATE.      10.59.12 10-Sep-21:  END TIME
 SPUD.               05-Jul-21:  SPUD DATE
 NREF.                    Grid:  NORTH REFERENCE
 HPTY.       Minimum Curvature:  HOLE POS TYPE
 DMOD.             Drill Model:  DRILL MOD DESC
 SVYD.                  Survey:  SURVEY DESC
 ILTD.               Lithology:  INTERP LTH DESC
 FTOP.          Formation Tops:  FORM TOPS DESC
 RIG .                     DWG:  RIG NAME
 PDAT.          Mean Sea Level:  PERMANENT DATUM
 FLD .                     ACG:  FIELD NAME
 SON .        AZ-XX-0907115008:  JOB NUMBER
 CTRY.              Azerbaijan:  COUNTRY NAME
 WELL.                    E35A:  WELL NAME
 SRVC.          TURAN DRILLING:  CONTRACTOR
 COMP.     BP Exploration (Caspian Sea LTD):  COMPANY
 UWI .                     N/A:  UNIQUE WELL IDENTIFIER
 API .                     N/A:  API NUMBER
 MDS .        Operator Entered:  MAG DATA SOURCE
 BASE.              Azerbaijan:  LOGGING EQUIPMENT BASE LOCATION
 REGN.                   EESSA:  REGION
 PROV.                    Baku:  PROVINCE
 STAT.                    Baku:  STATE NAME
 MWDS.                    Baku:  MWD SHOP
 JOBN.        AZ-XX-0907115008:  JOB TICKET NUMB
 DOE .                     N/A:  DOE NUMBER
 DCON.         Sperry Drilling:  DIRECTNL CONTR
 UNIT.                     N/A:  LOGGING EQUIPMENT ID
 WTYP.                Deviated:  WELL TYPE
 CNTY.                        :  COUNTY
 LOC .                        :  LOCATION
 LMF .             Drill Floor:  LOG MEASURED FROM
 TVDS.m                  43.16:  TVDSS CORRECTN
 LATI.deg                40.17:  LATITUDE
 LONG.deg                51.17:  LONGITUDE
 WHNS.m                  10.51:  WELL HEAD N/S
 WHEW.m                 -14.82:  WELL HEAD E/W
 UTMX.m              514336.92:  UTM X
 UTMY.m             4448618.56:  UTM Y
 DFWL.m                   0.00:  DISTANCE FWL
 DFSL.m                   0.00:  DISTANCE FSL
 SDEP.m                 849.00:  START DEPTH
 TDD .m                2862.00:  TOTAL DEPTH (DRILLER)
 VSDR.deg               292.10:  VERT SEC DIRECT
 GVFD.g                   1.00:  GRAVITY FIELD
 MFLD.nT              50382.00:  MAGNETIC FIELD
 MDIP.deg                59.68:  MAGNETIC DIP
 MDEC.deg                 6.66:  MAGNETIC DECL
 GRDC.deg                 0.09:  GRID CORRECTION
 AZTC.deg                 6.57:  AZM TOTAL CORR
 EPD .m                   0.00:  ELEVATION
 EGL .m                   0.00:  GROUND ELEVATION
 WDMS.m                 176.20:  WD ELEV
 APD .m                  43.16:  DEPTH ABOVE PD
 DEP .m                 363.42:  DEPTH
 AGAP.m                  43.16:  AIR GAP
 VSEW.m                 -14.82:  VERT SEC E/W
 VSNS.m                  10.51:  VERT SEC N/S
 EKB .m                  43.16:  KB ELEVATION
 EDF .m                  43.16:  DF ELEVATION
 TDL .m                1390.00:  TOTAL DEPTH (LOGGER)
 VSC .                       0:  VS TO CLOSURE
 MAGU.                 1855871:  MAGUTM CHECKSUM
~Parameter Information Block
#MNEM.UNIT       Value        Description
#---------     -----------    ---------------------------
 AV  .mps                 2.28:  Ann Velocity 
 AVMX.mps                 2.67:  Max Ann Veloc 
 AZIF.deg               305.00:  Azm, Final 
 BHAT.        Rotary Steerable:  BHA Type 
 BROT.°/30m               0.45:  Build Rotating 
 BS  .in                 12.25:  Bit Size 
 BSZ .in                 12.25:  Bit Size 
 BTPL.psig              600.00:  Bit Press Loss 
 CABU.                     Yes:  Customer Abuse 
 COMM.                     $t:  Run Comments 1 
 TCS .hr                150.00:  Time Ciculation Ended 
 CV  .mps                 1.24:  Crit Velocity 
 CVMX.mps                 1.66:  Max Crit Veloc 
 DD1 .         Intigam Rahimov:  Direct Drillr 1 
 DD2 .            Azer Ravavov:  Direct Drillr 2 
 DD3 .              Samir Abas:  Direct Drillr 3 
 DDSV.               Geo-Pilot:  DD Service 
 DEFF.%                 100.00:  % Det Eff 
 DLRX.°/30m               1.57:  Dogleg Rot Max 
 DLSO.°/30m               0.00:  Dogleg Oriented 
 DLSX.°/30m               0.00:  Dogleg Str Max 
 DRET.      20.28.06 17-Sep-21:  Drill End Time 
 DRST.      20.27.35 10-Sep-21:  Drill Start Tim 
 DTIM.hr                 54.00:  Time Drilling 
 EDEP.m                5260.00:  End Depth 
 ENG1.      Bakhtiyar Jabbarli:  Engineer 1 
 ENG2.      Natik Hasanaghayev:  Engineer 2 
 ENG3.           Royal Nasirov:  Engineer 3 
 ETIM.      20.27.55 18-Sep-21:  End Time 
 FLOI.gpm              1100.00:  Flow In 
 FLON.gpm               800.00:  Flow In Min 
 FLOS.cptm                0.00:  Fluid Loss 
 FLOX.gpm              1200.00:  Flow In Max 
 DFT .        Mineral Oil Base:  Mud Type 
 HPRE.                      No:  High Pressure 
 HTEM.                      No:  High Temp 
 HYDO.m                   1.80:  Hydro Offset 
 IFIN.deg                72.31:  Inc, Final 
 IMAX.deg                72.36:  Inc Max 
 IMIN.deg                69.36:  Inc Min 
 IMND.m                4192.96:  Inc Min Depth 
 IMXD.m                5128.36:  Inc Max Depth 
 JARR.                      No:  Jarring 
 LETM.      20.29.00 17-Sep-21:  Log End Time 
 LOST.hr                     0:  Lost Rig Time 
 LSTM.      20.27.00 10-Sep-21:  Log Start Time 
 MDCL.ppm            227000.00:  Mud Chlorides 
 MDES.     Inversion Oil/Synthetic:  Mud Desc 
 DFD .sg                  1.45:  Mud Density 
 MDMN.sg                  1.45:  Dens Mud Min 
 MDMX.sg                  1.45:  Dens Mud Max 
 MOIL.                    70.5:  Run Mud Oil % 
 MOWR.                   71:29:  Run Mud OWR 
 MSND.                     0.3:  Run Mud Sand % 
 MSOL.                    19.8:  Run Mud Solids% 
 DFV .spqt               80.00:  Mud Viscosity 
 MWOD.in                  8.00:  MWD Tool OD 
 MWSI.                     Yes:  Serv Intrp, MWD 
 OTIM.hr                180.00:  Time Operating 
 PCON.           Look Like New:  Pad Condition 
 PMAX.psia             9910.94:  Press Op, Max 
 PV  .cP                 35.00:  Mud PV 
 RUN .                    1000:  Run Number 
 ROPA.m/hr               18.00:  ROP Avg 
 ROPN.m/hr                8.00:  ROP Min 
 ROPX.m/hr               23.00:  ROP Max 
 RPMA.rpm               150.00:  RPM Surface Avg 
 RPMN.rpm               120.00:  RPM Surface Min 
 RPMX.rpm               160.00:  RPM Surface Max 
 RRUN.                    L503:  Rig Run Number 
 RTIM.hr                  5.00:  Time Reaming 
 SAZI.deg               298.42:  Azm, Start 
 SDEP.m                3870.00:  Start Depth 
 SIDD.                      No:  Serv Intrp, DD 
 SINC.deg                69.57:  Inc, Start 
 SPPA.psig             5500.00:  SPP Avg 
 SPPN.psig             4400.00:  SPP Min 
 SPPX.psig             5800.00:  SPP Max 
 STIM.      15.29.39 09-Sep-21:  Start Time 
 SVCS.                 DD, MWD:  Services 
 SVER.                    9.20:  Sperry Version 
 TDAT.m                5260.00:  Tot Depth Attmp 
 TDDF.                      No:  Trip for DD 
 TDLG.m                1390.00:  Tot Depth Loggd 
 TFF .                      No:  Trip for Fail 
 TQAA.f-kp               22.00:  Torque Abs Avg 
 TQAN.f-kp               13.00:  Torque Abs Min 
 TQAX.f-kp               27.00:  Torque Abs Max 
 TRRT.°/30m               1.60:  Turn Rotating 
 MRT .                  EWR-M5:  Maximum Recorded Temperature 
 TTMX.degC               92.00:  Max Tool Temp 
 VS01.                12330975:  Virtual Str1 SN 
 VS02.                90658671:  Virtual Str2 SN 
 VS03.                90658508:  Virtual Str3 SN 
 VS04.                90660974:  Virtual Str4 SN 
 VS05.                90654675:  Virtual Str5 SN 
 WBMN.klb                15.00:  WOB Min 
 WITN.     Alexander Yadullayev:  Customer Rep 
 WITN.           Adil Mammadov:  Customer Rep 2 
 WOBA.klb                17.00:  WOB Avg 
 WOBX.klb                18.00:  WOB Max 
 YP  .lhf2               31.00:  Yield Point 
~Curve Information Block
#MNEM.UNIT                 API CODE     Curve Description
#---------               -----------    ---------------------------
 TIME.HHMMSS            00 000 000 000:  GT Time & Date
 GTDEPTH.m              00 000 000 000:  GT Depth
 GTPQH.psia             00 000 000 000:  GT HR Quartz Pressure
 GTTQ.degC              00 000 000 000:  GT Quartz Temperature
 GTTN.NONE              00 000 000 000:  GT Test Number
 GTET.sec               00 000 000 000:  GT Elapsed Test Time
 GTTVD.m                00 000 000 000:  GT True Vertical Depth
#Other Information
#
#WARRANTY: Halliburton will use its best efforts to furnish customers with 
#accurate information and interpretations that are part of, and incident to, the services 
#provided.  However, Halliburton cannot and does not warrant the accuracy 
#or correctness of such information and interpretations.  Under no circumstances should any 
#such information or interpretation be relied upon as the sole basis for any drilling, 
#completion, production, or financial decision or any procedure involving any risk to the 
#safety of any drilling venture, drilling rig or its crew or any other third party.  The 
#Customer has full responsibility for all drilling, completion and production operation.  
#Halliburton makes no representations or warranties, either expressed or 
#implied, including, but not limited to, the implied warranties of merchantability or fitness 
#for a particular purpose, with respect to the services rendered.  In no event will 
#Halliburton be liable for failure to obtain any particular results or for 
#any damages, including, but not limited to, indirect, special or consequential damages, 
#resulting from the use of any information or interpretation provided by Halliburton.
#
~A           TIME           GTDEPTH  GTPQH  GTTQ  GTTN  GTET   GTTVD  
# ...
   06:09:52.571.17-Sep-2021 5057.50 5540.53 79.48 6.00 390.92 2583.80
   06:09:52.771.17-Sep-2021 5057.50 5540.53 79.48 6.00 391.12 2583.80
   06:09:52.971.17-Sep-2021 5057.50 5538.81 79.48 6.00 391.32 2583.80
   06:09:53.171.17-Sep-2021 5057.50 5542.13 79.48 6.00 391.52 2583.80
   06:09:53.371.17-Sep-2021 5057.50 5540.94 79.48 6.00 391.72 2583.80
   06:09:53.571.17-Sep-2021 5057.50 5540.72 79.48 6.00 391.92 2583.80
   06:09:53.771.17-Sep-2021 5057.50 5540.72 79.48 6.00 392.12 2583.80
   06:09:53.971.17-Sep-2021 5057.50 5540.75 79.48 6.00 392.32 2583.80
   06:09:54.171.17-Sep-2021 5057.50 5540.04 79.48 6.00 392.52 2583.80
   06:09:54.371.17-Sep-2021 5057.50 5539.77 79.48 6.00 392.72 2583.80
   06:09:54.570.17-Sep-2021 5057.50 5539.91 79.48 6.00 392.92 2583.80
   06:09:54.770.17-Sep-2021 5057.50 5539.91 79.48 6.00 393.12 2583.80
   06:09:54.970.17-Sep-2021 5057.50 5540.00 79.47 6.00 393.32 2583.80
   06:09:55.170.17-Sep-2021 5057.50 5539.88 79.47 6.00 393.52 2583.80
   06:09:55.370.17-Sep-2021 5057.50 5540.06 79.47 6.00 393.72 2583.80
   06:09:55.570.17-Sep-2021 5057.50 5540.29 79.47 6.00 393.92 2583.80
   06:09:55.770.17-Sep-2021 5057.50 5540.29 79.47 6.00 394.12 2583.80
   06:09:55.970.17-Sep-2021 5057.50 5540.67 79.47 6.00 394.32 2583.80
   06:09:56.170.17-Sep-2021 5057.50 5543.07 79.47 6.00 394.52 2583.80
   06:09:56.370.17-Sep-2021 5057.50 5540.17 79.47 6.00 394.72 2583.80
   06:09:56.570.17-Sep-2021 5057.50 5540.99 79.47 6.00 394.92 2583.80
   06:09:56.770.17-Sep-2021 5057.50 5540.99 79.47 6.00 395.12 2583.80
   06:09:56.970.17-Sep-2021 5057.50 5541.15 79.47 6.00 395.32 2583.80
   06:09:57.170.17-Sep-2021 5057.50 5540.48 79.47 6.00 395.52 2583.80
   06:09:57.370.17-Sep-2021 5057.50 5540.41 79.47 6.00 395.72 2583.80
   06:09:57.570.17-Sep-2021 5057.50 5542.82 79.47 6.00 395.92 2583.80
   06:09:57.770.17-Sep-2021 5057.50 5542.82 79.47 6.00 396.12 2583.80
   06:09:57.970.17-Sep-2021 5057.50 5538.80 79.47 6.00 396.32 2583.80
   06:09:58.170.17-Sep-2021 5057.50 5539.52 79.47 6.00 396.52 2583.80
   06:09:58.370.17-Sep-2021 5057.50 5542.41 79.47 6.00 396.72 2583.80
   06:09:58.570.17-Sep-2021 5057.50 5539.10 79.47 6.00 396.92 2583.80
   06:09:58.770.17-Sep-2021 5057.50 5539.10 79.47 6.00 397.12 2583.80
   06:09:58.970.17-Sep-2021 5057.50 5539.68 79.47 6.00 397.32 2583.80
   06:09:59.169.17-Sep-2021 5057.50 5539.82 79.47 6.00 397.52 2583.80
   06:09:59.369.17-Sep-2021 5057.50 5542.17 79.47 6.00 397.72 2583.80
   06:09:59.569.17-Sep-2021 5057.50 5539.17 79.47 6.00 397.92 2583.80
   06:09:59.769.17-Sep-2021 5057.50 5539.17 79.47 6.00 398.12 2583.80
   06:09:59.969.17-Sep-2021 5057.50 5540.11 79.47 6.00 398.32 2583.80
   06:10:00.169.17-Sep-2021 5057.50 5539.51 79.47 6.00 398.52 2583.80
   06:10:00.369.17-Sep-2021 5057.50 5540.15 79.47 6.00 398.72 2583.80
   06:10:00.569.17-Sep-2021 5057.50 5539.78 79.47 6.00 398.91 2583.80
   06:10:00.769.17-Sep-2021 5057.50 5539.78 79.47 6.00 399.11 2583.80
   06:10:00.969.17-Sep-2021 5057.50 5539.92 79.46 6.00 399.31 2583.80
   06:10:01.169.17-Sep-2021 5057.50 5539.87 79.46 6.00 399.51 2583.80
   06:10:01.369.17-Sep-2021 5057.50 5540.05 79.46 6.00 399.71 2583.80
   06:10:01.569.17-Sep-2021 5057.50 5540.32 79.46 6.00 399.91 2583.80
   06:10:01.769.17-Sep-2021 5057.50 5540.32 79.46 6.00 400.11 2583.80
   06:10:01.969.17-Sep-2021 5057.50 5540.24 79.46 6.00 400.31 2583.80
   06:10:02.169.17-Sep-2021 5057.50 5540.39 79.46 6.00 400.51 2583.80
   06:10:02.369.17-Sep-2021 5057.50 5544.22 79.46 6.00 400.71 2583.80
   06:10:02.569.17-Sep-2021 5057.50 5538.75 79.46 6.00 400.91 2583.80
   06:10:02.769.17-Sep-2021 5057.50 5538.75 79.46 6.00 401.11 2583.80
   06:10:02.969.17-Sep-2021 5057.50 5540.74 79.46 6.00 401.31 2583.80
   06:10:03.169.17-Sep-2021 5057.50 5540.69 79.46 6.00 401.51 2583.80
   06:10:03.369.17-Sep-2021 5057.50 5540.67 79.46 6.00 401.71 2583.80
   06:10:03.569.17-Sep-2021 5057.50 5540.07 79.46 6.00 401.91 2583.80
   06:10:03.769.17-Sep-2021 5057.50 5540.07 79.46 6.00 402.11 2583.80
   06:10:03.968.17-Sep-2021 5057.50 5539.67 79.46 6.00 402.31 2583.80
   06:10:04.168.17-Sep-2021 5057.50 5539.77 79.46 6.00 402.51 2583.80
   06:10:04.368.17-Sep-2021 5057.50 5539.56 79.46 6.00 402.71 2583.80
   06:10:04.568.17-Sep-2021 5057.50 5539.82 79.46 6.00 402.91 2583.80
   06:10:04.768.17-Sep-2021 5057.50 5539.82 79.46 6.00 403.11 2583.80
   06:10:04.968.17-Sep-2021 5057.50 5539.97 79.46 6.00 403.31 2583.80
   06:10:05.168.17-Sep-2021 5057.50 5540.19 79.46 6.00 403.51 2583.80
   06:10:05.368.17-Sep-2021 5057.50 5540.11 79.46 6.00 403.71 2583.80
   06:10:05.568.17-Sep-2021 5057.50 5540.51 79.46 6.00 403.91 2583.80
   06:10:05.768.17-Sep-2021 5057.50 5540.51 79.46 6.00 404.11 2583.80
   06:10:05.968.17-Sep-2021 5057.50 5540.08 79.46 6.00 404.31 2583.80
   06:10:06.168.17-Sep-2021 5057.50 5540.77 79.46 6.00 404.51 2583.80
   06:10:06.368.17-Sep-2021 5057.50 5541.40 79.46 6.00 404.71 2583.80
   06:10:06.568.17-Sep-2021 5057.50 5541.13 79.46 6.00 404.91 2583.80
   06:10:06.768.17-Sep-2021 5057.50 5541.13 79.46 6.00 405.11 2583.80
   06:10:06.968.17-Sep-2021 5057.50 5540.31 79.45 6.00 405.31 2583.80
   06:10:07.168.17-Sep-2021 5057.50 5542.63 79.45 6.00 405.51 2583.80
   06:10:07.368.17-Sep-2021 5057.50 5538.60 79.45 6.00 405.71 2583.80
   06:10:07.568.17-Sep-2021 5057.50 5541.46 79.45 6.00 405.91 2583.80
   06:10:07.768.17-Sep-2021 5057.50 5541.46 79.45 6.00 406.11 2583.80
   06:10:07.968.17-Sep-2021 5057.50 5542.40 79.45 6.00 406.31 2583.80
   06:10:08.168.17-Sep-2021 5057.50 5539.02 79.45 6.00 406.51 2583.80
   06:10:08.368.17-Sep-2021 5057.50 5541.12 79.45 6.00 406.71 2583.80
   06:10:08.567.17-Sep-2021 5057.50 5539.67 79.45 6.00 406.91 2583.80
   06:10:08.767.17-Sep-2021 5057.50 5539.67 79.45 6.00 407.11 2583.80
   06:10:08.967.17-Sep-2021 5057.50 5542.04 79.45 6.00 407.31 2583.80
   06:10:09.167.17-Sep-2021 5057.50 5539.13 79.45 6.00 407.51 2583.80
   06:10:09.367.17-Sep-2021 5057.50 5540.58 79.45 6.00 407.71 2583.80
   06:10:09.567.17-Sep-2021 5057.50 5539.98 79.45 6.00 407.91 2583.80
   06:10:09.767.17-Sep-2021 5057.50 5539.98 79.45 6.00 408.11 2583.80
   06:10:09.967.17-Sep-2021 5057.50 5540.02 79.45 6.00 408.31 2583.80
   06:10:10.167.17-Sep-2021 5057.50 5539.55 79.45 6.00 408.51 2583.80
   06:10:10.367.17-Sep-2021 5057.50 5539.73 79.45 6.00 408.71 2583.80
   06:10:10.567.17-Sep-2021 5057.50 5539.77 79.45 6.00 408.91 2583.80
   06:10:10.767.17-Sep-2021 5057.50 5539.77 79.45 6.00 409.11 2583.80
   06:10:10.967.17-Sep-2021 5057.50 5539.96 79.45 6.00 409.31 2583.80
   06:10:11.167.17-Sep-2021 5057.50 5540.19 79.45 6.00 409.51 2583.80
   06:10:11.367.17-Sep-2021 5057.50 5540.08 79.45 6.00 409.71 2583.80
   06:10:11.567.17-Sep-2021 5057.50 5540.27 79.45 6.00 409.91 2583.80
   06:10:11.767.17-Sep-2021 5057.50 5540.27 79.45 6.00 410.11 2583.80
   06:10:11.967.17-Sep-2021 5057.50 5544.14 79.45 6.00 410.31 2583.80
   06:10:12.167.17-Sep-2021 5057.50 5538.65 79.45 6.00 410.51 2583.80
   06:10:12.367.17-Sep-2021 5057.50 5541.67 79.45 6.00 410.71 2583.80
   06:10:12.567.17-Sep-2021 5057.50 5540.68 79.44 6.00 410.91 2583.80
   06:10:12.767.17-Sep-2021 5057.50 5540.68 79.44 6.00 411.11 2583.80
   06:10:12.967.17-Sep-2021 5057.50 5540.38 79.44 6.00 411.31 2583.80
   06:10:13.167.17-Sep-2021 5057.50 5539.89 79.44 6.00 411.51 2583.80
   06:10:13.366.17-Sep-2021 5057.50 5539.66 79.44 6.00 411.71 2583.80
   06:10:13.566.17-Sep-2021 5057.50 5539.51 79.44 6.00 411.91 2583.80
   06:10:13.766.17-Sep-2021 5057.50 5539.51 79.44 6.00 412.11 2583.80
   06:10:13.966.17-Sep-2021 5057.50 5539.56 79.44 6.00 412.31 2583.80
   06:10:14.166.17-Sep-2021 5057.50 5539.68 79.44 6.00 412.51 2583.80
   06:10:14.366.17-Sep-2021 5057.50 5539.69 79.44 6.00 412.71 2583.80
   06:10:14.566.17-Sep-2021 5057.50 5539.81 79.44 6.00 412.91 2583.80
   06:10:14.766.17-Sep-2021 5057.50 5539.81 79.44 6.00 413.11 2583.80
   06:10:14.966.17-Sep-2021 5057.50 5540.13 79.44 6.00 413.31 2583.80
   06:10:15.166.17-Sep-2021 5057.50 5540.36 79.44 6.00 413.51 2583.80
   06:10:15.366.17-Sep-2021 5057.50 5542.65 79.44 6.00 413.71 2583.80
