~Version Information
 VERS.                  2.0:   CWLS log ASCII Standard -VERSION 2.0
 WRAP.                   NO:   One line per depth step
~Well Information Block
#MNEM.UNIT     VALUE/NAME     DESCRIPTION
#---------     -----------    ---------------------------
 STRT.S             02:32:25 17-Sep-21: START TIME 02:32:25 17-Sep-21
 STOP.S             02:40:50 17-Sep-21: STOP TIME  02:40:50 17-Sep-21
 STEP.S                   0.00: STEP TIME
 NULL.                 -999.25: NULL VALUE
 DFWT.                        :  DIST FWL TEXT
 DFST.                        :  DIST FSL TEXT
 DMF .             Drill Floor:  DRILL MEAS FROM
 STIM.      10.59.12 05-Jul-21:  START TIME
 DATE.      10.59.12 10-Sep-21:  END TIME
 SPUD.               05-Jul-21:  SPUD DATE
 NREF.                    Grid:  NORTH REFERENCE
 HPTY.       Minimum Curvature:  HOLE POS TYPE
 DMOD.             Drill Model:  DRILL MOD DESC
 SVYD.                  Survey:  SURVEY DESC
 ILTD.               Lithology:  INTERP LTH DESC
 FTOP.          Formation Tops:  FORM TOPS DESC
 RIG .                     DWG:  RIG NAME
 PDAT.          Mean Sea Level:  PERMANENT DATUM
 FLD .                     ACG:  FIELD NAME
 SON .        AZ-XX-0907115008:  JOB NUMBER
 CTRY.              Azerbaijan:  COUNTRY NAME
 WELL.                    E35A:  WELL NAME
 SRVC.          TURAN DRILLING:  CONTRACTOR
 COMP.     BP Exploration (Caspian Sea LTD):  COMPANY
 UWI .                     N/A:  UNIQUE WELL IDENTIFIER
 API .                     N/A:  API NUMBER
 MDS .        Operator Entered:  MAG DATA SOURCE
 BASE.              Azerbaijan:  LOGGING EQUIPMENT BASE LOCATION
 REGN.                   EESSA:  REGION
 PROV.                    Baku:  PROVINCE
 STAT.                    Baku:  STATE NAME
 MWDS.                    Baku:  MWD SHOP
 JOBN.        AZ-XX-0907115008:  JOB TICKET NUMB
 DOE .                     N/A:  DOE NUMBER
 DCON.         Sperry Drilling:  DIRECTNL CONTR
 UNIT.                     N/A:  LOGGING EQUIPMENT ID
 WTYP.                Deviated:  WELL TYPE
 CNTY.                        :  COUNTY
 LOC .                        :  LOCATION
 LMF .             Drill Floor:  LOG MEASURED FROM
 TVDS.m                  43.16:  TVDSS CORRECTN
 LATI.deg                40.17:  LATITUDE
 LONG.deg                51.17:  LONGITUDE
 WHNS.m                  10.51:  WELL HEAD N/S
 WHEW.m                 -14.82:  WELL HEAD E/W
 UTMX.m              514336.92:  UTM X
 UTMY.m             4448618.56:  UTM Y
 DFWL.m                   0.00:  DISTANCE FWL
 DFSL.m                   0.00:  DISTANCE FSL
 SDEP.m                 849.00:  START DEPTH
 TDD .m                2862.00:  TOTAL DEPTH (DRILLER)
 VSDR.deg               292.10:  VERT SEC DIRECT
 GVFD.g                   1.00:  GRAVITY FIELD
 MFLD.nT              50382.00:  MAGNETIC FIELD
 MDIP.deg                59.68:  MAGNETIC DIP
 MDEC.deg                 6.66:  MAGNETIC DECL
 GRDC.deg                 0.09:  GRID CORRECTION
 AZTC.deg                 6.57:  AZM TOTAL CORR
 EPD .m                   0.00:  ELEVATION
 EGL .m                   0.00:  GROUND ELEVATION
 WDMS.m                 176.20:  WD ELEV
 APD .m                  43.16:  DEPTH ABOVE PD
 DEP .m                 363.42:  DEPTH
 AGAP.m                  43.16:  AIR GAP
 VSEW.m                 -14.82:  VERT SEC E/W
 VSNS.m                  10.51:  VERT SEC N/S
 EKB .m                  43.16:  KB ELEVATION
 EDF .m                  43.16:  DF ELEVATION
 TDL .m                1390.00:  TOTAL DEPTH (LOGGER)
 VSC .                       0:  VS TO CLOSURE
 MAGU.                 1855871:  MAGUTM CHECKSUM
~Parameter Information Block
#MNEM.UNIT       Value        Description
#---------     -----------    ---------------------------
 AV  .mps                 2.28:  Ann Velocity 
 AVMX.mps                 2.67:  Max Ann Veloc 
 AZIF.deg               305.00:  Azm, Final 
 BHAT.        Rotary Steerable:  BHA Type 
 BROT.°/30m               0.45:  Build Rotating 
 BS  .in                 12.25:  Bit Size 
 BSZ .in                 12.25:  Bit Size 
 BTPL.psig              600.00:  Bit Press Loss 
 CABU.                     Yes:  Customer Abuse 
 COMM.                     Œ$a:  Run Comments 1 
 TCS .hr                150.00:  Time Ciculation Ended 
 CV  .mps                 1.24:  Crit Velocity 
 CVMX.mps                 1.66:  Max Crit Veloc 
 DD1 .         Intigam Rahimov:  Direct Drillr 1 
 DD2 .            Azer Ravavov:  Direct Drillr 2 
 DD3 .              Samir Abas:  Direct Drillr 3 
 DDSV.               Geo-Pilot:  DD Service 
 DEFF.%                 100.00:  % Det Eff 
 DLRX.°/30m               1.57:  Dogleg Rot Max 
 DLSO.°/30m               0.00:  Dogleg Oriented 
 DLSX.°/30m               0.00:  Dogleg Str Max 
 DRET.      20.28.06 17-Sep-21:  Drill End Time 
 DRST.      20.27.35 10-Sep-21:  Drill Start Tim 
 DTIM.hr                 54.00:  Time Drilling 
 EDEP.m                5260.00:  End Depth 
 ENG1.      Bakhtiyar Jabbarli:  Engineer 1 
 ENG2.      Natik Hasanaghayev:  Engineer 2 
 ENG3.           Royal Nasirov:  Engineer 3 
 ETIM.      20.27.55 18-Sep-21:  End Time 
 FLOI.gpm              1100.00:  Flow In 
 FLON.gpm               800.00:  Flow In Min 
 FLOS.cptm                0.00:  Fluid Loss 
 FLOX.gpm              1200.00:  Flow In Max 
 DFT .        Mineral Oil Base:  Mud Type 
 HPRE.                      No:  High Pressure 
 HTEM.                      No:  High Temp 
 HYDO.m                   1.80:  Hydro Offset 
 IFIN.deg                72.31:  Inc, Final 
 IMAX.deg                72.36:  Inc Max 
 IMIN.deg                69.36:  Inc Min 
 IMND.m                4192.96:  Inc Min Depth 
 IMXD.m                5128.36:  Inc Max Depth 
 JARR.                      No:  Jarring 
 LETM.      20.29.00 17-Sep-21:  Log End Time 
 LOST.hr                     0:  Lost Rig Time 
 LSTM.      20.27.00 10-Sep-21:  Log Start Time 
 MDCL.ppm            227000.00:  Mud Chlorides 
 MDES.     Inversion Oil/Synthetic:  Mud Desc 
 DFD .sg                  1.45:  Mud Density 
 MDMN.sg                  1.45:  Dens Mud Min 
 MDMX.sg                  1.45:  Dens Mud Max 
 MOIL.                    70.5:  Run Mud Oil % 
 MOWR.                   71:29:  Run Mud OWR 
 MSND.                     0.3:  Run Mud Sand % 
 MSOL.                    19.8:  Run Mud Solids% 
 DFV .spqt               80.00:  Mud Viscosity 
 MWOD.in                  8.00:  MWD Tool OD 
 MWSI.                     Yes:  Serv Intrp, MWD 
 OTIM.hr                180.00:  Time Operating 
 PCON.           Look Like New:  Pad Condition 
 PMAX.psia             9910.94:  Press Op, Max 
 PV  .cP                 35.00:  Mud PV 
 RUN .                    1000:  Run Number 
 ROPA.m/hr               18.00:  ROP Avg 
 ROPN.m/hr                8.00:  ROP Min 
 ROPX.m/hr               23.00:  ROP Max 
 RPMA.rpm               150.00:  RPM Surface Avg 
 RPMN.rpm               120.00:  RPM Surface Min 
 RPMX.rpm               160.00:  RPM Surface Max 
 RRUN.                    L503:  Rig Run Number 
 RTIM.hr                  5.00:  Time Reaming 
 SAZI.deg               298.42:  Azm, Start 
 SDEP.m                3870.00:  Start Depth 
 SIDD.                      No:  Serv Intrp, DD 
 SINC.deg                69.57:  Inc, Start 
 SPPA.psig             5500.00:  SPP Avg 
 SPPN.psig             4400.00:  SPP Min 
 SPPX.psig             5800.00:  SPP Max 
 STIM.      15.29.39 09-Sep-21:  Start Time 
 SVCS.                 DD, MWD:  Services 
 SVER.                    9.20:  Sperry Version 
 TDAT.m                5260.00:  Tot Depth Attmp 
 TDDF.                      No:  Trip for DD 
 TDLG.m                1390.00:  Tot Depth Loggd 
 TFF .                      No:  Trip for Fail 
 TQAA.f-kp               22.00:  Torque Abs Avg 
 TQAN.f-kp               13.00:  Torque Abs Min 
 TQAX.f-kp               27.00:  Torque Abs Max 
 TRRT.°/30m               1.60:  Turn Rotating 
 MRT .                  EWR-M5:  Maximum Recorded Temperature 
 TTMX.degC               92.00:  Max Tool Temp 
 VS01.                12330975:  Virtual Str1 SN 
 VS02.                90658671:  Virtual Str2 SN 
 VS03.                90658508:  Virtual Str3 SN 
 VS04.                90660974:  Virtual Str4 SN 
 VS05.                90654675:  Virtual Str5 SN 
 WBMN.klb                15.00:  WOB Min 
 WITN.     Alexander Yadullayev:  Customer Rep 
 WITN.           Adil Mammadov:  Customer Rep 2 
 WOBA.klb                17.00:  WOB Avg 
 WOBX.klb                18.00:  WOB Max 
 YP  .lhf2               31.00:  Yield Point 
~Curve Information Block
#MNEM.UNIT                 API CODE     Curve Description
#---------               -----------    ---------------------------
 TIME.HHMMSS            00 000 000 000:  GT Time & Date
 GTDEPTH.m              00 000 000 000:  GT Depth
 GTPQH.psia             00 000 000 000:  GT HR Quartz Pressure
 GTTQ.degC              00 000 000 000:  GT Quartz Temperature
 GTTN.NONE              00 000 000 000:  GT Test Number
 GTET.sec               00 000 000 000:  GT Elapsed Test Time
 GTTVD.m                00 000 000 000:  GT True Vertical Depth
#Other Information
#
#WARRANTY: Halliburton will use its best efforts to furnish customers with 
#accurate information and interpretations that are part of, and incident to, the services 
#provided.  However, Halliburton cannot and does not warrant the accuracy 
#or correctness of such information and interpretations.  Under no circumstances should any 
#such information or interpretation be relied upon as the sole basis for any drilling, 
#completion, production, or financial decision or any procedure involving any risk to the 
#safety of any drilling venture, drilling rig or its crew or any other third party.  The 
#Customer has full responsibility for all drilling, completion and production operation.  
#Halliburton makes no representations or warranties, either expressed or 
#implied, including, but not limited to, the implied warranties of merchantability or fitness 
#for a particular purpose, with respect to the services rendered.  In no event will 
#Halliburton be liable for failure to obtain any particular results or for 
#any damages, including, but not limited to, indirect, special or consequential damages, 
#resulting from the use of any information or interpretation provided by Halliburton.
#
~A           TIME           GTDEPTH  GTPQH  GTTQ  GTTN  GTET   GTTVD  
# ...
   02:38:10.000.17-Sep-2021 5127.50 1067.12 80.36 2.00 345.00 2605.35
   02:38:10.200.17-Sep-2021 5127.50 1067.12 80.36 2.00 345.20 2605.35
   02:38:10.400.17-Sep-2021 5127.50 1026.54 80.35 2.00 345.40 2605.35
   02:38:10.600.17-Sep-2021 5127.50 1018.91 80.35 2.00 345.60 2605.35
   02:38:10.800.17-Sep-2021 5127.50 1020.17 80.35 2.00 345.80 2605.35
   02:38:11.000.17-Sep-2021 5127.50 1021.01 80.34 2.00 346.00 2605.35
   02:38:11.200.17-Sep-2021 5127.50 1021.01 80.34 2.00 346.20 2605.35
   02:38:11.400.17-Sep-2021 5127.50  999.38 80.34 2.00 346.40 2605.35
   02:38:11.600.17-Sep-2021 5127.50  996.97 80.34 2.00 346.60 2605.35
   02:38:11.800.17-Sep-2021 5127.50 1003.02 80.34 2.00 346.80 2605.35
   02:38:12.000.17-Sep-2021 5127.50 1009.50 80.33 2.00 347.00 2605.35
   02:38:12.200.17-Sep-2021 5127.50 1009.50 80.33 2.00 347.20 2605.35
   02:38:12.400.17-Sep-2021 5127.50  952.39 80.33 2.00 347.40 2605.35
   02:38:12.600.17-Sep-2021 5127.50  919.69 80.33 2.00 347.60 2605.35
   02:38:12.800.17-Sep-2021 5127.50  899.82 80.33 2.00 347.80 2605.35
   02:38:13.000.17-Sep-2021 5127.50  905.84 80.32 2.00 348.00 2605.35
   02:38:13.200.17-Sep-2021 5127.50  905.84 80.32 2.00 348.20 2605.35
   02:38:13.400.17-Sep-2021 5127.50  877.77 80.32 2.00 348.40 2605.35
   02:38:13.600.17-Sep-2021 5127.50  852.60 80.32 2.00 348.60 2605.35
   02:38:13.800.17-Sep-2021 5127.50  844.23 80.32 2.00 348.80 2605.35
   02:38:14.000.17-Sep-2021 5127.50  822.25 80.32 2.00 349.00 2605.35
   02:38:14.200.17-Sep-2021 5127.50  822.25 80.32 2.00 349.20 2605.35
   02:38:14.400.17-Sep-2021 5127.50  775.32 80.31 2.00 349.40 2605.35
   02:38:14.600.17-Sep-2021 5127.50  771.44 80.31 2.00 349.60 2605.35
   02:38:14.800.17-Sep-2021 5127.50  752.82 80.31 2.00 349.80 2605.35
   02:38:15.000.17-Sep-2021 5127.50  742.82 80.31 2.00 350.00 2605.35
   02:38:15.200.17-Sep-2021 5127.50  742.82 80.31 2.00 350.20 2605.35
   02:38:15.400.17-Sep-2021 5127.50  720.88 80.31 2.00 350.40 2605.35
   02:38:15.600.17-Sep-2021 5127.50  690.61 80.31 2.00 350.60 2605.35
   02:38:15.800.17-Sep-2021 5127.50  676.42 80.31 2.00 350.80 2605.35
   02:38:16.000.17-Sep-2021 5127.50  663.47 80.30 2.00 351.00 2605.35
   02:38:16.200.17-Sep-2021 5127.50  663.47 80.30 2.00 351.20 2605.35
   02:38:16.400.17-Sep-2021 5127.50  642.42 80.30 2.00 351.40 2605.35
   02:38:16.600.17-Sep-2021 5127.50  639.83 80.30 2.00 351.60 2605.35
   02:38:16.800.17-Sep-2021 5127.50  630.03 80.30 2.00 351.80 2605.35
   02:38:17.000.17-Sep-2021 5127.50  621.53 80.30 2.00 352.00 2605.35
   02:38:17.200.17-Sep-2021 5127.50  621.53 80.30 2.00 352.20 2605.35
   02:38:17.400.17-Sep-2021 5127.50  575.19 80.30 2.00 352.40 2605.35
   02:38:17.600.17-Sep-2021 5127.50  516.32 80.30 2.00 352.60 2605.35
   02:38:17.800.17-Sep-2021 5127.50  442.55 80.30 2.00 352.80 2605.35
   02:38:18.000.17-Sep-2021 5127.50  359.69 80.30 2.00 353.00 2605.35
   02:38:18.200.17-Sep-2021 5127.50  359.69 80.30 2.00 353.20 2605.35
   02:38:18.400.17-Sep-2021 5127.50  281.31 80.30 2.00 353.40 2605.35
   02:38:18.600.17-Sep-2021 5127.50  295.70 80.30 2.00 353.60 2605.35
   02:38:18.800.17-Sep-2021 5127.50  305.71 80.29 2.00 353.80 2605.35
   02:38:19.000.17-Sep-2021 5127.50  313.00 80.29 2.00 354.00 2605.35
   02:38:19.200.17-Sep-2021 5127.50  313.00 80.29 2.00 354.20 2605.35
   02:38:19.400.17-Sep-2021 5127.50  325.25 80.29 2.00 354.40 2605.35
   02:38:19.600.17-Sep-2021 5127.50  330.38 80.29 2.00 354.60 2605.35
   02:38:19.800.17-Sep-2021 5127.50  335.08 80.29 2.00 354.80 2605.35
   02:38:20.000.17-Sep-2021 5127.50  339.35 80.29 2.00 355.00 2605.35
   02:38:20.200.17-Sep-2021 5127.50  339.35 80.29 2.00 355.20 2605.35
   02:38:20.400.17-Sep-2021 5127.50  346.95 80.29 2.00 355.40 2605.35
   02:38:20.600.17-Sep-2021 5127.50  350.51 80.29 2.00 355.60 2605.35
   02:38:20.800.17-Sep-2021 5127.50  354.59 80.29 2.00 355.80 2605.35
   02:38:21.000.17-Sep-2021 5127.50  359.23 80.29 2.00 356.00 2605.35
   02:38:21.200.17-Sep-2021 5127.50  359.23 80.29 2.00 356.20 2605.35
   02:38:21.400.17-Sep-2021 5127.50  365.92 80.29 2.00 356.40 2605.35
   02:38:21.600.17-Sep-2021 5127.50  368.76 80.29 2.00 356.60 2605.35
   02:38:21.800.17-Sep-2021 5127.50  371.48 80.29 2.00 356.80 2605.35
   02:38:22.000.17-Sep-2021 5127.50  374.07 80.29 2.00 357.00 2605.35
   02:38:22.200.17-Sep-2021 5127.50  374.07 80.29 2.00 357.20 2605.35
   02:38:22.400.17-Sep-2021 5127.50  378.98 80.29 2.00 357.40 2605.35
   02:38:22.600.17-Sep-2021 5127.50  381.27 80.29 2.00 357.60 2605.35
   02:38:22.800.17-Sep-2021 5127.50  383.48 80.29 2.00 357.80 2605.35
   02:38:23.000.17-Sep-2021 5127.50  385.65 80.29 2.00 358.00 2605.35
   02:38:23.200.17-Sep-2021 5127.50  385.65 80.29 2.00 358.20 2605.35
   02:38:23.400.17-Sep-2021 5127.50  389.88 80.29 2.00 358.40 2605.35
   02:38:23.600.17-Sep-2021 5127.50  391.95 80.29 2.00 358.60 2605.35
   02:38:23.800.17-Sep-2021 5127.50  393.98 80.29 2.00 358.80 2605.35
   02:38:24.000.17-Sep-2021 5127.50  396.38 80.29 2.00 359.00 2605.35
   02:38:24.200.17-Sep-2021 5127.50  396.38 80.29 2.00 359.20 2605.35
   02:38:24.400.17-Sep-2021 5127.50  401.22 80.29 2.00 359.40 2605.35
   02:38:24.600.17-Sep-2021 5127.50  403.22 80.29 2.00 359.60 2605.35
   02:38:24.800.17-Sep-2021 5127.50  405.38 80.29 2.00 359.80 2605.35
   02:38:25.000.17-Sep-2021 5127.50  407.57 80.29 2.00 360.00 2605.35
   02:38:25.200.17-Sep-2021 5127.50  407.57 80.29 2.00 360.20 2605.35
   02:38:25.400.17-Sep-2021 5127.50  411.40 80.29 2.00 360.40 2605.35
   02:38:25.600.17-Sep-2021 5127.50  413.14 80.29 2.00 360.60 2605.35
   02:38:25.800.17-Sep-2021 5127.50  414.80 80.29 2.00 360.80 2605.35
   02:38:26.000.17-Sep-2021 5127.50  416.67 80.29 2.00 361.00 2605.35
   02:38:26.200.17-Sep-2021 5127.50  416.67 80.29 2.00 361.20 2605.35
   02:38:26.400.17-Sep-2021 5127.50  420.45 80.29 2.00 361.40 2605.35
   02:38:26.600.17-Sep-2021 5127.50  422.11 80.29 2.00 361.60 2605.35
   02:38:26.800.17-Sep-2021 5127.50  423.70 80.29 2.00 361.80 2605.35
   02:38:27.000.17-Sep-2021 5127.50  425.23 80.29 2.00 362.00 2605.35
   02:38:27.200.17-Sep-2021 5127.50  425.23 80.29 2.00 362.20 2605.35
   02:38:27.400.17-Sep-2021 5127.50  428.37 80.29 2.00 362.40 2605.35
   02:38:27.600.17-Sep-2021 5127.50  430.07 80.29 2.00 362.60 2605.35
   02:38:27.800.17-Sep-2021 5127.50  431.59 80.29 2.00 362.80 2605.35
   02:38:28.000.17-Sep-2021 5127.50  433.07 80.29 2.00 363.00 2605.35
   02:38:28.200.17-Sep-2021 5127.50  433.07 80.29 2.00 363.20 2605.35
   02:38:28.400.17-Sep-2021 5127.50  435.81 80.29 2.00 363.40 2605.35
   02:38:28.600.17-Sep-2021 5127.50  437.11 80.29 2.00 363.60 2605.35
   02:38:28.800.17-Sep-2021 5127.50  438.36 80.29 2.00 363.80 2605.35
   02:38:29.000.17-Sep-2021 5127.50  439.58 80.29 2.00 364.00 2605.35
   02:38:29.200.17-Sep-2021 5127.50  439.58 80.29 2.00 364.20 2605.35
   02:38:29.400.17-Sep-2021 5127.50  441.95 80.29 2.00 364.40 2605.35
   02:38:29.600.17-Sep-2021 5127.50  443.11 80.29 2.00 364.60 2605.35
   02:38:29.800.17-Sep-2021 5127.50  444.25 80.29 2.00 364.80 2605.35
   02:38:30.000.17-Sep-2021 5127.50  445.38 80.29 2.00 365.00 2605.35
   02:38:30.200.17-Sep-2021 5127.50  445.38 80.29 2.00 365.20 2605.35
   02:38:30.400.17-Sep-2021 5127.50  447.74 80.29 2.00 365.40 2605.35
   02:38:30.600.17-Sep-2021 5127.50  449.04 80.29 2.00 365.60 2605.35
   02:38:30.800.17-Sep-2021 5127.50  450.36 80.29 2.00 365.80 2605.35
   02:38:31.000.17-Sep-2021 5127.50  451.57 80.29 2.00 366.00 2605.35
   02:38:31.200.17-Sep-2021 5127.50  451.57 80.29 2.00 366.20 2605.35
   02:38:31.400.17-Sep-2021 5127.50  453.81 80.29 2.00 366.40 2605.35
   02:38:31.600.17-Sep-2021 5127.50  454.86 80.29 2.00 366.60 2605.35
   02:38:31.800.17-Sep-2021 5127.50  455.88 80.29 2.00 366.80 2605.35
   02:38:32.000.17-Sep-2021 5127.50  456.87 80.29 2.00 367.00 2605.35
   02:38:32.200.17-Sep-2021 5127.50  456.87 80.29 2.00 367.20 2605.35
   02:38:32.400.17-Sep-2021 5127.50  458.79 80.30 2.00 367.40 2605.35
   02:38:32.600.17-Sep-2021 5127.50  459.74 80.30 2.00 367.60 2605.35
   02:38:32.800.17-Sep-2021 5127.50  460.68 80.30 2.00 367.80 2605.35
