~Version Information
 VERS.                  2.0:   CWLS log ASCII Standard -VERSION 2.0
 WRAP.                   NO:   One line per depth step
~Well Information Block
#MNEM.UNIT     VALUE/NAME     DESCRIPTION
#---------     -----------    ---------------------------
 STRT.S             04:34:50 17-Sep-21: START TIME 04:34:50 17-Sep-21
 STOP.S             04:43:20 17-Sep-21: STOP TIME  04:43:20 17-Sep-21
 STEP.S                   0.00: STEP TIME
 NULL.                 -999.25: NULL VALUE
 DFWT.                        :  DIST FWL TEXT
 DFST.                        :  DIST FSL TEXT
 DMF .             Drill Floor:  DRILL MEAS FROM
 STIM.      10.59.12 05-Jul-21:  START TIME
 DATE.      10.59.12 10-Sep-21:  END TIME
 SPUD.               05-Jul-21:  SPUD DATE
 NREF.                    Grid:  NORTH REFERENCE
 HPTY.       Minimum Curvature:  HOLE POS TYPE
 DMOD.             Drill Model:  DRILL MOD DESC
 SVYD.                  Survey:  SURVEY DESC
 ILTD.               Lithology:  INTERP LTH DESC
 FTOP.          Formation Tops:  FORM TOPS DESC
 RIG .                     DWG:  RIG NAME
 PDAT.          Mean Sea Level:  PERMANENT DATUM
 FLD .                     ACG:  FIELD NAME
 SON .        AZ-XX-0907115008:  JOB NUMBER
 CTRY.              Azerbaijan:  COUNTRY NAME
 WELL.                    E35A:  WELL NAME
 SRVC.          TURAN DRILLING:  CONTRACTOR
 COMP.     BP Exploration (Caspian Sea LTD):  COMPANY
 UWI .                     N/A:  UNIQUE WELL IDENTIFIER
 API .                     N/A:  API NUMBER
 MDS .        Operator Entered:  MAG DATA SOURCE
 BASE.              Azerbaijan:  LOGGING EQUIPMENT BASE LOCATION
 REGN.                   EESSA:  REGION
 PROV.                    Baku:  PROVINCE
 STAT.                    Baku:  STATE NAME
 MWDS.                    Baku:  MWD SHOP
 JOBN.        AZ-XX-0907115008:  JOB TICKET NUMB
 DOE .                     N/A:  DOE NUMBER
 DCON.         Sperry Drilling:  DIRECTNL CONTR
 UNIT.                     N/A:  LOGGING EQUIPMENT ID
 WTYP.                Deviated:  WELL TYPE
 CNTY.                        :  COUNTY
 LOC .                        :  LOCATION
 LMF .             Drill Floor:  LOG MEASURED FROM
 TVDS.m                  43.16:  TVDSS CORRECTN
 LATI.deg                40.17:  LATITUDE
 LONG.deg                51.17:  LONGITUDE
 WHNS.m                  10.51:  WELL HEAD N/S
 WHEW.m                 -14.82:  WELL HEAD E/W
 UTMX.m              514336.92:  UTM X
 UTMY.m             4448618.56:  UTM Y
 DFWL.m                   0.00:  DISTANCE FWL
 DFSL.m                   0.00:  DISTANCE FSL
 SDEP.m                 849.00:  START DEPTH
 TDD .m                2862.00:  TOTAL DEPTH (DRILLER)
 VSDR.deg               292.10:  VERT SEC DIRECT
 GVFD.g                   1.00:  GRAVITY FIELD
 MFLD.nT              50382.00:  MAGNETIC FIELD
 MDIP.deg                59.68:  MAGNETIC DIP
 MDEC.deg                 6.66:  MAGNETIC DECL
 GRDC.deg                 0.09:  GRID CORRECTION
 AZTC.deg                 6.57:  AZM TOTAL CORR
 EPD .m                   0.00:  ELEVATION
 EGL .m                   0.00:  GROUND ELEVATION
 WDMS.m                 176.20:  WD ELEV
 APD .m                  43.16:  DEPTH ABOVE PD
 DEP .m                 363.42:  DEPTH
 AGAP.m                  43.16:  AIR GAP
 VSEW.m                 -14.82:  VERT SEC E/W
 VSNS.m                  10.51:  VERT SEC N/S
 EKB .m                  43.16:  KB ELEVATION
 EDF .m                  43.16:  DF ELEVATION
 TDL .m                1390.00:  TOTAL DEPTH (LOGGER)
 VSC .                       0:  VS TO CLOSURE
 MAGU.                 1855871:  MAGUTM CHECKSUM
~Parameter Information Block
#MNEM.UNIT       Value        Description
#---------     -----------    ---------------------------
 AV  .mps                 2.28:  Ann Velocity 
 AVMX.mps                 2.67:  Max Ann Veloc 
 AZIF.deg               305.00:  Azm, Final 
 BHAT.        Rotary Steerable:  BHA Type 
 BROT.°/30m               0.45:  Build Rotating 
 BS  .in                 12.25:  Bit Size 
 BSZ .in                 12.25:  Bit Size 
 BTPL.psig              600.00:  Bit Press Loss 
 CABU.                     Yes:  Customer Abuse 
 COMM.                     ÌN:  Run Comments 1 
 TCS .hr                150.00:  Time Ciculation Ended 
 CV  .mps                 1.24:  Crit Velocity 
 CVMX.mps                 1.66:  Max Crit Veloc 
 DD1 .         Intigam Rahimov:  Direct Drillr 1 
 DD2 .            Azer Ravavov:  Direct Drillr 2 
 DD3 .              Samir Abas:  Direct Drillr 3 
 DDSV.               Geo-Pilot:  DD Service 
 DEFF.%                 100.00:  % Det Eff 
 DLRX.°/30m               1.57:  Dogleg Rot Max 
 DLSO.°/30m               0.00:  Dogleg Oriented 
 DLSX.°/30m               0.00:  Dogleg Str Max 
 DRET.      20.28.06 17-Sep-21:  Drill End Time 
 DRST.      20.27.35 10-Sep-21:  Drill Start Tim 
 DTIM.hr                 54.00:  Time Drilling 
 EDEP.m                5260.00:  End Depth 
 ENG1.      Bakhtiyar Jabbarli:  Engineer 1 
 ENG2.      Natik Hasanaghayev:  Engineer 2 
 ENG3.           Royal Nasirov:  Engineer 3 
 ETIM.      20.27.55 18-Sep-21:  End Time 
 FLOI.gpm              1100.00:  Flow In 
 FLON.gpm               800.00:  Flow In Min 
 FLOS.cptm                0.00:  Fluid Loss 
 FLOX.gpm              1200.00:  Flow In Max 
 DFT .        Mineral Oil Base:  Mud Type 
 HPRE.                      No:  High Pressure 
 HTEM.                      No:  High Temp 
 HYDO.m                   1.80:  Hydro Offset 
 IFIN.deg                72.31:  Inc, Final 
 IMAX.deg                72.36:  Inc Max 
 IMIN.deg                69.36:  Inc Min 
 IMND.m                4192.96:  Inc Min Depth 
 IMXD.m                5128.36:  Inc Max Depth 
 JARR.                      No:  Jarring 
 LETM.      20.29.00 17-Sep-21:  Log End Time 
 LOST.hr                     0:  Lost Rig Time 
 LSTM.      20.27.00 10-Sep-21:  Log Start Time 
 MDCL.ppm            227000.00:  Mud Chlorides 
 MDES.     Inversion Oil/Synthetic:  Mud Desc 
 DFD .sg                  1.45:  Mud Density 
 MDMN.sg                  1.45:  Dens Mud Min 
 MDMX.sg                  1.45:  Dens Mud Max 
 MOIL.                    70.5:  Run Mud Oil % 
 MOWR.                   71:29:  Run Mud OWR 
 MSND.                     0.3:  Run Mud Sand % 
 MSOL.                    19.8:  Run Mud Solids% 
 DFV .spqt               80.00:  Mud Viscosity 
 MWOD.in                  8.00:  MWD Tool OD 
 MWSI.                     Yes:  Serv Intrp, MWD 
 OTIM.hr                180.00:  Time Operating 
 PCON.           Look Like New:  Pad Condition 
 PMAX.psia             9910.94:  Press Op, Max 
 PV  .cP                 35.00:  Mud PV 
 RUN .                    1000:  Run Number 
 ROPA.m/hr               18.00:  ROP Avg 
 ROPN.m/hr                8.00:  ROP Min 
 ROPX.m/hr               23.00:  ROP Max 
 RPMA.rpm               150.00:  RPM Surface Avg 
 RPMN.rpm               120.00:  RPM Surface Min 
 RPMX.rpm               160.00:  RPM Surface Max 
 RRUN.                    L503:  Rig Run Number 
 RTIM.hr                  5.00:  Time Reaming 
 SAZI.deg               298.42:  Azm, Start 
 SDEP.m                3870.00:  Start Depth 
 SIDD.                      No:  Serv Intrp, DD 
 SINC.deg                69.57:  Inc, Start 
 SPPA.psig             5500.00:  SPP Avg 
 SPPN.psig             4400.00:  SPP Min 
 SPPX.psig             5800.00:  SPP Max 
 STIM.      15.29.39 09-Sep-21:  Start Time 
 SVCS.                 DD, MWD:  Services 
 SVER.                    9.20:  Sperry Version 
 TDAT.m                5260.00:  Tot Depth Attmp 
 TDDF.                      No:  Trip for DD 
 TDLG.m                1390.00:  Tot Depth Loggd 
 TFF .                      No:  Trip for Fail 
 TQAA.f-kp               22.00:  Torque Abs Avg 
 TQAN.f-kp               13.00:  Torque Abs Min 
 TQAX.f-kp               27.00:  Torque Abs Max 
 TRRT.°/30m               1.60:  Turn Rotating 
 MRT .                  EWR-M5:  Maximum Recorded Temperature 
 TTMX.degC               92.00:  Max Tool Temp 
 VS01.                12330975:  Virtual Str1 SN 
 VS02.                90658671:  Virtual Str2 SN 
 VS03.                90658508:  Virtual Str3 SN 
 VS04.                90660974:  Virtual Str4 SN 
 VS05.                90654675:  Virtual Str5 SN 
 WBMN.klb                15.00:  WOB Min 
 WITN.     Alexander Yadullayev:  Customer Rep 
 WITN.           Adil Mammadov:  Customer Rep 2 
 WOBA.klb                17.00:  WOB Avg 
 WOBX.klb                18.00:  WOB Max 
 YP  .lhf2               31.00:  Yield Point 
~Curve Information Block
#MNEM.UNIT                 API CODE     Curve Description
#---------               -----------    ---------------------------
 TIME.HHMMSS            00 000 000 000:  GT Time & Date
 GTDEPTH.m              00 000 000 000:  GT Depth
 GTPQH.psia             00 000 000 000:  GT HR Quartz Pressure
 GTTQ.degC              00 000 000 000:  GT Quartz Temperature
 GTTN.NONE              00 000 000 000:  GT Test Number
 GTET.sec               00 000 000 000:  GT Elapsed Test Time
 GTTVD.m                00 000 000 000:  GT True Vertical Depth
#Other Information
#
#WARRANTY: Halliburton will use its best efforts to furnish customers with 
#accurate information and interpretations that are part of, and incident to, the services 
#provided.  However, Halliburton cannot and does not warrant the accuracy 
#or correctness of such information and interpretations.  Under no circumstances should any 
#such information or interpretation be relied upon as the sole basis for any drilling, 
#completion, production, or financial decision or any procedure involving any risk to the 
#safety of any drilling venture, drilling rig or its crew or any other third party.  The 
#Customer has full responsibility for all drilling, completion and production operation.  
#Halliburton makes no representations or warranties, either expressed or 
#implied, including, but not limited to, the implied warranties of merchantability or fitness 
#for a particular purpose, with respect to the services rendered.  In no event will 
#Halliburton be liable for failure to obtain any particular results or for 
#any damages, including, but not limited to, indirect, special or consequential damages, 
#resulting from the use of any information or interpretation provided by Halliburton.
#
~A           TIME           GTDEPTH  GTPQH  GTTQ  GTTN  GTET   GTTVD  
# ...
   04:37:31.197.17-Sep-2021 5094.00 5576.67 80.48 4.00 161.17 2595.14
   04:37:31.397.17-Sep-2021 5094.00 5576.67 80.48 4.00 161.37 2595.14
   04:37:31.597.17-Sep-2021 5094.00 5575.47 80.48 4.00 161.57 2595.14
   04:37:31.797.17-Sep-2021 5094.00 5575.38 80.48 4.00 161.77 2595.14
   04:37:31.998.17-Sep-2021 5094.00 5574.50 80.48 4.00 161.97 2595.14
   04:37:32.198.17-Sep-2021 5094.00 5574.67 80.48 4.00 162.17 2595.14
   04:37:32.398.17-Sep-2021 5094.00 5574.67 80.48 4.00 162.37 2595.14
   04:37:32.598.17-Sep-2021 5094.00 5574.20 80.47 4.00 162.58 2595.14
   04:37:32.799.17-Sep-2021 5094.00 5574.40 80.47 4.00 162.78 2595.14
   04:37:32.999.17-Sep-2021 5094.00 5574.46 80.47 4.00 162.98 2595.14
   04:37:33.199.17-Sep-2021 5094.00 5574.81 80.47 4.00 163.18 2595.14
   04:37:33.399.17-Sep-2021 5094.00 5574.81 80.47 4.00 163.38 2595.14
   04:37:33.599.17-Sep-2021 5094.00 5574.68 80.47 4.00 163.58 2595.14
   04:37:33.800.17-Sep-2021 5094.00 5574.73 80.47 4.00 163.78 2595.14
   04:37:34.000.17-Sep-2021 5094.00 5575.12 80.47 4.00 163.98 2595.14
   04:37:34.200.17-Sep-2021 5094.00 5577.30 80.47 4.00 164.18 2595.14
   04:37:34.400.17-Sep-2021 5094.00 5577.30 80.47 4.00 164.38 2595.14
   04:37:34.600.17-Sep-2021 5094.00 5576.61 80.47 4.00 164.58 2595.14
   04:37:34.801.17-Sep-2021 5094.00 5574.99 80.47 4.00 164.78 2595.14
   04:37:35.001.17-Sep-2021 5094.00 5574.79 80.47 4.00 164.98 2595.14
   04:37:35.201.17-Sep-2021 5094.00 5574.73 80.47 4.00 165.18 2595.14
   04:37:35.401.17-Sep-2021 5094.00 5574.73 80.47 4.00 165.38 2595.14
   04:37:35.602.17-Sep-2021 5094.00 5574.18 80.47 4.00 165.58 2595.14
   04:37:35.802.17-Sep-2021 5094.00 5573.99 80.47 4.00 165.78 2595.14
   04:37:36.002.17-Sep-2021 5094.00 5574.29 80.47 4.00 165.98 2595.14
   04:37:36.202.17-Sep-2021 5094.00 5574.29 80.47 4.00 166.18 2595.14
   04:37:36.402.17-Sep-2021 5094.00 5574.29 80.47 4.00 166.38 2595.14
   04:37:36.603.17-Sep-2021 5094.00 5574.57 80.47 4.00 166.58 2595.14
   04:37:36.803.17-Sep-2021 5094.00 5574.62 80.47 4.00 166.78 2595.14
   04:37:37.003.17-Sep-2021 5094.00 5574.74 80.47 4.00 166.98 2595.14
   04:37:37.203.17-Sep-2021 5094.00 5574.93 80.47 4.00 167.18 2595.14
   04:37:37.403.17-Sep-2021 5094.00 5574.93 80.47 4.00 167.38 2595.14
   04:37:37.604.17-Sep-2021 5094.00 5575.42 80.47 4.00 167.58 2595.14
   04:37:37.804.17-Sep-2021 5094.00 5576.49 80.47 4.00 167.78 2595.14
   04:37:38.004.17-Sep-2021 5094.00 5575.94 80.46 4.00 167.98 2595.14
   04:37:38.204.17-Sep-2021 5094.00 5575.74 80.46 4.00 168.18 2595.14
   04:37:38.405.17-Sep-2021 5094.00 5575.74 80.46 4.00 168.38 2595.14
   04:37:38.605.17-Sep-2021 5094.00 5574.47 80.46 4.00 168.58 2595.14
   04:37:38.805.17-Sep-2021 5094.00 5576.70 80.46 4.00 168.78 2595.14
   04:37:39.005.17-Sep-2021 5094.00 5573.19 80.46 4.00 168.98 2595.14
   04:37:39.205.17-Sep-2021 5094.00 5575.26 80.46 4.00 169.18 2595.14
   04:37:39.406.17-Sep-2021 5094.00 5575.26 80.46 4.00 169.38 2595.14
   04:37:39.606.17-Sep-2021 5094.00 5574.11 80.46 4.00 169.58 2595.14
   04:37:39.806.17-Sep-2021 5094.00 5574.31 80.46 4.00 169.78 2595.14
   04:37:40.006.17-Sep-2021 5094.00 5574.36 80.46 4.00 169.98 2595.14
   04:37:40.207.17-Sep-2021 5094.00 5575.47 80.46 4.00 170.18 2595.14
   04:37:40.407.17-Sep-2021 5094.00 5575.47 80.46 4.00 170.38 2595.14
   04:37:40.607.17-Sep-2021 5094.00 5575.30 80.46 4.00 170.58 2595.14
   04:37:40.807.17-Sep-2021 5094.00 5574.67 80.46 4.00 170.78 2595.14
   04:37:41.007.17-Sep-2021 5094.00 5576.59 80.46 4.00 170.98 2595.14
   04:37:41.208.17-Sep-2021 5094.00 5574.22 80.46 4.00 171.18 2595.14
   04:37:41.408.17-Sep-2021 5094.00 5574.22 80.46 4.00 171.38 2595.14
   04:37:41.608.17-Sep-2021 5094.00 5574.95 80.46 4.00 171.58 2595.14
   04:37:41.808.17-Sep-2021 5094.00 5574.50 80.46 4.00 171.79 2595.14
   04:37:42.008.17-Sep-2021 5094.00 5574.62 80.46 4.00 171.99 2595.14
   04:37:42.209.17-Sep-2021 5094.00 5574.48 80.46 4.00 172.19 2595.14
   04:37:42.409.17-Sep-2021 5094.00 5574.48 80.46 4.00 172.39 2595.14
   04:37:42.609.17-Sep-2021 5094.00 5573.90 80.46 4.00 172.59 2595.14
   04:37:42.809.17-Sep-2021 5094.00 5574.05 80.46 4.00 172.79 2595.14
   04:37:43.010.17-Sep-2021 5094.00 5574.33 80.46 4.00 172.99 2595.14
   04:37:43.210.17-Sep-2021 5094.00 5574.61 80.46 4.00 173.19 2595.14
   04:37:43.410.17-Sep-2021 5094.00 5574.61 80.46 4.00 173.39 2595.14
   04:37:43.610.17-Sep-2021 5094.00 5574.62 80.45 4.00 173.59 2595.14
   04:37:43.810.17-Sep-2021 5094.00 5574.82 80.45 4.00 173.79 2595.14
   04:37:44.011.17-Sep-2021 5094.00 5577.09 80.45 4.00 173.99 2595.14
   04:37:44.211.17-Sep-2021 5094.00 5574.73 80.45 4.00 174.19 2595.14
   04:37:44.411.17-Sep-2021 5094.00 5574.73 80.45 4.00 174.39 2595.14
   04:37:44.611.17-Sep-2021 5094.00 5574.74 80.45 4.00 174.59 2595.14
   04:37:44.811.17-Sep-2021 5094.00 5574.91 80.45 4.00 174.79 2595.14
   04:37:45.012.17-Sep-2021 5094.00 5574.81 80.45 4.00 174.99 2595.14
   04:37:45.212.17-Sep-2021 5094.00 5574.40 80.45 4.00 175.19 2595.14
   04:37:45.412.17-Sep-2021 5094.00 5574.40 80.45 4.00 175.39 2595.14
   04:37:45.612.17-Sep-2021 5094.00 5573.93 80.45 4.00 175.59 2595.14
   04:37:45.813.17-Sep-2021 5094.00 5574.08 80.45 4.00 175.79 2595.14
   04:37:46.013.17-Sep-2021 5094.00 5573.86 80.45 4.00 175.99 2595.14
   04:37:46.213.17-Sep-2021 5094.00 5574.21 80.45 4.00 176.19 2595.14
   04:37:46.413.17-Sep-2021 5094.00 5574.21 80.45 4.00 176.39 2595.14
   04:37:46.613.17-Sep-2021 5094.00 5574.32 80.45 4.00 176.59 2595.14
   04:37:46.814.17-Sep-2021 5094.00 5574.56 80.45 4.00 176.79 2595.14
   04:37:47.014.17-Sep-2021 5094.00 5574.64 80.45 4.00 176.99 2595.14
   04:37:47.214.17-Sep-2021 5094.00 5574.88 80.45 4.00 177.19 2595.14
   04:37:47.414.17-Sep-2021 5094.00 5574.88 80.45 4.00 177.39 2595.14
   04:37:47.614.17-Sep-2021 5094.00 5576.27 80.45 4.00 177.59 2595.14
   04:37:47.815.17-Sep-2021 5094.00 5575.72 80.45 4.00 177.79 2595.14
   04:37:48.015.17-Sep-2021 5094.00 5575.53 80.45 4.00 177.99 2595.14
   04:37:48.215.17-Sep-2021 5094.00 5574.96 80.45 4.00 178.19 2595.14
   04:37:48.415.17-Sep-2021 5094.00 5574.96 80.45 4.00 178.39 2595.14
   04:37:48.616.17-Sep-2021 5094.00 5576.79 80.45 4.00 178.59 2595.14
   04:37:48.816.17-Sep-2021 5094.00 5573.23 80.44 4.00 178.79 2595.14
   04:37:49.016.17-Sep-2021 5094.00 5575.19 80.44 4.00 178.99 2595.14
   04:37:49.216.17-Sep-2021 5094.00 5573.71 80.44 4.00 179.19 2595.14
   04:37:49.416.17-Sep-2021 5094.00 5573.71 80.44 4.00 179.39 2595.14
   04:37:49.617.17-Sep-2021 5094.00 5573.96 80.44 4.00 179.59 2595.14
   04:37:49.817.17-Sep-2021 5094.00 5574.13 80.44 4.00 179.79 2595.14
   04:37:50.017.17-Sep-2021 5094.00 5575.16 80.44 4.00 179.99 2595.14
   04:37:50.217.17-Sep-2021 5094.00 5574.35 80.44 4.00 180.19 2595.14
   04:37:50.418.17-Sep-2021 5094.00 5574.35 80.44 4.00 180.39 2595.14
   04:37:50.618.17-Sep-2021 5094.00 5574.61 80.44 4.00 180.59 2595.14
   04:37:50.818.17-Sep-2021 5094.00 5576.71 80.44 4.00 180.79 2595.14
   04:37:51.018.17-Sep-2021 5094.00 5574.14 80.44 4.00 180.99 2595.14
   04:37:51.218.17-Sep-2021 5094.00 5575.20 80.44 4.00 181.20 2595.14
   04:37:51.419.17-Sep-2021 5094.00 5575.20 80.44 4.00 181.40 2595.14
   04:37:51.619.17-Sep-2021 5094.00 5574.25 80.44 4.00 181.60 2595.14
   04:37:51.819.17-Sep-2021 5094.00 5574.17 80.44 4.00 181.80 2595.14
   04:37:52.019.17-Sep-2021 5094.00 5574.09 80.44 4.00 182.00 2595.14
   04:37:52.219.17-Sep-2021 5094.00 5573.90 80.44 4.00 182.20 2595.14
   04:37:52.420.17-Sep-2021 5094.00 5573.90 80.44 4.00 182.40 2595.14
   04:37:52.620.17-Sep-2021 5094.00 5573.77 80.44 4.00 182.60 2595.14
   04:37:52.820.17-Sep-2021 5094.00 5574.11 80.44 4.00 182.80 2595.14
   04:37:53.020.17-Sep-2021 5094.00 5574.25 80.44 4.00 183.00 2595.14
   04:37:53.221.17-Sep-2021 5094.00 5574.47 80.44 4.00 183.20 2595.14
   04:37:53.421.17-Sep-2021 5094.00 5574.47 80.44 4.00 183.40 2595.14
   04:37:53.621.17-Sep-2021 5094.00 5574.58 80.44 4.00 183.60 2595.14
   04:37:53.821.17-Sep-2021 5094.00 5576.74 80.44 4.00 183.80 2595.14
   04:37:54.021.17-Sep-2021 5094.00 5574.45 80.44 4.00 184.00 2595.14
