~Version Information
 VERS.                  2.0:   CWLS log ASCII Standard -VERSION 2.0
 WRAP.                   NO:   One line per depth step
~Well Information Block
#MNEM.UNIT     VALUE/NAME     DESCRIPTION
#---------     -----------    ---------------------------
 STRT.S             01:51:55 17-Sep-21: START TIME 01:51:55 17-Sep-21
 STOP.S             02:00:37 17-Sep-21: STOP TIME  02:00:37 17-Sep-21
 STEP.S                   0.00: STEP TIME
 NULL.                 -999.25: NULL VALUE
 DFWT.                        :  DIST FWL TEXT
 DFST.                        :  DIST FSL TEXT
 DMF .             Drill Floor:  DRILL MEAS FROM
 STIM.      10.59.12 05-Jul-21:  START TIME
 DATE.      10.59.12 10-Sep-21:  END TIME
 SPUD.               05-Jul-21:  SPUD DATE
 NREF.                    Grid:  NORTH REFERENCE
 HPTY.       Minimum Curvature:  HOLE POS TYPE
 DMOD.             Drill Model:  DRILL MOD DESC
 SVYD.                  Survey:  SURVEY DESC
 ILTD.               Lithology:  INTERP LTH DESC
 FTOP.          Formation Tops:  FORM TOPS DESC
 RIG .                     DWG:  RIG NAME
 PDAT.          Mean Sea Level:  PERMANENT DATUM
 FLD .                     ACG:  FIELD NAME
 SON .        AZ-XX-0907115008:  JOB NUMBER
 CTRY.              Azerbaijan:  COUNTRY NAME
 WELL.                    E35A:  WELL NAME
 SRVC.          TURAN DRILLING:  CONTRACTOR
 COMP.     BP Exploration (Caspian Sea LTD):  COMPANY
 UWI .                     N/A:  UNIQUE WELL IDENTIFIER
 API .                     N/A:  API NUMBER
 MDS .        Operator Entered:  MAG DATA SOURCE
 BASE.              Azerbaijan:  LOGGING EQUIPMENT BASE LOCATION
 REGN.                   EESSA:  REGION
 PROV.                    Baku:  PROVINCE
 STAT.                    Baku:  STATE NAME
 MWDS.                    Baku:  MWD SHOP
 JOBN.        AZ-XX-0907115008:  JOB TICKET NUMB
 DOE .                     N/A:  DOE NUMBER
 DCON.         Sperry Drilling:  DIRECTNL CONTR
 UNIT.                     N/A:  LOGGING EQUIPMENT ID
 WTYP.                Deviated:  WELL TYPE
 CNTY.                        :  COUNTY
 LOC .                        :  LOCATION
 LMF .             Drill Floor:  LOG MEASURED FROM
 TVDS.m                  43.16:  TVDSS CORRECTN
 LATI.deg                40.17:  LATITUDE
 LONG.deg                51.17:  LONGITUDE
 WHNS.m                  10.51:  WELL HEAD N/S
 WHEW.m                 -14.82:  WELL HEAD E/W
 UTMX.m              514336.92:  UTM X
 UTMY.m             4448618.56:  UTM Y
 DFWL.m                   0.00:  DISTANCE FWL
 DFSL.m                   0.00:  DISTANCE FSL
 SDEP.m                 849.00:  START DEPTH
 TDD .m                2862.00:  TOTAL DEPTH (DRILLER)
 VSDR.deg               292.10:  VERT SEC DIRECT
 GVFD.g                   1.00:  GRAVITY FIELD
 MFLD.nT              50382.00:  MAGNETIC FIELD
 MDIP.deg                59.68:  MAGNETIC DIP
 MDEC.deg                 6.66:  MAGNETIC DECL
 GRDC.deg                 0.09:  GRID CORRECTION
 AZTC.deg                 6.57:  AZM TOTAL CORR
 EPD .m                   0.00:  ELEVATION
 EGL .m                   0.00:  GROUND ELEVATION
 WDMS.m                 176.20:  WD ELEV
 APD .m                  43.16:  DEPTH ABOVE PD
 DEP .m                 363.42:  DEPTH
 AGAP.m                  43.16:  AIR GAP
 VSEW.m                 -14.82:  VERT SEC E/W
 VSNS.m                  10.51:  VERT SEC N/S
 EKB .m                  43.16:  KB ELEVATION
 EDF .m                  43.16:  DF ELEVATION
 TDL .m                1390.00:  TOTAL DEPTH (LOGGER)
 VSC .                       0:  VS TO CLOSURE
 MAGU.                 1855871:  MAGUTM CHECKSUM
~Parameter Information Block
#MNEM.UNIT       Value        Description
#---------     -----------    ---------------------------
 AV  .mps                 2.28:  Ann Velocity 
 AVMX.mps                 2.67:  Max Ann Veloc 
 AZIF.deg               305.00:  Azm, Final 
 BHAT.        Rotary Steerable:  BHA Type 
 BROT.°/30m               0.45:  Build Rotating 
 BS  .in                 12.25:  Bit Size 
 BSZ .in                 12.25:  Bit Size 
 BTPL.psig              600.00:  Bit Press Loss 
 CABU.                     Yes:  Customer Abuse 
 COMM.                     ü¢v:  Run Comments 1 
 TCS .hr                150.00:  Time Ciculation Ended 
 CV  .mps                 1.24:  Crit Velocity 
 CVMX.mps                 1.66:  Max Crit Veloc 
 DD1 .         Intigam Rahimov:  Direct Drillr 1 
 DD2 .            Azer Ravavov:  Direct Drillr 2 
 DD3 .              Samir Abas:  Direct Drillr 3 
 DDSV.               Geo-Pilot:  DD Service 
 DEFF.%                 100.00:  % Det Eff 
 DLRX.°/30m               1.57:  Dogleg Rot Max 
 DLSO.°/30m               0.00:  Dogleg Oriented 
 DLSX.°/30m               0.00:  Dogleg Str Max 
 DRET.      20.28.06 17-Sep-21:  Drill End Time 
 DRST.      20.27.35 10-Sep-21:  Drill Start Tim 
 DTIM.hr                 54.00:  Time Drilling 
 EDEP.m                5260.00:  End Depth 
 ENG1.      Bakhtiyar Jabbarli:  Engineer 1 
 ENG2.      Natik Hasanaghayev:  Engineer 2 
 ENG3.           Royal Nasirov:  Engineer 3 
 ETIM.      20.27.55 18-Sep-21:  End Time 
 FLOI.gpm              1100.00:  Flow In 
 FLON.gpm               800.00:  Flow In Min 
 FLOS.cptm                0.00:  Fluid Loss 
 FLOX.gpm              1200.00:  Flow In Max 
 DFT .        Mineral Oil Base:  Mud Type 
 HPRE.                      No:  High Pressure 
 HTEM.                      No:  High Temp 
 HYDO.m                   1.80:  Hydro Offset 
 IFIN.deg                72.31:  Inc, Final 
 IMAX.deg                72.36:  Inc Max 
 IMIN.deg                69.36:  Inc Min 
 IMND.m                4192.96:  Inc Min Depth 
 IMXD.m                5128.36:  Inc Max Depth 
 JARR.                      No:  Jarring 
 LETM.      20.29.00 17-Sep-21:  Log End Time 
 LOST.hr                     0:  Lost Rig Time 
 LSTM.      20.27.00 10-Sep-21:  Log Start Time 
 MDCL.ppm            227000.00:  Mud Chlorides 
 MDES.     Inversion Oil/Synthetic:  Mud Desc 
 DFD .sg                  1.45:  Mud Density 
 MDMN.sg                  1.45:  Dens Mud Min 
 MDMX.sg                  1.45:  Dens Mud Max 
 MOIL.                    70.5:  Run Mud Oil % 
 MOWR.                   71:29:  Run Mud OWR 
 MSND.                     0.3:  Run Mud Sand % 
 MSOL.                    19.8:  Run Mud Solids% 
 DFV .spqt               80.00:  Mud Viscosity 
 MWOD.in                  8.00:  MWD Tool OD 
 MWSI.                     Yes:  Serv Intrp, MWD 
 OTIM.hr                180.00:  Time Operating 
 PCON.           Look Like New:  Pad Condition 
 PMAX.psia             9910.94:  Press Op, Max 
 PV  .cP                 35.00:  Mud PV 
 RUN .                    1000:  Run Number 
 ROPA.m/hr               18.00:  ROP Avg 
 ROPN.m/hr                8.00:  ROP Min 
 ROPX.m/hr               23.00:  ROP Max 
 RPMA.rpm               150.00:  RPM Surface Avg 
 RPMN.rpm               120.00:  RPM Surface Min 
 RPMX.rpm               160.00:  RPM Surface Max 
 RRUN.                    L503:  Rig Run Number 
 RTIM.hr                  5.00:  Time Reaming 
 SAZI.deg               298.42:  Azm, Start 
 SDEP.m                3870.00:  Start Depth 
 SIDD.                      No:  Serv Intrp, DD 
 SINC.deg                69.57:  Inc, Start 
 SPPA.psig             5500.00:  SPP Avg 
 SPPN.psig             4400.00:  SPP Min 
 SPPX.psig             5800.00:  SPP Max 
 STIM.      15.29.39 09-Sep-21:  Start Time 
 SVCS.                 DD, MWD:  Services 
 SVER.                    9.20:  Sperry Version 
 TDAT.m                5260.00:  Tot Depth Attmp 
 TDDF.                      No:  Trip for DD 
 TDLG.m                1390.00:  Tot Depth Loggd 
 TFF .                      No:  Trip for Fail 
 TQAA.f-kp               22.00:  Torque Abs Avg 
 TQAN.f-kp               13.00:  Torque Abs Min 
 TQAX.f-kp               27.00:  Torque Abs Max 
 TRRT.°/30m               1.60:  Turn Rotating 
 MRT .                  EWR-M5:  Maximum Recorded Temperature 
 TTMX.degC               92.00:  Max Tool Temp 
 VS01.                12330975:  Virtual Str1 SN 
 VS02.                90658671:  Virtual Str2 SN 
 VS03.                90658508:  Virtual Str3 SN 
 VS04.                90660974:  Virtual Str4 SN 
 VS05.                90654675:  Virtual Str5 SN 
 WBMN.klb                15.00:  WOB Min 
 WITN.     Alexander Yadullayev:  Customer Rep 
 WITN.           Adil Mammadov:  Customer Rep 2 
 WOBA.klb                17.00:  WOB Avg 
 WOBX.klb                18.00:  WOB Max 
 YP  .lhf2               31.00:  Yield Point 
~Curve Information Block
#MNEM.UNIT                 API CODE     Curve Description
#---------               -----------    ---------------------------
 TIME.HHMMSS            00 000 000 000:  GT Time & Date
 GTDEPTH.m              00 000 000 000:  GT Depth
 GTPQH.psia             00 000 000 000:  GT HR Quartz Pressure
 GTTQ.degC              00 000 000 000:  GT Quartz Temperature
 GTTN.NONE              00 000 000 000:  GT Test Number
 GTET.sec               00 000 000 000:  GT Elapsed Test Time
 GTTVD.m                00 000 000 000:  GT True Vertical Depth
#Other Information
#
#WARRANTY: Halliburton will use its best efforts to furnish customers with 
#accurate information and interpretations that are part of, and incident to, the services 
#provided.  However, Halliburton cannot and does not warrant the accuracy 
#or correctness of such information and interpretations.  Under no circumstances should any 
#such information or interpretation be relied upon as the sole basis for any drilling, 
#completion, production, or financial decision or any procedure involving any risk to the 
#safety of any drilling venture, drilling rig or its crew or any other third party.  The 
#Customer has full responsibility for all drilling, completion and production operation.  
#Halliburton makes no representations or warranties, either expressed or 
#implied, including, but not limited to, the implied warranties of merchantability or fitness 
#for a particular purpose, with respect to the services rendered.  In no event will 
#Halliburton be liable for failure to obtain any particular results or for 
#any damages, including, but not limited to, indirect, special or consequential damages, 
#resulting from the use of any information or interpretation provided by Halliburton.
#
~A           TIME           GTDEPTH  GTPQH  GTTQ  GTTN  GTET   GTTVD  
# ...
   02:00:21.000.17-Sep-2021 5127.00 5570.73 79.82 1.00 506.00 2605.20
   02:00:21.200.17-Sep-2021 5127.00 5570.73 79.82 1.00 506.20 2605.20
   02:00:21.400.17-Sep-2021 5127.00 5570.67 79.82 1.00 506.40 2605.20
   02:00:21.600.17-Sep-2021 5127.00 5571.54 79.82 1.00 506.60 2605.20
   02:00:21.800.17-Sep-2021 5127.00 5569.48 79.82 1.00 506.80 2605.20
   02:00:22.000.17-Sep-2021 5127.00 5569.46 79.82 1.00 507.00 2605.20
   02:00:22.200.17-Sep-2021 5127.00 5569.46 79.82 1.00 507.20 2605.20
   02:00:22.400.17-Sep-2021 5127.00 5569.34 79.82 1.00 507.40 2605.20
   02:00:22.600.17-Sep-2021 5127.00 5569.33 79.82 1.00 507.60 2605.20
   02:00:22.800.17-Sep-2021 5127.00 5569.33 79.82 1.00 507.80 2605.20
   02:00:23.000.17-Sep-2021 5127.00 5569.31 79.82 1.00 508.00 2605.20
   02:00:23.200.17-Sep-2021 5127.00 5569.31 79.82 1.00 508.20 2605.20
   02:00:23.400.17-Sep-2021 5127.00 5569.30 79.82 1.00 508.40 2605.20
   02:00:23.600.17-Sep-2021 5127.00 5569.31 79.82 1.00 508.60 2605.20
   02:00:23.800.17-Sep-2021 5127.00 5569.30 79.82 1.00 508.80 2605.20
   02:00:24.000.17-Sep-2021 5127.00 5569.30 79.82 1.00 509.00 2605.20
   02:00:24.200.17-Sep-2021 5127.00 5569.30 79.82 1.00 509.20 2605.20
   02:00:24.400.17-Sep-2021 5127.00 5569.28 79.82 1.00 509.40 2605.20
   02:00:24.600.17-Sep-2021 5127.00 5569.86 79.82 1.00 509.60 2605.20
   02:00:24.800.17-Sep-2021 5127.00 5570.31 79.82 1.00 509.80 2605.20
   02:00:25.000.17-Sep-2021 5127.00 5569.46 79.82 1.00 510.00 2605.20
   02:00:25.200.17-Sep-2021 5127.00 5569.46 79.82 1.00 510.20 2605.20
   02:00:25.400.17-Sep-2021 5127.00 5568.91 79.82 1.00 510.40 2605.20
   02:00:25.600.17-Sep-2021 5127.00 5568.88 79.82 1.00 510.60 2605.20
   02:00:25.800.17-Sep-2021 5127.00 5568.84 79.82 1.00 510.80 2605.20
   02:00:26.000.17-Sep-2021 5127.00 5568.83 79.82 1.00 511.00 2605.20
   02:00:26.200.17-Sep-2021 5127.00 5568.83 79.82 1.00 511.20 2605.20
   02:00:26.400.17-Sep-2021 5127.00 5568.81 79.82 1.00 511.40 2605.20
   02:00:26.600.17-Sep-2021 5127.00 5568.80 79.82 1.00 511.60 2605.20
   02:00:26.800.17-Sep-2021 5127.00 5568.79 79.82 1.00 511.80 2605.20
   02:00:27.000.17-Sep-2021 5127.00 5568.80 79.82 1.00 512.00 2605.20
   02:00:27.200.17-Sep-2021 5127.00 5568.80 79.82 1.00 512.20 2605.20
   02:00:27.400.17-Sep-2021 5127.00 5568.78 79.82 1.00 512.40 2605.20
   02:00:27.600.17-Sep-2021 5127.00 5568.78 79.82 1.00 512.60 2605.20
   02:00:27.800.17-Sep-2021 5127.00 5568.79 79.82 1.00 512.80 2605.20
   02:00:28.000.17-Sep-2021 5127.00 5568.79 79.82 1.00 513.00 2605.20
   02:00:28.200.17-Sep-2021 5127.00 5568.79 79.82 1.00 513.20 2605.20
   02:00:28.400.17-Sep-2021 5127.00 5569.01 79.82 1.00 513.40 2605.20
   02:00:28.600.17-Sep-2021 5127.00 5568.59 79.82 1.00 513.60 2605.20
   02:00:28.800.17-Sep-2021 5127.00 5568.46 79.82 1.00 513.80 2605.20
   02:00:29.000.17-Sep-2021 5127.00 5568.52 79.82 1.00 514.00 2605.20
   02:00:29.200.17-Sep-2021 5127.00 5568.52 79.82 1.00 514.20 2605.20
   02:00:29.400.17-Sep-2021 5127.00 5569.09 79.82 1.00 514.40 2605.20
   02:00:29.600.17-Sep-2021 5127.00 5568.36 79.82 1.00 514.60 2605.20
   02:00:29.800.17-Sep-2021 5127.00 5571.49 79.82 1.00 514.80 2605.20
   02:00:30.000.17-Sep-2021 5127.00 5571.74 79.82 1.00 515.00 2605.20
   02:00:30.200.17-Sep-2021 5127.00 5571.74 79.82 1.00 515.20 2605.20
   02:00:30.400.17-Sep-2021 5127.00 5572.23 79.82 1.00 515.40 2605.20
   02:00:30.600.17-Sep-2021 5127.00 5570.92 79.82 1.00 515.60 2605.20
   02:00:30.800.17-Sep-2021 5127.00 5569.83 79.82 1.00 515.80 2605.20
   02:00:31.000.17-Sep-2021 5127.00 5569.31 79.82 1.00 516.00 2605.20
   02:00:31.200.17-Sep-2021 5127.00 5569.31 79.82 1.00 516.20 2605.20
   02:00:31.400.17-Sep-2021 5127.00 5569.42 79.82 1.00 516.40 2605.20
   02:00:31.600.17-Sep-2021 5127.00 5570.35 79.82 1.00 516.60 2605.20
   02:00:31.800.17-Sep-2021 5127.00 5569.24 79.82 1.00 516.80 2605.20
   02:00:32.000.17-Sep-2021 5127.00 5569.09 79.82 1.00 517.00 2605.20
   02:00:32.200.17-Sep-2021 5127.00 5569.09 79.82 1.00 517.20 2605.20
   02:00:32.400.17-Sep-2021 5127.00 5569.44 79.82 1.00 517.40 2605.20
   02:00:32.600.17-Sep-2021 5127.00 5569.47 79.82 1.00 517.60 2605.20
   02:00:32.800.17-Sep-2021 5127.00 5569.29 79.82 1.00 517.80 2605.20
   02:00:33.000.17-Sep-2021 5127.00 5569.22 79.82 1.00 518.00 2605.20
   02:00:33.200.17-Sep-2021 5127.00 5569.22 79.82 1.00 518.20 2605.20
   02:00:33.400.17-Sep-2021 5127.00 5569.36 79.82 1.00 518.40 2605.20
   02:00:33.600.17-Sep-2021 5127.00 5569.43 79.82 1.00 518.60 2605.20
   02:00:33.800.17-Sep-2021 5127.00 5569.53 79.82 1.00 518.80 2605.20
   02:00:34.000.17-Sep-2021 5127.00 5569.50 79.82 1.00 519.00 2605.20
   02:00:34.200.17-Sep-2021 5127.00 5569.50 79.82 1.00 519.20 2605.20
   02:00:34.400.17-Sep-2021 5127.00 5572.11 79.82 1.00 519.40 2605.20
   02:00:34.600.17-Sep-2021 5127.00 5571.07 79.82 1.00 519.60 2605.20
   02:00:34.800.17-Sep-2021 5127.00 5570.46 79.82 1.00 519.80 2605.20
   02:00:35.000.17-Sep-2021 5127.00 5569.32 79.82 1.00 520.00 2605.20
   02:00:35.200.17-Sep-2021 5127.00 5569.32 79.82 1.00 520.20 2605.20
   02:00:35.400.17-Sep-2021 5127.00 5568.77 79.82 1.00 520.40 2605.20
   02:00:35.600.17-Sep-2021 5127.00 5568.70 79.82 1.00 520.60 2605.20
   02:00:35.800.17-Sep-2021 5127.00 5568.65 79.82 1.00 520.80 2605.20
   02:00:36.000.17-Sep-2021 5127.00 5568.60 79.82 1.00 521.00 2605.20
   02:00:36.200.17-Sep-2021 5127.00 5568.60 79.82 1.00 521.20 2605.20
   02:00:36.400.17-Sep-2021 5127.00 5568.49 79.82 1.00 521.40 2605.20
   02:00:36.600.17-Sep-2021 5127.00 5568.46 79.82 1.00 521.60 2605.20
   02:00:36.800.17-Sep-2021 5127.00 5568.41 79.82 1.00 521.80 2605.20
   02:00:37.000.17-Sep-2021 5127.00 5568.36 79.82 1.00 522.00 2605.20
   02:00:37.200.17-Sep-2021 5127.00 5568.36 79.82 1.00 522.20 2605.20
   02:00:37.400.17-Sep-2021 5127.00 5568.32 79.82 1.00 522.40 2605.20
   02:00:37.600.17-Sep-2021 5127.00 5568.33 79.82 1.00 522.60 2605.20
   02:00:37.800.17-Sep-2021 5127.00 5570.70 79.82 1.00 522.80 2605.20
