~Version Information
 VERS.                  2.0:   CWLS log ASCII Standard -VERSION 2.0
 WRAP.                   NO:   One line per depth step
~Well Information Block
#MNEM.UNIT     VALUE/NAME     DESCRIPTION
#---------     -----------    ---------------------------
 STRT.S             01:51:55 17-Sep-21: START TIME 01:51:55 17-Sep-21
 STOP.S             02:00:37 17-Sep-21: STOP TIME  02:00:37 17-Sep-21
 STEP.S                   0.00: STEP TIME
 NULL.                 -999.25: NULL VALUE
 DFWT.                        :  DIST FWL TEXT
 DFST.                        :  DIST FSL TEXT
 DMF .             Drill Floor:  DRILL MEAS FROM
 STIM.      10.59.12 05-Jul-21:  START TIME
 DATE.      10.59.12 10-Sep-21:  END TIME
 SPUD.               05-Jul-21:  SPUD DATE
 NREF.                    Grid:  NORTH REFERENCE
 HPTY.       Minimum Curvature:  HOLE POS TYPE
 DMOD.             Drill Model:  DRILL MOD DESC
 SVYD.                  Survey:  SURVEY DESC
 ILTD.               Lithology:  INTERP LTH DESC
 FTOP.          Formation Tops:  FORM TOPS DESC
 RIG .                     DWG:  RIG NAME
 PDAT.          Mean Sea Level:  PERMANENT DATUM
 FLD .                     ACG:  FIELD NAME
 SON .        AZ-XX-0907115008:  JOB NUMBER
 CTRY.              Azerbaijan:  COUNTRY NAME
 WELL.                    E35A:  WELL NAME
 SRVC.          TURAN DRILLING:  CONTRACTOR
 COMP.     BP Exploration (Caspian Sea LTD):  COMPANY
 UWI .                     N/A:  UNIQUE WELL IDENTIFIER
 API .                     N/A:  API NUMBER
 MDS .        Operator Entered:  MAG DATA SOURCE
 BASE.              Azerbaijan:  LOGGING EQUIPMENT BASE LOCATION
 REGN.                   EESSA:  REGION
 PROV.                    Baku:  PROVINCE
 STAT.                    Baku:  STATE NAME
 MWDS.                    Baku:  MWD SHOP
 JOBN.        AZ-XX-0907115008:  JOB TICKET NUMB
 DOE .                     N/A:  DOE NUMBER
 DCON.         Sperry Drilling:  DIRECTNL CONTR
 UNIT.                     N/A:  LOGGING EQUIPMENT ID
 WTYP.                Deviated:  WELL TYPE
 CNTY.                        :  COUNTY
 LOC .                        :  LOCATION
 LMF .             Drill Floor:  LOG MEASURED FROM
 TVDS.m                  43.16:  TVDSS CORRECTN
 LATI.deg                40.17:  LATITUDE
 LONG.deg                51.17:  LONGITUDE
 WHNS.m                  10.51:  WELL HEAD N/S
 WHEW.m                 -14.82:  WELL HEAD E/W
 UTMX.m              514336.92:  UTM X
 UTMY.m             4448618.56:  UTM Y
 DFWL.m                   0.00:  DISTANCE FWL
 DFSL.m                   0.00:  DISTANCE FSL
 SDEP.m                 849.00:  START DEPTH
 TDD .m                2862.00:  TOTAL DEPTH (DRILLER)
 VSDR.deg               292.10:  VERT SEC DIRECT
 GVFD.g                   1.00:  GRAVITY FIELD
 MFLD.nT              50382.00:  MAGNETIC FIELD
 MDIP.deg                59.68:  MAGNETIC DIP
 MDEC.deg                 6.66:  MAGNETIC DECL
 GRDC.deg                 0.09:  GRID CORRECTION
 AZTC.deg                 6.57:  AZM TOTAL CORR
 EPD .m                   0.00:  ELEVATION
 EGL .m                   0.00:  GROUND ELEVATION
 WDMS.m                 176.20:  WD ELEV
 APD .m                  43.16:  DEPTH ABOVE PD
 DEP .m                 363.42:  DEPTH
 AGAP.m                  43.16:  AIR GAP
 VSEW.m                 -14.82:  VERT SEC E/W
 VSNS.m                  10.51:  VERT SEC N/S
 EKB .m                  43.16:  KB ELEVATION
 EDF .m                  43.16:  DF ELEVATION
 TDL .m                1390.00:  TOTAL DEPTH (LOGGER)
 VSC .                       0:  VS TO CLOSURE
 MAGU.                 1855871:  MAGUTM CHECKSUM
~Parameter Information Block
#MNEM.UNIT       Value        Description
#---------     -----------    ---------------------------
 AV  .mps                 2.28:  Ann Velocity 
 AVMX.mps                 2.67:  Max Ann Veloc 
 AZIF.deg               305.00:  Azm, Final 
 BHAT.        Rotary Steerable:  BHA Type 
 BROT.°/30m               0.45:  Build Rotating 
 BS  .in                 12.25:  Bit Size 
 BSZ .in                 12.25:  Bit Size 
 BTPL.psig              600.00:  Bit Press Loss 
 CABU.                     Yes:  Customer Abuse 
 COMM.                     ü¢v:  Run Comments 1 
 TCS .hr                150.00:  Time Ciculation Ended 
 CV  .mps                 1.24:  Crit Velocity 
 CVMX.mps                 1.66:  Max Crit Veloc 
 DD1 .         Intigam Rahimov:  Direct Drillr 1 
 DD2 .            Azer Ravavov:  Direct Drillr 2 
 DD3 .              Samir Abas:  Direct Drillr 3 
 DDSV.               Geo-Pilot:  DD Service 
 DEFF.%                 100.00:  % Det Eff 
 DLRX.°/30m               1.57:  Dogleg Rot Max 
 DLSO.°/30m               0.00:  Dogleg Oriented 
 DLSX.°/30m               0.00:  Dogleg Str Max 
 DRET.      20.28.06 17-Sep-21:  Drill End Time 
 DRST.      20.27.35 10-Sep-21:  Drill Start Tim 
 DTIM.hr                 54.00:  Time Drilling 
 EDEP.m                5260.00:  End Depth 
 ENG1.      Bakhtiyar Jabbarli:  Engineer 1 
 ENG2.      Natik Hasanaghayev:  Engineer 2 
 ENG3.           Royal Nasirov:  Engineer 3 
 ETIM.      20.27.55 18-Sep-21:  End Time 
 FLOI.gpm              1100.00:  Flow In 
 FLON.gpm               800.00:  Flow In Min 
 FLOS.cptm                0.00:  Fluid Loss 
 FLOX.gpm              1200.00:  Flow In Max 
 DFT .        Mineral Oil Base:  Mud Type 
 HPRE.                      No:  High Pressure 
 HTEM.                      No:  High Temp 
 HYDO.m                   1.80:  Hydro Offset 
 IFIN.deg                72.31:  Inc, Final 
 IMAX.deg                72.36:  Inc Max 
 IMIN.deg                69.36:  Inc Min 
 IMND.m                4192.96:  Inc Min Depth 
 IMXD.m                5128.36:  Inc Max Depth 
 JARR.                      No:  Jarring 
 LETM.      20.29.00 17-Sep-21:  Log End Time 
 LOST.hr                     0:  Lost Rig Time 
 LSTM.      20.27.00 10-Sep-21:  Log Start Time 
 MDCL.ppm            227000.00:  Mud Chlorides 
 MDES.     Inversion Oil/Synthetic:  Mud Desc 
 DFD .sg                  1.45:  Mud Density 
 MDMN.sg                  1.45:  Dens Mud Min 
 MDMX.sg                  1.45:  Dens Mud Max 
 MOIL.                    70.5:  Run Mud Oil % 
 MOWR.                   71:29:  Run Mud OWR 
 MSND.                     0.3:  Run Mud Sand % 
 MSOL.                    19.8:  Run Mud Solids% 
 DFV .spqt               80.00:  Mud Viscosity 
 MWOD.in                  8.00:  MWD Tool OD 
 MWSI.                     Yes:  Serv Intrp, MWD 
 OTIM.hr                180.00:  Time Operating 
 PCON.           Look Like New:  Pad Condition 
 PMAX.psia             9910.94:  Press Op, Max 
 PV  .cP                 35.00:  Mud PV 
 RUN .                    1000:  Run Number 
 ROPA.m/hr               18.00:  ROP Avg 
 ROPN.m/hr                8.00:  ROP Min 
 ROPX.m/hr               23.00:  ROP Max 
 RPMA.rpm               150.00:  RPM Surface Avg 
 RPMN.rpm               120.00:  RPM Surface Min 
 RPMX.rpm               160.00:  RPM Surface Max 
 RRUN.                    L503:  Rig Run Number 
 RTIM.hr                  5.00:  Time Reaming 
 SAZI.deg               298.42:  Azm, Start 
 SDEP.m                3870.00:  Start Depth 
 SIDD.                      No:  Serv Intrp, DD 
 SINC.deg                69.57:  Inc, Start 
 SPPA.psig             5500.00:  SPP Avg 
 SPPN.psig             4400.00:  SPP Min 
 SPPX.psig             5800.00:  SPP Max 
 STIM.      15.29.39 09-Sep-21:  Start Time 
 SVCS.                 DD, MWD:  Services 
 SVER.                    9.20:  Sperry Version 
 TDAT.m                5260.00:  Tot Depth Attmp 
 TDDF.                      No:  Trip for DD 
 TDLG.m                1390.00:  Tot Depth Loggd 
 TFF .                      No:  Trip for Fail 
 TQAA.f-kp               22.00:  Torque Abs Avg 
 TQAN.f-kp               13.00:  Torque Abs Min 
 TQAX.f-kp               27.00:  Torque Abs Max 
 TRRT.°/30m               1.60:  Turn Rotating 
 MRT .                  EWR-M5:  Maximum Recorded Temperature 
 TTMX.degC               92.00:  Max Tool Temp 
 VS01.                12330975:  Virtual Str1 SN 
 VS02.                90658671:  Virtual Str2 SN 
 VS03.                90658508:  Virtual Str3 SN 
 VS04.                90660974:  Virtual Str4 SN 
 VS05.                90654675:  Virtual Str5 SN 
 WBMN.klb                15.00:  WOB Min 
 WITN.     Alexander Yadullayev:  Customer Rep 
 WITN.           Adil Mammadov:  Customer Rep 2 
 WOBA.klb                17.00:  WOB Avg 
 WOBX.klb                18.00:  WOB Max 
 YP  .lhf2               31.00:  Yield Point 
~Curve Information Block
#MNEM.UNIT                 API CODE     Curve Description
#---------               -----------    ---------------------------
 TIME.HHMMSS            00 000 000 000:  GT Time & Date
 GTDEPTH.m              00 000 000 000:  GT Depth
 GTPQH.psia             00 000 000 000:  GT HR Quartz Pressure
 GTTQ.degC              00 000 000 000:  GT Quartz Temperature
 GTTN.NONE              00 000 000 000:  GT Test Number
 GTET.sec               00 000 000 000:  GT Elapsed Test Time
 GTTVD.m                00 000 000 000:  GT True Vertical Depth
#Other Information
#
#WARRANTY: Halliburton will use its best efforts to furnish customers with 
#accurate information and interpretations that are part of, and incident to, the services 
#provided.  However, Halliburton cannot and does not warrant the accuracy 
#or correctness of such information and interpretations.  Under no circumstances should any 
#such information or interpretation be relied upon as the sole basis for any drilling, 
#completion, production, or financial decision or any procedure involving any risk to the 
#safety of any drilling venture, drilling rig or its crew or any other third party.  The 
#Customer has full responsibility for all drilling, completion and production operation.  
#Halliburton makes no representations or warranties, either expressed or 
#implied, including, but not limited to, the implied warranties of merchantability or fitness 
#for a particular purpose, with respect to the services rendered.  In no event will 
#Halliburton be liable for failure to obtain any particular results or for 
#any damages, including, but not limited to, indirect, special or consequential damages, 
#resulting from the use of any information or interpretation provided by Halliburton.
#
~A           TIME           GTDEPTH  GTPQH  GTTQ  GTTN  GTET   GTTVD  
# ...
   01:55:22.000.17-Sep-2021 5127.00 5570.01 79.88 1.00 207.00 2605.20
   01:55:22.200.17-Sep-2021 5127.00 5570.01 79.88 1.00 207.20 2605.20
   01:55:22.400.17-Sep-2021 5127.00 5569.86 79.88 1.00 207.40 2605.20
   01:55:22.600.17-Sep-2021 5127.00 5570.39 79.88 1.00 207.60 2605.20
   01:55:22.800.17-Sep-2021 5127.00 5570.17 79.88 1.00 207.80 2605.20
   01:55:23.000.17-Sep-2021 5127.00 5571.00 79.88 1.00 208.00 2605.20
   01:55:23.200.17-Sep-2021 5127.00 5571.00 79.88 1.00 208.20 2605.20
   01:55:23.400.17-Sep-2021 5127.00 5570.10 79.88 1.00 208.40 2605.20
   01:55:23.600.17-Sep-2021 5127.00 5570.25 79.88 1.00 208.60 2605.20
   01:55:23.800.17-Sep-2021 5127.00 5570.00 79.88 1.00 208.80 2605.20
   01:55:24.000.17-Sep-2021 5127.00 5569.63 79.88 1.00 209.00 2605.20
   01:55:24.200.17-Sep-2021 5127.00 5569.63 79.88 1.00 209.20 2605.20
   01:55:24.400.17-Sep-2021 5127.00 5569.53 79.88 1.00 209.40 2605.20
   01:55:24.600.17-Sep-2021 5127.00 5569.56 79.88 1.00 209.60 2605.20
   01:55:24.800.17-Sep-2021 5127.00 5569.69 79.88 1.00 209.80 2605.20
   01:55:25.000.17-Sep-2021 5127.00 5569.75 79.88 1.00 210.00 2605.20
   01:55:25.200.17-Sep-2021 5127.00 5569.75 79.88 1.00 210.20 2605.20
   01:55:25.400.17-Sep-2021 5127.00 5569.89 79.88 1.00 210.40 2605.20
   01:55:25.600.17-Sep-2021 5127.00 5570.03 79.88 1.00 210.60 2605.20
   01:55:25.800.17-Sep-2021 5127.00 5570.16 79.88 1.00 210.80 2605.20
   01:55:26.000.17-Sep-2021 5127.00 5570.32 79.88 1.00 211.00 2605.20
   01:55:26.200.17-Sep-2021 5127.00 5570.32 79.88 1.00 211.20 2605.20
   01:55:26.400.17-Sep-2021 5127.00 5570.77 79.88 1.00 211.40 2605.20
   01:55:26.600.17-Sep-2021 5127.00 5570.50 79.88 1.00 211.60 2605.20
   01:55:26.800.17-Sep-2021 5127.00 5570.23 79.88 1.00 211.80 2605.20
   01:55:27.000.17-Sep-2021 5127.00 5570.46 79.88 1.00 212.00 2605.20
   01:55:27.200.17-Sep-2021 5127.00 5570.46 79.88 1.00 212.20 2605.20
   01:55:27.400.17-Sep-2021 5127.00 5569.81 79.88 1.00 212.40 2605.20
   01:55:27.600.17-Sep-2021 5127.00 5570.31 79.88 1.00 212.60 2605.20
   01:55:27.800.17-Sep-2021 5127.00 5569.44 79.88 1.00 212.80 2605.20
   01:55:28.000.17-Sep-2021 5127.00 5569.24 79.88 1.00 213.00 2605.20
   01:55:28.200.17-Sep-2021 5127.00 5569.24 79.88 1.00 213.20 2605.20
   01:55:28.400.17-Sep-2021 5127.00 5570.73 79.88 1.00 213.40 2605.20
   01:55:28.600.17-Sep-2021 5127.00 5568.76 79.88 1.00 213.60 2605.20
   01:55:28.800.17-Sep-2021 5127.00 5569.87 79.88 1.00 213.80 2605.20
   01:55:29.000.17-Sep-2021 5127.00 5569.90 79.88 1.00 214.00 2605.20
   01:55:29.200.17-Sep-2021 5127.00 5569.90 79.88 1.00 214.20 2605.20
   01:55:29.400.17-Sep-2021 5127.00 5570.34 79.88 1.00 214.40 2605.20
   01:55:29.600.17-Sep-2021 5127.00 5569.87 79.88 1.00 214.60 2605.20
   01:55:29.800.17-Sep-2021 5127.00 5570.60 79.88 1.00 214.80 2605.20
   01:55:30.000.17-Sep-2021 5127.00 5569.61 79.88 1.00 215.00 2605.20
   01:55:30.200.17-Sep-2021 5127.00 5569.61 79.88 1.00 215.20 2605.20
   01:55:30.400.17-Sep-2021 5127.00 5570.14 79.88 1.00 215.40 2605.20
   01:55:30.600.17-Sep-2021 5127.00 5569.99 79.88 1.00 215.60 2605.20
   01:55:30.800.17-Sep-2021 5127.00 5569.51 79.87 1.00 215.80 2605.20
   01:55:31.000.17-Sep-2021 5127.00 5569.41 79.88 1.00 216.00 2605.20
   01:55:31.200.17-Sep-2021 5127.00 5569.41 79.88 1.00 216.20 2605.20
   01:55:31.400.17-Sep-2021 5127.00 5569.66 79.87 1.00 216.40 2605.20
   01:55:31.600.17-Sep-2021 5127.00 5570.27 79.87 1.00 216.60 2605.20
   01:55:31.800.17-Sep-2021 5127.00 5570.50 79.87 1.00 216.80 2605.20
   01:55:32.000.17-Sep-2021 5127.00 5570.47 79.87 1.00 217.00 2605.20
   01:55:32.200.17-Sep-2021 5127.00 5570.47 79.87 1.00 217.20 2605.20
   01:55:32.400.17-Sep-2021 5127.00 5570.50 79.87 1.00 217.40 2605.20
   01:55:32.600.17-Sep-2021 5127.00 5571.48 79.87 1.00 217.60 2605.20
   01:55:32.800.17-Sep-2021 5127.00 5570.40 79.87 1.00 217.80 2605.20
   01:55:33.000.17-Sep-2021 5127.00 5571.39 79.87 1.00 218.00 2605.20
   01:55:33.200.17-Sep-2021 5127.00 5571.39 79.87 1.00 218.20 2605.20
   01:55:33.400.17-Sep-2021 5127.00 5571.18 79.87 1.00 218.40 2605.20
   01:55:33.600.17-Sep-2021 5127.00 5571.01 79.87 1.00 218.60 2605.20
   01:55:33.800.17-Sep-2021 5127.00 5570.87 79.87 1.00 218.80 2605.20
   01:55:34.000.17-Sep-2021 5127.00 5570.78 79.87 1.00 219.00 2605.20
   01:55:34.200.17-Sep-2021 5127.00 5570.78 79.87 1.00 219.20 2605.20
   01:55:34.400.17-Sep-2021 5127.00 5570.60 79.87 1.00 219.40 2605.20
   01:55:34.600.17-Sep-2021 5127.00 5570.62 79.87 1.00 219.60 2605.20
   01:55:34.800.17-Sep-2021 5127.00 5570.72 79.87 1.00 219.80 2605.20
   01:55:35.000.17-Sep-2021 5127.00 5570.78 79.87 1.00 220.00 2605.20
   01:55:35.200.17-Sep-2021 5127.00 5570.78 79.87 1.00 220.20 2605.20
   01:55:35.400.17-Sep-2021 5127.00 5570.79 79.87 1.00 220.40 2605.20
   01:55:35.600.17-Sep-2021 5127.00 5570.93 79.87 1.00 220.60 2605.20
   01:55:35.800.17-Sep-2021 5127.00 5571.03 79.87 1.00 220.80 2605.20
   01:55:36.000.17-Sep-2021 5127.00 5571.77 79.87 1.00 221.00 2605.20
   01:55:36.200.17-Sep-2021 5127.00 5571.77 79.87 1.00 221.20 2605.20
   01:55:36.400.17-Sep-2021 5127.00 5571.56 79.87 1.00 221.40 2605.20
   01:55:36.600.17-Sep-2021 5127.00 5571.43 79.87 1.00 221.60 2605.20
   01:55:36.800.17-Sep-2021 5127.00 5571.00 79.87 1.00 221.80 2605.20
   01:55:37.000.17-Sep-2021 5127.00 5570.98 79.87 1.00 222.00 2605.20
   01:55:37.200.17-Sep-2021 5127.00 5570.98 79.87 1.00 222.20 2605.20
   01:55:37.400.17-Sep-2021 5127.00 5569.55 79.87 1.00 222.40 2605.20
   01:55:37.600.17-Sep-2021 5127.00 5570.50 79.87 1.00 222.60 2605.20
   01:55:37.800.17-Sep-2021 5127.00 5570.33 79.87 1.00 222.80 2605.20
   01:55:38.000.17-Sep-2021 5127.00 5570.28 79.87 1.00 223.00 2605.20
   01:55:38.200.17-Sep-2021 5127.00 5570.28 79.87 1.00 223.20 2605.20
   01:55:38.400.17-Sep-2021 5127.00 5570.11 79.87 1.00 223.40 2605.20
   01:55:38.600.17-Sep-2021 5127.00 5570.88 79.87 1.00 223.60 2605.20
   01:55:38.800.17-Sep-2021 5127.00 5570.08 79.87 1.00 223.80 2605.20
   01:55:39.000.17-Sep-2021 5127.00 5570.24 79.87 1.00 224.00 2605.20
   01:55:39.200.17-Sep-2021 5127.00 5570.24 79.87 1.00 224.20 2605.20
   01:55:39.400.17-Sep-2021 5127.00 5570.05 79.87 1.00 224.40 2605.20
   01:55:39.600.17-Sep-2021 5127.00 5571.19 79.87 1.00 224.60 2605.20
   01:55:39.800.17-Sep-2021 5127.00 5570.84 79.87 1.00 224.80 2605.20
   01:55:40.000.17-Sep-2021 5127.00 5570.37 79.87 1.00 225.00 2605.20
   01:55:40.200.17-Sep-2021 5127.00 5570.37 79.87 1.00 225.20 2605.20
   01:55:40.400.17-Sep-2021 5127.00 5570.96 79.87 1.00 225.40 2605.20
   01:55:40.600.17-Sep-2021 5127.00 5570.79 79.87 1.00 225.60 2605.20
   01:55:40.800.17-Sep-2021 5127.00 5570.53 79.87 1.00 225.80 2605.20
   01:55:41.000.17-Sep-2021 5127.00 5570.44 79.87 1.00 226.00 2605.20
   01:55:41.200.17-Sep-2021 5127.00 5570.44 79.87 1.00 226.20 2605.20
   01:55:41.400.17-Sep-2021 5127.00 5570.59 79.87 1.00 226.40 2605.20
   01:55:41.600.17-Sep-2021 5127.00 5570.76 79.87 1.00 226.60 2605.20
   01:55:41.800.17-Sep-2021 5127.00 5570.74 79.87 1.00 226.80 2605.20
   01:55:42.000.17-Sep-2021 5127.00 5570.71 79.87 1.00 227.00 2605.20
   01:55:42.200.17-Sep-2021 5127.00 5570.71 79.87 1.00 227.20 2605.20
   01:55:42.400.17-Sep-2021 5127.00 5571.11 79.87 1.00 227.40 2605.20
   01:55:42.600.17-Sep-2021 5127.00 5571.47 79.87 1.00 227.60 2605.20
   01:55:42.800.17-Sep-2021 5127.00 5571.21 79.87 1.00 227.80 2605.20
   01:55:43.000.17-Sep-2021 5127.00 5571.09 79.87 1.00 228.00 2605.20
   01:55:43.200.17-Sep-2021 5127.00 5571.09 79.87 1.00 228.20 2605.20
   01:55:43.400.17-Sep-2021 5127.00 5571.04 79.87 1.00 228.40 2605.20
   01:55:43.600.17-Sep-2021 5127.00 5570.82 79.87 1.00 228.60 2605.20
   01:55:43.800.17-Sep-2021 5127.00 5570.74 79.87 1.00 228.80 2605.20
   01:55:44.000.17-Sep-2021 5127.00 5570.62 79.87 1.00 229.00 2605.20
   01:55:44.200.17-Sep-2021 5127.00 5570.62 79.87 1.00 229.20 2605.20
   01:55:44.400.17-Sep-2021 5127.00 5570.60 79.87 1.00 229.40 2605.20
   01:55:44.600.17-Sep-2021 5127.00 5570.62 79.87 1.00 229.60 2605.20
   01:55:44.800.17-Sep-2021 5127.00 5570.63 79.87 1.00 229.80 2605.20
