~Version Information
 VERS.                  2.0:   CWLS log ASCII Standard -VERSION 2.0
 WRAP.                   NO:   One line per depth step
~Well Information Block
#MNEM.UNIT     VALUE/NAME     DESCRIPTION
#---------     -----------    ---------------------------
 STRT.S             06:26:37 17-Sep-21: START TIME 06:26:37 17-Sep-21
 STOP.S             06:35:42 17-Sep-21: STOP TIME  06:35:42 17-Sep-21
 STEP.S                   0.00: STEP TIME
 NULL.                 -999.25: NULL VALUE
 DFWT.                        :  DIST FWL TEXT
 DFST.                        :  DIST FSL TEXT
 DMF .             Drill Floor:  DRILL MEAS FROM
 STIM.      10.59.12 05-Jul-21:  START TIME
 DATE.      10.59.12 10-Sep-21:  END TIME
 SPUD.               05-Jul-21:  SPUD DATE
 NREF.                    Grid:  NORTH REFERENCE
 HPTY.       Minimum Curvature:  HOLE POS TYPE
 DMOD.             Drill Model:  DRILL MOD DESC
 SVYD.                  Survey:  SURVEY DESC
 ILTD.               Lithology:  INTERP LTH DESC
 FTOP.          Formation Tops:  FORM TOPS DESC
 RIG .                     DWG:  RIG NAME
 PDAT.          Mean Sea Level:  PERMANENT DATUM
 FLD .                     ACG:  FIELD NAME
 SON .        AZ-XX-0907115008:  JOB NUMBER
 CTRY.              Azerbaijan:  COUNTRY NAME
 WELL.                    E35A:  WELL NAME
 SRVC.          TURAN DRILLING:  CONTRACTOR
 COMP.     BP Exploration (Caspian Sea LTD):  COMPANY
 UWI .                     N/A:  UNIQUE WELL IDENTIFIER
 API .                     N/A:  API NUMBER
 MDS .        Operator Entered:  MAG DATA SOURCE
 BASE.              Azerbaijan:  LOGGING EQUIPMENT BASE LOCATION
 REGN.                   EESSA:  REGION
 PROV.                    Baku:  PROVINCE
 STAT.                    Baku:  STATE NAME
 MWDS.                    Baku:  MWD SHOP
 JOBN.        AZ-XX-0907115008:  JOB TICKET NUMB
 DOE .                     N/A:  DOE NUMBER
 DCON.         Sperry Drilling:  DIRECTNL CONTR
 UNIT.                     N/A:  LOGGING EQUIPMENT ID
 WTYP.                Deviated:  WELL TYPE
 CNTY.                        :  COUNTY
 LOC .                        :  LOCATION
 LMF .             Drill Floor:  LOG MEASURED FROM
 TVDS.m                  43.16:  TVDSS CORRECTN
 LATI.deg                40.17:  LATITUDE
 LONG.deg                51.17:  LONGITUDE
 WHNS.m                  10.51:  WELL HEAD N/S
 WHEW.m                 -14.82:  WELL HEAD E/W
 UTMX.m              514336.92:  UTM X
 UTMY.m             4448618.56:  UTM Y
 DFWL.m                   0.00:  DISTANCE FWL
 DFSL.m                   0.00:  DISTANCE FSL
 SDEP.m                 849.00:  START DEPTH
 TDD .m                2862.00:  TOTAL DEPTH (DRILLER)
 VSDR.deg               292.10:  VERT SEC DIRECT
 GVFD.g                   1.00:  GRAVITY FIELD
 MFLD.nT              50382.00:  MAGNETIC FIELD
 MDIP.deg                59.68:  MAGNETIC DIP
 MDEC.deg                 6.66:  MAGNETIC DECL
 GRDC.deg                 0.09:  GRID CORRECTION
 AZTC.deg                 6.57:  AZM TOTAL CORR
 EPD .m                   0.00:  ELEVATION
 EGL .m                   0.00:  GROUND ELEVATION
 WDMS.m                 176.20:  WD ELEV
 APD .m                  43.16:  DEPTH ABOVE PD
 DEP .m                 363.42:  DEPTH
 AGAP.m                  43.16:  AIR GAP
 VSEW.m                 -14.82:  VERT SEC E/W
 VSNS.m                  10.51:  VERT SEC N/S
 EKB .m                  43.16:  KB ELEVATION
 EDF .m                  43.16:  DF ELEVATION
 TDL .m                1390.00:  TOTAL DEPTH (LOGGER)
 VSC .                       0:  VS TO CLOSURE
 MAGU.                 1855871:  MAGUTM CHECKSUM
~Parameter Information Block
#MNEM.UNIT       Value        Description
#---------     -----------    ---------------------------
 AV  .mps                 2.28:  Ann Velocity 
 AVMX.mps                 2.67:  Max Ann Veloc 
 AZIF.deg               305.00:  Azm, Final 
 BHAT.        Rotary Steerable:  BHA Type 
 BROT.°/30m               0.45:  Build Rotating 
 BS  .in                 12.25:  Bit Size 
 BSZ .in                 12.25:  Bit Size 
 BTPL.psig              600.00:  Bit Press Loss 
 CABU.                     Yes:  Customer Abuse 
 COMM.                     D5N:  Run Comments 1 
 TCS .hr                150.00:  Time Ciculation Ended 
 CV  .mps                 1.24:  Crit Velocity 
 CVMX.mps                 1.66:  Max Crit Veloc 
 DD1 .         Intigam Rahimov:  Direct Drillr 1 
 DD2 .            Azer Ravavov:  Direct Drillr 2 
 DD3 .              Samir Abas:  Direct Drillr 3 
 DDSV.               Geo-Pilot:  DD Service 
 DEFF.%                 100.00:  % Det Eff 
 DLRX.°/30m               1.57:  Dogleg Rot Max 
 DLSO.°/30m               0.00:  Dogleg Oriented 
 DLSX.°/30m               0.00:  Dogleg Str Max 
 DRET.      20.28.06 17-Sep-21:  Drill End Time 
 DRST.      20.27.35 10-Sep-21:  Drill Start Tim 
 DTIM.hr                 54.00:  Time Drilling 
 EDEP.m                5260.00:  End Depth 
 ENG1.      Bakhtiyar Jabbarli:  Engineer 1 
 ENG2.      Natik Hasanaghayev:  Engineer 2 
 ENG3.           Royal Nasirov:  Engineer 3 
 ETIM.      20.27.55 18-Sep-21:  End Time 
 FLOI.gpm              1100.00:  Flow In 
 FLON.gpm               800.00:  Flow In Min 
 FLOS.cptm                0.00:  Fluid Loss 
 FLOX.gpm              1200.00:  Flow In Max 
 DFT .        Mineral Oil Base:  Mud Type 
 HPRE.                      No:  High Pressure 
 HTEM.                      No:  High Temp 
 HYDO.m                   1.80:  Hydro Offset 
 IFIN.deg                72.31:  Inc, Final 
 IMAX.deg                72.36:  Inc Max 
 IMIN.deg                69.36:  Inc Min 
 IMND.m                4192.96:  Inc Min Depth 
 IMXD.m                5128.36:  Inc Max Depth 
 JARR.                      No:  Jarring 
 LETM.      20.29.00 17-Sep-21:  Log End Time 
 LOST.hr                     0:  Lost Rig Time 
 LSTM.      20.27.00 10-Sep-21:  Log Start Time 
 MDCL.ppm            227000.00:  Mud Chlorides 
 MDES.     Inversion Oil/Synthetic:  Mud Desc 
 DFD .sg                  1.45:  Mud Density 
 MDMN.sg                  1.45:  Dens Mud Min 
 MDMX.sg                  1.45:  Dens Mud Max 
 MOIL.                    70.5:  Run Mud Oil % 
 MOWR.                   71:29:  Run Mud OWR 
 MSND.                     0.3:  Run Mud Sand % 
 MSOL.                    19.8:  Run Mud Solids% 
 DFV .spqt               80.00:  Mud Viscosity 
 MWOD.in                  8.00:  MWD Tool OD 
 MWSI.                     Yes:  Serv Intrp, MWD 
 OTIM.hr                180.00:  Time Operating 
 PCON.           Look Like New:  Pad Condition 
 PMAX.psia             9910.94:  Press Op, Max 
 PV  .cP                 35.00:  Mud PV 
 RUN .                    1000:  Run Number 
 ROPA.m/hr               18.00:  ROP Avg 
 ROPN.m/hr                8.00:  ROP Min 
 ROPX.m/hr               23.00:  ROP Max 
 RPMA.rpm               150.00:  RPM Surface Avg 
 RPMN.rpm               120.00:  RPM Surface Min 
 RPMX.rpm               160.00:  RPM Surface Max 
 RRUN.                    L503:  Rig Run Number 
 RTIM.hr                  5.00:  Time Reaming 
 SAZI.deg               298.42:  Azm, Start 
 SDEP.m                3870.00:  Start Depth 
 SIDD.                      No:  Serv Intrp, DD 
 SINC.deg                69.57:  Inc, Start 
 SPPA.psig             5500.00:  SPP Avg 
 SPPN.psig             4400.00:  SPP Min 
 SPPX.psig             5800.00:  SPP Max 
 STIM.      15.29.39 09-Sep-21:  Start Time 
 SVCS.                 DD, MWD:  Services 
 SVER.                    9.20:  Sperry Version 
 TDAT.m                5260.00:  Tot Depth Attmp 
 TDDF.                      No:  Trip for DD 
 TDLG.m                1390.00:  Tot Depth Loggd 
 TFF .                      No:  Trip for Fail 
 TQAA.f-kp               22.00:  Torque Abs Avg 
 TQAN.f-kp               13.00:  Torque Abs Min 
 TQAX.f-kp               27.00:  Torque Abs Max 
 TRRT.°/30m               1.60:  Turn Rotating 
 MRT .                  EWR-M5:  Maximum Recorded Temperature 
 TTMX.degC               92.00:  Max Tool Temp 
 VS01.                12330975:  Virtual Str1 SN 
 VS02.                90658671:  Virtual Str2 SN 
 VS03.                90658508:  Virtual Str3 SN 
 VS04.                90660974:  Virtual Str4 SN 
 VS05.                90654675:  Virtual Str5 SN 
 WBMN.klb                15.00:  WOB Min 
 WITN.     Alexander Yadullayev:  Customer Rep 
 WITN.           Adil Mammadov:  Customer Rep 2 
 WOBA.klb                17.00:  WOB Avg 
 WOBX.klb                18.00:  WOB Max 
 YP  .lhf2               31.00:  Yield Point 
~Curve Information Block
#MNEM.UNIT                 API CODE     Curve Description
#---------               -----------    ---------------------------
 TIME.HHMMSS            00 000 000 000:  GT Time & Date
 GTDEPTH.m              00 000 000 000:  GT Depth
 GTPQH.psia             00 000 000 000:  GT HR Quartz Pressure
 GTTQ.degC              00 000 000 000:  GT Quartz Temperature
 GTTN.NONE              00 000 000 000:  GT Test Number
 GTET.sec               00 000 000 000:  GT Elapsed Test Time
 GTTVD.m                00 000 000 000:  GT True Vertical Depth
#Other Information
#
#WARRANTY: Halliburton will use its best efforts to furnish customers with 
#accurate information and interpretations that are part of, and incident to, the services 
#provided.  However, Halliburton cannot and does not warrant the accuracy 
#or correctness of such information and interpretations.  Under no circumstances should any 
#such information or interpretation be relied upon as the sole basis for any drilling, 
#completion, production, or financial decision or any procedure involving any risk to the 
#safety of any drilling venture, drilling rig or its crew or any other third party.  The 
#Customer has full responsibility for all drilling, completion and production operation.  
#Halliburton makes no representations or warranties, either expressed or 
#implied, including, but not limited to, the implied warranties of merchantability or fitness 
#for a particular purpose, with respect to the services rendered.  In no event will 
#Halliburton be liable for failure to obtain any particular results or for 
#any damages, including, but not limited to, indirect, special or consequential damages, 
#resulting from the use of any information or interpretation provided by Halliburton.
#
~A           TIME           GTDEPTH  GTPQH  GTTQ  GTTN  GTET   GTTVD  
# ...
   06:34:17.259.17-Sep-2021 5057.00 5601.17 78.69 7.00 459.90 2583.65
   06:34:17.459.17-Sep-2021 5057.00 5601.17 78.69 7.00 460.10 2583.65
   06:34:17.659.17-Sep-2021 5057.00 5601.18 78.69 7.00 460.30 2583.65
   06:34:17.859.17-Sep-2021 5057.00 5601.32 78.69 7.00 460.50 2583.65
   06:34:18.058.17-Sep-2021 5057.00 5601.29 78.69 7.00 460.70 2583.65
   06:34:18.258.17-Sep-2021 5057.00 5601.36 78.69 7.00 460.90 2583.65
   06:34:18.458.17-Sep-2021 5057.00 5601.36 78.69 7.00 461.10 2583.65
   06:34:18.658.17-Sep-2021 5057.00 5602.04 78.69 7.00 461.30 2583.65
   06:34:18.858.17-Sep-2021 5057.00 5601.63 78.69 7.00 461.50 2583.65
   06:34:19.058.17-Sep-2021 5057.00 5601.97 78.69 7.00 461.70 2583.65
   06:34:19.258.17-Sep-2021 5057.00 5601.89 78.69 7.00 461.90 2583.65
   06:34:19.458.17-Sep-2021 5057.00 5601.89 78.69 7.00 462.10 2583.65
   06:34:19.658.17-Sep-2021 5057.00 5601.68 78.69 7.00 462.30 2583.65
   06:34:19.858.17-Sep-2021 5057.00 5601.47 78.69 7.00 462.50 2583.65
   06:34:20.058.17-Sep-2021 5057.00 5601.38 78.69 7.00 462.70 2583.65
   06:34:20.258.17-Sep-2021 5057.00 5601.36 78.69 7.00 462.90 2583.65
   06:34:20.458.17-Sep-2021 5057.00 5601.36 78.69 7.00 463.10 2583.65
   06:34:20.658.17-Sep-2021 5057.00 5601.21 78.69 7.00 463.30 2583.65
   06:34:20.858.17-Sep-2021 5057.00 5601.24 78.69 7.00 463.50 2583.65
   06:34:21.058.17-Sep-2021 5057.00 5601.29 78.69 7.00 463.70 2583.65
   06:34:21.258.17-Sep-2021 5057.00 5601.38 78.69 7.00 463.90 2583.65
   06:34:21.458.17-Sep-2021 5057.00 5601.38 78.69 7.00 464.10 2583.65
   06:34:21.658.17-Sep-2021 5057.00 5601.52 78.69 7.00 464.30 2583.65
   06:34:21.858.17-Sep-2021 5057.00 5601.62 78.69 7.00 464.50 2583.65
   06:34:22.058.17-Sep-2021 5057.00 5602.27 78.69 7.00 464.70 2583.65
   06:34:22.258.17-Sep-2021 5057.00 5601.46 78.69 7.00 464.90 2583.65
   06:34:22.458.17-Sep-2021 5057.00 5601.46 78.69 7.00 465.10 2583.65
   06:34:22.658.17-Sep-2021 5057.00 5601.72 78.69 7.00 465.30 2583.65
   06:34:22.857.17-Sep-2021 5057.00 5601.48 78.69 7.00 465.50 2583.65
   06:34:23.057.17-Sep-2021 5057.00 5601.66 78.69 7.00 465.70 2583.65
   06:34:23.257.17-Sep-2021 5057.00 5601.57 78.69 7.00 465.90 2583.65
   06:34:23.457.17-Sep-2021 5057.00 5601.57 78.69 7.00 466.10 2583.65
   06:34:23.657.17-Sep-2021 5057.00 5601.09 78.69 7.00 466.30 2583.65
   06:34:23.857.17-Sep-2021 5057.00 5601.43 78.69 7.00 466.50 2583.65
   06:34:24.057.17-Sep-2021 5057.00 5601.44 78.69 7.00 466.70 2583.65
   06:34:24.257.17-Sep-2021 5057.00 5600.94 78.69 7.00 466.90 2583.65
   06:34:24.457.17-Sep-2021 5057.00 5600.94 78.69 7.00 467.10 2583.65
   06:34:24.657.17-Sep-2021 5057.00 5600.49 78.69 7.00 467.30 2583.65
   06:34:24.857.17-Sep-2021 5057.00 5601.40 78.69 7.00 467.50 2583.65
   06:34:25.057.17-Sep-2021 5057.00 5601.50 78.69 7.00 467.70 2583.65
   06:34:25.257.17-Sep-2021 5057.00 5602.12 78.69 7.00 467.90 2583.65
   06:34:25.457.17-Sep-2021 5057.00 5602.12 78.69 7.00 468.10 2583.65
   06:34:25.657.17-Sep-2021 5057.00 5601.75 78.69 7.00 468.30 2583.65
   06:34:25.857.17-Sep-2021 5057.00 5601.59 78.69 7.00 468.50 2583.65
   06:34:26.057.17-Sep-2021 5057.00 5601.17 78.69 7.00 468.70 2583.65
   06:34:26.257.17-Sep-2021 5057.00 5601.24 78.69 7.00 468.90 2583.65
   06:34:26.457.17-Sep-2021 5057.00 5601.24 78.69 7.00 469.10 2583.65
   06:34:26.657.17-Sep-2021 5057.00 5601.16 78.69 7.00 469.30 2583.65
   06:34:26.857.17-Sep-2021 5057.00 5601.09 78.69 7.00 469.50 2583.65
   06:34:27.057.17-Sep-2021 5057.00 5601.28 78.69 7.00 469.70 2583.65
   06:34:27.257.17-Sep-2021 5057.00 5601.31 78.69 7.00 469.90 2583.65
   06:34:27.456.17-Sep-2021 5057.00 5601.31 78.69 7.00 470.10 2583.65
   06:34:27.656.17-Sep-2021 5057.00 5601.37 78.69 7.00 470.30 2583.65
   06:34:27.856.17-Sep-2021 5057.00 5601.35 78.69 7.00 470.50 2583.65
   06:34:28.056.17-Sep-2021 5057.00 5601.38 78.69 7.00 470.70 2583.65
   06:34:28.256.17-Sep-2021 5057.00 5601.35 78.69 7.00 470.90 2583.65
   06:34:28.456.17-Sep-2021 5057.00 5601.35 78.69 7.00 471.10 2583.65
   06:34:28.656.17-Sep-2021 5057.00 5601.70 78.69 7.00 471.30 2583.65
   06:34:28.856.17-Sep-2021 5057.00 5601.99 78.69 7.00 471.50 2583.65
   06:34:29.056.17-Sep-2021 5057.00 5601.89 78.69 7.00 471.70 2583.65
   06:34:29.256.17-Sep-2021 5057.00 5601.69 78.69 7.00 471.90 2583.65
   06:34:29.456.17-Sep-2021 5057.00 5601.69 78.69 7.00 472.10 2583.65
   06:34:29.656.17-Sep-2021 5057.00 5601.42 78.69 7.00 472.30 2583.65
   06:34:29.856.17-Sep-2021 5057.00 5601.30 78.69 7.00 472.50 2583.65
   06:34:30.056.17-Sep-2021 5057.00 5601.33 78.69 7.00 472.70 2583.65
   06:34:30.256.17-Sep-2021 5057.00 5601.21 78.69 7.00 472.90 2583.65
   06:34:30.456.17-Sep-2021 5057.00 5601.21 78.69 7.00 473.10 2583.65
   06:34:30.656.17-Sep-2021 5057.00 5601.27 78.69 7.00 473.30 2583.65
   06:34:30.856.17-Sep-2021 5057.00 5601.29 78.69 7.00 473.50 2583.65
   06:34:31.056.17-Sep-2021 5057.00 5601.36 78.69 7.00 473.70 2583.65
   06:34:31.256.17-Sep-2021 5057.00 5601.40 78.69 7.00 473.90 2583.65
   06:34:31.456.17-Sep-2021 5057.00 5601.40 78.69 7.00 474.10 2583.65
   06:34:31.656.17-Sep-2021 5057.00 5601.57 78.69 7.00 474.30 2583.65
   06:34:31.856.17-Sep-2021 5057.00 5602.22 78.69 7.00 474.50 2583.65
   06:34:32.056.17-Sep-2021 5057.00 5601.39 78.69 7.00 474.70 2583.65
   06:34:32.255.17-Sep-2021 5057.00 5602.28 78.69 7.00 474.90 2583.65
   06:34:32.455.17-Sep-2021 5057.00 5602.28 78.69 7.00 475.10 2583.65
   06:34:32.655.17-Sep-2021 5057.00 5601.52 78.69 7.00 475.30 2583.65
   06:34:32.855.17-Sep-2021 5057.00 5601.74 78.69 7.00 475.50 2583.65
   06:34:33.055.17-Sep-2021 5057.00 5601.52 78.69 7.00 475.70 2583.65
   06:34:33.255.17-Sep-2021 5057.00 5601.28 78.69 7.00 475.90 2583.65
   06:34:33.455.17-Sep-2021 5057.00 5601.28 78.69 7.00 476.10 2583.65
   06:34:33.655.17-Sep-2021 5057.00 5601.49 78.69 7.00 476.30 2583.65
   06:34:33.855.17-Sep-2021 5057.00 5601.63 78.69 7.00 476.50 2583.65
   06:34:34.055.17-Sep-2021 5057.00 5601.13 78.69 7.00 476.70 2583.65
   06:34:34.255.17-Sep-2021 5057.00 5601.85 78.69 7.00 476.90 2583.65
   06:34:34.455.17-Sep-2021 5057.00 5601.85 78.69 7.00 477.10 2583.65
   06:34:34.655.17-Sep-2021 5057.00 5610.99 78.69 7.00 477.30 2583.65
   06:34:34.855.17-Sep-2021 5057.00 5580.78 78.69 7.00 477.50 2583.65
   06:34:35.055.17-Sep-2021 5057.00 5592.97 78.69 7.00 477.70 2583.65
   06:34:35.255.17-Sep-2021 5057.00 5601.58 78.69 7.00 477.90 2583.65
   06:34:35.455.17-Sep-2021 5057.00 5601.58 78.69 7.00 478.10 2583.65
   06:34:35.655.17-Sep-2021 5057.00 5597.75 78.69 7.00 478.30 2583.65
   06:34:35.855.17-Sep-2021 5057.00 5598.80 78.69 7.00 478.50 2583.65
   06:34:36.055.17-Sep-2021 5057.00 5625.66 78.69 7.00 478.70 2583.65
   06:34:36.255.17-Sep-2021 5057.00 5636.91 78.69 7.00 478.90 2583.65
   06:34:36.455.17-Sep-2021 5057.00 5636.91 78.69 7.00 479.10 2583.65
   06:34:36.655.17-Sep-2021 5057.00 5679.07 78.69 7.00 479.30 2583.65
   06:34:36.854.17-Sep-2021 5057.00 5725.48 78.69 7.00 479.50 2583.65
   06:34:37.054.17-Sep-2021 5057.00 5761.21 78.69 7.00 479.70 2583.65
   06:34:37.254.17-Sep-2021 5057.00 5785.24 78.69 7.00 479.90 2583.65
   06:34:37.454.17-Sep-2021 5057.00 5785.24 78.69 7.00 480.10 2583.65
   06:34:37.654.17-Sep-2021 5057.00 5795.77 78.69 7.00 480.30 2583.65
   06:34:37.854.17-Sep-2021 5057.00 5796.81 78.69 7.00 480.50 2583.65
   06:34:38.054.17-Sep-2021 5057.00 5796.41 78.69 7.00 480.70 2583.65
   06:34:38.254.17-Sep-2021 5057.00 5772.01 78.69 7.00 480.90 2583.65
   06:34:38.454.17-Sep-2021 5057.00 5772.01 78.69 7.00 481.10 2583.65
   06:34:38.654.17-Sep-2021 5057.00 5739.63 78.69 7.00 481.30 2583.65
   06:34:38.854.17-Sep-2021 5057.00 5713.70 78.69 7.00 481.50 2583.65
   06:34:39.054.17-Sep-2021 5057.00 5648.12 78.69 7.00 481.70 2583.65
   06:34:39.254.17-Sep-2021 5057.00 5678.57 78.69 7.00 481.90 2583.65
   06:34:39.454.17-Sep-2021 5057.00 5678.57 78.69 7.00 482.10 2583.65
   06:34:39.654.17-Sep-2021 5057.00 5562.81 78.69 7.00 482.30 2583.65
   06:34:39.854.17-Sep-2021 5057.00 5610.44 78.69 7.00 482.50 2583.65
   06:34:40.054.17-Sep-2021 5057.00 5572.47 78.69 7.00 482.70 2583.65
