~Version Information
 VERS.                  2.0:   CWLS log ASCII Standard -VERSION 2.0
 WRAP.                   NO:   One line per depth step
~Well Information Block
#MNEM.UNIT     VALUE/NAME     DESCRIPTION
#---------     -----------    ---------------------------
 STRT.S             02:32:25 17-Sep-21: START TIME 02:32:25 17-Sep-21
 STOP.S             02:40:50 17-Sep-21: STOP TIME  02:40:50 17-Sep-21
 STEP.S                   0.00: STEP TIME
 NULL.                 -999.25: NULL VALUE
 DFWT.                        :  DIST FWL TEXT
 DFST.                        :  DIST FSL TEXT
 DMF .             Drill Floor:  DRILL MEAS FROM
 STIM.      10.59.12 05-Jul-21:  START TIME
 DATE.      10.59.12 10-Sep-21:  END TIME
 SPUD.               05-Jul-21:  SPUD DATE
 NREF.                    Grid:  NORTH REFERENCE
 HPTY.       Minimum Curvature:  HOLE POS TYPE
 DMOD.             Drill Model:  DRILL MOD DESC
 SVYD.                  Survey:  SURVEY DESC
 ILTD.               Lithology:  INTERP LTH DESC
 FTOP.          Formation Tops:  FORM TOPS DESC
 RIG .                     DWG:  RIG NAME
 PDAT.          Mean Sea Level:  PERMANENT DATUM
 FLD .                     ACG:  FIELD NAME
 SON .        AZ-XX-0907115008:  JOB NUMBER
 CTRY.              Azerbaijan:  COUNTRY NAME
 WELL.                    E35A:  WELL NAME
 SRVC.          TURAN DRILLING:  CONTRACTOR
 COMP.     BP Exploration (Caspian Sea LTD):  COMPANY
 UWI .                     N/A:  UNIQUE WELL IDENTIFIER
 API .                     N/A:  API NUMBER
 MDS .        Operator Entered:  MAG DATA SOURCE
 BASE.              Azerbaijan:  LOGGING EQUIPMENT BASE LOCATION
 REGN.                   EESSA:  REGION
 PROV.                    Baku:  PROVINCE
 STAT.                    Baku:  STATE NAME
 MWDS.                    Baku:  MWD SHOP
 JOBN.        AZ-XX-0907115008:  JOB TICKET NUMB
 DOE .                     N/A:  DOE NUMBER
 DCON.         Sperry Drilling:  DIRECTNL CONTR
 UNIT.                     N/A:  LOGGING EQUIPMENT ID
 WTYP.                Deviated:  WELL TYPE
 CNTY.                        :  COUNTY
 LOC .                        :  LOCATION
 LMF .             Drill Floor:  LOG MEASURED FROM
 TVDS.m                  43.16:  TVDSS CORRECTN
 LATI.deg                40.17:  LATITUDE
 LONG.deg                51.17:  LONGITUDE
 WHNS.m                  10.51:  WELL HEAD N/S
 WHEW.m                 -14.82:  WELL HEAD E/W
 UTMX.m              514336.92:  UTM X
 UTMY.m             4448618.56:  UTM Y
 DFWL.m                   0.00:  DISTANCE FWL
 DFSL.m                   0.00:  DISTANCE FSL
 SDEP.m                 849.00:  START DEPTH
 TDD .m                2862.00:  TOTAL DEPTH (DRILLER)
 VSDR.deg               292.10:  VERT SEC DIRECT
 GVFD.g                   1.00:  GRAVITY FIELD
 MFLD.nT              50382.00:  MAGNETIC FIELD
 MDIP.deg                59.68:  MAGNETIC DIP
 MDEC.deg                 6.66:  MAGNETIC DECL
 GRDC.deg                 0.09:  GRID CORRECTION
 AZTC.deg                 6.57:  AZM TOTAL CORR
 EPD .m                   0.00:  ELEVATION
 EGL .m                   0.00:  GROUND ELEVATION
 WDMS.m                 176.20:  WD ELEV
 APD .m                  43.16:  DEPTH ABOVE PD
 DEP .m                 363.42:  DEPTH
 AGAP.m                  43.16:  AIR GAP
 VSEW.m                 -14.82:  VERT SEC E/W
 VSNS.m                  10.51:  VERT SEC N/S
 EKB .m                  43.16:  KB ELEVATION
 EDF .m                  43.16:  DF ELEVATION
 TDL .m                1390.00:  TOTAL DEPTH (LOGGER)
 VSC .                       0:  VS TO CLOSURE
 MAGU.                 1855871:  MAGUTM CHECKSUM
~Parameter Information Block
#MNEM.UNIT       Value        Description
#---------     -----------    ---------------------------
 AV  .mps                 2.28:  Ann Velocity 
 AVMX.mps                 2.67:  Max Ann Veloc 
 AZIF.deg               305.00:  Azm, Final 
 BHAT.        Rotary Steerable:  BHA Type 
 BROT.°/30m               0.45:  Build Rotating 
 BS  .in                 12.25:  Bit Size 
 BSZ .in                 12.25:  Bit Size 
 BTPL.psig              600.00:  Bit Press Loss 
 CABU.                     Yes:  Customer Abuse 
 COMM.                     Œ$a:  Run Comments 1 
 TCS .hr                150.00:  Time Ciculation Ended 
 CV  .mps                 1.24:  Crit Velocity 
 CVMX.mps                 1.66:  Max Crit Veloc 
 DD1 .         Intigam Rahimov:  Direct Drillr 1 
 DD2 .            Azer Ravavov:  Direct Drillr 2 
 DD3 .              Samir Abas:  Direct Drillr 3 
 DDSV.               Geo-Pilot:  DD Service 
 DEFF.%                 100.00:  % Det Eff 
 DLRX.°/30m               1.57:  Dogleg Rot Max 
 DLSO.°/30m               0.00:  Dogleg Oriented 
 DLSX.°/30m               0.00:  Dogleg Str Max 
 DRET.      20.28.06 17-Sep-21:  Drill End Time 
 DRST.      20.27.35 10-Sep-21:  Drill Start Tim 
 DTIM.hr                 54.00:  Time Drilling 
 EDEP.m                5260.00:  End Depth 
 ENG1.      Bakhtiyar Jabbarli:  Engineer 1 
 ENG2.      Natik Hasanaghayev:  Engineer 2 
 ENG3.           Royal Nasirov:  Engineer 3 
 ETIM.      20.27.55 18-Sep-21:  End Time 
 FLOI.gpm              1100.00:  Flow In 
 FLON.gpm               800.00:  Flow In Min 
 FLOS.cptm                0.00:  Fluid Loss 
 FLOX.gpm              1200.00:  Flow In Max 
 DFT .        Mineral Oil Base:  Mud Type 
 HPRE.                      No:  High Pressure 
 HTEM.                      No:  High Temp 
 HYDO.m                   1.80:  Hydro Offset 
 IFIN.deg                72.31:  Inc, Final 
 IMAX.deg                72.36:  Inc Max 
 IMIN.deg                69.36:  Inc Min 
 IMND.m                4192.96:  Inc Min Depth 
 IMXD.m                5128.36:  Inc Max Depth 
 JARR.                      No:  Jarring 
 LETM.      20.29.00 17-Sep-21:  Log End Time 
 LOST.hr                     0:  Lost Rig Time 
 LSTM.      20.27.00 10-Sep-21:  Log Start Time 
 MDCL.ppm            227000.00:  Mud Chlorides 
 MDES.     Inversion Oil/Synthetic:  Mud Desc 
 DFD .sg                  1.45:  Mud Density 
 MDMN.sg                  1.45:  Dens Mud Min 
 MDMX.sg                  1.45:  Dens Mud Max 
 MOIL.                    70.5:  Run Mud Oil % 
 MOWR.                   71:29:  Run Mud OWR 
 MSND.                     0.3:  Run Mud Sand % 
 MSOL.                    19.8:  Run Mud Solids% 
 DFV .spqt               80.00:  Mud Viscosity 
 MWOD.in                  8.00:  MWD Tool OD 
 MWSI.                     Yes:  Serv Intrp, MWD 
 OTIM.hr                180.00:  Time Operating 
 PCON.           Look Like New:  Pad Condition 
 PMAX.psia             9910.94:  Press Op, Max 
 PV  .cP                 35.00:  Mud PV 
 RUN .                    1000:  Run Number 
 ROPA.m/hr               18.00:  ROP Avg 
 ROPN.m/hr                8.00:  ROP Min 
 ROPX.m/hr               23.00:  ROP Max 
 RPMA.rpm               150.00:  RPM Surface Avg 
 RPMN.rpm               120.00:  RPM Surface Min 
 RPMX.rpm               160.00:  RPM Surface Max 
 RRUN.                    L503:  Rig Run Number 
 RTIM.hr                  5.00:  Time Reaming 
 SAZI.deg               298.42:  Azm, Start 
 SDEP.m                3870.00:  Start Depth 
 SIDD.                      No:  Serv Intrp, DD 
 SINC.deg                69.57:  Inc, Start 
 SPPA.psig             5500.00:  SPP Avg 
 SPPN.psig             4400.00:  SPP Min 
 SPPX.psig             5800.00:  SPP Max 
 STIM.      15.29.39 09-Sep-21:  Start Time 
 SVCS.                 DD, MWD:  Services 
 SVER.                    9.20:  Sperry Version 
 TDAT.m                5260.00:  Tot Depth Attmp 
 TDDF.                      No:  Trip for DD 
 TDLG.m                1390.00:  Tot Depth Loggd 
 TFF .                      No:  Trip for Fail 
 TQAA.f-kp               22.00:  Torque Abs Avg 
 TQAN.f-kp               13.00:  Torque Abs Min 
 TQAX.f-kp               27.00:  Torque Abs Max 
 TRRT.°/30m               1.60:  Turn Rotating 
 MRT .                  EWR-M5:  Maximum Recorded Temperature 
 TTMX.degC               92.00:  Max Tool Temp 
 VS01.                12330975:  Virtual Str1 SN 
 VS02.                90658671:  Virtual Str2 SN 
 VS03.                90658508:  Virtual Str3 SN 
 VS04.                90660974:  Virtual Str4 SN 
 VS05.                90654675:  Virtual Str5 SN 
 WBMN.klb                15.00:  WOB Min 
 WITN.     Alexander Yadullayev:  Customer Rep 
 WITN.           Adil Mammadov:  Customer Rep 2 
 WOBA.klb                17.00:  WOB Avg 
 WOBX.klb                18.00:  WOB Max 
 YP  .lhf2               31.00:  Yield Point 
~Curve Information Block
#MNEM.UNIT                 API CODE     Curve Description
#---------               -----------    ---------------------------
 TIME.HHMMSS            00 000 000 000:  GT Time & Date
 GTDEPTH.m              00 000 000 000:  GT Depth
 GTPQH.psia             00 000 000 000:  GT HR Quartz Pressure
 GTTQ.degC              00 000 000 000:  GT Quartz Temperature
 GTTN.NONE              00 000 000 000:  GT Test Number
 GTET.sec               00 000 000 000:  GT Elapsed Test Time
 GTTVD.m                00 000 000 000:  GT True Vertical Depth
#Other Information
#
#WARRANTY: Halliburton will use its best efforts to furnish customers with 
#accurate information and interpretations that are part of, and incident to, the services 
#provided.  However, Halliburton cannot and does not warrant the accuracy 
#or correctness of such information and interpretations.  Under no circumstances should any 
#such information or interpretation be relied upon as the sole basis for any drilling, 
#completion, production, or financial decision or any procedure involving any risk to the 
#safety of any drilling venture, drilling rig or its crew or any other third party.  The 
#Customer has full responsibility for all drilling, completion and production operation.  
#Halliburton makes no representations or warranties, either expressed or 
#implied, including, but not limited to, the implied warranties of merchantability or fitness 
#for a particular purpose, with respect to the services rendered.  In no event will 
#Halliburton be liable for failure to obtain any particular results or for 
#any damages, including, but not limited to, indirect, special or consequential damages, 
#resulting from the use of any information or interpretation provided by Halliburton.
#
~A           TIME           GTDEPTH  GTPQH  GTTQ  GTTN  GTET   GTTVD  
# ...
   02:33:34.000.17-Sep-2021 5127.50 2598.78 80.41 2.00  69.00 2605.35
   02:33:34.200.17-Sep-2021 5127.50 2598.78 80.41 2.00  69.20 2605.35
   02:33:34.400.17-Sep-2021 5127.50 2628.72 80.41 2.00  69.40 2605.35
   02:33:34.600.17-Sep-2021 5127.50 2642.99 80.41 2.00  69.60 2605.35
   02:33:34.800.17-Sep-2021 5127.50 2656.35 80.40 2.00  69.80 2605.35
   02:33:35.000.17-Sep-2021 5127.50 2670.48 80.40 2.00  70.00 2605.35
   02:33:35.200.17-Sep-2021 5127.50 2670.48 80.40 2.00  70.20 2605.35
   02:33:35.400.17-Sep-2021 5127.50 3709.72 80.40 2.00  70.40 2605.35
   02:33:35.600.17-Sep-2021 5127.50 4125.41 80.40 2.00  70.60 2605.35
   02:33:35.800.17-Sep-2021 5127.50 4411.96 80.40 2.00  70.80 2605.35
   02:33:36.000.17-Sep-2021 5127.50 4658.55 80.40 2.00  71.00 2605.35
   02:33:36.200.17-Sep-2021 5127.50 4658.55 80.40 2.00  71.20 2605.35
   02:33:36.400.17-Sep-2021 5127.50 5028.67 80.40 2.00  71.40 2605.35
   02:33:36.600.17-Sep-2021 5127.50 5080.16 80.40 2.00  71.60 2605.35
   02:33:36.800.17-Sep-2021 5127.50 5118.25 80.40 2.00  71.80 2605.35
   02:33:37.000.17-Sep-2021 5127.50 5154.98 80.40 2.00  72.00 2605.35
   02:33:37.200.17-Sep-2021 5127.50 5154.98 80.40 2.00  72.20 2605.35
   02:33:37.400.17-Sep-2021 5127.50 5218.90 80.40 2.00  72.40 2605.35
   02:33:37.600.17-Sep-2021 5127.50 5244.09 80.40 2.00  72.60 2605.35
   02:33:37.800.17-Sep-2021 5127.50 5266.12 80.41 2.00  72.80 2605.35
   02:33:38.000.17-Sep-2021 5127.50 5291.21 80.41 2.00  73.00 2605.35
   02:33:38.200.17-Sep-2021 5127.50 5291.21 80.41 2.00  73.20 2605.35
   02:33:38.400.17-Sep-2021 5127.50 5319.47 80.41 2.00  73.40 2605.35
   02:33:38.600.17-Sep-2021 5127.50 5355.93 80.41 2.00  73.60 2605.35
   02:33:38.800.17-Sep-2021 5127.50 5378.13 80.41 2.00  73.80 2605.35
   02:33:39.000.17-Sep-2021 5127.50 5395.43 80.42 2.00  74.00 2605.35
   02:33:39.200.17-Sep-2021 5127.50 5395.43 80.42 2.00  74.20 2605.35
   02:33:39.400.17-Sep-2021 5127.50 5419.19 80.42 2.00  74.40 2605.35
   02:33:39.600.17-Sep-2021 5127.50 5428.22 80.42 2.00  74.60 2605.35
   02:33:39.800.17-Sep-2021 5127.50 5436.13 80.42 2.00  74.80 2605.35
   02:33:40.000.17-Sep-2021 5127.50 5442.93 80.42 2.00  75.00 2605.35
   02:33:40.200.17-Sep-2021 5127.50 5442.93 80.42 2.00  75.20 2605.35
   02:33:40.400.17-Sep-2021 5127.50 5455.28 80.43 2.00  75.40 2605.35
   02:33:40.600.17-Sep-2021 5127.50 5460.96 80.43 2.00  75.60 2605.35
   02:33:40.800.17-Sep-2021 5127.50 5466.09 80.43 2.00  75.80 2605.35
   02:33:41.000.17-Sep-2021 5127.50 5471.01 80.43 2.00  76.00 2605.35
   02:33:41.200.17-Sep-2021 5127.50 5471.01 80.43 2.00  76.20 2605.35
   02:33:41.400.17-Sep-2021 5127.50 5485.88 80.44 2.00  76.40 2605.35
   02:33:41.600.17-Sep-2021 5127.50 5490.85 80.44 2.00  76.60 2605.35
   02:33:41.800.17-Sep-2021 5127.50 5494.06 80.44 2.00  76.80 2605.35
   02:33:42.000.17-Sep-2021 5127.50 5497.60 80.44 2.00  77.00 2605.35
   02:33:42.200.17-Sep-2021 5127.50 5497.60 80.44 2.00  77.20 2605.35
   02:33:42.400.17-Sep-2021 5127.50 5504.42 80.45 2.00  77.40 2605.35
   02:33:42.600.17-Sep-2021 5127.50 5507.28 80.45 2.00  77.60 2605.35
   02:33:42.800.17-Sep-2021 5127.50 5510.07 80.45 2.00  77.80 2605.35
   02:33:43.000.17-Sep-2021 5127.50 5512.47 80.45 2.00  78.00 2605.35
   02:33:43.200.17-Sep-2021 5127.50 5512.47 80.45 2.00  78.20 2605.35
   02:33:43.400.17-Sep-2021 5127.50 5516.63 80.45 2.00  78.40 2605.35
   02:33:43.600.17-Sep-2021 5127.50 5518.54 80.46 2.00  78.60 2605.35
   02:33:43.800.17-Sep-2021 5127.50 5520.29 80.46 2.00  78.80 2605.35
   02:33:44.000.17-Sep-2021 5127.50 5522.02 80.46 2.00  79.00 2605.35
   02:33:44.200.17-Sep-2021 5127.50 5522.02 80.46 2.00  79.20 2605.35
   02:33:44.400.17-Sep-2021 5127.50 5529.17 80.46 2.00  79.40 2605.35
   02:33:44.600.17-Sep-2021 5127.50 5532.19 80.46 2.00  79.60 2605.35
   02:33:44.800.17-Sep-2021 5127.50 5534.47 80.46 2.00  79.80 2605.35
   02:33:45.000.17-Sep-2021 5127.50 5534.74 80.46 2.00  80.00 2605.35
   02:33:45.200.17-Sep-2021 5127.50 5534.74 80.46 2.00  80.20 2605.35
   02:33:45.400.17-Sep-2021 5127.50 5538.63 80.47 2.00  80.40 2605.35
   02:33:45.600.17-Sep-2021 5127.50 5541.24 80.47 2.00  80.60 2605.35
   02:33:45.800.17-Sep-2021 5127.50 5541.41 80.47 2.00  80.80 2605.35
   02:33:46.000.17-Sep-2021 5127.50 5541.79 80.47 2.00  81.00 2605.35
   02:33:46.200.17-Sep-2021 5127.50 5541.79 80.47 2.00  81.20 2605.35
   02:33:46.400.17-Sep-2021 5127.50 5545.24 80.47 2.00  81.40 2605.35
   02:33:46.600.17-Sep-2021 5127.50 5545.36 80.47 2.00  81.60 2605.35
   02:33:46.800.17-Sep-2021 5127.50 5547.48 80.47 2.00  81.80 2605.35
   02:33:47.000.17-Sep-2021 5127.50 5547.42 80.47 2.00  82.00 2605.35
   02:33:47.200.17-Sep-2021 5127.50 5547.42 80.47 2.00  82.20 2605.35
   02:33:47.400.17-Sep-2021 5127.50 5547.90 80.47 2.00  82.40 2605.35
   02:33:47.600.17-Sep-2021 5127.50 5550.25 80.47 2.00  82.60 2605.35
   02:33:47.800.17-Sep-2021 5127.50 5550.61 80.47 2.00  82.80 2605.35
   02:33:48.000.17-Sep-2021 5127.50 5552.40 80.48 2.00  83.00 2605.35
   02:33:48.200.17-Sep-2021 5127.50 5552.40 80.48 2.00  83.20 2605.35
   02:33:48.400.17-Sep-2021 5127.50 5552.44 80.48 2.00  83.40 2605.35
   02:33:48.600.17-Sep-2021 5127.50 5552.68 80.48 2.00  83.60 2605.35
   02:33:48.800.17-Sep-2021 5127.50 5552.72 80.48 2.00  83.80 2605.35
   02:33:49.000.17-Sep-2021 5127.50 5552.76 80.48 2.00  84.00 2605.35
   02:33:49.200.17-Sep-2021 5127.50 5552.76 80.48 2.00  84.20 2605.35
   02:33:49.400.17-Sep-2021 5127.50 5553.04 80.48 2.00  84.40 2605.35
   02:33:49.600.17-Sep-2021 5127.50 5553.32 80.48 2.00  84.60 2605.35
   02:33:49.800.17-Sep-2021 5127.50 5553.71 80.48 2.00  84.80 2605.35
   02:33:50.000.17-Sep-2021 5127.50 5554.02 80.48 2.00  85.00 2605.35
   02:33:50.200.17-Sep-2021 5127.50 5554.02 80.48 2.00  85.20 2605.35
   02:33:50.400.17-Sep-2021 5127.50 5554.58 80.48 2.00  85.40 2605.35
   02:33:50.600.17-Sep-2021 5127.50 5554.96 80.48 2.00  85.60 2605.35
   02:33:50.800.17-Sep-2021 5127.50 5556.93 80.48 2.00  85.80 2605.35
   02:33:51.000.17-Sep-2021 5127.50 5558.83 80.48 2.00  86.00 2605.35
   02:33:51.200.17-Sep-2021 5127.50 5558.83 80.48 2.00  86.20 2605.35
   02:33:51.400.17-Sep-2021 5127.50 5558.75 80.48 2.00  86.40 2605.35
   02:33:51.600.17-Sep-2021 5127.50 5559.01 80.48 2.00  86.60 2605.35
   02:33:51.800.17-Sep-2021 5127.50 5559.08 80.48 2.00  86.80 2605.35
   02:33:52.000.17-Sep-2021 5127.50 5559.12 80.48 2.00  87.00 2605.35
   02:33:52.200.17-Sep-2021 5127.50 5559.12 80.48 2.00  87.20 2605.35
   02:33:52.400.17-Sep-2021 5127.50 5559.20 80.48 2.00  87.40 2605.35
   02:33:52.600.17-Sep-2021 5127.50 5559.20 80.48 2.00  87.60 2605.35
   02:33:52.800.17-Sep-2021 5127.50 5559.20 80.48 2.00  87.80 2605.35
   02:33:53.000.17-Sep-2021 5127.50 5559.31 80.48 2.00  88.00 2605.35
   02:33:53.200.17-Sep-2021 5127.50 5559.31 80.48 2.00  88.20 2605.35
   02:33:53.400.17-Sep-2021 5127.50 5559.57 80.48 2.00  88.40 2605.35
   02:33:53.600.17-Sep-2021 5127.50 5559.75 80.48 2.00  88.60 2605.35
   02:33:53.800.17-Sep-2021 5127.50 5559.96 80.48 2.00  88.80 2605.35
   02:33:54.000.17-Sep-2021 5127.50 5560.19 80.48 2.00  89.00 2605.35
   02:33:54.200.17-Sep-2021 5127.50 5560.19 80.48 2.00  89.20 2605.35
   02:33:54.400.17-Sep-2021 5127.50 5562.80 80.48 2.00  89.40 2605.35
   02:33:54.600.17-Sep-2021 5127.50 5563.29 80.48 2.00  89.60 2605.35
   02:33:54.800.17-Sep-2021 5127.50 5563.22 80.48 2.00  89.80 2605.35
   02:33:55.000.17-Sep-2021 5127.50 5563.55 80.48 2.00  90.00 2605.35
   02:33:55.200.17-Sep-2021 5127.50 5563.55 80.48 2.00  90.20 2605.35
   02:33:55.400.17-Sep-2021 5127.50 5563.88 80.48 2.00  90.40 2605.35
   02:33:55.600.17-Sep-2021 5127.50 5564.68 80.48 2.00  90.60 2605.35
   02:33:55.800.17-Sep-2021 5127.50 5564.52 80.48 2.00  90.80 2605.35
   02:33:56.000.17-Sep-2021 5127.50 5564.34 80.48 2.00  91.00 2605.35
   02:33:56.200.17-Sep-2021 5127.50 5564.34 80.48 2.00  91.20 2605.35
   02:33:56.400.17-Sep-2021 5127.50 5565.16 80.48 2.00  91.40 2605.35
   02:33:56.600.17-Sep-2021 5127.50 5565.79 80.48 2.00  91.60 2605.35
   02:33:56.800.17-Sep-2021 5127.50 5565.76 80.48 2.00  91.80 2605.35
