~Version Information
 VERS.                  2.0:   CWLS log ASCII Standard -VERSION 2.0
 WRAP.                   NO:   One line per depth step
~Well Information Block
#MNEM.UNIT     VALUE/NAME     DESCRIPTION
#---------     -----------    ---------------------------
 STRT.S             11:33:10 17-Sep-21: START TIME 11:33:10 17-Sep-21
 STOP.S             11:40:20 17-Sep-21: STOP TIME  11:40:20 17-Sep-21
 STEP.S                   0.00: STEP TIME
 NULL.                 -999.25: NULL VALUE
 DFWT.                        :  DIST FWL TEXT
 DFST.                        :  DIST FSL TEXT
 DMF .             Drill Floor:  DRILL MEAS FROM
 STIM.      10.59.12 05-Jul-21:  START TIME
 DATE.      10.59.12 10-Sep-21:  END TIME
 SPUD.               05-Jul-21:  SPUD DATE
 NREF.                    Grid:  NORTH REFERENCE
 HPTY.       Minimum Curvature:  HOLE POS TYPE
 DMOD.             Drill Model:  DRILL MOD DESC
 SVYD.                  Survey:  SURVEY DESC
 ILTD.               Lithology:  INTERP LTH DESC
 FTOP.          Formation Tops:  FORM TOPS DESC
 RIG .                     DWG:  RIG NAME
 PDAT.          Mean Sea Level:  PERMANENT DATUM
 FLD .                     ACG:  FIELD NAME
 SON .        AZ-XX-0907115008:  JOB NUMBER
 CTRY.              Azerbaijan:  COUNTRY NAME
 WELL.                    E35A:  WELL NAME
 SRVC.          TURAN DRILLING:  CONTRACTOR
 COMP.     BP Exploration (Caspian Sea LTD):  COMPANY
 UWI .                     N/A:  UNIQUE WELL IDENTIFIER
 API .                     N/A:  API NUMBER
 MDS .        Operator Entered:  MAG DATA SOURCE
 BASE.              Azerbaijan:  LOGGING EQUIPMENT BASE LOCATION
 REGN.                   EESSA:  REGION
 PROV.                    Baku:  PROVINCE
 STAT.                    Baku:  STATE NAME
 MWDS.                    Baku:  MWD SHOP
 JOBN.        AZ-XX-0907115008:  JOB TICKET NUMB
 DOE .                     N/A:  DOE NUMBER
 DCON.         Sperry Drilling:  DIRECTNL CONTR
 UNIT.                     N/A:  LOGGING EQUIPMENT ID
 WTYP.                Deviated:  WELL TYPE
 CNTY.                        :  COUNTY
 LOC .                        :  LOCATION
 LMF .             Drill Floor:  LOG MEASURED FROM
 TVDS.m                  43.16:  TVDSS CORRECTN
 LATI.deg                40.17:  LATITUDE
 LONG.deg                51.17:  LONGITUDE
 WHNS.m                  10.51:  WELL HEAD N/S
 WHEW.m                 -14.82:  WELL HEAD E/W
 UTMX.m              514336.92:  UTM X
 UTMY.m             4448618.56:  UTM Y
 DFWL.m                   0.00:  DISTANCE FWL
 DFSL.m                   0.00:  DISTANCE FSL
 SDEP.m                 849.00:  START DEPTH
 TDD .m                2862.00:  TOTAL DEPTH (DRILLER)
 VSDR.deg               292.10:  VERT SEC DIRECT
 GVFD.g                   1.00:  GRAVITY FIELD
 MFLD.nT              50382.00:  MAGNETIC FIELD
 MDIP.deg                59.68:  MAGNETIC DIP
 MDEC.deg                 6.66:  MAGNETIC DECL
 GRDC.deg                 0.09:  GRID CORRECTION
 AZTC.deg                 6.57:  AZM TOTAL CORR
 EPD .m                   0.00:  ELEVATION
 EGL .m                   0.00:  GROUND ELEVATION
 WDMS.m                 176.20:  WD ELEV
 APD .m                  43.16:  DEPTH ABOVE PD
 DEP .m                 363.42:  DEPTH
 AGAP.m                  43.16:  AIR GAP
 VSEW.m                 -14.82:  VERT SEC E/W
 VSNS.m                  10.51:  VERT SEC N/S
 EKB .m                  43.16:  KB ELEVATION
 EDF .m                  43.16:  DF ELEVATION
 TDL .m                1390.00:  TOTAL DEPTH (LOGGER)
 VSC .                       0:  VS TO CLOSURE
 MAGU.                 1855871:  MAGUTM CHECKSUM
~Parameter Information Block
#MNEM.UNIT       Value        Description
#---------     -----------    ---------------------------
 AV  .mps                 2.28:  Ann Velocity 
 AVMX.mps                 2.67:  Max Ann Veloc 
 AZIF.deg               305.00:  Azm, Final 
 BHAT.        Rotary Steerable:  BHA Type 
 BROT.°/30m               0.45:  Build Rotating 
 BS  .in                 12.25:  Bit Size 
 BSZ .in                 12.25:  Bit Size 
 BTPL.psig              600.00:  Bit Press Loss 
 CABU.                     Yes:  Customer Abuse 
 COMM.                     Á~:  Run Comments 1 
 TCS .hr                150.00:  Time Ciculation Ended 
 CV  .mps                 1.24:  Crit Velocity 
 CVMX.mps                 1.66:  Max Crit Veloc 
 DD1 .         Intigam Rahimov:  Direct Drillr 1 
 DD2 .            Azer Ravavov:  Direct Drillr 2 
 DD3 .              Samir Abas:  Direct Drillr 3 
 DDSV.               Geo-Pilot:  DD Service 
 DEFF.%                 100.00:  % Det Eff 
 DLRX.°/30m               1.57:  Dogleg Rot Max 
 DLSO.°/30m               0.00:  Dogleg Oriented 
 DLSX.°/30m               0.00:  Dogleg Str Max 
 DRET.      20.28.06 17-Sep-21:  Drill End Time 
 DRST.      20.27.35 10-Sep-21:  Drill Start Tim 
 DTIM.hr                 54.00:  Time Drilling 
 EDEP.m                5260.00:  End Depth 
 ENG1.      Bakhtiyar Jabbarli:  Engineer 1 
 ENG2.      Natik Hasanaghayev:  Engineer 2 
 ENG3.           Royal Nasirov:  Engineer 3 
 ETIM.      20.27.55 18-Sep-21:  End Time 
 FLOI.gpm              1100.00:  Flow In 
 FLON.gpm               800.00:  Flow In Min 
 FLOS.cptm                0.00:  Fluid Loss 
 FLOX.gpm              1200.00:  Flow In Max 
 DFT .        Mineral Oil Base:  Mud Type 
 HPRE.                      No:  High Pressure 
 HTEM.                      No:  High Temp 
 HYDO.m                   1.80:  Hydro Offset 
 IFIN.deg                72.31:  Inc, Final 
 IMAX.deg                72.36:  Inc Max 
 IMIN.deg                69.36:  Inc Min 
 IMND.m                4192.96:  Inc Min Depth 
 IMXD.m                5128.36:  Inc Max Depth 
 JARR.                      No:  Jarring 
 LETM.      20.29.00 17-Sep-21:  Log End Time 
 LOST.hr                     0:  Lost Rig Time 
 LSTM.      20.27.00 10-Sep-21:  Log Start Time 
 MDCL.ppm            227000.00:  Mud Chlorides 
 MDES.     Inversion Oil/Synthetic:  Mud Desc 
 DFD .sg                  1.45:  Mud Density 
 MDMN.sg                  1.45:  Dens Mud Min 
 MDMX.sg                  1.45:  Dens Mud Max 
 MOIL.                    70.5:  Run Mud Oil % 
 MOWR.                   71:29:  Run Mud OWR 
 MSND.                     0.3:  Run Mud Sand % 
 MSOL.                    19.8:  Run Mud Solids% 
 DFV .spqt               80.00:  Mud Viscosity 
 MWOD.in                  8.00:  MWD Tool OD 
 MWSI.                     Yes:  Serv Intrp, MWD 
 OTIM.hr                180.00:  Time Operating 
 PCON.           Look Like New:  Pad Condition 
 PMAX.psia             9910.94:  Press Op, Max 
 PV  .cP                 35.00:  Mud PV 
 RUN .                    1000:  Run Number 
 ROPA.m/hr               18.00:  ROP Avg 
 ROPN.m/hr                8.00:  ROP Min 
 ROPX.m/hr               23.00:  ROP Max 
 RPMA.rpm               150.00:  RPM Surface Avg 
 RPMN.rpm               120.00:  RPM Surface Min 
 RPMX.rpm               160.00:  RPM Surface Max 
 RRUN.                    L503:  Rig Run Number 
 RTIM.hr                  5.00:  Time Reaming 
 SAZI.deg               298.42:  Azm, Start 
 SDEP.m                3870.00:  Start Depth 
 SIDD.                      No:  Serv Intrp, DD 
 SINC.deg                69.57:  Inc, Start 
 SPPA.psig             5500.00:  SPP Avg 
 SPPN.psig             4400.00:  SPP Min 
 SPPX.psig             5800.00:  SPP Max 
 STIM.      15.29.39 09-Sep-21:  Start Time 
 SVCS.                 DD, MWD:  Services 
 SVER.                    9.20:  Sperry Version 
 TDAT.m                5260.00:  Tot Depth Attmp 
 TDDF.                      No:  Trip for DD 
 TDLG.m                1390.00:  Tot Depth Loggd 
 TFF .                      No:  Trip for Fail 
 TQAA.f-kp               22.00:  Torque Abs Avg 
 TQAN.f-kp               13.00:  Torque Abs Min 
 TQAX.f-kp               27.00:  Torque Abs Max 
 TRRT.°/30m               1.60:  Turn Rotating 
 MRT .                  EWR-M5:  Maximum Recorded Temperature 
 TTMX.degC               92.00:  Max Tool Temp 
 VS01.                12330975:  Virtual Str1 SN 
 VS02.                90658671:  Virtual Str2 SN 
 VS03.                90658508:  Virtual Str3 SN 
 VS04.                90660974:  Virtual Str4 SN 
 VS05.                90654675:  Virtual Str5 SN 
 WBMN.klb                15.00:  WOB Min 
 WITN.     Alexander Yadullayev:  Customer Rep 
 WITN.           Adil Mammadov:  Customer Rep 2 
 WOBA.klb                17.00:  WOB Avg 
 WOBX.klb                18.00:  WOB Max 
 YP  .lhf2               31.00:  Yield Point 
~Curve Information Block
#MNEM.UNIT                 API CODE     Curve Description
#---------               -----------    ---------------------------
 TIME.HHMMSS            00 000 000 000:  GT Time & Date
 GTDEPTH.m              00 000 000 000:  GT Depth
 GTPQH.psia             00 000 000 000:  GT HR Quartz Pressure
 GTTQ.degC              00 000 000 000:  GT Quartz Temperature
 GTTN.NONE              00 000 000 000:  GT Test Number
 GTET.sec               00 000 000 000:  GT Elapsed Test Time
 GTTVD.m                00 000 000 000:  GT True Vertical Depth
#Other Information
#
#WARRANTY: Halliburton will use its best efforts to furnish customers with 
#accurate information and interpretations that are part of, and incident to, the services 
#provided.  However, Halliburton cannot and does not warrant the accuracy 
#or correctness of such information and interpretations.  Under no circumstances should any 
#such information or interpretation be relied upon as the sole basis for any drilling, 
#completion, production, or financial decision or any procedure involving any risk to the 
#safety of any drilling venture, drilling rig or its crew or any other third party.  The 
#Customer has full responsibility for all drilling, completion and production operation.  
#Halliburton makes no representations or warranties, either expressed or 
#implied, including, but not limited to, the implied warranties of merchantability or fitness 
#for a particular purpose, with respect to the services rendered.  In no event will 
#Halliburton be liable for failure to obtain any particular results or for 
#any damages, including, but not limited to, indirect, special or consequential damages, 
#resulting from the use of any information or interpretation provided by Halliburton.
#
~A           TIME           GTDEPTH  GTPQH  GTTQ  GTTN  GTET   GTTVD  
# ...
   11:39:41.789.17-Sep-2021 4887.00 5433.12 77.25 9.00 391.04 2528.65
   11:39:41.989.17-Sep-2021 4887.00 5433.12 77.25 9.00 391.24 2528.65
   11:39:42.189.17-Sep-2021 4887.00 5432.61 77.25 9.00 391.44 2528.65
   11:39:42.389.17-Sep-2021 4887.00 5432.92 77.25 9.00 391.64 2528.65
   11:39:42.589.17-Sep-2021 4887.00 5433.48 77.25 9.00 391.84 2528.65
   11:39:42.789.17-Sep-2021 4887.00 5433.16 77.25 9.00 392.04 2528.65
   11:39:42.989.17-Sep-2021 4887.00 5433.16 77.25 9.00 392.24 2528.65
   11:39:43.189.17-Sep-2021 4887.00 5437.23 77.25 9.00 392.44 2528.65
   11:39:43.389.17-Sep-2021 4887.00 5432.40 77.25 9.00 392.64 2528.65
   11:39:43.589.17-Sep-2021 4887.00 5433.47 77.25 9.00 392.84 2528.65
   11:39:43.789.17-Sep-2021 4887.00 5433.39 77.25 9.00 393.04 2528.65
   11:39:43.989.17-Sep-2021 4887.00 5433.39 77.25 9.00 393.24 2528.65
   11:39:44.189.17-Sep-2021 4887.00 5433.74 77.25 9.00 393.44 2528.65
   11:39:44.389.17-Sep-2021 4887.00 5433.11 77.25 9.00 393.64 2528.65
   11:39:44.589.17-Sep-2021 4887.00 5433.45 77.25 9.00 393.84 2528.65
   11:39:44.789.17-Sep-2021 4887.00 5433.10 77.25 9.00 394.04 2528.65
   11:39:44.989.17-Sep-2021 4887.00 5433.10 77.25 9.00 394.24 2528.65
   11:39:45.189.17-Sep-2021 4887.00 5432.80 77.25 9.00 394.44 2528.65
   11:39:45.389.17-Sep-2021 4887.00 5432.84 77.25 9.00 394.64 2528.65
   11:39:45.589.17-Sep-2021 4887.00 5433.23 77.25 9.00 394.84 2528.65
   11:39:45.789.17-Sep-2021 4887.00 5433.02 77.25 9.00 395.04 2528.65
   11:39:45.989.17-Sep-2021 4887.00 5433.02 77.25 9.00 395.24 2528.65
   11:39:46.189.17-Sep-2021 4887.00 5433.05 77.25 9.00 395.44 2528.65
   11:39:46.389.17-Sep-2021 4887.00 5433.31 77.25 9.00 395.64 2528.65
   11:39:46.589.17-Sep-2021 4887.00 5435.05 77.25 9.00 395.84 2528.65
   11:39:46.789.17-Sep-2021 4887.00 5433.70 77.25 9.00 396.04 2528.65
   11:39:46.989.17-Sep-2021 4887.00 5433.70 77.25 9.00 396.24 2528.65
   11:39:47.189.17-Sep-2021 4887.00 5433.31 77.25 9.00 396.44 2528.65
   11:39:47.389.17-Sep-2021 4887.00 5433.97 77.25 9.00 396.64 2528.65
   11:39:47.589.17-Sep-2021 4887.00 5435.84 77.25 9.00 396.84 2528.65
   11:39:47.789.17-Sep-2021 4887.00 5433.69 77.25 9.00 397.04 2528.65
   11:39:47.989.17-Sep-2021 4887.00 5433.69 77.25 9.00 397.24 2528.65
   11:39:48.189.17-Sep-2021 4887.00 5432.95 77.25 9.00 397.44 2528.65
   11:39:48.389.17-Sep-2021 4887.00 5433.70 77.25 9.00 397.64 2528.65
   11:39:48.589.17-Sep-2021 4887.00 5436.87 77.25 9.00 397.84 2528.65
   11:39:48.789.17-Sep-2021 4887.00 5431.94 77.25 9.00 398.04 2528.65
   11:39:48.989.17-Sep-2021 4887.00 5431.94 77.25 9.00 398.24 2528.65
   11:39:49.189.17-Sep-2021 4887.00 5432.77 77.25 9.00 398.44 2528.65
   11:39:49.389.17-Sep-2021 4887.00 5437.78 77.25 9.00 398.64 2528.65
   11:39:49.589.17-Sep-2021 4887.00 5430.93 77.25 9.00 398.84 2528.65
   11:39:49.789.17-Sep-2021 4887.00 5432.25 77.25 9.00 399.04 2528.65
   11:39:49.989.17-Sep-2021 4887.00 5432.25 77.25 9.00 399.24 2528.65
   11:39:50.189.17-Sep-2021 4887.00 5433.98 77.25 9.00 399.44 2528.65
   11:39:50.389.17-Sep-2021 4887.00 5432.20 77.25 9.00 399.64 2528.65
   11:39:50.589.17-Sep-2021 4887.00 5431.96 77.25 9.00 399.84 2528.65
   11:39:50.790.17-Sep-2021 4887.00 5432.80 77.25 9.00 400.04 2528.65
   11:39:50.990.17-Sep-2021 4887.00 5432.80 77.25 9.00 400.24 2528.65
   11:39:51.190.17-Sep-2021 4887.00 5432.58 77.25 9.00 400.44 2528.65
   11:39:51.390.17-Sep-2021 4887.00 5432.34 77.25 9.00 400.64 2528.65
   11:39:51.590.17-Sep-2021 4887.00 5432.64 77.25 9.00 400.84 2528.65
   11:39:51.790.17-Sep-2021 4887.00 5433.24 77.25 9.00 401.04 2528.65
   11:39:51.990.17-Sep-2021 4887.00 5433.24 77.25 9.00 401.24 2528.65
   11:39:52.190.17-Sep-2021 4887.00 5432.84 77.25 9.00 401.44 2528.65
   11:39:52.390.17-Sep-2021 4887.00 5433.12 77.25 9.00 401.64 2528.65
   11:39:52.590.17-Sep-2021 4887.00 5435.95 77.25 9.00 401.84 2528.65
   11:39:52.790.17-Sep-2021 4887.00 5433.53 77.25 9.00 402.04 2528.65
   11:39:52.990.17-Sep-2021 4887.00 5433.53 77.25 9.00 402.24 2528.65
   11:39:53.190.17-Sep-2021 4887.00 5433.65 77.25 9.00 402.44 2528.65
   11:39:53.390.17-Sep-2021 4887.00 5434.60 77.25 9.00 402.64 2528.65
   11:39:53.590.17-Sep-2021 4887.00 5433.29 77.25 9.00 402.84 2528.65
   11:39:53.790.17-Sep-2021 4887.00 5432.79 77.25 9.00 403.04 2528.65
   11:39:53.990.17-Sep-2021 4887.00 5432.79 77.25 9.00 403.24 2528.65
   11:39:54.190.17-Sep-2021 4887.00 5432.98 77.25 9.00 403.44 2528.65
   11:39:54.390.17-Sep-2021 4887.00 5432.75 77.25 9.00 403.64 2528.65
   11:39:54.590.17-Sep-2021 4887.00 5432.48 77.25 9.00 403.84 2528.65
   11:39:54.790.17-Sep-2021 4887.00 5432.75 77.25 9.00 404.04 2528.65
   11:39:54.990.17-Sep-2021 4887.00 5432.75 77.25 9.00 404.24 2528.65
   11:39:55.190.17-Sep-2021 4887.00 5432.85 77.25 9.00 404.44 2528.65
   11:39:55.390.17-Sep-2021 4887.00 5432.75 77.25 9.00 404.64 2528.65
   11:39:55.590.17-Sep-2021 4887.00 5432.92 77.25 9.00 404.84 2528.65
   11:39:55.790.17-Sep-2021 4887.00 5433.17 77.25 9.00 405.04 2528.65
   11:39:55.990.17-Sep-2021 4887.00 5433.17 77.25 9.00 405.24 2528.65
   11:39:56.190.17-Sep-2021 4887.00 5432.19 77.25 9.00 405.44 2528.65
   11:39:56.390.17-Sep-2021 4887.00 5433.06 77.25 9.00 405.64 2528.65
   11:39:56.590.17-Sep-2021 4887.00 5433.04 77.25 9.00 405.84 2528.65
   11:39:56.790.17-Sep-2021 4887.00 5434.60 77.25 9.00 406.04 2528.65
   11:39:56.990.17-Sep-2021 4887.00 5434.60 77.25 9.00 406.24 2528.65
   11:39:57.190.17-Sep-2021 4887.00 5431.83 77.25 9.00 406.44 2528.65
   11:39:57.390.17-Sep-2021 4887.00 5433.24 77.25 9.00 406.65 2528.65
   11:39:57.590.17-Sep-2021 4887.00 5432.89 77.25 9.00 406.85 2528.65
   11:39:57.790.17-Sep-2021 4887.00 5434.11 77.25 9.00 407.05 2528.65
   11:39:57.990.17-Sep-2021 4887.00 5434.11 77.25 9.00 407.25 2528.65
   11:39:58.190.17-Sep-2021 4887.00 5432.18 77.25 9.00 407.45 2528.65
   11:39:58.390.17-Sep-2021 4887.00 5432.83 77.25 9.00 407.65 2528.65
   11:39:58.590.17-Sep-2021 4887.00 5434.47 77.25 9.00 407.85 2528.65
   11:39:58.790.17-Sep-2021 4887.00 5433.79 77.25 9.00 408.05 2528.65
   11:39:58.990.17-Sep-2021 4887.00 5433.79 77.25 9.00 408.25 2528.65
   11:39:59.190.17-Sep-2021 4887.00 5431.67 77.25 9.00 408.45 2528.65
   11:39:59.390.17-Sep-2021 4887.00 5432.90 77.25 9.00 408.65 2528.65
   11:39:59.590.17-Sep-2021 4887.00 5434.72 77.25 9.00 408.85 2528.65
   11:39:59.791.17-Sep-2021 4887.00 5433.78 77.25 9.00 409.05 2528.65
   11:39:59.991.17-Sep-2021 4887.00 5433.78 77.25 9.00 409.25 2528.65
   11:40:00.191.17-Sep-2021 4887.00 5433.18 77.25 9.00 409.45 2528.65
   11:40:00.391.17-Sep-2021 4887.00 5433.62 77.25 9.00 409.65 2528.65
   11:40:00.591.17-Sep-2021 4887.00 5433.07 77.25 9.00 409.85 2528.65
   11:40:00.791.17-Sep-2021 4887.00 5433.10 77.25 9.00 410.05 2528.65
   11:40:00.991.17-Sep-2021 4887.00 5433.10 77.25 9.00 410.25 2528.65
   11:40:01.191.17-Sep-2021 4887.00 5434.24 77.25 9.00 410.45 2528.65
   11:40:01.391.17-Sep-2021 4887.00 5434.93 77.25 9.00 410.65 2528.65
   11:40:01.591.17-Sep-2021 4887.00 5434.99 77.25 9.00 410.85 2528.65
   11:40:01.791.17-Sep-2021 4887.00 5438.86 77.25 9.00 411.05 2528.65
   11:40:01.991.17-Sep-2021 4887.00 5438.86 77.25 9.00 411.25 2528.65
   11:40:02.191.17-Sep-2021 4887.00 5435.15 77.25 9.00 411.45 2528.65
   11:40:02.391.17-Sep-2021 4887.00 5435.28 77.25 9.00 411.65 2528.65
   11:40:02.591.17-Sep-2021 4887.00 5436.87 77.25 9.00 411.85 2528.65
   11:40:02.791.17-Sep-2021 4887.00 5435.19 77.25 9.00 412.05 2528.65
   11:40:02.991.17-Sep-2021 4887.00 5435.19 77.25 9.00 412.25 2528.65
   11:40:03.191.17-Sep-2021 4887.00 5435.11 77.25 9.00 412.45 2528.65
   11:40:03.391.17-Sep-2021 4887.00 5435.01 77.25 9.00 412.65 2528.65
   11:40:03.591.17-Sep-2021 4887.00 5434.80 77.25 9.00 412.85 2528.65
   11:40:03.791.17-Sep-2021 4887.00 5434.70 77.25 9.00 413.05 2528.65
   11:40:03.991.17-Sep-2021 4887.00 5434.70 77.25 9.00 413.25 2528.65
   11:40:04.191.17-Sep-2021 4887.00 5435.10 77.25 9.00 413.45 2528.65
   11:40:04.391.17-Sep-2021 4887.00 5434.87 77.25 9.00 413.65 2528.65
   11:40:04.591.17-Sep-2021 4887.00 5434.88 77.25 9.00 413.85 2528.65
