~Version Information
 VERS.                  2.0:   CWLS log ASCII Standard -VERSION 2.0
 WRAP.                   NO:   One line per depth step
~Well Information Block
#MNEM.UNIT     VALUE/NAME     DESCRIPTION
#---------     -----------    ---------------------------
 STRT.S             05:03:12 17-Sep-21: START TIME 05:03:12 17-Sep-21
 STOP.S             05:12:54 17-Sep-21: STOP TIME  05:12:54 17-Sep-21
 STEP.S                   0.00: STEP TIME
 NULL.                 -999.25: NULL VALUE
 DFWT.                        :  DIST FWL TEXT
 DFST.                        :  DIST FSL TEXT
 DMF .             Drill Floor:  DRILL MEAS FROM
 STIM.      10.59.12 05-Jul-21:  START TIME
 DATE.      10.59.12 10-Sep-21:  END TIME
 SPUD.               05-Jul-21:  SPUD DATE
 NREF.                    Grid:  NORTH REFERENCE
 HPTY.       Minimum Curvature:  HOLE POS TYPE
 DMOD.             Drill Model:  DRILL MOD DESC
 SVYD.                  Survey:  SURVEY DESC
 ILTD.               Lithology:  INTERP LTH DESC
 FTOP.          Formation Tops:  FORM TOPS DESC
 RIG .                     DWG:  RIG NAME
 PDAT.          Mean Sea Level:  PERMANENT DATUM
 FLD .                     ACG:  FIELD NAME
 SON .        AZ-XX-0907115008:  JOB NUMBER
 CTRY.              Azerbaijan:  COUNTRY NAME
 WELL.                    E35A:  WELL NAME
 SRVC.          TURAN DRILLING:  CONTRACTOR
 COMP.     BP Exploration (Caspian Sea LTD):  COMPANY
 UWI .                     N/A:  UNIQUE WELL IDENTIFIER
 API .                     N/A:  API NUMBER
 MDS .        Operator Entered:  MAG DATA SOURCE
 BASE.              Azerbaijan:  LOGGING EQUIPMENT BASE LOCATION
 REGN.                   EESSA:  REGION
 PROV.                    Baku:  PROVINCE
 STAT.                    Baku:  STATE NAME
 MWDS.                    Baku:  MWD SHOP
 JOBN.        AZ-XX-0907115008:  JOB TICKET NUMB
 DOE .                     N/A:  DOE NUMBER
 DCON.         Sperry Drilling:  DIRECTNL CONTR
 UNIT.                     N/A:  LOGGING EQUIPMENT ID
 WTYP.                Deviated:  WELL TYPE
 CNTY.                        :  COUNTY
 LOC .                        :  LOCATION
 LMF .             Drill Floor:  LOG MEASURED FROM
 TVDS.m                  43.16:  TVDSS CORRECTN
 LATI.deg                40.17:  LATITUDE
 LONG.deg                51.17:  LONGITUDE
 WHNS.m                  10.51:  WELL HEAD N/S
 WHEW.m                 -14.82:  WELL HEAD E/W
 UTMX.m              514336.92:  UTM X
 UTMY.m             4448618.56:  UTM Y
 DFWL.m                   0.00:  DISTANCE FWL
 DFSL.m                   0.00:  DISTANCE FSL
 SDEP.m                 849.00:  START DEPTH
 TDD .m                2862.00:  TOTAL DEPTH (DRILLER)
 VSDR.deg               292.10:  VERT SEC DIRECT
 GVFD.g                   1.00:  GRAVITY FIELD
 MFLD.nT              50382.00:  MAGNETIC FIELD
 MDIP.deg                59.68:  MAGNETIC DIP
 MDEC.deg                 6.66:  MAGNETIC DECL
 GRDC.deg                 0.09:  GRID CORRECTION
 AZTC.deg                 6.57:  AZM TOTAL CORR
 EPD .m                   0.00:  ELEVATION
 EGL .m                   0.00:  GROUND ELEVATION
 WDMS.m                 176.20:  WD ELEV
 APD .m                  43.16:  DEPTH ABOVE PD
 DEP .m                 363.42:  DEPTH
 AGAP.m                  43.16:  AIR GAP
 VSEW.m                 -14.82:  VERT SEC E/W
 VSNS.m                  10.51:  VERT SEC N/S
 EKB .m                  43.16:  KB ELEVATION
 EDF .m                  43.16:  DF ELEVATION
 TDL .m                1390.00:  TOTAL DEPTH (LOGGER)
 VSC .                       0:  VS TO CLOSURE
 MAGU.                 1855871:  MAGUTM CHECKSUM
~Parameter Information Block
#MNEM.UNIT       Value        Description
#---------     -----------    ---------------------------
 AV  .mps                 2.28:  Ann Velocity 
 AVMX.mps                 2.67:  Max Ann Veloc 
 AZIF.deg               305.00:  Azm, Final 
 BHAT.        Rotary Steerable:  BHA Type 
 BROT.°/30m               0.45:  Build Rotating 
 BS  .in                 12.25:  Bit Size 
 BSZ .in                 12.25:  Bit Size 
 BTPL.psig              600.00:  Bit Press Loss 
 CABU.                     Yes:  Customer Abuse 
 COMM.                     äÏF:  Run Comments 1 
 TCS .hr                150.00:  Time Ciculation Ended 
 CV  .mps                 1.24:  Crit Velocity 
 CVMX.mps                 1.66:  Max Crit Veloc 
 DD1 .         Intigam Rahimov:  Direct Drillr 1 
 DD2 .            Azer Ravavov:  Direct Drillr 2 
 DD3 .              Samir Abas:  Direct Drillr 3 
 DDSV.               Geo-Pilot:  DD Service 
 DEFF.%                 100.00:  % Det Eff 
 DLRX.°/30m               1.57:  Dogleg Rot Max 
 DLSO.°/30m               0.00:  Dogleg Oriented 
 DLSX.°/30m               0.00:  Dogleg Str Max 
 DRET.      20.28.06 17-Sep-21:  Drill End Time 
 DRST.      20.27.35 10-Sep-21:  Drill Start Tim 
 DTIM.hr                 54.00:  Time Drilling 
 EDEP.m                5260.00:  End Depth 
 ENG1.      Bakhtiyar Jabbarli:  Engineer 1 
 ENG2.      Natik Hasanaghayev:  Engineer 2 
 ENG3.           Royal Nasirov:  Engineer 3 
 ETIM.      20.27.55 18-Sep-21:  End Time 
 FLOI.gpm              1100.00:  Flow In 
 FLON.gpm               800.00:  Flow In Min 
 FLOS.cptm                0.00:  Fluid Loss 
 FLOX.gpm              1200.00:  Flow In Max 
 DFT .        Mineral Oil Base:  Mud Type 
 HPRE.                      No:  High Pressure 
 HTEM.                      No:  High Temp 
 HYDO.m                   1.80:  Hydro Offset 
 IFIN.deg                72.31:  Inc, Final 
 IMAX.deg                72.36:  Inc Max 
 IMIN.deg                69.36:  Inc Min 
 IMND.m                4192.96:  Inc Min Depth 
 IMXD.m                5128.36:  Inc Max Depth 
 JARR.                      No:  Jarring 
 LETM.      20.29.00 17-Sep-21:  Log End Time 
 LOST.hr                     0:  Lost Rig Time 
 LSTM.      20.27.00 10-Sep-21:  Log Start Time 
 MDCL.ppm            227000.00:  Mud Chlorides 
 MDES.     Inversion Oil/Synthetic:  Mud Desc 
 DFD .sg                  1.45:  Mud Density 
 MDMN.sg                  1.45:  Dens Mud Min 
 MDMX.sg                  1.45:  Dens Mud Max 
 MOIL.                    70.5:  Run Mud Oil % 
 MOWR.                   71:29:  Run Mud OWR 
 MSND.                     0.3:  Run Mud Sand % 
 MSOL.                    19.8:  Run Mud Solids% 
 DFV .spqt               80.00:  Mud Viscosity 
 MWOD.in                  8.00:  MWD Tool OD 
 MWSI.                     Yes:  Serv Intrp, MWD 
 OTIM.hr                180.00:  Time Operating 
 PCON.           Look Like New:  Pad Condition 
 PMAX.psia             9910.94:  Press Op, Max 
 PV  .cP                 35.00:  Mud PV 
 RUN .                    1000:  Run Number 
 ROPA.m/hr               18.00:  ROP Avg 
 ROPN.m/hr                8.00:  ROP Min 
 ROPX.m/hr               23.00:  ROP Max 
 RPMA.rpm               150.00:  RPM Surface Avg 
 RPMN.rpm               120.00:  RPM Surface Min 
 RPMX.rpm               160.00:  RPM Surface Max 
 RRUN.                    L503:  Rig Run Number 
 RTIM.hr                  5.00:  Time Reaming 
 SAZI.deg               298.42:  Azm, Start 
 SDEP.m                3870.00:  Start Depth 
 SIDD.                      No:  Serv Intrp, DD 
 SINC.deg                69.57:  Inc, Start 
 SPPA.psig             5500.00:  SPP Avg 
 SPPN.psig             4400.00:  SPP Min 
 SPPX.psig             5800.00:  SPP Max 
 STIM.      15.29.39 09-Sep-21:  Start Time 
 SVCS.                 DD, MWD:  Services 
 SVER.                    9.20:  Sperry Version 
 TDAT.m                5260.00:  Tot Depth Attmp 
 TDDF.                      No:  Trip for DD 
 TDLG.m                1390.00:  Tot Depth Loggd 
 TFF .                      No:  Trip for Fail 
 TQAA.f-kp               22.00:  Torque Abs Avg 
 TQAN.f-kp               13.00:  Torque Abs Min 
 TQAX.f-kp               27.00:  Torque Abs Max 
 TRRT.°/30m               1.60:  Turn Rotating 
 MRT .                  EWR-M5:  Maximum Recorded Temperature 
 TTMX.degC               92.00:  Max Tool Temp 
 VS01.                12330975:  Virtual Str1 SN 
 VS02.                90658671:  Virtual Str2 SN 
 VS03.                90658508:  Virtual Str3 SN 
 VS04.                90660974:  Virtual Str4 SN 
 VS05.                90654675:  Virtual Str5 SN 
 WBMN.klb                15.00:  WOB Min 
 WITN.     Alexander Yadullayev:  Customer Rep 
 WITN.           Adil Mammadov:  Customer Rep 2 
 WOBA.klb                17.00:  WOB Avg 
 WOBX.klb                18.00:  WOB Max 
 YP  .lhf2               31.00:  Yield Point 
~Curve Information Block
#MNEM.UNIT                 API CODE     Curve Description
#---------               -----------    ---------------------------
 TIME.HHMMSS            00 000 000 000:  GT Time & Date
 GTDEPTH.m              00 000 000 000:  GT Depth
 GTPQH.psia             00 000 000 000:  GT HR Quartz Pressure
 GTTQ.degC              00 000 000 000:  GT Quartz Temperature
 GTTN.NONE              00 000 000 000:  GT Test Number
 GTET.sec               00 000 000 000:  GT Elapsed Test Time
 GTTVD.m                00 000 000 000:  GT True Vertical Depth
#Other Information
#
#WARRANTY: Halliburton will use its best efforts to furnish customers with 
#accurate information and interpretations that are part of, and incident to, the services 
#provided.  However, Halliburton cannot and does not warrant the accuracy 
#or correctness of such information and interpretations.  Under no circumstances should any 
#such information or interpretation be relied upon as the sole basis for any drilling, 
#completion, production, or financial decision or any procedure involving any risk to the 
#safety of any drilling venture, drilling rig or its crew or any other third party.  The 
#Customer has full responsibility for all drilling, completion and production operation.  
#Halliburton makes no representations or warranties, either expressed or 
#implied, including, but not limited to, the implied warranties of merchantability or fitness 
#for a particular purpose, with respect to the services rendered.  In no event will 
#Halliburton be liable for failure to obtain any particular results or for 
#any damages, including, but not limited to, indirect, special or consequential damages, 
#resulting from the use of any information or interpretation provided by Halliburton.
#
~A           TIME           GTDEPTH  GTPQH  GTTQ  GTTN  GTET   GTTVD  
# ...
   05:04:21.932.17-Sep-2021 5093.53 3454.35 79.34 5.00  69.07 2594.99
   05:04:22.132.17-Sep-2021 5093.53 3454.35 79.34 5.00  69.27 2594.99
   05:04:22.332.17-Sep-2021 5093.53 3433.45 79.34 5.00  69.47 2594.99
   05:04:22.532.17-Sep-2021 5093.53 3443.75 79.34 5.00  69.68 2594.99
   05:04:22.732.17-Sep-2021 5093.53 3479.89 79.33 5.00  69.88 2594.99
   05:04:22.933.17-Sep-2021 5093.53 3481.19 79.33 5.00  70.08 2594.99
   05:04:23.133.17-Sep-2021 5093.53 3481.19 79.33 5.00  70.28 2594.99
   05:04:23.333.17-Sep-2021 5093.53 3475.51 79.33 5.00  70.48 2594.99
   05:04:23.533.17-Sep-2021 5093.53 3535.01 79.33 5.00  70.68 2594.99
   05:04:23.734.17-Sep-2021 5093.53 3505.52 79.33 5.00  70.88 2594.99
   05:04:23.934.17-Sep-2021 5093.53 3552.71 79.33 5.00  71.08 2594.99
   05:04:24.134.17-Sep-2021 5093.53 3552.71 79.33 5.00  71.28 2594.99
   05:04:24.334.17-Sep-2021 5093.53 3496.86 79.32 5.00  71.48 2594.99
   05:04:24.534.17-Sep-2021 5093.53 3494.41 79.32 5.00  71.68 2594.99
   05:04:24.735.17-Sep-2021 5093.53 3498.54 79.32 5.00  71.88 2594.99
   05:04:24.935.17-Sep-2021 5093.53 3526.58 79.32 5.00  72.08 2594.99
   05:04:25.135.17-Sep-2021 5093.53 3526.58 79.32 5.00  72.28 2594.99
   05:04:25.335.17-Sep-2021 5093.53 3544.94 79.32 5.00  72.48 2594.99
   05:04:25.535.17-Sep-2021 5093.53 3559.46 79.32 5.00  72.68 2594.99
   05:04:25.736.17-Sep-2021 5093.53 3551.62 79.32 5.00  72.88 2594.99
   05:04:25.936.17-Sep-2021 5093.53 3538.68 79.31 5.00  73.08 2594.99
   05:04:26.136.17-Sep-2021 5093.53 3538.68 79.31 5.00  73.28 2594.99
   05:04:26.336.17-Sep-2021 5093.53 3582.05 79.31 5.00  73.48 2594.99
   05:04:26.537.17-Sep-2021 5093.53 3601.70 79.31 5.00  73.68 2594.99
   05:04:26.737.17-Sep-2021 5093.53 3605.43 79.31 5.00  73.88 2594.99
   05:04:26.937.17-Sep-2021 5093.53 3606.56 79.31 5.00  74.08 2594.99
   05:04:27.137.17-Sep-2021 5093.53 3606.56 79.31 5.00  74.28 2594.99
   05:04:27.337.17-Sep-2021 5093.53 3589.87 79.31 5.00  74.48 2594.99
   05:04:27.538.17-Sep-2021 5093.53 3604.48 79.31 5.00  74.68 2594.99
   05:04:27.738.17-Sep-2021 5093.53 3606.65 79.31 5.00  74.88 2594.99
   05:04:27.938.17-Sep-2021 5093.53 3606.66 79.31 5.00  75.08 2594.99
   05:04:28.138.17-Sep-2021 5093.53 3606.66 79.31 5.00  75.28 2594.99
   05:04:28.338.17-Sep-2021 5093.53 3607.90 79.31 5.00  75.48 2594.99
   05:04:28.539.17-Sep-2021 5093.53 3608.35 79.31 5.00  75.68 2594.99
   05:04:28.739.17-Sep-2021 5093.53 3608.56 79.30 5.00  75.88 2594.99
   05:04:28.939.17-Sep-2021 5093.53 3608.83 79.30 5.00  76.08 2594.99
   05:04:29.139.17-Sep-2021 5093.53 3608.83 79.30 5.00  76.28 2594.99
   05:04:29.340.17-Sep-2021 5093.53 3609.10 79.30 5.00  76.48 2594.99
   05:04:29.540.17-Sep-2021 5093.53 3609.24 79.30 5.00  76.68 2594.99
   05:04:29.740.17-Sep-2021 5093.53 3609.37 79.30 5.00  76.88 2594.99
   05:04:29.940.17-Sep-2021 5093.53 3609.28 79.30 5.00  77.08 2594.99
   05:04:30.140.17-Sep-2021 5093.53 3609.28 79.30 5.00  77.28 2594.99
   05:04:30.341.17-Sep-2021 5093.53 3609.62 79.30 5.00  77.48 2594.99
   05:04:30.541.17-Sep-2021 5093.53 3609.78 79.30 5.00  77.68 2594.99
   05:04:30.741.17-Sep-2021 5093.53 3609.90 79.30 5.00  77.88 2594.99
   05:04:30.941.17-Sep-2021 5093.53 3609.96 79.30 5.00  78.08 2594.99
   05:04:31.141.17-Sep-2021 5093.53 3609.96 79.30 5.00  78.28 2594.99
   05:04:31.342.17-Sep-2021 5093.53 3608.86 79.30 5.00  78.48 2594.99
   05:04:31.542.17-Sep-2021 5093.53 3609.42 79.30 5.00  78.68 2594.99
   05:04:31.742.17-Sep-2021 5093.53 3609.70 79.30 5.00  78.88 2594.99
   05:04:31.942.17-Sep-2021 5093.53 3609.77 79.30 5.00  79.09 2594.99
   05:04:32.143.17-Sep-2021 5093.53 3609.77 79.30 5.00  79.29 2594.99
   05:04:32.343.17-Sep-2021 5093.53 3609.77 79.30 5.00  79.49 2594.99
   05:04:32.543.17-Sep-2021 5093.53 3610.04 79.30 5.00  79.69 2594.99
   05:04:32.743.17-Sep-2021 5093.53 3610.14 79.30 5.00  79.89 2594.99
   05:04:32.943.17-Sep-2021 5093.53 3610.28 79.30 5.00  80.09 2594.99
   05:04:33.144.17-Sep-2021 5093.53 3610.28 79.30 5.00  80.29 2594.99
   05:04:33.344.17-Sep-2021 5093.53 3610.42 79.30 5.00  80.49 2594.99
   05:04:33.544.17-Sep-2021 5093.53 3610.49 79.30 5.00  80.69 2594.99
   05:04:33.744.17-Sep-2021 5093.53 3610.61 79.30 5.00  80.89 2594.99
   05:04:33.945.17-Sep-2021 5093.53 3610.75 79.30 5.00  81.09 2594.99
   05:04:34.145.17-Sep-2021 5093.53 3610.75 79.30 5.00  81.29 2594.99
   05:04:34.345.17-Sep-2021 5093.53 3611.10 79.30 5.00  81.49 2594.99
   05:04:34.545.17-Sep-2021 5093.53 3611.01 79.30 5.00  81.69 2594.99
   05:04:34.745.17-Sep-2021 5093.53 3612.77 79.30 5.00  81.89 2594.99
   05:04:34.946.17-Sep-2021 5093.53 3611.13 79.30 5.00  82.09 2594.99
   05:04:35.146.17-Sep-2021 5093.53 3611.13 79.30 5.00  82.29 2594.99
   05:04:35.346.17-Sep-2021 5093.53 3610.73 79.30 5.00  82.49 2594.99
   05:04:35.546.17-Sep-2021 5093.53 3610.85 79.30 5.00  82.69 2594.99
   05:04:35.746.17-Sep-2021 5093.53 3611.09 79.30 5.00  82.89 2594.99
   05:04:35.947.17-Sep-2021 5093.53 3610.92 79.30 5.00  83.09 2594.99
   05:04:36.147.17-Sep-2021 5093.53 3610.92 79.30 5.00  83.29 2594.99
   05:04:36.347.17-Sep-2021 5093.53 3610.95 79.30 5.00  83.49 2594.99
   05:04:36.547.17-Sep-2021 5093.53 3611.03 79.30 5.00  83.69 2594.99
   05:04:36.748.17-Sep-2021 5093.53 3611.27 79.30 5.00  83.89 2594.99
   05:04:36.948.17-Sep-2021 5093.53 3610.49 79.30 5.00  84.09 2594.99
   05:04:37.148.17-Sep-2021 5093.53 3610.49 79.30 5.00  84.29 2594.99
   05:04:37.348.17-Sep-2021 5093.53 3610.91 79.30 5.00  84.49 2594.99
   05:04:37.548.17-Sep-2021 5093.53 3611.15 79.30 5.00  84.69 2594.99
   05:04:37.749.17-Sep-2021 5093.53 3611.40 79.30 5.00  84.89 2594.99
   05:04:37.949.17-Sep-2021 5093.53 3611.88 79.30 5.00  85.09 2594.99
   05:04:38.149.17-Sep-2021 5093.53 3611.88 79.30 5.00  85.29 2594.99
   05:04:38.349.17-Sep-2021 5093.53 3612.98 79.30 5.00  85.49 2594.99
   05:04:38.549.17-Sep-2021 5093.53 3613.78 79.30 5.00  85.69 2594.99
   05:04:38.750.17-Sep-2021 5093.53 3614.59 79.30 5.00  85.89 2594.99
   05:04:38.950.17-Sep-2021 5093.53 3615.24 79.30 5.00  86.09 2594.99
   05:04:39.150.17-Sep-2021 5093.53 3615.24 79.30 5.00  86.29 2594.99
   05:04:39.350.17-Sep-2021 5093.53 3616.72 79.30 5.00  86.49 2594.99
   05:04:39.551.17-Sep-2021 5093.53 3617.62 79.30 5.00  86.69 2594.99
   05:04:39.751.17-Sep-2021 5093.53 3618.61 79.30 5.00  86.89 2594.99
   05:04:39.951.17-Sep-2021 5093.53 3619.51 79.30 5.00  87.09 2594.99
   05:04:40.151.17-Sep-2021 5093.53 3619.51 79.30 5.00  87.29 2594.99
   05:04:40.351.17-Sep-2021 5093.53 3621.55 79.30 5.00  87.49 2594.99
   05:04:40.552.17-Sep-2021 5093.53 3622.60 79.30 5.00  87.69 2594.99
   05:04:40.752.17-Sep-2021 5093.53 3623.87 79.30 5.00  87.89 2594.99
   05:04:40.952.17-Sep-2021 5093.53 3624.67 79.30 5.00  88.09 2594.99
   05:04:41.152.17-Sep-2021 5093.53 3624.67 79.30 5.00  88.30 2594.99
   05:04:41.352.17-Sep-2021 5093.53 3626.73 79.30 5.00  88.50 2594.99
   05:04:41.553.17-Sep-2021 5093.53 3627.74 79.30 5.00  88.70 2594.99
   05:04:41.753.17-Sep-2021 5093.53 3628.93 79.30 5.00  88.90 2594.99
   05:04:41.953.17-Sep-2021 5093.53 3630.02 79.30 5.00  89.10 2594.99
   05:04:42.153.17-Sep-2021 5093.53 3630.02 79.30 5.00  89.30 2594.99
   05:04:42.354.17-Sep-2021 5093.53 3632.21 79.31 5.00  89.50 2594.99
   05:04:42.554.17-Sep-2021 5093.53 3633.37 79.31 5.00  89.70 2594.99
   05:04:42.754.17-Sep-2021 5093.53 3634.56 79.31 5.00  89.90 2594.99
   05:04:42.954.17-Sep-2021 5093.53 3635.84 79.31 5.00  90.10 2594.99
   05:04:43.154.17-Sep-2021 5093.53 3635.84 79.31 5.00  90.30 2594.99
   05:04:43.355.17-Sep-2021 5093.53 3638.16 79.31 5.00  90.50 2594.99
   05:04:43.555.17-Sep-2021 5093.53 3639.28 79.31 5.00  90.70 2594.99
   05:04:43.755.17-Sep-2021 5093.53 3640.46 79.31 5.00  90.90 2594.99
   05:04:43.955.17-Sep-2021 5093.53 3641.93 79.31 5.00  91.10 2594.99
   05:04:44.156.17-Sep-2021 5093.53 3641.93 79.31 5.00  91.30 2594.99
   05:04:44.356.17-Sep-2021 5093.53 3644.46 79.31 5.00  91.50 2594.99
   05:04:44.556.17-Sep-2021 5093.53 3645.80 79.31 5.00  91.70 2594.99
   05:04:44.756.17-Sep-2021 5093.53 3647.27 79.31 5.00  91.90 2594.99
