~Version Information
 VERS.                  2.0:   CWLS log ASCII Standard -VERSION 2.0
 WRAP.                   NO:   One line per depth step
~Well Information Block
#MNEM.UNIT     VALUE/NAME     DESCRIPTION
#---------     -----------    ---------------------------
 STRT.S             02:32:25 17-Sep-21: START TIME 02:32:25 17-Sep-21
 STOP.S             02:40:50 17-Sep-21: STOP TIME  02:40:50 17-Sep-21
 STEP.S                   0.00: STEP TIME
 NULL.                 -999.25: NULL VALUE
 DFWT.                        :  DIST FWL TEXT
 DFST.                        :  DIST FSL TEXT
 DMF .             Drill Floor:  DRILL MEAS FROM
 STIM.      10.59.12 05-Jul-21:  START TIME
 DATE.      10.59.12 10-Sep-21:  END TIME
 SPUD.               05-Jul-21:  SPUD DATE
 NREF.                    Grid:  NORTH REFERENCE
 HPTY.       Minimum Curvature:  HOLE POS TYPE
 DMOD.             Drill Model:  DRILL MOD DESC
 SVYD.                  Survey:  SURVEY DESC
 ILTD.               Lithology:  INTERP LTH DESC
 FTOP.          Formation Tops:  FORM TOPS DESC
 RIG .                     DWG:  RIG NAME
 PDAT.          Mean Sea Level:  PERMANENT DATUM
 FLD .                     ACG:  FIELD NAME
 SON .        AZ-XX-0907115008:  JOB NUMBER
 CTRY.              Azerbaijan:  COUNTRY NAME
 WELL.                    E35A:  WELL NAME
 SRVC.          TURAN DRILLING:  CONTRACTOR
 COMP.     BP Exploration (Caspian Sea LTD):  COMPANY
 UWI .                     N/A:  UNIQUE WELL IDENTIFIER
 API .                     N/A:  API NUMBER
 MDS .        Operator Entered:  MAG DATA SOURCE
 BASE.              Azerbaijan:  LOGGING EQUIPMENT BASE LOCATION
 REGN.                   EESSA:  REGION
 PROV.                    Baku:  PROVINCE
 STAT.                    Baku:  STATE NAME
 MWDS.                    Baku:  MWD SHOP
 JOBN.        AZ-XX-0907115008:  JOB TICKET NUMB
 DOE .                     N/A:  DOE NUMBER
 DCON.         Sperry Drilling:  DIRECTNL CONTR
 UNIT.                     N/A:  LOGGING EQUIPMENT ID
 WTYP.                Deviated:  WELL TYPE
 CNTY.                        :  COUNTY
 LOC .                        :  LOCATION
 LMF .             Drill Floor:  LOG MEASURED FROM
 TVDS.m                  43.16:  TVDSS CORRECTN
 LATI.deg                40.17:  LATITUDE
 LONG.deg                51.17:  LONGITUDE
 WHNS.m                  10.51:  WELL HEAD N/S
 WHEW.m                 -14.82:  WELL HEAD E/W
 UTMX.m              514336.92:  UTM X
 UTMY.m             4448618.56:  UTM Y
 DFWL.m                   0.00:  DISTANCE FWL
 DFSL.m                   0.00:  DISTANCE FSL
 SDEP.m                 849.00:  START DEPTH
 TDD .m                2862.00:  TOTAL DEPTH (DRILLER)
 VSDR.deg               292.10:  VERT SEC DIRECT
 GVFD.g                   1.00:  GRAVITY FIELD
 MFLD.nT              50382.00:  MAGNETIC FIELD
 MDIP.deg                59.68:  MAGNETIC DIP
 MDEC.deg                 6.66:  MAGNETIC DECL
 GRDC.deg                 0.09:  GRID CORRECTION
 AZTC.deg                 6.57:  AZM TOTAL CORR
 EPD .m                   0.00:  ELEVATION
 EGL .m                   0.00:  GROUND ELEVATION
 WDMS.m                 176.20:  WD ELEV
 APD .m                  43.16:  DEPTH ABOVE PD
 DEP .m                 363.42:  DEPTH
 AGAP.m                  43.16:  AIR GAP
 VSEW.m                 -14.82:  VERT SEC E/W
 VSNS.m                  10.51:  VERT SEC N/S
 EKB .m                  43.16:  KB ELEVATION
 EDF .m                  43.16:  DF ELEVATION
 TDL .m                1390.00:  TOTAL DEPTH (LOGGER)
 VSC .                       0:  VS TO CLOSURE
 MAGU.                 1855871:  MAGUTM CHECKSUM
~Parameter Information Block
#MNEM.UNIT       Value        Description
#---------     -----------    ---------------------------
 AV  .mps                 2.28:  Ann Velocity 
 AVMX.mps                 2.67:  Max Ann Veloc 
 AZIF.deg               305.00:  Azm, Final 
 BHAT.        Rotary Steerable:  BHA Type 
 BROT.°/30m               0.45:  Build Rotating 
 BS  .in                 12.25:  Bit Size 
 BSZ .in                 12.25:  Bit Size 
 BTPL.psig              600.00:  Bit Press Loss 
 CABU.                     Yes:  Customer Abuse 
 COMM.                     Œ$a:  Run Comments 1 
 TCS .hr                150.00:  Time Ciculation Ended 
 CV  .mps                 1.24:  Crit Velocity 
 CVMX.mps                 1.66:  Max Crit Veloc 
 DD1 .         Intigam Rahimov:  Direct Drillr 1 
 DD2 .            Azer Ravavov:  Direct Drillr 2 
 DD3 .              Samir Abas:  Direct Drillr 3 
 DDSV.               Geo-Pilot:  DD Service 
 DEFF.%                 100.00:  % Det Eff 
 DLRX.°/30m               1.57:  Dogleg Rot Max 
 DLSO.°/30m               0.00:  Dogleg Oriented 
 DLSX.°/30m               0.00:  Dogleg Str Max 
 DRET.      20.28.06 17-Sep-21:  Drill End Time 
 DRST.      20.27.35 10-Sep-21:  Drill Start Tim 
 DTIM.hr                 54.00:  Time Drilling 
 EDEP.m                5260.00:  End Depth 
 ENG1.      Bakhtiyar Jabbarli:  Engineer 1 
 ENG2.      Natik Hasanaghayev:  Engineer 2 
 ENG3.           Royal Nasirov:  Engineer 3 
 ETIM.      20.27.55 18-Sep-21:  End Time 
 FLOI.gpm              1100.00:  Flow In 
 FLON.gpm               800.00:  Flow In Min 
 FLOS.cptm                0.00:  Fluid Loss 
 FLOX.gpm              1200.00:  Flow In Max 
 DFT .        Mineral Oil Base:  Mud Type 
 HPRE.                      No:  High Pressure 
 HTEM.                      No:  High Temp 
 HYDO.m                   1.80:  Hydro Offset 
 IFIN.deg                72.31:  Inc, Final 
 IMAX.deg                72.36:  Inc Max 
 IMIN.deg                69.36:  Inc Min 
 IMND.m                4192.96:  Inc Min Depth 
 IMXD.m                5128.36:  Inc Max Depth 
 JARR.                      No:  Jarring 
 LETM.      20.29.00 17-Sep-21:  Log End Time 
 LOST.hr                     0:  Lost Rig Time 
 LSTM.      20.27.00 10-Sep-21:  Log Start Time 
 MDCL.ppm            227000.00:  Mud Chlorides 
 MDES.     Inversion Oil/Synthetic:  Mud Desc 
 DFD .sg                  1.45:  Mud Density 
 MDMN.sg                  1.45:  Dens Mud Min 
 MDMX.sg                  1.45:  Dens Mud Max 
 MOIL.                    70.5:  Run Mud Oil % 
 MOWR.                   71:29:  Run Mud OWR 
 MSND.                     0.3:  Run Mud Sand % 
 MSOL.                    19.8:  Run Mud Solids% 
 DFV .spqt               80.00:  Mud Viscosity 
 MWOD.in                  8.00:  MWD Tool OD 
 MWSI.                     Yes:  Serv Intrp, MWD 
 OTIM.hr                180.00:  Time Operating 
 PCON.           Look Like New:  Pad Condition 
 PMAX.psia             9910.94:  Press Op, Max 
 PV  .cP                 35.00:  Mud PV 
 RUN .                    1000:  Run Number 
 ROPA.m/hr               18.00:  ROP Avg 
 ROPN.m/hr                8.00:  ROP Min 
 ROPX.m/hr               23.00:  ROP Max 
 RPMA.rpm               150.00:  RPM Surface Avg 
 RPMN.rpm               120.00:  RPM Surface Min 
 RPMX.rpm               160.00:  RPM Surface Max 
 RRUN.                    L503:  Rig Run Number 
 RTIM.hr                  5.00:  Time Reaming 
 SAZI.deg               298.42:  Azm, Start 
 SDEP.m                3870.00:  Start Depth 
 SIDD.                      No:  Serv Intrp, DD 
 SINC.deg                69.57:  Inc, Start 
 SPPA.psig             5500.00:  SPP Avg 
 SPPN.psig             4400.00:  SPP Min 
 SPPX.psig             5800.00:  SPP Max 
 STIM.      15.29.39 09-Sep-21:  Start Time 
 SVCS.                 DD, MWD:  Services 
 SVER.                    9.20:  Sperry Version 
 TDAT.m                5260.00:  Tot Depth Attmp 
 TDDF.                      No:  Trip for DD 
 TDLG.m                1390.00:  Tot Depth Loggd 
 TFF .                      No:  Trip for Fail 
 TQAA.f-kp               22.00:  Torque Abs Avg 
 TQAN.f-kp               13.00:  Torque Abs Min 
 TQAX.f-kp               27.00:  Torque Abs Max 
 TRRT.°/30m               1.60:  Turn Rotating 
 MRT .                  EWR-M5:  Maximum Recorded Temperature 
 TTMX.degC               92.00:  Max Tool Temp 
 VS01.                12330975:  Virtual Str1 SN 
 VS02.                90658671:  Virtual Str2 SN 
 VS03.                90658508:  Virtual Str3 SN 
 VS04.                90660974:  Virtual Str4 SN 
 VS05.                90654675:  Virtual Str5 SN 
 WBMN.klb                15.00:  WOB Min 
 WITN.     Alexander Yadullayev:  Customer Rep 
 WITN.           Adil Mammadov:  Customer Rep 2 
 WOBA.klb                17.00:  WOB Avg 
 WOBX.klb                18.00:  WOB Max 
 YP  .lhf2               31.00:  Yield Point 
~Curve Information Block
#MNEM.UNIT                 API CODE     Curve Description
#---------               -----------    ---------------------------
 TIME.HHMMSS            00 000 000 000:  GT Time & Date
 GTDEPTH.m              00 000 000 000:  GT Depth
 GTPQH.psia             00 000 000 000:  GT HR Quartz Pressure
 GTTQ.degC              00 000 000 000:  GT Quartz Temperature
 GTTN.NONE              00 000 000 000:  GT Test Number
 GTET.sec               00 000 000 000:  GT Elapsed Test Time
 GTTVD.m                00 000 000 000:  GT True Vertical Depth
#Other Information
#
#WARRANTY: Halliburton will use its best efforts to furnish customers with 
#accurate information and interpretations that are part of, and incident to, the services 
#provided.  However, Halliburton cannot and does not warrant the accuracy 
#or correctness of such information and interpretations.  Under no circumstances should any 
#such information or interpretation be relied upon as the sole basis for any drilling, 
#completion, production, or financial decision or any procedure involving any risk to the 
#safety of any drilling venture, drilling rig or its crew or any other third party.  The 
#Customer has full responsibility for all drilling, completion and production operation.  
#Halliburton makes no representations or warranties, either expressed or 
#implied, including, but not limited to, the implied warranties of merchantability or fitness 
#for a particular purpose, with respect to the services rendered.  In no event will 
#Halliburton be liable for failure to obtain any particular results or for 
#any damages, including, but not limited to, indirect, special or consequential damages, 
#resulting from the use of any information or interpretation provided by Halliburton.
#
~A           TIME           GTDEPTH  GTPQH  GTTQ  GTTN  GTET   GTTVD  
# ...
   02:34:43.000.17-Sep-2021 5127.50 5579.97 80.46 2.00 138.00 2605.35
   02:34:43.200.17-Sep-2021 5127.50 5579.97 80.46 2.00 138.20 2605.35
   02:34:43.400.17-Sep-2021 5127.50 5581.91 80.46 2.00 138.40 2605.35
   02:34:43.600.17-Sep-2021 5127.50 5579.77 80.46 2.00 138.60 2605.35
   02:34:43.800.17-Sep-2021 5127.50 5580.95 80.46 2.00 138.80 2605.35
   02:34:44.000.17-Sep-2021 5127.50 5580.36 80.46 2.00 139.00 2605.35
   02:34:44.200.17-Sep-2021 5127.50 5580.36 80.46 2.00 139.20 2605.35
   02:34:44.400.17-Sep-2021 5127.50 5579.94 80.46 2.00 139.40 2605.35
   02:34:44.600.17-Sep-2021 5127.50 5580.97 80.46 2.00 139.60 2605.35
   02:34:44.800.17-Sep-2021 5127.50 5579.25 80.46 2.00 139.80 2605.35
   02:34:45.000.17-Sep-2021 5127.50 5580.26 80.46 2.00 140.00 2605.35
   02:34:45.200.17-Sep-2021 5127.50 5580.26 80.46 2.00 140.20 2605.35
   02:34:45.400.17-Sep-2021 5127.50 5579.25 80.46 2.00 140.40 2605.35
   02:34:45.600.17-Sep-2021 5127.50 5579.40 80.46 2.00 140.60 2605.35
   02:34:45.800.17-Sep-2021 5127.50 5580.53 80.46 2.00 140.80 2605.35
   02:34:46.000.17-Sep-2021 5127.50 5580.09 80.46 2.00 141.00 2605.35
   02:34:46.200.17-Sep-2021 5127.50 5580.09 80.46 2.00 141.20 2605.35
   02:34:46.400.17-Sep-2021 5127.50 5579.84 80.46 2.00 141.40 2605.35
   02:34:46.600.17-Sep-2021 5127.50 5580.26 80.46 2.00 141.60 2605.35
   02:34:46.800.17-Sep-2021 5127.50 5580.10 80.46 2.00 141.80 2605.35
   02:34:47.000.17-Sep-2021 5127.50 5580.04 80.46 2.00 142.00 2605.35
   02:34:47.200.17-Sep-2021 5127.50 5580.04 80.46 2.00 142.20 2605.35
   02:34:47.400.17-Sep-2021 5127.50 5581.64 80.46 2.00 142.40 2605.35
   02:34:47.600.17-Sep-2021 5127.50 5580.77 80.46 2.00 142.60 2605.35
   02:34:47.800.17-Sep-2021 5127.50 5580.83 80.46 2.00 142.80 2605.35
   02:34:48.000.17-Sep-2021 5127.50 5580.99 80.46 2.00 143.00 2605.35
   02:34:48.200.17-Sep-2021 5127.50 5580.99 80.46 2.00 143.20 2605.35
   02:34:48.400.17-Sep-2021 5127.50 5580.57 80.46 2.00 143.40 2605.35
   02:34:48.600.17-Sep-2021 5127.50 5580.52 80.46 2.00 143.60 2605.35
   02:34:48.800.17-Sep-2021 5127.50 5580.55 80.46 2.00 143.80 2605.35
   02:34:49.000.17-Sep-2021 5127.50 5580.74 80.46 2.00 144.00 2605.35
   02:34:49.200.17-Sep-2021 5127.50 5580.74 80.46 2.00 144.20 2605.35
   02:34:49.400.17-Sep-2021 5127.50 5580.71 80.46 2.00 144.40 2605.35
   02:34:49.600.17-Sep-2021 5127.50 5580.71 80.46 2.00 144.60 2605.35
   02:34:49.800.17-Sep-2021 5127.50 5580.79 80.46 2.00 144.80 2605.35
   02:34:50.000.17-Sep-2021 5127.50 5580.99 80.46 2.00 145.00 2605.35
   02:34:50.200.17-Sep-2021 5127.50 5580.99 80.46 2.00 145.20 2605.35
   02:34:50.400.17-Sep-2021 5127.50 5580.83 80.46 2.00 145.40 2605.35
   02:34:50.600.17-Sep-2021 5127.50 5582.24 80.46 2.00 145.60 2605.35
   02:34:50.800.17-Sep-2021 5127.50 5581.50 80.46 2.00 145.80 2605.35
   02:34:51.000.17-Sep-2021 5127.50 5581.00 80.46 2.00 146.00 2605.35
   02:34:51.200.17-Sep-2021 5127.50 5581.00 80.46 2.00 146.20 2605.35
   02:34:51.400.17-Sep-2021 5127.50 5580.58 80.46 2.00 146.40 2605.35
   02:34:51.600.17-Sep-2021 5127.50 5580.53 80.46 2.00 146.60 2605.35
   02:34:51.800.17-Sep-2021 5127.50 5580.50 80.46 2.00 146.80 2605.35
   02:34:52.000.17-Sep-2021 5127.50 5580.57 80.45 2.00 147.00 2605.35
   02:34:52.200.17-Sep-2021 5127.50 5580.57 80.45 2.00 147.20 2605.35
   02:34:52.400.17-Sep-2021 5127.50 5580.97 80.46 2.00 147.40 2605.35
   02:34:52.600.17-Sep-2021 5127.50 5581.02 80.45 2.00 147.60 2605.35
   02:34:52.800.17-Sep-2021 5127.50 5581.09 80.45 2.00 147.80 2605.35
   02:34:53.000.17-Sep-2021 5127.50 5581.05 80.45 2.00 148.00 2605.35
   02:34:53.200.17-Sep-2021 5127.50 5581.05 80.45 2.00 148.20 2605.35
   02:34:53.400.17-Sep-2021 5127.50 5581.25 80.45 2.00 148.40 2605.35
   02:34:53.600.17-Sep-2021 5127.50 5582.29 80.45 2.00 148.60 2605.35
   02:34:53.800.17-Sep-2021 5127.50 5581.07 80.45 2.00 148.80 2605.35
   02:34:54.000.17-Sep-2021 5127.50 5582.47 80.45 2.00 149.00 2605.35
   02:34:54.200.17-Sep-2021 5127.50 5582.47 80.45 2.00 149.20 2605.35
   02:34:54.400.17-Sep-2021 5127.50 5581.53 80.45 2.00 149.40 2605.35
   02:34:54.600.17-Sep-2021 5127.50 5581.44 80.45 2.00 149.60 2605.35
   02:34:54.800.17-Sep-2021 5127.50 5582.46 80.45 2.00 149.80 2605.35
   02:34:55.000.17-Sep-2021 5127.50 5580.87 80.45 2.00 150.00 2605.35
   02:34:55.200.17-Sep-2021 5127.50 5580.87 80.45 2.00 150.20 2605.35
   02:34:55.400.17-Sep-2021 5127.50 5581.61 80.45 2.00 150.40 2605.35
   02:34:55.600.17-Sep-2021 5127.50 5581.34 80.45 2.00 150.60 2605.35
   02:34:55.800.17-Sep-2021 5127.50 5581.39 80.45 2.00 150.80 2605.35
   02:34:56.000.17-Sep-2021 5127.50 5582.48 80.45 2.00 151.00 2605.35
   02:34:56.200.17-Sep-2021 5127.50 5582.48 80.45 2.00 151.20 2605.35
   02:34:56.400.17-Sep-2021 5127.50 5582.40 80.45 2.00 151.40 2605.35
   02:34:56.600.17-Sep-2021 5127.50 5582.31 80.45 2.00 151.60 2605.35
   02:34:56.800.17-Sep-2021 5127.50 5581.98 80.45 2.00 151.80 2605.35
   02:34:57.000.17-Sep-2021 5127.50 5582.21 80.45 2.00 152.00 2605.35
   02:34:57.200.17-Sep-2021 5127.50 5582.21 80.45 2.00 152.20 2605.35
   02:34:57.400.17-Sep-2021 5127.50 5583.86 80.45 2.00 152.40 2605.35
   02:34:57.600.17-Sep-2021 5127.50 5581.19 80.45 2.00 152.60 2605.35
   02:34:57.800.17-Sep-2021 5127.50 5582.89 80.45 2.00 152.80 2605.35
   02:34:58.000.17-Sep-2021 5127.50 5582.43 80.45 2.00 153.00 2605.35
   02:34:58.200.17-Sep-2021 5127.50 5582.43 80.45 2.00 153.20 2605.35
   02:34:58.400.17-Sep-2021 5127.50 5582.24 80.45 2.00 153.40 2605.35
   02:34:58.600.17-Sep-2021 5127.50 5582.21 80.45 2.00 153.60 2605.35
   02:34:58.800.17-Sep-2021 5127.50 5582.25 80.45 2.00 153.80 2605.35
   02:34:59.000.17-Sep-2021 5127.50 5582.23 80.45 2.00 154.00 2605.35
   02:34:59.200.17-Sep-2021 5127.50 5582.23 80.45 2.00 154.20 2605.35
   02:34:59.400.17-Sep-2021 5127.50 5582.40 80.45 2.00 154.40 2605.35
   02:34:59.600.17-Sep-2021 5127.50 5582.43 80.45 2.00 154.60 2605.35
   02:34:59.800.17-Sep-2021 5127.50 5582.40 80.45 2.00 154.80 2605.35
   02:35:00.000.17-Sep-2021 5127.50 5582.36 80.45 2.00 155.00 2605.35
   02:35:00.200.17-Sep-2021 5127.50 5582.36 80.45 2.00 155.20 2605.35
   02:35:00.400.17-Sep-2021 5127.50 5582.68 80.45 2.00 155.40 2605.35
   02:35:00.600.17-Sep-2021 5127.50 5583.00 80.45 2.00 155.60 2605.35
   02:35:00.800.17-Sep-2021 5127.50 5584.24 80.45 2.00 155.80 2605.35
   02:35:01.000.17-Sep-2021 5127.50 5583.03 80.45 2.00 156.00 2605.35
   02:35:01.200.17-Sep-2021 5127.50 5583.03 80.45 2.00 156.20 2605.35
   02:35:01.400.17-Sep-2021 5127.50 5582.70 80.45 2.00 156.40 2605.35
   02:35:01.600.17-Sep-2021 5127.50 5582.47 80.45 2.00 156.60 2605.35
   02:35:01.800.17-Sep-2021 5127.50 5582.38 80.45 2.00 156.80 2605.35
   02:35:02.000.17-Sep-2021 5127.50 5582.39 80.45 2.00 157.00 2605.35
   02:35:02.200.17-Sep-2021 5127.50 5582.39 80.45 2.00 157.20 2605.35
   02:35:02.400.17-Sep-2021 5127.50 5582.73 80.45 2.00 157.40 2605.35
   02:35:02.600.17-Sep-2021 5127.50 5582.77 80.45 2.00 157.60 2605.35
   02:35:02.800.17-Sep-2021 5127.50 5582.82 80.45 2.00 157.80 2605.35
   02:35:03.000.17-Sep-2021 5127.50 5582.89 80.45 2.00 158.00 2605.35
   02:35:03.200.17-Sep-2021 5127.50 5582.89 80.45 2.00 158.20 2605.35
   02:35:03.400.17-Sep-2021 5127.50 5583.16 80.45 2.00 158.40 2605.35
   02:35:03.600.17-Sep-2021 5127.50 5583.23 80.45 2.00 158.60 2605.35
   02:35:03.800.17-Sep-2021 5127.50 5583.35 80.45 2.00 158.80 2605.35
   02:35:04.000.17-Sep-2021 5127.50 5584.29 80.45 2.00 159.00 2605.35
   02:35:04.200.17-Sep-2021 5127.50 5584.29 80.45 2.00 159.20 2605.35
   02:35:04.400.17-Sep-2021 5127.50 5583.65 80.45 2.00 159.40 2605.35
   02:35:04.600.17-Sep-2021 5127.50 5583.04 80.45 2.00 159.60 2605.35
   02:35:04.800.17-Sep-2021 5127.50 5583.02 80.45 2.00 159.80 2605.35
   02:35:05.000.17-Sep-2021 5127.50 5582.66 80.45 2.00 160.00 2605.35
   02:35:05.200.17-Sep-2021 5127.50 5582.66 80.45 2.00 160.20 2605.35
   02:35:05.400.17-Sep-2021 5127.50 5581.99 80.45 2.00 160.40 2605.35
   02:35:05.600.17-Sep-2021 5127.50 5583.43 80.45 2.00 160.60 2605.35
   02:35:05.800.17-Sep-2021 5127.50 5582.93 80.45 2.00 160.80 2605.35
