~Version Information
 VERS.                  2.0:   CWLS log ASCII Standard -VERSION 2.0
 WRAP.                   NO:   One line per depth step
~Well Information Block
#MNEM.UNIT     VALUE/NAME     DESCRIPTION
#---------     -----------    ---------------------------
 STRT.S             10:29:45 17-Sep-21: START TIME 10:29:45 17-Sep-21
 STOP.S             10:36:56 17-Sep-21: STOP TIME  10:36:56 17-Sep-21
 STEP.S                   0.00: STEP TIME
 NULL.                 -999.25: NULL VALUE
 DFWT.                        :  DIST FWL TEXT
 DFST.                        :  DIST FSL TEXT
 DMF .             Drill Floor:  DRILL MEAS FROM
 STIM.      10.59.12 05-Jul-21:  START TIME
 DATE.      10.59.12 10-Sep-21:  END TIME
 SPUD.               05-Jul-21:  SPUD DATE
 NREF.                    Grid:  NORTH REFERENCE
 HPTY.       Minimum Curvature:  HOLE POS TYPE
 DMOD.             Drill Model:  DRILL MOD DESC
 SVYD.                  Survey:  SURVEY DESC
 ILTD.               Lithology:  INTERP LTH DESC
 FTOP.          Formation Tops:  FORM TOPS DESC
 RIG .                     DWG:  RIG NAME
 PDAT.          Mean Sea Level:  PERMANENT DATUM
 FLD .                     ACG:  FIELD NAME
 SON .        AZ-XX-0907115008:  JOB NUMBER
 CTRY.              Azerbaijan:  COUNTRY NAME
 WELL.                    E35A:  WELL NAME
 SRVC.          TURAN DRILLING:  CONTRACTOR
 COMP.     BP Exploration (Caspian Sea LTD):  COMPANY
 UWI .                     N/A:  UNIQUE WELL IDENTIFIER
 API .                     N/A:  API NUMBER
 MDS .        Operator Entered:  MAG DATA SOURCE
 BASE.              Azerbaijan:  LOGGING EQUIPMENT BASE LOCATION
 REGN.                   EESSA:  REGION
 PROV.                    Baku:  PROVINCE
 STAT.                    Baku:  STATE NAME
 MWDS.                    Baku:  MWD SHOP
 JOBN.        AZ-XX-0907115008:  JOB TICKET NUMB
 DOE .                     N/A:  DOE NUMBER
 DCON.         Sperry Drilling:  DIRECTNL CONTR
 UNIT.                     N/A:  LOGGING EQUIPMENT ID
 WTYP.                Deviated:  WELL TYPE
 CNTY.                        :  COUNTY
 LOC .                        :  LOCATION
 LMF .             Drill Floor:  LOG MEASURED FROM
 TVDS.m                  43.16:  TVDSS CORRECTN
 LATI.deg                40.17:  LATITUDE
 LONG.deg                51.17:  LONGITUDE
 WHNS.m                  10.51:  WELL HEAD N/S
 WHEW.m                 -14.82:  WELL HEAD E/W
 UTMX.m              514336.92:  UTM X
 UTMY.m             4448618.56:  UTM Y
 DFWL.m                   0.00:  DISTANCE FWL
 DFSL.m                   0.00:  DISTANCE FSL
 SDEP.m                 849.00:  START DEPTH
 TDD .m                2862.00:  TOTAL DEPTH (DRILLER)
 VSDR.deg               292.10:  VERT SEC DIRECT
 GVFD.g                   1.00:  GRAVITY FIELD
 MFLD.nT              50382.00:  MAGNETIC FIELD
 MDIP.deg                59.68:  MAGNETIC DIP
 MDEC.deg                 6.66:  MAGNETIC DECL
 GRDC.deg                 0.09:  GRID CORRECTION
 AZTC.deg                 6.57:  AZM TOTAL CORR
 EPD .m                   0.00:  ELEVATION
 EGL .m                   0.00:  GROUND ELEVATION
 WDMS.m                 176.20:  WD ELEV
 APD .m                  43.16:  DEPTH ABOVE PD
 DEP .m                 363.42:  DEPTH
 AGAP.m                  43.16:  AIR GAP
 VSEW.m                 -14.82:  VERT SEC E/W
 VSNS.m                  10.51:  VERT SEC N/S
 EKB .m                  43.16:  KB ELEVATION
 EDF .m                  43.16:  DF ELEVATION
 TDL .m                1390.00:  TOTAL DEPTH (LOGGER)
 VSC .                       0:  VS TO CLOSURE
 MAGU.                 1855871:  MAGUTM CHECKSUM
~Parameter Information Block
#MNEM.UNIT       Value        Description
#---------     -----------    ---------------------------
 AV  .mps                 2.28:  Ann Velocity 
 AVMX.mps                 2.67:  Max Ann Veloc 
 AZIF.deg               305.00:  Azm, Final 
 BHAT.        Rotary Steerable:  BHA Type 
 BROT.°/30m               0.45:  Build Rotating 
 BS  .in                 12.25:  Bit Size 
 BSZ .in                 12.25:  Bit Size 
 BTPL.psig              600.00:  Bit Press Loss 
 CABU.                     Yes:  Customer Abuse 
 COMM.                     ,)z:  Run Comments 1 
 TCS .hr                150.00:  Time Ciculation Ended 
 CV  .mps                 1.24:  Crit Velocity 
 CVMX.mps                 1.66:  Max Crit Veloc 
 DD1 .         Intigam Rahimov:  Direct Drillr 1 
 DD2 .            Azer Ravavov:  Direct Drillr 2 
 DD3 .              Samir Abas:  Direct Drillr 3 
 DDSV.               Geo-Pilot:  DD Service 
 DEFF.%                 100.00:  % Det Eff 
 DLRX.°/30m               1.57:  Dogleg Rot Max 
 DLSO.°/30m               0.00:  Dogleg Oriented 
 DLSX.°/30m               0.00:  Dogleg Str Max 
 DRET.      20.28.06 17-Sep-21:  Drill End Time 
 DRST.      20.27.35 10-Sep-21:  Drill Start Tim 
 DTIM.hr                 54.00:  Time Drilling 
 EDEP.m                5260.00:  End Depth 
 ENG1.      Bakhtiyar Jabbarli:  Engineer 1 
 ENG2.      Natik Hasanaghayev:  Engineer 2 
 ENG3.           Royal Nasirov:  Engineer 3 
 ETIM.      20.27.55 18-Sep-21:  End Time 
 FLOI.gpm              1100.00:  Flow In 
 FLON.gpm               800.00:  Flow In Min 
 FLOS.cptm                0.00:  Fluid Loss 
 FLOX.gpm              1200.00:  Flow In Max 
 DFT .        Mineral Oil Base:  Mud Type 
 HPRE.                      No:  High Pressure 
 HTEM.                      No:  High Temp 
 HYDO.m                   1.80:  Hydro Offset 
 IFIN.deg                72.31:  Inc, Final 
 IMAX.deg                72.36:  Inc Max 
 IMIN.deg                69.36:  Inc Min 
 IMND.m                4192.96:  Inc Min Depth 
 IMXD.m                5128.36:  Inc Max Depth 
 JARR.                      No:  Jarring 
 LETM.      20.29.00 17-Sep-21:  Log End Time 
 LOST.hr                     0:  Lost Rig Time 
 LSTM.      20.27.00 10-Sep-21:  Log Start Time 
 MDCL.ppm            227000.00:  Mud Chlorides 
 MDES.     Inversion Oil/Synthetic:  Mud Desc 
 DFD .sg                  1.45:  Mud Density 
 MDMN.sg                  1.45:  Dens Mud Min 
 MDMX.sg                  1.45:  Dens Mud Max 
 MOIL.                    70.5:  Run Mud Oil % 
 MOWR.                   71:29:  Run Mud OWR 
 MSND.                     0.3:  Run Mud Sand % 
 MSOL.                    19.8:  Run Mud Solids% 
 DFV .spqt               80.00:  Mud Viscosity 
 MWOD.in                  8.00:  MWD Tool OD 
 MWSI.                     Yes:  Serv Intrp, MWD 
 OTIM.hr                180.00:  Time Operating 
 PCON.           Look Like New:  Pad Condition 
 PMAX.psia             9910.94:  Press Op, Max 
 PV  .cP                 35.00:  Mud PV 
 RUN .                    1000:  Run Number 
 ROPA.m/hr               18.00:  ROP Avg 
 ROPN.m/hr                8.00:  ROP Min 
 ROPX.m/hr               23.00:  ROP Max 
 RPMA.rpm               150.00:  RPM Surface Avg 
 RPMN.rpm               120.00:  RPM Surface Min 
 RPMX.rpm               160.00:  RPM Surface Max 
 RRUN.                    L503:  Rig Run Number 
 RTIM.hr                  5.00:  Time Reaming 
 SAZI.deg               298.42:  Azm, Start 
 SDEP.m                3870.00:  Start Depth 
 SIDD.                      No:  Serv Intrp, DD 
 SINC.deg                69.57:  Inc, Start 
 SPPA.psig             5500.00:  SPP Avg 
 SPPN.psig             4400.00:  SPP Min 
 SPPX.psig             5800.00:  SPP Max 
 STIM.      15.29.39 09-Sep-21:  Start Time 
 SVCS.                 DD, MWD:  Services 
 SVER.                    9.20:  Sperry Version 
 TDAT.m                5260.00:  Tot Depth Attmp 
 TDDF.                      No:  Trip for DD 
 TDLG.m                1390.00:  Tot Depth Loggd 
 TFF .                      No:  Trip for Fail 
 TQAA.f-kp               22.00:  Torque Abs Avg 
 TQAN.f-kp               13.00:  Torque Abs Min 
 TQAX.f-kp               27.00:  Torque Abs Max 
 TRRT.°/30m               1.60:  Turn Rotating 
 MRT .                  EWR-M5:  Maximum Recorded Temperature 
 TTMX.degC               92.00:  Max Tool Temp 
 VS01.                12330975:  Virtual Str1 SN 
 VS02.                90658671:  Virtual Str2 SN 
 VS03.                90658508:  Virtual Str3 SN 
 VS04.                90660974:  Virtual Str4 SN 
 VS05.                90654675:  Virtual Str5 SN 
 WBMN.klb                15.00:  WOB Min 
 WITN.     Alexander Yadullayev:  Customer Rep 
 WITN.           Adil Mammadov:  Customer Rep 2 
 WOBA.klb                17.00:  WOB Avg 
 WOBX.klb                18.00:  WOB Max 
 YP  .lhf2               31.00:  Yield Point 
~Curve Information Block
#MNEM.UNIT                 API CODE     Curve Description
#---------               -----------    ---------------------------
 TIME.HHMMSS            00 000 000 000:  GT Time & Date
 GTDEPTH.m              00 000 000 000:  GT Depth
 GTPQH.psia             00 000 000 000:  GT HR Quartz Pressure
 GTTQ.degC              00 000 000 000:  GT Quartz Temperature
 GTTN.NONE              00 000 000 000:  GT Test Number
 GTET.sec               00 000 000 000:  GT Elapsed Test Time
 GTTVD.m                00 000 000 000:  GT True Vertical Depth
#Other Information
#
#WARRANTY: Halliburton will use its best efforts to furnish customers with 
#accurate information and interpretations that are part of, and incident to, the services 
#provided.  However, Halliburton cannot and does not warrant the accuracy 
#or correctness of such information and interpretations.  Under no circumstances should any 
#such information or interpretation be relied upon as the sole basis for any drilling, 
#completion, production, or financial decision or any procedure involving any risk to the 
#safety of any drilling venture, drilling rig or its crew or any other third party.  The 
#Customer has full responsibility for all drilling, completion and production operation.  
#Halliburton makes no representations or warranties, either expressed or 
#implied, including, but not limited to, the implied warranties of merchantability or fitness 
#for a particular purpose, with respect to the services rendered.  In no event will 
#Halliburton be liable for failure to obtain any particular results or for 
#any damages, including, but not limited to, indirect, special or consequential damages, 
#resulting from the use of any information or interpretation provided by Halliburton.
#
~A           TIME           GTDEPTH  GTPQH  GTTQ  GTTN  GTET   GTTVD  
# ...
   10:31:17.334.17-Sep-2021 4888.00 5435.68 75.90 8.00  92.01 2528.99
   10:31:17.534.17-Sep-2021 4888.00 5435.68 75.90 8.00  92.21 2528.99
   10:31:17.734.17-Sep-2021 4888.00 5436.41 75.90 8.00  92.41 2528.99
   10:31:17.934.17-Sep-2021 4888.00 5437.72 75.90 8.00  92.61 2528.99
   10:31:18.134.17-Sep-2021 4888.00 5439.78 75.90 8.00  92.81 2528.99
   10:31:18.334.17-Sep-2021 4888.00 5435.19 75.90 8.00  93.01 2528.99
   10:31:18.534.17-Sep-2021 4888.00 5435.19 75.90 8.00  93.21 2528.99
   10:31:18.734.17-Sep-2021 4888.00 5436.81 75.90 8.00  93.41 2528.99
   10:31:18.934.17-Sep-2021 4888.00 5441.12 75.90 8.00  93.61 2528.99
   10:31:19.134.17-Sep-2021 4888.00 5434.58 75.90 8.00  93.81 2528.99
   10:31:19.334.17-Sep-2021 4888.00 5436.45 75.90 8.00  94.01 2528.99
   10:31:19.534.17-Sep-2021 4888.00 5436.45 75.90 8.00  94.21 2528.99
   10:31:19.734.17-Sep-2021 4888.00 5437.63 75.90 8.00  94.41 2528.99
   10:31:19.934.17-Sep-2021 4888.00 5435.96 75.90 8.00  94.61 2528.99
   10:31:20.134.17-Sep-2021 4888.00 5436.02 75.90 8.00  94.81 2528.99
   10:31:20.335.17-Sep-2021 4888.00 5437.29 75.90 8.00  95.01 2528.99
   10:31:20.535.17-Sep-2021 4888.00 5437.29 75.90 8.00  95.21 2528.99
   10:31:20.735.17-Sep-2021 4888.00 5436.40 75.90 8.00  95.41 2528.99
   10:31:20.935.17-Sep-2021 4888.00 5436.23 75.90 8.00  95.61 2528.99
   10:31:21.135.17-Sep-2021 4888.00 5436.80 75.90 8.00  95.81 2528.99
   10:31:21.335.17-Sep-2021 4888.00 5437.22 75.90 8.00  96.01 2528.99
   10:31:21.535.17-Sep-2021 4888.00 5437.22 75.90 8.00  96.21 2528.99
   10:31:21.735.17-Sep-2021 4888.00 5436.87 75.90 8.00  96.41 2528.99
   10:31:21.935.17-Sep-2021 4888.00 5436.87 75.90 8.00  96.61 2528.99
   10:31:22.135.17-Sep-2021 4888.00 5439.46 75.90 8.00  96.81 2528.99
   10:31:22.335.17-Sep-2021 4888.00 5437.07 75.90 8.00  97.01 2528.99
   10:31:22.535.17-Sep-2021 4888.00 5437.07 75.90 8.00  97.21 2528.99
   10:31:22.735.17-Sep-2021 4888.00 5436.70 75.90 8.00  97.41 2528.99
   10:31:22.935.17-Sep-2021 4888.00 5437.84 75.90 8.00  97.61 2528.99
   10:31:23.135.17-Sep-2021 4888.00 5436.78 75.90 8.00  97.81 2528.99
   10:31:23.335.17-Sep-2021 4888.00 5436.40 75.90 8.00  98.01 2528.99
   10:31:23.535.17-Sep-2021 4888.00 5436.40 75.90 8.00  98.21 2528.99
   10:31:23.735.17-Sep-2021 4888.00 5436.60 75.90 8.00  98.41 2528.99
   10:31:23.935.17-Sep-2021 4888.00 5436.27 75.90 8.00  98.61 2528.99
   10:31:24.135.17-Sep-2021 4888.00 5436.31 75.90 8.00  98.81 2528.99
   10:31:24.335.17-Sep-2021 4888.00 5436.51 75.90 8.00  99.01 2528.99
   10:31:24.535.17-Sep-2021 4888.00 5436.51 75.90 8.00  99.21 2528.99
   10:31:24.735.17-Sep-2021 4888.00 5436.51 75.90 8.00  99.41 2528.99
   10:31:24.935.17-Sep-2021 4888.00 5436.57 75.90 8.00  99.61 2528.99
   10:31:25.135.17-Sep-2021 4888.00 5436.83 75.90 8.00  99.81 2528.99
   10:31:25.335.17-Sep-2021 4888.00 5437.07 75.90 8.00 100.01 2528.99
   10:31:25.535.17-Sep-2021 4888.00 5437.07 75.90 8.00 100.21 2528.99
   10:31:25.735.17-Sep-2021 4888.00 5435.91 75.90 8.00 100.41 2528.99
   10:31:25.935.17-Sep-2021 4888.00 5436.81 75.90 8.00 100.61 2528.99
   10:31:26.135.17-Sep-2021 4888.00 5436.82 75.90 8.00 100.81 2528.99
   10:31:26.335.17-Sep-2021 4888.00 5438.15 75.90 8.00 101.01 2528.99
   10:31:26.535.17-Sep-2021 4888.00 5438.15 75.90 8.00 101.21 2528.99
   10:31:26.735.17-Sep-2021 4888.00 5440.22 75.90 8.00 101.41 2528.99
   10:31:26.935.17-Sep-2021 4888.00 5436.77 75.90 8.00 101.61 2528.99
   10:31:27.135.17-Sep-2021 4888.00 5436.51 75.90 8.00 101.81 2528.99
   10:31:27.335.17-Sep-2021 4888.00 5437.48 75.90 8.00 102.01 2528.99
   10:31:27.535.17-Sep-2021 4888.00 5437.48 75.90 8.00 102.21 2528.99
   10:31:27.735.17-Sep-2021 4888.00 5434.84 75.90 8.00 102.41 2528.99
   10:31:27.935.17-Sep-2021 4888.00 5436.76 75.90 8.00 102.61 2528.99
   10:31:28.135.17-Sep-2021 4888.00 5436.15 75.90 8.00 102.81 2528.99
   10:31:28.335.17-Sep-2021 4888.00 5437.33 75.90 8.00 103.01 2528.99
   10:31:28.535.17-Sep-2021 4888.00 5437.33 75.90 8.00 103.21 2528.99
   10:31:28.735.17-Sep-2021 4888.00 5434.44 75.90 8.00 103.41 2528.99
   10:31:28.935.17-Sep-2021 4888.00 5436.85 75.90 8.00 103.61 2528.99
   10:31:29.135.17-Sep-2021 4888.00 5435.91 75.90 8.00 103.81 2528.99
   10:31:29.335.17-Sep-2021 4888.00 5437.08 75.90 8.00 104.01 2528.99
   10:31:29.536.17-Sep-2021 4888.00 5437.08 75.90 8.00 104.21 2528.99
   10:31:29.736.17-Sep-2021 4888.00 5436.30 75.90 8.00 104.41 2528.99
   10:31:29.936.17-Sep-2021 4888.00 5436.93 75.90 8.00 104.61 2528.99
   10:31:30.136.17-Sep-2021 4888.00 5436.22 75.90 8.00 104.81 2528.99
   10:31:30.336.17-Sep-2021 4888.00 5436.03 75.90 8.00 105.01 2528.99
   10:31:30.536.17-Sep-2021 4888.00 5436.03 75.90 8.00 105.21 2528.99
   10:31:30.736.17-Sep-2021 4888.00 5436.36 75.90 8.00 105.41 2528.99
   10:31:30.936.17-Sep-2021 4888.00 5436.74 75.90 8.00 105.61 2528.99
   10:31:31.136.17-Sep-2021 4888.00 5436.64 75.90 8.00 105.81 2528.99
   10:31:31.336.17-Sep-2021 4888.00 5436.48 75.90 8.00 106.01 2528.99
   10:31:31.536.17-Sep-2021 4888.00 5436.48 75.90 8.00 106.21 2528.99
   10:31:31.736.17-Sep-2021 4888.00 5439.13 75.90 8.00 106.41 2528.99
   10:31:31.936.17-Sep-2021 4888.00 5436.87 75.90 8.00 106.61 2528.99
   10:31:32.136.17-Sep-2021 4888.00 5436.37 75.90 8.00 106.81 2528.99
   10:31:32.336.17-Sep-2021 4888.00 5436.64 75.90 8.00 107.01 2528.99
   10:31:32.536.17-Sep-2021 4888.00 5436.64 75.90 8.00 107.21 2528.99
   10:31:32.736.17-Sep-2021 4888.00 5436.52 75.90 8.00 107.41 2528.99
   10:31:32.936.17-Sep-2021 4888.00 5436.11 75.90 8.00 107.61 2528.99
   10:31:33.136.17-Sep-2021 4888.00 5436.50 75.90 8.00 107.81 2528.99
   10:31:33.336.17-Sep-2021 4888.00 5436.27 75.90 8.00 108.01 2528.99
   10:31:33.536.17-Sep-2021 4888.00 5436.27 75.90 8.00 108.21 2528.99
   10:31:33.736.17-Sep-2021 4888.00 5436.12 75.90 8.00 108.41 2528.99
   10:31:33.936.17-Sep-2021 4888.00 5436.33 75.90 8.00 108.61 2528.99
   10:31:34.136.17-Sep-2021 4888.00 5436.60 75.90 8.00 108.81 2528.99
   10:31:34.336.17-Sep-2021 4888.00 5436.40 75.90 8.00 109.01 2528.99
   10:31:34.536.17-Sep-2021 4888.00 5436.40 75.90 8.00 109.21 2528.99
   10:31:34.736.17-Sep-2021 4888.00 5436.43 75.90 8.00 109.41 2528.99
   10:31:34.936.17-Sep-2021 4888.00 5436.95 75.90 8.00 109.61 2528.99
   10:31:35.136.17-Sep-2021 4888.00 5440.07 75.90 8.00 109.81 2528.99
   10:31:35.336.17-Sep-2021 4888.00 5435.67 75.90 8.00 110.01 2528.99
   10:31:35.536.17-Sep-2021 4888.00 5435.67 75.90 8.00 110.21 2528.99
   10:31:35.736.17-Sep-2021 4888.00 5436.50 75.90 8.00 110.41 2528.99
   10:31:35.936.17-Sep-2021 4888.00 5437.96 75.89 8.00 110.61 2528.99
   10:31:36.136.17-Sep-2021 4888.00 5440.08 75.89 8.00 110.81 2528.99
   10:31:36.336.17-Sep-2021 4888.00 5434.56 75.89 8.00 111.01 2528.99
   10:31:36.536.17-Sep-2021 4888.00 5434.56 75.89 8.00 111.21 2528.99
   10:31:36.736.17-Sep-2021 4888.00 5435.88 75.89 8.00 111.41 2528.99
   10:31:36.936.17-Sep-2021 4888.00 5437.22 75.89 8.00 111.61 2528.99
   10:31:37.136.17-Sep-2021 4888.00 5439.32 75.89 8.00 111.81 2528.99
   10:31:37.336.17-Sep-2021 4888.00 5434.95 75.89 8.00 112.01 2528.99
   10:31:37.536.17-Sep-2021 4888.00 5434.95 75.89 8.00 112.21 2528.99
   10:31:37.736.17-Sep-2021 4888.00 5435.63 75.89 8.00 112.41 2528.99
   10:31:37.936.17-Sep-2021 4888.00 5436.92 75.89 8.00 112.61 2528.99
   10:31:38.136.17-Sep-2021 4888.00 5438.04 75.89 8.00 112.81 2528.99
   10:31:38.336.17-Sep-2021 4888.00 5436.09 75.89 8.00 113.01 2528.99
   10:31:38.537.17-Sep-2021 4888.00 5436.09 75.89 8.00 113.21 2528.99
   10:31:38.737.17-Sep-2021 4888.00 5436.35 75.89 8.00 113.41 2528.99
   10:31:38.937.17-Sep-2021 4888.00 5436.68 75.89 8.00 113.61 2528.99
   10:31:39.137.17-Sep-2021 4888.00 5435.90 75.89 8.00 113.81 2528.99
   10:31:39.337.17-Sep-2021 4888.00 5436.21 75.89 8.00 114.01 2528.99
   10:31:39.537.17-Sep-2021 4888.00 5436.21 75.89 8.00 114.21 2528.99
   10:31:39.737.17-Sep-2021 4888.00 5436.09 75.89 8.00 114.41 2528.99
   10:31:39.937.17-Sep-2021 4888.00 5435.86 75.89 8.00 114.61 2528.99
   10:31:40.137.17-Sep-2021 4888.00 5436.10 75.89 8.00 114.81 2528.99
