~Version Information
 VERS.                  2.0:   CWLS log ASCII Standard -VERSION 2.0
 WRAP.                   NO:   One line per depth step
~Well Information Block
#MNEM.UNIT     VALUE/NAME     DESCRIPTION
#---------     -----------    ---------------------------
 STRT.S             04:34:50 17-Sep-21: START TIME 04:34:50 17-Sep-21
 STOP.S             04:43:20 17-Sep-21: STOP TIME  04:43:20 17-Sep-21
 STEP.S                   0.00: STEP TIME
 NULL.                 -999.25: NULL VALUE
 DFWT.                        :  DIST FWL TEXT
 DFST.                        :  DIST FSL TEXT
 DMF .             Drill Floor:  DRILL MEAS FROM
 STIM.      10.59.12 05-Jul-21:  START TIME
 DATE.      10.59.12 10-Sep-21:  END TIME
 SPUD.               05-Jul-21:  SPUD DATE
 NREF.                    Grid:  NORTH REFERENCE
 HPTY.       Minimum Curvature:  HOLE POS TYPE
 DMOD.             Drill Model:  DRILL MOD DESC
 SVYD.                  Survey:  SURVEY DESC
 ILTD.               Lithology:  INTERP LTH DESC
 FTOP.          Formation Tops:  FORM TOPS DESC
 RIG .                     DWG:  RIG NAME
 PDAT.          Mean Sea Level:  PERMANENT DATUM
 FLD .                     ACG:  FIELD NAME
 SON .        AZ-XX-0907115008:  JOB NUMBER
 CTRY.              Azerbaijan:  COUNTRY NAME
 WELL.                    E35A:  WELL NAME
 SRVC.          TURAN DRILLING:  CONTRACTOR
 COMP.     BP Exploration (Caspian Sea LTD):  COMPANY
 UWI .                     N/A:  UNIQUE WELL IDENTIFIER
 API .                     N/A:  API NUMBER
 MDS .        Operator Entered:  MAG DATA SOURCE
 BASE.              Azerbaijan:  LOGGING EQUIPMENT BASE LOCATION
 REGN.                   EESSA:  REGION
 PROV.                    Baku:  PROVINCE
 STAT.                    Baku:  STATE NAME
 MWDS.                    Baku:  MWD SHOP
 JOBN.        AZ-XX-0907115008:  JOB TICKET NUMB
 DOE .                     N/A:  DOE NUMBER
 DCON.         Sperry Drilling:  DIRECTNL CONTR
 UNIT.                     N/A:  LOGGING EQUIPMENT ID
 WTYP.                Deviated:  WELL TYPE
 CNTY.                        :  COUNTY
 LOC .                        :  LOCATION
 LMF .             Drill Floor:  LOG MEASURED FROM
 TVDS.m                  43.16:  TVDSS CORRECTN
 LATI.deg                40.17:  LATITUDE
 LONG.deg                51.17:  LONGITUDE
 WHNS.m                  10.51:  WELL HEAD N/S
 WHEW.m                 -14.82:  WELL HEAD E/W
 UTMX.m              514336.92:  UTM X
 UTMY.m             4448618.56:  UTM Y
 DFWL.m                   0.00:  DISTANCE FWL
 DFSL.m                   0.00:  DISTANCE FSL
 SDEP.m                 849.00:  START DEPTH
 TDD .m                2862.00:  TOTAL DEPTH (DRILLER)
 VSDR.deg               292.10:  VERT SEC DIRECT
 GVFD.g                   1.00:  GRAVITY FIELD
 MFLD.nT              50382.00:  MAGNETIC FIELD
 MDIP.deg                59.68:  MAGNETIC DIP
 MDEC.deg                 6.66:  MAGNETIC DECL
 GRDC.deg                 0.09:  GRID CORRECTION
 AZTC.deg                 6.57:  AZM TOTAL CORR
 EPD .m                   0.00:  ELEVATION
 EGL .m                   0.00:  GROUND ELEVATION
 WDMS.m                 176.20:  WD ELEV
 APD .m                  43.16:  DEPTH ABOVE PD
 DEP .m                 363.42:  DEPTH
 AGAP.m                  43.16:  AIR GAP
 VSEW.m                 -14.82:  VERT SEC E/W
 VSNS.m                  10.51:  VERT SEC N/S
 EKB .m                  43.16:  KB ELEVATION
 EDF .m                  43.16:  DF ELEVATION
 TDL .m                1390.00:  TOTAL DEPTH (LOGGER)
 VSC .                       0:  VS TO CLOSURE
 MAGU.                 1855871:  MAGUTM CHECKSUM
~Parameter Information Block
#MNEM.UNIT       Value        Description
#---------     -----------    ---------------------------
 AV  .mps                 2.28:  Ann Velocity 
 AVMX.mps                 2.67:  Max Ann Veloc 
 AZIF.deg               305.00:  Azm, Final 
 BHAT.        Rotary Steerable:  BHA Type 
 BROT.°/30m               0.45:  Build Rotating 
 BS  .in                 12.25:  Bit Size 
 BSZ .in                 12.25:  Bit Size 
 BTPL.psig              600.00:  Bit Press Loss 
 CABU.                     Yes:  Customer Abuse 
 COMM.                     ÌN:  Run Comments 1 
 TCS .hr                150.00:  Time Ciculation Ended 
 CV  .mps                 1.24:  Crit Velocity 
 CVMX.mps                 1.66:  Max Crit Veloc 
 DD1 .         Intigam Rahimov:  Direct Drillr 1 
 DD2 .            Azer Ravavov:  Direct Drillr 2 
 DD3 .              Samir Abas:  Direct Drillr 3 
 DDSV.               Geo-Pilot:  DD Service 
 DEFF.%                 100.00:  % Det Eff 
 DLRX.°/30m               1.57:  Dogleg Rot Max 
 DLSO.°/30m               0.00:  Dogleg Oriented 
 DLSX.°/30m               0.00:  Dogleg Str Max 
 DRET.      20.28.06 17-Sep-21:  Drill End Time 
 DRST.      20.27.35 10-Sep-21:  Drill Start Tim 
 DTIM.hr                 54.00:  Time Drilling 
 EDEP.m                5260.00:  End Depth 
 ENG1.      Bakhtiyar Jabbarli:  Engineer 1 
 ENG2.      Natik Hasanaghayev:  Engineer 2 
 ENG3.           Royal Nasirov:  Engineer 3 
 ETIM.      20.27.55 18-Sep-21:  End Time 
 FLOI.gpm              1100.00:  Flow In 
 FLON.gpm               800.00:  Flow In Min 
 FLOS.cptm                0.00:  Fluid Loss 
 FLOX.gpm              1200.00:  Flow In Max 
 DFT .        Mineral Oil Base:  Mud Type 
 HPRE.                      No:  High Pressure 
 HTEM.                      No:  High Temp 
 HYDO.m                   1.80:  Hydro Offset 
 IFIN.deg                72.31:  Inc, Final 
 IMAX.deg                72.36:  Inc Max 
 IMIN.deg                69.36:  Inc Min 
 IMND.m                4192.96:  Inc Min Depth 
 IMXD.m                5128.36:  Inc Max Depth 
 JARR.                      No:  Jarring 
 LETM.      20.29.00 17-Sep-21:  Log End Time 
 LOST.hr                     0:  Lost Rig Time 
 LSTM.      20.27.00 10-Sep-21:  Log Start Time 
 MDCL.ppm            227000.00:  Mud Chlorides 
 MDES.     Inversion Oil/Synthetic:  Mud Desc 
 DFD .sg                  1.45:  Mud Density 
 MDMN.sg                  1.45:  Dens Mud Min 
 MDMX.sg                  1.45:  Dens Mud Max 
 MOIL.                    70.5:  Run Mud Oil % 
 MOWR.                   71:29:  Run Mud OWR 
 MSND.                     0.3:  Run Mud Sand % 
 MSOL.                    19.8:  Run Mud Solids% 
 DFV .spqt               80.00:  Mud Viscosity 
 MWOD.in                  8.00:  MWD Tool OD 
 MWSI.                     Yes:  Serv Intrp, MWD 
 OTIM.hr                180.00:  Time Operating 
 PCON.           Look Like New:  Pad Condition 
 PMAX.psia             9910.94:  Press Op, Max 
 PV  .cP                 35.00:  Mud PV 
 RUN .                    1000:  Run Number 
 ROPA.m/hr               18.00:  ROP Avg 
 ROPN.m/hr                8.00:  ROP Min 
 ROPX.m/hr               23.00:  ROP Max 
 RPMA.rpm               150.00:  RPM Surface Avg 
 RPMN.rpm               120.00:  RPM Surface Min 
 RPMX.rpm               160.00:  RPM Surface Max 
 RRUN.                    L503:  Rig Run Number 
 RTIM.hr                  5.00:  Time Reaming 
 SAZI.deg               298.42:  Azm, Start 
 SDEP.m                3870.00:  Start Depth 
 SIDD.                      No:  Serv Intrp, DD 
 SINC.deg                69.57:  Inc, Start 
 SPPA.psig             5500.00:  SPP Avg 
 SPPN.psig             4400.00:  SPP Min 
 SPPX.psig             5800.00:  SPP Max 
 STIM.      15.29.39 09-Sep-21:  Start Time 
 SVCS.                 DD, MWD:  Services 
 SVER.                    9.20:  Sperry Version 
 TDAT.m                5260.00:  Tot Depth Attmp 
 TDDF.                      No:  Trip for DD 
 TDLG.m                1390.00:  Tot Depth Loggd 
 TFF .                      No:  Trip for Fail 
 TQAA.f-kp               22.00:  Torque Abs Avg 
 TQAN.f-kp               13.00:  Torque Abs Min 
 TQAX.f-kp               27.00:  Torque Abs Max 
 TRRT.°/30m               1.60:  Turn Rotating 
 MRT .                  EWR-M5:  Maximum Recorded Temperature 
 TTMX.degC               92.00:  Max Tool Temp 
 VS01.                12330975:  Virtual Str1 SN 
 VS02.                90658671:  Virtual Str2 SN 
 VS03.                90658508:  Virtual Str3 SN 
 VS04.                90660974:  Virtual Str4 SN 
 VS05.                90654675:  Virtual Str5 SN 
 WBMN.klb                15.00:  WOB Min 
 WITN.     Alexander Yadullayev:  Customer Rep 
 WITN.           Adil Mammadov:  Customer Rep 2 
 WOBA.klb                17.00:  WOB Avg 
 WOBX.klb                18.00:  WOB Max 
 YP  .lhf2               31.00:  Yield Point 
~Curve Information Block
#MNEM.UNIT                 API CODE     Curve Description
#---------               -----------    ---------------------------
 TIME.HHMMSS            00 000 000 000:  GT Time & Date
 GTDEPTH.m              00 000 000 000:  GT Depth
 GTPQH.psia             00 000 000 000:  GT HR Quartz Pressure
 GTTQ.degC              00 000 000 000:  GT Quartz Temperature
 GTTN.NONE              00 000 000 000:  GT Test Number
 GTET.sec               00 000 000 000:  GT Elapsed Test Time
 GTTVD.m                00 000 000 000:  GT True Vertical Depth
#Other Information
#
#WARRANTY: Halliburton will use its best efforts to furnish customers with 
#accurate information and interpretations that are part of, and incident to, the services 
#provided.  However, Halliburton cannot and does not warrant the accuracy 
#or correctness of such information and interpretations.  Under no circumstances should any 
#such information or interpretation be relied upon as the sole basis for any drilling, 
#completion, production, or financial decision or any procedure involving any risk to the 
#safety of any drilling venture, drilling rig or its crew or any other third party.  The 
#Customer has full responsibility for all drilling, completion and production operation.  
#Halliburton makes no representations or warranties, either expressed or 
#implied, including, but not limited to, the implied warranties of merchantability or fitness 
#for a particular purpose, with respect to the services rendered.  In no event will 
#Halliburton be liable for failure to obtain any particular results or for 
#any damages, including, but not limited to, indirect, special or consequential damages, 
#resulting from the use of any information or interpretation provided by Halliburton.
#
~A           TIME           GTDEPTH  GTPQH  GTTQ  GTTN  GTET   GTTVD  
# ...
   04:42:53.544.17-Sep-2021 5094.00 5568.62 79.91 4.00 483.52 2595.14
   04:42:53.744.17-Sep-2021 5094.00 5568.62 79.91 4.00 483.72 2595.14
   04:42:53.944.17-Sep-2021 5094.00 5568.67 79.91 4.00 483.92 2595.14
   04:42:54.145.17-Sep-2021 5094.00 5568.63 79.91 4.00 484.12 2595.14
   04:42:54.345.17-Sep-2021 5094.00 5568.83 79.91 4.00 484.32 2595.14
   04:42:54.545.17-Sep-2021 5094.00 5568.95 79.91 4.00 484.52 2595.14
   04:42:54.745.17-Sep-2021 5094.00 5568.95 79.91 4.00 484.72 2595.14
   04:42:54.945.17-Sep-2021 5094.00 5569.04 79.91 4.00 484.92 2595.14
   04:42:55.146.17-Sep-2021 5094.00 5570.15 79.91 4.00 485.12 2595.14
   04:42:55.346.17-Sep-2021 5094.00 5569.53 79.91 4.00 485.32 2595.14
   04:42:55.546.17-Sep-2021 5094.00 5568.66 79.91 4.00 485.52 2595.14
   04:42:55.746.17-Sep-2021 5094.00 5568.66 79.91 4.00 485.72 2595.14
   04:42:55.947.17-Sep-2021 5094.00 5568.08 79.91 4.00 485.92 2595.14
   04:42:56.147.17-Sep-2021 5094.00 5568.01 79.91 4.00 486.12 2595.14
   04:42:56.347.17-Sep-2021 5094.00 5567.90 79.91 4.00 486.32 2595.14
   04:42:56.547.17-Sep-2021 5094.00 5568.11 79.91 4.00 486.52 2595.14
   04:42:56.747.17-Sep-2021 5094.00 5568.11 79.91 4.00 486.72 2595.14
   04:42:56.948.17-Sep-2021 5094.00 5568.50 79.91 4.00 486.92 2595.14
   04:42:57.148.17-Sep-2021 5094.00 5568.36 79.91 4.00 487.12 2595.14
   04:42:57.348.17-Sep-2021 5094.00 5568.34 79.91 4.00 487.32 2595.14
   04:42:57.548.17-Sep-2021 5094.00 5568.77 79.91 4.00 487.53 2595.14
   04:42:57.749.17-Sep-2021 5094.00 5568.77 79.91 4.00 487.73 2595.14
   04:42:57.949.17-Sep-2021 5094.00 5569.22 79.90 4.00 487.93 2595.14
   04:42:58.149.17-Sep-2021 5094.00 5572.78 79.90 4.00 488.13 2595.14
   04:42:58.349.17-Sep-2021 5094.00 5567.52 79.90 4.00 488.33 2595.14
   04:42:58.549.17-Sep-2021 5094.00 5569.97 79.90 4.00 488.53 2595.14
   04:42:58.750.17-Sep-2021 5094.00 5569.97 79.90 4.00 488.73 2595.14
   04:42:58.950.17-Sep-2021 5094.00 5568.56 79.90 4.00 488.93 2595.14
   04:42:59.150.17-Sep-2021 5094.00 5569.47 79.90 4.00 489.13 2595.14
   04:42:59.350.17-Sep-2021 5094.00 5569.07 79.90 4.00 489.33 2595.14
   04:42:59.550.17-Sep-2021 5094.00 5568.74 79.90 4.00 489.53 2595.14
   04:42:59.751.17-Sep-2021 5094.00 5568.74 79.90 4.00 489.73 2595.14
   04:42:59.951.17-Sep-2021 5094.00 5567.71 79.90 4.00 489.93 2595.14
   04:43:00.151.17-Sep-2021 5094.00 5567.61 79.90 4.00 490.13 2595.14
   04:43:00.351.17-Sep-2021 5094.00 5568.47 79.90 4.00 490.33 2595.14
   04:43:00.552.17-Sep-2021 5094.00 5568.58 79.90 4.00 490.53 2595.14
   04:43:00.752.17-Sep-2021 5094.00 5568.58 79.90 4.00 490.73 2595.14
   04:43:00.952.17-Sep-2021 5094.00 5568.92 79.90 4.00 490.93 2595.14
   04:43:01.152.17-Sep-2021 5094.00 5568.23 79.90 4.00 491.13 2595.14
   04:43:01.352.17-Sep-2021 5094.00 5571.69 79.90 4.00 491.33 2595.14
   04:43:01.553.17-Sep-2021 5094.00 5567.13 79.90 4.00 491.53 2595.14
   04:43:01.753.17-Sep-2021 5094.00 5567.13 79.90 4.00 491.73 2595.14
   04:43:01.953.17-Sep-2021 5094.00 5567.97 79.90 4.00 491.93 2595.14
   04:43:02.153.17-Sep-2021 5094.00 5568.30 79.90 4.00 492.13 2595.14
   04:43:02.353.17-Sep-2021 5094.00 5568.37 79.90 4.00 492.33 2595.14
   04:43:02.554.17-Sep-2021 5094.00 5568.10 79.90 4.00 492.53 2595.14
   04:43:02.754.17-Sep-2021 5094.00 5568.10 79.90 4.00 492.73 2595.14
   04:43:02.954.17-Sep-2021 5094.00 5567.24 79.90 4.00 492.93 2595.14
   04:43:03.154.17-Sep-2021 5094.00 5567.68 79.90 4.00 493.13 2595.14
   04:43:03.355.17-Sep-2021 5094.00 5567.67 79.90 4.00 493.33 2595.14
   04:43:03.555.17-Sep-2021 5094.00 5568.00 79.89 4.00 493.53 2595.14
   04:43:03.755.17-Sep-2021 5094.00 5568.00 79.89 4.00 493.73 2595.14
   04:43:03.955.17-Sep-2021 5094.00 5568.01 79.89 4.00 493.93 2595.14
   04:43:04.155.17-Sep-2021 5094.00 5568.07 79.89 4.00 494.13 2595.14
   04:43:04.356.17-Sep-2021 5094.00 5568.26 79.89 4.00 494.33 2595.14
   04:43:04.556.17-Sep-2021 5094.00 5570.70 79.89 4.00 494.53 2595.14
   04:43:04.756.17-Sep-2021 5094.00 5570.70 79.89 4.00 494.73 2595.14
   04:43:04.956.17-Sep-2021 5094.00 5569.46 79.89 4.00 494.93 2595.14
   04:43:05.156.17-Sep-2021 5094.00 5568.77 79.89 4.00 495.13 2595.14
   04:43:05.357.17-Sep-2021 5094.00 5567.99 79.89 4.00 495.33 2595.14
   04:43:05.557.17-Sep-2021 5094.00 5567.80 79.89 4.00 495.53 2595.14
   04:43:05.757.17-Sep-2021 5094.00 5567.80 79.89 4.00 495.73 2595.14
   04:43:05.957.17-Sep-2021 5094.00 5567.33 79.89 4.00 495.93 2595.14
   04:43:06.158.17-Sep-2021 5094.00 5567.29 79.89 4.00 496.13 2595.14
   04:43:06.358.17-Sep-2021 5094.00 5567.32 79.89 4.00 496.33 2595.14
   04:43:06.558.17-Sep-2021 5094.00 5567.47 79.89 4.00 496.53 2595.14
   04:43:06.758.17-Sep-2021 5094.00 5567.47 79.89 4.00 496.73 2595.14
   04:43:06.958.17-Sep-2021 5094.00 5567.79 79.89 4.00 496.94 2595.14
   04:43:07.159.17-Sep-2021 5094.00 5567.66 79.89 4.00 497.14 2595.14
   04:43:07.359.17-Sep-2021 5094.00 5568.09 79.89 4.00 497.34 2595.14
   04:43:07.559.17-Sep-2021 5094.00 5568.30 79.89 4.00 497.54 2595.14
   04:43:07.759.17-Sep-2021 5094.00 5568.30 79.89 4.00 497.74 2595.14
   04:43:07.960.17-Sep-2021 5094.00 5572.15 79.89 4.00 497.94 2595.14
   04:43:08.160.17-Sep-2021 5094.00 5566.97 79.89 4.00 498.14 2595.14
   04:43:08.360.17-Sep-2021 5094.00 5569.45 79.89 4.00 498.34 2595.14
   04:43:08.560.17-Sep-2021 5094.00 5568.44 79.89 4.00 498.54 2595.14
   04:43:08.760.17-Sep-2021 5094.00 5568.44 79.89 4.00 498.74 2595.14
   04:43:08.961.17-Sep-2021 5094.00 5568.83 79.89 4.00 498.94 2595.14
   04:43:09.161.17-Sep-2021 5094.00 5568.62 79.89 4.00 499.14 2595.14
   04:43:09.361.17-Sep-2021 5094.00 5568.14 79.89 4.00 499.34 2595.14
   04:43:09.561.17-Sep-2021 5094.00 5567.60 79.88 4.00 499.54 2595.14
   04:43:09.761.17-Sep-2021 5094.00 5567.60 79.88 4.00 499.74 2595.14
   04:43:09.962.17-Sep-2021 5094.00 5567.03 79.88 4.00 499.94 2595.14
   04:43:10.162.17-Sep-2021 5094.00 5570.42 79.88 4.00 500.14 2595.14
   04:43:10.362.17-Sep-2021 5094.00 5565.77 79.88 4.00 500.34 2595.14
   04:43:10.562.17-Sep-2021 5094.00 5568.52 79.88 4.00 500.54 2595.14
   04:43:10.763.17-Sep-2021 5094.00 5568.52 79.88 4.00 500.74 2595.14
   04:43:10.963.17-Sep-2021 5094.00 5568.16 79.88 4.00 500.94 2595.14
   04:43:11.163.17-Sep-2021 5094.00 5569.55 79.88 4.00 501.14 2595.14
   04:43:11.363.17-Sep-2021 5094.00 5569.52 79.88 4.00 501.34 2595.14
   04:43:11.563.17-Sep-2021 5094.00 5568.62 79.88 4.00 501.54 2595.14
   04:43:11.764.17-Sep-2021 5094.00 5568.62 79.88 4.00 501.74 2595.14
   04:43:11.964.17-Sep-2021 5094.00 5568.54 79.88 4.00 501.94 2595.14
   04:43:12.164.17-Sep-2021 5094.00 5571.68 79.88 4.00 502.14 2595.14
   04:43:12.364.17-Sep-2021 5094.00 5570.20 79.88 4.00 502.34 2595.14
   04:43:12.564.17-Sep-2021 5094.00 5569.71 79.88 4.00 502.54 2595.14
   04:43:12.765.17-Sep-2021 5094.00 5569.71 79.88 4.00 502.74 2595.14
   04:43:12.965.17-Sep-2021 5094.00 5569.75 79.88 4.00 502.94 2595.14
   04:43:13.165.17-Sep-2021 5094.00 5569.78 79.88 4.00 503.14 2595.14
   04:43:13.365.17-Sep-2021 5094.00 5570.12 79.88 4.00 503.34 2595.14
   04:43:13.566.17-Sep-2021 5094.00 5570.02 79.88 4.00 503.54 2595.14
   04:43:13.766.17-Sep-2021 5094.00 5570.02 79.88 4.00 503.74 2595.14
   04:43:13.966.17-Sep-2021 5094.00 5570.28 79.88 4.00 503.94 2595.14
   04:43:14.166.17-Sep-2021 5094.00 5574.20 79.88 4.00 504.14 2595.14
   04:43:14.366.17-Sep-2021 5094.00 5569.20 79.88 4.00 504.34 2595.14
   04:43:14.567.17-Sep-2021 5094.00 5571.76 79.88 4.00 504.54 2595.14
   04:43:14.767.17-Sep-2021 5094.00 5571.76 79.88 4.00 504.74 2595.14
   04:43:14.967.17-Sep-2021 5094.00 5570.21 79.88 4.00 504.94 2595.14
   04:43:15.167.17-Sep-2021 5094.00 5570.39 79.87 4.00 505.14 2595.14
   04:43:15.367.17-Sep-2021 5094.00 5569.93 79.87 4.00 505.34 2595.14
   04:43:15.568.17-Sep-2021 5094.00 5569.92 79.87 4.00 505.54 2595.14
   04:43:15.768.17-Sep-2021 5094.00 5569.92 79.87 4.00 505.74 2595.14
   04:43:15.968.17-Sep-2021 5094.00 5569.51 79.87 4.00 505.94 2595.14
   04:43:16.168.17-Sep-2021 5094.00 5569.49 79.87 4.00 506.15 2595.14
   04:43:16.369.17-Sep-2021 5094.00 5569.68 79.87 4.00 506.35 2595.14
