~Version Information
 VERS.                  2.0:   CWLS log ASCII Standard -VERSION 2.0
 WRAP.                   NO:   One line per depth step
~Well Information Block
#MNEM.UNIT     VALUE/NAME     DESCRIPTION
#---------     -----------    ---------------------------
 STRT.S             11:33:10 17-Sep-21: START TIME 11:33:10 17-Sep-21
 STOP.S             11:40:20 17-Sep-21: STOP TIME  11:40:20 17-Sep-21
 STEP.S                   0.00: STEP TIME
 NULL.                 -999.25: NULL VALUE
 DFWT.                        :  DIST FWL TEXT
 DFST.                        :  DIST FSL TEXT
 DMF .             Drill Floor:  DRILL MEAS FROM
 STIM.      10.59.12 05-Jul-21:  START TIME
 DATE.      10.59.12 10-Sep-21:  END TIME
 SPUD.               05-Jul-21:  SPUD DATE
 NREF.                    Grid:  NORTH REFERENCE
 HPTY.       Minimum Curvature:  HOLE POS TYPE
 DMOD.             Drill Model:  DRILL MOD DESC
 SVYD.                  Survey:  SURVEY DESC
 ILTD.               Lithology:  INTERP LTH DESC
 FTOP.          Formation Tops:  FORM TOPS DESC
 RIG .                     DWG:  RIG NAME
 PDAT.          Mean Sea Level:  PERMANENT DATUM
 FLD .                     ACG:  FIELD NAME
 SON .        AZ-XX-0907115008:  JOB NUMBER
 CTRY.              Azerbaijan:  COUNTRY NAME
 WELL.                    E35A:  WELL NAME
 SRVC.          TURAN DRILLING:  CONTRACTOR
 COMP.     BP Exploration (Caspian Sea LTD):  COMPANY
 UWI .                     N/A:  UNIQUE WELL IDENTIFIER
 API .                     N/A:  API NUMBER
 MDS .        Operator Entered:  MAG DATA SOURCE
 BASE.              Azerbaijan:  LOGGING EQUIPMENT BASE LOCATION
 REGN.                   EESSA:  REGION
 PROV.                    Baku:  PROVINCE
 STAT.                    Baku:  STATE NAME
 MWDS.                    Baku:  MWD SHOP
 JOBN.        AZ-XX-0907115008:  JOB TICKET NUMB
 DOE .                     N/A:  DOE NUMBER
 DCON.         Sperry Drilling:  DIRECTNL CONTR
 UNIT.                     N/A:  LOGGING EQUIPMENT ID
 WTYP.                Deviated:  WELL TYPE
 CNTY.                        :  COUNTY
 LOC .                        :  LOCATION
 LMF .             Drill Floor:  LOG MEASURED FROM
 TVDS.m                  43.16:  TVDSS CORRECTN
 LATI.deg                40.17:  LATITUDE
 LONG.deg                51.17:  LONGITUDE
 WHNS.m                  10.51:  WELL HEAD N/S
 WHEW.m                 -14.82:  WELL HEAD E/W
 UTMX.m              514336.92:  UTM X
 UTMY.m             4448618.56:  UTM Y
 DFWL.m                   0.00:  DISTANCE FWL
 DFSL.m                   0.00:  DISTANCE FSL
 SDEP.m                 849.00:  START DEPTH
 TDD .m                2862.00:  TOTAL DEPTH (DRILLER)
 VSDR.deg               292.10:  VERT SEC DIRECT
 GVFD.g                   1.00:  GRAVITY FIELD
 MFLD.nT              50382.00:  MAGNETIC FIELD
 MDIP.deg                59.68:  MAGNETIC DIP
 MDEC.deg                 6.66:  MAGNETIC DECL
 GRDC.deg                 0.09:  GRID CORRECTION
 AZTC.deg                 6.57:  AZM TOTAL CORR
 EPD .m                   0.00:  ELEVATION
 EGL .m                   0.00:  GROUND ELEVATION
 WDMS.m                 176.20:  WD ELEV
 APD .m                  43.16:  DEPTH ABOVE PD
 DEP .m                 363.42:  DEPTH
 AGAP.m                  43.16:  AIR GAP
 VSEW.m                 -14.82:  VERT SEC E/W
 VSNS.m                  10.51:  VERT SEC N/S
 EKB .m                  43.16:  KB ELEVATION
 EDF .m                  43.16:  DF ELEVATION
 TDL .m                1390.00:  TOTAL DEPTH (LOGGER)
 VSC .                       0:  VS TO CLOSURE
 MAGU.                 1855871:  MAGUTM CHECKSUM
~Parameter Information Block
#MNEM.UNIT       Value        Description
#---------     -----------    ---------------------------
 AV  .mps                 2.28:  Ann Velocity 
 AVMX.mps                 2.67:  Max Ann Veloc 
 AZIF.deg               305.00:  Azm, Final 
 BHAT.        Rotary Steerable:  BHA Type 
 BROT.°/30m               0.45:  Build Rotating 
 BS  .in                 12.25:  Bit Size 
 BSZ .in                 12.25:  Bit Size 
 BTPL.psig              600.00:  Bit Press Loss 
 CABU.                     Yes:  Customer Abuse 
 COMM.                     Á~:  Run Comments 1 
 TCS .hr                150.00:  Time Ciculation Ended 
 CV  .mps                 1.24:  Crit Velocity 
 CVMX.mps                 1.66:  Max Crit Veloc 
 DD1 .         Intigam Rahimov:  Direct Drillr 1 
 DD2 .            Azer Ravavov:  Direct Drillr 2 
 DD3 .              Samir Abas:  Direct Drillr 3 
 DDSV.               Geo-Pilot:  DD Service 
 DEFF.%                 100.00:  % Det Eff 
 DLRX.°/30m               1.57:  Dogleg Rot Max 
 DLSO.°/30m               0.00:  Dogleg Oriented 
 DLSX.°/30m               0.00:  Dogleg Str Max 
 DRET.      20.28.06 17-Sep-21:  Drill End Time 
 DRST.      20.27.35 10-Sep-21:  Drill Start Tim 
 DTIM.hr                 54.00:  Time Drilling 
 EDEP.m                5260.00:  End Depth 
 ENG1.      Bakhtiyar Jabbarli:  Engineer 1 
 ENG2.      Natik Hasanaghayev:  Engineer 2 
 ENG3.           Royal Nasirov:  Engineer 3 
 ETIM.      20.27.55 18-Sep-21:  End Time 
 FLOI.gpm              1100.00:  Flow In 
 FLON.gpm               800.00:  Flow In Min 
 FLOS.cptm                0.00:  Fluid Loss 
 FLOX.gpm              1200.00:  Flow In Max 
 DFT .        Mineral Oil Base:  Mud Type 
 HPRE.                      No:  High Pressure 
 HTEM.                      No:  High Temp 
 HYDO.m                   1.80:  Hydro Offset 
 IFIN.deg                72.31:  Inc, Final 
 IMAX.deg                72.36:  Inc Max 
 IMIN.deg                69.36:  Inc Min 
 IMND.m                4192.96:  Inc Min Depth 
 IMXD.m                5128.36:  Inc Max Depth 
 JARR.                      No:  Jarring 
 LETM.      20.29.00 17-Sep-21:  Log End Time 
 LOST.hr                     0:  Lost Rig Time 
 LSTM.      20.27.00 10-Sep-21:  Log Start Time 
 MDCL.ppm            227000.00:  Mud Chlorides 
 MDES.     Inversion Oil/Synthetic:  Mud Desc 
 DFD .sg                  1.45:  Mud Density 
 MDMN.sg                  1.45:  Dens Mud Min 
 MDMX.sg                  1.45:  Dens Mud Max 
 MOIL.                    70.5:  Run Mud Oil % 
 MOWR.                   71:29:  Run Mud OWR 
 MSND.                     0.3:  Run Mud Sand % 
 MSOL.                    19.8:  Run Mud Solids% 
 DFV .spqt               80.00:  Mud Viscosity 
 MWOD.in                  8.00:  MWD Tool OD 
 MWSI.                     Yes:  Serv Intrp, MWD 
 OTIM.hr                180.00:  Time Operating 
 PCON.           Look Like New:  Pad Condition 
 PMAX.psia             9910.94:  Press Op, Max 
 PV  .cP                 35.00:  Mud PV 
 RUN .                    1000:  Run Number 
 ROPA.m/hr               18.00:  ROP Avg 
 ROPN.m/hr                8.00:  ROP Min 
 ROPX.m/hr               23.00:  ROP Max 
 RPMA.rpm               150.00:  RPM Surface Avg 
 RPMN.rpm               120.00:  RPM Surface Min 
 RPMX.rpm               160.00:  RPM Surface Max 
 RRUN.                    L503:  Rig Run Number 
 RTIM.hr                  5.00:  Time Reaming 
 SAZI.deg               298.42:  Azm, Start 
 SDEP.m                3870.00:  Start Depth 
 SIDD.                      No:  Serv Intrp, DD 
 SINC.deg                69.57:  Inc, Start 
 SPPA.psig             5500.00:  SPP Avg 
 SPPN.psig             4400.00:  SPP Min 
 SPPX.psig             5800.00:  SPP Max 
 STIM.      15.29.39 09-Sep-21:  Start Time 
 SVCS.                 DD, MWD:  Services 
 SVER.                    9.20:  Sperry Version 
 TDAT.m                5260.00:  Tot Depth Attmp 
 TDDF.                      No:  Trip for DD 
 TDLG.m                1390.00:  Tot Depth Loggd 
 TFF .                      No:  Trip for Fail 
 TQAA.f-kp               22.00:  Torque Abs Avg 
 TQAN.f-kp               13.00:  Torque Abs Min 
 TQAX.f-kp               27.00:  Torque Abs Max 
 TRRT.°/30m               1.60:  Turn Rotating 
 MRT .                  EWR-M5:  Maximum Recorded Temperature 
 TTMX.degC               92.00:  Max Tool Temp 
 VS01.                12330975:  Virtual Str1 SN 
 VS02.                90658671:  Virtual Str2 SN 
 VS03.                90658508:  Virtual Str3 SN 
 VS04.                90660974:  Virtual Str4 SN 
 VS05.                90654675:  Virtual Str5 SN 
 WBMN.klb                15.00:  WOB Min 
 WITN.     Alexander Yadullayev:  Customer Rep 
 WITN.           Adil Mammadov:  Customer Rep 2 
 WOBA.klb                17.00:  WOB Avg 
 WOBX.klb                18.00:  WOB Max 
 YP  .lhf2               31.00:  Yield Point 
~Curve Information Block
#MNEM.UNIT                 API CODE     Curve Description
#---------               -----------    ---------------------------
 TIME.HHMMSS            00 000 000 000:  GT Time & Date
 GTDEPTH.m              00 000 000 000:  GT Depth
 GTPQH.psia             00 000 000 000:  GT HR Quartz Pressure
 GTTQ.degC              00 000 000 000:  GT Quartz Temperature
 GTTN.NONE              00 000 000 000:  GT Test Number
 GTET.sec               00 000 000 000:  GT Elapsed Test Time
 GTTVD.m                00 000 000 000:  GT True Vertical Depth
#Other Information
#
#WARRANTY: Halliburton will use its best efforts to furnish customers with 
#accurate information and interpretations that are part of, and incident to, the services 
#provided.  However, Halliburton cannot and does not warrant the accuracy 
#or correctness of such information and interpretations.  Under no circumstances should any 
#such information or interpretation be relied upon as the sole basis for any drilling, 
#completion, production, or financial decision or any procedure involving any risk to the 
#safety of any drilling venture, drilling rig or its crew or any other third party.  The 
#Customer has full responsibility for all drilling, completion and production operation.  
#Halliburton makes no representations or warranties, either expressed or 
#implied, including, but not limited to, the implied warranties of merchantability or fitness 
#for a particular purpose, with respect to the services rendered.  In no event will 
#Halliburton be liable for failure to obtain any particular results or for 
#any damages, including, but not limited to, indirect, special or consequential damages, 
#resulting from the use of any information or interpretation provided by Halliburton.
#
~A           TIME           GTDEPTH  GTPQH  GTTQ  GTTN  GTET   GTTVD  
# ...
   11:38:32.781.17-Sep-2021 4887.00 5434.28 77.25 9.00 322.04 2528.65
   11:38:32.981.17-Sep-2021 4887.00 5434.28 77.25 9.00 322.24 2528.65
   11:38:33.181.17-Sep-2021 4887.00 5434.14 77.25 9.00 322.44 2528.65
   11:38:33.381.17-Sep-2021 4887.00 5438.50 77.25 9.00 322.64 2528.65
   11:38:33.581.17-Sep-2021 4887.00 5432.16 77.25 9.00 322.84 2528.65
   11:38:33.781.17-Sep-2021 4887.00 5433.64 77.25 9.00 323.04 2528.65
   11:38:33.981.17-Sep-2021 4887.00 5433.64 77.25 9.00 323.24 2528.65
   11:38:34.181.17-Sep-2021 4887.00 5434.79 77.25 9.00 323.44 2528.65
   11:38:34.381.17-Sep-2021 4887.00 5435.55 77.25 9.00 323.64 2528.65
   11:38:34.581.17-Sep-2021 4887.00 5433.35 77.25 9.00 323.84 2528.65
   11:38:34.781.17-Sep-2021 4887.00 5434.54 77.25 9.00 324.04 2528.65
   11:38:34.981.17-Sep-2021 4887.00 5434.54 77.25 9.00 324.24 2528.65
   11:38:35.181.17-Sep-2021 4887.00 5434.15 77.25 9.00 324.44 2528.65
   11:38:35.381.17-Sep-2021 4887.00 5433.87 77.25 9.00 324.64 2528.65
   11:38:35.581.17-Sep-2021 4887.00 5433.90 77.25 9.00 324.84 2528.65
   11:38:35.781.17-Sep-2021 4887.00 5434.40 77.25 9.00 325.04 2528.65
   11:38:35.981.17-Sep-2021 4887.00 5434.40 77.25 9.00 325.24 2528.65
   11:38:36.181.17-Sep-2021 4887.00 5433.77 77.25 9.00 325.44 2528.65
   11:38:36.381.17-Sep-2021 4887.00 5433.79 77.25 9.00 325.64 2528.65
   11:38:36.581.17-Sep-2021 4887.00 5434.23 77.25 9.00 325.84 2528.65
   11:38:36.781.17-Sep-2021 4887.00 5434.33 77.25 9.00 326.04 2528.65
   11:38:36.981.17-Sep-2021 4887.00 5434.33 77.25 9.00 326.24 2528.65
   11:38:37.181.17-Sep-2021 4887.00 5434.13 77.25 9.00 326.44 2528.65
   11:38:37.381.17-Sep-2021 4887.00 5434.24 77.25 9.00 326.64 2528.65
   11:38:37.581.17-Sep-2021 4887.00 5437.62 77.25 9.00 326.84 2528.65
   11:38:37.781.17-Sep-2021 4887.00 5433.86 77.25 9.00 327.04 2528.65
   11:38:37.981.17-Sep-2021 4887.00 5433.86 77.25 9.00 327.24 2528.65
   11:38:38.181.17-Sep-2021 4887.00 5434.32 77.25 9.00 327.44 2528.65
   11:38:38.381.17-Sep-2021 4887.00 5435.42 77.25 9.00 327.64 2528.65
   11:38:38.582.17-Sep-2021 4887.00 5434.02 77.25 9.00 327.84 2528.65
   11:38:38.782.17-Sep-2021 4887.00 5433.59 77.25 9.00 328.04 2528.65
   11:38:38.982.17-Sep-2021 4887.00 5433.59 77.25 9.00 328.24 2528.65
   11:38:39.182.17-Sep-2021 4887.00 5433.74 77.25 9.00 328.44 2528.65
   11:38:39.382.17-Sep-2021 4887.00 5433.59 77.25 9.00 328.64 2528.65
   11:38:39.582.17-Sep-2021 4887.00 5433.57 77.25 9.00 328.84 2528.65
   11:38:39.782.17-Sep-2021 4887.00 5433.83 77.25 9.00 329.04 2528.65
   11:38:39.982.17-Sep-2021 4887.00 5433.83 77.25 9.00 329.24 2528.65
   11:38:40.182.17-Sep-2021 4887.00 5433.94 77.25 9.00 329.44 2528.65
   11:38:40.382.17-Sep-2021 4887.00 5433.82 77.25 9.00 329.64 2528.65
   11:38:40.582.17-Sep-2021 4887.00 5434.11 77.25 9.00 329.84 2528.65
   11:38:40.782.17-Sep-2021 4887.00 5434.56 77.25 9.00 330.04 2528.65
   11:38:40.982.17-Sep-2021 4887.00 5434.56 77.25 9.00 330.24 2528.65
   11:38:41.182.17-Sep-2021 4887.00 5432.64 77.25 9.00 330.44 2528.65
   11:38:41.382.17-Sep-2021 4887.00 5434.32 77.25 9.00 330.64 2528.65
   11:38:41.582.17-Sep-2021 4887.00 5434.07 77.25 9.00 330.84 2528.65
   11:38:41.782.17-Sep-2021 4887.00 5435.36 77.25 9.00 331.04 2528.65
   11:38:41.982.17-Sep-2021 4887.00 5435.36 77.25 9.00 331.24 2528.65
   11:38:42.182.17-Sep-2021 4887.00 5433.72 77.25 9.00 331.44 2528.65
   11:38:42.382.17-Sep-2021 4887.00 5434.36 77.25 9.00 331.64 2528.65
   11:38:42.582.17-Sep-2021 4887.00 5433.56 77.25 9.00 331.84 2528.65
   11:38:42.782.17-Sep-2021 4887.00 5434.31 77.25 9.00 332.04 2528.65
   11:38:42.982.17-Sep-2021 4887.00 5434.31 77.25 9.00 332.24 2528.65
   11:38:43.182.17-Sep-2021 4887.00 5432.82 77.25 9.00 332.44 2528.65
   11:38:43.382.17-Sep-2021 4887.00 5433.81 77.25 9.00 332.64 2528.65
   11:38:43.582.17-Sep-2021 4887.00 5433.49 77.25 9.00 332.84 2528.65
   11:38:43.782.17-Sep-2021 4887.00 5434.52 77.25 9.00 333.04 2528.65
   11:38:43.982.17-Sep-2021 4887.00 5434.52 77.25 9.00 333.24 2528.65
   11:38:44.182.17-Sep-2021 4887.00 5431.72 77.25 9.00 333.44 2528.65
   11:38:44.382.17-Sep-2021 4887.00 5434.13 77.25 9.00 333.64 2528.65
   11:38:44.582.17-Sep-2021 4887.00 5433.55 77.25 9.00 333.84 2528.65
   11:38:44.782.17-Sep-2021 4887.00 5434.54 77.25 9.00 334.04 2528.65
   11:38:44.982.17-Sep-2021 4887.00 5434.54 77.25 9.00 334.24 2528.65
   11:38:45.182.17-Sep-2021 4887.00 5433.59 77.25 9.00 334.44 2528.65
   11:38:45.382.17-Sep-2021 4887.00 5434.50 77.25 9.00 334.64 2528.65
   11:38:45.582.17-Sep-2021 4887.00 5433.62 77.25 9.00 334.84 2528.65
   11:38:45.782.17-Sep-2021 4887.00 5433.58 77.25 9.00 335.04 2528.65
   11:38:45.982.17-Sep-2021 4887.00 5433.58 77.25 9.00 335.24 2528.65
   11:38:46.182.17-Sep-2021 4887.00 5434.18 77.25 9.00 335.44 2528.65
   11:38:46.382.17-Sep-2021 4887.00 5434.22 77.25 9.00 335.64 2528.65
   11:38:46.582.17-Sep-2021 4887.00 5434.04 77.25 9.00 335.84 2528.65
   11:38:46.782.17-Sep-2021 4887.00 5433.95 77.25 9.00 336.04 2528.65
   11:38:46.982.17-Sep-2021 4887.00 5433.95 77.25 9.00 336.24 2528.65
   11:38:47.182.17-Sep-2021 4887.00 5436.57 77.25 9.00 336.44 2528.65
   11:38:47.382.17-Sep-2021 4887.00 5434.23 77.25 9.00 336.64 2528.65
   11:38:47.583.17-Sep-2021 4887.00 5433.98 77.25 9.00 336.84 2528.65
   11:38:47.783.17-Sep-2021 4887.00 5434.40 77.25 9.00 337.04 2528.65
   11:38:47.983.17-Sep-2021 4887.00 5434.40 77.25 9.00 337.24 2528.65
   11:38:48.183.17-Sep-2021 4887.00 5434.07 77.25 9.00 337.44 2528.65
   11:38:48.383.17-Sep-2021 4887.00 5433.66 77.25 9.00 337.64 2528.65
   11:38:48.583.17-Sep-2021 4887.00 5434.03 77.25 9.00 337.84 2528.65
   11:38:48.783.17-Sep-2021 4887.00 5433.60 77.25 9.00 338.04 2528.65
   11:38:48.983.17-Sep-2021 4887.00 5433.60 77.25 9.00 338.24 2528.65
   11:38:49.183.17-Sep-2021 4887.00 5433.51 77.25 9.00 338.44 2528.65
   11:38:49.383.17-Sep-2021 4887.00 5433.66 77.25 9.00 338.64 2528.65
   11:38:49.583.17-Sep-2021 4887.00 5433.90 77.25 9.00 338.84 2528.65
   11:38:49.783.17-Sep-2021 4887.00 5433.73 77.25 9.00 339.04 2528.65
   11:38:49.983.17-Sep-2021 4887.00 5433.73 77.25 9.00 339.24 2528.65
   11:38:50.183.17-Sep-2021 4887.00 5434.11 77.25 9.00 339.44 2528.65
   11:38:50.383.17-Sep-2021 4887.00 5434.26 77.25 9.00 339.64 2528.65
   11:38:50.583.17-Sep-2021 4887.00 5437.31 77.25 9.00 339.84 2528.65
   11:38:50.783.17-Sep-2021 4887.00 5433.46 77.25 9.00 340.04 2528.65
   11:38:50.983.17-Sep-2021 4887.00 5433.46 77.25 9.00 340.24 2528.65
   11:38:51.183.17-Sep-2021 4887.00 5434.12 77.25 9.00 340.44 2528.65
   11:38:51.383.17-Sep-2021 4887.00 5435.21 77.25 9.00 340.64 2528.65
   11:38:51.583.17-Sep-2021 4887.00 5437.92 77.25 9.00 340.84 2528.65
   11:38:51.783.17-Sep-2021 4887.00 5431.86 77.25 9.00 341.04 2528.65
   11:38:51.983.17-Sep-2021 4887.00 5431.86 77.25 9.00 341.24 2528.65
   11:38:52.183.17-Sep-2021 4887.00 5433.61 77.25 9.00 341.44 2528.65
   11:38:52.383.17-Sep-2021 4887.00 5434.63 77.25 9.00 341.64 2528.65
   11:38:52.583.17-Sep-2021 4887.00 5435.38 77.25 9.00 341.84 2528.65
   11:38:52.783.17-Sep-2021 4887.00 5433.19 77.25 9.00 342.04 2528.65
   11:38:52.983.17-Sep-2021 4887.00 5433.19 77.25 9.00 342.24 2528.65
   11:38:53.183.17-Sep-2021 4887.00 5433.56 77.25 9.00 342.44 2528.65
   11:38:53.383.17-Sep-2021 4887.00 5434.04 77.25 9.00 342.64 2528.65
   11:38:53.583.17-Sep-2021 4887.00 5436.45 77.25 9.00 342.84 2528.65
   11:38:53.783.17-Sep-2021 4887.00 5432.77 77.25 9.00 343.04 2528.65
   11:38:53.983.17-Sep-2021 4887.00 5432.77 77.25 9.00 343.24 2528.65
   11:38:54.183.17-Sep-2021 4887.00 5433.46 77.25 9.00 343.44 2528.65
   11:38:54.383.17-Sep-2021 4887.00 5434.36 77.25 9.00 343.64 2528.65
   11:38:54.583.17-Sep-2021 4887.00 5433.24 77.25 9.00 343.84 2528.65
   11:38:54.783.17-Sep-2021 4887.00 5433.56 77.25 9.00 344.04 2528.65
   11:38:54.983.17-Sep-2021 4887.00 5433.56 77.25 9.00 344.24 2528.65
   11:38:55.183.17-Sep-2021 4887.00 5433.65 77.25 9.00 344.44 2528.65
   11:38:55.383.17-Sep-2021 4887.00 5433.46 77.25 9.00 344.64 2528.65
   11:38:55.583.17-Sep-2021 4887.00 5433.70 77.25 9.00 344.84 2528.65
