~Version Information
 VERS.                  2.0:   CWLS log ASCII Standard -VERSION 2.0
 WRAP.                   NO:   One line per depth step
~Well Information Block
#MNEM.UNIT     VALUE/NAME     DESCRIPTION
#---------     -----------    ---------------------------
 STRT.S             06:26:37 17-Sep-21: START TIME 06:26:37 17-Sep-21
 STOP.S             06:35:42 17-Sep-21: STOP TIME  06:35:42 17-Sep-21
 STEP.S                   0.00: STEP TIME
 NULL.                 -999.25: NULL VALUE
 DFWT.                        :  DIST FWL TEXT
 DFST.                        :  DIST FSL TEXT
 DMF .             Drill Floor:  DRILL MEAS FROM
 STIM.      10.59.12 05-Jul-21:  START TIME
 DATE.      10.59.12 10-Sep-21:  END TIME
 SPUD.               05-Jul-21:  SPUD DATE
 NREF.                    Grid:  NORTH REFERENCE
 HPTY.       Minimum Curvature:  HOLE POS TYPE
 DMOD.             Drill Model:  DRILL MOD DESC
 SVYD.                  Survey:  SURVEY DESC
 ILTD.               Lithology:  INTERP LTH DESC
 FTOP.          Formation Tops:  FORM TOPS DESC
 RIG .                     DWG:  RIG NAME
 PDAT.          Mean Sea Level:  PERMANENT DATUM
 FLD .                     ACG:  FIELD NAME
 SON .        AZ-XX-0907115008:  JOB NUMBER
 CTRY.              Azerbaijan:  COUNTRY NAME
 WELL.                    E35A:  WELL NAME
 SRVC.          TURAN DRILLING:  CONTRACTOR
 COMP.     BP Exploration (Caspian Sea LTD):  COMPANY
 UWI .                     N/A:  UNIQUE WELL IDENTIFIER
 API .                     N/A:  API NUMBER
 MDS .        Operator Entered:  MAG DATA SOURCE
 BASE.              Azerbaijan:  LOGGING EQUIPMENT BASE LOCATION
 REGN.                   EESSA:  REGION
 PROV.                    Baku:  PROVINCE
 STAT.                    Baku:  STATE NAME
 MWDS.                    Baku:  MWD SHOP
 JOBN.        AZ-XX-0907115008:  JOB TICKET NUMB
 DOE .                     N/A:  DOE NUMBER
 DCON.         Sperry Drilling:  DIRECTNL CONTR
 UNIT.                     N/A:  LOGGING EQUIPMENT ID
 WTYP.                Deviated:  WELL TYPE
 CNTY.                        :  COUNTY
 LOC .                        :  LOCATION
 LMF .             Drill Floor:  LOG MEASURED FROM
 TVDS.m                  43.16:  TVDSS CORRECTN
 LATI.deg                40.17:  LATITUDE
 LONG.deg                51.17:  LONGITUDE
 WHNS.m                  10.51:  WELL HEAD N/S
 WHEW.m                 -14.82:  WELL HEAD E/W
 UTMX.m              514336.92:  UTM X
 UTMY.m             4448618.56:  UTM Y
 DFWL.m                   0.00:  DISTANCE FWL
 DFSL.m                   0.00:  DISTANCE FSL
 SDEP.m                 849.00:  START DEPTH
 TDD .m                2862.00:  TOTAL DEPTH (DRILLER)
 VSDR.deg               292.10:  VERT SEC DIRECT
 GVFD.g                   1.00:  GRAVITY FIELD
 MFLD.nT              50382.00:  MAGNETIC FIELD
 MDIP.deg                59.68:  MAGNETIC DIP
 MDEC.deg                 6.66:  MAGNETIC DECL
 GRDC.deg                 0.09:  GRID CORRECTION
 AZTC.deg                 6.57:  AZM TOTAL CORR
 EPD .m                   0.00:  ELEVATION
 EGL .m                   0.00:  GROUND ELEVATION
 WDMS.m                 176.20:  WD ELEV
 APD .m                  43.16:  DEPTH ABOVE PD
 DEP .m                 363.42:  DEPTH
 AGAP.m                  43.16:  AIR GAP
 VSEW.m                 -14.82:  VERT SEC E/W
 VSNS.m                  10.51:  VERT SEC N/S
 EKB .m                  43.16:  KB ELEVATION
 EDF .m                  43.16:  DF ELEVATION
 TDL .m                1390.00:  TOTAL DEPTH (LOGGER)
 VSC .                       0:  VS TO CLOSURE
 MAGU.                 1855871:  MAGUTM CHECKSUM
~Parameter Information Block
#MNEM.UNIT       Value        Description
#---------     -----------    ---------------------------
 AV  .mps                 2.28:  Ann Velocity 
 AVMX.mps                 2.67:  Max Ann Veloc 
 AZIF.deg               305.00:  Azm, Final 
 BHAT.        Rotary Steerable:  BHA Type 
 BROT.°/30m               0.45:  Build Rotating 
 BS  .in                 12.25:  Bit Size 
 BSZ .in                 12.25:  Bit Size 
 BTPL.psig              600.00:  Bit Press Loss 
 CABU.                     Yes:  Customer Abuse 
 COMM.                     D5N:  Run Comments 1 
 TCS .hr                150.00:  Time Ciculation Ended 
 CV  .mps                 1.24:  Crit Velocity 
 CVMX.mps                 1.66:  Max Crit Veloc 
 DD1 .         Intigam Rahimov:  Direct Drillr 1 
 DD2 .            Azer Ravavov:  Direct Drillr 2 
 DD3 .              Samir Abas:  Direct Drillr 3 
 DDSV.               Geo-Pilot:  DD Service 
 DEFF.%                 100.00:  % Det Eff 
 DLRX.°/30m               1.57:  Dogleg Rot Max 
 DLSO.°/30m               0.00:  Dogleg Oriented 
 DLSX.°/30m               0.00:  Dogleg Str Max 
 DRET.      20.28.06 17-Sep-21:  Drill End Time 
 DRST.      20.27.35 10-Sep-21:  Drill Start Tim 
 DTIM.hr                 54.00:  Time Drilling 
 EDEP.m                5260.00:  End Depth 
 ENG1.      Bakhtiyar Jabbarli:  Engineer 1 
 ENG2.      Natik Hasanaghayev:  Engineer 2 
 ENG3.           Royal Nasirov:  Engineer 3 
 ETIM.      20.27.55 18-Sep-21:  End Time 
 FLOI.gpm              1100.00:  Flow In 
 FLON.gpm               800.00:  Flow In Min 
 FLOS.cptm                0.00:  Fluid Loss 
 FLOX.gpm              1200.00:  Flow In Max 
 DFT .        Mineral Oil Base:  Mud Type 
 HPRE.                      No:  High Pressure 
 HTEM.                      No:  High Temp 
 HYDO.m                   1.80:  Hydro Offset 
 IFIN.deg                72.31:  Inc, Final 
 IMAX.deg                72.36:  Inc Max 
 IMIN.deg                69.36:  Inc Min 
 IMND.m                4192.96:  Inc Min Depth 
 IMXD.m                5128.36:  Inc Max Depth 
 JARR.                      No:  Jarring 
 LETM.      20.29.00 17-Sep-21:  Log End Time 
 LOST.hr                     0:  Lost Rig Time 
 LSTM.      20.27.00 10-Sep-21:  Log Start Time 
 MDCL.ppm            227000.00:  Mud Chlorides 
 MDES.     Inversion Oil/Synthetic:  Mud Desc 
 DFD .sg                  1.45:  Mud Density 
 MDMN.sg                  1.45:  Dens Mud Min 
 MDMX.sg                  1.45:  Dens Mud Max 
 MOIL.                    70.5:  Run Mud Oil % 
 MOWR.                   71:29:  Run Mud OWR 
 MSND.                     0.3:  Run Mud Sand % 
 MSOL.                    19.8:  Run Mud Solids% 
 DFV .spqt               80.00:  Mud Viscosity 
 MWOD.in                  8.00:  MWD Tool OD 
 MWSI.                     Yes:  Serv Intrp, MWD 
 OTIM.hr                180.00:  Time Operating 
 PCON.           Look Like New:  Pad Condition 
 PMAX.psia             9910.94:  Press Op, Max 
 PV  .cP                 35.00:  Mud PV 
 RUN .                    1000:  Run Number 
 ROPA.m/hr               18.00:  ROP Avg 
 ROPN.m/hr                8.00:  ROP Min 
 ROPX.m/hr               23.00:  ROP Max 
 RPMA.rpm               150.00:  RPM Surface Avg 
 RPMN.rpm               120.00:  RPM Surface Min 
 RPMX.rpm               160.00:  RPM Surface Max 
 RRUN.                    L503:  Rig Run Number 
 RTIM.hr                  5.00:  Time Reaming 
 SAZI.deg               298.42:  Azm, Start 
 SDEP.m                3870.00:  Start Depth 
 SIDD.                      No:  Serv Intrp, DD 
 SINC.deg                69.57:  Inc, Start 
 SPPA.psig             5500.00:  SPP Avg 
 SPPN.psig             4400.00:  SPP Min 
 SPPX.psig             5800.00:  SPP Max 
 STIM.      15.29.39 09-Sep-21:  Start Time 
 SVCS.                 DD, MWD:  Services 
 SVER.                    9.20:  Sperry Version 
 TDAT.m                5260.00:  Tot Depth Attmp 
 TDDF.                      No:  Trip for DD 
 TDLG.m                1390.00:  Tot Depth Loggd 
 TFF .                      No:  Trip for Fail 
 TQAA.f-kp               22.00:  Torque Abs Avg 
 TQAN.f-kp               13.00:  Torque Abs Min 
 TQAX.f-kp               27.00:  Torque Abs Max 
 TRRT.°/30m               1.60:  Turn Rotating 
 MRT .                  EWR-M5:  Maximum Recorded Temperature 
 TTMX.degC               92.00:  Max Tool Temp 
 VS01.                12330975:  Virtual Str1 SN 
 VS02.                90658671:  Virtual Str2 SN 
 VS03.                90658508:  Virtual Str3 SN 
 VS04.                90660974:  Virtual Str4 SN 
 VS05.                90654675:  Virtual Str5 SN 
 WBMN.klb                15.00:  WOB Min 
 WITN.     Alexander Yadullayev:  Customer Rep 
 WITN.           Adil Mammadov:  Customer Rep 2 
 WOBA.klb                17.00:  WOB Avg 
 WOBX.klb                18.00:  WOB Max 
 YP  .lhf2               31.00:  Yield Point 
~Curve Information Block
#MNEM.UNIT                 API CODE     Curve Description
#---------               -----------    ---------------------------
 TIME.HHMMSS            00 000 000 000:  GT Time & Date
 GTDEPTH.m              00 000 000 000:  GT Depth
 GTPQH.psia             00 000 000 000:  GT HR Quartz Pressure
 GTTQ.degC              00 000 000 000:  GT Quartz Temperature
 GTTN.NONE              00 000 000 000:  GT Test Number
 GTET.sec               00 000 000 000:  GT Elapsed Test Time
 GTTVD.m                00 000 000 000:  GT True Vertical Depth
#Other Information
#
#WARRANTY: Halliburton will use its best efforts to furnish customers with 
#accurate information and interpretations that are part of, and incident to, the services 
#provided.  However, Halliburton cannot and does not warrant the accuracy 
#or correctness of such information and interpretations.  Under no circumstances should any 
#such information or interpretation be relied upon as the sole basis for any drilling, 
#completion, production, or financial decision or any procedure involving any risk to the 
#safety of any drilling venture, drilling rig or its crew or any other third party.  The 
#Customer has full responsibility for all drilling, completion and production operation.  
#Halliburton makes no representations or warranties, either expressed or 
#implied, including, but not limited to, the implied warranties of merchantability or fitness 
#for a particular purpose, with respect to the services rendered.  In no event will 
#Halliburton be liable for failure to obtain any particular results or for 
#any damages, including, but not limited to, indirect, special or consequential damages, 
#resulting from the use of any information or interpretation provided by Halliburton.
#
~A           TIME           GTDEPTH  GTPQH  GTTQ  GTTN  GTET   GTTVD  
# ...
   06:35:26.244.17-Sep-2021 5057.00 5550.53 78.70 7.00 528.89 2583.65
   06:35:26.444.17-Sep-2021 5057.00 5550.53 78.70 7.00 529.09 2583.65
   06:35:26.644.17-Sep-2021 5057.00 5550.84 78.70 7.00 529.29 2583.65
   06:35:26.844.17-Sep-2021 5057.00 5550.73 78.70 7.00 529.49 2583.65
   06:35:27.044.17-Sep-2021 5057.00 5551.08 78.70 7.00 529.69 2583.65
   06:35:27.244.17-Sep-2021 5057.00 5551.03 78.70 7.00 529.89 2583.65
   06:35:27.444.17-Sep-2021 5057.00 5551.03 78.70 7.00 530.09 2583.65
   06:35:27.644.17-Sep-2021 5057.00 5551.01 78.70 7.00 530.29 2583.65
   06:35:27.844.17-Sep-2021 5057.00 5551.48 78.70 7.00 530.49 2583.65
   06:35:28.044.17-Sep-2021 5057.00 5553.89 78.70 7.00 530.69 2583.65
   06:35:28.244.17-Sep-2021 5057.00 5551.02 78.70 7.00 530.89 2583.65
   06:35:28.443.17-Sep-2021 5057.00 5551.02 78.70 7.00 531.09 2583.65
   06:35:28.643.17-Sep-2021 5057.00 5552.13 78.70 7.00 531.29 2583.65
   06:35:28.843.17-Sep-2021 5057.00 5551.53 78.70 7.00 531.49 2583.65
   06:35:29.043.17-Sep-2021 5057.00 5550.57 78.70 7.00 531.69 2583.65
   06:35:29.243.17-Sep-2021 5057.00 5550.77 78.70 7.00 531.89 2583.65
   06:35:29.443.17-Sep-2021 5057.00 5550.77 78.70 7.00 532.09 2583.65
   06:35:29.643.17-Sep-2021 5057.00 5550.39 78.70 7.00 532.29 2583.65
   06:35:29.843.17-Sep-2021 5057.00 5550.58 78.70 7.00 532.49 2583.65
   06:35:30.043.17-Sep-2021 5057.00 5550.44 78.70 7.00 532.69 2583.65
   06:35:30.243.17-Sep-2021 5057.00 5550.77 78.70 7.00 532.89 2583.65
   06:35:30.443.17-Sep-2021 5057.00 5550.77 78.70 7.00 533.09 2583.65
   06:35:30.643.17-Sep-2021 5057.01 5550.80 78.70 7.00 533.29 2583.65
   06:35:30.843.17-Sep-2021 5057.01 5551.20 78.70 7.00 533.49 2583.65
   06:35:31.043.17-Sep-2021 5057.01 5551.21 78.70 7.00 533.69 2583.65
   06:35:31.243.17-Sep-2021 5057.01 5551.32 78.70 7.00 533.89 2583.65
   06:35:31.443.17-Sep-2021 5057.01 5551.32 78.70 7.00 534.09 2583.65
   06:35:31.643.17-Sep-2021 5057.01 5553.54 78.70 7.00 534.29 2583.65
   06:35:31.843.17-Sep-2021 5057.01 5551.11 78.70 7.00 534.49 2583.65
   06:35:32.043.17-Sep-2021 5057.01 5552.51 78.70 7.00 534.69 2583.65
   06:35:32.243.17-Sep-2021 5057.01 5551.54 78.70 7.00 534.89 2583.65
   06:35:32.443.17-Sep-2021 5057.01 5551.54 78.70 7.00 535.09 2583.65
   06:35:32.643.17-Sep-2021 5057.01 5550.98 78.70 7.00 535.29 2583.65
   06:35:32.843.17-Sep-2021 5057.01 5554.51 78.70 7.00 535.49 2583.65
   06:35:33.043.17-Sep-2021 5057.01 5548.08 78.70 7.00 535.69 2583.65
   06:35:33.242.17-Sep-2021 5057.01 5551.97 78.70 7.00 535.89 2583.65
   06:35:33.442.17-Sep-2021 5057.01 5551.97 78.70 7.00 536.09 2583.65
   06:35:33.642.17-Sep-2021 5057.01 5550.88 78.70 7.00 536.29 2583.65
   06:35:33.842.17-Sep-2021 5057.01 5552.89 78.70 7.00 536.49 2583.65
   06:35:34.042.17-Sep-2021 5057.01 5550.07 78.70 7.00 536.69 2583.65
   06:35:34.242.17-Sep-2021 5057.01 5551.68 78.70 7.00 536.89 2583.65
   06:35:34.442.17-Sep-2021 5057.01 5551.68 78.70 7.00 537.09 2583.65
   06:35:34.642.17-Sep-2021 5057.01 5550.48 78.70 7.00 537.29 2583.65
   06:35:34.842.17-Sep-2021 5057.01 5553.52 78.70 7.00 537.49 2583.65
   06:35:35.042.17-Sep-2021 5057.01 5550.06 78.70 7.00 537.69 2583.65
   06:35:35.242.17-Sep-2021 5057.01 5550.77 78.70 7.00 537.89 2583.65
   06:35:35.442.17-Sep-2021 5057.01 5550.77 78.70 7.00 538.09 2583.65
   06:35:35.642.17-Sep-2021 5057.01 5551.23 78.70 7.00 538.29 2583.65
   06:35:35.842.17-Sep-2021 5057.01 5550.47 78.70 7.00 538.49 2583.65
   06:35:36.042.17-Sep-2021 5057.01 5550.77 78.70 7.00 538.69 2583.65
   06:35:36.242.17-Sep-2021 5057.01 5550.35 78.70 7.00 538.89 2583.65
   06:35:36.442.17-Sep-2021 5057.01 5550.35 78.70 7.00 539.09 2583.65
   06:35:36.642.17-Sep-2021 5057.01 5550.79 78.70 7.00 539.29 2583.65
   06:35:36.842.17-Sep-2021 5057.01 5550.78 78.70 7.00 539.48 2583.65
   06:35:37.042.17-Sep-2021 5057.01 5551.40 78.70 7.00 539.68 2583.65
   06:35:37.242.17-Sep-2021 5057.01 5551.40 78.70 7.00 539.88 2583.65
   06:35:37.442.17-Sep-2021 5057.01 5551.40 78.70 7.00 540.08 2583.65
   06:35:37.642.17-Sep-2021 5057.01 5552.62 78.70 7.00 540.28 2583.65
   06:35:37.841.17-Sep-2021 5057.01 5552.96 78.70 7.00 540.48 2583.65
   06:35:38.041.17-Sep-2021 5057.01 5556.69 78.70 7.00 540.68 2583.65
   06:35:38.241.17-Sep-2021 5057.01 5552.70 78.70 7.00 540.88 2583.65
   06:35:38.441.17-Sep-2021 5057.01 5552.70 78.70 7.00 541.08 2583.65
   06:35:38.641.17-Sep-2021 5057.01 5552.66 78.70 7.00 541.28 2583.65
   06:35:38.841.17-Sep-2021 5057.01 5551.90 78.70 7.00 541.48 2583.65
   06:35:39.041.17-Sep-2021 5057.01 5551.74 78.70 7.00 541.68 2583.65
   06:35:39.241.17-Sep-2021 5057.01 5550.87 78.70 7.00 541.88 2583.65
   06:35:39.441.17-Sep-2021 5057.01 5550.87 78.70 7.00 542.08 2583.65
   06:35:39.641.17-Sep-2021 5057.01 5550.97 78.70 7.00 542.28 2583.65
   06:35:39.841.17-Sep-2021 5057.01 5551.07 78.70 7.00 542.48 2583.65
   06:35:40.041.17-Sep-2021 5057.01 5551.50 78.70 7.00 542.68 2583.65
   06:35:40.241.17-Sep-2021 5057.01 5551.40 78.70 7.00 542.88 2583.65
   06:35:40.441.17-Sep-2021 5057.01 5551.40 78.70 7.00 543.08 2583.65
   06:35:40.641.17-Sep-2021 5057.01 5551.55 78.70 7.00 543.28 2583.65
   06:35:40.841.17-Sep-2021 5057.01 5551.64 78.70 7.00 543.48 2583.65
   06:35:41.041.17-Sep-2021 5057.01 5551.64 78.70 7.00 543.68 2583.65
   06:35:41.241.17-Sep-2021 5057.01 5552.25 78.70 7.00 543.88 2583.65
   06:35:41.441.17-Sep-2021 5057.01 5552.25 78.70 7.00 544.08 2583.65
   06:35:41.641.17-Sep-2021 5057.01 5549.85 78.70 7.00 544.28 2583.65
   06:35:41.841.17-Sep-2021 5057.01 5553.29 78.70 7.00 544.48 2583.65
   06:35:42.041.17-Sep-2021 5057.01 5552.31 78.70 7.00 544.68 2583.65
