~Version Information
 VERS.                  2.0:   CWLS log ASCII Standard -VERSION 2.0
 WRAP.                   NO:   One line per depth step
~Well Information Block
#MNEM.UNIT     VALUE/NAME     DESCRIPTION
#---------     -----------    ---------------------------
 STRT.S             02:32:25 17-Sep-21: START TIME 02:32:25 17-Sep-21
 STOP.S             02:40:50 17-Sep-21: STOP TIME  02:40:50 17-Sep-21
 STEP.S                   0.00: STEP TIME
 NULL.                 -999.25: NULL VALUE
 DFWT.                        :  DIST FWL TEXT
 DFST.                        :  DIST FSL TEXT
 DMF .             Drill Floor:  DRILL MEAS FROM
 STIM.      10.59.12 05-Jul-21:  START TIME
 DATE.      10.59.12 10-Sep-21:  END TIME
 SPUD.               05-Jul-21:  SPUD DATE
 NREF.                    Grid:  NORTH REFERENCE
 HPTY.       Minimum Curvature:  HOLE POS TYPE
 DMOD.             Drill Model:  DRILL MOD DESC
 SVYD.                  Survey:  SURVEY DESC
 ILTD.               Lithology:  INTERP LTH DESC
 FTOP.          Formation Tops:  FORM TOPS DESC
 RIG .                     DWG:  RIG NAME
 PDAT.          Mean Sea Level:  PERMANENT DATUM
 FLD .                     ACG:  FIELD NAME
 SON .        AZ-XX-0907115008:  JOB NUMBER
 CTRY.              Azerbaijan:  COUNTRY NAME
 WELL.                    E35A:  WELL NAME
 SRVC.          TURAN DRILLING:  CONTRACTOR
 COMP.     BP Exploration (Caspian Sea LTD):  COMPANY
 UWI .                     N/A:  UNIQUE WELL IDENTIFIER
 API .                     N/A:  API NUMBER
 MDS .        Operator Entered:  MAG DATA SOURCE
 BASE.              Azerbaijan:  LOGGING EQUIPMENT BASE LOCATION
 REGN.                   EESSA:  REGION
 PROV.                    Baku:  PROVINCE
 STAT.                    Baku:  STATE NAME
 MWDS.                    Baku:  MWD SHOP
 JOBN.        AZ-XX-0907115008:  JOB TICKET NUMB
 DOE .                     N/A:  DOE NUMBER
 DCON.         Sperry Drilling:  DIRECTNL CONTR
 UNIT.                     N/A:  LOGGING EQUIPMENT ID
 WTYP.                Deviated:  WELL TYPE
 CNTY.                        :  COUNTY
 LOC .                        :  LOCATION
 LMF .             Drill Floor:  LOG MEASURED FROM
 TVDS.m                  43.16:  TVDSS CORRECTN
 LATI.deg                40.17:  LATITUDE
 LONG.deg                51.17:  LONGITUDE
 WHNS.m                  10.51:  WELL HEAD N/S
 WHEW.m                 -14.82:  WELL HEAD E/W
 UTMX.m              514336.92:  UTM X
 UTMY.m             4448618.56:  UTM Y
 DFWL.m                   0.00:  DISTANCE FWL
 DFSL.m                   0.00:  DISTANCE FSL
 SDEP.m                 849.00:  START DEPTH
 TDD .m                2862.00:  TOTAL DEPTH (DRILLER)
 VSDR.deg               292.10:  VERT SEC DIRECT
 GVFD.g                   1.00:  GRAVITY FIELD
 MFLD.nT              50382.00:  MAGNETIC FIELD
 MDIP.deg                59.68:  MAGNETIC DIP
 MDEC.deg                 6.66:  MAGNETIC DECL
 GRDC.deg                 0.09:  GRID CORRECTION
 AZTC.deg                 6.57:  AZM TOTAL CORR
 EPD .m                   0.00:  ELEVATION
 EGL .m                   0.00:  GROUND ELEVATION
 WDMS.m                 176.20:  WD ELEV
 APD .m                  43.16:  DEPTH ABOVE PD
 DEP .m                 363.42:  DEPTH
 AGAP.m                  43.16:  AIR GAP
 VSEW.m                 -14.82:  VERT SEC E/W
 VSNS.m                  10.51:  VERT SEC N/S
 EKB .m                  43.16:  KB ELEVATION
 EDF .m                  43.16:  DF ELEVATION
 TDL .m                1390.00:  TOTAL DEPTH (LOGGER)
 VSC .                       0:  VS TO CLOSURE
 MAGU.                 1855871:  MAGUTM CHECKSUM
~Parameter Information Block
#MNEM.UNIT       Value        Description
#---------     -----------    ---------------------------
 AV  .mps                 2.28:  Ann Velocity 
 AVMX.mps                 2.67:  Max Ann Veloc 
 AZIF.deg               305.00:  Azm, Final 
 BHAT.        Rotary Steerable:  BHA Type 
 BROT.°/30m               0.45:  Build Rotating 
 BS  .in                 12.25:  Bit Size 
 BSZ .in                 12.25:  Bit Size 
 BTPL.psig              600.00:  Bit Press Loss 
 CABU.                     Yes:  Customer Abuse 
 COMM.                     Œ$a:  Run Comments 1 
 TCS .hr                150.00:  Time Ciculation Ended 
 CV  .mps                 1.24:  Crit Velocity 
 CVMX.mps                 1.66:  Max Crit Veloc 
 DD1 .         Intigam Rahimov:  Direct Drillr 1 
 DD2 .            Azer Ravavov:  Direct Drillr 2 
 DD3 .              Samir Abas:  Direct Drillr 3 
 DDSV.               Geo-Pilot:  DD Service 
 DEFF.%                 100.00:  % Det Eff 
 DLRX.°/30m               1.57:  Dogleg Rot Max 
 DLSO.°/30m               0.00:  Dogleg Oriented 
 DLSX.°/30m               0.00:  Dogleg Str Max 
 DRET.      20.28.06 17-Sep-21:  Drill End Time 
 DRST.      20.27.35 10-Sep-21:  Drill Start Tim 
 DTIM.hr                 54.00:  Time Drilling 
 EDEP.m                5260.00:  End Depth 
 ENG1.      Bakhtiyar Jabbarli:  Engineer 1 
 ENG2.      Natik Hasanaghayev:  Engineer 2 
 ENG3.           Royal Nasirov:  Engineer 3 
 ETIM.      20.27.55 18-Sep-21:  End Time 
 FLOI.gpm              1100.00:  Flow In 
 FLON.gpm               800.00:  Flow In Min 
 FLOS.cptm                0.00:  Fluid Loss 
 FLOX.gpm              1200.00:  Flow In Max 
 DFT .        Mineral Oil Base:  Mud Type 
 HPRE.                      No:  High Pressure 
 HTEM.                      No:  High Temp 
 HYDO.m                   1.80:  Hydro Offset 
 IFIN.deg                72.31:  Inc, Final 
 IMAX.deg                72.36:  Inc Max 
 IMIN.deg                69.36:  Inc Min 
 IMND.m                4192.96:  Inc Min Depth 
 IMXD.m                5128.36:  Inc Max Depth 
 JARR.                      No:  Jarring 
 LETM.      20.29.00 17-Sep-21:  Log End Time 
 LOST.hr                     0:  Lost Rig Time 
 LSTM.      20.27.00 10-Sep-21:  Log Start Time 
 MDCL.ppm            227000.00:  Mud Chlorides 
 MDES.     Inversion Oil/Synthetic:  Mud Desc 
 DFD .sg                  1.45:  Mud Density 
 MDMN.sg                  1.45:  Dens Mud Min 
 MDMX.sg                  1.45:  Dens Mud Max 
 MOIL.                    70.5:  Run Mud Oil % 
 MOWR.                   71:29:  Run Mud OWR 
 MSND.                     0.3:  Run Mud Sand % 
 MSOL.                    19.8:  Run Mud Solids% 
 DFV .spqt               80.00:  Mud Viscosity 
 MWOD.in                  8.00:  MWD Tool OD 
 MWSI.                     Yes:  Serv Intrp, MWD 
 OTIM.hr                180.00:  Time Operating 
 PCON.           Look Like New:  Pad Condition 
 PMAX.psia             9910.94:  Press Op, Max 
 PV  .cP                 35.00:  Mud PV 
 RUN .                    1000:  Run Number 
 ROPA.m/hr               18.00:  ROP Avg 
 ROPN.m/hr                8.00:  ROP Min 
 ROPX.m/hr               23.00:  ROP Max 
 RPMA.rpm               150.00:  RPM Surface Avg 
 RPMN.rpm               120.00:  RPM Surface Min 
 RPMX.rpm               160.00:  RPM Surface Max 
 RRUN.                    L503:  Rig Run Number 
 RTIM.hr                  5.00:  Time Reaming 
 SAZI.deg               298.42:  Azm, Start 
 SDEP.m                3870.00:  Start Depth 
 SIDD.                      No:  Serv Intrp, DD 
 SINC.deg                69.57:  Inc, Start 
 SPPA.psig             5500.00:  SPP Avg 
 SPPN.psig             4400.00:  SPP Min 
 SPPX.psig             5800.00:  SPP Max 
 STIM.      15.29.39 09-Sep-21:  Start Time 
 SVCS.                 DD, MWD:  Services 
 SVER.                    9.20:  Sperry Version 
 TDAT.m                5260.00:  Tot Depth Attmp 
 TDDF.                      No:  Trip for DD 
 TDLG.m                1390.00:  Tot Depth Loggd 
 TFF .                      No:  Trip for Fail 
 TQAA.f-kp               22.00:  Torque Abs Avg 
 TQAN.f-kp               13.00:  Torque Abs Min 
 TQAX.f-kp               27.00:  Torque Abs Max 
 TRRT.°/30m               1.60:  Turn Rotating 
 MRT .                  EWR-M5:  Maximum Recorded Temperature 
 TTMX.degC               92.00:  Max Tool Temp 
 VS01.                12330975:  Virtual Str1 SN 
 VS02.                90658671:  Virtual Str2 SN 
 VS03.                90658508:  Virtual Str3 SN 
 VS04.                90660974:  Virtual Str4 SN 
 VS05.                90654675:  Virtual Str5 SN 
 WBMN.klb                15.00:  WOB Min 
 WITN.     Alexander Yadullayev:  Customer Rep 
 WITN.           Adil Mammadov:  Customer Rep 2 
 WOBA.klb                17.00:  WOB Avg 
 WOBX.klb                18.00:  WOB Max 
 YP  .lhf2               31.00:  Yield Point 
~Curve Information Block
#MNEM.UNIT                 API CODE     Curve Description
#---------               -----------    ---------------------------
 TIME.HHMMSS            00 000 000 000:  GT Time & Date
 GTDEPTH.m              00 000 000 000:  GT Depth
 GTPQH.psia             00 000 000 000:  GT HR Quartz Pressure
 GTTQ.degC              00 000 000 000:  GT Quartz Temperature
 GTTN.NONE              00 000 000 000:  GT Test Number
 GTET.sec               00 000 000 000:  GT Elapsed Test Time
 GTTVD.m                00 000 000 000:  GT True Vertical Depth
#Other Information
#
#WARRANTY: Halliburton will use its best efforts to furnish customers with 
#accurate information and interpretations that are part of, and incident to, the services 
#provided.  However, Halliburton cannot and does not warrant the accuracy 
#or correctness of such information and interpretations.  Under no circumstances should any 
#such information or interpretation be relied upon as the sole basis for any drilling, 
#completion, production, or financial decision or any procedure involving any risk to the 
#safety of any drilling venture, drilling rig or its crew or any other third party.  The 
#Customer has full responsibility for all drilling, completion and production operation.  
#Halliburton makes no representations or warranties, either expressed or 
#implied, including, but not limited to, the implied warranties of merchantability or fitness 
#for a particular purpose, with respect to the services rendered.  In no event will 
#Halliburton be liable for failure to obtain any particular results or for 
#any damages, including, but not limited to, indirect, special or consequential damages, 
#resulting from the use of any information or interpretation provided by Halliburton.
#
~A           TIME           GTDEPTH  GTPQH  GTTQ  GTTN  GTET   GTTVD  
# ...
   02:40:05.000.17-Sep-2021 5127.50  711.46 80.37 2.00 460.00 2605.35
   02:40:05.200.17-Sep-2021 5127.50  711.46 80.37 2.00 460.20 2605.35
   02:40:05.400.17-Sep-2021 5127.50  712.24 80.37 2.00 460.40 2605.35
   02:40:05.600.17-Sep-2021 5127.50  712.59 80.37 2.00 460.60 2605.35
   02:40:05.800.17-Sep-2021 5127.50  712.94 80.37 2.00 460.80 2605.35
   02:40:06.000.17-Sep-2021 5127.50  713.28 80.37 2.00 461.00 2605.35
   02:40:06.200.17-Sep-2021 5127.50  713.28 80.37 2.00 461.20 2605.35
   02:40:06.400.17-Sep-2021 5127.50  713.89 80.37 2.00 461.40 2605.35
   02:40:06.600.17-Sep-2021 5127.50  714.16 80.37 2.00 461.60 2605.35
   02:40:06.800.17-Sep-2021 5127.50  714.44 80.37 2.00 461.80 2605.35
   02:40:07.000.17-Sep-2021 5127.50  714.70 80.37 2.00 462.00 2605.35
   02:40:07.200.17-Sep-2021 5127.50  714.70 80.37 2.00 462.20 2605.35
   02:40:07.400.17-Sep-2021 5127.50  715.22 80.37 2.00 462.40 2605.35
   02:40:07.600.17-Sep-2021 5127.50  715.49 80.37 2.00 462.60 2605.35
   02:40:07.800.17-Sep-2021 5127.50  715.71 80.37 2.00 462.80 2605.35
   02:40:08.000.17-Sep-2021 5127.50  716.07 80.37 2.00 463.00 2605.35
   02:40:08.200.17-Sep-2021 5127.50  716.07 80.37 2.00 463.20 2605.35
   02:40:08.400.17-Sep-2021 5127.50  716.94 80.37 2.00 463.40 2605.35
   02:40:08.600.17-Sep-2021 5127.50  717.32 80.37 2.00 463.60 2605.35
   02:40:08.800.17-Sep-2021 5127.50  717.65 80.37 2.00 463.80 2605.35
   02:40:09.000.17-Sep-2021 5127.50  718.00 80.37 2.00 464.00 2605.35
   02:40:09.200.17-Sep-2021 5127.50  718.00 80.37 2.00 464.20 2605.35
   02:40:09.400.17-Sep-2021 5127.50  718.70 80.37 2.00 464.40 2605.35
   02:40:09.600.17-Sep-2021 5127.50  719.17 80.37 2.00 464.60 2605.35
   02:40:09.800.17-Sep-2021 5127.50  719.64 80.37 2.00 464.80 2605.35
   02:40:10.000.17-Sep-2021 5127.50  720.05 80.37 2.00 465.00 2605.35
   02:40:10.200.17-Sep-2021 5127.50  720.05 80.37 2.00 465.20 2605.35
   02:40:10.400.17-Sep-2021 5127.50  720.88 80.37 2.00 465.40 2605.35
   02:40:10.600.17-Sep-2021 5127.50  721.45 80.37 2.00 465.60 2605.35
   02:40:10.800.17-Sep-2021 5127.50  721.89 80.37 2.00 465.80 2605.35
   02:40:11.000.17-Sep-2021 5127.50  722.31 80.37 2.00 466.00 2605.35
   02:40:11.200.17-Sep-2021 5127.50  722.31 80.37 2.00 466.20 2605.35
   02:40:11.400.17-Sep-2021 5127.50  722.96 80.37 2.00 466.40 2605.35
   02:40:11.600.17-Sep-2021 5127.50  723.23 80.37 2.00 466.60 2605.35
   02:40:11.800.17-Sep-2021 5127.50  723.66 80.37 2.00 466.80 2605.35
   02:40:12.000.17-Sep-2021 5127.50  724.15 80.37 2.00 467.00 2605.35
   02:40:12.200.17-Sep-2021 5127.50  724.15 80.37 2.00 467.20 2605.35
   02:40:12.400.17-Sep-2021 5127.50  724.93 80.37 2.00 467.40 2605.35
   02:40:12.600.17-Sep-2021 5127.50  725.31 80.37 2.00 467.60 2605.35
   02:40:12.800.17-Sep-2021 5127.50  725.62 80.37 2.00 467.80 2605.35
   02:40:13.000.17-Sep-2021 5127.50  725.93 80.37 2.00 468.00 2605.35
   02:40:13.200.17-Sep-2021 5127.50  725.93 80.37 2.00 468.20 2605.35
   02:40:13.400.17-Sep-2021 5127.50  726.49 80.37 2.00 468.40 2605.35
   02:40:13.600.17-Sep-2021 5127.50  726.77 80.37 2.00 468.60 2605.35
   02:40:13.800.17-Sep-2021 5127.50  727.04 80.37 2.00 468.80 2605.35
   02:40:14.000.17-Sep-2021 5127.50  727.26 80.37 2.00 469.00 2605.35
   02:40:14.200.17-Sep-2021 5127.50  727.26 80.37 2.00 469.20 2605.35
   02:40:14.400.17-Sep-2021 5127.50  727.67 80.37 2.00 469.40 2605.35
   02:40:14.600.17-Sep-2021 5127.50  727.88 80.37 2.00 469.60 2605.35
   02:40:14.800.17-Sep-2021 5127.50  728.14 80.37 2.00 469.80 2605.35
   02:40:15.000.17-Sep-2021 5127.50  728.45 80.37 2.00 470.00 2605.35
   02:40:15.200.17-Sep-2021 5127.50  728.45 80.37 2.00 470.20 2605.35
   02:40:15.400.17-Sep-2021 5127.50  729.20 80.37 2.00 470.40 2605.35
   02:40:15.600.17-Sep-2021 5127.50  729.50 80.37 2.00 470.60 2605.35
   02:40:15.800.17-Sep-2021 5127.50  729.78 80.37 2.00 470.80 2605.35
   02:40:16.000.17-Sep-2021 5127.50  730.06 80.37 2.00 471.00 2605.35
   02:40:16.200.17-Sep-2021 5127.50  730.06 80.37 2.00 471.20 2605.35
   02:40:16.400.17-Sep-2021 5127.50  730.60 80.37 2.00 471.40 2605.35
   02:40:16.600.17-Sep-2021 5127.50  730.86 80.37 2.00 471.60 2605.35
   02:40:16.800.17-Sep-2021 5127.50  731.11 80.37 2.00 471.80 2605.35
   02:40:17.000.17-Sep-2021 5127.50  731.36 80.37 2.00 472.00 2605.35
   02:40:17.200.17-Sep-2021 5127.50  731.36 80.37 2.00 472.20 2605.35
   02:40:17.400.17-Sep-2021 5127.50  731.82 80.37 2.00 472.40 2605.35
   02:40:17.600.17-Sep-2021 5127.50  732.06 80.37 2.00 472.60 2605.35
   02:40:17.800.17-Sep-2021 5127.50  732.29 80.37 2.00 472.80 2605.35
   02:40:18.000.17-Sep-2021 5127.50  732.63 80.37 2.00 473.00 2605.35
   02:40:18.200.17-Sep-2021 5127.50  732.63 80.37 2.00 473.20 2605.35
   02:40:18.400.17-Sep-2021 5127.50  733.43 80.37 2.00 473.40 2605.35
   02:40:18.600.17-Sep-2021 5127.50  733.75 80.37 2.00 473.60 2605.35
   02:40:18.800.17-Sep-2021 5127.50  734.05 80.37 2.00 473.80 2605.35
   02:40:19.000.17-Sep-2021 5127.50  734.30 80.37 2.00 474.00 2605.35
   02:40:19.200.17-Sep-2021 5127.50  734.30 80.37 2.00 474.20 2605.35
   02:40:19.400.17-Sep-2021 5127.50  735.06 80.37 2.00 474.40 2605.35
   02:40:19.600.17-Sep-2021 5127.50  735.38 80.37 2.00 474.60 2605.35
   02:40:19.800.17-Sep-2021 5127.50  735.72 80.37 2.00 474.80 2605.35
   02:40:20.000.17-Sep-2021 5127.50  736.03 80.37 2.00 475.00 2605.35
   02:40:20.200.17-Sep-2021 5127.50  736.03 80.37 2.00 475.20 2605.35
   02:40:20.400.17-Sep-2021 5127.50  736.71 80.37 2.00 475.40 2605.35
   02:40:20.600.17-Sep-2021 5127.50  737.20 80.37 2.00 475.60 2605.35
   02:40:20.800.17-Sep-2021 5127.50  737.66 80.37 2.00 475.80 2605.35
   02:40:21.000.17-Sep-2021 5127.50  738.04 80.37 2.00 476.00 2605.35
   02:40:21.200.17-Sep-2021 5127.50  738.04 80.37 2.00 476.20 2605.35
   02:40:21.400.17-Sep-2021 5127.50  738.75 80.37 2.00 476.40 2605.35
   02:40:21.600.17-Sep-2021 5127.50  739.23 80.37 2.00 476.60 2605.35
   02:40:21.800.17-Sep-2021 5127.50  739.59 80.37 2.00 476.80 2605.35
   02:40:22.000.17-Sep-2021 5127.50  739.93 80.37 2.00 477.00 2605.35
   02:40:22.200.17-Sep-2021 5127.50  739.93 80.37 2.00 477.20 2605.35
   02:40:22.400.17-Sep-2021 5127.50  740.55 80.37 2.00 477.40 2605.35
   02:40:22.600.17-Sep-2021 5127.50  740.80 80.37 2.00 477.60 2605.35
   02:40:22.800.17-Sep-2021 5127.50  741.05 80.37 2.00 477.80 2605.35
   02:40:23.000.17-Sep-2021 5127.50  741.28 80.37 2.00 478.00 2605.35
   02:40:23.200.17-Sep-2021 5127.50  741.28 80.37 2.00 478.20 2605.35
   02:40:23.400.17-Sep-2021 5127.50  741.74 80.37 2.00 478.40 2605.35
   02:40:23.600.17-Sep-2021 5127.50  741.97 80.37 2.00 478.60 2605.35
   02:40:23.800.17-Sep-2021 5127.50  742.21 80.37 2.00 478.80 2605.35
   02:40:24.000.17-Sep-2021 5127.50  742.45 80.37 2.00 479.00 2605.35
   02:40:24.200.17-Sep-2021 5127.50  742.45 80.37 2.00 479.20 2605.35
   02:40:24.400.17-Sep-2021 5127.50  742.93 80.37 2.00 479.40 2605.35
   02:40:24.600.17-Sep-2021 5127.50  743.33 80.37 2.00 479.60 2605.35
   02:40:24.800.17-Sep-2021 5127.50  743.74 80.37 2.00 479.80 2605.35
   02:40:25.000.17-Sep-2021 5127.50  744.07 80.37 2.00 480.00 2605.35
   02:40:25.200.17-Sep-2021 5127.50  744.07 80.37 2.00 480.20 2605.35
   02:40:25.400.17-Sep-2021 5127.50  744.56 80.37 2.00 480.40 2605.35
   02:40:25.600.17-Sep-2021 5127.50  744.78 80.37 2.00 480.60 2605.35
   02:40:25.800.17-Sep-2021 5127.50  745.22 80.37 2.00 480.80 2605.35
   02:40:26.000.17-Sep-2021 5127.50  856.34 80.37 2.00 481.00 2605.35
   02:40:26.200.17-Sep-2021 5127.50  856.34 80.37 2.00 481.20 2605.35
   02:40:26.400.17-Sep-2021 5127.50 5554.53 80.37 2.00 481.40 2605.35
   02:40:26.600.17-Sep-2021 5127.50 5556.15 80.37 2.00 481.60 2605.35
   02:40:26.800.17-Sep-2021 5127.50 5555.47 80.37 2.00 481.80 2605.35
   02:40:27.000.17-Sep-2021 5127.50 5555.63 80.37 2.00 482.00 2605.35
   02:40:27.200.17-Sep-2021 5127.50 5555.63 80.37 2.00 482.20 2605.35
   02:40:27.400.17-Sep-2021 5127.50 5557.49 80.38 2.00 482.40 2605.35
   02:40:27.600.17-Sep-2021 5127.50 5562.98 80.38 2.00 482.60 2605.35
   02:40:27.800.17-Sep-2021 5127.50 5564.08 80.38 2.00 482.80 2605.35
