~Version Information
 VERS.                  2.0:   CWLS log ASCII Standard -VERSION 2.0
 WRAP.                   NO:   One line per depth step
~Well Information Block
#MNEM.UNIT     VALUE/NAME     DESCRIPTION
#---------     -----------    ---------------------------
 STRT.S             01:51:55 17-Sep-21: START TIME 01:51:55 17-Sep-21
 STOP.S             02:00:37 17-Sep-21: STOP TIME  02:00:37 17-Sep-21
 STEP.S                   0.00: STEP TIME
 NULL.                 -999.25: NULL VALUE
 DFWT.                        :  DIST FWL TEXT
 DFST.                        :  DIST FSL TEXT
 DMF .             Drill Floor:  DRILL MEAS FROM
 STIM.      10.59.12 05-Jul-21:  START TIME
 DATE.      10.59.12 10-Sep-21:  END TIME
 SPUD.               05-Jul-21:  SPUD DATE
 NREF.                    Grid:  NORTH REFERENCE
 HPTY.       Minimum Curvature:  HOLE POS TYPE
 DMOD.             Drill Model:  DRILL MOD DESC
 SVYD.                  Survey:  SURVEY DESC
 ILTD.               Lithology:  INTERP LTH DESC
 FTOP.          Formation Tops:  FORM TOPS DESC
 RIG .                     DWG:  RIG NAME
 PDAT.          Mean Sea Level:  PERMANENT DATUM
 FLD .                     ACG:  FIELD NAME
 SON .        AZ-XX-0907115008:  JOB NUMBER
 CTRY.              Azerbaijan:  COUNTRY NAME
 WELL.                    E35A:  WELL NAME
 SRVC.          TURAN DRILLING:  CONTRACTOR
 COMP.     BP Exploration (Caspian Sea LTD):  COMPANY
 UWI .                     N/A:  UNIQUE WELL IDENTIFIER
 API .                     N/A:  API NUMBER
 MDS .        Operator Entered:  MAG DATA SOURCE
 BASE.              Azerbaijan:  LOGGING EQUIPMENT BASE LOCATION
 REGN.                   EESSA:  REGION
 PROV.                    Baku:  PROVINCE
 STAT.                    Baku:  STATE NAME
 MWDS.                    Baku:  MWD SHOP
 JOBN.        AZ-XX-0907115008:  JOB TICKET NUMB
 DOE .                     N/A:  DOE NUMBER
 DCON.         Sperry Drilling:  DIRECTNL CONTR
 UNIT.                     N/A:  LOGGING EQUIPMENT ID
 WTYP.                Deviated:  WELL TYPE
 CNTY.                        :  COUNTY
 LOC .                        :  LOCATION
 LMF .             Drill Floor:  LOG MEASURED FROM
 TVDS.m                  43.16:  TVDSS CORRECTN
 LATI.deg                40.17:  LATITUDE
 LONG.deg                51.17:  LONGITUDE
 WHNS.m                  10.51:  WELL HEAD N/S
 WHEW.m                 -14.82:  WELL HEAD E/W
 UTMX.m              514336.92:  UTM X
 UTMY.m             4448618.56:  UTM Y
 DFWL.m                   0.00:  DISTANCE FWL
 DFSL.m                   0.00:  DISTANCE FSL
 SDEP.m                 849.00:  START DEPTH
 TDD .m                2862.00:  TOTAL DEPTH (DRILLER)
 VSDR.deg               292.10:  VERT SEC DIRECT
 GVFD.g                   1.00:  GRAVITY FIELD
 MFLD.nT              50382.00:  MAGNETIC FIELD
 MDIP.deg                59.68:  MAGNETIC DIP
 MDEC.deg                 6.66:  MAGNETIC DECL
 GRDC.deg                 0.09:  GRID CORRECTION
 AZTC.deg                 6.57:  AZM TOTAL CORR
 EPD .m                   0.00:  ELEVATION
 EGL .m                   0.00:  GROUND ELEVATION
 WDMS.m                 176.20:  WD ELEV
 APD .m                  43.16:  DEPTH ABOVE PD
 DEP .m                 363.42:  DEPTH
 AGAP.m                  43.16:  AIR GAP
 VSEW.m                 -14.82:  VERT SEC E/W
 VSNS.m                  10.51:  VERT SEC N/S
 EKB .m                  43.16:  KB ELEVATION
 EDF .m                  43.16:  DF ELEVATION
 TDL .m                1390.00:  TOTAL DEPTH (LOGGER)
 VSC .                       0:  VS TO CLOSURE
 MAGU.                 1855871:  MAGUTM CHECKSUM
~Parameter Information Block
#MNEM.UNIT       Value        Description
#---------     -----------    ---------------------------
 AV  .mps                 2.28:  Ann Velocity 
 AVMX.mps                 2.67:  Max Ann Veloc 
 AZIF.deg               305.00:  Azm, Final 
 BHAT.        Rotary Steerable:  BHA Type 
 BROT.°/30m               0.45:  Build Rotating 
 BS  .in                 12.25:  Bit Size 
 BSZ .in                 12.25:  Bit Size 
 BTPL.psig              600.00:  Bit Press Loss 
 CABU.                     Yes:  Customer Abuse 
 COMM.                     ü¢v:  Run Comments 1 
 TCS .hr                150.00:  Time Ciculation Ended 
 CV  .mps                 1.24:  Crit Velocity 
 CVMX.mps                 1.66:  Max Crit Veloc 
 DD1 .         Intigam Rahimov:  Direct Drillr 1 
 DD2 .            Azer Ravavov:  Direct Drillr 2 
 DD3 .              Samir Abas:  Direct Drillr 3 
 DDSV.               Geo-Pilot:  DD Service 
 DEFF.%                 100.00:  % Det Eff 
 DLRX.°/30m               1.57:  Dogleg Rot Max 
 DLSO.°/30m               0.00:  Dogleg Oriented 
 DLSX.°/30m               0.00:  Dogleg Str Max 
 DRET.      20.28.06 17-Sep-21:  Drill End Time 
 DRST.      20.27.35 10-Sep-21:  Drill Start Tim 
 DTIM.hr                 54.00:  Time Drilling 
 EDEP.m                5260.00:  End Depth 
 ENG1.      Bakhtiyar Jabbarli:  Engineer 1 
 ENG2.      Natik Hasanaghayev:  Engineer 2 
 ENG3.           Royal Nasirov:  Engineer 3 
 ETIM.      20.27.55 18-Sep-21:  End Time 
 FLOI.gpm              1100.00:  Flow In 
 FLON.gpm               800.00:  Flow In Min 
 FLOS.cptm                0.00:  Fluid Loss 
 FLOX.gpm              1200.00:  Flow In Max 
 DFT .        Mineral Oil Base:  Mud Type 
 HPRE.                      No:  High Pressure 
 HTEM.                      No:  High Temp 
 HYDO.m                   1.80:  Hydro Offset 
 IFIN.deg                72.31:  Inc, Final 
 IMAX.deg                72.36:  Inc Max 
 IMIN.deg                69.36:  Inc Min 
 IMND.m                4192.96:  Inc Min Depth 
 IMXD.m                5128.36:  Inc Max Depth 
 JARR.                      No:  Jarring 
 LETM.      20.29.00 17-Sep-21:  Log End Time 
 LOST.hr                     0:  Lost Rig Time 
 LSTM.      20.27.00 10-Sep-21:  Log Start Time 
 MDCL.ppm            227000.00:  Mud Chlorides 
 MDES.     Inversion Oil/Synthetic:  Mud Desc 
 DFD .sg                  1.45:  Mud Density 
 MDMN.sg                  1.45:  Dens Mud Min 
 MDMX.sg                  1.45:  Dens Mud Max 
 MOIL.                    70.5:  Run Mud Oil % 
 MOWR.                   71:29:  Run Mud OWR 
 MSND.                     0.3:  Run Mud Sand % 
 MSOL.                    19.8:  Run Mud Solids% 
 DFV .spqt               80.00:  Mud Viscosity 
 MWOD.in                  8.00:  MWD Tool OD 
 MWSI.                     Yes:  Serv Intrp, MWD 
 OTIM.hr                180.00:  Time Operating 
 PCON.           Look Like New:  Pad Condition 
 PMAX.psia             9910.94:  Press Op, Max 
 PV  .cP                 35.00:  Mud PV 
 RUN .                    1000:  Run Number 
 ROPA.m/hr               18.00:  ROP Avg 
 ROPN.m/hr                8.00:  ROP Min 
 ROPX.m/hr               23.00:  ROP Max 
 RPMA.rpm               150.00:  RPM Surface Avg 
 RPMN.rpm               120.00:  RPM Surface Min 
 RPMX.rpm               160.00:  RPM Surface Max 
 RRUN.                    L503:  Rig Run Number 
 RTIM.hr                  5.00:  Time Reaming 
 SAZI.deg               298.42:  Azm, Start 
 SDEP.m                3870.00:  Start Depth 
 SIDD.                      No:  Serv Intrp, DD 
 SINC.deg                69.57:  Inc, Start 
 SPPA.psig             5500.00:  SPP Avg 
 SPPN.psig             4400.00:  SPP Min 
 SPPX.psig             5800.00:  SPP Max 
 STIM.      15.29.39 09-Sep-21:  Start Time 
 SVCS.                 DD, MWD:  Services 
 SVER.                    9.20:  Sperry Version 
 TDAT.m                5260.00:  Tot Depth Attmp 
 TDDF.                      No:  Trip for DD 
 TDLG.m                1390.00:  Tot Depth Loggd 
 TFF .                      No:  Trip for Fail 
 TQAA.f-kp               22.00:  Torque Abs Avg 
 TQAN.f-kp               13.00:  Torque Abs Min 
 TQAX.f-kp               27.00:  Torque Abs Max 
 TRRT.°/30m               1.60:  Turn Rotating 
 MRT .                  EWR-M5:  Maximum Recorded Temperature 
 TTMX.degC               92.00:  Max Tool Temp 
 VS01.                12330975:  Virtual Str1 SN 
 VS02.                90658671:  Virtual Str2 SN 
 VS03.                90658508:  Virtual Str3 SN 
 VS04.                90660974:  Virtual Str4 SN 
 VS05.                90654675:  Virtual Str5 SN 
 WBMN.klb                15.00:  WOB Min 
 WITN.     Alexander Yadullayev:  Customer Rep 
 WITN.           Adil Mammadov:  Customer Rep 2 
 WOBA.klb                17.00:  WOB Avg 
 WOBX.klb                18.00:  WOB Max 
 YP  .lhf2               31.00:  Yield Point 
~Curve Information Block
#MNEM.UNIT                 API CODE     Curve Description
#---------               -----------    ---------------------------
 TIME.HHMMSS            00 000 000 000:  GT Time & Date
 GTDEPTH.m              00 000 000 000:  GT Depth
 GTPQH.psia             00 000 000 000:  GT HR Quartz Pressure
 GTTQ.degC              00 000 000 000:  GT Quartz Temperature
 GTTN.NONE              00 000 000 000:  GT Test Number
 GTET.sec               00 000 000 000:  GT Elapsed Test Time
 GTTVD.m                00 000 000 000:  GT True Vertical Depth
#Other Information
#
#WARRANTY: Halliburton will use its best efforts to furnish customers with 
#accurate information and interpretations that are part of, and incident to, the services 
#provided.  However, Halliburton cannot and does not warrant the accuracy 
#or correctness of such information and interpretations.  Under no circumstances should any 
#such information or interpretation be relied upon as the sole basis for any drilling, 
#completion, production, or financial decision or any procedure involving any risk to the 
#safety of any drilling venture, drilling rig or its crew or any other third party.  The 
#Customer has full responsibility for all drilling, completion and production operation.  
#Halliburton makes no representations or warranties, either expressed or 
#implied, including, but not limited to, the implied warranties of merchantability or fitness 
#for a particular purpose, with respect to the services rendered.  In no event will 
#Halliburton be liable for failure to obtain any particular results or for 
#any damages, including, but not limited to, indirect, special or consequential damages, 
#resulting from the use of any information or interpretation provided by Halliburton.
#
~A           TIME           GTDEPTH  GTPQH  GTTQ  GTTN  GTET   GTTVD  
# ...
   01:56:31.000.17-Sep-2021 5127.00 5570.16 79.86 1.00 276.00 2605.20
   01:56:31.200.17-Sep-2021 5127.00 5570.16 79.86 1.00 276.20 2605.20
   01:56:31.400.17-Sep-2021 5127.00 5570.09 79.86 1.00 276.40 2605.20
   01:56:31.600.17-Sep-2021 5127.00 5570.36 79.86 1.00 276.60 2605.20
   01:56:31.800.17-Sep-2021 5127.00 5570.46 79.86 1.00 276.80 2605.20
   01:56:32.000.17-Sep-2021 5127.00 5571.30 79.86 1.00 277.00 2605.20
   01:56:32.200.17-Sep-2021 5127.00 5571.30 79.86 1.00 277.20 2605.20
   01:56:32.400.17-Sep-2021 5127.00 5570.31 79.86 1.00 277.40 2605.20
   01:56:32.600.17-Sep-2021 5127.00 5570.50 79.86 1.00 277.60 2605.20
   01:56:32.800.17-Sep-2021 5127.00 5570.23 79.86 1.00 277.80 2605.20
   01:56:33.000.17-Sep-2021 5127.00 5569.98 79.86 1.00 278.00 2605.20
   01:56:33.200.17-Sep-2021 5127.00 5569.98 79.86 1.00 278.20 2605.20
   01:56:33.400.17-Sep-2021 5127.00 5569.89 79.86 1.00 278.40 2605.20
   01:56:33.600.17-Sep-2021 5127.00 5569.89 79.86 1.00 278.60 2605.20
   01:56:33.800.17-Sep-2021 5127.00 5569.91 79.86 1.00 278.80 2605.20
   01:56:34.000.17-Sep-2021 5127.00 5569.95 79.86 1.00 279.00 2605.20
   01:56:34.200.17-Sep-2021 5127.00 5569.95 79.86 1.00 279.20 2605.20
   01:56:34.400.17-Sep-2021 5127.00 5570.01 79.86 1.00 279.40 2605.20
   01:56:34.600.17-Sep-2021 5127.00 5570.06 79.86 1.00 279.60 2605.20
   01:56:34.800.17-Sep-2021 5127.00 5570.23 79.86 1.00 279.80 2605.20
   01:56:35.000.17-Sep-2021 5127.00 5570.39 79.86 1.00 280.00 2605.20
   01:56:35.200.17-Sep-2021 5127.00 5570.39 79.86 1.00 280.20 2605.20
   01:56:35.400.17-Sep-2021 5127.00 5570.69 79.86 1.00 280.40 2605.20
   01:56:35.600.17-Sep-2021 5127.00 5570.71 79.86 1.00 280.60 2605.20
   01:56:35.800.17-Sep-2021 5127.00 5570.46 79.86 1.00 280.80 2605.20
   01:56:36.000.17-Sep-2021 5127.00 5570.50 79.86 1.00 281.00 2605.20
   01:56:36.200.17-Sep-2021 5127.00 5570.50 79.86 1.00 281.20 2605.20
   01:56:36.400.17-Sep-2021 5127.00 5569.93 79.86 1.00 281.40 2605.20
   01:56:36.600.17-Sep-2021 5127.00 5570.32 79.86 1.00 281.60 2605.20
   01:56:36.800.17-Sep-2021 5127.00 5569.64 79.86 1.00 281.80 2605.20
   01:56:37.000.17-Sep-2021 5127.00 5569.40 79.86 1.00 282.00 2605.20
   01:56:37.200.17-Sep-2021 5127.00 5569.40 79.86 1.00 282.20 2605.20
   01:56:37.400.17-Sep-2021 5127.00 5570.98 79.86 1.00 282.40 2605.20
   01:56:37.600.17-Sep-2021 5127.00 5568.75 79.86 1.00 282.60 2605.20
   01:56:37.800.17-Sep-2021 5127.00 5569.64 79.86 1.00 282.80 2605.20
   01:56:38.000.17-Sep-2021 5127.00 5569.68 79.86 1.00 283.00 2605.20
   01:56:38.200.17-Sep-2021 5127.00 5569.68 79.86 1.00 283.20 2605.20
   01:56:38.400.17-Sep-2021 5127.00 5570.62 79.86 1.00 283.40 2605.20
   01:56:38.600.17-Sep-2021 5127.00 5570.27 79.86 1.00 283.60 2605.20
   01:56:38.800.17-Sep-2021 5127.00 5570.20 79.86 1.00 283.80 2605.20
   01:56:39.000.17-Sep-2021 5127.00 5569.67 79.86 1.00 284.00 2605.20
   01:56:39.200.17-Sep-2021 5127.00 5569.67 79.86 1.00 284.20 2605.20
   01:56:39.400.17-Sep-2021 5127.00 5569.90 79.86 1.00 284.40 2605.20
   01:56:39.600.17-Sep-2021 5127.00 5570.04 79.86 1.00 284.60 2605.20
   01:56:39.800.17-Sep-2021 5127.00 5569.86 79.86 1.00 284.80 2605.20
   01:56:40.000.17-Sep-2021 5127.00 5569.57 79.86 1.00 285.00 2605.20
   01:56:40.200.17-Sep-2021 5127.00 5569.57 79.86 1.00 285.20 2605.20
   01:56:40.400.17-Sep-2021 5127.00 5569.72 79.86 1.00 285.40 2605.20
   01:56:40.600.17-Sep-2021 5127.00 5569.91 79.86 1.00 285.60 2605.20
   01:56:40.800.17-Sep-2021 5127.00 5569.95 79.86 1.00 285.80 2605.20
   01:56:41.000.17-Sep-2021 5127.00 5569.91 79.86 1.00 286.00 2605.20
   01:56:41.200.17-Sep-2021 5127.00 5569.91 79.86 1.00 286.20 2605.20
   01:56:41.400.17-Sep-2021 5127.00 5570.86 79.86 1.00 286.40 2605.20
   01:56:41.600.17-Sep-2021 5127.00 5569.73 79.86 1.00 286.60 2605.20
   01:56:41.800.17-Sep-2021 5127.00 5570.92 79.86 1.00 286.80 2605.20
   01:56:42.000.17-Sep-2021 5127.00 5570.67 79.86 1.00 287.00 2605.20
   01:56:42.200.17-Sep-2021 5127.00 5570.67 79.86 1.00 287.20 2605.20
   01:56:42.400.17-Sep-2021 5127.00 5570.20 79.86 1.00 287.40 2605.20
   01:56:42.600.17-Sep-2021 5127.00 5570.12 79.86 1.00 287.60 2605.20
   01:56:42.800.17-Sep-2021 5127.00 5569.85 79.86 1.00 287.80 2605.20
   01:56:43.000.17-Sep-2021 5127.00 5569.77 79.86 1.00 288.00 2605.20
   01:56:43.200.17-Sep-2021 5127.00 5569.77 79.86 1.00 288.20 2605.20
   01:56:43.400.17-Sep-2021 5127.00 5569.71 79.86 1.00 288.40 2605.20
   01:56:43.600.17-Sep-2021 5127.00 5569.71 79.86 1.00 288.60 2605.20
   01:56:43.800.17-Sep-2021 5127.00 5569.73 79.86 1.00 288.80 2605.20
   01:56:44.000.17-Sep-2021 5127.00 5569.75 79.86 1.00 289.00 2605.20
   01:56:44.200.17-Sep-2021 5127.00 5569.75 79.86 1.00 289.20 2605.20
   01:56:44.400.17-Sep-2021 5127.00 5569.86 79.86 1.00 289.40 2605.20
   01:56:44.600.17-Sep-2021 5127.00 5570.12 79.86 1.00 289.60 2605.20
   01:56:44.800.17-Sep-2021 5127.00 5570.34 79.86 1.00 289.80 2605.20
   01:56:45.000.17-Sep-2021 5127.00 5570.19 79.86 1.00 290.00 2605.20
   01:56:45.200.17-Sep-2021 5127.00 5570.19 79.86 1.00 290.20 2605.20
   01:56:45.400.17-Sep-2021 5127.00 5570.38 79.86 1.00 290.40 2605.20
   01:56:45.600.17-Sep-2021 5127.00 5570.13 79.86 1.00 290.60 2605.20
   01:56:45.800.17-Sep-2021 5127.00 5570.28 79.86 1.00 290.80 2605.20
   01:56:46.000.17-Sep-2021 5127.00 5570.87 79.86 1.00 291.00 2605.20
   01:56:46.200.17-Sep-2021 5127.00 5570.87 79.86 1.00 291.20 2605.20
   01:56:46.400.17-Sep-2021 5127.00 5569.99 79.86 1.00 291.40 2605.20
   01:56:46.600.17-Sep-2021 5127.00 5569.47 79.86 1.00 291.60 2605.20
   01:56:46.800.17-Sep-2021 5127.00 5569.05 79.86 1.00 291.80 2605.20
   01:56:47.000.17-Sep-2021 5127.00 5569.28 79.86 1.00 292.00 2605.20
   01:56:47.200.17-Sep-2021 5127.00 5569.28 79.86 1.00 292.20 2605.20
   01:56:47.400.17-Sep-2021 5127.00 5569.46 79.86 1.00 292.40 2605.20
   01:56:47.600.17-Sep-2021 5127.00 5569.31 79.86 1.00 292.60 2605.20
   01:56:47.800.17-Sep-2021 5127.00 5569.23 79.86 1.00 292.80 2605.20
   01:56:48.000.17-Sep-2021 5127.00 5570.03 79.86 1.00 293.00 2605.20
   01:56:48.200.17-Sep-2021 5127.00 5570.03 79.86 1.00 293.20 2605.20
   01:56:48.400.17-Sep-2021 5127.00 5570.54 79.86 1.00 293.40 2605.20
   01:56:48.600.17-Sep-2021 5127.00 5569.81 79.86 1.00 293.60 2605.20
   01:56:48.800.17-Sep-2021 5127.00 5569.47 79.86 1.00 293.80 2605.20
   01:56:49.000.17-Sep-2021 5127.00 5569.83 79.86 1.00 294.00 2605.20
   01:56:49.200.17-Sep-2021 5127.00 5569.83 79.86 1.00 294.20 2605.20
   01:56:49.400.17-Sep-2021 5127.00 5569.79 79.86 1.00 294.40 2605.20
   01:56:49.600.17-Sep-2021 5127.00 5569.67 79.86 1.00 294.60 2605.20
   01:56:49.800.17-Sep-2021 5127.00 5569.50 79.86 1.00 294.80 2605.20
   01:56:50.000.17-Sep-2021 5127.00 5569.51 79.86 1.00 295.00 2605.20
   01:56:50.200.17-Sep-2021 5127.00 5569.51 79.86 1.00 295.20 2605.20
   01:56:50.400.17-Sep-2021 5127.00 5569.83 79.86 1.00 295.40 2605.20
   01:56:50.600.17-Sep-2021 5127.00 5569.83 79.86 1.00 295.60 2605.20
   01:56:50.800.17-Sep-2021 5127.00 5569.80 79.86 1.00 295.80 2605.20
   01:56:51.000.17-Sep-2021 5127.00 5569.81 79.86 1.00 296.00 2605.20
   01:56:51.200.17-Sep-2021 5127.00 5569.81 79.86 1.00 296.20 2605.20
   01:56:51.400.17-Sep-2021 5127.00 5569.49 79.86 1.00 296.40 2605.20
   01:56:51.600.17-Sep-2021 5127.00 5570.87 79.86 1.00 296.60 2605.20
   01:56:51.800.17-Sep-2021 5127.00 5570.56 79.86 1.00 296.80 2605.20
   01:56:52.000.17-Sep-2021 5127.00 5570.24 79.86 1.00 297.00 2605.20
   01:56:52.200.17-Sep-2021 5127.00 5570.24 79.86 1.00 297.20 2605.20
   01:56:52.400.17-Sep-2021 5127.00 5569.96 79.86 1.00 297.40 2605.20
   01:56:52.600.17-Sep-2021 5127.00 5569.80 79.86 1.00 297.60 2605.20
   01:56:52.800.17-Sep-2021 5127.00 5569.72 79.86 1.00 297.80 2605.20
   01:56:53.000.17-Sep-2021 5127.00 5569.70 79.86 1.00 298.00 2605.20
   01:56:53.200.17-Sep-2021 5127.00 5569.70 79.86 1.00 298.20 2605.20
   01:56:53.400.17-Sep-2021 5127.00 5569.68 79.86 1.00 298.40 2605.20
   01:56:53.600.17-Sep-2021 5127.00 5569.68 79.86 1.00 298.60 2605.20
   01:56:53.800.17-Sep-2021 5127.00 5569.71 79.86 1.00 298.80 2605.20
