~Version Information
 VERS.                  2.0:   CWLS log ASCII Standard -VERSION 2.0
 WRAP.                   NO:   One line per depth step
~Well Information Block
#MNEM.UNIT     VALUE/NAME     DESCRIPTION
#---------     -----------    ---------------------------
 STRT.S             10:29:45 17-Sep-21: START TIME 10:29:45 17-Sep-21
 STOP.S             10:36:56 17-Sep-21: STOP TIME  10:36:56 17-Sep-21
 STEP.S                   0.00: STEP TIME
 NULL.                 -999.25: NULL VALUE
 DFWT.                        :  DIST FWL TEXT
 DFST.                        :  DIST FSL TEXT
 DMF .             Drill Floor:  DRILL MEAS FROM
 STIM.      10.59.12 05-Jul-21:  START TIME
 DATE.      10.59.12 10-Sep-21:  END TIME
 SPUD.               05-Jul-21:  SPUD DATE
 NREF.                    Grid:  NORTH REFERENCE
 HPTY.       Minimum Curvature:  HOLE POS TYPE
 DMOD.             Drill Model:  DRILL MOD DESC
 SVYD.                  Survey:  SURVEY DESC
 ILTD.               Lithology:  INTERP LTH DESC
 FTOP.          Formation Tops:  FORM TOPS DESC
 RIG .                     DWG:  RIG NAME
 PDAT.          Mean Sea Level:  PERMANENT DATUM
 FLD .                     ACG:  FIELD NAME
 SON .        AZ-XX-0907115008:  JOB NUMBER
 CTRY.              Azerbaijan:  COUNTRY NAME
 WELL.                    E35A:  WELL NAME
 SRVC.          TURAN DRILLING:  CONTRACTOR
 COMP.     BP Exploration (Caspian Sea LTD):  COMPANY
 UWI .                     N/A:  UNIQUE WELL IDENTIFIER
 API .                     N/A:  API NUMBER
 MDS .        Operator Entered:  MAG DATA SOURCE
 BASE.              Azerbaijan:  LOGGING EQUIPMENT BASE LOCATION
 REGN.                   EESSA:  REGION
 PROV.                    Baku:  PROVINCE
 STAT.                    Baku:  STATE NAME
 MWDS.                    Baku:  MWD SHOP
 JOBN.        AZ-XX-0907115008:  JOB TICKET NUMB
 DOE .                     N/A:  DOE NUMBER
 DCON.         Sperry Drilling:  DIRECTNL CONTR
 UNIT.                     N/A:  LOGGING EQUIPMENT ID
 WTYP.                Deviated:  WELL TYPE
 CNTY.                        :  COUNTY
 LOC .                        :  LOCATION
 LMF .             Drill Floor:  LOG MEASURED FROM
 TVDS.m                  43.16:  TVDSS CORRECTN
 LATI.deg                40.17:  LATITUDE
 LONG.deg                51.17:  LONGITUDE
 WHNS.m                  10.51:  WELL HEAD N/S
 WHEW.m                 -14.82:  WELL HEAD E/W
 UTMX.m              514336.92:  UTM X
 UTMY.m             4448618.56:  UTM Y
 DFWL.m                   0.00:  DISTANCE FWL
 DFSL.m                   0.00:  DISTANCE FSL
 SDEP.m                 849.00:  START DEPTH
 TDD .m                2862.00:  TOTAL DEPTH (DRILLER)
 VSDR.deg               292.10:  VERT SEC DIRECT
 GVFD.g                   1.00:  GRAVITY FIELD
 MFLD.nT              50382.00:  MAGNETIC FIELD
 MDIP.deg                59.68:  MAGNETIC DIP
 MDEC.deg                 6.66:  MAGNETIC DECL
 GRDC.deg                 0.09:  GRID CORRECTION
 AZTC.deg                 6.57:  AZM TOTAL CORR
 EPD .m                   0.00:  ELEVATION
 EGL .m                   0.00:  GROUND ELEVATION
 WDMS.m                 176.20:  WD ELEV
 APD .m                  43.16:  DEPTH ABOVE PD
 DEP .m                 363.42:  DEPTH
 AGAP.m                  43.16:  AIR GAP
 VSEW.m                 -14.82:  VERT SEC E/W
 VSNS.m                  10.51:  VERT SEC N/S
 EKB .m                  43.16:  KB ELEVATION
 EDF .m                  43.16:  DF ELEVATION
 TDL .m                1390.00:  TOTAL DEPTH (LOGGER)
 VSC .                       0:  VS TO CLOSURE
 MAGU.                 1855871:  MAGUTM CHECKSUM
~Parameter Information Block
#MNEM.UNIT       Value        Description
#---------     -----------    ---------------------------
 AV  .mps                 2.28:  Ann Velocity 
 AVMX.mps                 2.67:  Max Ann Veloc 
 AZIF.deg               305.00:  Azm, Final 
 BHAT.        Rotary Steerable:  BHA Type 
 BROT.°/30m               0.45:  Build Rotating 
 BS  .in                 12.25:  Bit Size 
 BSZ .in                 12.25:  Bit Size 
 BTPL.psig              600.00:  Bit Press Loss 
 CABU.                     Yes:  Customer Abuse 
 COMM.                     ,)z:  Run Comments 1 
 TCS .hr                150.00:  Time Ciculation Ended 
 CV  .mps                 1.24:  Crit Velocity 
 CVMX.mps                 1.66:  Max Crit Veloc 
 DD1 .         Intigam Rahimov:  Direct Drillr 1 
 DD2 .            Azer Ravavov:  Direct Drillr 2 
 DD3 .              Samir Abas:  Direct Drillr 3 
 DDSV.               Geo-Pilot:  DD Service 
 DEFF.%                 100.00:  % Det Eff 
 DLRX.°/30m               1.57:  Dogleg Rot Max 
 DLSO.°/30m               0.00:  Dogleg Oriented 
 DLSX.°/30m               0.00:  Dogleg Str Max 
 DRET.      20.28.06 17-Sep-21:  Drill End Time 
 DRST.      20.27.35 10-Sep-21:  Drill Start Tim 
 DTIM.hr                 54.00:  Time Drilling 
 EDEP.m                5260.00:  End Depth 
 ENG1.      Bakhtiyar Jabbarli:  Engineer 1 
 ENG2.      Natik Hasanaghayev:  Engineer 2 
 ENG3.           Royal Nasirov:  Engineer 3 
 ETIM.      20.27.55 18-Sep-21:  End Time 
 FLOI.gpm              1100.00:  Flow In 
 FLON.gpm               800.00:  Flow In Min 
 FLOS.cptm                0.00:  Fluid Loss 
 FLOX.gpm              1200.00:  Flow In Max 
 DFT .        Mineral Oil Base:  Mud Type 
 HPRE.                      No:  High Pressure 
 HTEM.                      No:  High Temp 
 HYDO.m                   1.80:  Hydro Offset 
 IFIN.deg                72.31:  Inc, Final 
 IMAX.deg                72.36:  Inc Max 
 IMIN.deg                69.36:  Inc Min 
 IMND.m                4192.96:  Inc Min Depth 
 IMXD.m                5128.36:  Inc Max Depth 
 JARR.                      No:  Jarring 
 LETM.      20.29.00 17-Sep-21:  Log End Time 
 LOST.hr                     0:  Lost Rig Time 
 LSTM.      20.27.00 10-Sep-21:  Log Start Time 
 MDCL.ppm            227000.00:  Mud Chlorides 
 MDES.     Inversion Oil/Synthetic:  Mud Desc 
 DFD .sg                  1.45:  Mud Density 
 MDMN.sg                  1.45:  Dens Mud Min 
 MDMX.sg                  1.45:  Dens Mud Max 
 MOIL.                    70.5:  Run Mud Oil % 
 MOWR.                   71:29:  Run Mud OWR 
 MSND.                     0.3:  Run Mud Sand % 
 MSOL.                    19.8:  Run Mud Solids% 
 DFV .spqt               80.00:  Mud Viscosity 
 MWOD.in                  8.00:  MWD Tool OD 
 MWSI.                     Yes:  Serv Intrp, MWD 
 OTIM.hr                180.00:  Time Operating 
 PCON.           Look Like New:  Pad Condition 
 PMAX.psia             9910.94:  Press Op, Max 
 PV  .cP                 35.00:  Mud PV 
 RUN .                    1000:  Run Number 
 ROPA.m/hr               18.00:  ROP Avg 
 ROPN.m/hr                8.00:  ROP Min 
 ROPX.m/hr               23.00:  ROP Max 
 RPMA.rpm               150.00:  RPM Surface Avg 
 RPMN.rpm               120.00:  RPM Surface Min 
 RPMX.rpm               160.00:  RPM Surface Max 
 RRUN.                    L503:  Rig Run Number 
 RTIM.hr                  5.00:  Time Reaming 
 SAZI.deg               298.42:  Azm, Start 
 SDEP.m                3870.00:  Start Depth 
 SIDD.                      No:  Serv Intrp, DD 
 SINC.deg                69.57:  Inc, Start 
 SPPA.psig             5500.00:  SPP Avg 
 SPPN.psig             4400.00:  SPP Min 
 SPPX.psig             5800.00:  SPP Max 
 STIM.      15.29.39 09-Sep-21:  Start Time 
 SVCS.                 DD, MWD:  Services 
 SVER.                    9.20:  Sperry Version 
 TDAT.m                5260.00:  Tot Depth Attmp 
 TDDF.                      No:  Trip for DD 
 TDLG.m                1390.00:  Tot Depth Loggd 
 TFF .                      No:  Trip for Fail 
 TQAA.f-kp               22.00:  Torque Abs Avg 
 TQAN.f-kp               13.00:  Torque Abs Min 
 TQAX.f-kp               27.00:  Torque Abs Max 
 TRRT.°/30m               1.60:  Turn Rotating 
 MRT .                  EWR-M5:  Maximum Recorded Temperature 
 TTMX.degC               92.00:  Max Tool Temp 
 VS01.                12330975:  Virtual Str1 SN 
 VS02.                90658671:  Virtual Str2 SN 
 VS03.                90658508:  Virtual Str3 SN 
 VS04.                90660974:  Virtual Str4 SN 
 VS05.                90654675:  Virtual Str5 SN 
 WBMN.klb                15.00:  WOB Min 
 WITN.     Alexander Yadullayev:  Customer Rep 
 WITN.           Adil Mammadov:  Customer Rep 2 
 WOBA.klb                17.00:  WOB Avg 
 WOBX.klb                18.00:  WOB Max 
 YP  .lhf2               31.00:  Yield Point 
~Curve Information Block
#MNEM.UNIT                 API CODE     Curve Description
#---------               -----------    ---------------------------
 TIME.HHMMSS            00 000 000 000:  GT Time & Date
 GTDEPTH.m              00 000 000 000:  GT Depth
 GTPQH.psia             00 000 000 000:  GT HR Quartz Pressure
 GTTQ.degC              00 000 000 000:  GT Quartz Temperature
 GTTN.NONE              00 000 000 000:  GT Test Number
 GTET.sec               00 000 000 000:  GT Elapsed Test Time
 GTTVD.m                00 000 000 000:  GT True Vertical Depth
#Other Information
#
#WARRANTY: Halliburton will use its best efforts to furnish customers with 
#accurate information and interpretations that are part of, and incident to, the services 
#provided.  However, Halliburton cannot and does not warrant the accuracy 
#or correctness of such information and interpretations.  Under no circumstances should any 
#such information or interpretation be relied upon as the sole basis for any drilling, 
#completion, production, or financial decision or any procedure involving any risk to the 
#safety of any drilling venture, drilling rig or its crew or any other third party.  The 
#Customer has full responsibility for all drilling, completion and production operation.  
#Halliburton makes no representations or warranties, either expressed or 
#implied, including, but not limited to, the implied warranties of merchantability or fitness 
#for a particular purpose, with respect to the services rendered.  In no event will 
#Halliburton be liable for failure to obtain any particular results or for 
#any damages, including, but not limited to, indirect, special or consequential damages, 
#resulting from the use of any information or interpretation provided by Halliburton.
#
~A           TIME           GTDEPTH  GTPQH  GTTQ  GTTN  GTET   GTTVD  
# ...
   10:34:44.357.17-Sep-2021 4888.00 5434.24 75.87 8.00 299.03 2528.99
   10:34:44.557.17-Sep-2021 4888.00 5434.24 75.87 8.00 299.23 2528.99
   10:34:44.757.17-Sep-2021 4888.00 5433.79 75.87 8.00 299.43 2528.99
   10:34:44.957.17-Sep-2021 4888.00 5434.08 75.87 8.00 299.63 2528.99
   10:34:45.157.17-Sep-2021 4888.00 5434.21 75.87 8.00 299.83 2528.99
   10:34:45.357.17-Sep-2021 4888.00 5433.95 75.87 8.00 300.03 2528.99
   10:34:45.557.17-Sep-2021 4888.00 5433.95 75.87 8.00 300.23 2528.99
   10:34:45.757.17-Sep-2021 4888.00 5434.14 75.87 8.00 300.43 2528.99
   10:34:45.957.17-Sep-2021 4888.00 5434.31 75.87 8.00 300.63 2528.99
   10:34:46.157.17-Sep-2021 4888.00 5437.07 75.87 8.00 300.83 2528.99
   10:34:46.357.17-Sep-2021 4888.00 5434.25 75.87 8.00 301.03 2528.99
   10:34:46.557.17-Sep-2021 4888.00 5434.25 75.87 8.00 301.23 2528.99
   10:34:46.757.17-Sep-2021 4888.00 5434.58 75.87 8.00 301.43 2528.99
   10:34:46.957.17-Sep-2021 4888.00 5435.64 75.87 8.00 301.63 2528.99
   10:34:47.157.17-Sep-2021 4888.00 5438.38 75.87 8.00 301.83 2528.99
   10:34:47.357.17-Sep-2021 4888.00 5432.32 75.87 8.00 302.03 2528.99
   10:34:47.557.17-Sep-2021 4888.00 5432.32 75.87 8.00 302.23 2528.99
   10:34:47.757.17-Sep-2021 4888.00 5434.11 75.87 8.00 302.43 2528.99
   10:34:47.957.17-Sep-2021 4888.00 5435.86 75.87 8.00 302.63 2528.99
   10:34:48.158.17-Sep-2021 4888.00 5435.08 75.87 8.00 302.83 2528.99
   10:34:48.358.17-Sep-2021 4888.00 5433.42 75.87 8.00 303.03 2528.99
   10:34:48.558.17-Sep-2021 4888.00 5433.42 75.87 8.00 303.23 2528.99
   10:34:48.758.17-Sep-2021 4888.00 5434.08 75.87 8.00 303.43 2528.99
   10:34:48.958.17-Sep-2021 4888.00 5434.29 75.87 8.00 303.63 2528.99
   10:34:49.158.17-Sep-2021 4888.00 5436.24 75.87 8.00 303.83 2528.99
   10:34:49.358.17-Sep-2021 4888.00 5433.45 75.87 8.00 304.03 2528.99
   10:34:49.558.17-Sep-2021 4888.00 5433.45 75.87 8.00 304.23 2528.99
   10:34:49.758.17-Sep-2021 4888.00 5434.00 75.87 8.00 304.43 2528.99
   10:34:49.958.17-Sep-2021 4888.00 5434.55 75.87 8.00 304.63 2528.99
   10:34:50.158.17-Sep-2021 4888.00 5433.60 75.87 8.00 304.83 2528.99
   10:34:50.358.17-Sep-2021 4888.00 5433.66 75.87 8.00 305.03 2528.99
   10:34:50.558.17-Sep-2021 4888.00 5433.66 75.87 8.00 305.23 2528.99
   10:34:50.758.17-Sep-2021 4888.00 5433.59 75.87 8.00 305.43 2528.99
   10:34:50.958.17-Sep-2021 4888.00 5433.56 75.87 8.00 305.63 2528.99
   10:34:51.158.17-Sep-2021 4888.00 5433.87 75.87 8.00 305.83 2528.99
   10:34:51.358.17-Sep-2021 4888.00 5434.26 75.87 8.00 306.03 2528.99
   10:34:51.558.17-Sep-2021 4888.00 5434.26 75.87 8.00 306.23 2528.99
   10:34:51.758.17-Sep-2021 4888.00 5434.03 75.87 8.00 306.43 2528.99
   10:34:51.958.17-Sep-2021 4888.00 5434.26 75.87 8.00 306.63 2528.99
   10:34:52.158.17-Sep-2021 4888.00 5437.14 75.87 8.00 306.83 2528.99
   10:34:52.358.17-Sep-2021 4888.00 5433.60 75.87 8.00 307.03 2528.99
   10:34:52.558.17-Sep-2021 4888.00 5433.60 75.87 8.00 307.23 2528.99
   10:34:52.758.17-Sep-2021 4888.00 5434.00 75.87 8.00 307.43 2528.99
   10:34:52.958.17-Sep-2021 4888.00 5435.12 75.87 8.00 307.63 2528.99
   10:34:53.158.17-Sep-2021 4888.00 5434.26 75.87 8.00 307.83 2528.99
   10:34:53.358.17-Sep-2021 4888.00 5433.91 75.87 8.00 308.03 2528.99
   10:34:53.558.17-Sep-2021 4888.00 5433.91 75.87 8.00 308.23 2528.99
   10:34:53.758.17-Sep-2021 4888.00 5433.69 75.87 8.00 308.43 2528.99
   10:34:53.958.17-Sep-2021 4888.00 5433.63 75.87 8.00 308.63 2528.99
   10:34:54.158.17-Sep-2021 4888.00 5433.49 75.87 8.00 308.83 2528.99
   10:34:54.358.17-Sep-2021 4888.00 5433.78 75.87 8.00 309.03 2528.99
   10:34:54.558.17-Sep-2021 4888.00 5433.78 75.87 8.00 309.23 2528.99
   10:34:54.758.17-Sep-2021 4888.00 5434.01 75.87 8.00 309.43 2528.99
   10:34:54.958.17-Sep-2021 4888.00 5433.89 75.87 8.00 309.63 2528.99
   10:34:55.158.17-Sep-2021 4888.00 5434.04 75.87 8.00 309.83 2528.99
   10:34:55.358.17-Sep-2021 4888.00 5434.29 75.87 8.00 310.03 2528.99
   10:34:55.558.17-Sep-2021 4888.00 5434.29 75.87 8.00 310.23 2528.99
   10:34:55.758.17-Sep-2021 4888.00 5435.82 75.87 8.00 310.43 2528.99
   10:34:55.958.17-Sep-2021 4888.00 5434.41 75.87 8.00 310.63 2528.99
   10:34:56.158.17-Sep-2021 4888.00 5434.14 75.87 8.00 310.83 2528.99
   10:34:56.358.17-Sep-2021 4888.00 5434.55 75.87 8.00 311.03 2528.99
   10:34:56.558.17-Sep-2021 4888.00 5434.55 75.87 8.00 311.23 2528.99
   10:34:56.758.17-Sep-2021 4888.00 5435.93 75.87 8.00 311.43 2528.99
   10:34:56.958.17-Sep-2021 4888.00 5434.24 75.87 8.00 311.63 2528.99
   10:34:57.159.17-Sep-2021 4888.00 5433.96 75.87 8.00 311.83 2528.99
   10:34:57.359.17-Sep-2021 4888.00 5434.16 75.87 8.00 312.03 2528.99
   10:34:57.559.17-Sep-2021 4888.00 5434.16 75.87 8.00 312.23 2528.99
   10:34:57.759.17-Sep-2021 4888.00 5432.87 75.87 8.00 312.43 2528.99
   10:34:57.959.17-Sep-2021 4888.00 5433.76 75.87 8.00 312.63 2528.99
   10:34:58.159.17-Sep-2021 4888.00 5433.48 75.87 8.00 312.83 2528.99
   10:34:58.359.17-Sep-2021 4888.00 5438.33 75.87 8.00 313.03 2528.99
   10:34:58.559.17-Sep-2021 4888.00 5438.33 75.87 8.00 313.23 2528.99
   10:34:58.759.17-Sep-2021 4888.00 5433.40 75.87 8.00 313.43 2528.99
   10:34:58.959.17-Sep-2021 4888.00 5433.94 75.87 8.00 313.63 2528.99
   10:34:59.159.17-Sep-2021 4888.00 5435.09 75.87 8.00 313.83 2528.99
   10:34:59.359.17-Sep-2021 4888.00 5432.99 75.87 8.00 314.03 2528.99
   10:34:59.559.17-Sep-2021 4888.00 5432.99 75.87 8.00 314.23 2528.99
   10:34:59.759.17-Sep-2021 4888.00 5434.19 75.87 8.00 314.43 2528.99
   10:34:59.959.17-Sep-2021 4888.00 5434.06 75.87 8.00 314.63 2528.99
   10:35:00.159.17-Sep-2021 4888.00 5433.68 75.87 8.00 314.83 2528.99
   10:35:00.359.17-Sep-2021 4888.00 5433.18 75.87 8.00 315.03 2528.99
   10:35:00.559.17-Sep-2021 4888.00 5433.18 75.87 8.00 315.23 2528.99
   10:35:00.759.17-Sep-2021 4888.00 5434.29 75.87 8.00 315.43 2528.99
   10:35:00.959.17-Sep-2021 4888.00 5434.12 75.87 8.00 315.63 2528.99
   10:35:01.159.17-Sep-2021 4888.00 5433.83 75.87 8.00 315.83 2528.99
   10:35:01.359.17-Sep-2021 4888.00 5434.44 75.87 8.00 316.03 2528.99
   10:35:01.559.17-Sep-2021 4888.00 5434.44 75.87 8.00 316.24 2528.99
   10:35:01.759.17-Sep-2021 4888.00 5434.30 75.87 8.00 316.44 2528.99
   10:35:01.959.17-Sep-2021 4888.00 5434.04 75.87 8.00 316.64 2528.99
   10:35:02.159.17-Sep-2021 4888.00 5434.71 75.87 8.00 316.84 2528.99
   10:35:02.359.17-Sep-2021 4888.00 5435.12 75.87 8.00 317.04 2528.99
   10:35:02.559.17-Sep-2021 4888.00 5435.12 75.87 8.00 317.24 2528.99
   10:35:02.759.17-Sep-2021 4888.00 5433.60 75.87 8.00 317.44 2528.99
   10:35:02.959.17-Sep-2021 4888.00 5433.94 75.87 8.00 317.64 2528.99
   10:35:03.159.17-Sep-2021 4888.00 5433.91 75.87 8.00 317.84 2528.99
   10:35:03.359.17-Sep-2021 4888.00 5433.56 75.87 8.00 318.04 2528.99
   10:35:03.559.17-Sep-2021 4888.00 5433.56 75.87 8.00 318.24 2528.99
   10:35:03.759.17-Sep-2021 4888.00 5433.63 75.87 8.00 318.44 2528.99
   10:35:03.959.17-Sep-2021 4888.00 5433.86 75.87 8.00 318.64 2528.99
   10:35:04.159.17-Sep-2021 4888.00 5433.71 75.87 8.00 318.84 2528.99
   10:35:04.359.17-Sep-2021 4888.00 5433.71 75.87 8.00 319.04 2528.99
   10:35:04.559.17-Sep-2021 4888.00 5433.71 75.87 8.00 319.24 2528.99
   10:35:04.759.17-Sep-2021 4888.00 5434.34 75.87 8.00 319.44 2528.99
   10:35:04.959.17-Sep-2021 4888.00 5436.99 75.87 8.00 319.64 2528.99
   10:35:05.159.17-Sep-2021 4888.00 5433.89 75.87 8.00 319.84 2528.99
   10:35:05.359.17-Sep-2021 4888.00 5434.07 75.87 8.00 320.04 2528.99
   10:35:05.559.17-Sep-2021 4888.00 5434.07 75.87 8.00 320.24 2528.99
   10:35:05.759.17-Sep-2021 4888.00 5435.36 75.87 8.00 320.44 2528.99
   10:35:05.959.17-Sep-2021 4888.00 5437.02 75.87 8.00 320.64 2528.99
   10:35:06.160.17-Sep-2021 4888.00 5433.21 75.87 8.00 320.84 2528.99
   10:35:06.360.17-Sep-2021 4888.00 5433.77 75.87 8.00 321.04 2528.99
   10:35:06.560.17-Sep-2021 4888.00 5433.77 75.87 8.00 321.24 2528.99
   10:35:06.760.17-Sep-2021 4888.00 5435.14 75.87 8.00 321.44 2528.99
   10:35:06.960.17-Sep-2021 4888.00 5435.19 75.87 8.00 321.64 2528.99
   10:35:07.160.17-Sep-2021 4888.00 5433.09 75.87 8.00 321.84 2528.99
