~Version Information
 VERS.                  2.0:   CWLS log ASCII Standard -VERSION 2.0
 WRAP.                   NO:   One line per depth step
~Well Information Block
#MNEM.UNIT     VALUE/NAME     DESCRIPTION
#---------     -----------    ---------------------------
 STRT.S             06:03:21 17-Sep-21: START TIME 06:03:21 17-Sep-21
 STOP.S             06:11:58 17-Sep-21: STOP TIME  06:11:58 17-Sep-21
 STEP.S                   0.00: STEP TIME
 NULL.                 -999.25: NULL VALUE
 DFWT.                        :  DIST FWL TEXT
 DFST.                        :  DIST FSL TEXT
 DMF .             Drill Floor:  DRILL MEAS FROM
 STIM.      10.59.12 05-Jul-21:  START TIME
 DATE.      10.59.12 10-Sep-21:  END TIME
 SPUD.               05-Jul-21:  SPUD DATE
 NREF.                    Grid:  NORTH REFERENCE
 HPTY.       Minimum Curvature:  HOLE POS TYPE
 DMOD.             Drill Model:  DRILL MOD DESC
 SVYD.                  Survey:  SURVEY DESC
 ILTD.               Lithology:  INTERP LTH DESC
 FTOP.          Formation Tops:  FORM TOPS DESC
 RIG .                     DWG:  RIG NAME
 PDAT.          Mean Sea Level:  PERMANENT DATUM
 FLD .                     ACG:  FIELD NAME
 SON .        AZ-XX-0907115008:  JOB NUMBER
 CTRY.              Azerbaijan:  COUNTRY NAME
 WELL.                    E35A:  WELL NAME
 SRVC.          TURAN DRILLING:  CONTRACTOR
 COMP.     BP Exploration (Caspian Sea LTD):  COMPANY
 UWI .                     N/A:  UNIQUE WELL IDENTIFIER
 API .                     N/A:  API NUMBER
 MDS .        Operator Entered:  MAG DATA SOURCE
 BASE.              Azerbaijan:  LOGGING EQUIPMENT BASE LOCATION
 REGN.                   EESSA:  REGION
 PROV.                    Baku:  PROVINCE
 STAT.                    Baku:  STATE NAME
 MWDS.                    Baku:  MWD SHOP
 JOBN.        AZ-XX-0907115008:  JOB TICKET NUMB
 DOE .                     N/A:  DOE NUMBER
 DCON.         Sperry Drilling:  DIRECTNL CONTR
 UNIT.                     N/A:  LOGGING EQUIPMENT ID
 WTYP.                Deviated:  WELL TYPE
 CNTY.                        :  COUNTY
 LOC .                        :  LOCATION
 LMF .             Drill Floor:  LOG MEASURED FROM
 TVDS.m                  43.16:  TVDSS CORRECTN
 LATI.deg                40.17:  LATITUDE
 LONG.deg                51.17:  LONGITUDE
 WHNS.m                  10.51:  WELL HEAD N/S
 WHEW.m                 -14.82:  WELL HEAD E/W
 UTMX.m              514336.92:  UTM X
 UTMY.m             4448618.56:  UTM Y
 DFWL.m                   0.00:  DISTANCE FWL
 DFSL.m                   0.00:  DISTANCE FSL
 SDEP.m                 849.00:  START DEPTH
 TDD .m                2862.00:  TOTAL DEPTH (DRILLER)
 VSDR.deg               292.10:  VERT SEC DIRECT
 GVFD.g                   1.00:  GRAVITY FIELD
 MFLD.nT              50382.00:  MAGNETIC FIELD
 MDIP.deg                59.68:  MAGNETIC DIP
 MDEC.deg                 6.66:  MAGNETIC DECL
 GRDC.deg                 0.09:  GRID CORRECTION
 AZTC.deg                 6.57:  AZM TOTAL CORR
 EPD .m                   0.00:  ELEVATION
 EGL .m                   0.00:  GROUND ELEVATION
 WDMS.m                 176.20:  WD ELEV
 APD .m                  43.16:  DEPTH ABOVE PD
 DEP .m                 363.42:  DEPTH
 AGAP.m                  43.16:  AIR GAP
 VSEW.m                 -14.82:  VERT SEC E/W
 VSNS.m                  10.51:  VERT SEC N/S
 EKB .m                  43.16:  KB ELEVATION
 EDF .m                  43.16:  DF ELEVATION
 TDL .m                1390.00:  TOTAL DEPTH (LOGGER)
 VSC .                       0:  VS TO CLOSURE
 MAGU.                 1855871:  MAGUTM CHECKSUM
~Parameter Information Block
#MNEM.UNIT       Value        Description
#---------     -----------    ---------------------------
 AV  .mps                 2.28:  Ann Velocity 
 AVMX.mps                 2.67:  Max Ann Veloc 
 AZIF.deg               305.00:  Azm, Final 
 BHAT.        Rotary Steerable:  BHA Type 
 BROT.°/30m               0.45:  Build Rotating 
 BS  .in                 12.25:  Bit Size 
 BSZ .in                 12.25:  Bit Size 
 BTPL.psig              600.00:  Bit Press Loss 
 CABU.                     Yes:  Customer Abuse 
 COMM.                     $t:  Run Comments 1 
 TCS .hr                150.00:  Time Ciculation Ended 
 CV  .mps                 1.24:  Crit Velocity 
 CVMX.mps                 1.66:  Max Crit Veloc 
 DD1 .         Intigam Rahimov:  Direct Drillr 1 
 DD2 .            Azer Ravavov:  Direct Drillr 2 
 DD3 .              Samir Abas:  Direct Drillr 3 
 DDSV.               Geo-Pilot:  DD Service 
 DEFF.%                 100.00:  % Det Eff 
 DLRX.°/30m               1.57:  Dogleg Rot Max 
 DLSO.°/30m               0.00:  Dogleg Oriented 
 DLSX.°/30m               0.00:  Dogleg Str Max 
 DRET.      20.28.06 17-Sep-21:  Drill End Time 
 DRST.      20.27.35 10-Sep-21:  Drill Start Tim 
 DTIM.hr                 54.00:  Time Drilling 
 EDEP.m                5260.00:  End Depth 
 ENG1.      Bakhtiyar Jabbarli:  Engineer 1 
 ENG2.      Natik Hasanaghayev:  Engineer 2 
 ENG3.           Royal Nasirov:  Engineer 3 
 ETIM.      20.27.55 18-Sep-21:  End Time 
 FLOI.gpm              1100.00:  Flow In 
 FLON.gpm               800.00:  Flow In Min 
 FLOS.cptm                0.00:  Fluid Loss 
 FLOX.gpm              1200.00:  Flow In Max 
 DFT .        Mineral Oil Base:  Mud Type 
 HPRE.                      No:  High Pressure 
 HTEM.                      No:  High Temp 
 HYDO.m                   1.80:  Hydro Offset 
 IFIN.deg                72.31:  Inc, Final 
 IMAX.deg                72.36:  Inc Max 
 IMIN.deg                69.36:  Inc Min 
 IMND.m                4192.96:  Inc Min Depth 
 IMXD.m                5128.36:  Inc Max Depth 
 JARR.                      No:  Jarring 
 LETM.      20.29.00 17-Sep-21:  Log End Time 
 LOST.hr                     0:  Lost Rig Time 
 LSTM.      20.27.00 10-Sep-21:  Log Start Time 
 MDCL.ppm            227000.00:  Mud Chlorides 
 MDES.     Inversion Oil/Synthetic:  Mud Desc 
 DFD .sg                  1.45:  Mud Density 
 MDMN.sg                  1.45:  Dens Mud Min 
 MDMX.sg                  1.45:  Dens Mud Max 
 MOIL.                    70.5:  Run Mud Oil % 
 MOWR.                   71:29:  Run Mud OWR 
 MSND.                     0.3:  Run Mud Sand % 
 MSOL.                    19.8:  Run Mud Solids% 
 DFV .spqt               80.00:  Mud Viscosity 
 MWOD.in                  8.00:  MWD Tool OD 
 MWSI.                     Yes:  Serv Intrp, MWD 
 OTIM.hr                180.00:  Time Operating 
 PCON.           Look Like New:  Pad Condition 
 PMAX.psia             9910.94:  Press Op, Max 
 PV  .cP                 35.00:  Mud PV 
 RUN .                    1000:  Run Number 
 ROPA.m/hr               18.00:  ROP Avg 
 ROPN.m/hr                8.00:  ROP Min 
 ROPX.m/hr               23.00:  ROP Max 
 RPMA.rpm               150.00:  RPM Surface Avg 
 RPMN.rpm               120.00:  RPM Surface Min 
 RPMX.rpm               160.00:  RPM Surface Max 
 RRUN.                    L503:  Rig Run Number 
 RTIM.hr                  5.00:  Time Reaming 
 SAZI.deg               298.42:  Azm, Start 
 SDEP.m                3870.00:  Start Depth 
 SIDD.                      No:  Serv Intrp, DD 
 SINC.deg                69.57:  Inc, Start 
 SPPA.psig             5500.00:  SPP Avg 
 SPPN.psig             4400.00:  SPP Min 
 SPPX.psig             5800.00:  SPP Max 
 STIM.      15.29.39 09-Sep-21:  Start Time 
 SVCS.                 DD, MWD:  Services 
 SVER.                    9.20:  Sperry Version 
 TDAT.m                5260.00:  Tot Depth Attmp 
 TDDF.                      No:  Trip for DD 
 TDLG.m                1390.00:  Tot Depth Loggd 
 TFF .                      No:  Trip for Fail 
 TQAA.f-kp               22.00:  Torque Abs Avg 
 TQAN.f-kp               13.00:  Torque Abs Min 
 TQAX.f-kp               27.00:  Torque Abs Max 
 TRRT.°/30m               1.60:  Turn Rotating 
 MRT .                  EWR-M5:  Maximum Recorded Temperature 
 TTMX.degC               92.00:  Max Tool Temp 
 VS01.                12330975:  Virtual Str1 SN 
 VS02.                90658671:  Virtual Str2 SN 
 VS03.                90658508:  Virtual Str3 SN 
 VS04.                90660974:  Virtual Str4 SN 
 VS05.                90654675:  Virtual Str5 SN 
 WBMN.klb                15.00:  WOB Min 
 WITN.     Alexander Yadullayev:  Customer Rep 
 WITN.           Adil Mammadov:  Customer Rep 2 
 WOBA.klb                17.00:  WOB Avg 
 WOBX.klb                18.00:  WOB Max 
 YP  .lhf2               31.00:  Yield Point 
~Curve Information Block
#MNEM.UNIT                 API CODE     Curve Description
#---------               -----------    ---------------------------
 TIME.HHMMSS            00 000 000 000:  GT Time & Date
 GTDEPTH.m              00 000 000 000:  GT Depth
 GTPQH.psia             00 000 000 000:  GT HR Quartz Pressure
 GTTQ.degC              00 000 000 000:  GT Quartz Temperature
 GTTN.NONE              00 000 000 000:  GT Test Number
 GTET.sec               00 000 000 000:  GT Elapsed Test Time
 GTTVD.m                00 000 000 000:  GT True Vertical Depth
#Other Information
#
#WARRANTY: Halliburton will use its best efforts to furnish customers with 
#accurate information and interpretations that are part of, and incident to, the services 
#provided.  However, Halliburton cannot and does not warrant the accuracy 
#or correctness of such information and interpretations.  Under no circumstances should any 
#such information or interpretation be relied upon as the sole basis for any drilling, 
#completion, production, or financial decision or any procedure involving any risk to the 
#safety of any drilling venture, drilling rig or its crew or any other third party.  The 
#Customer has full responsibility for all drilling, completion and production operation.  
#Halliburton makes no representations or warranties, either expressed or 
#implied, including, but not limited to, the implied warranties of merchantability or fitness 
#for a particular purpose, with respect to the services rendered.  In no event will 
#Halliburton be liable for failure to obtain any particular results or for 
#any damages, including, but not limited to, indirect, special or consequential damages, 
#resulting from the use of any information or interpretation provided by Halliburton.
#
~A           TIME           GTDEPTH  GTPQH  GTTQ  GTTN  GTET   GTTVD  
# ...
   06:07:34.600.17-Sep-2021 5057.50 5543.45 79.71 6.00 252.95 2583.80
   06:07:34.800.17-Sep-2021 5057.50 5543.45 79.71 6.00 253.15 2583.80
   06:07:35.000.17-Sep-2021 5057.50 5541.44 79.71 6.00 253.35 2583.80
   06:07:35.200.17-Sep-2021 5057.50 5542.19 79.71 6.00 253.55 2583.80
   06:07:35.400.17-Sep-2021 5057.50 5541.35 79.71 6.00 253.75 2583.80
   06:07:35.600.17-Sep-2021 5057.50 5541.50 79.71 6.00 253.95 2583.80
   06:07:35.800.17-Sep-2021 5057.50 5541.50 79.71 6.00 254.15 2583.80
   06:07:36.000.17-Sep-2021 5057.50 5541.74 79.71 6.00 254.35 2583.80
   06:07:36.200.17-Sep-2021 5057.50 5541.83 79.71 6.00 254.55 2583.80
   06:07:36.400.17-Sep-2021 5057.50 5541.88 79.71 6.00 254.75 2583.80
   06:07:36.600.17-Sep-2021 5057.50 5542.10 79.71 6.00 254.95 2583.80
   06:07:36.800.17-Sep-2021 5057.50 5542.10 79.71 6.00 255.15 2583.80
   06:07:37.000.17-Sep-2021 5057.50 5542.41 79.71 6.00 255.35 2583.80
   06:07:37.200.17-Sep-2021 5057.50 5543.37 79.71 6.00 255.55 2583.80
   06:07:37.400.17-Sep-2021 5057.50 5543.52 79.71 6.00 255.75 2583.80
   06:07:37.600.17-Sep-2021 5057.50 5542.41 79.71 6.00 255.95 2583.80
   06:07:37.800.17-Sep-2021 5057.50 5542.41 79.71 6.00 256.15 2583.80
   06:07:38.000.17-Sep-2021 5057.50 5543.67 79.71 6.00 256.35 2583.80
   06:07:38.200.17-Sep-2021 5057.50 5542.35 79.71 6.00 256.55 2583.80
   06:07:38.400.17-Sep-2021 5057.50 5542.57 79.71 6.00 256.75 2583.80
   06:07:38.599.17-Sep-2021 5057.50 5542.07 79.71 6.00 256.95 2583.80
   06:07:38.799.17-Sep-2021 5057.50 5542.07 79.71 6.00 257.15 2583.80
   06:07:38.999.17-Sep-2021 5057.50 5541.85 79.70 6.00 257.35 2583.80
   06:07:39.199.17-Sep-2021 5057.50 5541.60 79.70 6.00 257.55 2583.80
   06:07:39.399.17-Sep-2021 5057.50 5541.88 79.70 6.00 257.75 2583.80
   06:07:39.599.17-Sep-2021 5057.50 5541.74 79.70 6.00 257.95 2583.80
   06:07:39.799.17-Sep-2021 5057.50 5541.74 79.70 6.00 258.14 2583.80
   06:07:39.999.17-Sep-2021 5057.50 5541.97 79.70 6.00 258.34 2583.80
   06:07:40.199.17-Sep-2021 5057.50 5542.10 79.70 6.00 258.54 2583.80
   06:07:40.399.17-Sep-2021 5057.50 5542.22 79.70 6.00 258.74 2583.80
   06:07:40.599.17-Sep-2021 5057.50 5542.48 79.70 6.00 258.94 2583.80
   06:07:40.799.17-Sep-2021 5057.50 5542.48 79.70 6.00 259.14 2583.80
   06:07:40.999.17-Sep-2021 5057.50 5542.07 79.70 6.00 259.34 2583.80
   06:07:41.199.17-Sep-2021 5057.50 5543.96 79.70 6.00 259.54 2583.80
   06:07:41.399.17-Sep-2021 5057.50 5542.82 79.70 6.00 259.74 2583.80
   06:07:41.599.17-Sep-2021 5057.50 5542.46 79.70 6.00 259.94 2583.80
   06:07:41.799.17-Sep-2021 5057.50 5542.46 79.70 6.00 260.14 2583.80
   06:07:41.999.17-Sep-2021 5057.50 5543.04 79.70 6.00 260.34 2583.80
   06:07:42.199.17-Sep-2021 5057.50 5542.78 79.70 6.00 260.54 2583.80
   06:07:42.399.17-Sep-2021 5057.50 5541.66 79.70 6.00 260.74 2583.80
   06:07:42.599.17-Sep-2021 5057.50 5542.61 79.70 6.00 260.94 2583.80
   06:07:42.799.17-Sep-2021 5057.50 5542.61 79.70 6.00 261.14 2583.80
   06:07:42.999.17-Sep-2021 5057.50 5542.26 79.70 6.00 261.34 2583.80
   06:07:43.198.17-Sep-2021 5057.50 5541.51 79.70 6.00 261.54 2583.80
   06:07:43.398.17-Sep-2021 5057.50 5542.49 79.70 6.00 261.74 2583.80
   06:07:43.598.17-Sep-2021 5057.50 5545.47 79.70 6.00 261.94 2583.80
   06:07:43.798.17-Sep-2021 5057.50 5545.47 79.70 6.00 262.14 2583.80
   06:07:43.998.17-Sep-2021 5057.50 5542.34 79.70 6.00 262.34 2583.80
   06:07:44.198.17-Sep-2021 5057.50 5542.09 79.70 6.00 262.54 2583.80
   06:07:44.398.17-Sep-2021 5057.50 5541.82 79.70 6.00 262.74 2583.80
   06:07:44.598.17-Sep-2021 5057.50 5541.45 79.70 6.00 262.94 2583.80
   06:07:44.798.17-Sep-2021 5057.50 5541.45 79.70 6.00 263.14 2583.80
   06:07:44.998.17-Sep-2021 5057.50 5541.34 79.69 6.00 263.34 2583.80
   06:07:45.198.17-Sep-2021 5057.50 5541.18 79.69 6.00 263.54 2583.80
   06:07:45.398.17-Sep-2021 5057.50 5541.54 79.69 6.00 263.74 2583.80
   06:07:45.598.17-Sep-2021 5057.50 5541.50 79.69 6.00 263.94 2583.80
   06:07:45.798.17-Sep-2021 5057.50 5541.50 79.69 6.00 264.14 2583.80
   06:07:45.998.17-Sep-2021 5057.50 5541.65 79.69 6.00 264.34 2583.80
   06:07:46.198.17-Sep-2021 5057.50 5541.94 79.69 6.00 264.54 2583.80
   06:07:46.398.17-Sep-2021 5057.50 5542.11 79.69 6.00 264.74 2583.80
   06:07:46.598.17-Sep-2021 5057.50 5542.07 79.69 6.00 264.94 2583.80
   06:07:46.798.17-Sep-2021 5057.50 5542.07 79.69 6.00 265.14 2583.80
   06:07:46.998.17-Sep-2021 5057.50 5542.00 79.69 6.00 265.34 2583.80
   06:07:47.198.17-Sep-2021 5057.50 5543.87 79.69 6.00 265.54 2583.80
   06:07:47.398.17-Sep-2021 5057.50 5542.59 79.69 6.00 265.74 2583.80
   06:07:47.598.17-Sep-2021 5057.50 5542.30 79.69 6.00 265.94 2583.80
   06:07:47.797.17-Sep-2021 5057.50 5542.30 79.69 6.00 266.14 2583.80
   06:07:47.997.17-Sep-2021 5057.50 5541.86 79.69 6.00 266.34 2583.80
   06:07:48.197.17-Sep-2021 5057.50 5541.78 79.69 6.00 266.54 2583.80
   06:07:48.397.17-Sep-2021 5057.50 5541.67 79.69 6.00 266.74 2583.80
   06:07:48.597.17-Sep-2021 5057.50 5541.47 79.69 6.00 266.94 2583.80
   06:07:48.797.17-Sep-2021 5057.50 5541.47 79.69 6.00 267.14 2583.80
   06:07:48.997.17-Sep-2021 5057.50 5541.54 79.69 6.00 267.34 2583.80
   06:07:49.197.17-Sep-2021 5057.50 5541.65 79.69 6.00 267.54 2583.80
   06:07:49.397.17-Sep-2021 5057.50 5541.66 79.69 6.00 267.74 2583.80
   06:07:49.597.17-Sep-2021 5057.50 5541.93 79.69 6.00 267.94 2583.80
   06:07:49.797.17-Sep-2021 5057.50 5541.93 79.69 6.00 268.14 2583.80
   06:07:49.997.17-Sep-2021 5057.50 5542.20 79.69 6.00 268.34 2583.80
   06:07:50.197.17-Sep-2021 5057.50 5545.69 79.69 6.00 268.54 2583.80
   06:07:50.397.17-Sep-2021 5057.50 5540.55 79.69 6.00 268.74 2583.80
   06:07:50.597.17-Sep-2021 5057.50 5544.00 79.68 6.00 268.94 2583.80
   06:07:50.797.17-Sep-2021 5057.50 5544.00 79.68 6.00 269.14 2583.80
   06:07:50.997.17-Sep-2021 5057.50 5542.52 79.68 6.00 269.34 2583.80
   06:07:51.197.17-Sep-2021 5057.50 5542.74 79.68 6.00 269.54 2583.80
   06:07:51.397.17-Sep-2021 5057.50 5542.87 79.68 6.00 269.74 2583.80
   06:07:51.597.17-Sep-2021 5057.50 5542.70 79.68 6.00 269.94 2583.80
   06:07:51.797.17-Sep-2021 5057.50 5542.70 79.68 6.00 270.14 2583.80
   06:07:51.997.17-Sep-2021 5057.50 5542.51 79.68 6.00 270.34 2583.80
   06:07:52.197.17-Sep-2021 5057.50 5541.98 79.68 6.00 270.54 2583.80
   06:07:52.397.17-Sep-2021 5057.50 5543.88 79.68 6.00 270.74 2583.80
   06:07:52.596.17-Sep-2021 5057.50 5541.27 79.68 6.00 270.94 2583.80
   06:07:52.796.17-Sep-2021 5057.50 5541.27 79.68 6.00 271.14 2583.80
   06:07:52.996.17-Sep-2021 5057.50 5541.61 79.68 6.00 271.34 2583.80
   06:07:53.196.17-Sep-2021 5057.50 5541.23 79.68 6.00 271.54 2583.80
   06:07:53.396.17-Sep-2021 5057.50 5545.42 79.68 6.00 271.74 2583.80
   06:07:53.596.17-Sep-2021 5057.50 5539.48 79.68 6.00 271.94 2583.80
   06:07:53.796.17-Sep-2021 5057.50 5539.48 79.68 6.00 272.14 2583.80
   06:07:53.996.17-Sep-2021 5057.50 5541.21 79.68 6.00 272.34 2583.80
   06:07:54.196.17-Sep-2021 5057.50 5541.25 79.68 6.00 272.54 2583.80
   06:07:54.396.17-Sep-2021 5057.50 5541.51 79.68 6.00 272.74 2583.80
   06:07:54.596.17-Sep-2021 5057.50 5541.06 79.68 6.00 272.94 2583.80
   06:07:54.796.17-Sep-2021 5057.50 5541.06 79.68 6.00 273.14 2583.80
   06:07:54.996.17-Sep-2021 5057.50 5541.28 79.68 6.00 273.34 2583.80
   06:07:55.196.17-Sep-2021 5057.50 5541.58 79.68 6.00 273.54 2583.80
   06:07:55.396.17-Sep-2021 5057.50 5541.51 79.68 6.00 273.74 2583.80
   06:07:55.596.17-Sep-2021 5057.50 5541.97 79.68 6.00 273.94 2583.80
   06:07:55.796.17-Sep-2021 5057.50 5541.97 79.68 6.00 274.14 2583.80
   06:07:55.996.17-Sep-2021 5057.50 5541.89 79.68 6.00 274.34 2583.80
   06:07:56.196.17-Sep-2021 5057.50 5542.14 79.68 6.00 274.54 2583.80
   06:07:56.396.17-Sep-2021 5057.50 5543.02 79.67 6.00 274.74 2583.80
   06:07:56.596.17-Sep-2021 5057.50 5543.54 79.67 6.00 274.94 2583.80
   06:07:56.796.17-Sep-2021 5057.50 5543.54 79.67 6.00 275.14 2583.80
   06:07:56.996.17-Sep-2021 5057.50 5543.54 79.67 6.00 275.34 2583.80
   06:07:57.195.17-Sep-2021 5057.50 5542.79 79.67 6.00 275.54 2583.80
   06:07:57.395.17-Sep-2021 5057.50 5541.91 79.67 6.00 275.74 2583.80
