~Version Information
 VERS.                  2.0:   CWLS log ASCII Standard -VERSION 2.0
 WRAP.                   NO:   One line per depth step
~Well Information Block
#MNEM.UNIT     VALUE/NAME     DESCRIPTION
#---------     -----------    ---------------------------
 STRT.S             11:33:10 17-Sep-21: START TIME 11:33:10 17-Sep-21
 STOP.S             11:40:20 17-Sep-21: STOP TIME  11:40:20 17-Sep-21
 STEP.S                   0.00: STEP TIME
 NULL.                 -999.25: NULL VALUE
 DFWT.                        :  DIST FWL TEXT
 DFST.                        :  DIST FSL TEXT
 DMF .             Drill Floor:  DRILL MEAS FROM
 STIM.      10.59.12 05-Jul-21:  START TIME
 DATE.      10.59.12 10-Sep-21:  END TIME
 SPUD.               05-Jul-21:  SPUD DATE
 NREF.                    Grid:  NORTH REFERENCE
 HPTY.       Minimum Curvature:  HOLE POS TYPE
 DMOD.             Drill Model:  DRILL MOD DESC
 SVYD.                  Survey:  SURVEY DESC
 ILTD.               Lithology:  INTERP LTH DESC
 FTOP.          Formation Tops:  FORM TOPS DESC
 RIG .                     DWG:  RIG NAME
 PDAT.          Mean Sea Level:  PERMANENT DATUM
 FLD .                     ACG:  FIELD NAME
 SON .        AZ-XX-0907115008:  JOB NUMBER
 CTRY.              Azerbaijan:  COUNTRY NAME
 WELL.                    E35A:  WELL NAME
 SRVC.          TURAN DRILLING:  CONTRACTOR
 COMP.     BP Exploration (Caspian Sea LTD):  COMPANY
 UWI .                     N/A:  UNIQUE WELL IDENTIFIER
 API .                     N/A:  API NUMBER
 MDS .        Operator Entered:  MAG DATA SOURCE
 BASE.              Azerbaijan:  LOGGING EQUIPMENT BASE LOCATION
 REGN.                   EESSA:  REGION
 PROV.                    Baku:  PROVINCE
 STAT.                    Baku:  STATE NAME
 MWDS.                    Baku:  MWD SHOP
 JOBN.        AZ-XX-0907115008:  JOB TICKET NUMB
 DOE .                     N/A:  DOE NUMBER
 DCON.         Sperry Drilling:  DIRECTNL CONTR
 UNIT.                     N/A:  LOGGING EQUIPMENT ID
 WTYP.                Deviated:  WELL TYPE
 CNTY.                        :  COUNTY
 LOC .                        :  LOCATION
 LMF .             Drill Floor:  LOG MEASURED FROM
 TVDS.m                  43.16:  TVDSS CORRECTN
 LATI.deg                40.17:  LATITUDE
 LONG.deg                51.17:  LONGITUDE
 WHNS.m                  10.51:  WELL HEAD N/S
 WHEW.m                 -14.82:  WELL HEAD E/W
 UTMX.m              514336.92:  UTM X
 UTMY.m             4448618.56:  UTM Y
 DFWL.m                   0.00:  DISTANCE FWL
 DFSL.m                   0.00:  DISTANCE FSL
 SDEP.m                 849.00:  START DEPTH
 TDD .m                2862.00:  TOTAL DEPTH (DRILLER)
 VSDR.deg               292.10:  VERT SEC DIRECT
 GVFD.g                   1.00:  GRAVITY FIELD
 MFLD.nT              50382.00:  MAGNETIC FIELD
 MDIP.deg                59.68:  MAGNETIC DIP
 MDEC.deg                 6.66:  MAGNETIC DECL
 GRDC.deg                 0.09:  GRID CORRECTION
 AZTC.deg                 6.57:  AZM TOTAL CORR
 EPD .m                   0.00:  ELEVATION
 EGL .m                   0.00:  GROUND ELEVATION
 WDMS.m                 176.20:  WD ELEV
 APD .m                  43.16:  DEPTH ABOVE PD
 DEP .m                 363.42:  DEPTH
 AGAP.m                  43.16:  AIR GAP
 VSEW.m                 -14.82:  VERT SEC E/W
 VSNS.m                  10.51:  VERT SEC N/S
 EKB .m                  43.16:  KB ELEVATION
 EDF .m                  43.16:  DF ELEVATION
 TDL .m                1390.00:  TOTAL DEPTH (LOGGER)
 VSC .                       0:  VS TO CLOSURE
 MAGU.                 1855871:  MAGUTM CHECKSUM
~Parameter Information Block
#MNEM.UNIT       Value        Description
#---------     -----------    ---------------------------
 AV  .mps                 2.28:  Ann Velocity 
 AVMX.mps                 2.67:  Max Ann Veloc 
 AZIF.deg               305.00:  Azm, Final 
 BHAT.        Rotary Steerable:  BHA Type 
 BROT.°/30m               0.45:  Build Rotating 
 BS  .in                 12.25:  Bit Size 
 BSZ .in                 12.25:  Bit Size 
 BTPL.psig              600.00:  Bit Press Loss 
 CABU.                     Yes:  Customer Abuse 
 COMM.                     Á~:  Run Comments 1 
 TCS .hr                150.00:  Time Ciculation Ended 
 CV  .mps                 1.24:  Crit Velocity 
 CVMX.mps                 1.66:  Max Crit Veloc 
 DD1 .         Intigam Rahimov:  Direct Drillr 1 
 DD2 .            Azer Ravavov:  Direct Drillr 2 
 DD3 .              Samir Abas:  Direct Drillr 3 
 DDSV.               Geo-Pilot:  DD Service 
 DEFF.%                 100.00:  % Det Eff 
 DLRX.°/30m               1.57:  Dogleg Rot Max 
 DLSO.°/30m               0.00:  Dogleg Oriented 
 DLSX.°/30m               0.00:  Dogleg Str Max 
 DRET.      20.28.06 17-Sep-21:  Drill End Time 
 DRST.      20.27.35 10-Sep-21:  Drill Start Tim 
 DTIM.hr                 54.00:  Time Drilling 
 EDEP.m                5260.00:  End Depth 
 ENG1.      Bakhtiyar Jabbarli:  Engineer 1 
 ENG2.      Natik Hasanaghayev:  Engineer 2 
 ENG3.           Royal Nasirov:  Engineer 3 
 ETIM.      20.27.55 18-Sep-21:  End Time 
 FLOI.gpm              1100.00:  Flow In 
 FLON.gpm               800.00:  Flow In Min 
 FLOS.cptm                0.00:  Fluid Loss 
 FLOX.gpm              1200.00:  Flow In Max 
 DFT .        Mineral Oil Base:  Mud Type 
 HPRE.                      No:  High Pressure 
 HTEM.                      No:  High Temp 
 HYDO.m                   1.80:  Hydro Offset 
 IFIN.deg                72.31:  Inc, Final 
 IMAX.deg                72.36:  Inc Max 
 IMIN.deg                69.36:  Inc Min 
 IMND.m                4192.96:  Inc Min Depth 
 IMXD.m                5128.36:  Inc Max Depth 
 JARR.                      No:  Jarring 
 LETM.      20.29.00 17-Sep-21:  Log End Time 
 LOST.hr                     0:  Lost Rig Time 
 LSTM.      20.27.00 10-Sep-21:  Log Start Time 
 MDCL.ppm            227000.00:  Mud Chlorides 
 MDES.     Inversion Oil/Synthetic:  Mud Desc 
 DFD .sg                  1.45:  Mud Density 
 MDMN.sg                  1.45:  Dens Mud Min 
 MDMX.sg                  1.45:  Dens Mud Max 
 MOIL.                    70.5:  Run Mud Oil % 
 MOWR.                   71:29:  Run Mud OWR 
 MSND.                     0.3:  Run Mud Sand % 
 MSOL.                    19.8:  Run Mud Solids% 
 DFV .spqt               80.00:  Mud Viscosity 
 MWOD.in                  8.00:  MWD Tool OD 
 MWSI.                     Yes:  Serv Intrp, MWD 
 OTIM.hr                180.00:  Time Operating 
 PCON.           Look Like New:  Pad Condition 
 PMAX.psia             9910.94:  Press Op, Max 
 PV  .cP                 35.00:  Mud PV 
 RUN .                    1000:  Run Number 
 ROPA.m/hr               18.00:  ROP Avg 
 ROPN.m/hr                8.00:  ROP Min 
 ROPX.m/hr               23.00:  ROP Max 
 RPMA.rpm               150.00:  RPM Surface Avg 
 RPMN.rpm               120.00:  RPM Surface Min 
 RPMX.rpm               160.00:  RPM Surface Max 
 RRUN.                    L503:  Rig Run Number 
 RTIM.hr                  5.00:  Time Reaming 
 SAZI.deg               298.42:  Azm, Start 
 SDEP.m                3870.00:  Start Depth 
 SIDD.                      No:  Serv Intrp, DD 
 SINC.deg                69.57:  Inc, Start 
 SPPA.psig             5500.00:  SPP Avg 
 SPPN.psig             4400.00:  SPP Min 
 SPPX.psig             5800.00:  SPP Max 
 STIM.      15.29.39 09-Sep-21:  Start Time 
 SVCS.                 DD, MWD:  Services 
 SVER.                    9.20:  Sperry Version 
 TDAT.m                5260.00:  Tot Depth Attmp 
 TDDF.                      No:  Trip for DD 
 TDLG.m                1390.00:  Tot Depth Loggd 
 TFF .                      No:  Trip for Fail 
 TQAA.f-kp               22.00:  Torque Abs Avg 
 TQAN.f-kp               13.00:  Torque Abs Min 
 TQAX.f-kp               27.00:  Torque Abs Max 
 TRRT.°/30m               1.60:  Turn Rotating 
 MRT .                  EWR-M5:  Maximum Recorded Temperature 
 TTMX.degC               92.00:  Max Tool Temp 
 VS01.                12330975:  Virtual Str1 SN 
 VS02.                90658671:  Virtual Str2 SN 
 VS03.                90658508:  Virtual Str3 SN 
 VS04.                90660974:  Virtual Str4 SN 
 VS05.                90654675:  Virtual Str5 SN 
 WBMN.klb                15.00:  WOB Min 
 WITN.     Alexander Yadullayev:  Customer Rep 
 WITN.           Adil Mammadov:  Customer Rep 2 
 WOBA.klb                17.00:  WOB Avg 
 WOBX.klb                18.00:  WOB Max 
 YP  .lhf2               31.00:  Yield Point 
~Curve Information Block
#MNEM.UNIT                 API CODE     Curve Description
#---------               -----------    ---------------------------
 TIME.HHMMSS            00 000 000 000:  GT Time & Date
 GTDEPTH.m              00 000 000 000:  GT Depth
 GTPQH.psia             00 000 000 000:  GT HR Quartz Pressure
 GTTQ.degC              00 000 000 000:  GT Quartz Temperature
 GTTN.NONE              00 000 000 000:  GT Test Number
 GTET.sec               00 000 000 000:  GT Elapsed Test Time
 GTTVD.m                00 000 000 000:  GT True Vertical Depth
#Other Information
#
#WARRANTY: Halliburton will use its best efforts to furnish customers with 
#accurate information and interpretations that are part of, and incident to, the services 
#provided.  However, Halliburton cannot and does not warrant the accuracy 
#or correctness of such information and interpretations.  Under no circumstances should any 
#such information or interpretation be relied upon as the sole basis for any drilling, 
#completion, production, or financial decision or any procedure involving any risk to the 
#safety of any drilling venture, drilling rig or its crew or any other third party.  The 
#Customer has full responsibility for all drilling, completion and production operation.  
#Halliburton makes no representations or warranties, either expressed or 
#implied, including, but not limited to, the implied warranties of merchantability or fitness 
#for a particular purpose, with respect to the services rendered.  In no event will 
#Halliburton be liable for failure to obtain any particular results or for 
#any damages, including, but not limited to, indirect, special or consequential damages, 
#resulting from the use of any information or interpretation provided by Halliburton.
#
~A           TIME           GTDEPTH  GTPQH  GTTQ  GTTN  GTET   GTTVD  
# ...
   11:33:56.750.17-Sep-2021 4887.00 5440.33 77.31 9.00  46.01 2528.65
   11:33:56.950.17-Sep-2021 4887.00 5440.33 77.31 9.00  46.21 2528.65
   11:33:57.150.17-Sep-2021 4887.00 5437.06 77.31 9.00  46.41 2528.65
   11:33:57.350.17-Sep-2021 4887.00 5437.03 77.31 9.00  46.61 2528.65
   11:33:57.550.17-Sep-2021 4887.00 5438.08 77.31 9.00  46.81 2528.65
   11:33:57.750.17-Sep-2021 4887.00 5439.43 77.31 9.00  47.01 2528.65
   11:33:57.950.17-Sep-2021 4887.00 5439.43 77.31 9.00  47.21 2528.65
   11:33:58.150.17-Sep-2021 4887.00 5437.25 77.31 9.00  47.41 2528.65
   11:33:58.351.17-Sep-2021 4887.00 5437.42 77.31 9.00  47.61 2528.65
   11:33:58.551.17-Sep-2021 4887.00 5438.56 77.31 9.00  47.81 2528.65
   11:33:58.751.17-Sep-2021 4887.00 5437.19 77.30 9.00  48.01 2528.65
   11:33:58.951.17-Sep-2021 4887.00 5437.19 77.30 9.00  48.21 2528.65
   11:33:59.151.17-Sep-2021 4887.00 5437.80 77.30 9.00  48.41 2528.65
   11:33:59.351.17-Sep-2021 4887.00 5437.54 77.30 9.00  48.61 2528.65
   11:33:59.551.17-Sep-2021 4887.00 5436.91 77.30 9.00  48.81 2528.65
   11:33:59.751.17-Sep-2021 4887.00 5436.73 77.30 9.00  49.01 2528.65
   11:33:59.951.17-Sep-2021 4887.00 5436.73 77.30 9.00  49.21 2528.65
   11:34:00.151.17-Sep-2021 4887.00 5437.23 77.30 9.00  49.41 2528.65
   11:34:00.351.17-Sep-2021 4887.00 5436.86 77.30 9.00  49.61 2528.65
   11:34:00.551.17-Sep-2021 4887.00 5436.71 77.30 9.00  49.81 2528.65
   11:34:00.751.17-Sep-2021 4887.00 5440.06 77.30 9.00  50.01 2528.65
   11:34:00.951.17-Sep-2021 4887.00 5440.06 77.30 9.00  50.21 2528.65
   11:34:01.151.17-Sep-2021 4887.00 5436.94 77.30 9.00  50.41 2528.65
   11:34:01.351.17-Sep-2021 4887.00 5436.69 77.30 9.00  50.61 2528.65
   11:34:01.551.17-Sep-2021 4887.00 5437.84 77.30 9.00  50.81 2528.65
   11:34:01.751.17-Sep-2021 4887.00 5437.26 77.30 9.00  51.01 2528.65
   11:34:01.951.17-Sep-2021 4887.00 5437.26 77.30 9.00  51.21 2528.65
   11:34:02.151.17-Sep-2021 4887.00 5437.31 77.30 9.00  51.41 2528.65
   11:34:02.351.17-Sep-2021 4887.00 5437.20 77.30 9.00  51.61 2528.65
   11:34:02.551.17-Sep-2021 4887.00 5437.16 77.30 9.00  51.81 2528.65
   11:34:02.751.17-Sep-2021 4887.00 5436.95 77.30 9.00  52.01 2528.65
   11:34:02.951.17-Sep-2021 4887.00 5436.95 77.30 9.00  52.21 2528.65
   11:34:03.151.17-Sep-2021 4887.00 5437.02 77.30 9.00  52.41 2528.65
   11:34:03.351.17-Sep-2021 4887.00 5436.98 77.30 9.00  52.61 2528.65
   11:34:03.551.17-Sep-2021 4887.00 5436.88 77.30 9.00  52.81 2528.65
   11:34:03.751.17-Sep-2021 4887.00 5436.77 77.30 9.00  53.01 2528.65
   11:34:03.951.17-Sep-2021 4887.00 5436.77 77.30 9.00  53.21 2528.65
   11:34:04.151.17-Sep-2021 4887.00 5437.92 77.30 9.00  53.41 2528.65
   11:34:04.351.17-Sep-2021 4887.00 5437.16 77.30 9.00  53.61 2528.65
   11:34:04.551.17-Sep-2021 4887.00 5436.79 77.30 9.00  53.81 2528.65
   11:34:04.751.17-Sep-2021 4887.00 5436.58 77.30 9.00  54.01 2528.65
   11:34:04.951.17-Sep-2021 4887.00 5436.58 77.30 9.00  54.21 2528.65
   11:34:05.151.17-Sep-2021 4887.00 5438.91 77.30 9.00  54.41 2528.65
   11:34:05.351.17-Sep-2021 4887.00 5437.67 77.30 9.00  54.61 2528.65
   11:34:05.551.17-Sep-2021 4887.00 5437.06 77.30 9.00  54.81 2528.65
   11:34:05.751.17-Sep-2021 4887.00 5436.98 77.30 9.00  55.01 2528.65
   11:34:05.951.17-Sep-2021 4887.00 5436.98 77.30 9.00  55.21 2528.65
   11:34:06.151.17-Sep-2021 4887.00 5439.14 77.30 9.00  55.41 2528.65
   11:34:06.351.17-Sep-2021 4887.00 5437.67 77.30 9.00  55.61 2528.65
   11:34:06.551.17-Sep-2021 4887.00 5437.16 77.30 9.00  55.81 2528.65
   11:34:06.751.17-Sep-2021 4887.00 5437.13 77.30 9.00  56.01 2528.65
   11:34:06.951.17-Sep-2021 4887.00 5437.13 77.30 9.00  56.21 2528.65
   11:34:07.151.17-Sep-2021 4887.00 5437.58 77.30 9.00  56.41 2528.65
   11:34:07.351.17-Sep-2021 4887.00 5439.46 77.30 9.00  56.61 2528.65
   11:34:07.552.17-Sep-2021 4887.00 5437.24 77.30 9.00  56.81 2528.65
   11:34:07.752.17-Sep-2021 4887.00 5437.27 77.30 9.00  57.01 2528.65
   11:34:07.952.17-Sep-2021 4887.00 5437.27 77.30 9.00  57.21 2528.65
   11:34:08.152.17-Sep-2021 4887.00 5437.81 77.30 9.00  57.41 2528.65
   11:34:08.352.17-Sep-2021 4887.00 5437.17 77.30 9.00  57.61 2528.65
   11:34:08.552.17-Sep-2021 4887.00 5437.15 77.30 9.00  57.81 2528.65
   11:34:08.752.17-Sep-2021 4887.00 5437.33 77.30 9.00  58.01 2528.65
   11:34:08.952.17-Sep-2021 4887.00 5437.33 77.30 9.00  58.21 2528.65
   11:34:09.152.17-Sep-2021 4887.00 5436.96 77.30 9.00  58.41 2528.65
   11:34:09.352.17-Sep-2021 4887.00 5437.21 77.30 9.00  58.61 2528.65
   11:34:09.552.17-Sep-2021 4887.00 5437.50 77.30 9.00  58.81 2528.65
   11:34:09.752.17-Sep-2021 4887.00 5437.53 77.30 9.00  59.01 2528.65
   11:34:09.952.17-Sep-2021 4887.00 5437.53 77.30 9.00  59.21 2528.65
   11:34:10.152.17-Sep-2021 4887.00 5437.41 77.30 9.00  59.41 2528.65
   11:34:10.352.17-Sep-2021 4887.00 5440.76 77.30 9.00  59.61 2528.65
   11:34:10.552.17-Sep-2021 4887.00 5436.56 77.30 9.00  59.81 2528.65
   11:34:10.752.17-Sep-2021 4887.00 5437.76 77.30 9.00  60.01 2528.65
   11:34:10.952.17-Sep-2021 4887.00 5437.76 77.30 9.00  60.21 2528.65
   11:34:11.152.17-Sep-2021 4887.00 5438.36 77.30 9.00  60.41 2528.65
   11:34:11.352.17-Sep-2021 4887.00 5437.65 77.30 9.00  60.61 2528.65
   11:34:11.552.17-Sep-2021 4887.00 5437.51 77.30 9.00  60.81 2528.65
   11:34:11.752.17-Sep-2021 4887.00 5437.78 77.30 9.00  61.01 2528.65
   11:34:11.952.17-Sep-2021 4887.00 5437.78 77.30 9.00  61.21 2528.65
   11:34:12.152.17-Sep-2021 4887.00 5437.39 77.30 9.00  61.41 2528.65
   11:34:12.352.17-Sep-2021 4887.00 5437.28 77.30 9.00  61.61 2528.65
   11:34:12.552.17-Sep-2021 4887.00 5437.45 77.30 9.00  61.81 2528.65
   11:34:12.752.17-Sep-2021 4887.00 5437.66 77.30 9.00  62.01 2528.65
   11:34:12.952.17-Sep-2021 4887.00 5437.66 77.30 9.00  62.21 2528.65
   11:34:13.152.17-Sep-2021 4887.00 5437.55 77.30 9.00  62.41 2528.65
   11:34:13.352.17-Sep-2021 4887.00 5437.49 77.30 9.00  62.61 2528.65
   11:34:13.552.17-Sep-2021 4887.00 5437.72 77.30 9.00  62.81 2528.65
   11:34:13.752.17-Sep-2021 4887.00 5438.99 77.29 9.00  63.01 2528.65
   11:34:13.952.17-Sep-2021 4887.00 5438.99 77.29 9.00  63.21 2528.65
   11:34:14.152.17-Sep-2021 4887.00 5437.98 77.29 9.00  63.41 2528.65
   11:34:14.352.17-Sep-2021 4887.00 5437.63 77.29 9.00  63.61 2528.65
   11:34:14.552.17-Sep-2021 4887.00 5437.99 77.29 9.00  63.81 2528.65
   11:34:14.752.17-Sep-2021 4887.00 5439.67 77.29 9.00  64.01 2528.65
   11:34:14.952.17-Sep-2021 4887.00 5439.67 77.29 9.00  64.21 2528.65
   11:34:15.152.17-Sep-2021 4887.00 5437.85 77.29 9.00  64.41 2528.65
   11:34:15.352.17-Sep-2021 4887.00 5437.44 77.29 9.00  64.61 2528.65
   11:34:15.552.17-Sep-2021 4887.00 5437.83 77.29 9.00  64.81 2528.65
   11:34:15.752.17-Sep-2021 4887.00 5438.00 77.29 9.00  65.01 2528.65
   11:34:15.952.17-Sep-2021 4887.00 5438.00 77.29 9.00  65.21 2528.65
   11:34:16.152.17-Sep-2021 4887.00 5437.42 77.29 9.00  65.41 2528.65
   11:34:16.352.17-Sep-2021 4887.00 5437.33 77.29 9.00  65.61 2528.65
   11:34:16.553.17-Sep-2021 4887.00 5437.19 77.29 9.00  65.81 2528.65
   11:34:16.753.17-Sep-2021 4887.00 5439.33 77.29 9.00  66.01 2528.65
   11:34:16.953.17-Sep-2021 4887.00 5439.33 77.29 9.00  66.21 2528.65
   11:34:17.153.17-Sep-2021 4887.00 5437.37 77.29 9.00  66.41 2528.65
   11:34:17.353.17-Sep-2021 4887.00 5437.14 77.29 9.00  66.61 2528.65
   11:34:17.553.17-Sep-2021 4887.00 5437.43 77.29 9.00  66.81 2528.65
   11:34:17.753.17-Sep-2021 4887.00 5437.56 77.29 9.00  67.01 2528.65
   11:34:17.953.17-Sep-2021 4887.00 5437.56 77.29 9.00  67.21 2528.65
   11:34:18.153.17-Sep-2021 4887.00 5437.35 77.29 9.00  67.41 2528.65
   11:34:18.353.17-Sep-2021 4887.00 5437.59 77.29 9.00  67.61 2528.65
   11:34:18.553.17-Sep-2021 4887.00 5437.17 77.29 9.00  67.81 2528.65
   11:34:18.753.17-Sep-2021 4887.00 5437.02 77.29 9.00  68.01 2528.65
   11:34:18.953.17-Sep-2021 4887.00 5437.02 77.29 9.00  68.21 2528.65
   11:34:19.153.17-Sep-2021 4887.00 5437.61 77.29 9.00  68.41 2528.65
   11:34:19.353.17-Sep-2021 4887.00 5437.61 77.29 9.00  68.61 2528.65
   11:34:19.553.17-Sep-2021 4887.00 5437.48 77.29 9.00  68.81 2528.65
