~Version Information
 VERS.                  2.0:   CWLS log ASCII Standard -VERSION 2.0
 WRAP.                   NO:   One line per depth step
~Well Information Block
#MNEM.UNIT     VALUE/NAME     DESCRIPTION
#---------     -----------    ---------------------------
 STRT.S             11:33:10 17-Sep-21: START TIME 11:33:10 17-Sep-21
 STOP.S             11:40:20 17-Sep-21: STOP TIME  11:40:20 17-Sep-21
 STEP.S                   0.00: STEP TIME
 NULL.                 -999.25: NULL VALUE
 DFWT.                        :  DIST FWL TEXT
 DFST.                        :  DIST FSL TEXT
 DMF .             Drill Floor:  DRILL MEAS FROM
 STIM.      10.59.12 05-Jul-21:  START TIME
 DATE.      10.59.12 10-Sep-21:  END TIME
 SPUD.               05-Jul-21:  SPUD DATE
 NREF.                    Grid:  NORTH REFERENCE
 HPTY.       Minimum Curvature:  HOLE POS TYPE
 DMOD.             Drill Model:  DRILL MOD DESC
 SVYD.                  Survey:  SURVEY DESC
 ILTD.               Lithology:  INTERP LTH DESC
 FTOP.          Formation Tops:  FORM TOPS DESC
 RIG .                     DWG:  RIG NAME
 PDAT.          Mean Sea Level:  PERMANENT DATUM
 FLD .                     ACG:  FIELD NAME
 SON .        AZ-XX-0907115008:  JOB NUMBER
 CTRY.              Azerbaijan:  COUNTRY NAME
 WELL.                    E35A:  WELL NAME
 SRVC.          TURAN DRILLING:  CONTRACTOR
 COMP.     BP Exploration (Caspian Sea LTD):  COMPANY
 UWI .                     N/A:  UNIQUE WELL IDENTIFIER
 API .                     N/A:  API NUMBER
 MDS .        Operator Entered:  MAG DATA SOURCE
 BASE.              Azerbaijan:  LOGGING EQUIPMENT BASE LOCATION
 REGN.                   EESSA:  REGION
 PROV.                    Baku:  PROVINCE
 STAT.                    Baku:  STATE NAME
 MWDS.                    Baku:  MWD SHOP
 JOBN.        AZ-XX-0907115008:  JOB TICKET NUMB
 DOE .                     N/A:  DOE NUMBER
 DCON.         Sperry Drilling:  DIRECTNL CONTR
 UNIT.                     N/A:  LOGGING EQUIPMENT ID
 WTYP.                Deviated:  WELL TYPE
 CNTY.                        :  COUNTY
 LOC .                        :  LOCATION
 LMF .             Drill Floor:  LOG MEASURED FROM
 TVDS.m                  43.16:  TVDSS CORRECTN
 LATI.deg                40.17:  LATITUDE
 LONG.deg                51.17:  LONGITUDE
 WHNS.m                  10.51:  WELL HEAD N/S
 WHEW.m                 -14.82:  WELL HEAD E/W
 UTMX.m              514336.92:  UTM X
 UTMY.m             4448618.56:  UTM Y
 DFWL.m                   0.00:  DISTANCE FWL
 DFSL.m                   0.00:  DISTANCE FSL
 SDEP.m                 849.00:  START DEPTH
 TDD .m                2862.00:  TOTAL DEPTH (DRILLER)
 VSDR.deg               292.10:  VERT SEC DIRECT
 GVFD.g                   1.00:  GRAVITY FIELD
 MFLD.nT              50382.00:  MAGNETIC FIELD
 MDIP.deg                59.68:  MAGNETIC DIP
 MDEC.deg                 6.66:  MAGNETIC DECL
 GRDC.deg                 0.09:  GRID CORRECTION
 AZTC.deg                 6.57:  AZM TOTAL CORR
 EPD .m                   0.00:  ELEVATION
 EGL .m                   0.00:  GROUND ELEVATION
 WDMS.m                 176.20:  WD ELEV
 APD .m                  43.16:  DEPTH ABOVE PD
 DEP .m                 363.42:  DEPTH
 AGAP.m                  43.16:  AIR GAP
 VSEW.m                 -14.82:  VERT SEC E/W
 VSNS.m                  10.51:  VERT SEC N/S
 EKB .m                  43.16:  KB ELEVATION
 EDF .m                  43.16:  DF ELEVATION
 TDL .m                1390.00:  TOTAL DEPTH (LOGGER)
 VSC .                       0:  VS TO CLOSURE
 MAGU.                 1855871:  MAGUTM CHECKSUM
~Parameter Information Block
#MNEM.UNIT       Value        Description
#---------     -----------    ---------------------------
 AV  .mps                 2.28:  Ann Velocity 
 AVMX.mps                 2.67:  Max Ann Veloc 
 AZIF.deg               305.00:  Azm, Final 
 BHAT.        Rotary Steerable:  BHA Type 
 BROT.°/30m               0.45:  Build Rotating 
 BS  .in                 12.25:  Bit Size 
 BSZ .in                 12.25:  Bit Size 
 BTPL.psig              600.00:  Bit Press Loss 
 CABU.                     Yes:  Customer Abuse 
 COMM.                     Á~:  Run Comments 1 
 TCS .hr                150.00:  Time Ciculation Ended 
 CV  .mps                 1.24:  Crit Velocity 
 CVMX.mps                 1.66:  Max Crit Veloc 
 DD1 .         Intigam Rahimov:  Direct Drillr 1 
 DD2 .            Azer Ravavov:  Direct Drillr 2 
 DD3 .              Samir Abas:  Direct Drillr 3 
 DDSV.               Geo-Pilot:  DD Service 
 DEFF.%                 100.00:  % Det Eff 
 DLRX.°/30m               1.57:  Dogleg Rot Max 
 DLSO.°/30m               0.00:  Dogleg Oriented 
 DLSX.°/30m               0.00:  Dogleg Str Max 
 DRET.      20.28.06 17-Sep-21:  Drill End Time 
 DRST.      20.27.35 10-Sep-21:  Drill Start Tim 
 DTIM.hr                 54.00:  Time Drilling 
 EDEP.m                5260.00:  End Depth 
 ENG1.      Bakhtiyar Jabbarli:  Engineer 1 
 ENG2.      Natik Hasanaghayev:  Engineer 2 
 ENG3.           Royal Nasirov:  Engineer 3 
 ETIM.      20.27.55 18-Sep-21:  End Time 
 FLOI.gpm              1100.00:  Flow In 
 FLON.gpm               800.00:  Flow In Min 
 FLOS.cptm                0.00:  Fluid Loss 
 FLOX.gpm              1200.00:  Flow In Max 
 DFT .        Mineral Oil Base:  Mud Type 
 HPRE.                      No:  High Pressure 
 HTEM.                      No:  High Temp 
 HYDO.m                   1.80:  Hydro Offset 
 IFIN.deg                72.31:  Inc, Final 
 IMAX.deg                72.36:  Inc Max 
 IMIN.deg                69.36:  Inc Min 
 IMND.m                4192.96:  Inc Min Depth 
 IMXD.m                5128.36:  Inc Max Depth 
 JARR.                      No:  Jarring 
 LETM.      20.29.00 17-Sep-21:  Log End Time 
 LOST.hr                     0:  Lost Rig Time 
 LSTM.      20.27.00 10-Sep-21:  Log Start Time 
 MDCL.ppm            227000.00:  Mud Chlorides 
 MDES.     Inversion Oil/Synthetic:  Mud Desc 
 DFD .sg                  1.45:  Mud Density 
 MDMN.sg                  1.45:  Dens Mud Min 
 MDMX.sg                  1.45:  Dens Mud Max 
 MOIL.                    70.5:  Run Mud Oil % 
 MOWR.                   71:29:  Run Mud OWR 
 MSND.                     0.3:  Run Mud Sand % 
 MSOL.                    19.8:  Run Mud Solids% 
 DFV .spqt               80.00:  Mud Viscosity 
 MWOD.in                  8.00:  MWD Tool OD 
 MWSI.                     Yes:  Serv Intrp, MWD 
 OTIM.hr                180.00:  Time Operating 
 PCON.           Look Like New:  Pad Condition 
 PMAX.psia             9910.94:  Press Op, Max 
 PV  .cP                 35.00:  Mud PV 
 RUN .                    1000:  Run Number 
 ROPA.m/hr               18.00:  ROP Avg 
 ROPN.m/hr                8.00:  ROP Min 
 ROPX.m/hr               23.00:  ROP Max 
 RPMA.rpm               150.00:  RPM Surface Avg 
 RPMN.rpm               120.00:  RPM Surface Min 
 RPMX.rpm               160.00:  RPM Surface Max 
 RRUN.                    L503:  Rig Run Number 
 RTIM.hr                  5.00:  Time Reaming 
 SAZI.deg               298.42:  Azm, Start 
 SDEP.m                3870.00:  Start Depth 
 SIDD.                      No:  Serv Intrp, DD 
 SINC.deg                69.57:  Inc, Start 
 SPPA.psig             5500.00:  SPP Avg 
 SPPN.psig             4400.00:  SPP Min 
 SPPX.psig             5800.00:  SPP Max 
 STIM.      15.29.39 09-Sep-21:  Start Time 
 SVCS.                 DD, MWD:  Services 
 SVER.                    9.20:  Sperry Version 
 TDAT.m                5260.00:  Tot Depth Attmp 
 TDDF.                      No:  Trip for DD 
 TDLG.m                1390.00:  Tot Depth Loggd 
 TFF .                      No:  Trip for Fail 
 TQAA.f-kp               22.00:  Torque Abs Avg 
 TQAN.f-kp               13.00:  Torque Abs Min 
 TQAX.f-kp               27.00:  Torque Abs Max 
 TRRT.°/30m               1.60:  Turn Rotating 
 MRT .                  EWR-M5:  Maximum Recorded Temperature 
 TTMX.degC               92.00:  Max Tool Temp 
 VS01.                12330975:  Virtual Str1 SN 
 VS02.                90658671:  Virtual Str2 SN 
 VS03.                90658508:  Virtual Str3 SN 
 VS04.                90660974:  Virtual Str4 SN 
 VS05.                90654675:  Virtual Str5 SN 
 WBMN.klb                15.00:  WOB Min 
 WITN.     Alexander Yadullayev:  Customer Rep 
 WITN.           Adil Mammadov:  Customer Rep 2 
 WOBA.klb                17.00:  WOB Avg 
 WOBX.klb                18.00:  WOB Max 
 YP  .lhf2               31.00:  Yield Point 
~Curve Information Block
#MNEM.UNIT                 API CODE     Curve Description
#---------               -----------    ---------------------------
 TIME.HHMMSS            00 000 000 000:  GT Time & Date
 GTDEPTH.m              00 000 000 000:  GT Depth
 GTPQH.psia             00 000 000 000:  GT HR Quartz Pressure
 GTTQ.degC              00 000 000 000:  GT Quartz Temperature
 GTTN.NONE              00 000 000 000:  GT Test Number
 GTET.sec               00 000 000 000:  GT Elapsed Test Time
 GTTVD.m                00 000 000 000:  GT True Vertical Depth
#Other Information
#
#WARRANTY: Halliburton will use its best efforts to furnish customers with 
#accurate information and interpretations that are part of, and incident to, the services 
#provided.  However, Halliburton cannot and does not warrant the accuracy 
#or correctness of such information and interpretations.  Under no circumstances should any 
#such information or interpretation be relied upon as the sole basis for any drilling, 
#completion, production, or financial decision or any procedure involving any risk to the 
#safety of any drilling venture, drilling rig or its crew or any other third party.  The 
#Customer has full responsibility for all drilling, completion and production operation.  
#Halliburton makes no representations or warranties, either expressed or 
#implied, including, but not limited to, the implied warranties of merchantability or fitness 
#for a particular purpose, with respect to the services rendered.  In no event will 
#Halliburton be liable for failure to obtain any particular results or for 
#any damages, including, but not limited to, indirect, special or consequential damages, 
#resulting from the use of any information or interpretation provided by Halliburton.
#
~A           TIME           GTDEPTH  GTPQH  GTTQ  GTTN  GTET   GTTVD  
# ...
   11:33:33.748.17-Sep-2021 4887.00 4321.20 77.30 9.00  23.00 2528.65
   11:33:33.948.17-Sep-2021 4887.00 4321.20 77.30 9.00  23.20 2528.65
   11:33:34.148.17-Sep-2021 4887.00 5365.68 77.30 9.00  23.40 2528.65
   11:33:34.348.17-Sep-2021 4887.00 5428.56 77.30 9.00  23.60 2528.65
   11:33:34.548.17-Sep-2021 4887.00 5428.59 77.30 9.00  23.80 2528.65
   11:33:34.748.17-Sep-2021 4887.00 5430.50 77.30 9.00  24.00 2528.65
   11:33:34.948.17-Sep-2021 4887.00 5430.50 77.30 9.00  24.20 2528.65
   11:33:35.148.17-Sep-2021 4887.00 5431.32 77.30 9.00  24.40 2528.65
   11:33:35.348.17-Sep-2021 4887.00 5432.83 77.30 9.00  24.60 2528.65
   11:33:35.548.17-Sep-2021 4887.00 5432.45 77.30 9.00  24.80 2528.65
   11:33:35.748.17-Sep-2021 4887.00 5388.03 77.30 9.00  25.00 2528.65
   11:33:35.948.17-Sep-2021 4887.00 5388.03 77.30 9.00  25.20 2528.65
   11:33:36.148.17-Sep-2021 4887.00 5431.99 77.27 9.00  25.40 2528.65
   11:33:36.348.17-Sep-2021 4887.00 5432.88 77.30 9.00  25.60 2528.65
   11:33:36.548.17-Sep-2021 4887.00 5433.60 77.30 9.00  25.80 2528.65
   11:33:36.748.17-Sep-2021 4887.00 5434.01 77.30 9.00  26.00 2528.65
   11:33:36.948.17-Sep-2021 4887.00 5434.01 77.30 9.00  26.20 2528.65
   11:33:37.148.17-Sep-2021 4887.00 5434.19 77.30 9.00  26.40 2528.65
   11:33:37.348.17-Sep-2021 4887.00 5434.03 77.30 9.00  26.60 2528.65
   11:33:37.548.17-Sep-2021 4887.00 5433.86 77.30 9.00  26.80 2528.65
   11:33:37.748.17-Sep-2021 4887.00 5433.65 77.30 9.00  27.00 2528.65
   11:33:37.948.17-Sep-2021 4887.00 5433.65 77.30 9.00  27.20 2528.65
   11:33:38.148.17-Sep-2021 4887.00 5434.22 77.30 9.00  27.40 2528.65
   11:33:38.348.17-Sep-2021 4887.00 5434.27 77.30 9.00  27.60 2528.65
   11:33:38.548.17-Sep-2021 4887.00 5434.20 77.30 9.00  27.80 2528.65
   11:33:38.748.17-Sep-2021 4887.00 5434.29 77.30 9.00  28.00 2528.65
   11:33:38.948.17-Sep-2021 4887.00 5434.29 77.30 9.00  28.20 2528.65
   11:33:39.148.17-Sep-2021 4887.00 5436.71 77.30 9.00  28.40 2528.65
   11:33:39.348.17-Sep-2021 4887.00 5436.78 77.30 9.00  28.60 2528.65
   11:33:39.548.17-Sep-2021 4887.00 5436.83 77.30 9.00  28.80 2528.65
   11:33:39.748.17-Sep-2021 4887.00 5437.94 77.30 9.00  29.00 2528.65
   11:33:39.948.17-Sep-2021 4887.00 5437.94 77.30 9.00  29.20 2528.65
   11:33:40.148.17-Sep-2021 4887.00 5436.92 77.30 9.00  29.40 2528.65
   11:33:40.349.17-Sep-2021 4887.00 5437.25 77.31 9.00  29.60 2528.65
   11:33:40.549.17-Sep-2021 4887.00 5437.17 77.31 9.00  29.80 2528.65
   11:33:40.749.17-Sep-2021 4887.00 5437.01 77.31 9.00  30.00 2528.65
   11:33:40.949.17-Sep-2021 4887.00 5437.01 77.31 9.00  30.20 2528.65
   11:33:41.149.17-Sep-2021 4887.00 5437.14 77.31 9.00  30.40 2528.65
   11:33:41.349.17-Sep-2021 4887.00 5437.41 77.31 9.00  30.60 2528.65
   11:33:41.549.17-Sep-2021 4887.00 5437.41 77.31 9.00  30.80 2528.65
   11:33:41.749.17-Sep-2021 4887.00 5437.41 77.31 9.00  31.00 2528.65
   11:33:41.949.17-Sep-2021 4887.00 5437.41 77.31 9.00  31.20 2528.65
   11:33:42.149.17-Sep-2021 4887.00 5440.79 77.31 9.00  31.40 2528.65
   11:33:42.349.17-Sep-2021 4887.00 5437.71 77.31 9.00  31.60 2528.65
   11:33:42.549.17-Sep-2021 4887.00 5438.99 77.31 9.00  31.80 2528.65
   11:33:42.749.17-Sep-2021 4887.00 5438.75 77.31 9.00  32.00 2528.65
   11:33:42.949.17-Sep-2021 4887.00 5438.75 77.31 9.00  32.20 2528.65
   11:33:43.149.17-Sep-2021 4887.00 5439.29 77.31 9.00  32.40 2528.65
   11:33:43.349.17-Sep-2021 4887.00 5439.06 77.31 9.00  32.60 2528.65
   11:33:43.549.17-Sep-2021 4887.00 5441.99 77.31 9.00  32.80 2528.65
   11:33:43.749.17-Sep-2021 4887.00 5437.59 77.31 9.00  33.00 2528.65
   11:33:43.949.17-Sep-2021 4887.00 5437.59 77.31 9.00  33.20 2528.65
   11:33:44.149.17-Sep-2021 4887.00 5438.32 77.31 9.00  33.40 2528.65
   11:33:44.349.17-Sep-2021 4887.00 5439.34 77.31 9.00  33.60 2528.65
   11:33:44.549.17-Sep-2021 4887.00 5439.05 77.31 9.00  33.80 2528.65
   11:33:44.749.17-Sep-2021 4887.00 5441.71 77.31 9.00  34.00 2528.65
   11:33:44.949.17-Sep-2021 4887.00 5441.71 77.31 9.00  34.20 2528.65
   11:33:45.149.17-Sep-2021 4887.00 5438.37 77.31 9.00  34.40 2528.65
   11:33:45.349.17-Sep-2021 4887.00 5438.36 77.31 9.00  34.60 2528.65
   11:33:45.549.17-Sep-2021 4887.00 5442.72 77.31 9.00  34.80 2528.65
   11:33:45.749.17-Sep-2021 4887.00 5437.26 77.31 9.00  35.00 2528.65
   11:33:45.949.17-Sep-2021 4887.00 5437.26 77.31 9.00  35.20 2528.65
   11:33:46.149.17-Sep-2021 4887.00 5438.40 77.31 9.00  35.40 2528.65
   11:33:46.349.17-Sep-2021 4887.00 5439.10 77.31 9.00  35.60 2528.65
   11:33:46.549.17-Sep-2021 4887.00 5438.36 77.31 9.00  35.80 2528.65
   11:33:46.749.17-Sep-2021 4887.00 5438.39 77.31 9.00  36.00 2528.65
   11:33:46.949.17-Sep-2021 4887.00 5438.39 77.31 9.00  36.20 2528.65
   11:33:47.149.17-Sep-2021 4887.00 5438.49 77.31 9.00  36.40 2528.65
   11:33:47.349.17-Sep-2021 4887.00 5438.49 77.31 9.00  36.60 2528.65
   11:33:47.549.17-Sep-2021 4887.00 5438.35 77.31 9.00  36.80 2528.65
   11:33:47.749.17-Sep-2021 4887.00 5438.44 77.31 9.00  37.00 2528.65
   11:33:47.949.17-Sep-2021 4887.00 5438.44 77.31 9.00  37.20 2528.65
   11:33:48.149.17-Sep-2021 4887.00 5438.87 77.31 9.00  37.40 2528.65
   11:33:48.349.17-Sep-2021 4887.00 5438.76 77.31 9.00  37.60 2528.65
   11:33:48.549.17-Sep-2021 4887.00 5438.71 77.31 9.00  37.80 2528.65
   11:33:48.749.17-Sep-2021 4887.00 5438.78 77.31 9.00  38.00 2528.65
   11:33:48.949.17-Sep-2021 4887.00 5438.78 77.31 9.00  38.20 2528.65
   11:33:49.149.17-Sep-2021 4887.00 5441.77 77.31 9.00  38.40 2528.65
   11:33:49.350.17-Sep-2021 4887.00 5437.66 77.31 9.00  38.60 2528.65
   11:33:49.550.17-Sep-2021 4887.00 5438.50 77.31 9.00  38.80 2528.65
   11:33:49.750.17-Sep-2021 4887.00 5438.41 77.31 9.00  39.00 2528.65
   11:33:49.950.17-Sep-2021 4887.00 5438.41 77.31 9.00  39.20 2528.65
   11:33:50.150.17-Sep-2021 4887.00 5438.38 77.31 9.00  39.40 2528.65
   11:33:50.350.17-Sep-2021 4887.00 5438.04 77.31 9.00  39.60 2528.65
   11:33:50.550.17-Sep-2021 4887.00 5438.41 77.31 9.00  39.80 2528.65
   11:33:50.750.17-Sep-2021 4887.00 5438.28 77.31 9.00  40.00 2528.65
   11:33:50.950.17-Sep-2021 4887.00 5438.28 77.31 9.00  40.20 2528.65
   11:33:51.150.17-Sep-2021 4887.00 5438.13 77.31 9.00  40.40 2528.65
   11:33:51.350.17-Sep-2021 4887.00 5438.19 77.31 9.00  40.60 2528.65
   11:33:51.550.17-Sep-2021 4887.00 5438.38 77.31 9.00  40.80 2528.65
   11:33:51.750.17-Sep-2021 4887.00 5438.31 77.31 9.00  41.00 2528.65
   11:33:51.950.17-Sep-2021 4887.00 5438.31 77.31 9.00  41.20 2528.65
   11:33:52.150.17-Sep-2021 4887.00 5438.15 77.31 9.00  41.40 2528.65
   11:33:52.350.17-Sep-2021 4887.00 5438.17 77.31 9.00  41.60 2528.65
   11:33:52.550.17-Sep-2021 4887.00 5439.18 77.31 9.00  41.80 2528.65
   11:33:52.750.17-Sep-2021 4887.00 5438.13 77.31 9.00  42.00 2528.65
   11:33:52.950.17-Sep-2021 4887.00 5438.13 77.31 9.00  42.20 2528.65
   11:33:53.150.17-Sep-2021 4887.00 5437.56 77.31 9.00  42.40 2528.65
   11:33:53.350.17-Sep-2021 4887.00 5437.85 77.31 9.00  42.60 2528.65
   11:33:53.550.17-Sep-2021 4887.00 5437.92 77.31 9.00  42.80 2528.65
   11:33:53.750.17-Sep-2021 4887.00 5440.45 77.31 9.00  43.00 2528.65
   11:33:53.950.17-Sep-2021 4887.00 5440.45 77.31 9.00  43.20 2528.65
   11:33:54.150.17-Sep-2021 4887.00 5436.97 77.31 9.00  43.40 2528.65
   11:33:54.350.17-Sep-2021 4887.00 5436.68 77.31 9.00  43.60 2528.65
   11:33:54.550.17-Sep-2021 4887.00 5437.66 77.31 9.00  43.80 2528.65
   11:33:54.750.17-Sep-2021 4887.00 5436.87 77.31 9.00  44.00 2528.65
   11:33:54.950.17-Sep-2021 4887.00 5436.87 77.31 9.00  44.20 2528.65
   11:33:55.150.17-Sep-2021 4887.00 5435.96 77.31 9.00  44.40 2528.65
   11:33:55.350.17-Sep-2021 4887.00 5436.53 77.31 9.00  44.60 2528.65
   11:33:55.550.17-Sep-2021 4887.00 5436.46 77.31 9.00  44.80 2528.65
   11:33:55.750.17-Sep-2021 4887.00 5438.00 77.31 9.00  45.00 2528.65
   11:33:55.950.17-Sep-2021 4887.00 5438.00 77.31 9.00  45.21 2528.65
   11:33:56.150.17-Sep-2021 4887.00 5436.93 77.31 9.00  45.41 2528.65
   11:33:56.350.17-Sep-2021 4887.00 5436.89 77.31 9.00  45.61 2528.65
   11:33:56.550.17-Sep-2021 4887.00 5436.42 77.31 9.00  45.81 2528.65
