~Version Information
 VERS.                  2.0:   CWLS log ASCII Standard -VERSION 2.0
 WRAP.                   NO:   One line per depth step
~Well Information Block
#MNEM.UNIT     VALUE/NAME     DESCRIPTION
#---------     -----------    ---------------------------
 STRT.S             11:33:10 17-Sep-21: START TIME 11:33:10 17-Sep-21
 STOP.S             11:40:20 17-Sep-21: STOP TIME  11:40:20 17-Sep-21
 STEP.S                   0.00: STEP TIME
 NULL.                 -999.25: NULL VALUE
 DFWT.                        :  DIST FWL TEXT
 DFST.                        :  DIST FSL TEXT
 DMF .             Drill Floor:  DRILL MEAS FROM
 STIM.      10.59.12 05-Jul-21:  START TIME
 DATE.      10.59.12 10-Sep-21:  END TIME
 SPUD.               05-Jul-21:  SPUD DATE
 NREF.                    Grid:  NORTH REFERENCE
 HPTY.       Minimum Curvature:  HOLE POS TYPE
 DMOD.             Drill Model:  DRILL MOD DESC
 SVYD.                  Survey:  SURVEY DESC
 ILTD.               Lithology:  INTERP LTH DESC
 FTOP.          Formation Tops:  FORM TOPS DESC
 RIG .                     DWG:  RIG NAME
 PDAT.          Mean Sea Level:  PERMANENT DATUM
 FLD .                     ACG:  FIELD NAME
 SON .        AZ-XX-0907115008:  JOB NUMBER
 CTRY.              Azerbaijan:  COUNTRY NAME
 WELL.                    E35A:  WELL NAME
 SRVC.          TURAN DRILLING:  CONTRACTOR
 COMP.     BP Exploration (Caspian Sea LTD):  COMPANY
 UWI .                     N/A:  UNIQUE WELL IDENTIFIER
 API .                     N/A:  API NUMBER
 MDS .        Operator Entered:  MAG DATA SOURCE
 BASE.              Azerbaijan:  LOGGING EQUIPMENT BASE LOCATION
 REGN.                   EESSA:  REGION
 PROV.                    Baku:  PROVINCE
 STAT.                    Baku:  STATE NAME
 MWDS.                    Baku:  MWD SHOP
 JOBN.        AZ-XX-0907115008:  JOB TICKET NUMB
 DOE .                     N/A:  DOE NUMBER
 DCON.         Sperry Drilling:  DIRECTNL CONTR
 UNIT.                     N/A:  LOGGING EQUIPMENT ID
 WTYP.                Deviated:  WELL TYPE
 CNTY.                        :  COUNTY
 LOC .                        :  LOCATION
 LMF .             Drill Floor:  LOG MEASURED FROM
 TVDS.m                  43.16:  TVDSS CORRECTN
 LATI.deg                40.17:  LATITUDE
 LONG.deg                51.17:  LONGITUDE
 WHNS.m                  10.51:  WELL HEAD N/S
 WHEW.m                 -14.82:  WELL HEAD E/W
 UTMX.m              514336.92:  UTM X
 UTMY.m             4448618.56:  UTM Y
 DFWL.m                   0.00:  DISTANCE FWL
 DFSL.m                   0.00:  DISTANCE FSL
 SDEP.m                 849.00:  START DEPTH
 TDD .m                2862.00:  TOTAL DEPTH (DRILLER)
 VSDR.deg               292.10:  VERT SEC DIRECT
 GVFD.g                   1.00:  GRAVITY FIELD
 MFLD.nT              50382.00:  MAGNETIC FIELD
 MDIP.deg                59.68:  MAGNETIC DIP
 MDEC.deg                 6.66:  MAGNETIC DECL
 GRDC.deg                 0.09:  GRID CORRECTION
 AZTC.deg                 6.57:  AZM TOTAL CORR
 EPD .m                   0.00:  ELEVATION
 EGL .m                   0.00:  GROUND ELEVATION
 WDMS.m                 176.20:  WD ELEV
 APD .m                  43.16:  DEPTH ABOVE PD
 DEP .m                 363.42:  DEPTH
 AGAP.m                  43.16:  AIR GAP
 VSEW.m                 -14.82:  VERT SEC E/W
 VSNS.m                  10.51:  VERT SEC N/S
 EKB .m                  43.16:  KB ELEVATION
 EDF .m                  43.16:  DF ELEVATION
 TDL .m                1390.00:  TOTAL DEPTH (LOGGER)
 VSC .                       0:  VS TO CLOSURE
 MAGU.                 1855871:  MAGUTM CHECKSUM
~Parameter Information Block
#MNEM.UNIT       Value        Description
#---------     -----------    ---------------------------
 AV  .mps                 2.28:  Ann Velocity 
 AVMX.mps                 2.67:  Max Ann Veloc 
 AZIF.deg               305.00:  Azm, Final 
 BHAT.        Rotary Steerable:  BHA Type 
 BROT.°/30m               0.45:  Build Rotating 
 BS  .in                 12.25:  Bit Size 
 BSZ .in                 12.25:  Bit Size 
 BTPL.psig              600.00:  Bit Press Loss 
 CABU.                     Yes:  Customer Abuse 
 COMM.                     Á~:  Run Comments 1 
 TCS .hr                150.00:  Time Ciculation Ended 
 CV  .mps                 1.24:  Crit Velocity 
 CVMX.mps                 1.66:  Max Crit Veloc 
 DD1 .         Intigam Rahimov:  Direct Drillr 1 
 DD2 .            Azer Ravavov:  Direct Drillr 2 
 DD3 .              Samir Abas:  Direct Drillr 3 
 DDSV.               Geo-Pilot:  DD Service 
 DEFF.%                 100.00:  % Det Eff 
 DLRX.°/30m               1.57:  Dogleg Rot Max 
 DLSO.°/30m               0.00:  Dogleg Oriented 
 DLSX.°/30m               0.00:  Dogleg Str Max 
 DRET.      20.28.06 17-Sep-21:  Drill End Time 
 DRST.      20.27.35 10-Sep-21:  Drill Start Tim 
 DTIM.hr                 54.00:  Time Drilling 
 EDEP.m                5260.00:  End Depth 
 ENG1.      Bakhtiyar Jabbarli:  Engineer 1 
 ENG2.      Natik Hasanaghayev:  Engineer 2 
 ENG3.           Royal Nasirov:  Engineer 3 
 ETIM.      20.27.55 18-Sep-21:  End Time 
 FLOI.gpm              1100.00:  Flow In 
 FLON.gpm               800.00:  Flow In Min 
 FLOS.cptm                0.00:  Fluid Loss 
 FLOX.gpm              1200.00:  Flow In Max 
 DFT .        Mineral Oil Base:  Mud Type 
 HPRE.                      No:  High Pressure 
 HTEM.                      No:  High Temp 
 HYDO.m                   1.80:  Hydro Offset 
 IFIN.deg                72.31:  Inc, Final 
 IMAX.deg                72.36:  Inc Max 
 IMIN.deg                69.36:  Inc Min 
 IMND.m                4192.96:  Inc Min Depth 
 IMXD.m                5128.36:  Inc Max Depth 
 JARR.                      No:  Jarring 
 LETM.      20.29.00 17-Sep-21:  Log End Time 
 LOST.hr                     0:  Lost Rig Time 
 LSTM.      20.27.00 10-Sep-21:  Log Start Time 
 MDCL.ppm            227000.00:  Mud Chlorides 
 MDES.     Inversion Oil/Synthetic:  Mud Desc 
 DFD .sg                  1.45:  Mud Density 
 MDMN.sg                  1.45:  Dens Mud Min 
 MDMX.sg                  1.45:  Dens Mud Max 
 MOIL.                    70.5:  Run Mud Oil % 
 MOWR.                   71:29:  Run Mud OWR 
 MSND.                     0.3:  Run Mud Sand % 
 MSOL.                    19.8:  Run Mud Solids% 
 DFV .spqt               80.00:  Mud Viscosity 
 MWOD.in                  8.00:  MWD Tool OD 
 MWSI.                     Yes:  Serv Intrp, MWD 
 OTIM.hr                180.00:  Time Operating 
 PCON.           Look Like New:  Pad Condition 
 PMAX.psia             9910.94:  Press Op, Max 
 PV  .cP                 35.00:  Mud PV 
 RUN .                    1000:  Run Number 
 ROPA.m/hr               18.00:  ROP Avg 
 ROPN.m/hr                8.00:  ROP Min 
 ROPX.m/hr               23.00:  ROP Max 
 RPMA.rpm               150.00:  RPM Surface Avg 
 RPMN.rpm               120.00:  RPM Surface Min 
 RPMX.rpm               160.00:  RPM Surface Max 
 RRUN.                    L503:  Rig Run Number 
 RTIM.hr                  5.00:  Time Reaming 
 SAZI.deg               298.42:  Azm, Start 
 SDEP.m                3870.00:  Start Depth 
 SIDD.                      No:  Serv Intrp, DD 
 SINC.deg                69.57:  Inc, Start 
 SPPA.psig             5500.00:  SPP Avg 
 SPPN.psig             4400.00:  SPP Min 
 SPPX.psig             5800.00:  SPP Max 
 STIM.      15.29.39 09-Sep-21:  Start Time 
 SVCS.                 DD, MWD:  Services 
 SVER.                    9.20:  Sperry Version 
 TDAT.m                5260.00:  Tot Depth Attmp 
 TDDF.                      No:  Trip for DD 
 TDLG.m                1390.00:  Tot Depth Loggd 
 TFF .                      No:  Trip for Fail 
 TQAA.f-kp               22.00:  Torque Abs Avg 
 TQAN.f-kp               13.00:  Torque Abs Min 
 TQAX.f-kp               27.00:  Torque Abs Max 
 TRRT.°/30m               1.60:  Turn Rotating 
 MRT .                  EWR-M5:  Maximum Recorded Temperature 
 TTMX.degC               92.00:  Max Tool Temp 
 VS01.                12330975:  Virtual Str1 SN 
 VS02.                90658671:  Virtual Str2 SN 
 VS03.                90658508:  Virtual Str3 SN 
 VS04.                90660974:  Virtual Str4 SN 
 VS05.                90654675:  Virtual Str5 SN 
 WBMN.klb                15.00:  WOB Min 
 WITN.     Alexander Yadullayev:  Customer Rep 
 WITN.           Adil Mammadov:  Customer Rep 2 
 WOBA.klb                17.00:  WOB Avg 
 WOBX.klb                18.00:  WOB Max 
 YP  .lhf2               31.00:  Yield Point 
~Curve Information Block
#MNEM.UNIT                 API CODE     Curve Description
#---------               -----------    ---------------------------
 TIME.HHMMSS            00 000 000 000:  GT Time & Date
 GTDEPTH.m              00 000 000 000:  GT Depth
 GTPQH.psia             00 000 000 000:  GT HR Quartz Pressure
 GTTQ.degC              00 000 000 000:  GT Quartz Temperature
 GTTN.NONE              00 000 000 000:  GT Test Number
 GTET.sec               00 000 000 000:  GT Elapsed Test Time
 GTTVD.m                00 000 000 000:  GT True Vertical Depth
#Other Information
#
#WARRANTY: Halliburton will use its best efforts to furnish customers with 
#accurate information and interpretations that are part of, and incident to, the services 
#provided.  However, Halliburton cannot and does not warrant the accuracy 
#or correctness of such information and interpretations.  Under no circumstances should any 
#such information or interpretation be relied upon as the sole basis for any drilling, 
#completion, production, or financial decision or any procedure involving any risk to the 
#safety of any drilling venture, drilling rig or its crew or any other third party.  The 
#Customer has full responsibility for all drilling, completion and production operation.  
#Halliburton makes no representations or warranties, either expressed or 
#implied, including, but not limited to, the implied warranties of merchantability or fitness 
#for a particular purpose, with respect to the services rendered.  In no event will 
#Halliburton be liable for failure to obtain any particular results or for 
#any damages, including, but not limited to, indirect, special or consequential damages, 
#resulting from the use of any information or interpretation provided by Halliburton.
#
~A           TIME           GTDEPTH  GTPQH  GTTQ  GTTN  GTET   GTTVD  
# ...
   11:35:28.761.17-Sep-2021 4887.00 5436.00 77.26 9.00 138.02 2528.65
   11:35:28.961.17-Sep-2021 4887.00 5436.00 77.26 9.00 138.22 2528.65
   11:35:29.161.17-Sep-2021 4887.00 5436.18 77.26 9.00 138.42 2528.65
   11:35:29.361.17-Sep-2021 4887.00 5436.43 77.26 9.00 138.62 2528.65
   11:35:29.561.17-Sep-2021 4887.00 5436.33 77.26 9.00 138.82 2528.65
   11:35:29.761.17-Sep-2021 4887.00 5436.40 77.26 9.00 139.02 2528.65
   11:35:29.961.17-Sep-2021 4887.00 5436.40 77.26 9.00 139.22 2528.65
   11:35:30.161.17-Sep-2021 4887.00 5436.68 77.26 9.00 139.42 2528.65
   11:35:30.361.17-Sep-2021 4887.00 5438.94 77.26 9.00 139.62 2528.65
   11:35:30.561.17-Sep-2021 4887.00 5436.65 77.26 9.00 139.82 2528.65
   11:35:30.761.17-Sep-2021 4887.00 5436.55 77.26 9.00 140.02 2528.65
   11:35:30.961.17-Sep-2021 4887.00 5436.55 77.26 9.00 140.22 2528.65
   11:35:31.161.17-Sep-2021 4887.00 5437.37 77.26 9.00 140.42 2528.65
   11:35:31.361.17-Sep-2021 4887.00 5438.92 77.26 9.00 140.62 2528.65
   11:35:31.561.17-Sep-2021 4887.00 5435.90 77.26 9.00 140.82 2528.65
   11:35:31.761.17-Sep-2021 4887.00 5436.20 77.26 9.00 141.02 2528.65
   11:35:31.961.17-Sep-2021 4887.00 5436.20 77.26 9.00 141.22 2528.65
   11:35:32.161.17-Sep-2021 4887.00 5436.92 77.26 9.00 141.42 2528.65
   11:35:32.361.17-Sep-2021 4887.00 5438.27 77.26 9.00 141.62 2528.65
   11:35:32.561.17-Sep-2021 4887.00 5435.44 77.26 9.00 141.82 2528.65
   11:35:32.761.17-Sep-2021 4887.00 5436.08 77.26 9.00 142.02 2528.65
   11:35:32.961.17-Sep-2021 4887.00 5436.08 77.26 9.00 142.22 2528.65
   11:35:33.161.17-Sep-2021 4887.00 5436.57 77.26 9.00 142.42 2528.65
   11:35:33.361.17-Sep-2021 4887.00 5439.49 77.26 9.00 142.62 2528.65
   11:35:33.561.17-Sep-2021 4887.00 5434.60 77.26 9.00 142.82 2528.65
   11:35:33.761.17-Sep-2021 4887.00 5436.42 77.26 9.00 143.02 2528.65
   11:35:33.961.17-Sep-2021 4887.00 5436.42 77.26 9.00 143.22 2528.65
   11:35:34.161.17-Sep-2021 4887.00 5436.94 77.26 9.00 143.42 2528.65
   11:35:34.361.17-Sep-2021 4887.00 5435.78 77.26 9.00 143.62 2528.65
   11:35:34.561.17-Sep-2021 4887.00 5436.12 77.26 9.00 143.82 2528.65
   11:35:34.761.17-Sep-2021 4887.00 5436.75 77.26 9.00 144.02 2528.65
   11:35:34.961.17-Sep-2021 4887.00 5436.75 77.26 9.00 144.22 2528.65
   11:35:35.161.17-Sep-2021 4887.00 5436.10 77.26 9.00 144.42 2528.65
   11:35:35.361.17-Sep-2021 4887.00 5436.33 77.26 9.00 144.62 2528.65
   11:35:35.561.17-Sep-2021 4887.00 5436.57 77.26 9.00 144.82 2528.65
   11:35:35.761.17-Sep-2021 4887.00 5436.63 77.26 9.00 145.02 2528.65
   11:35:35.961.17-Sep-2021 4887.00 5436.63 77.26 9.00 145.22 2528.65
   11:35:36.161.17-Sep-2021 4887.00 5436.48 77.26 9.00 145.42 2528.65
   11:35:36.361.17-Sep-2021 4887.00 5437.48 77.26 9.00 145.62 2528.65
   11:35:36.561.17-Sep-2021 4887.00 5438.00 77.26 9.00 145.82 2528.65
   11:35:36.761.17-Sep-2021 4887.00 5436.86 77.26 9.00 146.02 2528.65
   11:35:36.961.17-Sep-2021 4887.00 5436.86 77.26 9.00 146.22 2528.65
   11:35:37.161.17-Sep-2021 4887.00 5436.99 77.26 9.00 146.42 2528.65
   11:35:37.361.17-Sep-2021 4887.00 5437.23 77.26 9.00 146.62 2528.65
   11:35:37.561.17-Sep-2021 4887.00 5436.66 77.26 9.00 146.82 2528.65
   11:35:37.762.17-Sep-2021 4887.00 5436.40 77.26 9.00 147.02 2528.65
   11:35:37.962.17-Sep-2021 4887.00 5436.40 77.26 9.00 147.22 2528.65
   11:35:38.162.17-Sep-2021 4887.00 5436.25 77.26 9.00 147.42 2528.65
   11:35:38.362.17-Sep-2021 4887.00 5436.05 77.26 9.00 147.62 2528.65
   11:35:38.562.17-Sep-2021 4887.00 5436.09 77.26 9.00 147.82 2528.65
   11:35:38.762.17-Sep-2021 4887.00 5436.38 77.26 9.00 148.02 2528.65
   11:35:38.962.17-Sep-2021 4887.00 5436.38 77.26 9.00 148.22 2528.65
   11:35:39.162.17-Sep-2021 4887.00 5436.31 77.26 9.00 148.42 2528.65
   11:35:39.362.17-Sep-2021 4887.00 5436.33 77.26 9.00 148.62 2528.65
   11:35:39.562.17-Sep-2021 4887.00 5436.49 77.26 9.00 148.82 2528.65
   11:35:39.762.17-Sep-2021 4887.00 5436.69 77.26 9.00 149.02 2528.65
   11:35:39.962.17-Sep-2021 4887.00 5436.69 77.26 9.00 149.22 2528.65
   11:35:40.162.17-Sep-2021 4887.00 5436.50 77.26 9.00 149.42 2528.65
   11:35:40.362.17-Sep-2021 4887.00 5436.56 77.26 9.00 149.62 2528.65
   11:35:40.562.17-Sep-2021 4887.00 5436.74 77.26 9.00 149.82 2528.65
   11:35:40.762.17-Sep-2021 4887.00 5437.78 77.26 9.00 150.02 2528.65
   11:35:40.962.17-Sep-2021 4887.00 5437.78 77.26 9.00 150.22 2528.65
   11:35:41.162.17-Sep-2021 4887.00 5435.92 77.26 9.00 150.42 2528.65
   11:35:41.362.17-Sep-2021 4887.00 5436.15 77.26 9.00 150.62 2528.65
   11:35:41.562.17-Sep-2021 4887.00 5436.05 77.26 9.00 150.82 2528.65
   11:35:41.762.17-Sep-2021 4887.00 5437.00 77.26 9.00 151.02 2528.65
   11:35:41.962.17-Sep-2021 4887.00 5437.00 77.26 9.00 151.22 2528.65
   11:35:42.162.17-Sep-2021 4887.00 5435.56 77.26 9.00 151.42 2528.65
   11:35:42.362.17-Sep-2021 4887.00 5436.05 77.26 9.00 151.62 2528.65
   11:35:42.562.17-Sep-2021 4887.00 5435.85 77.26 9.00 151.82 2528.65
   11:35:42.762.17-Sep-2021 4887.00 5436.71 77.26 9.00 152.02 2528.65
   11:35:42.962.17-Sep-2021 4887.00 5436.71 77.26 9.00 152.22 2528.65
   11:35:43.162.17-Sep-2021 4887.00 5434.63 77.26 9.00 152.42 2528.65
   11:35:43.362.17-Sep-2021 4887.00 5435.73 77.26 9.00 152.62 2528.65
   11:35:43.562.17-Sep-2021 4887.00 5434.31 77.26 9.00 152.82 2528.65
   11:35:43.762.17-Sep-2021 4887.00 5435.19 77.26 9.00 153.02 2528.65
   11:35:43.962.17-Sep-2021 4887.00 5435.19 77.26 9.00 153.22 2528.65
   11:35:44.162.17-Sep-2021 4887.00 5436.06 77.26 9.00 153.42 2528.65
   11:35:44.362.17-Sep-2021 4887.00 5436.62 77.26 9.00 153.62 2528.65
   11:35:44.562.17-Sep-2021 4887.00 5436.10 77.26 9.00 153.82 2528.65
   11:35:44.762.17-Sep-2021 4887.00 5435.84 77.26 9.00 154.02 2528.65
   11:35:44.962.17-Sep-2021 4887.00 5435.84 77.26 9.00 154.22 2528.65
   11:35:45.162.17-Sep-2021 4887.00 5436.43 77.26 9.00 154.42 2528.65
   11:35:45.362.17-Sep-2021 4887.00 5436.57 77.26 9.00 154.62 2528.65
   11:35:45.562.17-Sep-2021 4887.00 5436.37 77.26 9.00 154.82 2528.65
   11:35:45.762.17-Sep-2021 4887.00 5436.30 77.26 9.00 155.02 2528.65
   11:35:45.962.17-Sep-2021 4887.00 5436.30 77.26 9.00 155.22 2528.65
   11:35:46.162.17-Sep-2021 4887.00 5438.10 77.26 9.00 155.42 2528.65
   11:35:46.362.17-Sep-2021 4887.00 5436.86 77.26 9.00 155.62 2528.65
   11:35:46.562.17-Sep-2021 4887.00 5436.38 77.26 9.00 155.82 2528.65
   11:35:46.763.17-Sep-2021 4887.00 5436.74 77.26 9.00 156.02 2528.65
   11:35:46.963.17-Sep-2021 4887.00 5436.74 77.26 9.00 156.22 2528.65
   11:35:47.163.17-Sep-2021 4887.00 5436.36 77.26 9.00 156.42 2528.65
   11:35:47.363.17-Sep-2021 4887.00 5436.17 77.26 9.00 156.62 2528.65
   11:35:47.563.17-Sep-2021 4887.00 5436.26 77.26 9.00 156.82 2528.65
   11:35:47.763.17-Sep-2021 4887.00 5436.07 77.26 9.00 157.02 2528.65
   11:35:47.963.17-Sep-2021 4887.00 5436.07 77.26 9.00 157.22 2528.65
   11:35:48.163.17-Sep-2021 4887.00 5435.82 77.26 9.00 157.42 2528.65
   11:35:48.363.17-Sep-2021 4887.00 5436.06 77.26 9.00 157.62 2528.65
   11:35:48.563.17-Sep-2021 4887.00 5436.41 77.26 9.00 157.82 2528.65
   11:35:48.763.17-Sep-2021 4887.00 5436.20 77.26 9.00 158.02 2528.65
   11:35:48.963.17-Sep-2021 4887.00 5436.20 77.26 9.00 158.22 2528.65
   11:35:49.163.17-Sep-2021 4887.00 5436.37 77.26 9.00 158.42 2528.65
   11:35:49.363.17-Sep-2021 4887.00 5436.52 77.26 9.00 158.62 2528.65
   11:35:49.563.17-Sep-2021 4887.00 5438.87 77.26 9.00 158.82 2528.65
   11:35:49.763.17-Sep-2021 4887.00 5436.30 77.26 9.00 159.02 2528.65
   11:35:49.963.17-Sep-2021 4887.00 5436.30 77.26 9.00 159.22 2528.65
   11:35:50.163.17-Sep-2021 4887.00 5436.47 77.26 9.00 159.42 2528.65
   11:35:50.363.17-Sep-2021 4887.00 5437.43 77.26 9.00 159.62 2528.65
   11:35:50.563.17-Sep-2021 4887.00 5438.91 77.26 9.00 159.82 2528.65
   11:35:50.763.17-Sep-2021 4887.00 5435.87 77.26 9.00 160.02 2528.65
   11:35:50.963.17-Sep-2021 4887.00 5435.87 77.26 9.00 160.22 2528.65
   11:35:51.163.17-Sep-2021 4887.00 5436.04 77.26 9.00 160.42 2528.65
   11:35:51.363.17-Sep-2021 4887.00 5436.79 77.26 9.00 160.62 2528.65
   11:35:51.563.17-Sep-2021 4887.00 5438.13 77.26 9.00 160.82 2528.65
