~Version Information
 VERS.                  2.0:   CWLS log ASCII Standard -VERSION 2.0
 WRAP.                   NO:   One line per depth step
~Well Information Block
#MNEM.UNIT     VALUE/NAME     DESCRIPTION
#---------     -----------    ---------------------------
 STRT.S             04:34:50 17-Sep-21: START TIME 04:34:50 17-Sep-21
 STOP.S             04:43:20 17-Sep-21: STOP TIME  04:43:20 17-Sep-21
 STEP.S                   0.00: STEP TIME
 NULL.                 -999.25: NULL VALUE
 DFWT.                        :  DIST FWL TEXT
 DFST.                        :  DIST FSL TEXT
 DMF .             Drill Floor:  DRILL MEAS FROM
 STIM.      10.59.12 05-Jul-21:  START TIME
 DATE.      10.59.12 10-Sep-21:  END TIME
 SPUD.               05-Jul-21:  SPUD DATE
 NREF.                    Grid:  NORTH REFERENCE
 HPTY.       Minimum Curvature:  HOLE POS TYPE
 DMOD.             Drill Model:  DRILL MOD DESC
 SVYD.                  Survey:  SURVEY DESC
 ILTD.               Lithology:  INTERP LTH DESC
 FTOP.          Formation Tops:  FORM TOPS DESC
 RIG .                     DWG:  RIG NAME
 PDAT.          Mean Sea Level:  PERMANENT DATUM
 FLD .                     ACG:  FIELD NAME
 SON .        AZ-XX-0907115008:  JOB NUMBER
 CTRY.              Azerbaijan:  COUNTRY NAME
 WELL.                    E35A:  WELL NAME
 SRVC.          TURAN DRILLING:  CONTRACTOR
 COMP.     BP Exploration (Caspian Sea LTD):  COMPANY
 UWI .                     N/A:  UNIQUE WELL IDENTIFIER
 API .                     N/A:  API NUMBER
 MDS .        Operator Entered:  MAG DATA SOURCE
 BASE.              Azerbaijan:  LOGGING EQUIPMENT BASE LOCATION
 REGN.                   EESSA:  REGION
 PROV.                    Baku:  PROVINCE
 STAT.                    Baku:  STATE NAME
 MWDS.                    Baku:  MWD SHOP
 JOBN.        AZ-XX-0907115008:  JOB TICKET NUMB
 DOE .                     N/A:  DOE NUMBER
 DCON.         Sperry Drilling:  DIRECTNL CONTR
 UNIT.                     N/A:  LOGGING EQUIPMENT ID
 WTYP.                Deviated:  WELL TYPE
 CNTY.                        :  COUNTY
 LOC .                        :  LOCATION
 LMF .             Drill Floor:  LOG MEASURED FROM
 TVDS.m                  43.16:  TVDSS CORRECTN
 LATI.deg                40.17:  LATITUDE
 LONG.deg                51.17:  LONGITUDE
 WHNS.m                  10.51:  WELL HEAD N/S
 WHEW.m                 -14.82:  WELL HEAD E/W
 UTMX.m              514336.92:  UTM X
 UTMY.m             4448618.56:  UTM Y
 DFWL.m                   0.00:  DISTANCE FWL
 DFSL.m                   0.00:  DISTANCE FSL
 SDEP.m                 849.00:  START DEPTH
 TDD .m                2862.00:  TOTAL DEPTH (DRILLER)
 VSDR.deg               292.10:  VERT SEC DIRECT
 GVFD.g                   1.00:  GRAVITY FIELD
 MFLD.nT              50382.00:  MAGNETIC FIELD
 MDIP.deg                59.68:  MAGNETIC DIP
 MDEC.deg                 6.66:  MAGNETIC DECL
 GRDC.deg                 0.09:  GRID CORRECTION
 AZTC.deg                 6.57:  AZM TOTAL CORR
 EPD .m                   0.00:  ELEVATION
 EGL .m                   0.00:  GROUND ELEVATION
 WDMS.m                 176.20:  WD ELEV
 APD .m                  43.16:  DEPTH ABOVE PD
 DEP .m                 363.42:  DEPTH
 AGAP.m                  43.16:  AIR GAP
 VSEW.m                 -14.82:  VERT SEC E/W
 VSNS.m                  10.51:  VERT SEC N/S
 EKB .m                  43.16:  KB ELEVATION
 EDF .m                  43.16:  DF ELEVATION
 TDL .m                1390.00:  TOTAL DEPTH (LOGGER)
 VSC .                       0:  VS TO CLOSURE
 MAGU.                 1855871:  MAGUTM CHECKSUM
~Parameter Information Block
#MNEM.UNIT       Value        Description
#---------     -----------    ---------------------------
 AV  .mps                 2.28:  Ann Velocity 
 AVMX.mps                 2.67:  Max Ann Veloc 
 AZIF.deg               305.00:  Azm, Final 
 BHAT.        Rotary Steerable:  BHA Type 
 BROT.°/30m               0.45:  Build Rotating 
 BS  .in                 12.25:  Bit Size 
 BSZ .in                 12.25:  Bit Size 
 BTPL.psig              600.00:  Bit Press Loss 
 CABU.                     Yes:  Customer Abuse 
 COMM.                     ÌN:  Run Comments 1 
 TCS .hr                150.00:  Time Ciculation Ended 
 CV  .mps                 1.24:  Crit Velocity 
 CVMX.mps                 1.66:  Max Crit Veloc 
 DD1 .         Intigam Rahimov:  Direct Drillr 1 
 DD2 .            Azer Ravavov:  Direct Drillr 2 
 DD3 .              Samir Abas:  Direct Drillr 3 
 DDSV.               Geo-Pilot:  DD Service 
 DEFF.%                 100.00:  % Det Eff 
 DLRX.°/30m               1.57:  Dogleg Rot Max 
 DLSO.°/30m               0.00:  Dogleg Oriented 
 DLSX.°/30m               0.00:  Dogleg Str Max 
 DRET.      20.28.06 17-Sep-21:  Drill End Time 
 DRST.      20.27.35 10-Sep-21:  Drill Start Tim 
 DTIM.hr                 54.00:  Time Drilling 
 EDEP.m                5260.00:  End Depth 
 ENG1.      Bakhtiyar Jabbarli:  Engineer 1 
 ENG2.      Natik Hasanaghayev:  Engineer 2 
 ENG3.           Royal Nasirov:  Engineer 3 
 ETIM.      20.27.55 18-Sep-21:  End Time 
 FLOI.gpm              1100.00:  Flow In 
 FLON.gpm               800.00:  Flow In Min 
 FLOS.cptm                0.00:  Fluid Loss 
 FLOX.gpm              1200.00:  Flow In Max 
 DFT .        Mineral Oil Base:  Mud Type 
 HPRE.                      No:  High Pressure 
 HTEM.                      No:  High Temp 
 HYDO.m                   1.80:  Hydro Offset 
 IFIN.deg                72.31:  Inc, Final 
 IMAX.deg                72.36:  Inc Max 
 IMIN.deg                69.36:  Inc Min 
 IMND.m                4192.96:  Inc Min Depth 
 IMXD.m                5128.36:  Inc Max Depth 
 JARR.                      No:  Jarring 
 LETM.      20.29.00 17-Sep-21:  Log End Time 
 LOST.hr                     0:  Lost Rig Time 
 LSTM.      20.27.00 10-Sep-21:  Log Start Time 
 MDCL.ppm            227000.00:  Mud Chlorides 
 MDES.     Inversion Oil/Synthetic:  Mud Desc 
 DFD .sg                  1.45:  Mud Density 
 MDMN.sg                  1.45:  Dens Mud Min 
 MDMX.sg                  1.45:  Dens Mud Max 
 MOIL.                    70.5:  Run Mud Oil % 
 MOWR.                   71:29:  Run Mud OWR 
 MSND.                     0.3:  Run Mud Sand % 
 MSOL.                    19.8:  Run Mud Solids% 
 DFV .spqt               80.00:  Mud Viscosity 
 MWOD.in                  8.00:  MWD Tool OD 
 MWSI.                     Yes:  Serv Intrp, MWD 
 OTIM.hr                180.00:  Time Operating 
 PCON.           Look Like New:  Pad Condition 
 PMAX.psia             9910.94:  Press Op, Max 
 PV  .cP                 35.00:  Mud PV 
 RUN .                    1000:  Run Number 
 ROPA.m/hr               18.00:  ROP Avg 
 ROPN.m/hr                8.00:  ROP Min 
 ROPX.m/hr               23.00:  ROP Max 
 RPMA.rpm               150.00:  RPM Surface Avg 
 RPMN.rpm               120.00:  RPM Surface Min 
 RPMX.rpm               160.00:  RPM Surface Max 
 RRUN.                    L503:  Rig Run Number 
 RTIM.hr                  5.00:  Time Reaming 
 SAZI.deg               298.42:  Azm, Start 
 SDEP.m                3870.00:  Start Depth 
 SIDD.                      No:  Serv Intrp, DD 
 SINC.deg                69.57:  Inc, Start 
 SPPA.psig             5500.00:  SPP Avg 
 SPPN.psig             4400.00:  SPP Min 
 SPPX.psig             5800.00:  SPP Max 
 STIM.      15.29.39 09-Sep-21:  Start Time 
 SVCS.                 DD, MWD:  Services 
 SVER.                    9.20:  Sperry Version 
 TDAT.m                5260.00:  Tot Depth Attmp 
 TDDF.                      No:  Trip for DD 
 TDLG.m                1390.00:  Tot Depth Loggd 
 TFF .                      No:  Trip for Fail 
 TQAA.f-kp               22.00:  Torque Abs Avg 
 TQAN.f-kp               13.00:  Torque Abs Min 
 TQAX.f-kp               27.00:  Torque Abs Max 
 TRRT.°/30m               1.60:  Turn Rotating 
 MRT .                  EWR-M5:  Maximum Recorded Temperature 
 TTMX.degC               92.00:  Max Tool Temp 
 VS01.                12330975:  Virtual Str1 SN 
 VS02.                90658671:  Virtual Str2 SN 
 VS03.                90658508:  Virtual Str3 SN 
 VS04.                90660974:  Virtual Str4 SN 
 VS05.                90654675:  Virtual Str5 SN 
 WBMN.klb                15.00:  WOB Min 
 WITN.     Alexander Yadullayev:  Customer Rep 
 WITN.           Adil Mammadov:  Customer Rep 2 
 WOBA.klb                17.00:  WOB Avg 
 WOBX.klb                18.00:  WOB Max 
 YP  .lhf2               31.00:  Yield Point 
~Curve Information Block
#MNEM.UNIT                 API CODE     Curve Description
#---------               -----------    ---------------------------
 TIME.HHMMSS            00 000 000 000:  GT Time & Date
 GTDEPTH.m              00 000 000 000:  GT Depth
 GTPQH.psia             00 000 000 000:  GT HR Quartz Pressure
 GTTQ.degC              00 000 000 000:  GT Quartz Temperature
 GTTN.NONE              00 000 000 000:  GT Test Number
 GTET.sec               00 000 000 000:  GT Elapsed Test Time
 GTTVD.m                00 000 000 000:  GT True Vertical Depth
#Other Information
#
#WARRANTY: Halliburton will use its best efforts to furnish customers with 
#accurate information and interpretations that are part of, and incident to, the services 
#provided.  However, Halliburton cannot and does not warrant the accuracy 
#or correctness of such information and interpretations.  Under no circumstances should any 
#such information or interpretation be relied upon as the sole basis for any drilling, 
#completion, production, or financial decision or any procedure involving any risk to the 
#safety of any drilling venture, drilling rig or its crew or any other third party.  The 
#Customer has full responsibility for all drilling, completion and production operation.  
#Halliburton makes no representations or warranties, either expressed or 
#implied, including, but not limited to, the implied warranties of merchantability or fitness 
#for a particular purpose, with respect to the services rendered.  In no event will 
#Halliburton be liable for failure to obtain any particular results or for 
#any damages, including, but not limited to, indirect, special or consequential damages, 
#resulting from the use of any information or interpretation provided by Halliburton.
#
~A           TIME           GTDEPTH  GTPQH  GTTQ  GTTN  GTET   GTTVD  
# ...
   04:37:54.222.17-Sep-2021 5094.00 5576.47 80.43 4.00 184.20 2595.14
   04:37:54.422.17-Sep-2021 5094.00 5576.47 80.43 4.00 184.40 2595.14
   04:37:54.622.17-Sep-2021 5094.00 5574.69 80.43 4.00 184.60 2595.14
   04:37:54.822.17-Sep-2021 5094.00 5574.59 80.43 4.00 184.80 2595.14
   04:37:55.022.17-Sep-2021 5094.00 5574.13 80.43 4.00 185.00 2595.14
   04:37:55.223.17-Sep-2021 5094.00 5574.01 80.43 4.00 185.20 2595.14
   04:37:55.423.17-Sep-2021 5094.00 5574.01 80.43 4.00 185.40 2595.14
   04:37:55.623.17-Sep-2021 5094.00 5573.73 80.43 4.00 185.60 2595.14
   04:37:55.823.17-Sep-2021 5094.00 5573.70 80.43 4.00 185.80 2595.14
   04:37:56.024.17-Sep-2021 5094.00 5573.87 80.43 4.00 186.00 2595.14
   04:37:56.224.17-Sep-2021 5094.00 5573.96 80.43 4.00 186.20 2595.14
   04:37:56.424.17-Sep-2021 5094.00 5573.96 80.43 4.00 186.40 2595.14
   04:37:56.624.17-Sep-2021 5094.00 5574.23 80.43 4.00 186.60 2595.14
   04:37:56.824.17-Sep-2021 5094.00 5574.47 80.43 4.00 186.80 2595.14
   04:37:57.025.17-Sep-2021 5094.00 5574.71 80.43 4.00 187.00 2595.14
   04:37:57.225.17-Sep-2021 5094.00 5574.98 80.43 4.00 187.20 2595.14
   04:37:57.425.17-Sep-2021 5094.00 5574.98 80.43 4.00 187.40 2595.14
   04:37:57.625.17-Sep-2021 5094.00 5575.51 80.43 4.00 187.60 2595.14
   04:37:57.825.17-Sep-2021 5094.00 5575.47 80.43 4.00 187.80 2595.14
   04:37:58.026.17-Sep-2021 5094.00 5574.83 80.43 4.00 188.00 2595.14
   04:37:58.226.17-Sep-2021 5094.00 5574.42 80.43 4.00 188.20 2595.14
   04:37:58.426.17-Sep-2021 5094.00 5574.42 80.43 4.00 188.40 2595.14
   04:37:58.626.17-Sep-2021 5094.00 5573.21 80.43 4.00 188.60 2595.14
   04:37:58.827.17-Sep-2021 5094.00 5575.03 80.43 4.00 188.80 2595.14
   04:37:59.027.17-Sep-2021 5094.00 5573.48 80.43 4.00 189.00 2595.14
   04:37:59.227.17-Sep-2021 5094.00 5573.47 80.43 4.00 189.20 2595.14
   04:37:59.427.17-Sep-2021 5094.00 5573.47 80.43 4.00 189.40 2595.14
   04:37:59.627.17-Sep-2021 5094.00 5575.86 80.42 4.00 189.60 2595.14
   04:37:59.828.17-Sep-2021 5094.00 5572.95 80.42 4.00 189.80 2595.14
   04:38:00.028.17-Sep-2021 5094.00 5574.73 80.42 4.00 190.00 2595.14
   04:38:00.228.17-Sep-2021 5094.00 5574.03 80.42 4.00 190.20 2595.14
   04:38:00.428.17-Sep-2021 5094.00 5574.03 80.42 4.00 190.41 2595.14
   04:38:00.629.17-Sep-2021 5094.00 5572.95 80.42 4.00 190.61 2595.14
   04:38:00.829.17-Sep-2021 5094.00 5575.38 80.42 4.00 190.81 2595.14
   04:38:01.029.17-Sep-2021 5094.00 5574.28 80.42 4.00 191.01 2595.14
   04:38:01.229.17-Sep-2021 5094.00 5573.87 80.42 4.00 191.21 2595.14
   04:38:01.429.17-Sep-2021 5094.00 5573.87 80.42 4.00 191.41 2595.14
   04:38:01.630.17-Sep-2021 5094.00 5573.79 80.42 4.00 191.61 2595.14
   04:38:01.830.17-Sep-2021 5094.00 5573.90 80.42 4.00 191.81 2595.14
   04:38:02.030.17-Sep-2021 5094.00 5573.40 80.42 4.00 192.01 2595.14
   04:38:02.230.17-Sep-2021 5094.00 5573.58 80.42 4.00 192.21 2595.14
   04:38:02.430.17-Sep-2021 5094.00 5573.58 80.42 4.00 192.41 2595.14
   04:38:02.631.17-Sep-2021 5094.00 5574.06 80.42 4.00 192.61 2595.14
   04:38:02.831.17-Sep-2021 5094.00 5574.09 80.42 4.00 192.81 2595.14
   04:38:03.031.17-Sep-2021 5094.00 5574.24 80.42 4.00 193.01 2595.14
   04:38:03.231.17-Sep-2021 5094.00 5574.32 80.42 4.00 193.21 2595.14
   04:38:03.432.17-Sep-2021 5094.00 5574.32 80.42 4.00 193.41 2595.14
   04:38:03.632.17-Sep-2021 5094.00 5576.04 80.42 4.00 193.61 2595.14
   04:38:03.832.17-Sep-2021 5094.00 5575.15 80.42 4.00 193.81 2595.14
   04:38:04.032.17-Sep-2021 5094.00 5575.42 80.42 4.00 194.01 2595.14
   04:38:04.232.17-Sep-2021 5094.00 5574.94 80.42 4.00 194.21 2595.14
   04:38:04.433.17-Sep-2021 5094.00 5574.94 80.42 4.00 194.41 2595.14
   04:38:04.633.17-Sep-2021 5094.00 5574.38 80.42 4.00 194.61 2595.14
   04:38:04.833.17-Sep-2021 5094.00 5573.86 80.42 4.00 194.81 2595.14
   04:38:05.033.17-Sep-2021 5094.00 5573.72 80.42 4.00 195.01 2595.14
   04:38:05.233.17-Sep-2021 5094.00 5573.56 80.41 4.00 195.21 2595.14
   04:38:05.434.17-Sep-2021 5094.00 5573.56 80.41 4.00 195.41 2595.14
   04:38:05.634.17-Sep-2021 5094.00 5573.54 80.41 4.00 195.61 2595.14
   04:38:05.834.17-Sep-2021 5094.00 5573.62 80.41 4.00 195.81 2595.14
   04:38:06.034.17-Sep-2021 5094.00 5573.83 80.41 4.00 196.01 2595.14
   04:38:06.235.17-Sep-2021 5094.00 5573.98 80.41 4.00 196.21 2595.14
   04:38:06.435.17-Sep-2021 5094.00 5573.98 80.41 4.00 196.41 2595.14
   04:38:06.635.17-Sep-2021 5094.00 5574.37 80.41 4.00 196.61 2595.14
   04:38:06.835.17-Sep-2021 5094.00 5574.62 80.41 4.00 196.81 2595.14
   04:38:07.035.17-Sep-2021 5094.00 5576.56 80.41 4.00 197.01 2595.14
   04:38:07.236.17-Sep-2021 5094.00 5574.22 80.41 4.00 197.21 2595.14
   04:38:07.436.17-Sep-2021 5094.00 5574.22 80.41 4.00 197.41 2595.14
   04:38:07.636.17-Sep-2021 5094.00 5575.23 80.41 4.00 197.61 2595.14
   04:38:07.836.17-Sep-2021 5094.00 5573.83 80.41 4.00 197.81 2595.14
   04:38:08.036.17-Sep-2021 5094.00 5575.45 80.41 4.00 198.01 2595.14
   04:38:08.237.17-Sep-2021 5094.00 5571.76 80.41 4.00 198.21 2595.14
   04:38:08.437.17-Sep-2021 5094.00 5571.76 80.41 4.00 198.41 2595.14
   04:38:08.637.17-Sep-2021 5094.00 5571.76 80.41 4.00 198.61 2595.14
   04:38:08.837.17-Sep-2021 5094.00 5571.98 80.41 4.00 198.81 2595.14
   04:38:09.038.17-Sep-2021 5094.00 5572.22 80.41 4.00 199.01 2595.14
   04:38:09.238.17-Sep-2021 5094.00 5572.28 80.41 4.00 199.21 2595.14
   04:38:09.438.17-Sep-2021 5094.00 5572.28 80.41 4.00 199.41 2595.14
   04:38:09.638.17-Sep-2021 5094.00 5572.40 80.41 4.00 199.61 2595.14
   04:38:09.838.17-Sep-2021 5094.00 5573.13 80.41 4.00 199.82 2595.14
   04:38:10.039.17-Sep-2021 5094.00 5572.53 80.41 4.00 200.02 2595.14
   04:38:10.239.17-Sep-2021 5094.00 5572.94 80.41 4.00 200.22 2595.14
   04:38:10.439.17-Sep-2021 5094.00 5572.94 80.41 4.00 200.42 2595.14
   04:38:10.639.17-Sep-2021 5094.00 5572.94 80.41 4.00 200.62 2595.14
   04:38:10.840.17-Sep-2021 5094.00 5573.69 80.40 4.00 200.82 2595.14
   04:38:11.040.17-Sep-2021 5094.00 5573.27 80.40 4.00 201.02 2595.14
   04:38:11.240.17-Sep-2021 5094.00 5572.38 80.40 4.00 201.22 2595.14
   04:38:11.440.17-Sep-2021 5094.00 5572.38 80.40 4.00 201.42 2595.14
   04:38:11.640.17-Sep-2021 5094.00 5572.19 80.40 4.00 201.62 2595.14
   04:38:11.841.17-Sep-2021 5094.00 5572.01 80.40 4.00 201.82 2595.14
   04:38:12.041.17-Sep-2021 5094.00 5572.04 80.40 4.00 202.02 2595.14
   04:38:12.241.17-Sep-2021 5094.00 5572.60 80.40 4.00 202.22 2595.14
   04:38:12.441.17-Sep-2021 5094.00 5572.60 80.40 4.00 202.42 2595.14
   04:38:12.641.17-Sep-2021 5094.00 5573.07 80.40 4.00 202.62 2595.14
   04:38:12.842.17-Sep-2021 5094.00 5572.91 80.40 4.00 202.82 2595.14
   04:38:13.042.17-Sep-2021 5094.00 5572.74 80.40 4.00 203.02 2595.14
   04:38:13.242.17-Sep-2021 5094.00 5573.17 80.40 4.00 203.22 2595.14
   04:38:13.442.17-Sep-2021 5094.00 5573.17 80.40 4.00 203.42 2595.14
   04:38:13.643.17-Sep-2021 5094.00 5573.14 80.40 4.00 203.62 2595.14
   04:38:13.843.17-Sep-2021 5094.00 5574.76 80.40 4.00 203.82 2595.14
   04:38:14.043.17-Sep-2021 5094.00 5573.09 80.40 4.00 204.02 2595.14
   04:38:14.243.17-Sep-2021 5094.00 5572.97 80.40 4.00 204.22 2595.14
   04:38:14.443.17-Sep-2021 5094.00 5572.97 80.40 4.00 204.42 2595.14
   04:38:14.644.17-Sep-2021 5094.00 5572.50 80.40 4.00 204.62 2595.14
   04:38:14.844.17-Sep-2021 5094.00 5572.32 80.40 4.00 204.82 2595.14
   04:38:15.044.17-Sep-2021 5094.00 5571.98 80.40 4.00 205.02 2595.14
   04:38:15.244.17-Sep-2021 5094.00 5572.42 80.40 4.00 205.22 2595.14
   04:38:15.444.17-Sep-2021 5094.00 5572.42 80.40 4.00 205.42 2595.14
   04:38:15.645.17-Sep-2021 5094.00 5572.33 80.40 4.00 205.62 2595.14
   04:38:15.845.17-Sep-2021 5094.00 5572.36 80.40 4.00 205.82 2595.14
   04:38:16.045.17-Sep-2021 5094.00 5572.57 80.40 4.00 206.02 2595.14
   04:38:16.245.17-Sep-2021 5094.00 5572.84 80.39 4.00 206.22 2595.14
   04:38:16.446.17-Sep-2021 5094.00 5572.84 80.39 4.00 206.42 2595.14
   04:38:16.646.17-Sep-2021 5094.00 5573.22 80.39 4.00 206.62 2595.14
   04:38:16.846.17-Sep-2021 5094.00 5573.56 80.39 4.00 206.82 2595.14
   04:38:17.046.17-Sep-2021 5094.00 5575.22 80.39 4.00 207.02 2595.14
