~Version Information
 VERS.                  2.0:   CWLS log ASCII Standard -VERSION 2.0
 WRAP.                   NO:   One line per depth step
~Well Information Block
#MNEM.UNIT     VALUE/NAME     DESCRIPTION
#---------     -----------    ---------------------------
 STRT.S             06:26:37 17-Sep-21: START TIME 06:26:37 17-Sep-21
 STOP.S             06:35:42 17-Sep-21: STOP TIME  06:35:42 17-Sep-21
 STEP.S                   0.00: STEP TIME
 NULL.                 -999.25: NULL VALUE
 DFWT.                        :  DIST FWL TEXT
 DFST.                        :  DIST FSL TEXT
 DMF .             Drill Floor:  DRILL MEAS FROM
 STIM.      10.59.12 05-Jul-21:  START TIME
 DATE.      10.59.12 10-Sep-21:  END TIME
 SPUD.               05-Jul-21:  SPUD DATE
 NREF.                    Grid:  NORTH REFERENCE
 HPTY.       Minimum Curvature:  HOLE POS TYPE
 DMOD.             Drill Model:  DRILL MOD DESC
 SVYD.                  Survey:  SURVEY DESC
 ILTD.               Lithology:  INTERP LTH DESC
 FTOP.          Formation Tops:  FORM TOPS DESC
 RIG .                     DWG:  RIG NAME
 PDAT.          Mean Sea Level:  PERMANENT DATUM
 FLD .                     ACG:  FIELD NAME
 SON .        AZ-XX-0907115008:  JOB NUMBER
 CTRY.              Azerbaijan:  COUNTRY NAME
 WELL.                    E35A:  WELL NAME
 SRVC.          TURAN DRILLING:  CONTRACTOR
 COMP.     BP Exploration (Caspian Sea LTD):  COMPANY
 UWI .                     N/A:  UNIQUE WELL IDENTIFIER
 API .                     N/A:  API NUMBER
 MDS .        Operator Entered:  MAG DATA SOURCE
 BASE.              Azerbaijan:  LOGGING EQUIPMENT BASE LOCATION
 REGN.                   EESSA:  REGION
 PROV.                    Baku:  PROVINCE
 STAT.                    Baku:  STATE NAME
 MWDS.                    Baku:  MWD SHOP
 JOBN.        AZ-XX-0907115008:  JOB TICKET NUMB
 DOE .                     N/A:  DOE NUMBER
 DCON.         Sperry Drilling:  DIRECTNL CONTR
 UNIT.                     N/A:  LOGGING EQUIPMENT ID
 WTYP.                Deviated:  WELL TYPE
 CNTY.                        :  COUNTY
 LOC .                        :  LOCATION
 LMF .             Drill Floor:  LOG MEASURED FROM
 TVDS.m                  43.16:  TVDSS CORRECTN
 LATI.deg                40.17:  LATITUDE
 LONG.deg                51.17:  LONGITUDE
 WHNS.m                  10.51:  WELL HEAD N/S
 WHEW.m                 -14.82:  WELL HEAD E/W
 UTMX.m              514336.92:  UTM X
 UTMY.m             4448618.56:  UTM Y
 DFWL.m                   0.00:  DISTANCE FWL
 DFSL.m                   0.00:  DISTANCE FSL
 SDEP.m                 849.00:  START DEPTH
 TDD .m                2862.00:  TOTAL DEPTH (DRILLER)
 VSDR.deg               292.10:  VERT SEC DIRECT
 GVFD.g                   1.00:  GRAVITY FIELD
 MFLD.nT              50382.00:  MAGNETIC FIELD
 MDIP.deg                59.68:  MAGNETIC DIP
 MDEC.deg                 6.66:  MAGNETIC DECL
 GRDC.deg                 0.09:  GRID CORRECTION
 AZTC.deg                 6.57:  AZM TOTAL CORR
 EPD .m                   0.00:  ELEVATION
 EGL .m                   0.00:  GROUND ELEVATION
 WDMS.m                 176.20:  WD ELEV
 APD .m                  43.16:  DEPTH ABOVE PD
 DEP .m                 363.42:  DEPTH
 AGAP.m                  43.16:  AIR GAP
 VSEW.m                 -14.82:  VERT SEC E/W
 VSNS.m                  10.51:  VERT SEC N/S
 EKB .m                  43.16:  KB ELEVATION
 EDF .m                  43.16:  DF ELEVATION
 TDL .m                1390.00:  TOTAL DEPTH (LOGGER)
 VSC .                       0:  VS TO CLOSURE
 MAGU.                 1855871:  MAGUTM CHECKSUM
~Parameter Information Block
#MNEM.UNIT       Value        Description
#---------     -----------    ---------------------------
 AV  .mps                 2.28:  Ann Velocity 
 AVMX.mps                 2.67:  Max Ann Veloc 
 AZIF.deg               305.00:  Azm, Final 
 BHAT.        Rotary Steerable:  BHA Type 
 BROT.°/30m               0.45:  Build Rotating 
 BS  .in                 12.25:  Bit Size 
 BSZ .in                 12.25:  Bit Size 
 BTPL.psig              600.00:  Bit Press Loss 
 CABU.                     Yes:  Customer Abuse 
 COMM.                     D5N:  Run Comments 1 
 TCS .hr                150.00:  Time Ciculation Ended 
 CV  .mps                 1.24:  Crit Velocity 
 CVMX.mps                 1.66:  Max Crit Veloc 
 DD1 .         Intigam Rahimov:  Direct Drillr 1 
 DD2 .            Azer Ravavov:  Direct Drillr 2 
 DD3 .              Samir Abas:  Direct Drillr 3 
 DDSV.               Geo-Pilot:  DD Service 
 DEFF.%                 100.00:  % Det Eff 
 DLRX.°/30m               1.57:  Dogleg Rot Max 
 DLSO.°/30m               0.00:  Dogleg Oriented 
 DLSX.°/30m               0.00:  Dogleg Str Max 
 DRET.      20.28.06 17-Sep-21:  Drill End Time 
 DRST.      20.27.35 10-Sep-21:  Drill Start Tim 
 DTIM.hr                 54.00:  Time Drilling 
 EDEP.m                5260.00:  End Depth 
 ENG1.      Bakhtiyar Jabbarli:  Engineer 1 
 ENG2.      Natik Hasanaghayev:  Engineer 2 
 ENG3.           Royal Nasirov:  Engineer 3 
 ETIM.      20.27.55 18-Sep-21:  End Time 
 FLOI.gpm              1100.00:  Flow In 
 FLON.gpm               800.00:  Flow In Min 
 FLOS.cptm                0.00:  Fluid Loss 
 FLOX.gpm              1200.00:  Flow In Max 
 DFT .        Mineral Oil Base:  Mud Type 
 HPRE.                      No:  High Pressure 
 HTEM.                      No:  High Temp 
 HYDO.m                   1.80:  Hydro Offset 
 IFIN.deg                72.31:  Inc, Final 
 IMAX.deg                72.36:  Inc Max 
 IMIN.deg                69.36:  Inc Min 
 IMND.m                4192.96:  Inc Min Depth 
 IMXD.m                5128.36:  Inc Max Depth 
 JARR.                      No:  Jarring 
 LETM.      20.29.00 17-Sep-21:  Log End Time 
 LOST.hr                     0:  Lost Rig Time 
 LSTM.      20.27.00 10-Sep-21:  Log Start Time 
 MDCL.ppm            227000.00:  Mud Chlorides 
 MDES.     Inversion Oil/Synthetic:  Mud Desc 
 DFD .sg                  1.45:  Mud Density 
 MDMN.sg                  1.45:  Dens Mud Min 
 MDMX.sg                  1.45:  Dens Mud Max 
 MOIL.                    70.5:  Run Mud Oil % 
 MOWR.                   71:29:  Run Mud OWR 
 MSND.                     0.3:  Run Mud Sand % 
 MSOL.                    19.8:  Run Mud Solids% 
 DFV .spqt               80.00:  Mud Viscosity 
 MWOD.in                  8.00:  MWD Tool OD 
 MWSI.                     Yes:  Serv Intrp, MWD 
 OTIM.hr                180.00:  Time Operating 
 PCON.           Look Like New:  Pad Condition 
 PMAX.psia             9910.94:  Press Op, Max 
 PV  .cP                 35.00:  Mud PV 
 RUN .                    1000:  Run Number 
 ROPA.m/hr               18.00:  ROP Avg 
 ROPN.m/hr                8.00:  ROP Min 
 ROPX.m/hr               23.00:  ROP Max 
 RPMA.rpm               150.00:  RPM Surface Avg 
 RPMN.rpm               120.00:  RPM Surface Min 
 RPMX.rpm               160.00:  RPM Surface Max 
 RRUN.                    L503:  Rig Run Number 
 RTIM.hr                  5.00:  Time Reaming 
 SAZI.deg               298.42:  Azm, Start 
 SDEP.m                3870.00:  Start Depth 
 SIDD.                      No:  Serv Intrp, DD 
 SINC.deg                69.57:  Inc, Start 
 SPPA.psig             5500.00:  SPP Avg 
 SPPN.psig             4400.00:  SPP Min 
 SPPX.psig             5800.00:  SPP Max 
 STIM.      15.29.39 09-Sep-21:  Start Time 
 SVCS.                 DD, MWD:  Services 
 SVER.                    9.20:  Sperry Version 
 TDAT.m                5260.00:  Tot Depth Attmp 
 TDDF.                      No:  Trip for DD 
 TDLG.m                1390.00:  Tot Depth Loggd 
 TFF .                      No:  Trip for Fail 
 TQAA.f-kp               22.00:  Torque Abs Avg 
 TQAN.f-kp               13.00:  Torque Abs Min 
 TQAX.f-kp               27.00:  Torque Abs Max 
 TRRT.°/30m               1.60:  Turn Rotating 
 MRT .                  EWR-M5:  Maximum Recorded Temperature 
 TTMX.degC               92.00:  Max Tool Temp 
 VS01.                12330975:  Virtual Str1 SN 
 VS02.                90658671:  Virtual Str2 SN 
 VS03.                90658508:  Virtual Str3 SN 
 VS04.                90660974:  Virtual Str4 SN 
 VS05.                90654675:  Virtual Str5 SN 
 WBMN.klb                15.00:  WOB Min 
 WITN.     Alexander Yadullayev:  Customer Rep 
 WITN.           Adil Mammadov:  Customer Rep 2 
 WOBA.klb                17.00:  WOB Avg 
 WOBX.klb                18.00:  WOB Max 
 YP  .lhf2               31.00:  Yield Point 
~Curve Information Block
#MNEM.UNIT                 API CODE     Curve Description
#---------               -----------    ---------------------------
 TIME.HHMMSS            00 000 000 000:  GT Time & Date
 GTDEPTH.m              00 000 000 000:  GT Depth
 GTPQH.psia             00 000 000 000:  GT HR Quartz Pressure
 GTTQ.degC              00 000 000 000:  GT Quartz Temperature
 GTTN.NONE              00 000 000 000:  GT Test Number
 GTET.sec               00 000 000 000:  GT Elapsed Test Time
 GTTVD.m                00 000 000 000:  GT True Vertical Depth
#Other Information
#
#WARRANTY: Halliburton will use its best efforts to furnish customers with 
#accurate information and interpretations that are part of, and incident to, the services 
#provided.  However, Halliburton cannot and does not warrant the accuracy 
#or correctness of such information and interpretations.  Under no circumstances should any 
#such information or interpretation be relied upon as the sole basis for any drilling, 
#completion, production, or financial decision or any procedure involving any risk to the 
#safety of any drilling venture, drilling rig or its crew or any other third party.  The 
#Customer has full responsibility for all drilling, completion and production operation.  
#Halliburton makes no representations or warranties, either expressed or 
#implied, including, but not limited to, the implied warranties of merchantability or fitness 
#for a particular purpose, with respect to the services rendered.  In no event will 
#Halliburton be liable for failure to obtain any particular results or for 
#any damages, including, but not limited to, indirect, special or consequential damages, 
#resulting from the use of any information or interpretation provided by Halliburton.
#
~A           TIME           GTDEPTH  GTPQH  GTTQ  GTTN  GTET   GTTVD  
# ...
   06:28:55.327.17-Sep-2021 5057.00 3007.01 78.64 7.00 137.97 2583.65
   06:28:55.527.17-Sep-2021 5057.00 3007.01 78.64 7.00 138.17 2583.65
   06:28:55.727.17-Sep-2021 5057.00 3012.91 78.64 7.00 138.37 2583.65
   06:28:55.927.17-Sep-2021 5057.00 3015.43 78.64 7.00 138.57 2583.65
   06:28:56.127.17-Sep-2021 5057.00 3017.03 78.64 7.00 138.77 2583.65
   06:28:56.327.17-Sep-2021 5057.00 3019.46 78.64 7.00 138.97 2583.65
   06:28:56.527.17-Sep-2021 5057.00 3019.46 78.64 7.00 139.17 2583.65
   06:28:56.727.17-Sep-2021 5057.00 3024.45 78.64 7.00 139.37 2583.65
   06:28:56.927.17-Sep-2021 5057.00 3026.27 78.64 7.00 139.57 2583.65
   06:28:57.127.17-Sep-2021 5057.00 3028.62 78.64 7.00 139.77 2583.65
   06:28:57.327.17-Sep-2021 5057.00 3031.29 78.64 7.00 139.97 2583.65
   06:28:57.527.17-Sep-2021 5057.00 3031.29 78.64 7.00 140.17 2583.65
   06:28:57.727.17-Sep-2021 5057.00 3036.40 78.64 7.00 140.37 2583.65
   06:28:57.927.17-Sep-2021 5057.00 3038.52 78.64 7.00 140.57 2583.65
   06:28:58.127.17-Sep-2021 5057.00 3040.35 78.64 7.00 140.77 2583.65
   06:28:58.327.17-Sep-2021 5057.00 3042.76 78.64 7.00 140.97 2583.65
   06:28:58.527.17-Sep-2021 5057.00 3042.76 78.64 7.00 141.17 2583.65
   06:28:58.727.17-Sep-2021 5057.00 3047.22 78.64 7.00 141.37 2583.65
   06:28:58.927.17-Sep-2021 5057.00 3049.38 78.64 7.00 141.57 2583.65
   06:28:59.126.17-Sep-2021 5057.00 3052.86 78.64 7.00 141.77 2583.65
   06:28:59.326.17-Sep-2021 5057.00 3055.25 78.64 7.00 141.97 2583.65
   06:28:59.526.17-Sep-2021 5057.00 3055.25 78.64 7.00 142.17 2583.65
   06:28:59.726.17-Sep-2021 5057.00 3059.05 78.64 7.00 142.37 2583.65
   06:28:59.926.17-Sep-2021 5057.00 3061.61 78.64 7.00 142.57 2583.65
   06:29:00.126.17-Sep-2021 5057.00 3063.67 78.64 7.00 142.77 2583.65
   06:29:00.326.17-Sep-2021 5057.00 3065.68 78.64 7.00 142.97 2583.65
   06:29:00.526.17-Sep-2021 5057.00 3065.68 78.64 7.00 143.17 2583.65
   06:29:00.726.17-Sep-2021 5057.00 3070.43 78.64 7.00 143.37 2583.65
   06:29:00.926.17-Sep-2021 5057.00 3072.36 78.64 7.00 143.57 2583.65
   06:29:01.126.17-Sep-2021 5057.00 3074.43 78.64 7.00 143.77 2583.65
   06:29:01.326.17-Sep-2021 5057.00 3076.84 78.64 7.00 143.97 2583.65
   06:29:01.526.17-Sep-2021 5057.00 3076.84 78.64 7.00 144.17 2583.65
   06:29:01.726.17-Sep-2021 5057.00 3081.77 78.64 7.00 144.37 2583.65
   06:29:01.926.17-Sep-2021 5057.00 3084.21 78.64 7.00 144.57 2583.65
   06:29:02.126.17-Sep-2021 5057.00 3086.42 78.64 7.00 144.77 2583.65
   06:29:02.326.17-Sep-2021 5057.00 3089.54 78.64 7.00 144.97 2583.65
   06:29:02.526.17-Sep-2021 5057.00 3089.54 78.64 7.00 145.17 2583.65
   06:29:02.726.17-Sep-2021 5057.00 3091.80 78.64 7.00 145.37 2583.65
   06:29:02.926.17-Sep-2021 5057.00 3095.54 78.64 7.00 145.57 2583.65
   06:29:03.126.17-Sep-2021 5057.00 3097.81 78.64 7.00 145.77 2583.65
   06:29:03.326.17-Sep-2021 5057.00 3099.92 78.64 7.00 145.97 2583.65
   06:29:03.526.17-Sep-2021 5057.00 3099.92 78.64 7.00 146.17 2583.65
   06:29:03.726.17-Sep-2021 5057.00 3101.94 78.64 7.00 146.37 2583.65
   06:29:03.925.17-Sep-2021 5057.00 3106.27 78.64 7.00 146.57 2583.65
   06:29:04.125.17-Sep-2021 5057.00 3108.63 78.64 7.00 146.77 2583.65
   06:29:04.325.17-Sep-2021 5057.00 3110.92 78.64 7.00 146.97 2583.65
   06:29:04.525.17-Sep-2021 5057.00 3110.92 78.64 7.00 147.17 2583.65
   06:29:04.725.17-Sep-2021 5057.00 3115.39 78.64 7.00 147.37 2583.65
   06:29:04.925.17-Sep-2021 5057.00 3117.39 78.64 7.00 147.57 2583.65
   06:29:05.125.17-Sep-2021 5057.00 3119.49 78.64 7.00 147.77 2583.65
   06:29:05.325.17-Sep-2021 5057.00 3121.72 78.64 7.00 147.97 2583.65
   06:29:05.525.17-Sep-2021 5057.00 3121.72 78.64 7.00 148.17 2583.65
   06:29:05.725.17-Sep-2021 5057.00 3127.34 78.64 7.00 148.37 2583.65
   06:29:05.925.17-Sep-2021 5057.00 3128.94 78.64 7.00 148.57 2583.65
   06:29:06.125.17-Sep-2021 5057.00 3131.01 78.64 7.00 148.77 2583.65
   06:29:06.325.17-Sep-2021 5057.00 3133.09 78.64 7.00 148.97 2583.65
   06:29:06.525.17-Sep-2021 5057.00 3133.09 78.64 7.00 149.17 2583.65
   06:29:06.725.17-Sep-2021 5057.00 3138.23 78.64 7.00 149.37 2583.65
   06:29:06.925.17-Sep-2021 5057.00 3139.47 78.64 7.00 149.57 2583.65
   06:29:07.125.17-Sep-2021 5057.00 3141.63 78.64 7.00 149.77 2583.65
   06:29:07.325.17-Sep-2021 5057.00 3143.87 78.64 7.00 149.97 2583.65
   06:29:07.525.17-Sep-2021 5057.00 3143.87 78.64 7.00 150.17 2583.65
   06:29:07.725.17-Sep-2021 5057.00 3148.11 78.64 7.00 150.37 2583.65
   06:29:07.925.17-Sep-2021 5057.00 3150.38 78.64 7.00 150.57 2583.65
   06:29:08.125.17-Sep-2021 5057.00 3151.84 78.64 7.00 150.77 2583.65
   06:29:08.325.17-Sep-2021 5057.00 3153.80 78.64 7.00 150.97 2583.65
   06:29:08.524.17-Sep-2021 5057.00 3153.80 78.64 7.00 151.17 2583.65
   06:29:08.724.17-Sep-2021 5057.00 3158.38 78.64 7.00 151.37 2583.65
   06:29:08.924.17-Sep-2021 5057.00 3159.87 78.64 7.00 151.57 2583.65
   06:29:09.124.17-Sep-2021 5057.00 3162.08 78.64 7.00 151.77 2583.65
   06:29:09.324.17-Sep-2021 5057.00 3164.41 78.64 7.00 151.97 2583.65
   06:29:09.524.17-Sep-2021 5057.00 3164.41 78.64 7.00 152.17 2583.65
   06:29:09.724.17-Sep-2021 5057.00 3168.32 78.64 7.00 152.37 2583.65
   06:29:09.924.17-Sep-2021 5057.00 3170.43 78.64 7.00 152.57 2583.65
   06:29:10.124.17-Sep-2021 5057.00 3172.37 78.64 7.00 152.77 2583.65
   06:29:10.324.17-Sep-2021 5057.00 3174.44 78.64 7.00 152.97 2583.65
   06:29:10.524.17-Sep-2021 5057.00 3174.44 78.64 7.00 153.17 2583.65
   06:29:10.724.17-Sep-2021 5057.00 3178.44 78.64 7.00 153.37 2583.65
   06:29:10.924.17-Sep-2021 5057.00 3180.54 78.64 7.00 153.57 2583.65
   06:29:11.124.17-Sep-2021 5057.00 3182.67 78.64 7.00 153.77 2583.65
   06:29:11.324.17-Sep-2021 5057.00 3184.82 78.64 7.00 153.97 2583.65
   06:29:11.524.17-Sep-2021 5057.00 3184.82 78.64 7.00 154.17 2583.65
   06:29:11.724.17-Sep-2021 5057.00 3189.87 78.64 7.00 154.37 2583.65
   06:29:11.924.17-Sep-2021 5057.00 3192.94 78.64 7.00 154.57 2583.65
   06:29:12.124.17-Sep-2021 5057.00 3194.36 78.64 7.00 154.77 2583.65
   06:29:12.324.17-Sep-2021 5057.00 3196.16 78.64 7.00 154.97 2583.65
   06:29:12.524.17-Sep-2021 5057.00 3196.16 78.64 7.00 155.17 2583.65
   06:29:12.724.17-Sep-2021 5057.00 3199.81 78.64 7.00 155.37 2583.65
   06:29:12.924.17-Sep-2021 5057.00 3201.40 78.64 7.00 155.57 2583.65
   06:29:13.123.17-Sep-2021 5057.00 3203.28 78.64 7.00 155.77 2583.65
   06:29:13.323.17-Sep-2021 5057.00 3205.21 78.64 7.00 155.97 2583.65
   06:29:13.523.17-Sep-2021 5057.00 3205.21 78.64 7.00 156.17 2583.65
   06:29:13.723.17-Sep-2021 5057.00 3209.38 78.64 7.00 156.37 2583.65
   06:29:13.923.17-Sep-2021 5057.00 3211.46 78.64 7.00 156.57 2583.65
   06:29:14.123.17-Sep-2021 5057.00 3213.45 78.64 7.00 156.77 2583.65
   06:29:14.323.17-Sep-2021 5057.00 3215.39 78.64 7.00 156.97 2583.65
   06:29:14.523.17-Sep-2021 5057.00 3215.39 78.64 7.00 157.17 2583.65
   06:29:14.723.17-Sep-2021 5057.00 3219.52 78.64 7.00 157.37 2583.65
   06:29:14.923.17-Sep-2021 5057.00 3222.09 78.64 7.00 157.57 2583.65
   06:29:15.123.17-Sep-2021 5057.00 3224.85 78.64 7.00 157.77 2583.65
   06:29:15.323.17-Sep-2021 5057.00 3226.06 78.64 7.00 157.97 2583.65
   06:29:15.523.17-Sep-2021 5057.00 3226.06 78.64 7.00 158.17 2583.65
   06:29:15.723.17-Sep-2021 5057.00 3230.22 78.64 7.00 158.37 2583.65
   06:29:15.923.17-Sep-2021 5057.00 3232.79 78.64 7.00 158.57 2583.65
   06:29:16.123.17-Sep-2021 5057.00 3235.13 78.64 7.00 158.77 2583.65
   06:29:16.323.17-Sep-2021 5057.00 3236.40 78.64 7.00 158.97 2583.65
   06:29:16.523.17-Sep-2021 5057.00 3236.40 78.64 7.00 159.17 2583.65
   06:29:16.723.17-Sep-2021 5057.00 3240.01 78.64 7.00 159.37 2583.65
   06:29:16.923.17-Sep-2021 5057.00 3243.20 78.64 7.00 159.57 2583.65
   06:29:17.123.17-Sep-2021 5057.00 3244.50 78.64 7.00 159.77 2583.65
   06:29:17.323.17-Sep-2021 5057.00 3245.59 78.64 7.00 159.97 2583.65
   06:29:17.523.17-Sep-2021 5057.00 3245.59 78.64 7.00 160.17 2583.65
   06:29:17.723.17-Sep-2021 5057.00 3250.28 78.64 7.00 160.37 2583.65
   06:29:17.922.17-Sep-2021 5057.00 3251.91 78.64 7.00 160.57 2583.65
   06:29:18.122.17-Sep-2021 5057.00 3253.68 78.64 7.00 160.77 2583.65
