~Version Information
 VERS.                  2.0:   CWLS log ASCII Standard -VERSION 2.0
 WRAP.                   NO:   One line per depth step
~Well Information Block
#MNEM.UNIT     VALUE/NAME     DESCRIPTION
#---------     -----------    ---------------------------
 STRT.S             01:51:55 17-Sep-21: START TIME 01:51:55 17-Sep-21
 STOP.S             02:00:37 17-Sep-21: STOP TIME  02:00:37 17-Sep-21
 STEP.S                   0.00: STEP TIME
 NULL.                 -999.25: NULL VALUE
 DFWT.                        :  DIST FWL TEXT
 DFST.                        :  DIST FSL TEXT
 DMF .             Drill Floor:  DRILL MEAS FROM
 STIM.      10.59.12 05-Jul-21:  START TIME
 DATE.      10.59.12 10-Sep-21:  END TIME
 SPUD.               05-Jul-21:  SPUD DATE
 NREF.                    Grid:  NORTH REFERENCE
 HPTY.       Minimum Curvature:  HOLE POS TYPE
 DMOD.             Drill Model:  DRILL MOD DESC
 SVYD.                  Survey:  SURVEY DESC
 ILTD.               Lithology:  INTERP LTH DESC
 FTOP.          Formation Tops:  FORM TOPS DESC
 RIG .                     DWG:  RIG NAME
 PDAT.          Mean Sea Level:  PERMANENT DATUM
 FLD .                     ACG:  FIELD NAME
 SON .        AZ-XX-0907115008:  JOB NUMBER
 CTRY.              Azerbaijan:  COUNTRY NAME
 WELL.                    E35A:  WELL NAME
 SRVC.          TURAN DRILLING:  CONTRACTOR
 COMP.     BP Exploration (Caspian Sea LTD):  COMPANY
 UWI .                     N/A:  UNIQUE WELL IDENTIFIER
 API .                     N/A:  API NUMBER
 MDS .        Operator Entered:  MAG DATA SOURCE
 BASE.              Azerbaijan:  LOGGING EQUIPMENT BASE LOCATION
 REGN.                   EESSA:  REGION
 PROV.                    Baku:  PROVINCE
 STAT.                    Baku:  STATE NAME
 MWDS.                    Baku:  MWD SHOP
 JOBN.        AZ-XX-0907115008:  JOB TICKET NUMB
 DOE .                     N/A:  DOE NUMBER
 DCON.         Sperry Drilling:  DIRECTNL CONTR
 UNIT.                     N/A:  LOGGING EQUIPMENT ID
 WTYP.                Deviated:  WELL TYPE
 CNTY.                        :  COUNTY
 LOC .                        :  LOCATION
 LMF .             Drill Floor:  LOG MEASURED FROM
 TVDS.m                  43.16:  TVDSS CORRECTN
 LATI.deg                40.17:  LATITUDE
 LONG.deg                51.17:  LONGITUDE
 WHNS.m                  10.51:  WELL HEAD N/S
 WHEW.m                 -14.82:  WELL HEAD E/W
 UTMX.m              514336.92:  UTM X
 UTMY.m             4448618.56:  UTM Y
 DFWL.m                   0.00:  DISTANCE FWL
 DFSL.m                   0.00:  DISTANCE FSL
 SDEP.m                 849.00:  START DEPTH
 TDD .m                2862.00:  TOTAL DEPTH (DRILLER)
 VSDR.deg               292.10:  VERT SEC DIRECT
 GVFD.g                   1.00:  GRAVITY FIELD
 MFLD.nT              50382.00:  MAGNETIC FIELD
 MDIP.deg                59.68:  MAGNETIC DIP
 MDEC.deg                 6.66:  MAGNETIC DECL
 GRDC.deg                 0.09:  GRID CORRECTION
 AZTC.deg                 6.57:  AZM TOTAL CORR
 EPD .m                   0.00:  ELEVATION
 EGL .m                   0.00:  GROUND ELEVATION
 WDMS.m                 176.20:  WD ELEV
 APD .m                  43.16:  DEPTH ABOVE PD
 DEP .m                 363.42:  DEPTH
 AGAP.m                  43.16:  AIR GAP
 VSEW.m                 -14.82:  VERT SEC E/W
 VSNS.m                  10.51:  VERT SEC N/S
 EKB .m                  43.16:  KB ELEVATION
 EDF .m                  43.16:  DF ELEVATION
 TDL .m                1390.00:  TOTAL DEPTH (LOGGER)
 VSC .                       0:  VS TO CLOSURE
 MAGU.                 1855871:  MAGUTM CHECKSUM
~Parameter Information Block
#MNEM.UNIT       Value        Description
#---------     -----------    ---------------------------
 AV  .mps                 2.28:  Ann Velocity 
 AVMX.mps                 2.67:  Max Ann Veloc 
 AZIF.deg               305.00:  Azm, Final 
 BHAT.        Rotary Steerable:  BHA Type 
 BROT.°/30m               0.45:  Build Rotating 
 BS  .in                 12.25:  Bit Size 
 BSZ .in                 12.25:  Bit Size 
 BTPL.psig              600.00:  Bit Press Loss 
 CABU.                     Yes:  Customer Abuse 
 COMM.                     ü¢v:  Run Comments 1 
 TCS .hr                150.00:  Time Ciculation Ended 
 CV  .mps                 1.24:  Crit Velocity 
 CVMX.mps                 1.66:  Max Crit Veloc 
 DD1 .         Intigam Rahimov:  Direct Drillr 1 
 DD2 .            Azer Ravavov:  Direct Drillr 2 
 DD3 .              Samir Abas:  Direct Drillr 3 
 DDSV.               Geo-Pilot:  DD Service 
 DEFF.%                 100.00:  % Det Eff 
 DLRX.°/30m               1.57:  Dogleg Rot Max 
 DLSO.°/30m               0.00:  Dogleg Oriented 
 DLSX.°/30m               0.00:  Dogleg Str Max 
 DRET.      20.28.06 17-Sep-21:  Drill End Time 
 DRST.      20.27.35 10-Sep-21:  Drill Start Tim 
 DTIM.hr                 54.00:  Time Drilling 
 EDEP.m                5260.00:  End Depth 
 ENG1.      Bakhtiyar Jabbarli:  Engineer 1 
 ENG2.      Natik Hasanaghayev:  Engineer 2 
 ENG3.           Royal Nasirov:  Engineer 3 
 ETIM.      20.27.55 18-Sep-21:  End Time 
 FLOI.gpm              1100.00:  Flow In 
 FLON.gpm               800.00:  Flow In Min 
 FLOS.cptm                0.00:  Fluid Loss 
 FLOX.gpm              1200.00:  Flow In Max 
 DFT .        Mineral Oil Base:  Mud Type 
 HPRE.                      No:  High Pressure 
 HTEM.                      No:  High Temp 
 HYDO.m                   1.80:  Hydro Offset 
 IFIN.deg                72.31:  Inc, Final 
 IMAX.deg                72.36:  Inc Max 
 IMIN.deg                69.36:  Inc Min 
 IMND.m                4192.96:  Inc Min Depth 
 IMXD.m                5128.36:  Inc Max Depth 
 JARR.                      No:  Jarring 
 LETM.      20.29.00 17-Sep-21:  Log End Time 
 LOST.hr                     0:  Lost Rig Time 
 LSTM.      20.27.00 10-Sep-21:  Log Start Time 
 MDCL.ppm            227000.00:  Mud Chlorides 
 MDES.     Inversion Oil/Synthetic:  Mud Desc 
 DFD .sg                  1.45:  Mud Density 
 MDMN.sg                  1.45:  Dens Mud Min 
 MDMX.sg                  1.45:  Dens Mud Max 
 MOIL.                    70.5:  Run Mud Oil % 
 MOWR.                   71:29:  Run Mud OWR 
 MSND.                     0.3:  Run Mud Sand % 
 MSOL.                    19.8:  Run Mud Solids% 
 DFV .spqt               80.00:  Mud Viscosity 
 MWOD.in                  8.00:  MWD Tool OD 
 MWSI.                     Yes:  Serv Intrp, MWD 
 OTIM.hr                180.00:  Time Operating 
 PCON.           Look Like New:  Pad Condition 
 PMAX.psia             9910.94:  Press Op, Max 
 PV  .cP                 35.00:  Mud PV 
 RUN .                    1000:  Run Number 
 ROPA.m/hr               18.00:  ROP Avg 
 ROPN.m/hr                8.00:  ROP Min 
 ROPX.m/hr               23.00:  ROP Max 
 RPMA.rpm               150.00:  RPM Surface Avg 
 RPMN.rpm               120.00:  RPM Surface Min 
 RPMX.rpm               160.00:  RPM Surface Max 
 RRUN.                    L503:  Rig Run Number 
 RTIM.hr                  5.00:  Time Reaming 
 SAZI.deg               298.42:  Azm, Start 
 SDEP.m                3870.00:  Start Depth 
 SIDD.                      No:  Serv Intrp, DD 
 SINC.deg                69.57:  Inc, Start 
 SPPA.psig             5500.00:  SPP Avg 
 SPPN.psig             4400.00:  SPP Min 
 SPPX.psig             5800.00:  SPP Max 
 STIM.      15.29.39 09-Sep-21:  Start Time 
 SVCS.                 DD, MWD:  Services 
 SVER.                    9.20:  Sperry Version 
 TDAT.m                5260.00:  Tot Depth Attmp 
 TDDF.                      No:  Trip for DD 
 TDLG.m                1390.00:  Tot Depth Loggd 
 TFF .                      No:  Trip for Fail 
 TQAA.f-kp               22.00:  Torque Abs Avg 
 TQAN.f-kp               13.00:  Torque Abs Min 
 TQAX.f-kp               27.00:  Torque Abs Max 
 TRRT.°/30m               1.60:  Turn Rotating 
 MRT .                  EWR-M5:  Maximum Recorded Temperature 
 TTMX.degC               92.00:  Max Tool Temp 
 VS01.                12330975:  Virtual Str1 SN 
 VS02.                90658671:  Virtual Str2 SN 
 VS03.                90658508:  Virtual Str3 SN 
 VS04.                90660974:  Virtual Str4 SN 
 VS05.                90654675:  Virtual Str5 SN 
 WBMN.klb                15.00:  WOB Min 
 WITN.     Alexander Yadullayev:  Customer Rep 
 WITN.           Adil Mammadov:  Customer Rep 2 
 WOBA.klb                17.00:  WOB Avg 
 WOBX.klb                18.00:  WOB Max 
 YP  .lhf2               31.00:  Yield Point 
~Curve Information Block
#MNEM.UNIT                 API CODE     Curve Description
#---------               -----------    ---------------------------
 TIME.HHMMSS            00 000 000 000:  GT Time & Date
 GTDEPTH.m              00 000 000 000:  GT Depth
 GTPQH.psia             00 000 000 000:  GT HR Quartz Pressure
 GTTQ.degC              00 000 000 000:  GT Quartz Temperature
 GTTN.NONE              00 000 000 000:  GT Test Number
 GTET.sec               00 000 000 000:  GT Elapsed Test Time
 GTTVD.m                00 000 000 000:  GT True Vertical Depth
#Other Information
#
#WARRANTY: Halliburton will use its best efforts to furnish customers with 
#accurate information and interpretations that are part of, and incident to, the services 
#provided.  However, Halliburton cannot and does not warrant the accuracy 
#or correctness of such information and interpretations.  Under no circumstances should any 
#such information or interpretation be relied upon as the sole basis for any drilling, 
#completion, production, or financial decision or any procedure involving any risk to the 
#safety of any drilling venture, drilling rig or its crew or any other third party.  The 
#Customer has full responsibility for all drilling, completion and production operation.  
#Halliburton makes no representations or warranties, either expressed or 
#implied, including, but not limited to, the implied warranties of merchantability or fitness 
#for a particular purpose, with respect to the services rendered.  In no event will 
#Halliburton be liable for failure to obtain any particular results or for 
#any damages, including, but not limited to, indirect, special or consequential damages, 
#resulting from the use of any information or interpretation provided by Halliburton.
#
~A           TIME           GTDEPTH  GTPQH  GTTQ  GTTN  GTET   GTTVD  
# ...
   01:58:03.000.17-Sep-2021 5127.00 5569.35 79.85 1.00 368.00 2605.20
   01:58:03.200.17-Sep-2021 5127.00 5569.35 79.85 1.00 368.20 2605.20
   01:58:03.400.17-Sep-2021 5127.00 5568.99 79.85 1.00 368.40 2605.20
   01:58:03.600.17-Sep-2021 5127.00 5569.66 79.85 1.00 368.60 2605.20
   01:58:03.800.17-Sep-2021 5127.00 5568.73 79.85 1.00 368.80 2605.20
   01:58:04.000.17-Sep-2021 5127.00 5568.51 79.85 1.00 369.00 2605.20
   01:58:04.200.17-Sep-2021 5127.00 5568.51 79.85 1.00 369.20 2605.20
   01:58:04.400.17-Sep-2021 5127.00 5568.24 79.85 1.00 369.40 2605.20
   01:58:04.600.17-Sep-2021 5127.00 5569.05 79.85 1.00 369.60 2605.20
   01:58:04.800.17-Sep-2021 5127.00 5567.85 79.85 1.00 369.80 2605.20
   01:58:05.000.17-Sep-2021 5127.00 5568.71 79.85 1.00 370.00 2605.20
   01:58:05.200.17-Sep-2021 5127.00 5568.71 79.85 1.00 370.20 2605.20
   01:58:05.400.17-Sep-2021 5127.00 5569.54 79.85 1.00 370.40 2605.20
   01:58:05.600.17-Sep-2021 5127.00 5567.23 79.85 1.00 370.60 2605.20
   01:58:05.800.17-Sep-2021 5127.00 5569.14 79.85 1.00 370.80 2605.20
   01:58:06.000.17-Sep-2021 5127.00 5568.64 79.85 1.00 371.00 2605.20
   01:58:06.200.17-Sep-2021 5127.00 5568.64 79.85 1.00 371.20 2605.20
   01:58:06.400.17-Sep-2021 5127.00 5568.22 79.85 1.00 371.40 2605.20
   01:58:06.600.17-Sep-2021 5127.00 5568.22 79.85 1.00 371.60 2605.20
   01:58:06.800.17-Sep-2021 5127.00 5568.40 79.85 1.00 371.80 2605.20
   01:58:07.000.17-Sep-2021 5127.00 5568.29 79.85 1.00 372.00 2605.20
   01:58:07.200.17-Sep-2021 5127.00 5568.29 79.85 1.00 372.20 2605.20
   01:58:07.400.17-Sep-2021 5127.00 5568.11 79.85 1.00 372.40 2605.20
   01:58:07.600.17-Sep-2021 5127.00 5568.19 79.85 1.00 372.60 2605.20
   01:58:07.800.17-Sep-2021 5127.00 5568.31 79.85 1.00 372.80 2605.20
   01:58:08.000.17-Sep-2021 5127.00 5568.33 79.85 1.00 373.00 2605.20
   01:58:08.200.17-Sep-2021 5127.00 5568.33 79.85 1.00 373.20 2605.20
   01:58:08.400.17-Sep-2021 5127.00 5568.52 79.85 1.00 373.40 2605.20
   01:58:08.600.17-Sep-2021 5127.00 5569.07 79.85 1.00 373.60 2605.20
   01:58:08.800.17-Sep-2021 5127.00 5569.61 79.85 1.00 373.80 2605.20
   01:58:09.000.17-Sep-2021 5127.00 5568.91 79.85 1.00 374.00 2605.20
   01:58:09.200.17-Sep-2021 5127.00 5568.91 79.85 1.00 374.20 2605.20
   01:58:09.400.17-Sep-2021 5127.00 5568.95 79.85 1.00 374.40 2605.20
   01:58:09.600.17-Sep-2021 5127.00 5568.82 79.85 1.00 374.60 2605.20
   01:58:09.800.17-Sep-2021 5127.00 5568.61 79.85 1.00 374.80 2605.20
   01:58:10.000.17-Sep-2021 5127.00 5568.59 79.85 1.00 375.00 2605.20
   01:58:10.200.17-Sep-2021 5127.00 5568.59 79.85 1.00 375.20 2605.20
   01:58:10.400.17-Sep-2021 5127.00 5568.35 79.85 1.00 375.40 2605.20
   01:58:10.600.17-Sep-2021 5127.00 5568.30 79.85 1.00 375.60 2605.20
   01:58:10.800.17-Sep-2021 5127.00 5568.30 79.85 1.00 375.80 2605.20
   01:58:11.000.17-Sep-2021 5127.00 5568.33 79.85 1.00 376.00 2605.20
   01:58:11.200.17-Sep-2021 5127.00 5568.33 79.85 1.00 376.20 2605.20
   01:58:11.400.17-Sep-2021 5127.00 5568.44 79.85 1.00 376.40 2605.20
   01:58:11.600.17-Sep-2021 5127.00 5568.54 79.85 1.00 376.60 2605.20
   01:58:11.800.17-Sep-2021 5127.00 5568.61 79.85 1.00 376.80 2605.20
   01:58:12.000.17-Sep-2021 5127.00 5569.54 79.85 1.00 377.00 2605.20
   01:58:12.200.17-Sep-2021 5127.00 5569.54 79.85 1.00 377.20 2605.20
   01:58:12.400.17-Sep-2021 5127.00 5568.99 79.85 1.00 377.40 2605.20
   01:58:12.600.17-Sep-2021 5127.00 5568.84 79.84 1.00 377.60 2605.20
   01:58:12.800.17-Sep-2021 5127.00 5569.18 79.84 1.00 377.80 2605.20
   01:58:13.000.17-Sep-2021 5127.00 5569.60 79.85 1.00 378.00 2605.20
   01:58:13.200.17-Sep-2021 5127.00 5569.60 79.85 1.00 378.20 2605.20
   01:58:13.400.17-Sep-2021 5127.00 5569.06 79.84 1.00 378.40 2605.20
   01:58:13.600.17-Sep-2021 5127.00 5568.29 79.84 1.00 378.60 2605.20
   01:58:13.800.17-Sep-2021 5127.00 5567.91 79.84 1.00 378.80 2605.20
   01:58:14.000.17-Sep-2021 5127.00 5568.06 79.84 1.00 379.00 2605.20
   01:58:14.200.17-Sep-2021 5127.00 5568.06 79.84 1.00 379.20 2605.20
   01:58:14.400.17-Sep-2021 5127.00 5567.90 79.84 1.00 379.40 2605.20
   01:58:14.600.17-Sep-2021 5127.00 5568.04 79.84 1.00 379.60 2605.20
   01:58:14.800.17-Sep-2021 5127.00 5567.80 79.84 1.00 379.80 2605.20
   01:58:15.000.17-Sep-2021 5127.00 5568.76 79.84 1.00 380.00 2605.20
   01:58:15.200.17-Sep-2021 5127.00 5568.76 79.84 1.00 380.20 2605.20
   01:58:15.400.17-Sep-2021 5127.00 5568.21 79.84 1.00 380.40 2605.20
   01:58:15.600.17-Sep-2021 5127.00 5568.03 79.84 1.00 380.60 2605.20
   01:58:15.800.17-Sep-2021 5127.00 5568.09 79.84 1.00 380.80 2605.20
   01:58:16.000.17-Sep-2021 5127.00 5568.16 79.84 1.00 381.00 2605.20
   01:58:16.200.17-Sep-2021 5127.00 5568.16 79.84 1.00 381.20 2605.20
   01:58:16.400.17-Sep-2021 5127.00 5568.11 79.84 1.00 381.40 2605.20
   01:58:16.600.17-Sep-2021 5127.00 5568.01 79.84 1.00 381.60 2605.20
   01:58:16.800.17-Sep-2021 5127.00 5567.93 79.84 1.00 381.80 2605.20
   01:58:17.000.17-Sep-2021 5127.00 5567.96 79.84 1.00 382.00 2605.20
   01:58:17.200.17-Sep-2021 5127.00 5567.96 79.84 1.00 382.20 2605.20
   01:58:17.400.17-Sep-2021 5127.00 5568.20 79.84 1.00 382.40 2605.20
   01:58:17.600.17-Sep-2021 5127.00 5568.27 79.84 1.00 382.60 2605.20
   01:58:17.800.17-Sep-2021 5127.00 5568.34 79.84 1.00 382.80 2605.20
   01:58:18.000.17-Sep-2021 5127.00 5569.98 79.84 1.00 383.00 2605.20
   01:58:18.200.17-Sep-2021 5127.00 5569.98 79.84 1.00 383.20 2605.20
   01:58:18.400.17-Sep-2021 5127.00 5569.22 79.84 1.00 383.40 2605.20
   01:58:18.600.17-Sep-2021 5127.00 5569.01 79.84 1.00 383.60 2605.20
   01:58:18.800.17-Sep-2021 5127.00 5568.77 79.84 1.00 383.80 2605.20
   01:58:19.000.17-Sep-2021 5127.00 5568.70 79.84 1.00 384.00 2605.20
   01:58:19.200.17-Sep-2021 5127.00 5568.70 79.84 1.00 384.20 2605.20
   01:58:19.400.17-Sep-2021 5127.00 5568.56 79.84 1.00 384.40 2605.20
   01:58:19.600.17-Sep-2021 5127.00 5568.23 79.84 1.00 384.60 2605.20
   01:58:19.800.17-Sep-2021 5127.00 5568.20 79.84 1.00 384.80 2605.20
   01:58:20.000.17-Sep-2021 5127.00 5568.15 79.84 1.00 385.00 2605.20
   01:58:20.200.17-Sep-2021 5127.00 5568.15 79.84 1.00 385.20 2605.20
   01:58:20.400.17-Sep-2021 5127.00 5568.15 79.84 1.00 385.40 2605.20
   01:58:20.600.17-Sep-2021 5127.00 5568.16 79.84 1.00 385.60 2605.20
   01:58:20.800.17-Sep-2021 5127.00 5568.23 79.84 1.00 385.80 2605.20
   01:58:21.000.17-Sep-2021 5127.00 5568.39 79.84 1.00 386.00 2605.20
   01:58:21.200.17-Sep-2021 5127.00 5568.39 79.84 1.00 386.20 2605.20
   01:58:21.400.17-Sep-2021 5127.00 5569.33 79.84 1.00 386.40 2605.20
   01:58:21.600.17-Sep-2021 5127.00 5568.31 79.84 1.00 386.60 2605.20
   01:58:21.800.17-Sep-2021 5127.00 5569.40 79.84 1.00 386.80 2605.20
   01:58:22.000.17-Sep-2021 5127.00 5569.04 79.84 1.00 387.00 2605.20
   01:58:22.200.17-Sep-2021 5127.00 5569.04 79.84 1.00 387.20 2605.20
   01:58:22.400.17-Sep-2021 5127.00 5568.83 79.84 1.00 387.40 2605.20
   01:58:22.600.17-Sep-2021 5127.00 5569.56 79.84 1.00 387.60 2605.20
   01:58:22.800.17-Sep-2021 5127.00 5568.43 79.84 1.00 387.80 2605.20
   01:58:23.000.17-Sep-2021 5127.00 5568.52 79.84 1.00 388.00 2605.20
   01:58:23.200.17-Sep-2021 5127.00 5568.52 79.84 1.00 388.20 2605.20
   01:58:23.400.17-Sep-2021 5127.00 5568.20 79.84 1.00 388.40 2605.20
   01:58:23.600.17-Sep-2021 5127.00 5568.83 79.84 1.00 388.60 2605.20
   01:58:23.800.17-Sep-2021 5127.00 5567.83 79.84 1.00 388.80 2605.20
   01:58:24.000.17-Sep-2021 5127.00 5568.62 79.84 1.00 389.00 2605.20
   01:58:24.200.17-Sep-2021 5127.00 5568.62 79.84 1.00 389.20 2605.20
   01:58:24.400.17-Sep-2021 5127.00 5569.45 79.84 1.00 389.40 2605.20
   01:58:24.600.17-Sep-2021 5127.00 5567.00 79.84 1.00 389.60 2605.20
   01:58:24.800.17-Sep-2021 5127.00 5568.73 79.84 1.00 389.80 2605.20
   01:58:25.000.17-Sep-2021 5127.00 5568.44 79.84 1.00 390.00 2605.20
   01:58:25.200.17-Sep-2021 5127.00 5568.44 79.84 1.00 390.20 2605.20
   01:58:25.400.17-Sep-2021 5127.00 5568.01 79.84 1.00 390.40 2605.20
   01:58:25.600.17-Sep-2021 5127.00 5568.07 79.84 1.00 390.60 2605.20
   01:58:25.800.17-Sep-2021 5127.00 5568.14 79.84 1.00 390.80 2605.20
