~Version Information
 VERS.                  2.0:   CWLS log ASCII Standard -VERSION 2.0
 WRAP.                   NO:   One line per depth step
~Well Information Block
#MNEM.UNIT     VALUE/NAME     DESCRIPTION
#---------     -----------    ---------------------------
 STRT.S             01:51:55 17-Sep-21: START TIME 01:51:55 17-Sep-21
 STOP.S             02:00:37 17-Sep-21: STOP TIME  02:00:37 17-Sep-21
 STEP.S                   0.00: STEP TIME
 NULL.                 -999.25: NULL VALUE
 DFWT.                        :  DIST FWL TEXT
 DFST.                        :  DIST FSL TEXT
 DMF .             Drill Floor:  DRILL MEAS FROM
 STIM.      10.59.12 05-Jul-21:  START TIME
 DATE.      10.59.12 10-Sep-21:  END TIME
 SPUD.               05-Jul-21:  SPUD DATE
 NREF.                    Grid:  NORTH REFERENCE
 HPTY.       Minimum Curvature:  HOLE POS TYPE
 DMOD.             Drill Model:  DRILL MOD DESC
 SVYD.                  Survey:  SURVEY DESC
 ILTD.               Lithology:  INTERP LTH DESC
 FTOP.          Formation Tops:  FORM TOPS DESC
 RIG .                     DWG:  RIG NAME
 PDAT.          Mean Sea Level:  PERMANENT DATUM
 FLD .                     ACG:  FIELD NAME
 SON .        AZ-XX-0907115008:  JOB NUMBER
 CTRY.              Azerbaijan:  COUNTRY NAME
 WELL.                    E35A:  WELL NAME
 SRVC.          TURAN DRILLING:  CONTRACTOR
 COMP.     BP Exploration (Caspian Sea LTD):  COMPANY
 UWI .                     N/A:  UNIQUE WELL IDENTIFIER
 API .                     N/A:  API NUMBER
 MDS .        Operator Entered:  MAG DATA SOURCE
 BASE.              Azerbaijan:  LOGGING EQUIPMENT BASE LOCATION
 REGN.                   EESSA:  REGION
 PROV.                    Baku:  PROVINCE
 STAT.                    Baku:  STATE NAME
 MWDS.                    Baku:  MWD SHOP
 JOBN.        AZ-XX-0907115008:  JOB TICKET NUMB
 DOE .                     N/A:  DOE NUMBER
 DCON.         Sperry Drilling:  DIRECTNL CONTR
 UNIT.                     N/A:  LOGGING EQUIPMENT ID
 WTYP.                Deviated:  WELL TYPE
 CNTY.                        :  COUNTY
 LOC .                        :  LOCATION
 LMF .             Drill Floor:  LOG MEASURED FROM
 TVDS.m                  43.16:  TVDSS CORRECTN
 LATI.deg                40.17:  LATITUDE
 LONG.deg                51.17:  LONGITUDE
 WHNS.m                  10.51:  WELL HEAD N/S
 WHEW.m                 -14.82:  WELL HEAD E/W
 UTMX.m              514336.92:  UTM X
 UTMY.m             4448618.56:  UTM Y
 DFWL.m                   0.00:  DISTANCE FWL
 DFSL.m                   0.00:  DISTANCE FSL
 SDEP.m                 849.00:  START DEPTH
 TDD .m                2862.00:  TOTAL DEPTH (DRILLER)
 VSDR.deg               292.10:  VERT SEC DIRECT
 GVFD.g                   1.00:  GRAVITY FIELD
 MFLD.nT              50382.00:  MAGNETIC FIELD
 MDIP.deg                59.68:  MAGNETIC DIP
 MDEC.deg                 6.66:  MAGNETIC DECL
 GRDC.deg                 0.09:  GRID CORRECTION
 AZTC.deg                 6.57:  AZM TOTAL CORR
 EPD .m                   0.00:  ELEVATION
 EGL .m                   0.00:  GROUND ELEVATION
 WDMS.m                 176.20:  WD ELEV
 APD .m                  43.16:  DEPTH ABOVE PD
 DEP .m                 363.42:  DEPTH
 AGAP.m                  43.16:  AIR GAP
 VSEW.m                 -14.82:  VERT SEC E/W
 VSNS.m                  10.51:  VERT SEC N/S
 EKB .m                  43.16:  KB ELEVATION
 EDF .m                  43.16:  DF ELEVATION
 TDL .m                1390.00:  TOTAL DEPTH (LOGGER)
 VSC .                       0:  VS TO CLOSURE
 MAGU.                 1855871:  MAGUTM CHECKSUM
~Parameter Information Block
#MNEM.UNIT       Value        Description
#---------     -----------    ---------------------------
 AV  .mps                 2.28:  Ann Velocity 
 AVMX.mps                 2.67:  Max Ann Veloc 
 AZIF.deg               305.00:  Azm, Final 
 BHAT.        Rotary Steerable:  BHA Type 
 BROT.°/30m               0.45:  Build Rotating 
 BS  .in                 12.25:  Bit Size 
 BSZ .in                 12.25:  Bit Size 
 BTPL.psig              600.00:  Bit Press Loss 
 CABU.                     Yes:  Customer Abuse 
 COMM.                     ü¢v:  Run Comments 1 
 TCS .hr                150.00:  Time Ciculation Ended 
 CV  .mps                 1.24:  Crit Velocity 
 CVMX.mps                 1.66:  Max Crit Veloc 
 DD1 .         Intigam Rahimov:  Direct Drillr 1 
 DD2 .            Azer Ravavov:  Direct Drillr 2 
 DD3 .              Samir Abas:  Direct Drillr 3 
 DDSV.               Geo-Pilot:  DD Service 
 DEFF.%                 100.00:  % Det Eff 
 DLRX.°/30m               1.57:  Dogleg Rot Max 
 DLSO.°/30m               0.00:  Dogleg Oriented 
 DLSX.°/30m               0.00:  Dogleg Str Max 
 DRET.      20.28.06 17-Sep-21:  Drill End Time 
 DRST.      20.27.35 10-Sep-21:  Drill Start Tim 
 DTIM.hr                 54.00:  Time Drilling 
 EDEP.m                5260.00:  End Depth 
 ENG1.      Bakhtiyar Jabbarli:  Engineer 1 
 ENG2.      Natik Hasanaghayev:  Engineer 2 
 ENG3.           Royal Nasirov:  Engineer 3 
 ETIM.      20.27.55 18-Sep-21:  End Time 
 FLOI.gpm              1100.00:  Flow In 
 FLON.gpm               800.00:  Flow In Min 
 FLOS.cptm                0.00:  Fluid Loss 
 FLOX.gpm              1200.00:  Flow In Max 
 DFT .        Mineral Oil Base:  Mud Type 
 HPRE.                      No:  High Pressure 
 HTEM.                      No:  High Temp 
 HYDO.m                   1.80:  Hydro Offset 
 IFIN.deg                72.31:  Inc, Final 
 IMAX.deg                72.36:  Inc Max 
 IMIN.deg                69.36:  Inc Min 
 IMND.m                4192.96:  Inc Min Depth 
 IMXD.m                5128.36:  Inc Max Depth 
 JARR.                      No:  Jarring 
 LETM.      20.29.00 17-Sep-21:  Log End Time 
 LOST.hr                     0:  Lost Rig Time 
 LSTM.      20.27.00 10-Sep-21:  Log Start Time 
 MDCL.ppm            227000.00:  Mud Chlorides 
 MDES.     Inversion Oil/Synthetic:  Mud Desc 
 DFD .sg                  1.45:  Mud Density 
 MDMN.sg                  1.45:  Dens Mud Min 
 MDMX.sg                  1.45:  Dens Mud Max 
 MOIL.                    70.5:  Run Mud Oil % 
 MOWR.                   71:29:  Run Mud OWR 
 MSND.                     0.3:  Run Mud Sand % 
 MSOL.                    19.8:  Run Mud Solids% 
 DFV .spqt               80.00:  Mud Viscosity 
 MWOD.in                  8.00:  MWD Tool OD 
 MWSI.                     Yes:  Serv Intrp, MWD 
 OTIM.hr                180.00:  Time Operating 
 PCON.           Look Like New:  Pad Condition 
 PMAX.psia             9910.94:  Press Op, Max 
 PV  .cP                 35.00:  Mud PV 
 RUN .                    1000:  Run Number 
 ROPA.m/hr               18.00:  ROP Avg 
 ROPN.m/hr                8.00:  ROP Min 
 ROPX.m/hr               23.00:  ROP Max 
 RPMA.rpm               150.00:  RPM Surface Avg 
 RPMN.rpm               120.00:  RPM Surface Min 
 RPMX.rpm               160.00:  RPM Surface Max 
 RRUN.                    L503:  Rig Run Number 
 RTIM.hr                  5.00:  Time Reaming 
 SAZI.deg               298.42:  Azm, Start 
 SDEP.m                3870.00:  Start Depth 
 SIDD.                      No:  Serv Intrp, DD 
 SINC.deg                69.57:  Inc, Start 
 SPPA.psig             5500.00:  SPP Avg 
 SPPN.psig             4400.00:  SPP Min 
 SPPX.psig             5800.00:  SPP Max 
 STIM.      15.29.39 09-Sep-21:  Start Time 
 SVCS.                 DD, MWD:  Services 
 SVER.                    9.20:  Sperry Version 
 TDAT.m                5260.00:  Tot Depth Attmp 
 TDDF.                      No:  Trip for DD 
 TDLG.m                1390.00:  Tot Depth Loggd 
 TFF .                      No:  Trip for Fail 
 TQAA.f-kp               22.00:  Torque Abs Avg 
 TQAN.f-kp               13.00:  Torque Abs Min 
 TQAX.f-kp               27.00:  Torque Abs Max 
 TRRT.°/30m               1.60:  Turn Rotating 
 MRT .                  EWR-M5:  Maximum Recorded Temperature 
 TTMX.degC               92.00:  Max Tool Temp 
 VS01.                12330975:  Virtual Str1 SN 
 VS02.                90658671:  Virtual Str2 SN 
 VS03.                90658508:  Virtual Str3 SN 
 VS04.                90660974:  Virtual Str4 SN 
 VS05.                90654675:  Virtual Str5 SN 
 WBMN.klb                15.00:  WOB Min 
 WITN.     Alexander Yadullayev:  Customer Rep 
 WITN.           Adil Mammadov:  Customer Rep 2 
 WOBA.klb                17.00:  WOB Avg 
 WOBX.klb                18.00:  WOB Max 
 YP  .lhf2               31.00:  Yield Point 
~Curve Information Block
#MNEM.UNIT                 API CODE     Curve Description
#---------               -----------    ---------------------------
 TIME.HHMMSS            00 000 000 000:  GT Time & Date
 GTDEPTH.m              00 000 000 000:  GT Depth
 GTPQH.psia             00 000 000 000:  GT HR Quartz Pressure
 GTTQ.degC              00 000 000 000:  GT Quartz Temperature
 GTTN.NONE              00 000 000 000:  GT Test Number
 GTET.sec               00 000 000 000:  GT Elapsed Test Time
 GTTVD.m                00 000 000 000:  GT True Vertical Depth
#Other Information
#
#WARRANTY: Halliburton will use its best efforts to furnish customers with 
#accurate information and interpretations that are part of, and incident to, the services 
#provided.  However, Halliburton cannot and does not warrant the accuracy 
#or correctness of such information and interpretations.  Under no circumstances should any 
#such information or interpretation be relied upon as the sole basis for any drilling, 
#completion, production, or financial decision or any procedure involving any risk to the 
#safety of any drilling venture, drilling rig or its crew or any other third party.  The 
#Customer has full responsibility for all drilling, completion and production operation.  
#Halliburton makes no representations or warranties, either expressed or 
#implied, including, but not limited to, the implied warranties of merchantability or fitness 
#for a particular purpose, with respect to the services rendered.  In no event will 
#Halliburton be liable for failure to obtain any particular results or for 
#any damages, including, but not limited to, indirect, special or consequential damages, 
#resulting from the use of any information or interpretation provided by Halliburton.
#
~A           TIME           GTDEPTH  GTPQH  GTTQ  GTTN  GTET   GTTVD  
# ...
   01:56:54.000.17-Sep-2021 5127.00 5569.74 79.86 1.00 299.00 2605.20
   01:56:54.200.17-Sep-2021 5127.00 5569.74 79.86 1.00 299.20 2605.20
   01:56:54.400.17-Sep-2021 5127.00 5570.01 79.86 1.00 299.40 2605.20
   01:56:54.600.17-Sep-2021 5127.00 5570.86 79.86 1.00 299.60 2605.20
   01:56:54.800.17-Sep-2021 5127.00 5569.54 79.86 1.00 299.80 2605.20
   01:56:55.000.17-Sep-2021 5127.00 5570.74 79.86 1.00 300.00 2605.20
   01:56:55.200.17-Sep-2021 5127.00 5570.74 79.86 1.00 300.20 2605.20
   01:56:55.400.17-Sep-2021 5127.00 5570.13 79.86 1.00 300.40 2605.20
   01:56:55.600.17-Sep-2021 5127.00 5570.12 79.86 1.00 300.60 2605.20
   01:56:55.800.17-Sep-2021 5127.00 5571.27 79.86 1.00 300.80 2605.20
   01:56:56.000.17-Sep-2021 5127.00 5568.74 79.86 1.00 301.00 2605.20
   01:56:56.200.17-Sep-2021 5127.00 5568.74 79.86 1.00 301.20 2605.20
   01:56:56.400.17-Sep-2021 5127.00 5569.49 79.86 1.00 301.40 2605.20
   01:56:56.600.17-Sep-2021 5127.00 5569.21 79.86 1.00 301.60 2605.20
   01:56:56.800.17-Sep-2021 5127.00 5569.44 79.86 1.00 301.80 2605.20
   01:56:57.000.17-Sep-2021 5127.00 5569.62 79.86 1.00 302.00 2605.20
   01:56:57.200.17-Sep-2021 5127.00 5569.62 79.86 1.00 302.20 2605.20
   01:56:57.400.17-Sep-2021 5127.00 5568.99 79.86 1.00 302.40 2605.20
   01:56:57.600.17-Sep-2021 5127.00 5569.13 79.86 1.00 302.60 2605.20
   01:56:57.800.17-Sep-2021 5127.00 5570.60 79.86 1.00 302.80 2605.20
   01:56:58.000.17-Sep-2021 5127.00 5569.43 79.86 1.00 303.00 2605.20
   01:56:58.200.17-Sep-2021 5127.00 5569.43 79.86 1.00 303.20 2605.20
   01:56:58.400.17-Sep-2021 5127.00 5569.77 79.86 1.00 303.40 2605.20
   01:56:58.600.17-Sep-2021 5127.00 5569.29 79.86 1.00 303.60 2605.20
   01:56:58.800.17-Sep-2021 5127.00 5569.54 79.86 1.00 303.80 2605.20
   01:56:59.000.17-Sep-2021 5127.00 5569.88 79.86 1.00 304.00 2605.20
   01:56:59.200.17-Sep-2021 5127.00 5569.88 79.86 1.00 304.20 2605.20
   01:56:59.400.17-Sep-2021 5127.00 5569.47 79.86 1.00 304.40 2605.20
   01:56:59.600.17-Sep-2021 5127.00 5569.38 79.86 1.00 304.60 2605.20
   01:56:59.800.17-Sep-2021 5127.00 5569.39 79.86 1.00 304.80 2605.20
   01:57:00.000.17-Sep-2021 5127.00 5569.53 79.86 1.00 305.00 2605.20
   01:57:00.200.17-Sep-2021 5127.00 5569.53 79.86 1.00 305.20 2605.20
   01:57:00.400.17-Sep-2021 5127.00 5569.76 79.86 1.00 305.40 2605.20
   01:57:00.600.17-Sep-2021 5127.00 5569.71 79.86 1.00 305.60 2605.20
   01:57:00.800.17-Sep-2021 5127.00 5569.71 79.86 1.00 305.80 2605.20
   01:57:01.000.17-Sep-2021 5127.00 5570.46 79.86 1.00 306.00 2605.20
   01:57:01.200.17-Sep-2021 5127.00 5570.46 79.86 1.00 306.20 2605.20
   01:57:01.400.17-Sep-2021 5127.00 5570.47 79.86 1.00 306.40 2605.20
   01:57:01.600.17-Sep-2021 5127.00 5570.11 79.86 1.00 306.60 2605.20
   01:57:01.800.17-Sep-2021 5127.00 5570.27 79.86 1.00 306.80 2605.20
   01:57:02.000.17-Sep-2021 5127.00 5569.88 79.86 1.00 307.00 2605.20
   01:57:02.200.17-Sep-2021 5127.00 5569.88 79.86 1.00 307.20 2605.20
   01:57:02.400.17-Sep-2021 5127.00 5569.59 79.86 1.00 307.40 2605.20
   01:57:02.600.17-Sep-2021 5127.00 5569.49 79.86 1.00 307.60 2605.20
   01:57:02.800.17-Sep-2021 5127.00 5569.42 79.86 1.00 307.80 2605.20
   01:57:03.000.17-Sep-2021 5127.00 5569.42 79.86 1.00 308.00 2605.20
   01:57:03.200.17-Sep-2021 5127.00 5569.42 79.86 1.00 308.20 2605.20
   01:57:03.400.17-Sep-2021 5127.00 5569.46 79.86 1.00 308.40 2605.20
   01:57:03.600.17-Sep-2021 5127.00 5569.47 79.86 1.00 308.60 2605.20
   01:57:03.800.17-Sep-2021 5127.00 5569.57 79.86 1.00 308.80 2605.20
   01:57:04.000.17-Sep-2021 5127.00 5569.65 79.86 1.00 309.00 2605.20
   01:57:04.200.17-Sep-2021 5127.00 5569.65 79.86 1.00 309.20 2605.20
   01:57:04.400.17-Sep-2021 5127.00 5571.12 79.86 1.00 309.40 2605.20
   01:57:04.600.17-Sep-2021 5127.00 5569.21 79.86 1.00 309.60 2605.20
   01:57:04.800.17-Sep-2021 5127.00 5570.49 79.86 1.00 309.80 2605.20
   01:57:05.000.17-Sep-2021 5127.00 5570.24 79.86 1.00 310.00 2605.20
   01:57:05.200.17-Sep-2021 5127.00 5570.24 79.86 1.00 310.20 2605.20
   01:57:05.400.17-Sep-2021 5127.00 5569.93 79.86 1.00 310.40 2605.20
   01:57:05.600.17-Sep-2021 5127.00 5570.38 79.86 1.00 310.60 2605.20
   01:57:05.800.17-Sep-2021 5127.00 5569.54 79.86 1.00 310.80 2605.20
   01:57:06.000.17-Sep-2021 5127.00 5569.21 79.86 1.00 311.00 2605.20
   01:57:06.200.17-Sep-2021 5127.00 5569.21 79.86 1.00 311.20 2605.20
   01:57:06.400.17-Sep-2021 5127.00 5569.21 79.86 1.00 311.40 2605.20
   01:57:06.600.17-Sep-2021 5127.00 5570.04 79.86 1.00 311.60 2605.20
   01:57:06.800.17-Sep-2021 5127.00 5568.68 79.86 1.00 311.80 2605.20
   01:57:07.000.17-Sep-2021 5127.00 5569.55 79.86 1.00 312.00 2605.20
   01:57:07.200.17-Sep-2021 5127.00 5569.55 79.86 1.00 312.20 2605.20
   01:57:07.400.17-Sep-2021 5127.00 5568.90 79.86 1.00 312.40 2605.20
   01:57:07.600.17-Sep-2021 5127.00 5570.84 79.86 1.00 312.60 2605.20
   01:57:07.800.17-Sep-2021 5127.00 5568.82 79.86 1.00 312.80 2605.20
   01:57:08.000.17-Sep-2021 5127.00 5569.94 79.86 1.00 313.00 2605.20
   01:57:08.200.17-Sep-2021 5127.00 5569.94 79.86 1.00 313.20 2605.20
   01:57:08.400.17-Sep-2021 5127.00 5569.32 79.86 1.00 313.40 2605.20
   01:57:08.600.17-Sep-2021 5127.00 5569.24 79.86 1.00 313.60 2605.20
   01:57:08.800.17-Sep-2021 5127.00 5569.59 79.86 1.00 313.80 2605.20
   01:57:09.000.17-Sep-2021 5127.00 5569.42 79.86 1.00 314.00 2605.20
   01:57:09.200.17-Sep-2021 5127.00 5569.42 79.86 1.00 314.20 2605.20
   01:57:09.400.17-Sep-2021 5127.00 5569.06 79.86 1.00 314.40 2605.20
   01:57:09.600.17-Sep-2021 5127.00 5569.15 79.86 1.00 314.60 2605.20
   01:57:09.800.17-Sep-2021 5127.00 5569.34 79.86 1.00 314.80 2605.20
   01:57:10.000.17-Sep-2021 5127.00 5569.54 79.86 1.00 315.00 2605.20
   01:57:10.200.17-Sep-2021 5127.00 5569.54 79.86 1.00 315.20 2605.20
   01:57:10.400.17-Sep-2021 5127.00 5569.44 79.86 1.00 315.40 2605.20
   01:57:10.600.17-Sep-2021 5127.00 5569.65 79.86 1.00 315.60 2605.20
   01:57:10.800.17-Sep-2021 5127.00 5569.96 79.86 1.00 315.80 2605.20
   01:57:11.000.17-Sep-2021 5127.00 5570.73 79.86 1.00 316.00 2605.20
   01:57:11.200.17-Sep-2021 5127.00 5570.73 79.86 1.00 316.20 2605.20
   01:57:11.400.17-Sep-2021 5127.00 5569.83 79.86 1.00 316.40 2605.20
   01:57:11.600.17-Sep-2021 5127.00 5569.99 79.86 1.00 316.60 2605.20
   01:57:11.800.17-Sep-2021 5127.00 5569.77 79.86 1.00 316.80 2605.20
   01:57:12.000.17-Sep-2021 5127.00 5569.46 79.86 1.00 317.00 2605.20
   01:57:12.200.17-Sep-2021 5127.00 5569.46 79.86 1.00 317.20 2605.20
   01:57:12.400.17-Sep-2021 5127.00 5569.34 79.86 1.00 317.40 2605.20
   01:57:12.600.17-Sep-2021 5127.00 5569.29 79.86 1.00 317.60 2605.20
   01:57:12.800.17-Sep-2021 5127.00 5569.28 79.86 1.00 317.80 2605.20
   01:57:13.000.17-Sep-2021 5127.00 5569.30 79.86 1.00 318.00 2605.20
   01:57:13.200.17-Sep-2021 5127.00 5569.30 79.86 1.00 318.20 2605.20
   01:57:13.400.17-Sep-2021 5127.00 5569.34 79.86 1.00 318.40 2605.20
   01:57:13.600.17-Sep-2021 5127.00 5569.44 79.86 1.00 318.60 2605.20
   01:57:13.800.17-Sep-2021 5127.00 5569.55 79.86 1.00 318.80 2605.20
   01:57:14.000.17-Sep-2021 5127.00 5569.72 79.86 1.00 319.00 2605.20
   01:57:14.200.17-Sep-2021 5127.00 5569.72 79.86 1.00 319.20 2605.20
   01:57:14.400.17-Sep-2021 5127.00 5570.00 79.86 1.00 319.40 2605.20
   01:57:14.600.17-Sep-2021 5127.00 5570.06 79.86 1.00 319.60 2605.20
   01:57:14.800.17-Sep-2021 5127.00 5569.77 79.86 1.00 319.80 2605.20
   01:57:15.000.17-Sep-2021 5127.00 5570.08 79.86 1.00 320.00 2605.20
   01:57:15.200.17-Sep-2021 5127.00 5570.08 79.86 1.00 320.20 2605.20
   01:57:15.400.17-Sep-2021 5127.00 5568.83 79.86 1.00 320.40 2605.20
   01:57:15.600.17-Sep-2021 5127.00 5569.67 79.86 1.00 320.60 2605.20
   01:57:15.800.17-Sep-2021 5127.00 5569.04 79.86 1.00 320.80 2605.20
   01:57:16.000.17-Sep-2021 5127.00 5568.66 79.86 1.00 321.00 2605.20
   01:57:16.200.17-Sep-2021 5127.00 5568.66 79.86 1.00 321.20 2605.20
   01:57:16.400.17-Sep-2021 5127.00 5570.67 79.86 1.00 321.40 2605.20
   01:57:16.600.17-Sep-2021 5127.00 5568.03 79.86 1.00 321.60 2605.20
   01:57:16.800.17-Sep-2021 5127.00 5569.09 79.86 1.00 321.80 2605.20
