~Version Information
 VERS.                  2.0:   CWLS log ASCII Standard -VERSION 2.0
 WRAP.                   NO:   One line per depth step
~Well Information Block
#MNEM.UNIT     VALUE/NAME     DESCRIPTION
#---------     -----------    ---------------------------
 STRT.S             06:26:37 17-Sep-21: START TIME 06:26:37 17-Sep-21
 STOP.S             06:35:42 17-Sep-21: STOP TIME  06:35:42 17-Sep-21
 STEP.S                   0.00: STEP TIME
 NULL.                 -999.25: NULL VALUE
 DFWT.                        :  DIST FWL TEXT
 DFST.                        :  DIST FSL TEXT
 DMF .             Drill Floor:  DRILL MEAS FROM
 STIM.      10.59.12 05-Jul-21:  START TIME
 DATE.      10.59.12 10-Sep-21:  END TIME
 SPUD.               05-Jul-21:  SPUD DATE
 NREF.                    Grid:  NORTH REFERENCE
 HPTY.       Minimum Curvature:  HOLE POS TYPE
 DMOD.             Drill Model:  DRILL MOD DESC
 SVYD.                  Survey:  SURVEY DESC
 ILTD.               Lithology:  INTERP LTH DESC
 FTOP.          Formation Tops:  FORM TOPS DESC
 RIG .                     DWG:  RIG NAME
 PDAT.          Mean Sea Level:  PERMANENT DATUM
 FLD .                     ACG:  FIELD NAME
 SON .        AZ-XX-0907115008:  JOB NUMBER
 CTRY.              Azerbaijan:  COUNTRY NAME
 WELL.                    E35A:  WELL NAME
 SRVC.          TURAN DRILLING:  CONTRACTOR
 COMP.     BP Exploration (Caspian Sea LTD):  COMPANY
 UWI .                     N/A:  UNIQUE WELL IDENTIFIER
 API .                     N/A:  API NUMBER
 MDS .        Operator Entered:  MAG DATA SOURCE
 BASE.              Azerbaijan:  LOGGING EQUIPMENT BASE LOCATION
 REGN.                   EESSA:  REGION
 PROV.                    Baku:  PROVINCE
 STAT.                    Baku:  STATE NAME
 MWDS.                    Baku:  MWD SHOP
 JOBN.        AZ-XX-0907115008:  JOB TICKET NUMB
 DOE .                     N/A:  DOE NUMBER
 DCON.         Sperry Drilling:  DIRECTNL CONTR
 UNIT.                     N/A:  LOGGING EQUIPMENT ID
 WTYP.                Deviated:  WELL TYPE
 CNTY.                        :  COUNTY
 LOC .                        :  LOCATION
 LMF .             Drill Floor:  LOG MEASURED FROM
 TVDS.m                  43.16:  TVDSS CORRECTN
 LATI.deg                40.17:  LATITUDE
 LONG.deg                51.17:  LONGITUDE
 WHNS.m                  10.51:  WELL HEAD N/S
 WHEW.m                 -14.82:  WELL HEAD E/W
 UTMX.m              514336.92:  UTM X
 UTMY.m             4448618.56:  UTM Y
 DFWL.m                   0.00:  DISTANCE FWL
 DFSL.m                   0.00:  DISTANCE FSL
 SDEP.m                 849.00:  START DEPTH
 TDD .m                2862.00:  TOTAL DEPTH (DRILLER)
 VSDR.deg               292.10:  VERT SEC DIRECT
 GVFD.g                   1.00:  GRAVITY FIELD
 MFLD.nT              50382.00:  MAGNETIC FIELD
 MDIP.deg                59.68:  MAGNETIC DIP
 MDEC.deg                 6.66:  MAGNETIC DECL
 GRDC.deg                 0.09:  GRID CORRECTION
 AZTC.deg                 6.57:  AZM TOTAL CORR
 EPD .m                   0.00:  ELEVATION
 EGL .m                   0.00:  GROUND ELEVATION
 WDMS.m                 176.20:  WD ELEV
 APD .m                  43.16:  DEPTH ABOVE PD
 DEP .m                 363.42:  DEPTH
 AGAP.m                  43.16:  AIR GAP
 VSEW.m                 -14.82:  VERT SEC E/W
 VSNS.m                  10.51:  VERT SEC N/S
 EKB .m                  43.16:  KB ELEVATION
 EDF .m                  43.16:  DF ELEVATION
 TDL .m                1390.00:  TOTAL DEPTH (LOGGER)
 VSC .                       0:  VS TO CLOSURE
 MAGU.                 1855871:  MAGUTM CHECKSUM
~Parameter Information Block
#MNEM.UNIT       Value        Description
#---------     -----------    ---------------------------
 AV  .mps                 2.28:  Ann Velocity 
 AVMX.mps                 2.67:  Max Ann Veloc 
 AZIF.deg               305.00:  Azm, Final 
 BHAT.        Rotary Steerable:  BHA Type 
 BROT.°/30m               0.45:  Build Rotating 
 BS  .in                 12.25:  Bit Size 
 BSZ .in                 12.25:  Bit Size 
 BTPL.psig              600.00:  Bit Press Loss 
 CABU.                     Yes:  Customer Abuse 
 COMM.                     D5N:  Run Comments 1 
 TCS .hr                150.00:  Time Ciculation Ended 
 CV  .mps                 1.24:  Crit Velocity 
 CVMX.mps                 1.66:  Max Crit Veloc 
 DD1 .         Intigam Rahimov:  Direct Drillr 1 
 DD2 .            Azer Ravavov:  Direct Drillr 2 
 DD3 .              Samir Abas:  Direct Drillr 3 
 DDSV.               Geo-Pilot:  DD Service 
 DEFF.%                 100.00:  % Det Eff 
 DLRX.°/30m               1.57:  Dogleg Rot Max 
 DLSO.°/30m               0.00:  Dogleg Oriented 
 DLSX.°/30m               0.00:  Dogleg Str Max 
 DRET.      20.28.06 17-Sep-21:  Drill End Time 
 DRST.      20.27.35 10-Sep-21:  Drill Start Tim 
 DTIM.hr                 54.00:  Time Drilling 
 EDEP.m                5260.00:  End Depth 
 ENG1.      Bakhtiyar Jabbarli:  Engineer 1 
 ENG2.      Natik Hasanaghayev:  Engineer 2 
 ENG3.           Royal Nasirov:  Engineer 3 
 ETIM.      20.27.55 18-Sep-21:  End Time 
 FLOI.gpm              1100.00:  Flow In 
 FLON.gpm               800.00:  Flow In Min 
 FLOS.cptm                0.00:  Fluid Loss 
 FLOX.gpm              1200.00:  Flow In Max 
 DFT .        Mineral Oil Base:  Mud Type 
 HPRE.                      No:  High Pressure 
 HTEM.                      No:  High Temp 
 HYDO.m                   1.80:  Hydro Offset 
 IFIN.deg                72.31:  Inc, Final 
 IMAX.deg                72.36:  Inc Max 
 IMIN.deg                69.36:  Inc Min 
 IMND.m                4192.96:  Inc Min Depth 
 IMXD.m                5128.36:  Inc Max Depth 
 JARR.                      No:  Jarring 
 LETM.      20.29.00 17-Sep-21:  Log End Time 
 LOST.hr                     0:  Lost Rig Time 
 LSTM.      20.27.00 10-Sep-21:  Log Start Time 
 MDCL.ppm            227000.00:  Mud Chlorides 
 MDES.     Inversion Oil/Synthetic:  Mud Desc 
 DFD .sg                  1.45:  Mud Density 
 MDMN.sg                  1.45:  Dens Mud Min 
 MDMX.sg                  1.45:  Dens Mud Max 
 MOIL.                    70.5:  Run Mud Oil % 
 MOWR.                   71:29:  Run Mud OWR 
 MSND.                     0.3:  Run Mud Sand % 
 MSOL.                    19.8:  Run Mud Solids% 
 DFV .spqt               80.00:  Mud Viscosity 
 MWOD.in                  8.00:  MWD Tool OD 
 MWSI.                     Yes:  Serv Intrp, MWD 
 OTIM.hr                180.00:  Time Operating 
 PCON.           Look Like New:  Pad Condition 
 PMAX.psia             9910.94:  Press Op, Max 
 PV  .cP                 35.00:  Mud PV 
 RUN .                    1000:  Run Number 
 ROPA.m/hr               18.00:  ROP Avg 
 ROPN.m/hr                8.00:  ROP Min 
 ROPX.m/hr               23.00:  ROP Max 
 RPMA.rpm               150.00:  RPM Surface Avg 
 RPMN.rpm               120.00:  RPM Surface Min 
 RPMX.rpm               160.00:  RPM Surface Max 
 RRUN.                    L503:  Rig Run Number 
 RTIM.hr                  5.00:  Time Reaming 
 SAZI.deg               298.42:  Azm, Start 
 SDEP.m                3870.00:  Start Depth 
 SIDD.                      No:  Serv Intrp, DD 
 SINC.deg                69.57:  Inc, Start 
 SPPA.psig             5500.00:  SPP Avg 
 SPPN.psig             4400.00:  SPP Min 
 SPPX.psig             5800.00:  SPP Max 
 STIM.      15.29.39 09-Sep-21:  Start Time 
 SVCS.                 DD, MWD:  Services 
 SVER.                    9.20:  Sperry Version 
 TDAT.m                5260.00:  Tot Depth Attmp 
 TDDF.                      No:  Trip for DD 
 TDLG.m                1390.00:  Tot Depth Loggd 
 TFF .                      No:  Trip for Fail 
 TQAA.f-kp               22.00:  Torque Abs Avg 
 TQAN.f-kp               13.00:  Torque Abs Min 
 TQAX.f-kp               27.00:  Torque Abs Max 
 TRRT.°/30m               1.60:  Turn Rotating 
 MRT .                  EWR-M5:  Maximum Recorded Temperature 
 TTMX.degC               92.00:  Max Tool Temp 
 VS01.                12330975:  Virtual Str1 SN 
 VS02.                90658671:  Virtual Str2 SN 
 VS03.                90658508:  Virtual Str3 SN 
 VS04.                90660974:  Virtual Str4 SN 
 VS05.                90654675:  Virtual Str5 SN 
 WBMN.klb                15.00:  WOB Min 
 WITN.     Alexander Yadullayev:  Customer Rep 
 WITN.           Adil Mammadov:  Customer Rep 2 
 WOBA.klb                17.00:  WOB Avg 
 WOBX.klb                18.00:  WOB Max 
 YP  .lhf2               31.00:  Yield Point 
~Curve Information Block
#MNEM.UNIT                 API CODE     Curve Description
#---------               -----------    ---------------------------
 TIME.HHMMSS            00 000 000 000:  GT Time & Date
 GTDEPTH.m              00 000 000 000:  GT Depth
 GTPQH.psia             00 000 000 000:  GT HR Quartz Pressure
 GTTQ.degC              00 000 000 000:  GT Quartz Temperature
 GTTN.NONE              00 000 000 000:  GT Test Number
 GTET.sec               00 000 000 000:  GT Elapsed Test Time
 GTTVD.m                00 000 000 000:  GT True Vertical Depth
#Other Information
#
#WARRANTY: Halliburton will use its best efforts to furnish customers with 
#accurate information and interpretations that are part of, and incident to, the services 
#provided.  However, Halliburton cannot and does not warrant the accuracy 
#or correctness of such information and interpretations.  Under no circumstances should any 
#such information or interpretation be relied upon as the sole basis for any drilling, 
#completion, production, or financial decision or any procedure involving any risk to the 
#safety of any drilling venture, drilling rig or its crew or any other third party.  The 
#Customer has full responsibility for all drilling, completion and production operation.  
#Halliburton makes no representations or warranties, either expressed or 
#implied, including, but not limited to, the implied warranties of merchantability or fitness 
#for a particular purpose, with respect to the services rendered.  In no event will 
#Halliburton be liable for failure to obtain any particular results or for 
#any damages, including, but not limited to, indirect, special or consequential damages, 
#resulting from the use of any information or interpretation provided by Halliburton.
#
~A           TIME           GTDEPTH  GTPQH  GTTQ  GTTN  GTET   GTTVD  
# ...
   06:30:04.313.17-Sep-2021 5057.00  634.99 78.60 7.00 206.96 2583.65
   06:30:04.513.17-Sep-2021 5057.00  634.99 78.60 7.00 207.16 2583.65
   06:30:04.713.17-Sep-2021 5057.00  505.84 78.60 7.00 207.36 2583.65
   06:30:04.912.17-Sep-2021 5057.00  436.85 78.60 7.00 207.56 2583.65
   06:30:05.112.17-Sep-2021 5057.00  378.85 78.60 7.00 207.76 2583.65
   06:30:05.312.17-Sep-2021 5057.00  322.13 78.60 7.00 207.96 2583.65
   06:30:05.512.17-Sep-2021 5057.00  322.13 78.60 7.00 208.16 2583.65
   06:30:05.712.17-Sep-2021 5057.00  275.43 78.59 7.00 208.36 2583.65
   06:30:05.912.17-Sep-2021 5057.00  276.27 78.59 7.00 208.56 2583.65
   06:30:06.112.17-Sep-2021 5057.00  289.92 78.59 7.00 208.76 2583.65
   06:30:06.312.17-Sep-2021 5057.00  294.59 78.59 7.00 208.96 2583.65
   06:30:06.512.17-Sep-2021 5057.00  294.59 78.59 7.00 209.16 2583.65
   06:30:06.712.17-Sep-2021 5057.00  297.37 78.58 7.00 209.36 2583.65
   06:30:06.912.17-Sep-2021 5057.00  300.51 78.58 7.00 209.56 2583.65
   06:30:07.112.17-Sep-2021 5057.00  309.89 78.58 7.00 209.76 2583.65
   06:30:07.312.17-Sep-2021 5057.00  325.90 78.58 7.00 209.96 2583.65
   06:30:07.512.17-Sep-2021 5057.00  325.90 78.58 7.00 210.16 2583.65
   06:30:07.712.17-Sep-2021 5057.00  314.71 78.58 7.00 210.36 2583.65
   06:30:07.912.17-Sep-2021 5057.00  299.72 78.58 7.00 210.56 2583.65
   06:30:08.112.17-Sep-2021 5057.00  300.51 78.58 7.00 210.76 2583.65
   06:30:08.312.17-Sep-2021 5057.00  295.13 78.57 7.00 210.96 2583.65
   06:30:08.512.17-Sep-2021 5057.00  295.13 78.57 7.00 211.15 2583.65
   06:30:08.712.17-Sep-2021 5057.00 5585.39 78.57 7.00 211.35 2583.65
   06:30:08.912.17-Sep-2021 5057.00 5580.80 78.57 7.00 211.55 2583.65
   06:30:09.112.17-Sep-2021 5057.00 5579.52 78.57 7.00 211.75 2583.65
   06:30:09.312.17-Sep-2021 5057.00 5577.99 78.57 7.00 211.95 2583.65
   06:30:09.511.17-Sep-2021 5057.00 5577.99 78.57 7.00 212.15 2583.65
   06:30:09.711.17-Sep-2021 5057.00 5582.47 78.57 7.00 212.35 2583.65
   06:30:09.911.17-Sep-2021 5057.00 5581.63 78.57 7.00 212.55 2583.65
   06:30:10.111.17-Sep-2021 5057.00 5582.65 78.58 7.00 212.75 2583.65
   06:30:10.311.17-Sep-2021 5057.00 5579.96 78.58 7.00 212.95 2583.65
   06:30:10.511.17-Sep-2021 5057.00 5579.96 78.58 7.00 213.15 2583.65
   06:30:10.711.17-Sep-2021 5057.00 5575.84 78.58 7.00 213.35 2583.65
   06:30:10.911.17-Sep-2021 5057.00 5574.84 78.59 7.00 213.55 2583.65
   06:30:11.111.17-Sep-2021 5057.00 5574.63 78.59 7.00 213.75 2583.65
   06:30:11.311.17-Sep-2021 5057.00 5574.87 78.59 7.00 213.95 2583.65
   06:30:11.511.17-Sep-2021 5057.00 5574.87 78.59 7.00 214.15 2583.65
   06:30:11.711.17-Sep-2021 5057.00 5575.09 78.60 7.00 214.35 2583.65
   06:30:11.911.17-Sep-2021 5057.00 5575.10 78.60 7.00 214.55 2583.65
   06:30:12.111.17-Sep-2021 5057.00 5575.22 78.61 7.00 214.75 2583.65
   06:30:12.311.17-Sep-2021 5057.00 5575.31 78.61 7.00 214.95 2583.65
   06:30:12.511.17-Sep-2021 5057.00 5575.31 78.61 7.00 215.15 2583.65
   06:30:12.711.17-Sep-2021 5057.00 5577.76 78.62 7.00 215.35 2583.65
   06:30:12.911.17-Sep-2021 5057.00 5589.70 78.62 7.00 215.55 2583.65
   06:30:13.111.17-Sep-2021 5057.00 5586.62 78.63 7.00 215.75 2583.65
   06:30:13.311.17-Sep-2021 5057.00 5584.69 78.63 7.00 215.95 2583.65
   06:30:13.511.17-Sep-2021 5057.00 5584.69 78.63 7.00 216.15 2583.65
   06:30:13.711.17-Sep-2021 5057.00 5586.91 78.63 7.00 216.35 2583.65
   06:30:13.911.17-Sep-2021 5057.00 5588.70 78.64 7.00 216.55 2583.65
   06:30:14.110.17-Sep-2021 5057.00 5586.17 78.64 7.00 216.75 2583.65
   06:30:14.310.17-Sep-2021 5057.00 5580.15 78.65 7.00 216.95 2583.65
   06:30:14.510.17-Sep-2021 5057.00 5580.15 78.65 7.00 217.15 2583.65
   06:30:14.710.17-Sep-2021 5057.00 5575.69 78.65 7.00 217.35 2583.65
   06:30:14.910.17-Sep-2021 5057.00 5581.68 78.66 7.00 217.55 2583.65
   06:30:15.110.17-Sep-2021 5057.00 5578.73 78.66 7.00 217.75 2583.65
   06:30:15.310.17-Sep-2021 5057.00 5578.87 78.66 7.00 217.95 2583.65
   06:30:15.510.17-Sep-2021 5057.00 5578.87 78.66 7.00 218.15 2583.65
   06:30:15.710.17-Sep-2021 5057.00 5583.35 78.67 7.00 218.35 2583.65
   06:30:15.910.17-Sep-2021 5057.00 5582.61 78.67 7.00 218.55 2583.65
   06:30:16.110.17-Sep-2021 5057.00 5581.17 78.67 7.00 218.75 2583.65
   06:30:16.310.17-Sep-2021 5057.00 5580.25 78.67 7.00 218.95 2583.65
   06:30:16.510.17-Sep-2021 5057.00 5580.25 78.67 7.00 219.15 2583.65
   06:30:16.710.17-Sep-2021 5057.00 5578.59 78.68 7.00 219.35 2583.65
   06:30:16.910.17-Sep-2021 5057.00 5577.82 78.68 7.00 219.55 2583.65
   06:30:17.110.17-Sep-2021 5057.00 5577.05 78.68 7.00 219.75 2583.65
   06:30:17.310.17-Sep-2021 5057.00 5576.43 78.69 7.00 219.95 2583.65
   06:30:17.510.17-Sep-2021 5057.00 5576.43 78.69 7.00 220.15 2583.65
   06:30:17.710.17-Sep-2021 5057.00 5575.39 78.69 7.00 220.35 2583.65
   06:30:17.910.17-Sep-2021 5057.00 5574.95 78.69 7.00 220.55 2583.65
   06:30:18.110.17-Sep-2021 5057.00 5574.71 78.69 7.00 220.75 2583.65
   06:30:18.310.17-Sep-2021 5057.00 5574.53 78.69 7.00 220.95 2583.65
   06:30:18.510.17-Sep-2021 5057.00 5574.53 78.69 7.00 221.15 2583.65
   06:30:18.710.17-Sep-2021 5057.00 5578.54 78.70 7.00 221.35 2583.65
   06:30:18.909.17-Sep-2021 5057.00 5584.57 78.70 7.00 221.55 2583.65
   06:30:19.109.17-Sep-2021 5057.00 5583.99 78.70 7.00 221.75 2583.65
   06:30:19.309.17-Sep-2021 5057.00 5583.15 78.70 7.00 221.95 2583.65
   06:30:19.509.17-Sep-2021 5057.00 5583.15 78.70 7.00 222.15 2583.65
   06:30:19.709.17-Sep-2021 5057.00 5581.53 78.70 7.00 222.35 2583.65
   06:30:19.909.17-Sep-2021 5057.00 5580.69 78.70 7.00 222.55 2583.65
   06:30:20.109.17-Sep-2021 5057.00 5579.91 78.70 7.00 222.75 2583.65
   06:30:20.309.17-Sep-2021 5057.00 5579.13 78.70 7.00 222.95 2583.65
   06:30:20.509.17-Sep-2021 5057.00 5579.13 78.70 7.00 223.15 2583.65
   06:30:20.709.17-Sep-2021 5057.00 5577.84 78.71 7.00 223.35 2583.65
   06:30:20.909.17-Sep-2021 5057.00 5577.28 78.71 7.00 223.55 2583.65
   06:30:21.109.17-Sep-2021 5057.00 5576.79 78.71 7.00 223.75 2583.65
   06:30:21.309.17-Sep-2021 5057.00 5576.38 78.71 7.00 223.95 2583.65
   06:30:21.509.17-Sep-2021 5057.00 5576.38 78.71 7.00 224.15 2583.65
   06:30:21.709.17-Sep-2021 5057.00 5575.75 78.71 7.00 224.35 2583.65
   06:30:21.909.17-Sep-2021 5057.00 5575.53 78.71 7.00 224.55 2583.65
   06:30:22.109.17-Sep-2021 5057.00 5576.48 78.71 7.00 224.75 2583.65
   06:30:22.309.17-Sep-2021 5057.00 5584.50 78.71 7.00 224.95 2583.65
   06:30:22.509.17-Sep-2021 5057.00 5584.50 78.71 7.00 225.15 2583.65
   06:30:22.709.17-Sep-2021 5057.00 5583.93 78.71 7.00 225.35 2583.65
   06:30:22.909.17-Sep-2021 5057.00 5583.42 78.71 7.00 225.55 2583.65
   06:30:23.109.17-Sep-2021 5057.00 5582.81 78.71 7.00 225.75 2583.65
   06:30:23.309.17-Sep-2021 5057.00 5583.38 78.71 7.00 225.95 2583.65
   06:30:23.508.17-Sep-2021 5057.00 5583.38 78.71 7.00 226.15 2583.65
   06:30:23.708.17-Sep-2021 5057.00 5585.64 78.71 7.00 226.35 2583.65
   06:30:23.908.17-Sep-2021 5057.00 5585.23 78.71 7.00 226.55 2583.65
   06:30:24.108.17-Sep-2021 5057.00 5584.74 78.71 7.00 226.75 2583.65
   06:30:24.308.17-Sep-2021 5057.00 5584.27 78.71 7.00 226.95 2583.65
   06:30:24.508.17-Sep-2021 5057.00 5584.27 78.71 7.00 227.15 2583.65
   06:30:24.708.17-Sep-2021 5057.00 5586.15 78.71 7.00 227.35 2583.65
   06:30:24.908.17-Sep-2021 5057.00 5585.93 78.71 7.00 227.55 2583.65
   06:30:25.108.17-Sep-2021 5057.00 5585.69 78.71 7.00 227.75 2583.65
   06:30:25.308.17-Sep-2021 5057.00 5586.73 78.71 7.00 227.95 2583.65
   06:30:25.508.17-Sep-2021 5057.00 5586.73 78.71 7.00 228.15 2583.65
   06:30:25.708.17-Sep-2021 5057.00 5587.82 78.71 7.00 228.35 2583.65
   06:30:25.908.17-Sep-2021 5057.00 5587.48 78.71 7.00 228.55 2583.65
   06:30:26.108.17-Sep-2021 5057.00 5587.09 78.71 7.00 228.75 2583.65
   06:30:26.308.17-Sep-2021 5057.00 5586.79 78.71 7.00 228.95 2583.65
   06:30:26.508.17-Sep-2021 5057.00 5586.79 78.71 7.00 229.15 2583.65
   06:30:26.708.17-Sep-2021 5057.00 5585.99 78.71 7.00 229.35 2583.65
   06:30:26.908.17-Sep-2021 5057.00 5585.61 78.71 7.00 229.55 2583.65
   06:30:27.108.17-Sep-2021 5057.00 5585.24 78.71 7.00 229.75 2583.65
