~Version Information
 VERS.                  2.0:   CWLS log ASCII Standard -VERSION 2.0
 WRAP.                   NO:   One line per depth step
~Well Information Block
#MNEM.UNIT     VALUE/NAME     DESCRIPTION
#---------     -----------    ---------------------------
 STRT.S             01:51:55 17-Sep-21: START TIME 01:51:55 17-Sep-21
 STOP.S             02:00:37 17-Sep-21: STOP TIME  02:00:37 17-Sep-21
 STEP.S                   0.00: STEP TIME
 NULL.                 -999.25: NULL VALUE
 DFWT.                        :  DIST FWL TEXT
 DFST.                        :  DIST FSL TEXT
 DMF .             Drill Floor:  DRILL MEAS FROM
 STIM.      10.59.12 05-Jul-21:  START TIME
 DATE.      10.59.12 10-Sep-21:  END TIME
 SPUD.               05-Jul-21:  SPUD DATE
 NREF.                    Grid:  NORTH REFERENCE
 HPTY.       Minimum Curvature:  HOLE POS TYPE
 DMOD.             Drill Model:  DRILL MOD DESC
 SVYD.                  Survey:  SURVEY DESC
 ILTD.               Lithology:  INTERP LTH DESC
 FTOP.          Formation Tops:  FORM TOPS DESC
 RIG .                     DWG:  RIG NAME
 PDAT.          Mean Sea Level:  PERMANENT DATUM
 FLD .                     ACG:  FIELD NAME
 SON .        AZ-XX-0907115008:  JOB NUMBER
 CTRY.              Azerbaijan:  COUNTRY NAME
 WELL.                    E35A:  WELL NAME
 SRVC.          TURAN DRILLING:  CONTRACTOR
 COMP.     BP Exploration (Caspian Sea LTD):  COMPANY
 UWI .                     N/A:  UNIQUE WELL IDENTIFIER
 API .                     N/A:  API NUMBER
 MDS .        Operator Entered:  MAG DATA SOURCE
 BASE.              Azerbaijan:  LOGGING EQUIPMENT BASE LOCATION
 REGN.                   EESSA:  REGION
 PROV.                    Baku:  PROVINCE
 STAT.                    Baku:  STATE NAME
 MWDS.                    Baku:  MWD SHOP
 JOBN.        AZ-XX-0907115008:  JOB TICKET NUMB
 DOE .                     N/A:  DOE NUMBER
 DCON.         Sperry Drilling:  DIRECTNL CONTR
 UNIT.                     N/A:  LOGGING EQUIPMENT ID
 WTYP.                Deviated:  WELL TYPE
 CNTY.                        :  COUNTY
 LOC .                        :  LOCATION
 LMF .             Drill Floor:  LOG MEASURED FROM
 TVDS.m                  43.16:  TVDSS CORRECTN
 LATI.deg                40.17:  LATITUDE
 LONG.deg                51.17:  LONGITUDE
 WHNS.m                  10.51:  WELL HEAD N/S
 WHEW.m                 -14.82:  WELL HEAD E/W
 UTMX.m              514336.92:  UTM X
 UTMY.m             4448618.56:  UTM Y
 DFWL.m                   0.00:  DISTANCE FWL
 DFSL.m                   0.00:  DISTANCE FSL
 SDEP.m                 849.00:  START DEPTH
 TDD .m                2862.00:  TOTAL DEPTH (DRILLER)
 VSDR.deg               292.10:  VERT SEC DIRECT
 GVFD.g                   1.00:  GRAVITY FIELD
 MFLD.nT              50382.00:  MAGNETIC FIELD
 MDIP.deg                59.68:  MAGNETIC DIP
 MDEC.deg                 6.66:  MAGNETIC DECL
 GRDC.deg                 0.09:  GRID CORRECTION
 AZTC.deg                 6.57:  AZM TOTAL CORR
 EPD .m                   0.00:  ELEVATION
 EGL .m                   0.00:  GROUND ELEVATION
 WDMS.m                 176.20:  WD ELEV
 APD .m                  43.16:  DEPTH ABOVE PD
 DEP .m                 363.42:  DEPTH
 AGAP.m                  43.16:  AIR GAP
 VSEW.m                 -14.82:  VERT SEC E/W
 VSNS.m                  10.51:  VERT SEC N/S
 EKB .m                  43.16:  KB ELEVATION
 EDF .m                  43.16:  DF ELEVATION
 TDL .m                1390.00:  TOTAL DEPTH (LOGGER)
 VSC .                       0:  VS TO CLOSURE
 MAGU.                 1855871:  MAGUTM CHECKSUM
~Parameter Information Block
#MNEM.UNIT       Value        Description
#---------     -----------    ---------------------------
 AV  .mps                 2.28:  Ann Velocity 
 AVMX.mps                 2.67:  Max Ann Veloc 
 AZIF.deg               305.00:  Azm, Final 
 BHAT.        Rotary Steerable:  BHA Type 
 BROT.°/30m               0.45:  Build Rotating 
 BS  .in                 12.25:  Bit Size 
 BSZ .in                 12.25:  Bit Size 
 BTPL.psig              600.00:  Bit Press Loss 
 CABU.                     Yes:  Customer Abuse 
 COMM.                     ü¢v:  Run Comments 1 
 TCS .hr                150.00:  Time Ciculation Ended 
 CV  .mps                 1.24:  Crit Velocity 
 CVMX.mps                 1.66:  Max Crit Veloc 
 DD1 .         Intigam Rahimov:  Direct Drillr 1 
 DD2 .            Azer Ravavov:  Direct Drillr 2 
 DD3 .              Samir Abas:  Direct Drillr 3 
 DDSV.               Geo-Pilot:  DD Service 
 DEFF.%                 100.00:  % Det Eff 
 DLRX.°/30m               1.57:  Dogleg Rot Max 
 DLSO.°/30m               0.00:  Dogleg Oriented 
 DLSX.°/30m               0.00:  Dogleg Str Max 
 DRET.      20.28.06 17-Sep-21:  Drill End Time 
 DRST.      20.27.35 10-Sep-21:  Drill Start Tim 
 DTIM.hr                 54.00:  Time Drilling 
 EDEP.m                5260.00:  End Depth 
 ENG1.      Bakhtiyar Jabbarli:  Engineer 1 
 ENG2.      Natik Hasanaghayev:  Engineer 2 
 ENG3.           Royal Nasirov:  Engineer 3 
 ETIM.      20.27.55 18-Sep-21:  End Time 
 FLOI.gpm              1100.00:  Flow In 
 FLON.gpm               800.00:  Flow In Min 
 FLOS.cptm                0.00:  Fluid Loss 
 FLOX.gpm              1200.00:  Flow In Max 
 DFT .        Mineral Oil Base:  Mud Type 
 HPRE.                      No:  High Pressure 
 HTEM.                      No:  High Temp 
 HYDO.m                   1.80:  Hydro Offset 
 IFIN.deg                72.31:  Inc, Final 
 IMAX.deg                72.36:  Inc Max 
 IMIN.deg                69.36:  Inc Min 
 IMND.m                4192.96:  Inc Min Depth 
 IMXD.m                5128.36:  Inc Max Depth 
 JARR.                      No:  Jarring 
 LETM.      20.29.00 17-Sep-21:  Log End Time 
 LOST.hr                     0:  Lost Rig Time 
 LSTM.      20.27.00 10-Sep-21:  Log Start Time 
 MDCL.ppm            227000.00:  Mud Chlorides 
 MDES.     Inversion Oil/Synthetic:  Mud Desc 
 DFD .sg                  1.45:  Mud Density 
 MDMN.sg                  1.45:  Dens Mud Min 
 MDMX.sg                  1.45:  Dens Mud Max 
 MOIL.                    70.5:  Run Mud Oil % 
 MOWR.                   71:29:  Run Mud OWR 
 MSND.                     0.3:  Run Mud Sand % 
 MSOL.                    19.8:  Run Mud Solids% 
 DFV .spqt               80.00:  Mud Viscosity 
 MWOD.in                  8.00:  MWD Tool OD 
 MWSI.                     Yes:  Serv Intrp, MWD 
 OTIM.hr                180.00:  Time Operating 
 PCON.           Look Like New:  Pad Condition 
 PMAX.psia             9910.94:  Press Op, Max 
 PV  .cP                 35.00:  Mud PV 
 RUN .                    1000:  Run Number 
 ROPA.m/hr               18.00:  ROP Avg 
 ROPN.m/hr                8.00:  ROP Min 
 ROPX.m/hr               23.00:  ROP Max 
 RPMA.rpm               150.00:  RPM Surface Avg 
 RPMN.rpm               120.00:  RPM Surface Min 
 RPMX.rpm               160.00:  RPM Surface Max 
 RRUN.                    L503:  Rig Run Number 
 RTIM.hr                  5.00:  Time Reaming 
 SAZI.deg               298.42:  Azm, Start 
 SDEP.m                3870.00:  Start Depth 
 SIDD.                      No:  Serv Intrp, DD 
 SINC.deg                69.57:  Inc, Start 
 SPPA.psig             5500.00:  SPP Avg 
 SPPN.psig             4400.00:  SPP Min 
 SPPX.psig             5800.00:  SPP Max 
 STIM.      15.29.39 09-Sep-21:  Start Time 
 SVCS.                 DD, MWD:  Services 
 SVER.                    9.20:  Sperry Version 
 TDAT.m                5260.00:  Tot Depth Attmp 
 TDDF.                      No:  Trip for DD 
 TDLG.m                1390.00:  Tot Depth Loggd 
 TFF .                      No:  Trip for Fail 
 TQAA.f-kp               22.00:  Torque Abs Avg 
 TQAN.f-kp               13.00:  Torque Abs Min 
 TQAX.f-kp               27.00:  Torque Abs Max 
 TRRT.°/30m               1.60:  Turn Rotating 
 MRT .                  EWR-M5:  Maximum Recorded Temperature 
 TTMX.degC               92.00:  Max Tool Temp 
 VS01.                12330975:  Virtual Str1 SN 
 VS02.                90658671:  Virtual Str2 SN 
 VS03.                90658508:  Virtual Str3 SN 
 VS04.                90660974:  Virtual Str4 SN 
 VS05.                90654675:  Virtual Str5 SN 
 WBMN.klb                15.00:  WOB Min 
 WITN.     Alexander Yadullayev:  Customer Rep 
 WITN.           Adil Mammadov:  Customer Rep 2 
 WOBA.klb                17.00:  WOB Avg 
 WOBX.klb                18.00:  WOB Max 
 YP  .lhf2               31.00:  Yield Point 
~Curve Information Block
#MNEM.UNIT                 API CODE     Curve Description
#---------               -----------    ---------------------------
 TIME.HHMMSS            00 000 000 000:  GT Time & Date
 GTDEPTH.m              00 000 000 000:  GT Depth
 GTPQH.psia             00 000 000 000:  GT HR Quartz Pressure
 GTTQ.degC              00 000 000 000:  GT Quartz Temperature
 GTTN.NONE              00 000 000 000:  GT Test Number
 GTET.sec               00 000 000 000:  GT Elapsed Test Time
 GTTVD.m                00 000 000 000:  GT True Vertical Depth
#Other Information
#
#WARRANTY: Halliburton will use its best efforts to furnish customers with 
#accurate information and interpretations that are part of, and incident to, the services 
#provided.  However, Halliburton cannot and does not warrant the accuracy 
#or correctness of such information and interpretations.  Under no circumstances should any 
#such information or interpretation be relied upon as the sole basis for any drilling, 
#completion, production, or financial decision or any procedure involving any risk to the 
#safety of any drilling venture, drilling rig or its crew or any other third party.  The 
#Customer has full responsibility for all drilling, completion and production operation.  
#Halliburton makes no representations or warranties, either expressed or 
#implied, including, but not limited to, the implied warranties of merchantability or fitness 
#for a particular purpose, with respect to the services rendered.  In no event will 
#Halliburton be liable for failure to obtain any particular results or for 
#any damages, including, but not limited to, indirect, special or consequential damages, 
#resulting from the use of any information or interpretation provided by Halliburton.
#
~A           TIME           GTDEPTH  GTPQH  GTTQ  GTTN  GTET   GTTVD  
# ...
   01:52:18.000.17-Sep-2021 5127.00 5572.52 79.95 1.00  23.00 2605.20
   01:52:18.200.17-Sep-2021 5127.00 5572.52 79.95 1.00  23.20 2605.20
   01:52:18.400.17-Sep-2021 5127.00 5571.77 79.95 1.00  23.40 2605.20
   01:52:18.600.17-Sep-2021 5127.00 5572.08 79.95 1.00  23.60 2605.20
   01:52:18.800.17-Sep-2021 5127.00 5574.78 79.95 1.00  23.80 2605.20
   01:52:19.000.17-Sep-2021 5127.00 5572.65 79.95 1.00  24.00 2605.20
   01:52:19.200.17-Sep-2021 5127.00 5572.65 79.95 1.00  24.20 2605.20
   01:52:19.400.17-Sep-2021 5127.00 5572.41 79.95 1.00  24.40 2605.20
   01:52:19.600.17-Sep-2021 5127.00 5572.95 79.95 1.00  24.60 2605.20
   01:52:19.800.17-Sep-2021 5127.00 5572.55 79.95 1.00  24.80 2605.20
   01:52:20.000.17-Sep-2021 5127.00 5572.10 79.95 1.00  25.00 2605.20
   01:52:20.200.17-Sep-2021 5127.00 5572.10 79.95 1.00  25.20 2605.20
   01:52:20.400.17-Sep-2021 5127.00 5570.97 79.95 1.00  25.40 2605.20
   01:52:20.600.17-Sep-2021 5127.00 5573.01 79.95 1.00  25.60 2605.20
   01:52:20.800.17-Sep-2021 5127.00 5572.41 79.95 1.00  25.80 2605.20
   01:52:21.000.17-Sep-2021 5127.00 5572.20 79.95 1.00  26.00 2605.20
   01:52:21.200.17-Sep-2021 5127.00 5572.20 79.95 1.00  26.20 2605.20
   01:52:21.400.17-Sep-2021 5127.00 5572.00 79.95 1.00  26.40 2605.20
   01:52:21.600.17-Sep-2021 5127.00 5572.33 79.95 1.00  26.60 2605.20
   01:52:21.800.17-Sep-2021 5127.00 5572.55 79.95 1.00  26.80 2605.20
   01:52:22.000.17-Sep-2021 5127.00 5572.82 79.95 1.00  27.00 2605.20
   01:52:22.200.17-Sep-2021 5127.00 5572.82 79.95 1.00  27.20 2605.20
   01:52:22.400.17-Sep-2021 5127.00 5573.11 79.95 1.00  27.40 2605.20
   01:52:22.600.17-Sep-2021 5127.00 5573.11 79.95 1.00  27.60 2605.20
   01:52:22.800.17-Sep-2021 5127.00 5573.17 79.95 1.00  27.80 2605.20
   01:52:23.000.17-Sep-2021 5127.00 5573.17 79.95 1.00  28.00 2605.20
   01:52:23.200.17-Sep-2021 5127.00 5573.17 79.95 1.00  28.20 2605.20
   01:52:23.400.17-Sep-2021 5127.00 5575.42 79.95 1.00  28.40 2605.20
   01:52:23.600.17-Sep-2021 5127.00 5575.13 79.95 1.00  28.60 2605.20
   01:52:23.800.17-Sep-2021 5127.00 5573.87 79.95 1.00  28.80 2605.20
   01:52:24.000.17-Sep-2021 5127.00 5573.34 79.95 1.00  29.00 2605.20
   01:52:24.200.17-Sep-2021 5127.00 5573.34 79.95 1.00  29.20 2605.20
   01:52:24.400.17-Sep-2021 5127.00 5573.49 79.95 1.00  29.40 2605.20
   01:52:24.600.17-Sep-2021 5127.00 5573.29 79.95 1.00  29.60 2605.20
   01:52:24.800.17-Sep-2021 5127.00 5573.53 79.95 1.00  29.80 2605.20
   01:52:25.000.17-Sep-2021 5127.00 5573.70 79.95 1.00  30.00 2605.20
   01:52:25.200.17-Sep-2021 5127.00 5573.70 79.95 1.00  30.20 2605.20
   01:52:25.400.17-Sep-2021 5127.00 5573.91 79.95 1.00  30.40 2605.20
   01:52:25.600.17-Sep-2021 5127.00 5574.22 79.95 1.00  30.60 2605.20
   01:52:25.800.17-Sep-2021 5127.00 5574.23 79.95 1.00  30.80 2605.20
   01:52:26.000.17-Sep-2021 5127.00 5574.28 79.95 1.00  31.00 2605.20
   01:52:26.200.17-Sep-2021 5127.00 5574.28 79.95 1.00  31.20 2605.20
   01:52:26.400.17-Sep-2021 5127.00 5574.79 79.95 1.00  31.40 2605.20
   01:52:26.600.17-Sep-2021 5127.00 5574.95 79.95 1.00  31.60 2605.20
   01:52:26.800.17-Sep-2021 5127.00 5576.91 79.95 1.00  31.80 2605.20
   01:52:27.000.17-Sep-2021 5127.00 5575.59 79.94 1.00  32.00 2605.20
   01:52:27.200.17-Sep-2021 5127.00 5575.59 79.94 1.00  32.20 2605.20
   01:52:27.400.17-Sep-2021 5127.00 5575.30 79.94 1.00  32.40 2605.20
   01:52:27.600.17-Sep-2021 5127.00 5575.56 79.94 1.00  32.60 2605.20
   01:52:27.800.17-Sep-2021 5127.00 5575.28 79.94 1.00  32.80 2605.20
   01:52:28.000.17-Sep-2021 5127.00 5576.54 79.94 1.00  33.00 2605.20
   01:52:28.200.17-Sep-2021 5127.00 5576.54 79.94 1.00  33.20 2605.20
   01:52:28.400.17-Sep-2021 5127.00 5575.27 79.94 1.00  33.40 2605.20
   01:52:28.600.17-Sep-2021 5127.00 5574.96 79.94 1.00  33.60 2605.20
   01:52:28.800.17-Sep-2021 5127.00 5575.37 79.94 1.00  33.80 2605.20
   01:52:29.000.17-Sep-2021 5127.00 5577.70 79.94 1.00  34.00 2605.20
   01:52:29.200.17-Sep-2021 5127.00 5577.70 79.94 1.00  34.20 2605.20
   01:52:29.400.17-Sep-2021 5127.00 5575.71 79.94 1.00  34.40 2605.20
   01:52:29.600.17-Sep-2021 5127.00 5575.21 79.94 1.00  34.60 2605.20
   01:52:29.800.17-Sep-2021 5127.00 5574.99 79.94 1.00  34.80 2605.20
   01:52:30.000.17-Sep-2021 5127.00 5577.06 79.94 1.00  35.00 2605.20
   01:52:30.200.17-Sep-2021 5127.00 5577.06 79.94 1.00  35.20 2605.20
   01:52:30.400.17-Sep-2021 5127.00 5575.45 79.94 1.00  35.40 2605.20
   01:52:30.600.17-Sep-2021 5127.00 5574.72 79.94 1.00  35.60 2605.20
   01:52:30.800.17-Sep-2021 5127.00 5575.21 79.94 1.00  35.80 2605.20
   01:52:31.000.17-Sep-2021 5127.00 5575.10 79.94 1.00  36.00 2605.20
   01:52:31.200.17-Sep-2021 5127.00 5575.10 79.94 1.00  36.20 2605.20
   01:52:31.400.17-Sep-2021 5127.00 5574.88 79.94 1.00  36.40 2605.20
   01:52:31.600.17-Sep-2021 5127.00 5574.65 79.94 1.00  36.60 2605.20
   01:52:31.800.17-Sep-2021 5127.00 5574.64 79.94 1.00  36.80 2605.20
   01:52:32.000.17-Sep-2021 5127.00 5574.93 79.94 1.00  37.00 2605.20
   01:52:32.200.17-Sep-2021 5127.00 5574.93 79.94 1.00  37.20 2605.20
   01:52:32.400.17-Sep-2021 5127.00 5575.24 79.94 1.00  37.40 2605.20
   01:52:32.600.17-Sep-2021 5127.00 5575.20 79.94 1.00  37.60 2605.20
   01:52:32.800.17-Sep-2021 5127.00 5575.14 79.94 1.00  37.80 2605.20
   01:52:33.000.17-Sep-2021 5127.00 5575.23 79.94 1.00  38.00 2605.20
   01:52:33.200.17-Sep-2021 5127.00 5575.23 79.94 1.00  38.20 2605.20
   01:52:33.400.17-Sep-2021 5127.00 5575.31 79.94 1.00  38.40 2605.20
   01:52:33.600.17-Sep-2021 5127.00 5576.54 79.94 1.00  38.60 2605.20
   01:52:33.800.17-Sep-2021 5127.00 5576.20 79.94 1.00  38.80 2605.20
   01:52:34.000.17-Sep-2021 5127.00 5574.92 79.94 1.00  39.00 2605.20
   01:52:34.200.17-Sep-2021 5127.00 5574.92 79.94 1.00  39.20 2605.20
   01:52:34.400.17-Sep-2021 5127.00 5574.63 79.94 1.00  39.40 2605.20
   01:52:34.600.17-Sep-2021 5127.00 5574.19 79.94 1.00  39.60 2605.20
   01:52:34.800.17-Sep-2021 5127.00 5573.90 79.94 1.00  39.80 2605.20
   01:52:35.000.17-Sep-2021 5127.00 5574.08 79.94 1.00  40.00 2605.20
   01:52:35.200.17-Sep-2021 5127.00 5574.08 79.94 1.00  40.20 2605.20
   01:52:35.400.17-Sep-2021 5127.00 5574.24 79.94 1.00  40.40 2605.20
   01:52:35.600.17-Sep-2021 5127.00 5574.32 79.94 1.00  40.60 2605.20
   01:52:35.800.17-Sep-2021 5127.00 5574.41 79.94 1.00  40.80 2605.20
   01:52:36.000.17-Sep-2021 5127.00 5574.48 79.94 1.00  41.00 2605.20
   01:52:36.200.17-Sep-2021 5127.00 5574.48 79.94 1.00  41.20 2605.20
   01:52:36.400.17-Sep-2021 5127.00 5574.52 79.94 1.00  41.40 2605.20
   01:52:36.600.17-Sep-2021 5127.00 5574.58 79.94 1.00  41.60 2605.20
   01:52:36.800.17-Sep-2021 5127.00 5574.70 79.94 1.00  41.80 2605.20
   01:52:37.000.17-Sep-2021 5127.00 5577.25 79.94 1.00  42.00 2605.20
   01:52:37.200.17-Sep-2021 5127.00 5577.25 79.94 1.00  42.20 2605.20
   01:52:37.400.17-Sep-2021 5127.00 5575.06 79.94 1.00  42.40 2605.20
   01:52:37.600.17-Sep-2021 5127.00 5574.25 79.94 1.00  42.60 2605.20
   01:52:37.800.17-Sep-2021 5127.00 5573.60 79.94 1.00  42.80 2605.20
   01:52:38.000.17-Sep-2021 5127.00 5573.31 79.94 1.00  43.00 2605.20
   01:52:38.200.17-Sep-2021 5127.00 5573.31 79.94 1.00  43.20 2605.20
   01:52:38.400.17-Sep-2021 5127.00 5573.27 79.94 1.00  43.40 2605.20
   01:52:38.600.17-Sep-2021 5127.00 5573.44 79.94 1.00  43.60 2605.20
   01:52:38.800.17-Sep-2021 5127.00 5572.96 79.94 1.00  43.80 2605.20
   01:52:39.000.17-Sep-2021 5127.00 5573.00 79.94 1.00  44.00 2605.20
   01:52:39.200.17-Sep-2021 5127.00 5573.00 79.94 1.00  44.20 2605.20
   01:52:39.400.17-Sep-2021 5127.00 5574.62 79.94 1.00  44.40 2605.20
   01:52:39.600.17-Sep-2021 5127.00 5573.98 79.94 1.00  44.60 2605.20
   01:52:39.800.17-Sep-2021 5127.00 5572.70 79.94 1.00  44.80 2605.20
   01:52:40.000.17-Sep-2021 5127.00 5572.66 79.94 1.00  45.00 2605.20
   01:52:40.200.17-Sep-2021 5127.00 5572.66 79.94 1.00  45.20 2605.20
   01:52:40.400.17-Sep-2021 5127.00 5575.77 79.94 1.00  45.40 2605.20
   01:52:40.600.17-Sep-2021 5127.00 5571.83 79.94 1.00  45.60 2605.20
   01:52:40.800.17-Sep-2021 5127.00 5573.37 79.94 1.00  45.80 2605.20
