~Version Information
 VERS.                  2.0:   CWLS log ASCII Standard -VERSION 2.0
 WRAP.                   NO:   One line per depth step
~Well Information Block
#MNEM.UNIT     VALUE/NAME     DESCRIPTION
#---------     -----------    ---------------------------
 STRT.S             06:26:37 17-Sep-21: START TIME 06:26:37 17-Sep-21
 STOP.S             06:35:42 17-Sep-21: STOP TIME  06:35:42 17-Sep-21
 STEP.S                   0.00: STEP TIME
 NULL.                 -999.25: NULL VALUE
 DFWT.                        :  DIST FWL TEXT
 DFST.                        :  DIST FSL TEXT
 DMF .             Drill Floor:  DRILL MEAS FROM
 STIM.      10.59.12 05-Jul-21:  START TIME
 DATE.      10.59.12 10-Sep-21:  END TIME
 SPUD.               05-Jul-21:  SPUD DATE
 NREF.                    Grid:  NORTH REFERENCE
 HPTY.       Minimum Curvature:  HOLE POS TYPE
 DMOD.             Drill Model:  DRILL MOD DESC
 SVYD.                  Survey:  SURVEY DESC
 ILTD.               Lithology:  INTERP LTH DESC
 FTOP.          Formation Tops:  FORM TOPS DESC
 RIG .                     DWG:  RIG NAME
 PDAT.          Mean Sea Level:  PERMANENT DATUM
 FLD .                     ACG:  FIELD NAME
 SON .        AZ-XX-0907115008:  JOB NUMBER
 CTRY.              Azerbaijan:  COUNTRY NAME
 WELL.                    E35A:  WELL NAME
 SRVC.          TURAN DRILLING:  CONTRACTOR
 COMP.     BP Exploration (Caspian Sea LTD):  COMPANY
 UWI .                     N/A:  UNIQUE WELL IDENTIFIER
 API .                     N/A:  API NUMBER
 MDS .        Operator Entered:  MAG DATA SOURCE
 BASE.              Azerbaijan:  LOGGING EQUIPMENT BASE LOCATION
 REGN.                   EESSA:  REGION
 PROV.                    Baku:  PROVINCE
 STAT.                    Baku:  STATE NAME
 MWDS.                    Baku:  MWD SHOP
 JOBN.        AZ-XX-0907115008:  JOB TICKET NUMB
 DOE .                     N/A:  DOE NUMBER
 DCON.         Sperry Drilling:  DIRECTNL CONTR
 UNIT.                     N/A:  LOGGING EQUIPMENT ID
 WTYP.                Deviated:  WELL TYPE
 CNTY.                        :  COUNTY
 LOC .                        :  LOCATION
 LMF .             Drill Floor:  LOG MEASURED FROM
 TVDS.m                  43.16:  TVDSS CORRECTN
 LATI.deg                40.17:  LATITUDE
 LONG.deg                51.17:  LONGITUDE
 WHNS.m                  10.51:  WELL HEAD N/S
 WHEW.m                 -14.82:  WELL HEAD E/W
 UTMX.m              514336.92:  UTM X
 UTMY.m             4448618.56:  UTM Y
 DFWL.m                   0.00:  DISTANCE FWL
 DFSL.m                   0.00:  DISTANCE FSL
 SDEP.m                 849.00:  START DEPTH
 TDD .m                2862.00:  TOTAL DEPTH (DRILLER)
 VSDR.deg               292.10:  VERT SEC DIRECT
 GVFD.g                   1.00:  GRAVITY FIELD
 MFLD.nT              50382.00:  MAGNETIC FIELD
 MDIP.deg                59.68:  MAGNETIC DIP
 MDEC.deg                 6.66:  MAGNETIC DECL
 GRDC.deg                 0.09:  GRID CORRECTION
 AZTC.deg                 6.57:  AZM TOTAL CORR
 EPD .m                   0.00:  ELEVATION
 EGL .m                   0.00:  GROUND ELEVATION
 WDMS.m                 176.20:  WD ELEV
 APD .m                  43.16:  DEPTH ABOVE PD
 DEP .m                 363.42:  DEPTH
 AGAP.m                  43.16:  AIR GAP
 VSEW.m                 -14.82:  VERT SEC E/W
 VSNS.m                  10.51:  VERT SEC N/S
 EKB .m                  43.16:  KB ELEVATION
 EDF .m                  43.16:  DF ELEVATION
 TDL .m                1390.00:  TOTAL DEPTH (LOGGER)
 VSC .                       0:  VS TO CLOSURE
 MAGU.                 1855871:  MAGUTM CHECKSUM
~Parameter Information Block
#MNEM.UNIT       Value        Description
#---------     -----------    ---------------------------
 AV  .mps                 2.28:  Ann Velocity 
 AVMX.mps                 2.67:  Max Ann Veloc 
 AZIF.deg               305.00:  Azm, Final 
 BHAT.        Rotary Steerable:  BHA Type 
 BROT.°/30m               0.45:  Build Rotating 
 BS  .in                 12.25:  Bit Size 
 BSZ .in                 12.25:  Bit Size 
 BTPL.psig              600.00:  Bit Press Loss 
 CABU.                     Yes:  Customer Abuse 
 COMM.                     D5N:  Run Comments 1 
 TCS .hr                150.00:  Time Ciculation Ended 
 CV  .mps                 1.24:  Crit Velocity 
 CVMX.mps                 1.66:  Max Crit Veloc 
 DD1 .         Intigam Rahimov:  Direct Drillr 1 
 DD2 .            Azer Ravavov:  Direct Drillr 2 
 DD3 .              Samir Abas:  Direct Drillr 3 
 DDSV.               Geo-Pilot:  DD Service 
 DEFF.%                 100.00:  % Det Eff 
 DLRX.°/30m               1.57:  Dogleg Rot Max 
 DLSO.°/30m               0.00:  Dogleg Oriented 
 DLSX.°/30m               0.00:  Dogleg Str Max 
 DRET.      20.28.06 17-Sep-21:  Drill End Time 
 DRST.      20.27.35 10-Sep-21:  Drill Start Tim 
 DTIM.hr                 54.00:  Time Drilling 
 EDEP.m                5260.00:  End Depth 
 ENG1.      Bakhtiyar Jabbarli:  Engineer 1 
 ENG2.      Natik Hasanaghayev:  Engineer 2 
 ENG3.           Royal Nasirov:  Engineer 3 
 ETIM.      20.27.55 18-Sep-21:  End Time 
 FLOI.gpm              1100.00:  Flow In 
 FLON.gpm               800.00:  Flow In Min 
 FLOS.cptm                0.00:  Fluid Loss 
 FLOX.gpm              1200.00:  Flow In Max 
 DFT .        Mineral Oil Base:  Mud Type 
 HPRE.                      No:  High Pressure 
 HTEM.                      No:  High Temp 
 HYDO.m                   1.80:  Hydro Offset 
 IFIN.deg                72.31:  Inc, Final 
 IMAX.deg                72.36:  Inc Max 
 IMIN.deg                69.36:  Inc Min 
 IMND.m                4192.96:  Inc Min Depth 
 IMXD.m                5128.36:  Inc Max Depth 
 JARR.                      No:  Jarring 
 LETM.      20.29.00 17-Sep-21:  Log End Time 
 LOST.hr                     0:  Lost Rig Time 
 LSTM.      20.27.00 10-Sep-21:  Log Start Time 
 MDCL.ppm            227000.00:  Mud Chlorides 
 MDES.     Inversion Oil/Synthetic:  Mud Desc 
 DFD .sg                  1.45:  Mud Density 
 MDMN.sg                  1.45:  Dens Mud Min 
 MDMX.sg                  1.45:  Dens Mud Max 
 MOIL.                    70.5:  Run Mud Oil % 
 MOWR.                   71:29:  Run Mud OWR 
 MSND.                     0.3:  Run Mud Sand % 
 MSOL.                    19.8:  Run Mud Solids% 
 DFV .spqt               80.00:  Mud Viscosity 
 MWOD.in                  8.00:  MWD Tool OD 
 MWSI.                     Yes:  Serv Intrp, MWD 
 OTIM.hr                180.00:  Time Operating 
 PCON.           Look Like New:  Pad Condition 
 PMAX.psia             9910.94:  Press Op, Max 
 PV  .cP                 35.00:  Mud PV 
 RUN .                    1000:  Run Number 
 ROPA.m/hr               18.00:  ROP Avg 
 ROPN.m/hr                8.00:  ROP Min 
 ROPX.m/hr               23.00:  ROP Max 
 RPMA.rpm               150.00:  RPM Surface Avg 
 RPMN.rpm               120.00:  RPM Surface Min 
 RPMX.rpm               160.00:  RPM Surface Max 
 RRUN.                    L503:  Rig Run Number 
 RTIM.hr                  5.00:  Time Reaming 
 SAZI.deg               298.42:  Azm, Start 
 SDEP.m                3870.00:  Start Depth 
 SIDD.                      No:  Serv Intrp, DD 
 SINC.deg                69.57:  Inc, Start 
 SPPA.psig             5500.00:  SPP Avg 
 SPPN.psig             4400.00:  SPP Min 
 SPPX.psig             5800.00:  SPP Max 
 STIM.      15.29.39 09-Sep-21:  Start Time 
 SVCS.                 DD, MWD:  Services 
 SVER.                    9.20:  Sperry Version 
 TDAT.m                5260.00:  Tot Depth Attmp 
 TDDF.                      No:  Trip for DD 
 TDLG.m                1390.00:  Tot Depth Loggd 
 TFF .                      No:  Trip for Fail 
 TQAA.f-kp               22.00:  Torque Abs Avg 
 TQAN.f-kp               13.00:  Torque Abs Min 
 TQAX.f-kp               27.00:  Torque Abs Max 
 TRRT.°/30m               1.60:  Turn Rotating 
 MRT .                  EWR-M5:  Maximum Recorded Temperature 
 TTMX.degC               92.00:  Max Tool Temp 
 VS01.                12330975:  Virtual Str1 SN 
 VS02.                90658671:  Virtual Str2 SN 
 VS03.                90658508:  Virtual Str3 SN 
 VS04.                90660974:  Virtual Str4 SN 
 VS05.                90654675:  Virtual Str5 SN 
 WBMN.klb                15.00:  WOB Min 
 WITN.     Alexander Yadullayev:  Customer Rep 
 WITN.           Adil Mammadov:  Customer Rep 2 
 WOBA.klb                17.00:  WOB Avg 
 WOBX.klb                18.00:  WOB Max 
 YP  .lhf2               31.00:  Yield Point 
~Curve Information Block
#MNEM.UNIT                 API CODE     Curve Description
#---------               -----------    ---------------------------
 TIME.HHMMSS            00 000 000 000:  GT Time & Date
 GTDEPTH.m              00 000 000 000:  GT Depth
 GTPQH.psia             00 000 000 000:  GT HR Quartz Pressure
 GTTQ.degC              00 000 000 000:  GT Quartz Temperature
 GTTN.NONE              00 000 000 000:  GT Test Number
 GTET.sec               00 000 000 000:  GT Elapsed Test Time
 GTTVD.m                00 000 000 000:  GT True Vertical Depth
#Other Information
#
#WARRANTY: Halliburton will use its best efforts to furnish customers with 
#accurate information and interpretations that are part of, and incident to, the services 
#provided.  However, Halliburton cannot and does not warrant the accuracy 
#or correctness of such information and interpretations.  Under no circumstances should any 
#such information or interpretation be relied upon as the sole basis for any drilling, 
#completion, production, or financial decision or any procedure involving any risk to the 
#safety of any drilling venture, drilling rig or its crew or any other third party.  The 
#Customer has full responsibility for all drilling, completion and production operation.  
#Halliburton makes no representations or warranties, either expressed or 
#implied, including, but not limited to, the implied warranties of merchantability or fitness 
#for a particular purpose, with respect to the services rendered.  In no event will 
#Halliburton be liable for failure to obtain any particular results or for 
#any damages, including, but not limited to, indirect, special or consequential damages, 
#resulting from the use of any information or interpretation provided by Halliburton.
#
~A           TIME           GTDEPTH  GTPQH  GTTQ  GTTN  GTET   GTTVD  
# ...
   06:34:40.254.17-Sep-2021 5057.00 5572.38 78.69 7.00 482.90 2583.65
   06:34:40.454.17-Sep-2021 5057.00 5572.38 78.69 7.00 483.10 2583.65
   06:34:40.654.17-Sep-2021 5057.00 5639.15 78.69 7.00 483.30 2583.65
   06:34:40.854.17-Sep-2021 5057.00 5660.49 78.69 7.00 483.50 2583.65
   06:34:41.054.17-Sep-2021 5057.00 5571.63 78.69 7.00 483.70 2583.65
   06:34:41.254.17-Sep-2021 5057.00 5564.82 78.69 7.00 483.90 2583.65
   06:34:41.454.17-Sep-2021 5057.00 5564.82 78.69 7.00 484.10 2583.65
   06:34:41.653.17-Sep-2021 5057.00 5569.11 78.69 7.00 484.30 2583.65
   06:34:41.853.17-Sep-2021 5057.00 5564.55 78.69 7.00 484.50 2583.65
   06:34:42.053.17-Sep-2021 5057.00 5567.77 78.69 7.00 484.70 2583.65
   06:34:42.253.17-Sep-2021 5057.00 5566.24 78.69 7.00 484.90 2583.65
   06:34:42.453.17-Sep-2021 5057.00 5566.24 78.69 7.00 485.10 2583.65
   06:34:42.653.17-Sep-2021 5057.00 5568.42 78.69 7.00 485.30 2583.65
   06:34:42.853.17-Sep-2021 5057.00 5575.80 78.69 7.00 485.50 2583.65
   06:34:43.053.17-Sep-2021 5057.00 5573.06 78.69 7.00 485.70 2583.65
   06:34:43.253.17-Sep-2021 5057.00 5571.23 78.69 7.00 485.90 2583.65
   06:34:43.453.17-Sep-2021 5057.00 5571.23 78.69 7.00 486.10 2583.65
   06:34:43.653.17-Sep-2021 5057.00 5574.13 78.69 7.00 486.30 2583.65
   06:34:43.853.17-Sep-2021 5057.00 5574.17 78.69 7.00 486.50 2583.65
   06:34:44.053.17-Sep-2021 5057.00 5580.21 78.69 7.00 486.70 2583.65
   06:34:44.253.17-Sep-2021 5057.00 5575.71 78.69 7.00 486.90 2583.65
   06:34:44.453.17-Sep-2021 5057.00 5575.71 78.69 7.00 487.10 2583.65
   06:34:44.653.17-Sep-2021 5057.00 5582.49 78.69 7.00 487.30 2583.65
   06:34:44.853.17-Sep-2021 5057.00 5588.67 78.69 7.00 487.50 2583.65
   06:34:45.053.17-Sep-2021 5057.00 5584.45 78.69 7.00 487.70 2583.65
   06:34:45.253.17-Sep-2021 5057.00 5589.36 78.69 7.00 487.90 2583.65
   06:34:45.453.17-Sep-2021 5057.00 5589.36 78.69 7.00 488.10 2583.65
   06:34:45.653.17-Sep-2021 5057.00 5592.69 78.69 7.00 488.30 2583.65
   06:34:45.853.17-Sep-2021 5057.00 5582.28 78.69 7.00 488.50 2583.65
   06:34:46.053.17-Sep-2021 5057.00 5572.62 78.69 7.00 488.70 2583.65
   06:34:46.252.17-Sep-2021 5057.00 5567.87 78.69 7.00 488.90 2583.65
   06:34:46.452.17-Sep-2021 5057.00 5567.87 78.69 7.00 489.10 2583.65
   06:34:46.652.17-Sep-2021 5057.00 5558.06 78.69 7.00 489.30 2583.65
   06:34:46.852.17-Sep-2021 5057.00 5553.70 78.69 7.00 489.50 2583.65
   06:34:47.052.17-Sep-2021 5057.00 5552.87 78.69 7.00 489.70 2583.65
   06:34:47.252.17-Sep-2021 5057.00 5553.26 78.69 7.00 489.90 2583.65
   06:34:47.452.17-Sep-2021 5057.00 5553.26 78.69 7.00 490.10 2583.65
   06:34:47.652.17-Sep-2021 5057.00 5553.57 78.69 7.00 490.30 2583.65
   06:34:47.852.17-Sep-2021 5057.00 5553.89 78.69 7.00 490.50 2583.65
   06:34:48.052.17-Sep-2021 5057.00 5555.40 78.69 7.00 490.70 2583.65
   06:34:48.252.17-Sep-2021 5057.00 5553.03 78.69 7.00 490.90 2583.65
   06:34:48.452.17-Sep-2021 5057.00 5553.03 78.69 7.00 491.10 2583.65
   06:34:48.652.17-Sep-2021 5057.00 5553.35 78.69 7.00 491.30 2583.65
   06:34:48.852.17-Sep-2021 5057.00 5552.46 78.69 7.00 491.50 2583.65
   06:34:49.052.17-Sep-2021 5057.00 5552.64 78.69 7.00 491.70 2583.65
   06:34:49.252.17-Sep-2021 5057.00 5552.15 78.69 7.00 491.90 2583.65
   06:34:49.452.17-Sep-2021 5057.00 5552.15 78.69 7.00 492.10 2583.65
   06:34:49.652.17-Sep-2021 5057.00 5551.91 78.69 7.00 492.30 2583.65
   06:34:49.852.17-Sep-2021 5057.00 5551.62 78.69 7.00 492.50 2583.65
   06:34:50.052.17-Sep-2021 5057.00 5551.97 78.69 7.00 492.69 2583.65
   06:34:50.252.17-Sep-2021 5057.00 5551.96 78.69 7.00 492.89 2583.65
   06:34:50.452.17-Sep-2021 5057.00 5551.96 78.69 7.00 493.09 2583.65
   06:34:50.652.17-Sep-2021 5057.00 5552.46 78.69 7.00 493.29 2583.65
   06:34:50.852.17-Sep-2021 5057.00 5552.48 78.69 7.00 493.49 2583.65
   06:34:51.051.17-Sep-2021 5057.00 5552.85 78.69 7.00 493.69 2583.65
   06:34:51.251.17-Sep-2021 5057.00 5553.03 78.69 7.00 493.89 2583.65
   06:34:51.451.17-Sep-2021 5057.00 5553.03 78.69 7.00 494.09 2583.65
   06:34:51.651.17-Sep-2021 5057.00 5552.11 78.69 7.00 494.29 2583.65
   06:34:51.851.17-Sep-2021 5057.00 5554.81 78.69 7.00 494.49 2583.65
   06:34:52.051.17-Sep-2021 5057.00 5552.55 78.69 7.00 494.69 2583.65
   06:34:52.251.17-Sep-2021 5057.00 5552.29 78.69 7.00 494.89 2583.65
   06:34:52.451.17-Sep-2021 5057.00 5552.29 78.69 7.00 495.09 2583.65
   06:34:52.651.17-Sep-2021 5057.00 5550.93 78.69 7.00 495.29 2583.65
   06:34:52.851.17-Sep-2021 5057.00 5551.88 78.69 7.00 495.49 2583.65
   06:34:53.051.17-Sep-2021 5057.00 5552.61 78.69 7.00 495.69 2583.65
   06:34:53.251.17-Sep-2021 5057.00 5552.16 78.69 7.00 495.89 2583.65
   06:34:53.451.17-Sep-2021 5057.00 5552.16 78.69 7.00 496.09 2583.65
   06:34:53.651.17-Sep-2021 5057.00 5554.55 78.69 7.00 496.29 2583.65
   06:34:53.851.17-Sep-2021 5057.00 5550.90 78.69 7.00 496.49 2583.65
   06:34:54.051.17-Sep-2021 5057.00 5551.87 78.69 7.00 496.69 2583.65
   06:34:54.251.17-Sep-2021 5057.00 5553.16 78.69 7.00 496.89 2583.65
   06:34:54.451.17-Sep-2021 5057.00 5553.16 78.69 7.00 497.09 2583.65
   06:34:54.651.17-Sep-2021 5057.00 5556.51 78.69 7.00 497.29 2583.65
   06:34:54.851.17-Sep-2021 5057.00 5549.77 78.69 7.00 497.49 2583.65
   06:34:55.051.17-Sep-2021 5057.00 5553.72 78.69 7.00 497.69 2583.65
   06:34:55.251.17-Sep-2021 5057.00 5552.15 78.69 7.00 497.89 2583.65
   06:34:55.451.17-Sep-2021 5057.00 5552.15 78.69 7.00 498.09 2583.65
   06:34:55.650.17-Sep-2021 5057.00 5552.30 78.69 7.00 498.29 2583.65
   06:34:55.850.17-Sep-2021 5057.00 5551.71 78.69 7.00 498.49 2583.65
   06:34:56.050.17-Sep-2021 5057.00 5551.45 78.69 7.00 498.69 2583.65
   06:34:56.250.17-Sep-2021 5057.00 5551.53 78.69 7.00 498.89 2583.65
   06:34:56.450.17-Sep-2021 5057.00 5551.53 78.69 7.00 499.09 2583.65
   06:34:56.650.17-Sep-2021 5057.00 5551.87 78.69 7.00 499.29 2583.65
   06:34:56.850.17-Sep-2021 5057.00 5552.42 78.69 7.00 499.49 2583.65
   06:34:57.050.17-Sep-2021 5057.00 5552.37 78.69 7.00 499.69 2583.65
   06:34:57.250.17-Sep-2021 5057.00 5552.26 78.69 7.00 499.89 2583.65
   06:34:57.450.17-Sep-2021 5057.00 5552.26 78.69 7.00 500.09 2583.65
   06:34:57.650.17-Sep-2021 5057.00 5552.91 78.69 7.00 500.29 2583.65
   06:34:57.850.17-Sep-2021 5057.00 5554.77 78.69 7.00 500.49 2583.65
   06:34:58.050.17-Sep-2021 5057.00 5552.76 78.69 7.00 500.69 2583.65
   06:34:58.250.17-Sep-2021 5057.00 5553.96 78.69 7.00 500.89 2583.65
   06:34:58.450.17-Sep-2021 5057.00 5553.96 78.69 7.00 501.09 2583.65
   06:34:58.650.17-Sep-2021 5057.00 5552.16 78.69 7.00 501.29 2583.65
   06:34:58.850.17-Sep-2021 5057.00 5552.34 78.69 7.00 501.49 2583.65
   06:34:59.050.17-Sep-2021 5057.00 5551.88 78.69 7.00 501.69 2583.65
   06:34:59.250.17-Sep-2021 5057.00 5551.57 78.69 7.00 501.89 2583.65
   06:34:59.450.17-Sep-2021 5057.00 5551.57 78.69 7.00 502.09 2583.65
   06:34:59.650.17-Sep-2021 5057.00 5551.47 78.69 7.00 502.29 2583.65
   06:34:59.850.17-Sep-2021 5057.00 5551.96 78.69 7.00 502.49 2583.65
   06:35:00.050.17-Sep-2021 5057.00 5551.81 78.69 7.00 502.69 2583.65
   06:35:00.250.17-Sep-2021 5057.00 5552.10 78.69 7.00 502.89 2583.65
   06:35:00.449.17-Sep-2021 5057.00 5552.10 78.69 7.00 503.09 2583.65
   06:35:00.649.17-Sep-2021 5057.00 5552.62 78.69 7.00 503.29 2583.65
   06:35:00.849.17-Sep-2021 5057.00 5552.70 78.69 7.00 503.49 2583.65
   06:35:01.049.17-Sep-2021 5057.00 5552.91 78.69 7.00 503.69 2583.65
   06:35:01.249.17-Sep-2021 5057.00 5555.81 78.69 7.00 503.89 2583.65
   06:35:01.449.17-Sep-2021 5057.00 5555.81 78.69 7.00 504.09 2583.65
   06:35:01.649.17-Sep-2021 5057.00 5554.89 78.69 7.00 504.29 2583.65
   06:35:01.849.17-Sep-2021 5057.00 5552.75 78.69 7.00 504.49 2583.65
   06:35:02.049.17-Sep-2021 5057.00 5552.35 78.69 7.00 504.69 2583.65
   06:35:02.249.17-Sep-2021 5057.00 5552.73 78.69 7.00 504.89 2583.65
   06:35:02.449.17-Sep-2021 5057.00 5552.73 78.69 7.00 505.09 2583.65
   06:35:02.649.17-Sep-2021 5057.00 5551.94 78.69 7.00 505.29 2583.65
   06:35:02.849.17-Sep-2021 5057.00 5551.42 78.69 7.00 505.49 2583.65
   06:35:03.049.17-Sep-2021 5057.00 5552.77 78.69 7.00 505.69 2583.65
