~Version Information
 VERS.                  2.0:   CWLS log ASCII Standard -VERSION 2.0
 WRAP.                   NO:   One line per depth step
~Well Information Block
#MNEM.UNIT     VALUE/NAME     DESCRIPTION
#---------     -----------    ---------------------------
 STRT.S             05:03:12 17-Sep-21: START TIME 05:03:12 17-Sep-21
 STOP.S             05:12:54 17-Sep-21: STOP TIME  05:12:54 17-Sep-21
 STEP.S                   0.00: STEP TIME
 NULL.                 -999.25: NULL VALUE
 DFWT.                        :  DIST FWL TEXT
 DFST.                        :  DIST FSL TEXT
 DMF .             Drill Floor:  DRILL MEAS FROM
 STIM.      10.59.12 05-Jul-21:  START TIME
 DATE.      10.59.12 10-Sep-21:  END TIME
 SPUD.               05-Jul-21:  SPUD DATE
 NREF.                    Grid:  NORTH REFERENCE
 HPTY.       Minimum Curvature:  HOLE POS TYPE
 DMOD.             Drill Model:  DRILL MOD DESC
 SVYD.                  Survey:  SURVEY DESC
 ILTD.               Lithology:  INTERP LTH DESC
 FTOP.          Formation Tops:  FORM TOPS DESC
 RIG .                     DWG:  RIG NAME
 PDAT.          Mean Sea Level:  PERMANENT DATUM
 FLD .                     ACG:  FIELD NAME
 SON .        AZ-XX-0907115008:  JOB NUMBER
 CTRY.              Azerbaijan:  COUNTRY NAME
 WELL.                    E35A:  WELL NAME
 SRVC.          TURAN DRILLING:  CONTRACTOR
 COMP.     BP Exploration (Caspian Sea LTD):  COMPANY
 UWI .                     N/A:  UNIQUE WELL IDENTIFIER
 API .                     N/A:  API NUMBER
 MDS .        Operator Entered:  MAG DATA SOURCE
 BASE.              Azerbaijan:  LOGGING EQUIPMENT BASE LOCATION
 REGN.                   EESSA:  REGION
 PROV.                    Baku:  PROVINCE
 STAT.                    Baku:  STATE NAME
 MWDS.                    Baku:  MWD SHOP
 JOBN.        AZ-XX-0907115008:  JOB TICKET NUMB
 DOE .                     N/A:  DOE NUMBER
 DCON.         Sperry Drilling:  DIRECTNL CONTR
 UNIT.                     N/A:  LOGGING EQUIPMENT ID
 WTYP.                Deviated:  WELL TYPE
 CNTY.                        :  COUNTY
 LOC .                        :  LOCATION
 LMF .             Drill Floor:  LOG MEASURED FROM
 TVDS.m                  43.16:  TVDSS CORRECTN
 LATI.deg                40.17:  LATITUDE
 LONG.deg                51.17:  LONGITUDE
 WHNS.m                  10.51:  WELL HEAD N/S
 WHEW.m                 -14.82:  WELL HEAD E/W
 UTMX.m              514336.92:  UTM X
 UTMY.m             4448618.56:  UTM Y
 DFWL.m                   0.00:  DISTANCE FWL
 DFSL.m                   0.00:  DISTANCE FSL
 SDEP.m                 849.00:  START DEPTH
 TDD .m                2862.00:  TOTAL DEPTH (DRILLER)
 VSDR.deg               292.10:  VERT SEC DIRECT
 GVFD.g                   1.00:  GRAVITY FIELD
 MFLD.nT              50382.00:  MAGNETIC FIELD
 MDIP.deg                59.68:  MAGNETIC DIP
 MDEC.deg                 6.66:  MAGNETIC DECL
 GRDC.deg                 0.09:  GRID CORRECTION
 AZTC.deg                 6.57:  AZM TOTAL CORR
 EPD .m                   0.00:  ELEVATION
 EGL .m                   0.00:  GROUND ELEVATION
 WDMS.m                 176.20:  WD ELEV
 APD .m                  43.16:  DEPTH ABOVE PD
 DEP .m                 363.42:  DEPTH
 AGAP.m                  43.16:  AIR GAP
 VSEW.m                 -14.82:  VERT SEC E/W
 VSNS.m                  10.51:  VERT SEC N/S
 EKB .m                  43.16:  KB ELEVATION
 EDF .m                  43.16:  DF ELEVATION
 TDL .m                1390.00:  TOTAL DEPTH (LOGGER)
 VSC .                       0:  VS TO CLOSURE
 MAGU.                 1855871:  MAGUTM CHECKSUM
~Parameter Information Block
#MNEM.UNIT       Value        Description
#---------     -----------    ---------------------------
 AV  .mps                 2.28:  Ann Velocity 
 AVMX.mps                 2.67:  Max Ann Veloc 
 AZIF.deg               305.00:  Azm, Final 
 BHAT.        Rotary Steerable:  BHA Type 
 BROT.°/30m               0.45:  Build Rotating 
 BS  .in                 12.25:  Bit Size 
 BSZ .in                 12.25:  Bit Size 
 BTPL.psig              600.00:  Bit Press Loss 
 CABU.                     Yes:  Customer Abuse 
 COMM.                     äÏF:  Run Comments 1 
 TCS .hr                150.00:  Time Ciculation Ended 
 CV  .mps                 1.24:  Crit Velocity 
 CVMX.mps                 1.66:  Max Crit Veloc 
 DD1 .         Intigam Rahimov:  Direct Drillr 1 
 DD2 .            Azer Ravavov:  Direct Drillr 2 
 DD3 .              Samir Abas:  Direct Drillr 3 
 DDSV.               Geo-Pilot:  DD Service 
 DEFF.%                 100.00:  % Det Eff 
 DLRX.°/30m               1.57:  Dogleg Rot Max 
 DLSO.°/30m               0.00:  Dogleg Oriented 
 DLSX.°/30m               0.00:  Dogleg Str Max 
 DRET.      20.28.06 17-Sep-21:  Drill End Time 
 DRST.      20.27.35 10-Sep-21:  Drill Start Tim 
 DTIM.hr                 54.00:  Time Drilling 
 EDEP.m                5260.00:  End Depth 
 ENG1.      Bakhtiyar Jabbarli:  Engineer 1 
 ENG2.      Natik Hasanaghayev:  Engineer 2 
 ENG3.           Royal Nasirov:  Engineer 3 
 ETIM.      20.27.55 18-Sep-21:  End Time 
 FLOI.gpm              1100.00:  Flow In 
 FLON.gpm               800.00:  Flow In Min 
 FLOS.cptm                0.00:  Fluid Loss 
 FLOX.gpm              1200.00:  Flow In Max 
 DFT .        Mineral Oil Base:  Mud Type 
 HPRE.                      No:  High Pressure 
 HTEM.                      No:  High Temp 
 HYDO.m                   1.80:  Hydro Offset 
 IFIN.deg                72.31:  Inc, Final 
 IMAX.deg                72.36:  Inc Max 
 IMIN.deg                69.36:  Inc Min 
 IMND.m                4192.96:  Inc Min Depth 
 IMXD.m                5128.36:  Inc Max Depth 
 JARR.                      No:  Jarring 
 LETM.      20.29.00 17-Sep-21:  Log End Time 
 LOST.hr                     0:  Lost Rig Time 
 LSTM.      20.27.00 10-Sep-21:  Log Start Time 
 MDCL.ppm            227000.00:  Mud Chlorides 
 MDES.     Inversion Oil/Synthetic:  Mud Desc 
 DFD .sg                  1.45:  Mud Density 
 MDMN.sg                  1.45:  Dens Mud Min 
 MDMX.sg                  1.45:  Dens Mud Max 
 MOIL.                    70.5:  Run Mud Oil % 
 MOWR.                   71:29:  Run Mud OWR 
 MSND.                     0.3:  Run Mud Sand % 
 MSOL.                    19.8:  Run Mud Solids% 
 DFV .spqt               80.00:  Mud Viscosity 
 MWOD.in                  8.00:  MWD Tool OD 
 MWSI.                     Yes:  Serv Intrp, MWD 
 OTIM.hr                180.00:  Time Operating 
 PCON.           Look Like New:  Pad Condition 
 PMAX.psia             9910.94:  Press Op, Max 
 PV  .cP                 35.00:  Mud PV 
 RUN .                    1000:  Run Number 
 ROPA.m/hr               18.00:  ROP Avg 
 ROPN.m/hr                8.00:  ROP Min 
 ROPX.m/hr               23.00:  ROP Max 
 RPMA.rpm               150.00:  RPM Surface Avg 
 RPMN.rpm               120.00:  RPM Surface Min 
 RPMX.rpm               160.00:  RPM Surface Max 
 RRUN.                    L503:  Rig Run Number 
 RTIM.hr                  5.00:  Time Reaming 
 SAZI.deg               298.42:  Azm, Start 
 SDEP.m                3870.00:  Start Depth 
 SIDD.                      No:  Serv Intrp, DD 
 SINC.deg                69.57:  Inc, Start 
 SPPA.psig             5500.00:  SPP Avg 
 SPPN.psig             4400.00:  SPP Min 
 SPPX.psig             5800.00:  SPP Max 
 STIM.      15.29.39 09-Sep-21:  Start Time 
 SVCS.                 DD, MWD:  Services 
 SVER.                    9.20:  Sperry Version 
 TDAT.m                5260.00:  Tot Depth Attmp 
 TDDF.                      No:  Trip for DD 
 TDLG.m                1390.00:  Tot Depth Loggd 
 TFF .                      No:  Trip for Fail 
 TQAA.f-kp               22.00:  Torque Abs Avg 
 TQAN.f-kp               13.00:  Torque Abs Min 
 TQAX.f-kp               27.00:  Torque Abs Max 
 TRRT.°/30m               1.60:  Turn Rotating 
 MRT .                  EWR-M5:  Maximum Recorded Temperature 
 TTMX.degC               92.00:  Max Tool Temp 
 VS01.                12330975:  Virtual Str1 SN 
 VS02.                90658671:  Virtual Str2 SN 
 VS03.                90658508:  Virtual Str3 SN 
 VS04.                90660974:  Virtual Str4 SN 
 VS05.                90654675:  Virtual Str5 SN 
 WBMN.klb                15.00:  WOB Min 
 WITN.     Alexander Yadullayev:  Customer Rep 
 WITN.           Adil Mammadov:  Customer Rep 2 
 WOBA.klb                17.00:  WOB Avg 
 WOBX.klb                18.00:  WOB Max 
 YP  .lhf2               31.00:  Yield Point 
~Curve Information Block
#MNEM.UNIT                 API CODE     Curve Description
#---------               -----------    ---------------------------
 TIME.HHMMSS            00 000 000 000:  GT Time & Date
 GTDEPTH.m              00 000 000 000:  GT Depth
 GTPQH.psia             00 000 000 000:  GT HR Quartz Pressure
 GTTQ.degC              00 000 000 000:  GT Quartz Temperature
 GTTN.NONE              00 000 000 000:  GT Test Number
 GTET.sec               00 000 000 000:  GT Elapsed Test Time
 GTTVD.m                00 000 000 000:  GT True Vertical Depth
#Other Information
#
#WARRANTY: Halliburton will use its best efforts to furnish customers with 
#accurate information and interpretations that are part of, and incident to, the services 
#provided.  However, Halliburton cannot and does not warrant the accuracy 
#or correctness of such information and interpretations.  Under no circumstances should any 
#such information or interpretation be relied upon as the sole basis for any drilling, 
#completion, production, or financial decision or any procedure involving any risk to the 
#safety of any drilling venture, drilling rig or its crew or any other third party.  The 
#Customer has full responsibility for all drilling, completion and production operation.  
#Halliburton makes no representations or warranties, either expressed or 
#implied, including, but not limited to, the implied warranties of merchantability or fitness 
#for a particular purpose, with respect to the services rendered.  In no event will 
#Halliburton be liable for failure to obtain any particular results or for 
#any damages, including, but not limited to, indirect, special or consequential damages, 
#resulting from the use of any information or interpretation provided by Halliburton.
#
~A           TIME           GTDEPTH  GTPQH  GTTQ  GTTN  GTET   GTTVD  
# ...
   05:03:58.907.17-Sep-2021 5093.53 5098.95 79.35 5.00  46.05 2594.99
   05:03:59.107.17-Sep-2021 5093.53 5098.95 79.35 5.00  46.25 2594.99
   05:03:59.307.17-Sep-2021 5093.53 5070.98 79.35 5.00  46.45 2594.99
   05:03:59.507.17-Sep-2021 5093.53 5046.61 79.35 5.00  46.65 2594.99
   05:03:59.708.17-Sep-2021 5093.53 5056.39 79.35 5.00  46.85 2594.99
   05:03:59.908.17-Sep-2021 5093.53 5063.85 79.35 5.00  47.05 2594.99
   05:04:00.108.17-Sep-2021 5093.53 5063.85 79.35 5.00  47.25 2594.99
   05:04:00.308.17-Sep-2021 5093.53 5088.01 79.35 5.00  47.45 2594.99
   05:04:00.509.17-Sep-2021 5093.53 5056.91 79.35 5.00  47.65 2594.99
   05:04:00.709.17-Sep-2021 5093.53 5052.59 79.35 5.00  47.85 2594.99
   05:04:00.909.17-Sep-2021 5093.53 5047.06 79.35 5.00  48.05 2594.99
   05:04:01.109.17-Sep-2021 5093.53 5047.06 79.35 5.00  48.25 2594.99
   05:04:01.309.17-Sep-2021 5093.53 5104.44 79.35 5.00  48.45 2594.99
   05:04:01.510.17-Sep-2021 5093.53 5086.07 79.35 5.00  48.65 2594.99
   05:04:01.710.17-Sep-2021 5093.53 5064.52 79.35 5.00  48.85 2594.99
   05:04:01.910.17-Sep-2021 5093.53 5061.17 79.35 5.00  49.05 2594.99
   05:04:02.110.17-Sep-2021 5093.53 5061.17 79.35 5.00  49.25 2594.99
   05:04:02.310.17-Sep-2021 5093.53 5040.88 79.35 5.00  49.45 2594.99
   05:04:02.511.17-Sep-2021 5093.53 5023.42 79.35 5.00  49.65 2594.99
   05:04:02.711.17-Sep-2021 5093.53 5068.77 79.34 5.00  49.85 2594.99
   05:04:02.911.17-Sep-2021 5093.53 5027.31 79.34 5.00  50.05 2594.99
   05:04:03.111.17-Sep-2021 5093.53 5027.31 79.34 5.00  50.25 2594.99
   05:04:03.312.17-Sep-2021 5093.53 5009.86 79.34 5.00  50.45 2594.99
   05:04:03.512.17-Sep-2021 5093.53 5003.30 79.34 5.00  50.65 2594.99
   05:04:03.712.17-Sep-2021 5093.53 4998.35 79.34 5.00  50.85 2594.99
   05:04:03.912.17-Sep-2021 5093.53 4991.34 79.34 5.00  51.05 2594.99
   05:04:04.112.17-Sep-2021 5093.53 4991.34 79.34 5.00  51.26 2594.99
   05:04:04.313.17-Sep-2021 5093.53 4974.25 79.34 5.00  51.46 2594.99
   05:04:04.513.17-Sep-2021 5093.53 5014.52 79.34 5.00  51.66 2594.99
   05:04:04.713.17-Sep-2021 5093.53 4980.45 79.34 5.00  51.86 2594.99
   05:04:04.913.17-Sep-2021 5093.53 4965.66 79.34 5.00  52.06 2594.99
   05:04:05.113.17-Sep-2021 5093.53 4965.66 79.34 5.00  52.26 2594.99
   05:04:05.314.17-Sep-2021 5093.53 4986.89 79.34 5.00  52.46 2594.99
   05:04:05.514.17-Sep-2021 5093.53 4954.72 79.34 5.00  52.66 2594.99
   05:04:05.714.17-Sep-2021 5093.53 4936.53 79.34 5.00  52.86 2594.99
   05:04:05.914.17-Sep-2021 5093.53 4930.66 79.34 5.00  53.06 2594.99
   05:04:06.115.17-Sep-2021 5093.53 4930.66 79.34 5.00  53.26 2594.99
   05:04:06.315.17-Sep-2021 5093.53 4899.68 79.34 5.00  53.46 2594.99
   05:04:06.515.17-Sep-2021 5093.53 4892.81 79.34 5.00  53.66 2594.99
   05:04:06.715.17-Sep-2021 5093.53 4881.27 79.34 5.00  53.86 2594.99
   05:04:06.915.17-Sep-2021 5093.53 4867.38 79.34 5.00  54.06 2594.99
   05:04:07.116.17-Sep-2021 5093.53 4867.38 79.34 5.00  54.26 2594.99
   05:04:07.316.17-Sep-2021 5093.53 4855.99 79.34 5.00  54.46 2594.99
   05:04:07.516.17-Sep-2021 5093.53 4866.49 79.34 5.00  54.66 2594.99
   05:04:07.716.17-Sep-2021 5093.53 4867.45 79.34 5.00  54.86 2594.99
   05:04:07.916.17-Sep-2021 5093.53 4910.10 79.34 5.00  55.06 2594.99
   05:04:08.117.17-Sep-2021 5093.53 4910.10 79.34 5.00  55.26 2594.99
   05:04:08.317.17-Sep-2021 5093.53 4840.50 79.34 5.00  55.46 2594.99
   05:04:08.517.17-Sep-2021 5093.53 4870.89 79.34 5.00  55.66 2594.99
   05:04:08.717.17-Sep-2021 5093.53 4890.30 79.34 5.00  55.86 2594.99
   05:04:08.918.17-Sep-2021 5093.53 4908.41 79.34 5.00  56.06 2594.99
   05:04:09.118.17-Sep-2021 5093.53 4908.41 79.34 5.00  56.26 2594.99
   05:04:09.318.17-Sep-2021 5093.53 4966.79 79.34 5.00  56.46 2594.99
   05:04:09.518.17-Sep-2021 5093.53 5000.55 79.34 5.00  56.66 2594.99
   05:04:09.718.17-Sep-2021 5093.53 5048.19 79.34 5.00  56.86 2594.99
   05:04:09.919.17-Sep-2021 5093.53 5068.83 79.34 5.00  57.06 2594.99
   05:04:10.119.17-Sep-2021 5093.53 5068.83 79.34 5.00  57.26 2594.99
   05:04:10.319.17-Sep-2021 5093.53 5102.61 79.34 5.00  57.46 2594.99
   05:04:10.519.17-Sep-2021 5093.53 5154.08 79.34 5.00  57.66 2594.99
   05:04:10.720.17-Sep-2021 5093.53 5164.06 79.34 5.00  57.86 2594.99
   05:04:10.920.17-Sep-2021 5093.53 5199.81 79.34 5.00  58.06 2594.99
   05:04:11.120.17-Sep-2021 5093.53 5199.81 79.34 5.00  58.26 2594.99
   05:04:11.320.17-Sep-2021 5093.53 5244.38 79.34 5.00  58.46 2594.99
   05:04:11.520.17-Sep-2021 5093.53 5270.12 79.34 5.00  58.66 2594.99
   05:04:11.721.17-Sep-2021 5093.53 5300.93 79.34 5.00  58.86 2594.99
   05:04:11.921.17-Sep-2021 5093.53 5324.87 79.34 5.00  59.06 2594.99
   05:04:12.121.17-Sep-2021 5093.53 5324.87 79.34 5.00  59.26 2594.99
   05:04:12.321.17-Sep-2021 5093.53 5350.71 79.34 5.00  59.46 2594.99
   05:04:12.521.17-Sep-2021 5093.53 5359.20 79.34 5.00  59.66 2594.99
   05:04:12.722.17-Sep-2021 5093.53 5364.58 79.34 5.00  59.86 2594.99
   05:04:12.922.17-Sep-2021 5093.53 5373.54 79.34 5.00  60.06 2594.99
   05:04:13.122.17-Sep-2021 5093.53 5373.54 79.34 5.00  60.26 2594.99
   05:04:13.322.17-Sep-2021 5093.53 5394.44 79.34 5.00  60.47 2594.99
   05:04:13.523.17-Sep-2021 5093.53 5405.23 79.34 5.00  60.67 2594.99
   05:04:13.723.17-Sep-2021 5093.53 5415.79 79.34 5.00  60.87 2594.99
   05:04:13.923.17-Sep-2021 5093.53 5424.72 79.34 5.00  61.07 2594.99
   05:04:14.123.17-Sep-2021 5093.53 5424.72 79.34 5.00  61.27 2594.99
   05:04:14.323.17-Sep-2021 5093.53 5431.56 79.34 5.00  61.47 2594.99
   05:04:14.524.17-Sep-2021 5093.53 5440.00 79.34 5.00  61.67 2594.99
   05:04:14.724.17-Sep-2021 5093.53 5444.08 79.34 5.00  61.87 2594.99
   05:04:14.924.17-Sep-2021 5093.53 5449.37 79.34 5.00  62.07 2594.99
   05:04:15.124.17-Sep-2021 5093.53 5449.37 79.34 5.00  62.27 2594.99
   05:04:15.324.17-Sep-2021 5093.53 5463.43 79.34 5.00  62.47 2594.99
   05:04:15.525.17-Sep-2021 5093.53 5472.99 79.34 5.00  62.67 2594.99
   05:04:15.725.17-Sep-2021 5093.53 5478.77 79.34 5.00  62.87 2594.99
   05:04:15.925.17-Sep-2021 5093.53 5483.82 79.34 5.00  63.07 2594.99
   05:04:16.125.17-Sep-2021 5093.53 5483.82 79.34 5.00  63.27 2594.99
   05:04:16.326.17-Sep-2021 5093.53 5491.70 79.34 5.00  63.47 2594.99
   05:04:16.526.17-Sep-2021 5093.53 5496.37 79.34 5.00  63.67 2594.99
   05:04:16.726.17-Sep-2021 5093.53 5501.66 79.34 5.00  63.87 2594.99
   05:04:16.926.17-Sep-2021 5093.53 5506.44 79.34 5.00  64.07 2594.99
   05:04:17.126.17-Sep-2021 5093.53 5506.44 79.34 5.00  64.27 2594.99
   05:04:17.327.17-Sep-2021 5093.53 5522.44 79.35 5.00  64.47 2594.99
   05:04:17.527.17-Sep-2021 5093.53 5526.11 79.35 5.00  64.67 2594.99
   05:04:17.727.17-Sep-2021 5093.53 5534.44 79.35 5.00  64.87 2594.99
   05:04:17.927.17-Sep-2021 5093.53 5539.40 79.35 5.00  65.07 2594.99
   05:04:18.127.17-Sep-2021 5093.53 5539.40 79.35 5.00  65.27 2594.99
   05:04:18.328.17-Sep-2021 5093.53 5548.26 79.35 5.00  65.47 2594.99
   05:04:18.528.17-Sep-2021 5093.53 5554.69 79.35 5.00  65.67 2594.99
   05:04:18.728.17-Sep-2021 5093.53 5557.38 79.35 5.00  65.87 2594.99
   05:04:18.928.17-Sep-2021 5093.53 5469.57 79.35 5.00  66.07 2594.99
   05:04:19.129.17-Sep-2021 5093.53 5469.57 79.35 5.00  66.27 2594.99
   05:04:19.329.17-Sep-2021 5093.53 4020.31 79.35 5.00  66.47 2594.99
   05:04:19.529.17-Sep-2021 5093.53 3870.73 79.35 5.00  66.67 2594.99
   05:04:19.729.17-Sep-2021 5093.53 3768.26 79.35 5.00  66.87 2594.99
   05:04:19.929.17-Sep-2021 5093.53 3664.93 79.35 5.00  67.07 2594.99
   05:04:20.130.17-Sep-2021 5093.53 3664.93 79.35 5.00  67.27 2594.99
   05:04:20.330.17-Sep-2021 5093.53 3538.80 79.35 5.00  67.47 2594.99
   05:04:20.530.17-Sep-2021 5093.53 3487.34 79.35 5.00  67.67 2594.99
   05:04:20.730.17-Sep-2021 5093.53 3484.42 79.35 5.00  67.87 2594.99
   05:04:20.930.17-Sep-2021 5093.53 3565.21 79.35 5.00  68.07 2594.99
   05:04:21.131.17-Sep-2021 5093.53 3565.21 79.35 5.00  68.27 2594.99
   05:04:21.331.17-Sep-2021 5093.53 3436.32 79.34 5.00  68.47 2594.99
   05:04:21.531.17-Sep-2021 5093.53 3427.80 79.34 5.00  68.67 2594.99
   05:04:21.731.17-Sep-2021 5093.53 3440.36 79.34 5.00  68.87 2594.99
