~Version Information
 VERS.                  2.0:   CWLS log ASCII Standard -VERSION 2.0
 WRAP.                   NO:   One line per depth step
~Well Information Block
#MNEM.UNIT     VALUE/NAME     DESCRIPTION
#---------     -----------    ---------------------------
 STRT.S             06:03:21 17-Sep-21: START TIME 06:03:21 17-Sep-21
 STOP.S             06:11:58 17-Sep-21: STOP TIME  06:11:58 17-Sep-21
 STEP.S                   0.00: STEP TIME
 NULL.                 -999.25: NULL VALUE
 DFWT.                        :  DIST FWL TEXT
 DFST.                        :  DIST FSL TEXT
 DMF .             Drill Floor:  DRILL MEAS FROM
 STIM.      10.59.12 05-Jul-21:  START TIME
 DATE.      10.59.12 10-Sep-21:  END TIME
 SPUD.               05-Jul-21:  SPUD DATE
 NREF.                    Grid:  NORTH REFERENCE
 HPTY.       Minimum Curvature:  HOLE POS TYPE
 DMOD.             Drill Model:  DRILL MOD DESC
 SVYD.                  Survey:  SURVEY DESC
 ILTD.               Lithology:  INTERP LTH DESC
 FTOP.          Formation Tops:  FORM TOPS DESC
 RIG .                     DWG:  RIG NAME
 PDAT.          Mean Sea Level:  PERMANENT DATUM
 FLD .                     ACG:  FIELD NAME
 SON .        AZ-XX-0907115008:  JOB NUMBER
 CTRY.              Azerbaijan:  COUNTRY NAME
 WELL.                    E35A:  WELL NAME
 SRVC.          TURAN DRILLING:  CONTRACTOR
 COMP.     BP Exploration (Caspian Sea LTD):  COMPANY
 UWI .                     N/A:  UNIQUE WELL IDENTIFIER
 API .                     N/A:  API NUMBER
 MDS .        Operator Entered:  MAG DATA SOURCE
 BASE.              Azerbaijan:  LOGGING EQUIPMENT BASE LOCATION
 REGN.                   EESSA:  REGION
 PROV.                    Baku:  PROVINCE
 STAT.                    Baku:  STATE NAME
 MWDS.                    Baku:  MWD SHOP
 JOBN.        AZ-XX-0907115008:  JOB TICKET NUMB
 DOE .                     N/A:  DOE NUMBER
 DCON.         Sperry Drilling:  DIRECTNL CONTR
 UNIT.                     N/A:  LOGGING EQUIPMENT ID
 WTYP.                Deviated:  WELL TYPE
 CNTY.                        :  COUNTY
 LOC .                        :  LOCATION
 LMF .             Drill Floor:  LOG MEASURED FROM
 TVDS.m                  43.16:  TVDSS CORRECTN
 LATI.deg                40.17:  LATITUDE
 LONG.deg                51.17:  LONGITUDE
 WHNS.m                  10.51:  WELL HEAD N/S
 WHEW.m                 -14.82:  WELL HEAD E/W
 UTMX.m              514336.92:  UTM X
 UTMY.m             4448618.56:  UTM Y
 DFWL.m                   0.00:  DISTANCE FWL
 DFSL.m                   0.00:  DISTANCE FSL
 SDEP.m                 849.00:  START DEPTH
 TDD .m                2862.00:  TOTAL DEPTH (DRILLER)
 VSDR.deg               292.10:  VERT SEC DIRECT
 GVFD.g                   1.00:  GRAVITY FIELD
 MFLD.nT              50382.00:  MAGNETIC FIELD
 MDIP.deg                59.68:  MAGNETIC DIP
 MDEC.deg                 6.66:  MAGNETIC DECL
 GRDC.deg                 0.09:  GRID CORRECTION
 AZTC.deg                 6.57:  AZM TOTAL CORR
 EPD .m                   0.00:  ELEVATION
 EGL .m                   0.00:  GROUND ELEVATION
 WDMS.m                 176.20:  WD ELEV
 APD .m                  43.16:  DEPTH ABOVE PD
 DEP .m                 363.42:  DEPTH
 AGAP.m                  43.16:  AIR GAP
 VSEW.m                 -14.82:  VERT SEC E/W
 VSNS.m                  10.51:  VERT SEC N/S
 EKB .m                  43.16:  KB ELEVATION
 EDF .m                  43.16:  DF ELEVATION
 TDL .m                1390.00:  TOTAL DEPTH (LOGGER)
 VSC .                       0:  VS TO CLOSURE
 MAGU.                 1855871:  MAGUTM CHECKSUM
~Parameter Information Block
#MNEM.UNIT       Value        Description
#---------     -----------    ---------------------------
 AV  .mps                 2.28:  Ann Velocity 
 AVMX.mps                 2.67:  Max Ann Veloc 
 AZIF.deg               305.00:  Azm, Final 
 BHAT.        Rotary Steerable:  BHA Type 
 BROT.°/30m               0.45:  Build Rotating 
 BS  .in                 12.25:  Bit Size 
 BSZ .in                 12.25:  Bit Size 
 BTPL.psig              600.00:  Bit Press Loss 
 CABU.                     Yes:  Customer Abuse 
 COMM.                     $t:  Run Comments 1 
 TCS .hr                150.00:  Time Ciculation Ended 
 CV  .mps                 1.24:  Crit Velocity 
 CVMX.mps                 1.66:  Max Crit Veloc 
 DD1 .         Intigam Rahimov:  Direct Drillr 1 
 DD2 .            Azer Ravavov:  Direct Drillr 2 
 DD3 .              Samir Abas:  Direct Drillr 3 
 DDSV.               Geo-Pilot:  DD Service 
 DEFF.%                 100.00:  % Det Eff 
 DLRX.°/30m               1.57:  Dogleg Rot Max 
 DLSO.°/30m               0.00:  Dogleg Oriented 
 DLSX.°/30m               0.00:  Dogleg Str Max 
 DRET.      20.28.06 17-Sep-21:  Drill End Time 
 DRST.      20.27.35 10-Sep-21:  Drill Start Tim 
 DTIM.hr                 54.00:  Time Drilling 
 EDEP.m                5260.00:  End Depth 
 ENG1.      Bakhtiyar Jabbarli:  Engineer 1 
 ENG2.      Natik Hasanaghayev:  Engineer 2 
 ENG3.           Royal Nasirov:  Engineer 3 
 ETIM.      20.27.55 18-Sep-21:  End Time 
 FLOI.gpm              1100.00:  Flow In 
 FLON.gpm               800.00:  Flow In Min 
 FLOS.cptm                0.00:  Fluid Loss 
 FLOX.gpm              1200.00:  Flow In Max 
 DFT .        Mineral Oil Base:  Mud Type 
 HPRE.                      No:  High Pressure 
 HTEM.                      No:  High Temp 
 HYDO.m                   1.80:  Hydro Offset 
 IFIN.deg                72.31:  Inc, Final 
 IMAX.deg                72.36:  Inc Max 
 IMIN.deg                69.36:  Inc Min 
 IMND.m                4192.96:  Inc Min Depth 
 IMXD.m                5128.36:  Inc Max Depth 
 JARR.                      No:  Jarring 
 LETM.      20.29.00 17-Sep-21:  Log End Time 
 LOST.hr                     0:  Lost Rig Time 
 LSTM.      20.27.00 10-Sep-21:  Log Start Time 
 MDCL.ppm            227000.00:  Mud Chlorides 
 MDES.     Inversion Oil/Synthetic:  Mud Desc 
 DFD .sg                  1.45:  Mud Density 
 MDMN.sg                  1.45:  Dens Mud Min 
 MDMX.sg                  1.45:  Dens Mud Max 
 MOIL.                    70.5:  Run Mud Oil % 
 MOWR.                   71:29:  Run Mud OWR 
 MSND.                     0.3:  Run Mud Sand % 
 MSOL.                    19.8:  Run Mud Solids% 
 DFV .spqt               80.00:  Mud Viscosity 
 MWOD.in                  8.00:  MWD Tool OD 
 MWSI.                     Yes:  Serv Intrp, MWD 
 OTIM.hr                180.00:  Time Operating 
 PCON.           Look Like New:  Pad Condition 
 PMAX.psia             9910.94:  Press Op, Max 
 PV  .cP                 35.00:  Mud PV 
 RUN .                    1000:  Run Number 
 ROPA.m/hr               18.00:  ROP Avg 
 ROPN.m/hr                8.00:  ROP Min 
 ROPX.m/hr               23.00:  ROP Max 
 RPMA.rpm               150.00:  RPM Surface Avg 
 RPMN.rpm               120.00:  RPM Surface Min 
 RPMX.rpm               160.00:  RPM Surface Max 
 RRUN.                    L503:  Rig Run Number 
 RTIM.hr                  5.00:  Time Reaming 
 SAZI.deg               298.42:  Azm, Start 
 SDEP.m                3870.00:  Start Depth 
 SIDD.                      No:  Serv Intrp, DD 
 SINC.deg                69.57:  Inc, Start 
 SPPA.psig             5500.00:  SPP Avg 
 SPPN.psig             4400.00:  SPP Min 
 SPPX.psig             5800.00:  SPP Max 
 STIM.      15.29.39 09-Sep-21:  Start Time 
 SVCS.                 DD, MWD:  Services 
 SVER.                    9.20:  Sperry Version 
 TDAT.m                5260.00:  Tot Depth Attmp 
 TDDF.                      No:  Trip for DD 
 TDLG.m                1390.00:  Tot Depth Loggd 
 TFF .                      No:  Trip for Fail 
 TQAA.f-kp               22.00:  Torque Abs Avg 
 TQAN.f-kp               13.00:  Torque Abs Min 
 TQAX.f-kp               27.00:  Torque Abs Max 
 TRRT.°/30m               1.60:  Turn Rotating 
 MRT .                  EWR-M5:  Maximum Recorded Temperature 
 TTMX.degC               92.00:  Max Tool Temp 
 VS01.                12330975:  Virtual Str1 SN 
 VS02.                90658671:  Virtual Str2 SN 
 VS03.                90658508:  Virtual Str3 SN 
 VS04.                90660974:  Virtual Str4 SN 
 VS05.                90654675:  Virtual Str5 SN 
 WBMN.klb                15.00:  WOB Min 
 WITN.     Alexander Yadullayev:  Customer Rep 
 WITN.           Adil Mammadov:  Customer Rep 2 
 WOBA.klb                17.00:  WOB Avg 
 WOBX.klb                18.00:  WOB Max 
 YP  .lhf2               31.00:  Yield Point 
~Curve Information Block
#MNEM.UNIT                 API CODE     Curve Description
#---------               -----------    ---------------------------
 TIME.HHMMSS            00 000 000 000:  GT Time & Date
 GTDEPTH.m              00 000 000 000:  GT Depth
 GTPQH.psia             00 000 000 000:  GT HR Quartz Pressure
 GTTQ.degC              00 000 000 000:  GT Quartz Temperature
 GTTN.NONE              00 000 000 000:  GT Test Number
 GTET.sec               00 000 000 000:  GT Elapsed Test Time
 GTTVD.m                00 000 000 000:  GT True Vertical Depth
#Other Information
#
#WARRANTY: Halliburton will use its best efforts to furnish customers with 
#accurate information and interpretations that are part of, and incident to, the services 
#provided.  However, Halliburton cannot and does not warrant the accuracy 
#or correctness of such information and interpretations.  Under no circumstances should any 
#such information or interpretation be relied upon as the sole basis for any drilling, 
#completion, production, or financial decision or any procedure involving any risk to the 
#safety of any drilling venture, drilling rig or its crew or any other third party.  The 
#Customer has full responsibility for all drilling, completion and production operation.  
#Halliburton makes no representations or warranties, either expressed or 
#implied, including, but not limited to, the implied warranties of merchantability or fitness 
#for a particular purpose, with respect to the services rendered.  In no event will 
#Halliburton be liable for failure to obtain any particular results or for 
#any damages, including, but not limited to, indirect, special or consequential damages, 
#resulting from the use of any information or interpretation provided by Halliburton.
#
~A           TIME           GTDEPTH  GTPQH  GTTQ  GTTN  GTET   GTTVD  
# ...
   06:11:01.556.17-Sep-2021 5057.50 5539.99 79.36 6.00 459.90 2583.80
   06:11:01.756.17-Sep-2021 5057.50 5539.99 79.36 6.00 460.10 2583.80
   06:11:01.956.17-Sep-2021 5057.50 5539.36 79.36 6.00 460.30 2583.80
   06:11:02.156.17-Sep-2021 5057.50 5539.20 79.36 6.00 460.50 2583.80
   06:11:02.356.17-Sep-2021 5057.50 5539.12 79.36 6.00 460.70 2583.80
   06:11:02.556.17-Sep-2021 5057.50 5539.28 79.36 6.00 460.90 2583.80
   06:11:02.756.17-Sep-2021 5057.50 5539.28 79.36 6.00 461.10 2583.80
   06:11:02.956.17-Sep-2021 5057.50 5539.32 79.36 6.00 461.30 2583.80
   06:11:03.156.17-Sep-2021 5057.50 5539.46 79.36 6.00 461.50 2583.80
   06:11:03.356.17-Sep-2021 5057.50 5539.67 79.36 6.00 461.70 2583.80
   06:11:03.556.17-Sep-2021 5057.50 5539.82 79.36 6.00 461.90 2583.80
   06:11:03.756.17-Sep-2021 5057.50 5539.82 79.36 6.00 462.10 2583.80
   06:11:03.956.17-Sep-2021 5057.50 5542.85 79.36 6.00 462.30 2583.80
   06:11:04.156.17-Sep-2021 5057.50 5538.89 79.36 6.00 462.50 2583.80
   06:11:04.356.17-Sep-2021 5057.50 5541.90 79.36 6.00 462.70 2583.80
   06:11:04.556.17-Sep-2021 5057.50 5539.82 79.36 6.00 462.90 2583.80
   06:11:04.756.17-Sep-2021 5057.50 5539.82 79.36 6.00 463.10 2583.80
   06:11:04.955.17-Sep-2021 5057.50 5540.10 79.36 6.00 463.30 2583.80
   06:11:05.155.17-Sep-2021 5057.50 5539.21 79.36 6.00 463.50 2583.80
   06:11:05.355.17-Sep-2021 5057.50 5541.20 79.36 6.00 463.70 2583.80
   06:11:05.555.17-Sep-2021 5057.50 5538.64 79.36 6.00 463.90 2583.80
   06:11:05.755.17-Sep-2021 5057.50 5538.64 79.36 6.00 464.10 2583.80
   06:11:05.955.17-Sep-2021 5057.50 5541.62 79.36 6.00 464.30 2583.80
   06:11:06.155.17-Sep-2021 5057.50 5538.71 79.36 6.00 464.50 2583.80
   06:11:06.355.17-Sep-2021 5057.50 5539.31 79.36 6.00 464.70 2583.80
   06:11:06.555.17-Sep-2021 5057.50 5539.79 79.35 6.00 464.90 2583.80
   06:11:06.755.17-Sep-2021 5057.50 5539.79 79.35 6.00 465.10 2583.80
   06:11:06.955.17-Sep-2021 5057.50 5538.92 79.35 6.00 465.30 2583.80
   06:11:07.155.17-Sep-2021 5057.50 5541.33 79.35 6.00 465.50 2583.80
   06:11:07.355.17-Sep-2021 5057.50 5538.76 79.35 6.00 465.70 2583.80
   06:11:07.555.17-Sep-2021 5057.50 5539.90 79.35 6.00 465.90 2583.80
   06:11:07.755.17-Sep-2021 5057.50 5539.90 79.35 6.00 466.10 2583.80
   06:11:07.955.17-Sep-2021 5057.50 5538.91 79.35 6.00 466.30 2583.80
   06:11:08.155.17-Sep-2021 5057.50 5539.54 79.35 6.00 466.50 2583.80
   06:11:08.355.17-Sep-2021 5057.50 5539.04 79.35 6.00 466.70 2583.80
   06:11:08.555.17-Sep-2021 5057.50 5539.12 79.35 6.00 466.90 2583.80
   06:11:08.755.17-Sep-2021 5057.50 5539.12 79.35 6.00 467.10 2583.80
   06:11:08.955.17-Sep-2021 5057.50 5539.11 79.35 6.00 467.30 2583.80
   06:11:09.155.17-Sep-2021 5057.50 5539.60 79.35 6.00 467.50 2583.80
   06:11:09.355.17-Sep-2021 5057.50 5539.42 79.35 6.00 467.70 2583.80
   06:11:09.554.17-Sep-2021 5057.50 5539.54 79.35 6.00 467.90 2583.80
   06:11:09.754.17-Sep-2021 5057.50 5539.54 79.35 6.00 468.10 2583.80
   06:11:09.954.17-Sep-2021 5057.50 5539.69 79.35 6.00 468.30 2583.80
   06:11:10.154.17-Sep-2021 5057.50 5543.49 79.35 6.00 468.50 2583.80
   06:11:10.354.17-Sep-2021 5057.50 5537.83 79.35 6.00 468.70 2583.80
   06:11:10.554.17-Sep-2021 5057.50 5541.19 79.35 6.00 468.90 2583.80
   06:11:10.754.17-Sep-2021 5057.50 5541.19 79.35 6.00 469.10 2583.80
   06:11:10.954.17-Sep-2021 5057.50 5540.08 79.35 6.00 469.30 2583.80
   06:11:11.154.17-Sep-2021 5057.50 5539.72 79.35 6.00 469.50 2583.80
   06:11:11.354.17-Sep-2021 5057.50 5539.35 79.35 6.00 469.70 2583.80
   06:11:11.554.17-Sep-2021 5057.50 5539.20 79.35 6.00 469.90 2583.80
   06:11:11.754.17-Sep-2021 5057.50 5539.20 79.35 6.00 470.10 2583.80
   06:11:11.954.17-Sep-2021 5057.50 5539.10 79.35 6.00 470.30 2583.80
   06:11:12.154.17-Sep-2021 5057.50 5538.95 79.35 6.00 470.50 2583.80
   06:11:12.354.17-Sep-2021 5057.50 5539.18 79.35 6.00 470.70 2583.80
   06:11:12.554.17-Sep-2021 5057.50 5539.06 79.34 6.00 470.90 2583.80
   06:11:12.754.17-Sep-2021 5057.50 5539.06 79.34 6.00 471.10 2583.80
   06:11:12.954.17-Sep-2021 5057.50 5539.61 79.34 6.00 471.30 2583.80
   06:11:13.154.17-Sep-2021 5057.50 5539.52 79.34 6.00 471.50 2583.80
   06:11:13.354.17-Sep-2021 5057.50 5539.81 79.34 6.00 471.70 2583.80
   06:11:13.554.17-Sep-2021 5057.50 5541.80 79.34 6.00 471.90 2583.80
   06:11:13.754.17-Sep-2021 5057.50 5541.80 79.34 6.00 472.10 2583.80
   06:11:13.954.17-Sep-2021 5057.50 5540.05 79.34 6.00 472.30 2583.80
   06:11:14.154.17-Sep-2021 5057.50 5540.75 79.34 6.00 472.50 2583.80
   06:11:14.353.17-Sep-2021 5057.50 5540.40 79.34 6.00 472.70 2583.80
   06:11:14.553.17-Sep-2021 5057.50 5539.63 79.34 6.00 472.90 2583.80
   06:11:14.753.17-Sep-2021 5057.50 5539.63 79.34 6.00 473.10 2583.80
   06:11:14.953.17-Sep-2021 5057.50 5543.08 79.34 6.00 473.30 2583.80
   06:11:15.153.17-Sep-2021 5057.50 5536.62 79.34 6.00 473.50 2583.80
   06:11:15.353.17-Sep-2021 5057.50 5540.30 79.34 6.00 473.70 2583.80
   06:11:15.553.17-Sep-2021 5057.50 5539.00 79.34 6.00 473.90 2583.80
   06:11:15.753.17-Sep-2021 5057.50 5539.00 79.34 6.00 474.10 2583.80
   06:11:15.953.17-Sep-2021 5057.50 5537.76 79.34 6.00 474.30 2583.80
   06:11:16.153.17-Sep-2021 5057.50 5540.59 79.34 6.00 474.50 2583.80
   06:11:16.353.17-Sep-2021 5057.50 5538.81 79.34 6.00 474.70 2583.80
   06:11:16.553.17-Sep-2021 5057.50 5538.61 79.34 6.00 474.90 2583.80
   06:11:16.753.17-Sep-2021 5057.50 5538.61 79.34 6.00 475.10 2583.80
   06:11:16.953.17-Sep-2021 5057.50 5536.49 79.34 6.00 475.30 2583.80
   06:11:17.153.17-Sep-2021 5057.50 5540.13 79.34 6.00 475.50 2583.80
   06:11:17.353.17-Sep-2021 5057.50 5539.09 79.34 6.00 475.70 2583.80
   06:11:17.553.17-Sep-2021 5057.50 5539.28 79.34 6.00 475.90 2583.80
   06:11:17.753.17-Sep-2021 5057.50 5539.28 79.34 6.00 476.10 2583.80
   06:11:17.953.17-Sep-2021 5057.50 5538.98 79.34 6.00 476.30 2583.80
   06:11:18.153.17-Sep-2021 5057.50 5539.15 79.34 6.00 476.50 2583.80
   06:11:18.353.17-Sep-2021 5057.50 5538.90 79.34 6.00 476.70 2583.80
   06:11:18.553.17-Sep-2021 5057.50 5539.43 79.33 6.00 476.90 2583.80
   06:11:18.753.17-Sep-2021 5057.50 5539.43 79.33 6.00 477.10 2583.80
   06:11:18.952.17-Sep-2021 5057.50 5539.64 79.33 6.00 477.30 2583.80
   06:11:19.152.17-Sep-2021 5057.50 5539.37 79.33 6.00 477.50 2583.80
   06:11:19.352.17-Sep-2021 5057.50 5539.52 79.33 6.00 477.70 2583.80
   06:11:19.552.17-Sep-2021 5057.50 5539.76 79.33 6.00 477.90 2583.80
   06:11:19.752.17-Sep-2021 5057.50 5539.76 79.33 6.00 478.10 2583.80
   06:11:19.952.17-Sep-2021 5057.50 5542.13 79.33 6.00 478.30 2583.80
   06:11:20.152.17-Sep-2021 5057.50 5539.51 79.33 6.00 478.50 2583.80
   06:11:20.352.17-Sep-2021 5057.50 5540.95 79.33 6.00 478.70 2583.80
   06:11:20.552.17-Sep-2021 5057.50 5540.15 79.33 6.00 478.90 2583.80
   06:11:20.752.17-Sep-2021 5057.50 5540.15 79.33 6.00 479.10 2583.80
   06:11:20.952.17-Sep-2021 5057.50 5539.63 79.33 6.00 479.30 2583.80
   06:11:21.152.17-Sep-2021 5057.50 5539.13 79.33 6.00 479.50 2583.80
   06:11:21.352.17-Sep-2021 5057.50 5539.00 79.33 6.00 479.70 2583.80
   06:11:21.552.17-Sep-2021 5057.50 5538.96 79.33 6.00 479.90 2583.80
   06:11:21.752.17-Sep-2021 5057.50 5538.96 79.33 6.00 480.10 2583.80
   06:11:21.952.17-Sep-2021 5057.50 5538.86 79.33 6.00 480.30 2583.80
   06:11:22.152.17-Sep-2021 5057.50 5539.07 79.33 6.00 480.50 2583.80
   06:11:22.352.17-Sep-2021 5057.50 5539.06 79.33 6.00 480.70 2583.80
   06:11:22.552.17-Sep-2021 5057.50 5539.25 79.33 6.00 480.90 2583.80
   06:11:22.752.17-Sep-2021 5057.50 5539.25 79.33 6.00 481.10 2583.80
   06:11:22.952.17-Sep-2021 5057.50 5539.57 79.33 6.00 481.30 2583.80
   06:11:23.152.17-Sep-2021 5057.50 5539.83 79.33 6.00 481.50 2583.80
   06:11:23.352.17-Sep-2021 5057.50 5542.66 79.33 6.00 481.70 2583.80
   06:11:23.552.17-Sep-2021 5057.50 5538.71 79.33 6.00 481.90 2583.80
   06:11:23.751.17-Sep-2021 5057.50 5538.71 79.33 6.00 482.10 2583.80
   06:11:23.951.17-Sep-2021 5057.50 5539.61 79.33 6.00 482.30 2583.80
   06:11:24.151.17-Sep-2021 5057.50 5539.65 79.33 6.00 482.50 2583.80
   06:11:24.351.17-Sep-2021 5057.50 5539.86 79.33 6.00 482.70 2583.80
