~Version Information
 VERS.                  2.0:   CWLS log ASCII Standard -VERSION 2.0
 WRAP.                   NO:   One line per depth step
~Well Information Block
#MNEM.UNIT     VALUE/NAME     DESCRIPTION
#---------     -----------    ---------------------------
 STRT.S             04:34:50 17-Sep-21: START TIME 04:34:50 17-Sep-21
 STOP.S             04:43:20 17-Sep-21: STOP TIME  04:43:20 17-Sep-21
 STEP.S                   0.00: STEP TIME
 NULL.                 -999.25: NULL VALUE
 DFWT.                        :  DIST FWL TEXT
 DFST.                        :  DIST FSL TEXT
 DMF .             Drill Floor:  DRILL MEAS FROM
 STIM.      10.59.12 05-Jul-21:  START TIME
 DATE.      10.59.12 10-Sep-21:  END TIME
 SPUD.               05-Jul-21:  SPUD DATE
 NREF.                    Grid:  NORTH REFERENCE
 HPTY.       Minimum Curvature:  HOLE POS TYPE
 DMOD.             Drill Model:  DRILL MOD DESC
 SVYD.                  Survey:  SURVEY DESC
 ILTD.               Lithology:  INTERP LTH DESC
 FTOP.          Formation Tops:  FORM TOPS DESC
 RIG .                     DWG:  RIG NAME
 PDAT.          Mean Sea Level:  PERMANENT DATUM
 FLD .                     ACG:  FIELD NAME
 SON .        AZ-XX-0907115008:  JOB NUMBER
 CTRY.              Azerbaijan:  COUNTRY NAME
 WELL.                    E35A:  WELL NAME
 SRVC.          TURAN DRILLING:  CONTRACTOR
 COMP.     BP Exploration (Caspian Sea LTD):  COMPANY
 UWI .                     N/A:  UNIQUE WELL IDENTIFIER
 API .                     N/A:  API NUMBER
 MDS .        Operator Entered:  MAG DATA SOURCE
 BASE.              Azerbaijan:  LOGGING EQUIPMENT BASE LOCATION
 REGN.                   EESSA:  REGION
 PROV.                    Baku:  PROVINCE
 STAT.                    Baku:  STATE NAME
 MWDS.                    Baku:  MWD SHOP
 JOBN.        AZ-XX-0907115008:  JOB TICKET NUMB
 DOE .                     N/A:  DOE NUMBER
 DCON.         Sperry Drilling:  DIRECTNL CONTR
 UNIT.                     N/A:  LOGGING EQUIPMENT ID
 WTYP.                Deviated:  WELL TYPE
 CNTY.                        :  COUNTY
 LOC .                        :  LOCATION
 LMF .             Drill Floor:  LOG MEASURED FROM
 TVDS.m                  43.16:  TVDSS CORRECTN
 LATI.deg                40.17:  LATITUDE
 LONG.deg                51.17:  LONGITUDE
 WHNS.m                  10.51:  WELL HEAD N/S
 WHEW.m                 -14.82:  WELL HEAD E/W
 UTMX.m              514336.92:  UTM X
 UTMY.m             4448618.56:  UTM Y
 DFWL.m                   0.00:  DISTANCE FWL
 DFSL.m                   0.00:  DISTANCE FSL
 SDEP.m                 849.00:  START DEPTH
 TDD .m                2862.00:  TOTAL DEPTH (DRILLER)
 VSDR.deg               292.10:  VERT SEC DIRECT
 GVFD.g                   1.00:  GRAVITY FIELD
 MFLD.nT              50382.00:  MAGNETIC FIELD
 MDIP.deg                59.68:  MAGNETIC DIP
 MDEC.deg                 6.66:  MAGNETIC DECL
 GRDC.deg                 0.09:  GRID CORRECTION
 AZTC.deg                 6.57:  AZM TOTAL CORR
 EPD .m                   0.00:  ELEVATION
 EGL .m                   0.00:  GROUND ELEVATION
 WDMS.m                 176.20:  WD ELEV
 APD .m                  43.16:  DEPTH ABOVE PD
 DEP .m                 363.42:  DEPTH
 AGAP.m                  43.16:  AIR GAP
 VSEW.m                 -14.82:  VERT SEC E/W
 VSNS.m                  10.51:  VERT SEC N/S
 EKB .m                  43.16:  KB ELEVATION
 EDF .m                  43.16:  DF ELEVATION
 TDL .m                1390.00:  TOTAL DEPTH (LOGGER)
 VSC .                       0:  VS TO CLOSURE
 MAGU.                 1855871:  MAGUTM CHECKSUM
~Parameter Information Block
#MNEM.UNIT       Value        Description
#---------     -----------    ---------------------------
 AV  .mps                 2.28:  Ann Velocity 
 AVMX.mps                 2.67:  Max Ann Veloc 
 AZIF.deg               305.00:  Azm, Final 
 BHAT.        Rotary Steerable:  BHA Type 
 BROT.°/30m               0.45:  Build Rotating 
 BS  .in                 12.25:  Bit Size 
 BSZ .in                 12.25:  Bit Size 
 BTPL.psig              600.00:  Bit Press Loss 
 CABU.                     Yes:  Customer Abuse 
 COMM.                     ÌN:  Run Comments 1 
 TCS .hr                150.00:  Time Ciculation Ended 
 CV  .mps                 1.24:  Crit Velocity 
 CVMX.mps                 1.66:  Max Crit Veloc 
 DD1 .         Intigam Rahimov:  Direct Drillr 1 
 DD2 .            Azer Ravavov:  Direct Drillr 2 
 DD3 .              Samir Abas:  Direct Drillr 3 
 DDSV.               Geo-Pilot:  DD Service 
 DEFF.%                 100.00:  % Det Eff 
 DLRX.°/30m               1.57:  Dogleg Rot Max 
 DLSO.°/30m               0.00:  Dogleg Oriented 
 DLSX.°/30m               0.00:  Dogleg Str Max 
 DRET.      20.28.06 17-Sep-21:  Drill End Time 
 DRST.      20.27.35 10-Sep-21:  Drill Start Tim 
 DTIM.hr                 54.00:  Time Drilling 
 EDEP.m                5260.00:  End Depth 
 ENG1.      Bakhtiyar Jabbarli:  Engineer 1 
 ENG2.      Natik Hasanaghayev:  Engineer 2 
 ENG3.           Royal Nasirov:  Engineer 3 
 ETIM.      20.27.55 18-Sep-21:  End Time 
 FLOI.gpm              1100.00:  Flow In 
 FLON.gpm               800.00:  Flow In Min 
 FLOS.cptm                0.00:  Fluid Loss 
 FLOX.gpm              1200.00:  Flow In Max 
 DFT .        Mineral Oil Base:  Mud Type 
 HPRE.                      No:  High Pressure 
 HTEM.                      No:  High Temp 
 HYDO.m                   1.80:  Hydro Offset 
 IFIN.deg                72.31:  Inc, Final 
 IMAX.deg                72.36:  Inc Max 
 IMIN.deg                69.36:  Inc Min 
 IMND.m                4192.96:  Inc Min Depth 
 IMXD.m                5128.36:  Inc Max Depth 
 JARR.                      No:  Jarring 
 LETM.      20.29.00 17-Sep-21:  Log End Time 
 LOST.hr                     0:  Lost Rig Time 
 LSTM.      20.27.00 10-Sep-21:  Log Start Time 
 MDCL.ppm            227000.00:  Mud Chlorides 
 MDES.     Inversion Oil/Synthetic:  Mud Desc 
 DFD .sg                  1.45:  Mud Density 
 MDMN.sg                  1.45:  Dens Mud Min 
 MDMX.sg                  1.45:  Dens Mud Max 
 MOIL.                    70.5:  Run Mud Oil % 
 MOWR.                   71:29:  Run Mud OWR 
 MSND.                     0.3:  Run Mud Sand % 
 MSOL.                    19.8:  Run Mud Solids% 
 DFV .spqt               80.00:  Mud Viscosity 
 MWOD.in                  8.00:  MWD Tool OD 
 MWSI.                     Yes:  Serv Intrp, MWD 
 OTIM.hr                180.00:  Time Operating 
 PCON.           Look Like New:  Pad Condition 
 PMAX.psia             9910.94:  Press Op, Max 
 PV  .cP                 35.00:  Mud PV 
 RUN .                    1000:  Run Number 
 ROPA.m/hr               18.00:  ROP Avg 
 ROPN.m/hr                8.00:  ROP Min 
 ROPX.m/hr               23.00:  ROP Max 
 RPMA.rpm               150.00:  RPM Surface Avg 
 RPMN.rpm               120.00:  RPM Surface Min 
 RPMX.rpm               160.00:  RPM Surface Max 
 RRUN.                    L503:  Rig Run Number 
 RTIM.hr                  5.00:  Time Reaming 
 SAZI.deg               298.42:  Azm, Start 
 SDEP.m                3870.00:  Start Depth 
 SIDD.                      No:  Serv Intrp, DD 
 SINC.deg                69.57:  Inc, Start 
 SPPA.psig             5500.00:  SPP Avg 
 SPPN.psig             4400.00:  SPP Min 
 SPPX.psig             5800.00:  SPP Max 
 STIM.      15.29.39 09-Sep-21:  Start Time 
 SVCS.                 DD, MWD:  Services 
 SVER.                    9.20:  Sperry Version 
 TDAT.m                5260.00:  Tot Depth Attmp 
 TDDF.                      No:  Trip for DD 
 TDLG.m                1390.00:  Tot Depth Loggd 
 TFF .                      No:  Trip for Fail 
 TQAA.f-kp               22.00:  Torque Abs Avg 
 TQAN.f-kp               13.00:  Torque Abs Min 
 TQAX.f-kp               27.00:  Torque Abs Max 
 TRRT.°/30m               1.60:  Turn Rotating 
 MRT .                  EWR-M5:  Maximum Recorded Temperature 
 TTMX.degC               92.00:  Max Tool Temp 
 VS01.                12330975:  Virtual Str1 SN 
 VS02.                90658671:  Virtual Str2 SN 
 VS03.                90658508:  Virtual Str3 SN 
 VS04.                90660974:  Virtual Str4 SN 
 VS05.                90654675:  Virtual Str5 SN 
 WBMN.klb                15.00:  WOB Min 
 WITN.     Alexander Yadullayev:  Customer Rep 
 WITN.           Adil Mammadov:  Customer Rep 2 
 WOBA.klb                17.00:  WOB Avg 
 WOBX.klb                18.00:  WOB Max 
 YP  .lhf2               31.00:  Yield Point 
~Curve Information Block
#MNEM.UNIT                 API CODE     Curve Description
#---------               -----------    ---------------------------
 TIME.HHMMSS            00 000 000 000:  GT Time & Date
 GTDEPTH.m              00 000 000 000:  GT Depth
 GTPQH.psia             00 000 000 000:  GT HR Quartz Pressure
 GTTQ.degC              00 000 000 000:  GT Quartz Temperature
 GTTN.NONE              00 000 000 000:  GT Test Number
 GTET.sec               00 000 000 000:  GT Elapsed Test Time
 GTTVD.m                00 000 000 000:  GT True Vertical Depth
#Other Information
#
#WARRANTY: Halliburton will use its best efforts to furnish customers with 
#accurate information and interpretations that are part of, and incident to, the services 
#provided.  However, Halliburton cannot and does not warrant the accuracy 
#or correctness of such information and interpretations.  Under no circumstances should any 
#such information or interpretation be relied upon as the sole basis for any drilling, 
#completion, production, or financial decision or any procedure involving any risk to the 
#safety of any drilling venture, drilling rig or its crew or any other third party.  The 
#Customer has full responsibility for all drilling, completion and production operation.  
#Halliburton makes no representations or warranties, either expressed or 
#implied, including, but not limited to, the implied warranties of merchantability or fitness 
#for a particular purpose, with respect to the services rendered.  In no event will 
#Halliburton be liable for failure to obtain any particular results or for 
#any damages, including, but not limited to, indirect, special or consequential damages, 
#resulting from the use of any information or interpretation provided by Halliburton.
#
~A           TIME           GTDEPTH  GTPQH  GTTQ  GTTN  GTET   GTTVD  
# ...
   04:35:13.048.17-Sep-2021 5094.00 5574.38 80.76 4.00  23.02 2595.14
   04:35:13.248.17-Sep-2021 5094.00 5574.38 80.76 4.00  23.23 2595.14
   04:35:13.448.17-Sep-2021 5094.00 5575.94 80.76 4.00  23.43 2595.14
   04:35:13.649.17-Sep-2021 5094.00 5575.35 80.76 4.00  23.63 2595.14
   04:35:13.849.17-Sep-2021 5094.00 5575.53 80.76 4.00  23.83 2595.14
   04:35:14.049.17-Sep-2021 5094.00 5575.40 80.76 4.00  24.03 2595.14
   04:35:14.249.17-Sep-2021 5094.00 5575.40 80.76 4.00  24.23 2595.14
   04:35:14.450.17-Sep-2021 5094.00 5575.32 80.76 4.00  24.43 2595.14
   04:35:14.650.17-Sep-2021 5094.00 5575.74 80.76 4.00  24.63 2595.14
   04:35:14.850.17-Sep-2021 5094.00 5575.81 80.76 4.00  24.83 2595.14
   04:35:15.050.17-Sep-2021 5094.00 5576.00 80.76 4.00  25.03 2595.14
   04:35:15.250.17-Sep-2021 5094.00 5576.00 80.76 4.00  25.23 2595.14
   04:35:15.451.17-Sep-2021 5094.00 5575.75 80.76 4.00  25.43 2595.14
   04:35:15.651.17-Sep-2021 5094.00 5576.04 80.75 4.00  25.63 2595.14
   04:35:15.851.17-Sep-2021 5094.00 5575.88 80.75 4.00  25.83 2595.14
   04:35:16.051.17-Sep-2021 5094.00 5576.16 80.75 4.00  26.03 2595.14
   04:35:16.251.17-Sep-2021 5094.00 5576.16 80.75 4.00  26.23 2595.14
   04:35:16.452.17-Sep-2021 5094.00 5575.18 80.75 4.00  26.43 2595.14
   04:35:16.652.17-Sep-2021 5094.00 5577.99 80.75 4.00  26.63 2595.14
   04:35:16.852.17-Sep-2021 5094.00 5576.12 80.75 4.00  26.83 2595.14
   04:35:17.052.17-Sep-2021 5094.00 5576.07 80.75 4.00  27.03 2595.14
   04:35:17.253.17-Sep-2021 5094.00 5576.07 80.75 4.00  27.23 2595.14
   04:35:17.453.17-Sep-2021 5094.00 5577.52 80.75 4.00  27.43 2595.14
   04:35:17.653.17-Sep-2021 5094.00 5577.45 80.75 4.00  27.63 2595.14
   04:35:17.853.17-Sep-2021 5094.00 5577.31 80.75 4.00  27.83 2595.14
   04:35:18.053.17-Sep-2021 5094.00 5576.98 80.75 4.00  28.03 2595.14
   04:35:18.254.17-Sep-2021 5094.00 5576.98 80.75 4.00  28.23 2595.14
   04:35:18.454.17-Sep-2021 5094.00 5576.66 80.75 4.00  28.43 2595.14
   04:35:18.654.17-Sep-2021 5094.00 5580.17 80.75 4.00  28.63 2595.14
   04:35:18.854.17-Sep-2021 5094.00 5575.72 80.75 4.00  28.83 2595.14
   04:35:19.054.17-Sep-2021 5094.00 5577.87 80.75 4.00  29.03 2595.14
   04:35:19.255.17-Sep-2021 5094.00 5577.87 80.75 4.00  29.23 2595.14
   04:35:19.455.17-Sep-2021 5094.00 5577.22 80.75 4.00  29.43 2595.14
   04:35:19.655.17-Sep-2021 5094.00 5577.45 80.75 4.00  29.63 2595.14
   04:35:19.855.17-Sep-2021 5094.00 5577.39 80.74 4.00  29.83 2595.14
   04:35:20.056.17-Sep-2021 5094.00 5579.62 80.74 4.00  30.03 2595.14
   04:35:20.256.17-Sep-2021 5094.00 5579.62 80.74 4.00  30.23 2595.14
   04:35:20.456.17-Sep-2021 5094.00 5578.85 80.74 4.00  30.43 2595.14
   04:35:20.656.17-Sep-2021 5094.00 5578.61 80.74 4.00  30.63 2595.14
   04:35:20.856.17-Sep-2021 5094.00 5578.10 80.74 4.00  30.83 2595.14
   04:35:21.057.17-Sep-2021 5094.00 5577.96 80.74 4.00  31.03 2595.14
   04:35:21.257.17-Sep-2021 5094.00 5577.96 80.74 4.00  31.23 2595.14
   04:35:21.457.17-Sep-2021 5094.00 5578.19 80.74 4.00  31.43 2595.14
   04:35:21.657.17-Sep-2021 5094.00 5578.38 80.74 4.00  31.63 2595.14
   04:35:21.858.17-Sep-2021 5094.00 5578.72 80.74 4.00  31.83 2595.14
   04:35:22.058.17-Sep-2021 5094.00 5578.63 80.74 4.00  32.03 2595.14
   04:35:22.258.17-Sep-2021 5094.00 5578.63 80.74 4.00  32.23 2595.14
   04:35:22.458.17-Sep-2021 5094.00 5578.42 80.74 4.00  32.43 2595.14
   04:35:22.658.17-Sep-2021 5094.00 5578.56 80.74 4.00  32.64 2595.14
   04:35:22.859.17-Sep-2021 5094.00 5578.88 80.74 4.00  32.84 2595.14
   04:35:23.059.17-Sep-2021 5094.00 5578.47 80.74 4.00  33.04 2595.14
   04:35:23.259.17-Sep-2021 5094.00 5578.47 80.74 4.00  33.24 2595.14
   04:35:23.459.17-Sep-2021 5094.00 5579.53 80.74 4.00  33.44 2595.14
   04:35:23.659.17-Sep-2021 5094.00 5579.03 80.74 4.00  33.64 2595.14
   04:35:23.860.17-Sep-2021 5094.00 5578.94 80.74 4.00  33.84 2595.14
   04:35:24.060.17-Sep-2021 5094.00 5578.17 80.74 4.00  34.04 2595.14
   04:35:24.260.17-Sep-2021 5094.00 5578.17 80.74 4.00  34.24 2595.14
   04:35:24.460.17-Sep-2021 5094.00 5577.81 80.73 4.00  34.44 2595.14
   04:35:24.661.17-Sep-2021 5094.00 5577.92 80.73 4.00  34.64 2595.14
   04:35:24.861.17-Sep-2021 5094.00 5577.81 80.73 4.00  34.84 2595.14
   04:35:25.061.17-Sep-2021 5094.00 5578.04 80.73 4.00  35.04 2595.14
   04:35:25.261.17-Sep-2021 5094.00 5578.04 80.73 4.00  35.24 2595.14
   04:35:25.461.17-Sep-2021 5094.00 5578.07 80.73 4.00  35.44 2595.14
   04:35:25.662.17-Sep-2021 5094.00 5578.14 80.73 4.00  35.64 2595.14
   04:35:25.862.17-Sep-2021 5094.00 5578.26 80.73 4.00  35.84 2595.14
   04:35:26.062.17-Sep-2021 5094.00 5578.26 80.73 4.00  36.04 2595.14
   04:35:26.262.17-Sep-2021 5094.00 5578.26 80.73 4.00  36.24 2595.14
   04:35:26.462.17-Sep-2021 5094.00 5578.51 80.73 4.00  36.44 2595.14
   04:35:26.663.17-Sep-2021 5094.00 5578.45 80.73 4.00  36.64 2595.14
   04:35:26.863.17-Sep-2021 5094.00 5578.31 80.73 4.00  36.84 2595.14
   04:35:27.063.17-Sep-2021 5094.00 5581.46 80.73 4.00  37.04 2595.14
   04:35:27.263.17-Sep-2021 5094.00 5581.46 80.73 4.00  37.24 2595.14
   04:35:27.464.17-Sep-2021 5094.00 5578.44 80.73 4.00  37.44 2595.14
   04:35:27.664.17-Sep-2021 5094.00 5577.65 80.73 4.00  37.64 2595.14
   04:35:27.864.17-Sep-2021 5094.00 5577.25 80.73 4.00  37.84 2595.14
   04:35:28.064.17-Sep-2021 5094.00 5577.60 80.73 4.00  38.04 2595.14
   04:35:28.264.17-Sep-2021 5094.00 5577.60 80.73 4.00  38.24 2595.14
   04:35:28.465.17-Sep-2021 5094.00 5577.53 80.73 4.00  38.44 2595.14
   04:35:28.665.17-Sep-2021 5094.00 5578.03 80.72 4.00  38.64 2595.14
   04:35:28.865.17-Sep-2021 5094.00 5577.74 80.72 4.00  38.84 2595.14
   04:35:29.065.17-Sep-2021 5094.00 5577.03 80.72 4.00  39.04 2595.14
   04:35:29.265.17-Sep-2021 5094.00 5577.03 80.72 4.00  39.24 2595.14
   04:35:29.466.17-Sep-2021 5094.00 5577.63 80.72 4.00  39.44 2595.14
   04:35:29.666.17-Sep-2021 5094.00 5577.79 80.72 4.00  39.64 2595.14
   04:35:29.866.17-Sep-2021 5094.00 5577.65 80.72 4.00  39.84 2595.14
   04:35:30.066.17-Sep-2021 5094.00 5577.14 80.72 4.00  40.04 2595.14
   04:35:30.267.17-Sep-2021 5094.00 5577.14 80.72 4.00  40.24 2595.14
   04:35:30.467.17-Sep-2021 5094.00 5580.92 80.72 4.00  40.44 2595.14
   04:35:30.667.17-Sep-2021 5094.00 5575.95 80.72 4.00  40.64 2595.14
   04:35:30.867.17-Sep-2021 5094.00 5577.55 80.72 4.00  40.84 2595.14
   04:35:31.067.17-Sep-2021 5094.00 5577.46 80.72 4.00  41.04 2595.14
   04:35:31.268.17-Sep-2021 5094.00 5577.46 80.72 4.00  41.24 2595.14
   04:35:31.468.17-Sep-2021 5094.00 5577.15 80.72 4.00  41.44 2595.14
   04:35:31.668.17-Sep-2021 5094.00 5577.55 80.72 4.00  41.64 2595.14
   04:35:31.868.17-Sep-2021 5094.00 5577.00 80.72 4.00  41.85 2595.14
   04:35:32.069.17-Sep-2021 5094.00 5579.86 80.72 4.00  42.05 2595.14
   04:35:32.269.17-Sep-2021 5094.00 5579.86 80.72 4.00  42.25 2595.14
   04:35:32.469.17-Sep-2021 5094.00 5578.29 80.72 4.00  42.45 2595.14
   04:35:32.669.17-Sep-2021 5094.00 5576.58 80.72 4.00  42.65 2595.14
   04:35:32.869.17-Sep-2021 5094.00 5576.52 80.72 4.00  42.85 2595.14
   04:35:33.070.17-Sep-2021 5094.00 5576.72 80.71 4.00  43.05 2595.14
   04:35:33.270.17-Sep-2021 5094.00 5576.72 80.71 4.00  43.25 2595.14
   04:35:33.470.17-Sep-2021 5094.00 5576.55 80.71 4.00  43.45 2595.14
   04:35:33.670.17-Sep-2021 5094.00 5576.65 80.71 4.00  43.65 2595.14
   04:35:33.870.17-Sep-2021 5094.00 5576.83 80.71 4.00  43.85 2595.14
   04:35:34.071.17-Sep-2021 5094.00 5576.65 80.71 4.00  44.05 2595.14
   04:35:34.271.17-Sep-2021 5094.00 5576.65 80.71 4.00  44.25 2595.14
   04:35:34.471.17-Sep-2021 5094.00 5576.24 80.71 4.00  44.45 2595.14
   04:35:34.671.17-Sep-2021 5094.00 5560.94 80.71 4.00  44.65 2595.14
   04:35:34.872.17-Sep-2021 5094.00 5492.21 80.71 4.00  44.85 2595.14
   04:35:35.072.17-Sep-2021 5094.00 5400.83 80.71 4.00  45.05 2595.14
   04:35:35.272.17-Sep-2021 5094.00 5400.83 80.71 4.00  45.25 2595.14
   04:35:35.472.17-Sep-2021 5094.00 5322.68 80.71 4.00  45.45 2595.14
   04:35:35.672.17-Sep-2021 5094.00 5258.88 80.71 4.00  45.65 2595.14
   04:35:35.873.17-Sep-2021 5094.00 5203.35 80.71 4.00  45.85 2595.14
