~Version Information
 VERS.                  2.0:   CWLS log ASCII Standard -VERSION 2.0
 WRAP.                   NO:   One line per depth step
~Well Information Block
#MNEM.UNIT     VALUE/NAME     DESCRIPTION
#---------     -----------    ---------------------------
 STRT.S             06:03:21 17-Sep-21: START TIME 06:03:21 17-Sep-21
 STOP.S             06:11:58 17-Sep-21: STOP TIME  06:11:58 17-Sep-21
 STEP.S                   0.00: STEP TIME
 NULL.                 -999.25: NULL VALUE
 DFWT.                        :  DIST FWL TEXT
 DFST.                        :  DIST FSL TEXT
 DMF .             Drill Floor:  DRILL MEAS FROM
 STIM.      10.59.12 05-Jul-21:  START TIME
 DATE.      10.59.12 10-Sep-21:  END TIME
 SPUD.               05-Jul-21:  SPUD DATE
 NREF.                    Grid:  NORTH REFERENCE
 HPTY.       Minimum Curvature:  HOLE POS TYPE
 DMOD.             Drill Model:  DRILL MOD DESC
 SVYD.                  Survey:  SURVEY DESC
 ILTD.               Lithology:  INTERP LTH DESC
 FTOP.          Formation Tops:  FORM TOPS DESC
 RIG .                     DWG:  RIG NAME
 PDAT.          Mean Sea Level:  PERMANENT DATUM
 FLD .                     ACG:  FIELD NAME
 SON .        AZ-XX-0907115008:  JOB NUMBER
 CTRY.              Azerbaijan:  COUNTRY NAME
 WELL.                    E35A:  WELL NAME
 SRVC.          TURAN DRILLING:  CONTRACTOR
 COMP.     BP Exploration (Caspian Sea LTD):  COMPANY
 UWI .                     N/A:  UNIQUE WELL IDENTIFIER
 API .                     N/A:  API NUMBER
 MDS .        Operator Entered:  MAG DATA SOURCE
 BASE.              Azerbaijan:  LOGGING EQUIPMENT BASE LOCATION
 REGN.                   EESSA:  REGION
 PROV.                    Baku:  PROVINCE
 STAT.                    Baku:  STATE NAME
 MWDS.                    Baku:  MWD SHOP
 JOBN.        AZ-XX-0907115008:  JOB TICKET NUMB
 DOE .                     N/A:  DOE NUMBER
 DCON.         Sperry Drilling:  DIRECTNL CONTR
 UNIT.                     N/A:  LOGGING EQUIPMENT ID
 WTYP.                Deviated:  WELL TYPE
 CNTY.                        :  COUNTY
 LOC .                        :  LOCATION
 LMF .             Drill Floor:  LOG MEASURED FROM
 TVDS.m                  43.16:  TVDSS CORRECTN
 LATI.deg                40.17:  LATITUDE
 LONG.deg                51.17:  LONGITUDE
 WHNS.m                  10.51:  WELL HEAD N/S
 WHEW.m                 -14.82:  WELL HEAD E/W
 UTMX.m              514336.92:  UTM X
 UTMY.m             4448618.56:  UTM Y
 DFWL.m                   0.00:  DISTANCE FWL
 DFSL.m                   0.00:  DISTANCE FSL
 SDEP.m                 849.00:  START DEPTH
 TDD .m                2862.00:  TOTAL DEPTH (DRILLER)
 VSDR.deg               292.10:  VERT SEC DIRECT
 GVFD.g                   1.00:  GRAVITY FIELD
 MFLD.nT              50382.00:  MAGNETIC FIELD
 MDIP.deg                59.68:  MAGNETIC DIP
 MDEC.deg                 6.66:  MAGNETIC DECL
 GRDC.deg                 0.09:  GRID CORRECTION
 AZTC.deg                 6.57:  AZM TOTAL CORR
 EPD .m                   0.00:  ELEVATION
 EGL .m                   0.00:  GROUND ELEVATION
 WDMS.m                 176.20:  WD ELEV
 APD .m                  43.16:  DEPTH ABOVE PD
 DEP .m                 363.42:  DEPTH
 AGAP.m                  43.16:  AIR GAP
 VSEW.m                 -14.82:  VERT SEC E/W
 VSNS.m                  10.51:  VERT SEC N/S
 EKB .m                  43.16:  KB ELEVATION
 EDF .m                  43.16:  DF ELEVATION
 TDL .m                1390.00:  TOTAL DEPTH (LOGGER)
 VSC .                       0:  VS TO CLOSURE
 MAGU.                 1855871:  MAGUTM CHECKSUM
~Parameter Information Block
#MNEM.UNIT       Value        Description
#---------     -----------    ---------------------------
 AV  .mps                 2.28:  Ann Velocity 
 AVMX.mps                 2.67:  Max Ann Veloc 
 AZIF.deg               305.00:  Azm, Final 
 BHAT.        Rotary Steerable:  BHA Type 
 BROT.°/30m               0.45:  Build Rotating 
 BS  .in                 12.25:  Bit Size 
 BSZ .in                 12.25:  Bit Size 
 BTPL.psig              600.00:  Bit Press Loss 
 CABU.                     Yes:  Customer Abuse 
 COMM.                     $t:  Run Comments 1 
 TCS .hr                150.00:  Time Ciculation Ended 
 CV  .mps                 1.24:  Crit Velocity 
 CVMX.mps                 1.66:  Max Crit Veloc 
 DD1 .         Intigam Rahimov:  Direct Drillr 1 
 DD2 .            Azer Ravavov:  Direct Drillr 2 
 DD3 .              Samir Abas:  Direct Drillr 3 
 DDSV.               Geo-Pilot:  DD Service 
 DEFF.%                 100.00:  % Det Eff 
 DLRX.°/30m               1.57:  Dogleg Rot Max 
 DLSO.°/30m               0.00:  Dogleg Oriented 
 DLSX.°/30m               0.00:  Dogleg Str Max 
 DRET.      20.28.06 17-Sep-21:  Drill End Time 
 DRST.      20.27.35 10-Sep-21:  Drill Start Tim 
 DTIM.hr                 54.00:  Time Drilling 
 EDEP.m                5260.00:  End Depth 
 ENG1.      Bakhtiyar Jabbarli:  Engineer 1 
 ENG2.      Natik Hasanaghayev:  Engineer 2 
 ENG3.           Royal Nasirov:  Engineer 3 
 ETIM.      20.27.55 18-Sep-21:  End Time 
 FLOI.gpm              1100.00:  Flow In 
 FLON.gpm               800.00:  Flow In Min 
 FLOS.cptm                0.00:  Fluid Loss 
 FLOX.gpm              1200.00:  Flow In Max 
 DFT .        Mineral Oil Base:  Mud Type 
 HPRE.                      No:  High Pressure 
 HTEM.                      No:  High Temp 
 HYDO.m                   1.80:  Hydro Offset 
 IFIN.deg                72.31:  Inc, Final 
 IMAX.deg                72.36:  Inc Max 
 IMIN.deg                69.36:  Inc Min 
 IMND.m                4192.96:  Inc Min Depth 
 IMXD.m                5128.36:  Inc Max Depth 
 JARR.                      No:  Jarring 
 LETM.      20.29.00 17-Sep-21:  Log End Time 
 LOST.hr                     0:  Lost Rig Time 
 LSTM.      20.27.00 10-Sep-21:  Log Start Time 
 MDCL.ppm            227000.00:  Mud Chlorides 
 MDES.     Inversion Oil/Synthetic:  Mud Desc 
 DFD .sg                  1.45:  Mud Density 
 MDMN.sg                  1.45:  Dens Mud Min 
 MDMX.sg                  1.45:  Dens Mud Max 
 MOIL.                    70.5:  Run Mud Oil % 
 MOWR.                   71:29:  Run Mud OWR 
 MSND.                     0.3:  Run Mud Sand % 
 MSOL.                    19.8:  Run Mud Solids% 
 DFV .spqt               80.00:  Mud Viscosity 
 MWOD.in                  8.00:  MWD Tool OD 
 MWSI.                     Yes:  Serv Intrp, MWD 
 OTIM.hr                180.00:  Time Operating 
 PCON.           Look Like New:  Pad Condition 
 PMAX.psia             9910.94:  Press Op, Max 
 PV  .cP                 35.00:  Mud PV 
 RUN .                    1000:  Run Number 
 ROPA.m/hr               18.00:  ROP Avg 
 ROPN.m/hr                8.00:  ROP Min 
 ROPX.m/hr               23.00:  ROP Max 
 RPMA.rpm               150.00:  RPM Surface Avg 
 RPMN.rpm               120.00:  RPM Surface Min 
 RPMX.rpm               160.00:  RPM Surface Max 
 RRUN.                    L503:  Rig Run Number 
 RTIM.hr                  5.00:  Time Reaming 
 SAZI.deg               298.42:  Azm, Start 
 SDEP.m                3870.00:  Start Depth 
 SIDD.                      No:  Serv Intrp, DD 
 SINC.deg                69.57:  Inc, Start 
 SPPA.psig             5500.00:  SPP Avg 
 SPPN.psig             4400.00:  SPP Min 
 SPPX.psig             5800.00:  SPP Max 
 STIM.      15.29.39 09-Sep-21:  Start Time 
 SVCS.                 DD, MWD:  Services 
 SVER.                    9.20:  Sperry Version 
 TDAT.m                5260.00:  Tot Depth Attmp 
 TDDF.                      No:  Trip for DD 
 TDLG.m                1390.00:  Tot Depth Loggd 
 TFF .                      No:  Trip for Fail 
 TQAA.f-kp               22.00:  Torque Abs Avg 
 TQAN.f-kp               13.00:  Torque Abs Min 
 TQAX.f-kp               27.00:  Torque Abs Max 
 TRRT.°/30m               1.60:  Turn Rotating 
 MRT .                  EWR-M5:  Maximum Recorded Temperature 
 TTMX.degC               92.00:  Max Tool Temp 
 VS01.                12330975:  Virtual Str1 SN 
 VS02.                90658671:  Virtual Str2 SN 
 VS03.                90658508:  Virtual Str3 SN 
 VS04.                90660974:  Virtual Str4 SN 
 VS05.                90654675:  Virtual Str5 SN 
 WBMN.klb                15.00:  WOB Min 
 WITN.     Alexander Yadullayev:  Customer Rep 
 WITN.           Adil Mammadov:  Customer Rep 2 
 WOBA.klb                17.00:  WOB Avg 
 WOBX.klb                18.00:  WOB Max 
 YP  .lhf2               31.00:  Yield Point 
~Curve Information Block
#MNEM.UNIT                 API CODE     Curve Description
#---------               -----------    ---------------------------
 TIME.HHMMSS            00 000 000 000:  GT Time & Date
 GTDEPTH.m              00 000 000 000:  GT Depth
 GTPQH.psia             00 000 000 000:  GT HR Quartz Pressure
 GTTQ.degC              00 000 000 000:  GT Quartz Temperature
 GTTN.NONE              00 000 000 000:  GT Test Number
 GTET.sec               00 000 000 000:  GT Elapsed Test Time
 GTTVD.m                00 000 000 000:  GT True Vertical Depth
#Other Information
#
#WARRANTY: Halliburton will use its best efforts to furnish customers with 
#accurate information and interpretations that are part of, and incident to, the services 
#provided.  However, Halliburton cannot and does not warrant the accuracy 
#or correctness of such information and interpretations.  Under no circumstances should any 
#such information or interpretation be relied upon as the sole basis for any drilling, 
#completion, production, or financial decision or any procedure involving any risk to the 
#safety of any drilling venture, drilling rig or its crew or any other third party.  The 
#Customer has full responsibility for all drilling, completion and production operation.  
#Halliburton makes no representations or warranties, either expressed or 
#implied, including, but not limited to, the implied warranties of merchantability or fitness 
#for a particular purpose, with respect to the services rendered.  In no event will 
#Halliburton be liable for failure to obtain any particular results or for 
#any damages, including, but not limited to, indirect, special or consequential damages, 
#resulting from the use of any information or interpretation provided by Halliburton.
#
~A           TIME           GTDEPTH  GTPQH  GTTQ  GTTN  GTET   GTTVD  
# ...
   06:09:06.581.17-Sep-2021 5057.50 5539.56 79.56 6.00 344.93 2583.80
   06:09:06.781.17-Sep-2021 5057.50 5539.56 79.56 6.00 345.13 2583.80
   06:09:06.981.17-Sep-2021 5057.50 5539.31 79.56 6.00 345.33 2583.80
   06:09:07.181.17-Sep-2021 5057.50 5539.41 79.56 6.00 345.53 2583.80
   06:09:07.381.17-Sep-2021 5057.50 5539.64 79.55 6.00 345.73 2583.80
   06:09:07.580.17-Sep-2021 5057.50 5539.59 79.55 6.00 345.93 2583.80
   06:09:07.780.17-Sep-2021 5057.50 5539.59 79.55 6.00 346.13 2583.80
   06:09:07.980.17-Sep-2021 5057.50 5543.05 79.55 6.00 346.33 2583.80
   06:09:08.180.17-Sep-2021 5057.50 5539.09 79.55 6.00 346.53 2583.80
   06:09:08.380.17-Sep-2021 5057.50 5540.68 79.55 6.00 346.73 2583.80
   06:09:08.580.17-Sep-2021 5057.50 5541.67 79.55 6.00 346.93 2583.80
   06:09:08.780.17-Sep-2021 5057.50 5541.67 79.55 6.00 347.13 2583.80
   06:09:08.980.17-Sep-2021 5057.50 5539.61 79.55 6.00 347.33 2583.80
   06:09:09.180.17-Sep-2021 5057.50 5539.58 79.55 6.00 347.53 2583.80
   06:09:09.380.17-Sep-2021 5057.50 5541.86 79.55 6.00 347.73 2583.80
   06:09:09.580.17-Sep-2021 5057.50 5538.37 79.55 6.00 347.93 2583.80
   06:09:09.780.17-Sep-2021 5057.50 5538.37 79.55 6.00 348.13 2583.80
   06:09:09.980.17-Sep-2021 5057.50 5538.90 79.55 6.00 348.33 2583.80
   06:09:10.180.17-Sep-2021 5057.50 5541.56 79.55 6.00 348.53 2583.80
   06:09:10.380.17-Sep-2021 5057.50 5538.57 79.55 6.00 348.73 2583.80
   06:09:10.580.17-Sep-2021 5057.50 5540.57 79.55 6.00 348.93 2583.80
   06:09:10.780.17-Sep-2021 5057.50 5540.57 79.55 6.00 349.13 2583.80
   06:09:10.980.17-Sep-2021 5057.50 5539.39 79.55 6.00 349.33 2583.80
   06:09:11.180.17-Sep-2021 5057.50 5541.16 79.55 6.00 349.53 2583.80
   06:09:11.380.17-Sep-2021 5057.50 5538.70 79.55 6.00 349.73 2583.80
   06:09:11.580.17-Sep-2021 5057.50 5540.35 79.55 6.00 349.93 2583.80
   06:09:11.780.17-Sep-2021 5057.50 5540.35 79.55 6.00 350.13 2583.80
   06:09:11.980.17-Sep-2021 5057.50 5539.32 79.55 6.00 350.33 2583.80
   06:09:12.180.17-Sep-2021 5057.50 5540.12 79.55 6.00 350.53 2583.80
   06:09:12.379.17-Sep-2021 5057.50 5539.21 79.55 6.00 350.73 2583.80
   06:09:12.579.17-Sep-2021 5057.50 5539.28 79.55 6.00 350.93 2583.80
   06:09:12.779.17-Sep-2021 5057.50 5539.28 79.55 6.00 351.13 2583.80
   06:09:12.979.17-Sep-2021 5057.50 5539.28 79.55 6.00 351.33 2583.80
   06:09:13.179.17-Sep-2021 5057.50 5539.72 79.55 6.00 351.53 2583.80
   06:09:13.379.17-Sep-2021 5057.50 5539.86 79.54 6.00 351.73 2583.80
   06:09:13.579.17-Sep-2021 5057.50 5539.62 79.54 6.00 351.92 2583.80
   06:09:13.779.17-Sep-2021 5057.50 5539.62 79.54 6.00 352.12 2583.80
   06:09:13.979.17-Sep-2021 5057.50 5539.77 79.54 6.00 352.32 2583.80
   06:09:14.179.17-Sep-2021 5057.50 5543.74 79.54 6.00 352.52 2583.80
   06:09:14.379.17-Sep-2021 5057.50 5538.19 79.54 6.00 352.72 2583.80
   06:09:14.579.17-Sep-2021 5057.50 5541.62 79.54 6.00 352.92 2583.80
   06:09:14.779.17-Sep-2021 5057.50 5541.62 79.54 6.00 353.12 2583.80
   06:09:14.979.17-Sep-2021 5057.50 5540.12 79.54 6.00 353.32 2583.80
   06:09:15.179.17-Sep-2021 5057.50 5540.04 79.54 6.00 353.52 2583.80
   06:09:15.379.17-Sep-2021 5057.50 5539.27 79.54 6.00 353.72 2583.80
   06:09:15.579.17-Sep-2021 5057.50 5539.40 79.54 6.00 353.92 2583.80
   06:09:15.779.17-Sep-2021 5057.50 5539.40 79.54 6.00 354.12 2583.80
   06:09:15.979.17-Sep-2021 5057.50 5539.23 79.54 6.00 354.32 2583.80
   06:09:16.179.17-Sep-2021 5057.50 5539.13 79.54 6.00 354.52 2583.80
   06:09:16.379.17-Sep-2021 5057.50 5539.27 79.54 6.00 354.72 2583.80
   06:09:16.579.17-Sep-2021 5057.50 5539.22 79.54 6.00 354.92 2583.80
   06:09:16.779.17-Sep-2021 5057.50 5539.22 79.54 6.00 355.12 2583.80
   06:09:16.978.17-Sep-2021 5057.50 5539.76 79.54 6.00 355.32 2583.80
   06:09:17.178.17-Sep-2021 5057.50 5539.62 79.54 6.00 355.52 2583.80
   06:09:17.378.17-Sep-2021 5057.50 5539.95 79.54 6.00 355.72 2583.80
   06:09:17.578.17-Sep-2021 5057.50 5542.83 79.54 6.00 355.92 2583.80
   06:09:17.778.17-Sep-2021 5057.50 5542.83 79.54 6.00 356.12 2583.80
   06:09:17.978.17-Sep-2021 5057.50 5539.77 79.54 6.00 356.32 2583.80
   06:09:18.178.17-Sep-2021 5057.50 5541.98 79.54 6.00 356.52 2583.80
   06:09:18.378.17-Sep-2021 5057.50 5541.69 79.54 6.00 356.72 2583.80
   06:09:18.578.17-Sep-2021 5057.50 5541.05 79.54 6.00 356.92 2583.80
   06:09:18.778.17-Sep-2021 5057.50 5541.05 79.54 6.00 357.12 2583.80
   06:09:18.978.17-Sep-2021 5057.50 5544.35 79.54 6.00 357.32 2583.80
   06:09:19.178.17-Sep-2021 5057.50 5537.99 79.53 6.00 357.52 2583.80
   06:09:19.378.17-Sep-2021 5057.50 5541.93 79.53 6.00 357.72 2583.80
   06:09:19.578.17-Sep-2021 5057.50 5540.09 79.53 6.00 357.92 2583.80
   06:09:19.778.17-Sep-2021 5057.50 5540.09 79.53 6.00 358.12 2583.80
   06:09:19.978.17-Sep-2021 5057.50 5539.76 79.53 6.00 358.32 2583.80
   06:09:20.178.17-Sep-2021 5057.50 5541.69 79.53 6.00 358.52 2583.80
   06:09:20.378.17-Sep-2021 5057.50 5540.21 79.53 6.00 358.72 2583.80
   06:09:20.578.17-Sep-2021 5057.50 5539.92 79.53 6.00 358.92 2583.80
   06:09:20.778.17-Sep-2021 5057.50 5539.92 79.53 6.00 359.12 2583.80
   06:09:20.978.17-Sep-2021 5057.50 5537.94 79.53 6.00 359.32 2583.80
   06:09:21.178.17-Sep-2021 5057.50 5541.79 79.53 6.00 359.52 2583.80
   06:09:21.378.17-Sep-2021 5057.50 5540.22 79.53 6.00 359.72 2583.80
   06:09:21.578.17-Sep-2021 5057.50 5540.42 79.53 6.00 359.92 2583.80
   06:09:21.777.17-Sep-2021 5057.50 5540.42 79.53 6.00 360.12 2583.80
   06:09:21.977.17-Sep-2021 5057.50 5540.71 79.53 6.00 360.32 2583.80
   06:09:22.177.17-Sep-2021 5057.50 5540.42 79.53 6.00 360.52 2583.80
   06:09:22.377.17-Sep-2021 5057.50 5540.25 79.53 6.00 360.72 2583.80
   06:09:22.577.17-Sep-2021 5057.50 5540.68 79.53 6.00 360.92 2583.80
   06:09:22.777.17-Sep-2021 5057.50 5540.68 79.53 6.00 361.12 2583.80
   06:09:22.977.17-Sep-2021 5057.50 5540.99 79.53 6.00 361.32 2583.80
   06:09:23.177.17-Sep-2021 5057.50 5540.77 79.53 6.00 361.52 2583.80
   06:09:23.377.17-Sep-2021 5057.50 5540.84 79.53 6.00 361.72 2583.80
   06:09:23.577.17-Sep-2021 5057.50 5541.16 79.53 6.00 361.92 2583.80
   06:09:23.777.17-Sep-2021 5057.50 5541.16 79.53 6.00 362.12 2583.80
   06:09:23.977.17-Sep-2021 5057.50 5542.82 79.53 6.00 362.32 2583.80
   06:09:24.177.17-Sep-2021 5057.50 5540.81 79.53 6.00 362.52 2583.80
   06:09:24.377.17-Sep-2021 5057.50 5542.17 79.53 6.00 362.72 2583.80
   06:09:24.577.17-Sep-2021 5057.50 5541.42 79.53 6.00 362.92 2583.80
   06:09:24.777.17-Sep-2021 5057.50 5541.42 79.53 6.00 363.12 2583.80
   06:09:24.977.17-Sep-2021 5057.50 5541.02 79.53 6.00 363.32 2583.80
   06:09:25.177.17-Sep-2021 5057.50 5540.44 79.52 6.00 363.52 2583.80
   06:09:25.377.17-Sep-2021 5057.50 5540.17 79.52 6.00 363.72 2583.80
   06:09:25.577.17-Sep-2021 5057.50 5540.25 79.52 6.00 363.92 2583.80
   06:09:25.777.17-Sep-2021 5057.50 5540.25 79.52 6.00 364.12 2583.80
   06:09:25.977.17-Sep-2021 5057.50 5540.17 79.52 6.00 364.32 2583.80
   06:09:26.177.17-Sep-2021 5057.50 5540.43 79.52 6.00 364.52 2583.80
   06:09:26.376.17-Sep-2021 5057.50 5540.54 79.52 6.00 364.72 2583.80
   06:09:26.576.17-Sep-2021 5057.50 5540.73 79.52 6.00 364.92 2583.80
   06:09:26.776.17-Sep-2021 5057.50 5540.73 79.52 6.00 365.12 2583.80
   06:09:26.976.17-Sep-2021 5057.50 5540.89 79.52 6.00 365.32 2583.80
   06:09:27.176.17-Sep-2021 5057.50 5541.17 79.52 6.00 365.52 2583.80
   06:09:27.376.17-Sep-2021 5057.50 5543.65 79.52 6.00 365.72 2583.80
   06:09:27.576.17-Sep-2021 5057.50 5540.31 79.52 6.00 365.92 2583.80
   06:09:27.776.17-Sep-2021 5057.50 5540.31 79.52 6.00 366.12 2583.80
   06:09:27.976.17-Sep-2021 5057.50 5540.98 79.52 6.00 366.32 2583.80
   06:09:28.176.17-Sep-2021 5057.50 5540.86 79.52 6.00 366.52 2583.80
   06:09:28.376.17-Sep-2021 5057.50 5541.12 79.52 6.00 366.72 2583.80
   06:09:28.576.17-Sep-2021 5057.50 5540.82 79.52 6.00 366.92 2583.80
   06:09:28.776.17-Sep-2021 5057.50 5540.82 79.52 6.00 367.12 2583.80
   06:09:28.976.17-Sep-2021 5057.50 5539.78 79.52 6.00 367.32 2583.80
   06:09:29.176.17-Sep-2021 5057.50 5541.13 79.52 6.00 367.52 2583.80
   06:09:29.376.17-Sep-2021 5057.50 5543.36 79.52 6.00 367.72 2583.80
