~Version Information
 VERS.                  2.0:   CWLS log ASCII Standard -VERSION 2.0
 WRAP.                   NO:   One line per depth step
~Well Information Block
#MNEM.UNIT     VALUE/NAME     DESCRIPTION
#---------     -----------    ---------------------------
 STRT.S             05:03:12 17-Sep-21: START TIME 05:03:12 17-Sep-21
 STOP.S             05:12:54 17-Sep-21: STOP TIME  05:12:54 17-Sep-21
 STEP.S                   0.00: STEP TIME
 NULL.                 -999.25: NULL VALUE
 DFWT.                        :  DIST FWL TEXT
 DFST.                        :  DIST FSL TEXT
 DMF .             Drill Floor:  DRILL MEAS FROM
 STIM.      10.59.12 05-Jul-21:  START TIME
 DATE.      10.59.12 10-Sep-21:  END TIME
 SPUD.               05-Jul-21:  SPUD DATE
 NREF.                    Grid:  NORTH REFERENCE
 HPTY.       Minimum Curvature:  HOLE POS TYPE
 DMOD.             Drill Model:  DRILL MOD DESC
 SVYD.                  Survey:  SURVEY DESC
 ILTD.               Lithology:  INTERP LTH DESC
 FTOP.          Formation Tops:  FORM TOPS DESC
 RIG .                     DWG:  RIG NAME
 PDAT.          Mean Sea Level:  PERMANENT DATUM
 FLD .                     ACG:  FIELD NAME
 SON .        AZ-XX-0907115008:  JOB NUMBER
 CTRY.              Azerbaijan:  COUNTRY NAME
 WELL.                    E35A:  WELL NAME
 SRVC.          TURAN DRILLING:  CONTRACTOR
 COMP.     BP Exploration (Caspian Sea LTD):  COMPANY
 UWI .                     N/A:  UNIQUE WELL IDENTIFIER
 API .                     N/A:  API NUMBER
 MDS .        Operator Entered:  MAG DATA SOURCE
 BASE.              Azerbaijan:  LOGGING EQUIPMENT BASE LOCATION
 REGN.                   EESSA:  REGION
 PROV.                    Baku:  PROVINCE
 STAT.                    Baku:  STATE NAME
 MWDS.                    Baku:  MWD SHOP
 JOBN.        AZ-XX-0907115008:  JOB TICKET NUMB
 DOE .                     N/A:  DOE NUMBER
 DCON.         Sperry Drilling:  DIRECTNL CONTR
 UNIT.                     N/A:  LOGGING EQUIPMENT ID
 WTYP.                Deviated:  WELL TYPE
 CNTY.                        :  COUNTY
 LOC .                        :  LOCATION
 LMF .             Drill Floor:  LOG MEASURED FROM
 TVDS.m                  43.16:  TVDSS CORRECTN
 LATI.deg                40.17:  LATITUDE
 LONG.deg                51.17:  LONGITUDE
 WHNS.m                  10.51:  WELL HEAD N/S
 WHEW.m                 -14.82:  WELL HEAD E/W
 UTMX.m              514336.92:  UTM X
 UTMY.m             4448618.56:  UTM Y
 DFWL.m                   0.00:  DISTANCE FWL
 DFSL.m                   0.00:  DISTANCE FSL
 SDEP.m                 849.00:  START DEPTH
 TDD .m                2862.00:  TOTAL DEPTH (DRILLER)
 VSDR.deg               292.10:  VERT SEC DIRECT
 GVFD.g                   1.00:  GRAVITY FIELD
 MFLD.nT              50382.00:  MAGNETIC FIELD
 MDIP.deg                59.68:  MAGNETIC DIP
 MDEC.deg                 6.66:  MAGNETIC DECL
 GRDC.deg                 0.09:  GRID CORRECTION
 AZTC.deg                 6.57:  AZM TOTAL CORR
 EPD .m                   0.00:  ELEVATION
 EGL .m                   0.00:  GROUND ELEVATION
 WDMS.m                 176.20:  WD ELEV
 APD .m                  43.16:  DEPTH ABOVE PD
 DEP .m                 363.42:  DEPTH
 AGAP.m                  43.16:  AIR GAP
 VSEW.m                 -14.82:  VERT SEC E/W
 VSNS.m                  10.51:  VERT SEC N/S
 EKB .m                  43.16:  KB ELEVATION
 EDF .m                  43.16:  DF ELEVATION
 TDL .m                1390.00:  TOTAL DEPTH (LOGGER)
 VSC .                       0:  VS TO CLOSURE
 MAGU.                 1855871:  MAGUTM CHECKSUM
~Parameter Information Block
#MNEM.UNIT       Value        Description
#---------     -----------    ---------------------------
 AV  .mps                 2.28:  Ann Velocity 
 AVMX.mps                 2.67:  Max Ann Veloc 
 AZIF.deg               305.00:  Azm, Final 
 BHAT.        Rotary Steerable:  BHA Type 
 BROT.°/30m               0.45:  Build Rotating 
 BS  .in                 12.25:  Bit Size 
 BSZ .in                 12.25:  Bit Size 
 BTPL.psig              600.00:  Bit Press Loss 
 CABU.                     Yes:  Customer Abuse 
 COMM.                     äÏF:  Run Comments 1 
 TCS .hr                150.00:  Time Ciculation Ended 
 CV  .mps                 1.24:  Crit Velocity 
 CVMX.mps                 1.66:  Max Crit Veloc 
 DD1 .         Intigam Rahimov:  Direct Drillr 1 
 DD2 .            Azer Ravavov:  Direct Drillr 2 
 DD3 .              Samir Abas:  Direct Drillr 3 
 DDSV.               Geo-Pilot:  DD Service 
 DEFF.%                 100.00:  % Det Eff 
 DLRX.°/30m               1.57:  Dogleg Rot Max 
 DLSO.°/30m               0.00:  Dogleg Oriented 
 DLSX.°/30m               0.00:  Dogleg Str Max 
 DRET.      20.28.06 17-Sep-21:  Drill End Time 
 DRST.      20.27.35 10-Sep-21:  Drill Start Tim 
 DTIM.hr                 54.00:  Time Drilling 
 EDEP.m                5260.00:  End Depth 
 ENG1.      Bakhtiyar Jabbarli:  Engineer 1 
 ENG2.      Natik Hasanaghayev:  Engineer 2 
 ENG3.           Royal Nasirov:  Engineer 3 
 ETIM.      20.27.55 18-Sep-21:  End Time 
 FLOI.gpm              1100.00:  Flow In 
 FLON.gpm               800.00:  Flow In Min 
 FLOS.cptm                0.00:  Fluid Loss 
 FLOX.gpm              1200.00:  Flow In Max 
 DFT .        Mineral Oil Base:  Mud Type 
 HPRE.                      No:  High Pressure 
 HTEM.                      No:  High Temp 
 HYDO.m                   1.80:  Hydro Offset 
 IFIN.deg                72.31:  Inc, Final 
 IMAX.deg                72.36:  Inc Max 
 IMIN.deg                69.36:  Inc Min 
 IMND.m                4192.96:  Inc Min Depth 
 IMXD.m                5128.36:  Inc Max Depth 
 JARR.                      No:  Jarring 
 LETM.      20.29.00 17-Sep-21:  Log End Time 
 LOST.hr                     0:  Lost Rig Time 
 LSTM.      20.27.00 10-Sep-21:  Log Start Time 
 MDCL.ppm            227000.00:  Mud Chlorides 
 MDES.     Inversion Oil/Synthetic:  Mud Desc 
 DFD .sg                  1.45:  Mud Density 
 MDMN.sg                  1.45:  Dens Mud Min 
 MDMX.sg                  1.45:  Dens Mud Max 
 MOIL.                    70.5:  Run Mud Oil % 
 MOWR.                   71:29:  Run Mud OWR 
 MSND.                     0.3:  Run Mud Sand % 
 MSOL.                    19.8:  Run Mud Solids% 
 DFV .spqt               80.00:  Mud Viscosity 
 MWOD.in                  8.00:  MWD Tool OD 
 MWSI.                     Yes:  Serv Intrp, MWD 
 OTIM.hr                180.00:  Time Operating 
 PCON.           Look Like New:  Pad Condition 
 PMAX.psia             9910.94:  Press Op, Max 
 PV  .cP                 35.00:  Mud PV 
 RUN .                    1000:  Run Number 
 ROPA.m/hr               18.00:  ROP Avg 
 ROPN.m/hr                8.00:  ROP Min 
 ROPX.m/hr               23.00:  ROP Max 
 RPMA.rpm               150.00:  RPM Surface Avg 
 RPMN.rpm               120.00:  RPM Surface Min 
 RPMX.rpm               160.00:  RPM Surface Max 
 RRUN.                    L503:  Rig Run Number 
 RTIM.hr                  5.00:  Time Reaming 
 SAZI.deg               298.42:  Azm, Start 
 SDEP.m                3870.00:  Start Depth 
 SIDD.                      No:  Serv Intrp, DD 
 SINC.deg                69.57:  Inc, Start 
 SPPA.psig             5500.00:  SPP Avg 
 SPPN.psig             4400.00:  SPP Min 
 SPPX.psig             5800.00:  SPP Max 
 STIM.      15.29.39 09-Sep-21:  Start Time 
 SVCS.                 DD, MWD:  Services 
 SVER.                    9.20:  Sperry Version 
 TDAT.m                5260.00:  Tot Depth Attmp 
 TDDF.                      No:  Trip for DD 
 TDLG.m                1390.00:  Tot Depth Loggd 
 TFF .                      No:  Trip for Fail 
 TQAA.f-kp               22.00:  Torque Abs Avg 
 TQAN.f-kp               13.00:  Torque Abs Min 
 TQAX.f-kp               27.00:  Torque Abs Max 
 TRRT.°/30m               1.60:  Turn Rotating 
 MRT .                  EWR-M5:  Maximum Recorded Temperature 
 TTMX.degC               92.00:  Max Tool Temp 
 VS01.                12330975:  Virtual Str1 SN 
 VS02.                90658671:  Virtual Str2 SN 
 VS03.                90658508:  Virtual Str3 SN 
 VS04.                90660974:  Virtual Str4 SN 
 VS05.                90654675:  Virtual Str5 SN 
 WBMN.klb                15.00:  WOB Min 
 WITN.     Alexander Yadullayev:  Customer Rep 
 WITN.           Adil Mammadov:  Customer Rep 2 
 WOBA.klb                17.00:  WOB Avg 
 WOBX.klb                18.00:  WOB Max 
 YP  .lhf2               31.00:  Yield Point 
~Curve Information Block
#MNEM.UNIT                 API CODE     Curve Description
#---------               -----------    ---------------------------
 TIME.HHMMSS            00 000 000 000:  GT Time & Date
 GTDEPTH.m              00 000 000 000:  GT Depth
 GTPQH.psia             00 000 000 000:  GT HR Quartz Pressure
 GTTQ.degC              00 000 000 000:  GT Quartz Temperature
 GTTN.NONE              00 000 000 000:  GT Test Number
 GTET.sec               00 000 000 000:  GT Elapsed Test Time
 GTTVD.m                00 000 000 000:  GT True Vertical Depth
#Other Information
#
#WARRANTY: Halliburton will use its best efforts to furnish customers with 
#accurate information and interpretations that are part of, and incident to, the services 
#provided.  However, Halliburton cannot and does not warrant the accuracy 
#or correctness of such information and interpretations.  Under no circumstances should any 
#such information or interpretation be relied upon as the sole basis for any drilling, 
#completion, production, or financial decision or any procedure involving any risk to the 
#safety of any drilling venture, drilling rig or its crew or any other third party.  The 
#Customer has full responsibility for all drilling, completion and production operation.  
#Halliburton makes no representations or warranties, either expressed or 
#implied, including, but not limited to, the implied warranties of merchantability or fitness 
#for a particular purpose, with respect to the services rendered.  In no event will 
#Halliburton be liable for failure to obtain any particular results or for 
#any damages, including, but not limited to, indirect, special or consequential damages, 
#resulting from the use of any information or interpretation provided by Halliburton.
#
~A           TIME           GTDEPTH  GTPQH  GTTQ  GTTN  GTET   GTTVD  
# ...
   05:09:21.254.17-Sep-2021 5093.53 3745.34 79.44 5.00 368.40 2594.99
   05:09:21.454.17-Sep-2021 5093.53 3745.34 79.44 5.00 368.60 2594.99
   05:09:21.654.17-Sep-2021 5093.53 3745.33 79.44 5.00 368.80 2594.99
   05:09:21.855.17-Sep-2021 5093.53 3745.36 79.44 5.00 369.00 2594.99
   05:09:22.055.17-Sep-2021 5093.53 3745.13 79.44 5.00 369.20 2594.99
   05:09:22.255.17-Sep-2021 5093.53 3745.16 79.44 5.00 369.40 2594.99
   05:09:22.455.17-Sep-2021 5093.53 3745.16 79.44 5.00 369.60 2594.99
   05:09:22.655.17-Sep-2021 5093.53 3745.07 79.44 5.00 369.80 2594.99
   05:09:22.856.17-Sep-2021 5093.53 3745.04 79.44 5.00 370.00 2594.99
   05:09:23.056.17-Sep-2021 5093.53 3745.06 79.44 5.00 370.20 2594.99
   05:09:23.256.17-Sep-2021 5093.53 3744.85 79.44 5.00 370.40 2594.99
   05:09:23.456.17-Sep-2021 5093.53 3744.85 79.44 5.00 370.60 2594.99
   05:09:23.657.17-Sep-2021 5093.53 3744.96 79.44 5.00 370.80 2594.99
   05:09:23.857.17-Sep-2021 5093.53 3744.91 79.44 5.00 371.00 2594.99
   05:09:24.057.17-Sep-2021 5093.53 3744.96 79.44 5.00 371.20 2594.99
   05:09:24.257.17-Sep-2021 5093.53 3744.95 79.44 5.00 371.40 2594.99
   05:09:24.457.17-Sep-2021 5093.53 3744.95 79.44 5.00 371.60 2594.99
   05:09:24.658.17-Sep-2021 5093.53 3744.95 79.44 5.00 371.80 2594.99
   05:09:24.858.17-Sep-2021 5093.53 3744.96 79.44 5.00 372.00 2594.99
   05:09:25.058.17-Sep-2021 5093.53 3744.95 79.44 5.00 372.20 2594.99
   05:09:25.258.17-Sep-2021 5093.53 3744.98 79.44 5.00 372.40 2594.99
   05:09:25.458.17-Sep-2021 5093.53 3744.98 79.44 5.00 372.60 2594.99
   05:09:25.659.17-Sep-2021 5093.53 3744.99 79.44 5.00 372.80 2594.99
   05:09:25.859.17-Sep-2021 5093.53 3745.03 79.44 5.00 373.00 2594.99
   05:09:26.059.17-Sep-2021 5093.53 3745.05 79.44 5.00 373.20 2594.99
   05:09:26.259.17-Sep-2021 5093.53 3745.12 79.44 5.00 373.40 2594.99
   05:09:26.460.17-Sep-2021 5093.53 3745.12 79.44 5.00 373.60 2594.99
   05:09:26.660.17-Sep-2021 5093.53 3745.16 79.44 5.00 373.80 2594.99
   05:09:26.860.17-Sep-2021 5093.53 3745.14 79.44 5.00 374.00 2594.99
   05:09:27.060.17-Sep-2021 5093.53 3745.12 79.44 5.00 374.20 2594.99
   05:09:27.260.17-Sep-2021 5093.53 3745.14 79.44 5.00 374.40 2594.99
   05:09:27.461.17-Sep-2021 5093.53 3745.14 79.44 5.00 374.60 2594.99
   05:09:27.661.17-Sep-2021 5093.53 3745.21 79.44 5.00 374.80 2594.99
   05:09:27.861.17-Sep-2021 5093.53 3745.20 79.44 5.00 375.00 2594.99
   05:09:28.061.17-Sep-2021 5093.53 3745.22 79.44 5.00 375.20 2594.99
   05:09:28.261.17-Sep-2021 5093.53 3745.18 79.44 5.00 375.40 2594.99
   05:09:28.462.17-Sep-2021 5093.53 3745.18 79.44 5.00 375.60 2594.99
   05:09:28.662.17-Sep-2021 5093.53 3745.22 79.44 5.00 375.80 2594.99
   05:09:28.862.17-Sep-2021 5093.53 3745.26 79.44 5.00 376.00 2594.99
   05:09:29.062.17-Sep-2021 5093.53 3745.31 79.44 5.00 376.21 2594.99
   05:09:29.263.17-Sep-2021 5093.53 3745.32 79.44 5.00 376.41 2594.99
   05:09:29.463.17-Sep-2021 5093.53 3745.32 79.44 5.00 376.61 2594.99
   05:09:29.663.17-Sep-2021 5093.53 3745.29 79.44 5.00 376.81 2594.99
   05:09:29.863.17-Sep-2021 5093.53 3745.41 79.44 5.00 377.01 2594.99
   05:09:30.063.17-Sep-2021 5093.53 3745.40 79.44 5.00 377.21 2594.99
   05:09:30.264.17-Sep-2021 5093.53 3745.41 79.44 5.00 377.41 2594.99
   05:09:30.464.17-Sep-2021 5093.53 3745.41 79.44 5.00 377.61 2594.99
   05:09:30.664.17-Sep-2021 5093.53 3745.39 79.44 5.00 377.81 2594.99
   05:09:30.864.17-Sep-2021 5093.53 3745.39 79.44 5.00 378.01 2594.99
   05:09:31.065.17-Sep-2021 5093.53 3745.39 79.44 5.00 378.21 2594.99
   05:09:31.265.17-Sep-2021 5093.53 3745.42 79.44 5.00 378.41 2594.99
   05:09:31.465.17-Sep-2021 5093.53 3745.42 79.44 5.00 378.61 2594.99
   05:09:31.665.17-Sep-2021 5093.53 3745.36 79.44 5.00 378.81 2594.99
   05:09:31.865.17-Sep-2021 5093.53 3745.42 79.44 5.00 379.01 2594.99
   05:09:32.066.17-Sep-2021 5093.53 3745.37 79.44 5.00 379.21 2594.99
   05:09:32.266.17-Sep-2021 5093.53 3745.38 79.44 5.00 379.41 2594.99
   05:09:32.466.17-Sep-2021 5093.53 3745.38 79.44 5.00 379.61 2594.99
   05:09:32.666.17-Sep-2021 5093.53 3745.43 79.44 5.00 379.81 2594.99
   05:09:32.866.17-Sep-2021 5093.53 3745.43 79.44 5.00 380.01 2594.99
   05:09:33.067.17-Sep-2021 5093.53 3745.48 79.44 5.00 380.21 2594.99
   05:09:33.267.17-Sep-2021 5093.53 3745.43 79.44 5.00 380.41 2594.99
   05:09:33.467.17-Sep-2021 5093.53 3745.43 79.44 5.00 380.61 2594.99
   05:09:33.667.17-Sep-2021 5093.53 3745.44 79.44 5.00 380.81 2594.99
   05:09:33.868.17-Sep-2021 5093.53 3745.44 79.44 5.00 381.01 2594.99
   05:09:34.068.17-Sep-2021 5093.53 3745.45 79.44 5.00 381.21 2594.99
   05:09:34.268.17-Sep-2021 5093.53 3745.44 79.44 5.00 381.41 2594.99
   05:09:34.468.17-Sep-2021 5093.53 3745.44 79.44 5.00 381.61 2594.99
   05:09:34.668.17-Sep-2021 5093.53 3745.47 79.44 5.00 381.81 2594.99
   05:09:34.869.17-Sep-2021 5093.53 3745.48 79.44 5.00 382.01 2594.99
   05:09:35.069.17-Sep-2021 5093.53 3745.49 79.44 5.00 382.21 2594.99
   05:09:35.269.17-Sep-2021 5093.53 3745.51 79.44 5.00 382.41 2594.99
   05:09:35.469.17-Sep-2021 5093.53 3745.51 79.44 5.00 382.61 2594.99
   05:09:35.669.17-Sep-2021 5093.53 3745.56 79.44 5.00 382.81 2594.99
   05:09:35.870.17-Sep-2021 5093.53 3745.61 79.44 5.00 383.01 2594.99
   05:09:36.070.17-Sep-2021 5093.53 3745.61 79.44 5.00 383.21 2594.99
   05:09:36.270.17-Sep-2021 5093.53 3745.67 79.44 5.00 383.41 2594.99
   05:09:36.470.17-Sep-2021 5093.53 3745.67 79.44 5.00 383.61 2594.99
   05:09:36.671.17-Sep-2021 5093.53 3745.69 79.44 5.00 383.81 2594.99
   05:09:36.871.17-Sep-2021 5093.53 3745.67 79.44 5.00 384.01 2594.99
   05:09:37.071.17-Sep-2021 5093.53 3745.69 79.44 5.00 384.21 2594.99
   05:09:37.271.17-Sep-2021 5093.53 3745.70 79.44 5.00 384.41 2594.99
   05:09:37.471.17-Sep-2021 5093.53 3745.70 79.44 5.00 384.61 2594.99
   05:09:37.672.17-Sep-2021 5093.53 3745.73 79.44 5.00 384.81 2594.99
   05:09:37.872.17-Sep-2021 5093.53 3745.73 79.44 5.00 385.01 2594.99
   05:09:38.072.17-Sep-2021 5093.53 3745.73 79.44 5.00 385.21 2594.99
   05:09:38.272.17-Sep-2021 5093.53 3745.73 79.44 5.00 385.42 2594.99
   05:09:38.472.17-Sep-2021 5093.53 3745.73 79.44 5.00 385.62 2594.99
   05:09:38.673.17-Sep-2021 5093.53 3745.74 79.44 5.00 385.82 2594.99
   05:09:38.873.17-Sep-2021 5093.53 3745.77 79.44 5.00 386.02 2594.99
   05:09:39.073.17-Sep-2021 5093.53 3745.78 79.45 5.00 386.22 2594.99
   05:09:39.273.17-Sep-2021 5093.53 3745.78 79.45 5.00 386.42 2594.99
   05:09:39.474.17-Sep-2021 5093.53 3745.78 79.45 5.00 386.62 2594.99
   05:09:39.674.17-Sep-2021 5093.53 3745.84 79.45 5.00 386.82 2594.99
   05:09:39.874.17-Sep-2021 5093.53 3745.83 79.45 5.00 387.02 2594.99
   05:09:40.074.17-Sep-2021 5093.53 3745.77 79.45 5.00 387.22 2594.99
   05:09:40.274.17-Sep-2021 5093.53 3745.74 79.45 5.00 387.42 2594.99
   05:09:40.475.17-Sep-2021 5093.53 3745.74 79.45 5.00 387.62 2594.99
   05:09:40.675.17-Sep-2021 5093.53 3745.63 79.45 5.00 387.82 2594.99
   05:09:40.875.17-Sep-2021 5093.53 3745.72 79.45 5.00 388.02 2594.99
   05:09:41.075.17-Sep-2021 5093.53 3745.75 79.45 5.00 388.22 2594.99
   05:09:41.276.17-Sep-2021 5093.53 3745.78 79.45 5.00 388.42 2594.99
   05:09:41.476.17-Sep-2021 5093.53 3745.78 79.45 5.00 388.62 2594.99
   05:09:41.676.17-Sep-2021 5093.53 3745.79 79.45 5.00 388.82 2594.99
   05:09:41.876.17-Sep-2021 5093.53 3745.83 79.45 5.00 389.02 2594.99
   05:09:42.076.17-Sep-2021 5093.53 3745.74 79.45 5.00 389.22 2594.99
   05:09:42.277.17-Sep-2021 5093.53 3745.73 79.45 5.00 389.42 2594.99
   05:09:42.477.17-Sep-2021 5093.53 3745.73 79.45 5.00 389.62 2594.99
   05:09:42.677.17-Sep-2021 5093.53 3745.68 79.45 5.00 389.82 2594.99
   05:09:42.877.17-Sep-2021 5093.53 3745.74 79.45 5.00 390.02 2594.99
   05:09:43.077.17-Sep-2021 5093.53 3745.80 79.45 5.00 390.22 2594.99
   05:09:43.278.17-Sep-2021 5093.53 3745.77 79.45 5.00 390.42 2594.99
   05:09:43.478.17-Sep-2021 5093.53 3745.77 79.45 5.00 390.62 2594.99
   05:09:43.678.17-Sep-2021 5093.53 3745.81 79.45 5.00 390.82 2594.99
   05:09:43.878.17-Sep-2021 5093.53 3745.81 79.45 5.00 391.02 2594.99
   05:09:44.079.17-Sep-2021 5093.53 3745.79 79.45 5.00 391.22 2594.99
