~Version Information
 VERS.                  2.0:   CWLS log ASCII Standard -VERSION 2.0
 WRAP.                   NO:   One line per depth step
~Well Information Block
#MNEM.UNIT     VALUE/NAME     DESCRIPTION
#---------     -----------    ---------------------------
 STRT.S             06:03:21 17-Sep-21: START TIME 06:03:21 17-Sep-21
 STOP.S             06:11:58 17-Sep-21: STOP TIME  06:11:58 17-Sep-21
 STEP.S                   0.00: STEP TIME
 NULL.                 -999.25: NULL VALUE
 DFWT.                        :  DIST FWL TEXT
 DFST.                        :  DIST FSL TEXT
 DMF .             Drill Floor:  DRILL MEAS FROM
 STIM.      10.59.12 05-Jul-21:  START TIME
 DATE.      10.59.12 10-Sep-21:  END TIME
 SPUD.               05-Jul-21:  SPUD DATE
 NREF.                    Grid:  NORTH REFERENCE
 HPTY.       Minimum Curvature:  HOLE POS TYPE
 DMOD.             Drill Model:  DRILL MOD DESC
 SVYD.                  Survey:  SURVEY DESC
 ILTD.               Lithology:  INTERP LTH DESC
 FTOP.          Formation Tops:  FORM TOPS DESC
 RIG .                     DWG:  RIG NAME
 PDAT.          Mean Sea Level:  PERMANENT DATUM
 FLD .                     ACG:  FIELD NAME
 SON .        AZ-XX-0907115008:  JOB NUMBER
 CTRY.              Azerbaijan:  COUNTRY NAME
 WELL.                    E35A:  WELL NAME
 SRVC.          TURAN DRILLING:  CONTRACTOR
 COMP.     BP Exploration (Caspian Sea LTD):  COMPANY
 UWI .                     N/A:  UNIQUE WELL IDENTIFIER
 API .                     N/A:  API NUMBER
 MDS .        Operator Entered:  MAG DATA SOURCE
 BASE.              Azerbaijan:  LOGGING EQUIPMENT BASE LOCATION
 REGN.                   EESSA:  REGION
 PROV.                    Baku:  PROVINCE
 STAT.                    Baku:  STATE NAME
 MWDS.                    Baku:  MWD SHOP
 JOBN.        AZ-XX-0907115008:  JOB TICKET NUMB
 DOE .                     N/A:  DOE NUMBER
 DCON.         Sperry Drilling:  DIRECTNL CONTR
 UNIT.                     N/A:  LOGGING EQUIPMENT ID
 WTYP.                Deviated:  WELL TYPE
 CNTY.                        :  COUNTY
 LOC .                        :  LOCATION
 LMF .             Drill Floor:  LOG MEASURED FROM
 TVDS.m                  43.16:  TVDSS CORRECTN
 LATI.deg                40.17:  LATITUDE
 LONG.deg                51.17:  LONGITUDE
 WHNS.m                  10.51:  WELL HEAD N/S
 WHEW.m                 -14.82:  WELL HEAD E/W
 UTMX.m              514336.92:  UTM X
 UTMY.m             4448618.56:  UTM Y
 DFWL.m                   0.00:  DISTANCE FWL
 DFSL.m                   0.00:  DISTANCE FSL
 SDEP.m                 849.00:  START DEPTH
 TDD .m                2862.00:  TOTAL DEPTH (DRILLER)
 VSDR.deg               292.10:  VERT SEC DIRECT
 GVFD.g                   1.00:  GRAVITY FIELD
 MFLD.nT              50382.00:  MAGNETIC FIELD
 MDIP.deg                59.68:  MAGNETIC DIP
 MDEC.deg                 6.66:  MAGNETIC DECL
 GRDC.deg                 0.09:  GRID CORRECTION
 AZTC.deg                 6.57:  AZM TOTAL CORR
 EPD .m                   0.00:  ELEVATION
 EGL .m                   0.00:  GROUND ELEVATION
 WDMS.m                 176.20:  WD ELEV
 APD .m                  43.16:  DEPTH ABOVE PD
 DEP .m                 363.42:  DEPTH
 AGAP.m                  43.16:  AIR GAP
 VSEW.m                 -14.82:  VERT SEC E/W
 VSNS.m                  10.51:  VERT SEC N/S
 EKB .m                  43.16:  KB ELEVATION
 EDF .m                  43.16:  DF ELEVATION
 TDL .m                1390.00:  TOTAL DEPTH (LOGGER)
 VSC .                       0:  VS TO CLOSURE
 MAGU.                 1855871:  MAGUTM CHECKSUM
~Parameter Information Block
#MNEM.UNIT       Value        Description
#---------     -----------    ---------------------------
 AV  .mps                 2.28:  Ann Velocity 
 AVMX.mps                 2.67:  Max Ann Veloc 
 AZIF.deg               305.00:  Azm, Final 
 BHAT.        Rotary Steerable:  BHA Type 
 BROT.°/30m               0.45:  Build Rotating 
 BS  .in                 12.25:  Bit Size 
 BSZ .in                 12.25:  Bit Size 
 BTPL.psig              600.00:  Bit Press Loss 
 CABU.                     Yes:  Customer Abuse 
 COMM.                     $t:  Run Comments 1 
 TCS .hr                150.00:  Time Ciculation Ended 
 CV  .mps                 1.24:  Crit Velocity 
 CVMX.mps                 1.66:  Max Crit Veloc 
 DD1 .         Intigam Rahimov:  Direct Drillr 1 
 DD2 .            Azer Ravavov:  Direct Drillr 2 
 DD3 .              Samir Abas:  Direct Drillr 3 
 DDSV.               Geo-Pilot:  DD Service 
 DEFF.%                 100.00:  % Det Eff 
 DLRX.°/30m               1.57:  Dogleg Rot Max 
 DLSO.°/30m               0.00:  Dogleg Oriented 
 DLSX.°/30m               0.00:  Dogleg Str Max 
 DRET.      20.28.06 17-Sep-21:  Drill End Time 
 DRST.      20.27.35 10-Sep-21:  Drill Start Tim 
 DTIM.hr                 54.00:  Time Drilling 
 EDEP.m                5260.00:  End Depth 
 ENG1.      Bakhtiyar Jabbarli:  Engineer 1 
 ENG2.      Natik Hasanaghayev:  Engineer 2 
 ENG3.           Royal Nasirov:  Engineer 3 
 ETIM.      20.27.55 18-Sep-21:  End Time 
 FLOI.gpm              1100.00:  Flow In 
 FLON.gpm               800.00:  Flow In Min 
 FLOS.cptm                0.00:  Fluid Loss 
 FLOX.gpm              1200.00:  Flow In Max 
 DFT .        Mineral Oil Base:  Mud Type 
 HPRE.                      No:  High Pressure 
 HTEM.                      No:  High Temp 
 HYDO.m                   1.80:  Hydro Offset 
 IFIN.deg                72.31:  Inc, Final 
 IMAX.deg                72.36:  Inc Max 
 IMIN.deg                69.36:  Inc Min 
 IMND.m                4192.96:  Inc Min Depth 
 IMXD.m                5128.36:  Inc Max Depth 
 JARR.                      No:  Jarring 
 LETM.      20.29.00 17-Sep-21:  Log End Time 
 LOST.hr                     0:  Lost Rig Time 
 LSTM.      20.27.00 10-Sep-21:  Log Start Time 
 MDCL.ppm            227000.00:  Mud Chlorides 
 MDES.     Inversion Oil/Synthetic:  Mud Desc 
 DFD .sg                  1.45:  Mud Density 
 MDMN.sg                  1.45:  Dens Mud Min 
 MDMX.sg                  1.45:  Dens Mud Max 
 MOIL.                    70.5:  Run Mud Oil % 
 MOWR.                   71:29:  Run Mud OWR 
 MSND.                     0.3:  Run Mud Sand % 
 MSOL.                    19.8:  Run Mud Solids% 
 DFV .spqt               80.00:  Mud Viscosity 
 MWOD.in                  8.00:  MWD Tool OD 
 MWSI.                     Yes:  Serv Intrp, MWD 
 OTIM.hr                180.00:  Time Operating 
 PCON.           Look Like New:  Pad Condition 
 PMAX.psia             9910.94:  Press Op, Max 
 PV  .cP                 35.00:  Mud PV 
 RUN .                    1000:  Run Number 
 ROPA.m/hr               18.00:  ROP Avg 
 ROPN.m/hr                8.00:  ROP Min 
 ROPX.m/hr               23.00:  ROP Max 
 RPMA.rpm               150.00:  RPM Surface Avg 
 RPMN.rpm               120.00:  RPM Surface Min 
 RPMX.rpm               160.00:  RPM Surface Max 
 RRUN.                    L503:  Rig Run Number 
 RTIM.hr                  5.00:  Time Reaming 
 SAZI.deg               298.42:  Azm, Start 
 SDEP.m                3870.00:  Start Depth 
 SIDD.                      No:  Serv Intrp, DD 
 SINC.deg                69.57:  Inc, Start 
 SPPA.psig             5500.00:  SPP Avg 
 SPPN.psig             4400.00:  SPP Min 
 SPPX.psig             5800.00:  SPP Max 
 STIM.      15.29.39 09-Sep-21:  Start Time 
 SVCS.                 DD, MWD:  Services 
 SVER.                    9.20:  Sperry Version 
 TDAT.m                5260.00:  Tot Depth Attmp 
 TDDF.                      No:  Trip for DD 
 TDLG.m                1390.00:  Tot Depth Loggd 
 TFF .                      No:  Trip for Fail 
 TQAA.f-kp               22.00:  Torque Abs Avg 
 TQAN.f-kp               13.00:  Torque Abs Min 
 TQAX.f-kp               27.00:  Torque Abs Max 
 TRRT.°/30m               1.60:  Turn Rotating 
 MRT .                  EWR-M5:  Maximum Recorded Temperature 
 TTMX.degC               92.00:  Max Tool Temp 
 VS01.                12330975:  Virtual Str1 SN 
 VS02.                90658671:  Virtual Str2 SN 
 VS03.                90658508:  Virtual Str3 SN 
 VS04.                90660974:  Virtual Str4 SN 
 VS05.                90654675:  Virtual Str5 SN 
 WBMN.klb                15.00:  WOB Min 
 WITN.     Alexander Yadullayev:  Customer Rep 
 WITN.           Adil Mammadov:  Customer Rep 2 
 WOBA.klb                17.00:  WOB Avg 
 WOBX.klb                18.00:  WOB Max 
 YP  .lhf2               31.00:  Yield Point 
~Curve Information Block
#MNEM.UNIT                 API CODE     Curve Description
#---------               -----------    ---------------------------
 TIME.HHMMSS            00 000 000 000:  GT Time & Date
 GTDEPTH.m              00 000 000 000:  GT Depth
 GTPQH.psia             00 000 000 000:  GT HR Quartz Pressure
 GTTQ.degC              00 000 000 000:  GT Quartz Temperature
 GTTN.NONE              00 000 000 000:  GT Test Number
 GTET.sec               00 000 000 000:  GT Elapsed Test Time
 GTTVD.m                00 000 000 000:  GT True Vertical Depth
#Other Information
#
#WARRANTY: Halliburton will use its best efforts to furnish customers with 
#accurate information and interpretations that are part of, and incident to, the services 
#provided.  However, Halliburton cannot and does not warrant the accuracy 
#or correctness of such information and interpretations.  Under no circumstances should any 
#such information or interpretation be relied upon as the sole basis for any drilling, 
#completion, production, or financial decision or any procedure involving any risk to the 
#safety of any drilling venture, drilling rig or its crew or any other third party.  The 
#Customer has full responsibility for all drilling, completion and production operation.  
#Halliburton makes no representations or warranties, either expressed or 
#implied, including, but not limited to, the implied warranties of merchantability or fitness 
#for a particular purpose, with respect to the services rendered.  In no event will 
#Halliburton be liable for failure to obtain any particular results or for 
#any damages, including, but not limited to, indirect, special or consequential damages, 
#resulting from the use of any information or interpretation provided by Halliburton.
#
~A           TIME           GTDEPTH  GTPQH  GTTQ  GTTN  GTET   GTTVD  
   06:03:21.654.17-Sep-2021 5057.50 5548.83 80.18 6.00   0.00 2583.80
   06:03:21.854.17-Sep-2021 5057.50 5548.83 80.18 6.00   0.20 2583.80
   06:03:22.054.17-Sep-2021 5057.50 5549.12 80.18 6.00   0.40 2583.80
   06:03:22.254.17-Sep-2021 5057.50 5548.44 80.18 6.00   0.60 2583.80
   06:03:22.454.17-Sep-2021 5057.50 5546.98 80.18 6.00   0.80 2583.80
   06:03:22.654.17-Sep-2021 5057.50 5548.32 80.18 6.00   1.00 2583.80
   06:03:22.854.17-Sep-2021 5057.50 5548.32 80.18 6.00   1.20 2583.80
   06:03:23.054.17-Sep-2021 5057.50 5546.21 80.18 6.00   1.40 2583.80
   06:03:23.254.17-Sep-2021 5057.50 5544.66 80.18 6.00   1.60 2583.80
   06:03:23.454.17-Sep-2021 5057.50 5544.74 80.18 6.00   1.80 2583.80
   06:03:23.654.17-Sep-2021 5057.50 5546.09 80.18 6.00   2.00 2583.80
   06:03:23.854.17-Sep-2021 5057.50 5546.09 80.18 6.00   2.20 2583.80
   06:03:24.054.17-Sep-2021 5057.50 5546.78 80.18 6.00   2.40 2583.80
   06:03:24.254.17-Sep-2021 5057.50 5551.21 80.18 6.00   2.60 2583.80
   06:03:24.454.17-Sep-2021 5057.50 5550.48 80.18 6.00   2.80 2583.80
   06:03:24.654.17-Sep-2021 5057.50 5552.59 80.18 6.00   3.00 2583.80
   06:03:24.854.17-Sep-2021 5057.50 5552.59 80.18 6.00   3.20 2583.80
   06:03:25.054.17-Sep-2021 5057.50 5552.50 80.18 6.00   3.40 2583.80
   06:03:25.253.17-Sep-2021 5057.50 5552.26 80.17 6.00   3.60 2583.80
   06:03:25.453.17-Sep-2021 5057.50 5551.91 80.17 6.00   3.80 2583.80
   06:03:25.653.17-Sep-2021 5057.50 5555.05 80.17 6.00   4.00 2583.80
   06:03:25.853.17-Sep-2021 5057.50 5555.05 80.17 6.00   4.20 2583.80
   06:03:26.053.17-Sep-2021 5057.50 5552.45 80.17 6.00   4.40 2583.80
   06:03:26.253.17-Sep-2021 5057.50 5550.30 80.17 6.00   4.60 2583.80
   06:03:26.453.17-Sep-2021 5057.50 5549.95 80.17 6.00   4.80 2583.80
   06:03:26.653.17-Sep-2021 5057.50 5550.79 80.17 6.00   5.00 2583.80
   06:03:26.853.17-Sep-2021 5057.50 5550.79 80.17 6.00   5.20 2583.80
   06:03:27.053.17-Sep-2021 5057.50 5550.63 80.17 6.00   5.40 2583.80
   06:03:27.253.17-Sep-2021 5057.50 5550.70 80.17 6.00   5.60 2583.80
   06:03:27.453.17-Sep-2021 5057.50 5553.42 80.17 6.00   5.80 2583.80
   06:03:27.653.17-Sep-2021 5057.50 5550.15 80.17 6.00   6.00 2583.80
   06:03:27.853.17-Sep-2021 5057.50 5550.15 80.17 6.00   6.20 2583.80
   06:03:28.053.17-Sep-2021 5057.50 5551.68 80.17 6.00   6.40 2583.80
   06:03:28.253.17-Sep-2021 5057.50 5551.60 80.17 6.00   6.60 2583.80
   06:03:28.453.17-Sep-2021 5057.50 5551.39 80.17 6.00   6.80 2583.80
   06:03:28.653.17-Sep-2021 5057.50 5551.57 80.17 6.00   7.00 2583.80
   06:03:28.853.17-Sep-2021 5057.50 5551.57 80.17 6.00   7.20 2583.80
   06:03:29.053.17-Sep-2021 5057.50 5551.16 80.17 6.00   7.40 2583.80
   06:03:29.253.17-Sep-2021 5057.50 5552.67 80.17 6.00   7.60 2583.80
   06:03:29.453.17-Sep-2021 5057.50 5552.94 80.17 6.00   7.80 2583.80
   06:03:29.653.17-Sep-2021 5057.50 5552.85 80.17 6.00   8.00 2583.80
   06:03:29.852.17-Sep-2021 5057.50 5552.85 80.17 6.00   8.20 2583.80
   06:03:30.052.17-Sep-2021 5057.50 5552.24 80.16 6.00   8.40 2583.80
   06:03:30.252.17-Sep-2021 5057.50 5552.15 80.16 6.00   8.60 2583.80
   06:03:30.452.17-Sep-2021 5057.50 5551.66 80.16 6.00   8.80 2583.80
   06:03:30.652.17-Sep-2021 5057.50 5552.00 80.16 6.00   9.00 2583.80
   06:03:30.852.17-Sep-2021 5057.50 5552.00 80.16 6.00   9.20 2583.80
   06:03:31.052.17-Sep-2021 5057.50 5551.23 80.16 6.00   9.40 2583.80
   06:03:31.252.17-Sep-2021 5057.50 5550.62 80.16 6.00   9.60 2583.80
   06:03:31.452.17-Sep-2021 5057.50 5550.17 80.16 6.00   9.80 2583.80
   06:03:31.652.17-Sep-2021 5057.50 5549.83 80.16 6.00  10.00 2583.80
   06:03:31.852.17-Sep-2021 5057.50 5549.83 80.16 6.00  10.20 2583.80
   06:03:32.052.17-Sep-2021 5057.50 5548.63 80.16 6.00  10.40 2583.80
   06:03:32.252.17-Sep-2021 5057.50 5547.82 80.16 6.00  10.60 2583.80
   06:03:32.452.17-Sep-2021 5057.50 5551.13 80.16 6.00  10.80 2583.80
   06:03:32.652.17-Sep-2021 5057.50 5544.42 80.16 6.00  11.00 2583.80
   06:03:32.852.17-Sep-2021 5057.50 5544.42 80.16 6.00  11.20 2583.80
   06:03:33.052.17-Sep-2021 5057.50 5546.20 80.16 6.00  11.40 2583.80
   06:03:33.252.17-Sep-2021 5057.50 5545.98 80.16 6.00  11.60 2583.80
   06:03:33.452.17-Sep-2021 5057.50 5546.10 80.16 6.00  11.80 2583.80
   06:03:33.652.17-Sep-2021 5057.50 5546.09 80.16 6.00  12.00 2583.80
   06:03:33.852.17-Sep-2021 5057.50 5546.09 80.16 6.00  12.20 2583.80
   06:03:34.052.17-Sep-2021 5057.50 5546.57 80.16 6.00  12.40 2583.80
   06:03:34.252.17-Sep-2021 5057.50 5547.11 80.16 6.00  12.60 2583.80
   06:03:34.452.17-Sep-2021 5057.50 5547.09 80.16 6.00  12.80 2583.80
   06:03:34.651.17-Sep-2021 5057.50 5547.37 80.16 6.00  13.00 2583.80
   06:03:34.851.17-Sep-2021 5057.50 5547.37 80.16 6.00  13.20 2583.80
   06:03:35.051.17-Sep-2021 5057.50 5546.95 80.15 6.00  13.40 2583.80
   06:03:35.251.17-Sep-2021 5057.50 5546.89 80.15 6.00  13.60 2583.80
   06:03:35.451.17-Sep-2021 5057.50 5546.52 80.15 6.00  13.80 2583.80
   06:03:35.651.17-Sep-2021 5057.50 5546.47 80.15 6.00  14.00 2583.80
   06:03:35.851.17-Sep-2021 5057.50 5546.47 80.15 6.00  14.20 2583.80
   06:03:36.051.17-Sep-2021 5057.50 5547.44 80.15 6.00  14.40 2583.80
   06:03:36.251.17-Sep-2021 5057.50 5545.11 80.15 6.00  14.60 2583.80
   06:03:36.451.17-Sep-2021 5057.50 5545.94 80.15 6.00  14.80 2583.80
   06:03:36.651.17-Sep-2021 5057.50 5545.20 80.15 6.00  15.00 2583.80
   06:03:36.851.17-Sep-2021 5057.50 5545.20 80.15 6.00  15.20 2583.80
   06:03:37.051.17-Sep-2021 5057.50 5547.40 80.15 6.00  15.40 2583.80
   06:03:37.251.17-Sep-2021 5057.50 5547.40 80.15 6.00  15.60 2583.80
   06:03:37.451.17-Sep-2021 5057.50 5545.01 80.15 6.00  15.80 2583.80
   06:03:37.651.17-Sep-2021 5057.50 5545.72 80.15 6.00  16.00 2583.80
   06:03:37.851.17-Sep-2021 5057.50 5545.72 80.15 6.00  16.20 2583.80
   06:03:38.051.17-Sep-2021 5057.50 5544.83 80.15 6.00  16.40 2583.80
   06:03:38.251.17-Sep-2021 5057.50 5548.61 80.15 6.00  16.60 2583.80
   06:03:38.451.17-Sep-2021 5057.50 5542.15 80.15 6.00  16.80 2583.80
   06:03:38.651.17-Sep-2021 5057.50 5545.58 80.15 6.00  17.00 2583.80
   06:03:38.851.17-Sep-2021 5057.50 5545.58 80.15 6.00  17.20 2583.80
   06:03:39.051.17-Sep-2021 5057.50 5544.21 80.15 6.00  17.40 2583.80
   06:03:39.250.17-Sep-2021 5057.50 5544.79 80.15 6.00  17.60 2583.80
   06:03:39.450.17-Sep-2021 5057.50 5545.50 80.14 6.00  17.80 2583.80
   06:03:39.650.17-Sep-2021 5057.50 5543.23 80.14 6.00  18.00 2583.80
   06:03:39.850.17-Sep-2021 5057.50 5543.23 80.14 6.00  18.20 2583.80
   06:03:40.050.17-Sep-2021 5057.50 5546.02 80.14 6.00  18.40 2583.80
   06:03:40.250.17-Sep-2021 5057.50 5541.96 80.14 6.00  18.60 2583.80
   06:03:40.450.17-Sep-2021 5057.50 5543.03 80.14 6.00  18.80 2583.80
   06:03:40.650.17-Sep-2021 5057.50 5543.16 80.14 6.00  19.00 2583.80
   06:03:40.850.17-Sep-2021 5057.50 5543.16 80.14 6.00  19.20 2583.80
   06:03:41.050.17-Sep-2021 5057.50 5545.50 80.14 6.00  19.40 2583.80
   06:03:41.250.17-Sep-2021 5057.50 5541.31 80.14 6.00  19.60 2583.80
   06:03:41.450.17-Sep-2021 5057.50 5544.63 80.14 6.00  19.80 2583.80
   06:03:41.650.17-Sep-2021 5057.50 5542.04 80.14 6.00  20.00 2583.80
   06:03:41.850.17-Sep-2021 5057.50 5542.04 80.14 6.00  20.20 2583.80
   06:03:42.050.17-Sep-2021 5057.50 5542.87 80.14 6.00  20.40 2583.80
   06:03:42.250.17-Sep-2021 5057.50 5542.55 80.14 6.00  20.60 2583.80
   06:03:42.450.17-Sep-2021 5057.50 5542.69 80.14 6.00  20.80 2583.80
   06:03:42.650.17-Sep-2021 5057.50 5543.11 80.14 6.00  21.00 2583.80
   06:03:42.850.17-Sep-2021 5057.50 5543.11 80.14 6.00  21.20 2583.80
   06:03:43.050.17-Sep-2021 5057.50 5543.21 80.14 6.00  21.40 2583.80
   06:03:43.250.17-Sep-2021 5057.50 5543.29 80.14 6.00  21.60 2583.80
   06:03:43.450.17-Sep-2021 5057.50 5543.17 80.14 6.00  21.80 2583.80
   06:03:43.650.17-Sep-2021 5057.50 5543.56 80.14 6.00  22.00 2583.80
   06:03:43.850.17-Sep-2021 5057.50 5543.56 80.14 6.00  22.20 2583.80
   06:03:44.049.17-Sep-2021 5057.50 5546.61 80.14 6.00  22.40 2583.80
   06:03:44.249.17-Sep-2021 5057.50 5543.66 80.13 6.00  22.60 2583.80
   06:03:44.449.17-Sep-2021 5057.50 5544.46 80.13 6.00  22.80 2583.80
