~Version Information
 VERS.                  2.0:   CWLS log ASCII Standard -VERSION 2.0
 WRAP.                   NO:   One line per depth step
~Well Information Block
#MNEM.UNIT     VALUE/NAME     DESCRIPTION
#---------     -----------    ---------------------------
 STRT.S             06:26:37 17-Sep-21: START TIME 06:26:37 17-Sep-21
 STOP.S             06:35:42 17-Sep-21: STOP TIME  06:35:42 17-Sep-21
 STEP.S                   0.00: STEP TIME
 NULL.                 -999.25: NULL VALUE
 DFWT.                        :  DIST FWL TEXT
 DFST.                        :  DIST FSL TEXT
 DMF .             Drill Floor:  DRILL MEAS FROM
 STIM.      10.59.12 05-Jul-21:  START TIME
 DATE.      10.59.12 10-Sep-21:  END TIME
 SPUD.               05-Jul-21:  SPUD DATE
 NREF.                    Grid:  NORTH REFERENCE
 HPTY.       Minimum Curvature:  HOLE POS TYPE
 DMOD.             Drill Model:  DRILL MOD DESC
 SVYD.                  Survey:  SURVEY DESC
 ILTD.               Lithology:  INTERP LTH DESC
 FTOP.          Formation Tops:  FORM TOPS DESC
 RIG .                     DWG:  RIG NAME
 PDAT.          Mean Sea Level:  PERMANENT DATUM
 FLD .                     ACG:  FIELD NAME
 SON .        AZ-XX-0907115008:  JOB NUMBER
 CTRY.              Azerbaijan:  COUNTRY NAME
 WELL.                    E35A:  WELL NAME
 SRVC.          TURAN DRILLING:  CONTRACTOR
 COMP.     BP Exploration (Caspian Sea LTD):  COMPANY
 UWI .                     N/A:  UNIQUE WELL IDENTIFIER
 API .                     N/A:  API NUMBER
 MDS .        Operator Entered:  MAG DATA SOURCE
 BASE.              Azerbaijan:  LOGGING EQUIPMENT BASE LOCATION
 REGN.                   EESSA:  REGION
 PROV.                    Baku:  PROVINCE
 STAT.                    Baku:  STATE NAME
 MWDS.                    Baku:  MWD SHOP
 JOBN.        AZ-XX-0907115008:  JOB TICKET NUMB
 DOE .                     N/A:  DOE NUMBER
 DCON.         Sperry Drilling:  DIRECTNL CONTR
 UNIT.                     N/A:  LOGGING EQUIPMENT ID
 WTYP.                Deviated:  WELL TYPE
 CNTY.                        :  COUNTY
 LOC .                        :  LOCATION
 LMF .             Drill Floor:  LOG MEASURED FROM
 TVDS.m                  43.16:  TVDSS CORRECTN
 LATI.deg                40.17:  LATITUDE
 LONG.deg                51.17:  LONGITUDE
 WHNS.m                  10.51:  WELL HEAD N/S
 WHEW.m                 -14.82:  WELL HEAD E/W
 UTMX.m              514336.92:  UTM X
 UTMY.m             4448618.56:  UTM Y
 DFWL.m                   0.00:  DISTANCE FWL
 DFSL.m                   0.00:  DISTANCE FSL
 SDEP.m                 849.00:  START DEPTH
 TDD .m                2862.00:  TOTAL DEPTH (DRILLER)
 VSDR.deg               292.10:  VERT SEC DIRECT
 GVFD.g                   1.00:  GRAVITY FIELD
 MFLD.nT              50382.00:  MAGNETIC FIELD
 MDIP.deg                59.68:  MAGNETIC DIP
 MDEC.deg                 6.66:  MAGNETIC DECL
 GRDC.deg                 0.09:  GRID CORRECTION
 AZTC.deg                 6.57:  AZM TOTAL CORR
 EPD .m                   0.00:  ELEVATION
 EGL .m                   0.00:  GROUND ELEVATION
 WDMS.m                 176.20:  WD ELEV
 APD .m                  43.16:  DEPTH ABOVE PD
 DEP .m                 363.42:  DEPTH
 AGAP.m                  43.16:  AIR GAP
 VSEW.m                 -14.82:  VERT SEC E/W
 VSNS.m                  10.51:  VERT SEC N/S
 EKB .m                  43.16:  KB ELEVATION
 EDF .m                  43.16:  DF ELEVATION
 TDL .m                1390.00:  TOTAL DEPTH (LOGGER)
 VSC .                       0:  VS TO CLOSURE
 MAGU.                 1855871:  MAGUTM CHECKSUM
~Parameter Information Block
#MNEM.UNIT       Value        Description
#---------     -----------    ---------------------------
 AV  .mps                 2.28:  Ann Velocity 
 AVMX.mps                 2.67:  Max Ann Veloc 
 AZIF.deg               305.00:  Azm, Final 
 BHAT.        Rotary Steerable:  BHA Type 
 BROT.°/30m               0.45:  Build Rotating 
 BS  .in                 12.25:  Bit Size 
 BSZ .in                 12.25:  Bit Size 
 BTPL.psig              600.00:  Bit Press Loss 
 CABU.                     Yes:  Customer Abuse 
 COMM.                     D5N:  Run Comments 1 
 TCS .hr                150.00:  Time Ciculation Ended 
 CV  .mps                 1.24:  Crit Velocity 
 CVMX.mps                 1.66:  Max Crit Veloc 
 DD1 .         Intigam Rahimov:  Direct Drillr 1 
 DD2 .            Azer Ravavov:  Direct Drillr 2 
 DD3 .              Samir Abas:  Direct Drillr 3 
 DDSV.               Geo-Pilot:  DD Service 
 DEFF.%                 100.00:  % Det Eff 
 DLRX.°/30m               1.57:  Dogleg Rot Max 
 DLSO.°/30m               0.00:  Dogleg Oriented 
 DLSX.°/30m               0.00:  Dogleg Str Max 
 DRET.      20.28.06 17-Sep-21:  Drill End Time 
 DRST.      20.27.35 10-Sep-21:  Drill Start Tim 
 DTIM.hr                 54.00:  Time Drilling 
 EDEP.m                5260.00:  End Depth 
 ENG1.      Bakhtiyar Jabbarli:  Engineer 1 
 ENG2.      Natik Hasanaghayev:  Engineer 2 
 ENG3.           Royal Nasirov:  Engineer 3 
 ETIM.      20.27.55 18-Sep-21:  End Time 
 FLOI.gpm              1100.00:  Flow In 
 FLON.gpm               800.00:  Flow In Min 
 FLOS.cptm                0.00:  Fluid Loss 
 FLOX.gpm              1200.00:  Flow In Max 
 DFT .        Mineral Oil Base:  Mud Type 
 HPRE.                      No:  High Pressure 
 HTEM.                      No:  High Temp 
 HYDO.m                   1.80:  Hydro Offset 
 IFIN.deg                72.31:  Inc, Final 
 IMAX.deg                72.36:  Inc Max 
 IMIN.deg                69.36:  Inc Min 
 IMND.m                4192.96:  Inc Min Depth 
 IMXD.m                5128.36:  Inc Max Depth 
 JARR.                      No:  Jarring 
 LETM.      20.29.00 17-Sep-21:  Log End Time 
 LOST.hr                     0:  Lost Rig Time 
 LSTM.      20.27.00 10-Sep-21:  Log Start Time 
 MDCL.ppm            227000.00:  Mud Chlorides 
 MDES.     Inversion Oil/Synthetic:  Mud Desc 
 DFD .sg                  1.45:  Mud Density 
 MDMN.sg                  1.45:  Dens Mud Min 
 MDMX.sg                  1.45:  Dens Mud Max 
 MOIL.                    70.5:  Run Mud Oil % 
 MOWR.                   71:29:  Run Mud OWR 
 MSND.                     0.3:  Run Mud Sand % 
 MSOL.                    19.8:  Run Mud Solids% 
 DFV .spqt               80.00:  Mud Viscosity 
 MWOD.in                  8.00:  MWD Tool OD 
 MWSI.                     Yes:  Serv Intrp, MWD 
 OTIM.hr                180.00:  Time Operating 
 PCON.           Look Like New:  Pad Condition 
 PMAX.psia             9910.94:  Press Op, Max 
 PV  .cP                 35.00:  Mud PV 
 RUN .                    1000:  Run Number 
 ROPA.m/hr               18.00:  ROP Avg 
 ROPN.m/hr                8.00:  ROP Min 
 ROPX.m/hr               23.00:  ROP Max 
 RPMA.rpm               150.00:  RPM Surface Avg 
 RPMN.rpm               120.00:  RPM Surface Min 
 RPMX.rpm               160.00:  RPM Surface Max 
 RRUN.                    L503:  Rig Run Number 
 RTIM.hr                  5.00:  Time Reaming 
 SAZI.deg               298.42:  Azm, Start 
 SDEP.m                3870.00:  Start Depth 
 SIDD.                      No:  Serv Intrp, DD 
 SINC.deg                69.57:  Inc, Start 
 SPPA.psig             5500.00:  SPP Avg 
 SPPN.psig             4400.00:  SPP Min 
 SPPX.psig             5800.00:  SPP Max 
 STIM.      15.29.39 09-Sep-21:  Start Time 
 SVCS.                 DD, MWD:  Services 
 SVER.                    9.20:  Sperry Version 
 TDAT.m                5260.00:  Tot Depth Attmp 
 TDDF.                      No:  Trip for DD 
 TDLG.m                1390.00:  Tot Depth Loggd 
 TFF .                      No:  Trip for Fail 
 TQAA.f-kp               22.00:  Torque Abs Avg 
 TQAN.f-kp               13.00:  Torque Abs Min 
 TQAX.f-kp               27.00:  Torque Abs Max 
 TRRT.°/30m               1.60:  Turn Rotating 
 MRT .                  EWR-M5:  Maximum Recorded Temperature 
 TTMX.degC               92.00:  Max Tool Temp 
 VS01.                12330975:  Virtual Str1 SN 
 VS02.                90658671:  Virtual Str2 SN 
 VS03.                90658508:  Virtual Str3 SN 
 VS04.                90660974:  Virtual Str4 SN 
 VS05.                90654675:  Virtual Str5 SN 
 WBMN.klb                15.00:  WOB Min 
 WITN.     Alexander Yadullayev:  Customer Rep 
 WITN.           Adil Mammadov:  Customer Rep 2 
 WOBA.klb                17.00:  WOB Avg 
 WOBX.klb                18.00:  WOB Max 
 YP  .lhf2               31.00:  Yield Point 
~Curve Information Block
#MNEM.UNIT                 API CODE     Curve Description
#---------               -----------    ---------------------------
 TIME.HHMMSS            00 000 000 000:  GT Time & Date
 GTDEPTH.m              00 000 000 000:  GT Depth
 GTPQH.psia             00 000 000 000:  GT HR Quartz Pressure
 GTTQ.degC              00 000 000 000:  GT Quartz Temperature
 GTTN.NONE              00 000 000 000:  GT Test Number
 GTET.sec               00 000 000 000:  GT Elapsed Test Time
 GTTVD.m                00 000 000 000:  GT True Vertical Depth
#Other Information
#
#WARRANTY: Halliburton will use its best efforts to furnish customers with 
#accurate information and interpretations that are part of, and incident to, the services 
#provided.  However, Halliburton cannot and does not warrant the accuracy 
#or correctness of such information and interpretations.  Under no circumstances should any 
#such information or interpretation be relied upon as the sole basis for any drilling, 
#completion, production, or financial decision or any procedure involving any risk to the 
#safety of any drilling venture, drilling rig or its crew or any other third party.  The 
#Customer has full responsibility for all drilling, completion and production operation.  
#Halliburton makes no representations or warranties, either expressed or 
#implied, including, but not limited to, the implied warranties of merchantability or fitness 
#for a particular purpose, with respect to the services rendered.  In no event will 
#Halliburton be liable for failure to obtain any particular results or for 
#any damages, including, but not limited to, indirect, special or consequential damages, 
#resulting from the use of any information or interpretation provided by Halliburton.
#
~A           TIME           GTDEPTH  GTPQH  GTTQ  GTTN  GTET   GTTVD  
# ...
   06:29:41.317.17-Sep-2021 5057.00 3453.06 78.65 7.00 183.96 2583.65
   06:29:41.517.17-Sep-2021 5057.00 3453.06 78.65 7.00 184.16 2583.65
   06:29:41.717.17-Sep-2021 5057.00 3455.52 78.65 7.00 184.36 2583.65
   06:29:41.917.17-Sep-2021 5057.00 3457.02 78.65 7.00 184.56 2583.65
   06:29:42.117.17-Sep-2021 5057.00 3458.53 78.65 7.00 184.76 2583.65
   06:29:42.317.17-Sep-2021 5057.00 3459.89 78.65 7.00 184.96 2583.65
   06:29:42.517.17-Sep-2021 5057.00 3459.89 78.65 7.00 185.16 2583.65
   06:29:42.717.17-Sep-2021 5057.00 3462.93 78.65 7.00 185.36 2583.65
   06:29:42.917.17-Sep-2021 5057.00 3464.47 78.65 7.00 185.56 2583.65
   06:29:43.117.17-Sep-2021 5057.00 3466.08 78.65 7.00 185.76 2583.65
   06:29:43.317.17-Sep-2021 5057.00 3467.71 78.65 7.00 185.96 2583.65
   06:29:43.517.17-Sep-2021 5057.00 3467.71 78.65 7.00 186.16 2583.65
   06:29:43.717.17-Sep-2021 5057.00 3472.07 78.65 7.00 186.36 2583.65
   06:29:43.917.17-Sep-2021 5057.00 3473.97 78.65 7.00 186.56 2583.65
   06:29:44.117.17-Sep-2021 5057.00 3474.91 78.65 7.00 186.76 2583.65
   06:29:44.317.17-Sep-2021 5057.00 3476.11 78.65 7.00 186.96 2583.65
   06:29:44.517.17-Sep-2021 5057.00 3476.11 78.65 7.00 187.16 2583.65
   06:29:44.717.17-Sep-2021 5057.00 3479.17 78.65 7.00 187.36 2583.65
   06:29:44.917.17-Sep-2021 5057.00 3480.58 78.65 7.00 187.56 2583.65
   06:29:45.117.17-Sep-2021 5057.00 3481.73 78.65 7.00 187.76 2583.65
   06:29:45.317.17-Sep-2021 5057.00 3483.14 78.65 7.00 187.96 2583.65
   06:29:45.517.17-Sep-2021 5057.00 3483.14 78.65 7.00 188.16 2583.65
   06:29:45.717.17-Sep-2021 5057.00 3487.05 78.65 7.00 188.36 2583.65
   06:29:45.917.17-Sep-2021 5057.00 3488.74 78.65 7.00 188.56 2583.65
   06:29:46.116.17-Sep-2021 5057.00 3490.16 78.65 7.00 188.76 2583.65
   06:29:46.316.17-Sep-2021 5057.00 3491.41 78.65 7.00 188.96 2583.65
   06:29:46.516.17-Sep-2021 5057.00 3491.41 78.65 7.00 189.16 2583.65
   06:29:46.716.17-Sep-2021 5057.00 3494.88 78.65 7.00 189.36 2583.65
   06:29:46.916.17-Sep-2021 5057.00 3496.68 78.65 7.00 189.56 2583.65
   06:29:47.116.17-Sep-2021 5057.00 3497.68 78.65 7.00 189.76 2583.65
   06:29:47.316.17-Sep-2021 5057.00 3499.05 78.65 7.00 189.96 2583.65
   06:29:47.516.17-Sep-2021 5057.00 3499.05 78.65 7.00 190.16 2583.65
   06:29:47.716.17-Sep-2021 5057.00 3501.78 78.65 7.00 190.36 2583.65
   06:29:47.916.17-Sep-2021 5057.00 3502.88 78.65 7.00 190.56 2583.65
   06:29:48.116.17-Sep-2021 5057.00 3504.20 78.65 7.00 190.76 2583.65
   06:29:48.316.17-Sep-2021 5057.00 3505.52 78.65 7.00 190.96 2583.65
   06:29:48.516.17-Sep-2021 5057.00 3505.52 78.65 7.00 191.16 2583.65
   06:29:48.716.17-Sep-2021 5057.00 3508.09 78.65 7.00 191.36 2583.65
   06:29:48.916.17-Sep-2021 5057.00 3509.62 78.65 7.00 191.56 2583.65
   06:29:49.116.17-Sep-2021 5057.00 3511.01 78.65 7.00 191.76 2583.65
   06:29:49.316.17-Sep-2021 5057.00 3512.51 78.65 7.00 191.96 2583.65
   06:29:49.516.17-Sep-2021 5057.00 3512.51 78.65 7.00 192.16 2583.65
   06:29:49.716.17-Sep-2021 5057.00 3515.76 78.65 7.00 192.36 2583.65
   06:29:49.916.17-Sep-2021 5057.00 3518.50 78.65 7.00 192.56 2583.65
   06:29:50.116.17-Sep-2021 5057.00 3520.40 78.65 7.00 192.76 2583.65
   06:29:50.316.17-Sep-2021 5057.00 3521.38 78.65 7.00 192.96 2583.65
   06:29:50.516.17-Sep-2021 5057.00 3521.38 78.65 7.00 193.16 2583.65
   06:29:50.715.17-Sep-2021 5057.00 3524.15 78.65 7.00 193.36 2583.65
   06:29:50.915.17-Sep-2021 5057.00 3525.38 78.65 7.00 193.56 2583.65
   06:29:51.115.17-Sep-2021 5057.00 3526.64 78.65 7.00 193.76 2583.65
   06:29:51.315.17-Sep-2021 5057.00 3528.10 78.65 7.00 193.96 2583.65
   06:29:51.515.17-Sep-2021 5057.00 3528.10 78.65 7.00 194.16 2583.65
   06:29:51.715.17-Sep-2021 5057.00 3530.79 78.65 7.00 194.36 2583.65
   06:29:51.915.17-Sep-2021 5057.00 3532.17 78.65 7.00 194.56 2583.65
   06:29:52.115.17-Sep-2021 5057.00 3533.54 78.65 7.00 194.76 2583.65
   06:29:52.315.17-Sep-2021 5057.00 3534.83 78.65 7.00 194.96 2583.65
   06:29:52.515.17-Sep-2021 5057.00 3534.83 78.65 7.00 195.16 2583.65
   06:29:52.715.17-Sep-2021 5057.00 3537.87 78.65 7.00 195.36 2583.65
   06:29:52.915.17-Sep-2021 5057.00 3539.41 78.65 7.00 195.56 2583.65
   06:29:53.115.17-Sep-2021 5057.00 3541.84 78.65 7.00 195.76 2583.65
   06:29:53.315.17-Sep-2021 5057.00 3543.79 78.65 7.00 195.96 2583.65
   06:29:53.515.17-Sep-2021 5057.00 3543.79 78.65 7.00 196.16 2583.65
   06:29:53.715.17-Sep-2021 5057.00 3546.18 78.65 7.00 196.36 2583.65
   06:29:53.915.17-Sep-2021 5057.00 3547.51 78.65 7.00 196.56 2583.65
   06:29:54.115.17-Sep-2021 5057.00 3548.67 78.65 7.00 196.76 2583.65
   06:29:54.315.17-Sep-2021 5057.00 3550.33 78.65 7.00 196.96 2583.65
   06:29:54.515.17-Sep-2021 5057.00 3550.33 78.65 7.00 197.16 2583.65
   06:29:54.715.17-Sep-2021 5057.00 3553.60 78.65 7.00 197.36 2583.65
   06:29:54.915.17-Sep-2021 5057.00 3554.92 78.65 7.00 197.56 2583.65
   06:29:55.115.17-Sep-2021 5057.00 3556.82 78.65 7.00 197.76 2583.65
   06:29:55.315.17-Sep-2021 5057.00 3557.81 78.65 7.00 197.96 2583.65
   06:29:55.514.17-Sep-2021 5057.00 3557.81 78.65 7.00 198.16 2583.65
   06:29:55.714.17-Sep-2021 5057.00 3560.68 78.65 7.00 198.36 2583.65
   06:29:55.914.17-Sep-2021 5057.00 3561.82 78.65 7.00 198.56 2583.65
   06:29:56.114.17-Sep-2021 5057.00 3563.07 78.65 7.00 198.76 2583.65
   06:29:56.314.17-Sep-2021 5057.00 3564.09 78.65 7.00 198.96 2583.65
   06:29:56.514.17-Sep-2021 5057.00 3564.09 78.65 7.00 199.16 2583.65
   06:29:56.714.17-Sep-2021 5057.00 3567.40 78.65 7.00 199.36 2583.65
   06:29:56.914.17-Sep-2021 5057.00 3568.74 78.65 7.00 199.56 2583.65
   06:29:57.114.17-Sep-2021 5057.00 3446.68 78.65 7.00 199.76 2583.65
   06:29:57.314.17-Sep-2021 5057.00 3077.87 78.65 7.00 199.96 2583.65
   06:29:57.514.17-Sep-2021 5057.00 3077.87 78.65 7.00 200.16 2583.65
   06:29:57.714.17-Sep-2021 5057.00 2341.35 78.65 7.00 200.36 2583.65
   06:29:57.914.17-Sep-2021 5057.00 2030.67 78.65 7.00 200.56 2583.65
   06:29:58.114.17-Sep-2021 5057.00 1751.56 78.65 7.00 200.76 2583.65
   06:29:58.314.17-Sep-2021 5057.00 1566.21 78.65 7.00 200.96 2583.65
   06:29:58.514.17-Sep-2021 5057.00 1566.21 78.65 7.00 201.16 2583.65
   06:29:58.714.17-Sep-2021 5057.00 1440.54 78.65 7.00 201.36 2583.65
   06:29:58.914.17-Sep-2021 5057.00 1417.34 78.65 7.00 201.56 2583.65
   06:29:59.114.17-Sep-2021 5057.00 1420.35 78.65 7.00 201.76 2583.65
   06:29:59.314.17-Sep-2021 5057.00 1418.79 78.64 7.00 201.96 2583.65
   06:29:59.514.17-Sep-2021 5057.00 1418.79 78.64 7.00 202.16 2583.65
   06:29:59.714.17-Sep-2021 5057.00 1392.79 78.64 7.00 202.36 2583.65
   06:29:59.914.17-Sep-2021 5057.00 1348.32 78.64 7.00 202.56 2583.65
   06:30:00.113.17-Sep-2021 5057.00 1330.65 78.64 7.00 202.76 2583.65
   06:30:00.313.17-Sep-2021 5057.00 1311.96 78.64 7.00 202.96 2583.65
   06:30:00.513.17-Sep-2021 5057.00 1311.96 78.64 7.00 203.16 2583.65
   06:30:00.713.17-Sep-2021 5057.00 1210.28 78.63 7.00 203.36 2583.65
   06:30:00.913.17-Sep-2021 5057.00 1143.41 78.63 7.00 203.56 2583.65
   06:30:01.113.17-Sep-2021 5057.00 1075.53 78.63 7.00 203.76 2583.65
   06:30:01.313.17-Sep-2021 5057.00 1045.25 78.63 7.00 203.96 2583.65
   06:30:01.513.17-Sep-2021 5057.00 1045.25 78.63 7.00 204.16 2583.65
   06:30:01.713.17-Sep-2021 5057.00  980.42 78.63 7.00 204.36 2583.65
   06:30:01.913.17-Sep-2021 5057.00  973.71 78.62 7.00 204.56 2583.65
   06:30:02.113.17-Sep-2021 5057.00  976.22 78.62 7.00 204.76 2583.65
   06:30:02.313.17-Sep-2021 5057.00  982.64 78.62 7.00 204.96 2583.65
   06:30:02.513.17-Sep-2021 5057.00  982.64 78.62 7.00 205.16 2583.65
   06:30:02.713.17-Sep-2021 5057.00  945.15 78.62 7.00 205.36 2583.65
   06:30:02.913.17-Sep-2021 5057.00  924.57 78.62 7.00 205.56 2583.65
   06:30:03.113.17-Sep-2021 5057.00  889.70 78.61 7.00 205.76 2583.65
   06:30:03.313.17-Sep-2021 5057.00  865.15 78.61 7.00 205.96 2583.65
   06:30:03.513.17-Sep-2021 5057.00  865.15 78.61 7.00 206.16 2583.65
   06:30:03.713.17-Sep-2021 5057.00  803.21 78.61 7.00 206.36 2583.65
   06:30:03.913.17-Sep-2021 5057.00  760.65 78.61 7.00 206.56 2583.65
   06:30:04.113.17-Sep-2021 5057.00  708.81 78.60 7.00 206.76 2583.65
