~Version Information
 VERS.                  2.0:   CWLS log ASCII Standard -VERSION 2.0
 WRAP.                   NO:   One line per depth step
~Well Information Block
#MNEM.UNIT     VALUE/NAME     DESCRIPTION
#---------     -----------    ---------------------------
 STRT.S             05:03:12 17-Sep-21: START TIME 05:03:12 17-Sep-21
 STOP.S             05:12:54 17-Sep-21: STOP TIME  05:12:54 17-Sep-21
 STEP.S                   0.00: STEP TIME
 NULL.                 -999.25: NULL VALUE
 DFWT.                        :  DIST FWL TEXT
 DFST.                        :  DIST FSL TEXT
 DMF .             Drill Floor:  DRILL MEAS FROM
 STIM.      10.59.12 05-Jul-21:  START TIME
 DATE.      10.59.12 10-Sep-21:  END TIME
 SPUD.               05-Jul-21:  SPUD DATE
 NREF.                    Grid:  NORTH REFERENCE
 HPTY.       Minimum Curvature:  HOLE POS TYPE
 DMOD.             Drill Model:  DRILL MOD DESC
 SVYD.                  Survey:  SURVEY DESC
 ILTD.               Lithology:  INTERP LTH DESC
 FTOP.          Formation Tops:  FORM TOPS DESC
 RIG .                     DWG:  RIG NAME
 PDAT.          Mean Sea Level:  PERMANENT DATUM
 FLD .                     ACG:  FIELD NAME
 SON .        AZ-XX-0907115008:  JOB NUMBER
 CTRY.              Azerbaijan:  COUNTRY NAME
 WELL.                    E35A:  WELL NAME
 SRVC.          TURAN DRILLING:  CONTRACTOR
 COMP.     BP Exploration (Caspian Sea LTD):  COMPANY
 UWI .                     N/A:  UNIQUE WELL IDENTIFIER
 API .                     N/A:  API NUMBER
 MDS .        Operator Entered:  MAG DATA SOURCE
 BASE.              Azerbaijan:  LOGGING EQUIPMENT BASE LOCATION
 REGN.                   EESSA:  REGION
 PROV.                    Baku:  PROVINCE
 STAT.                    Baku:  STATE NAME
 MWDS.                    Baku:  MWD SHOP
 JOBN.        AZ-XX-0907115008:  JOB TICKET NUMB
 DOE .                     N/A:  DOE NUMBER
 DCON.         Sperry Drilling:  DIRECTNL CONTR
 UNIT.                     N/A:  LOGGING EQUIPMENT ID
 WTYP.                Deviated:  WELL TYPE
 CNTY.                        :  COUNTY
 LOC .                        :  LOCATION
 LMF .             Drill Floor:  LOG MEASURED FROM
 TVDS.m                  43.16:  TVDSS CORRECTN
 LATI.deg                40.17:  LATITUDE
 LONG.deg                51.17:  LONGITUDE
 WHNS.m                  10.51:  WELL HEAD N/S
 WHEW.m                 -14.82:  WELL HEAD E/W
 UTMX.m              514336.92:  UTM X
 UTMY.m             4448618.56:  UTM Y
 DFWL.m                   0.00:  DISTANCE FWL
 DFSL.m                   0.00:  DISTANCE FSL
 SDEP.m                 849.00:  START DEPTH
 TDD .m                2862.00:  TOTAL DEPTH (DRILLER)
 VSDR.deg               292.10:  VERT SEC DIRECT
 GVFD.g                   1.00:  GRAVITY FIELD
 MFLD.nT              50382.00:  MAGNETIC FIELD
 MDIP.deg                59.68:  MAGNETIC DIP
 MDEC.deg                 6.66:  MAGNETIC DECL
 GRDC.deg                 0.09:  GRID CORRECTION
 AZTC.deg                 6.57:  AZM TOTAL CORR
 EPD .m                   0.00:  ELEVATION
 EGL .m                   0.00:  GROUND ELEVATION
 WDMS.m                 176.20:  WD ELEV
 APD .m                  43.16:  DEPTH ABOVE PD
 DEP .m                 363.42:  DEPTH
 AGAP.m                  43.16:  AIR GAP
 VSEW.m                 -14.82:  VERT SEC E/W
 VSNS.m                  10.51:  VERT SEC N/S
 EKB .m                  43.16:  KB ELEVATION
 EDF .m                  43.16:  DF ELEVATION
 TDL .m                1390.00:  TOTAL DEPTH (LOGGER)
 VSC .                       0:  VS TO CLOSURE
 MAGU.                 1855871:  MAGUTM CHECKSUM
~Parameter Information Block
#MNEM.UNIT       Value        Description
#---------     -----------    ---------------------------
 AV  .mps                 2.28:  Ann Velocity 
 AVMX.mps                 2.67:  Max Ann Veloc 
 AZIF.deg               305.00:  Azm, Final 
 BHAT.        Rotary Steerable:  BHA Type 
 BROT.°/30m               0.45:  Build Rotating 
 BS  .in                 12.25:  Bit Size 
 BSZ .in                 12.25:  Bit Size 
 BTPL.psig              600.00:  Bit Press Loss 
 CABU.                     Yes:  Customer Abuse 
 COMM.                     äÏF:  Run Comments 1 
 TCS .hr                150.00:  Time Ciculation Ended 
 CV  .mps                 1.24:  Crit Velocity 
 CVMX.mps                 1.66:  Max Crit Veloc 
 DD1 .         Intigam Rahimov:  Direct Drillr 1 
 DD2 .            Azer Ravavov:  Direct Drillr 2 
 DD3 .              Samir Abas:  Direct Drillr 3 
 DDSV.               Geo-Pilot:  DD Service 
 DEFF.%                 100.00:  % Det Eff 
 DLRX.°/30m               1.57:  Dogleg Rot Max 
 DLSO.°/30m               0.00:  Dogleg Oriented 
 DLSX.°/30m               0.00:  Dogleg Str Max 
 DRET.      20.28.06 17-Sep-21:  Drill End Time 
 DRST.      20.27.35 10-Sep-21:  Drill Start Tim 
 DTIM.hr                 54.00:  Time Drilling 
 EDEP.m                5260.00:  End Depth 
 ENG1.      Bakhtiyar Jabbarli:  Engineer 1 
 ENG2.      Natik Hasanaghayev:  Engineer 2 
 ENG3.           Royal Nasirov:  Engineer 3 
 ETIM.      20.27.55 18-Sep-21:  End Time 
 FLOI.gpm              1100.00:  Flow In 
 FLON.gpm               800.00:  Flow In Min 
 FLOS.cptm                0.00:  Fluid Loss 
 FLOX.gpm              1200.00:  Flow In Max 
 DFT .        Mineral Oil Base:  Mud Type 
 HPRE.                      No:  High Pressure 
 HTEM.                      No:  High Temp 
 HYDO.m                   1.80:  Hydro Offset 
 IFIN.deg                72.31:  Inc, Final 
 IMAX.deg                72.36:  Inc Max 
 IMIN.deg                69.36:  Inc Min 
 IMND.m                4192.96:  Inc Min Depth 
 IMXD.m                5128.36:  Inc Max Depth 
 JARR.                      No:  Jarring 
 LETM.      20.29.00 17-Sep-21:  Log End Time 
 LOST.hr                     0:  Lost Rig Time 
 LSTM.      20.27.00 10-Sep-21:  Log Start Time 
 MDCL.ppm            227000.00:  Mud Chlorides 
 MDES.     Inversion Oil/Synthetic:  Mud Desc 
 DFD .sg                  1.45:  Mud Density 
 MDMN.sg                  1.45:  Dens Mud Min 
 MDMX.sg                  1.45:  Dens Mud Max 
 MOIL.                    70.5:  Run Mud Oil % 
 MOWR.                   71:29:  Run Mud OWR 
 MSND.                     0.3:  Run Mud Sand % 
 MSOL.                    19.8:  Run Mud Solids% 
 DFV .spqt               80.00:  Mud Viscosity 
 MWOD.in                  8.00:  MWD Tool OD 
 MWSI.                     Yes:  Serv Intrp, MWD 
 OTIM.hr                180.00:  Time Operating 
 PCON.           Look Like New:  Pad Condition 
 PMAX.psia             9910.94:  Press Op, Max 
 PV  .cP                 35.00:  Mud PV 
 RUN .                    1000:  Run Number 
 ROPA.m/hr               18.00:  ROP Avg 
 ROPN.m/hr                8.00:  ROP Min 
 ROPX.m/hr               23.00:  ROP Max 
 RPMA.rpm               150.00:  RPM Surface Avg 
 RPMN.rpm               120.00:  RPM Surface Min 
 RPMX.rpm               160.00:  RPM Surface Max 
 RRUN.                    L503:  Rig Run Number 
 RTIM.hr                  5.00:  Time Reaming 
 SAZI.deg               298.42:  Azm, Start 
 SDEP.m                3870.00:  Start Depth 
 SIDD.                      No:  Serv Intrp, DD 
 SINC.deg                69.57:  Inc, Start 
 SPPA.psig             5500.00:  SPP Avg 
 SPPN.psig             4400.00:  SPP Min 
 SPPX.psig             5800.00:  SPP Max 
 STIM.      15.29.39 09-Sep-21:  Start Time 
 SVCS.                 DD, MWD:  Services 
 SVER.                    9.20:  Sperry Version 
 TDAT.m                5260.00:  Tot Depth Attmp 
 TDDF.                      No:  Trip for DD 
 TDLG.m                1390.00:  Tot Depth Loggd 
 TFF .                      No:  Trip for Fail 
 TQAA.f-kp               22.00:  Torque Abs Avg 
 TQAN.f-kp               13.00:  Torque Abs Min 
 TQAX.f-kp               27.00:  Torque Abs Max 
 TRRT.°/30m               1.60:  Turn Rotating 
 MRT .                  EWR-M5:  Maximum Recorded Temperature 
 TTMX.degC               92.00:  Max Tool Temp 
 VS01.                12330975:  Virtual Str1 SN 
 VS02.                90658671:  Virtual Str2 SN 
 VS03.                90658508:  Virtual Str3 SN 
 VS04.                90660974:  Virtual Str4 SN 
 VS05.                90654675:  Virtual Str5 SN 
 WBMN.klb                15.00:  WOB Min 
 WITN.     Alexander Yadullayev:  Customer Rep 
 WITN.           Adil Mammadov:  Customer Rep 2 
 WOBA.klb                17.00:  WOB Avg 
 WOBX.klb                18.00:  WOB Max 
 YP  .lhf2               31.00:  Yield Point 
~Curve Information Block
#MNEM.UNIT                 API CODE     Curve Description
#---------               -----------    ---------------------------
 TIME.HHMMSS            00 000 000 000:  GT Time & Date
 GTDEPTH.m              00 000 000 000:  GT Depth
 GTPQH.psia             00 000 000 000:  GT HR Quartz Pressure
 GTTQ.degC              00 000 000 000:  GT Quartz Temperature
 GTTN.NONE              00 000 000 000:  GT Test Number
 GTET.sec               00 000 000 000:  GT Elapsed Test Time
 GTTVD.m                00 000 000 000:  GT True Vertical Depth
#Other Information
#
#WARRANTY: Halliburton will use its best efforts to furnish customers with 
#accurate information and interpretations that are part of, and incident to, the services 
#provided.  However, Halliburton cannot and does not warrant the accuracy 
#or correctness of such information and interpretations.  Under no circumstances should any 
#such information or interpretation be relied upon as the sole basis for any drilling, 
#completion, production, or financial decision or any procedure involving any risk to the 
#safety of any drilling venture, drilling rig or its crew or any other third party.  The 
#Customer has full responsibility for all drilling, completion and production operation.  
#Halliburton makes no representations or warranties, either expressed or 
#implied, including, but not limited to, the implied warranties of merchantability or fitness 
#for a particular purpose, with respect to the services rendered.  In no event will 
#Halliburton be liable for failure to obtain any particular results or for 
#any damages, including, but not limited to, indirect, special or consequential damages, 
#resulting from the use of any information or interpretation provided by Halliburton.
#
~A           TIME           GTDEPTH  GTPQH  GTTQ  GTTN  GTET   GTTVD  
   05:03:12.857.17-Sep-2021 5093.53 5565.71 79.37 5.00   0.00 2594.99
   05:03:13.057.17-Sep-2021 5093.53 5565.71 79.37 5.00   0.20 2594.99
   05:03:13.258.17-Sep-2021 5093.53 5567.65 79.37 5.00   0.40 2594.99
   05:03:13.458.17-Sep-2021 5093.53 5568.13 79.37 5.00   0.60 2594.99
   05:03:13.658.17-Sep-2021 5093.53 5568.25 79.37 5.00   0.80 2594.99
   05:03:13.858.17-Sep-2021 5093.53 5568.13 79.37 5.00   1.00 2594.99
   05:03:14.058.17-Sep-2021 5093.53 5568.13 79.37 5.00   1.20 2594.99
   05:03:14.259.17-Sep-2021 5093.53 5566.06 79.37 5.00   1.40 2594.99
   05:03:14.459.17-Sep-2021 5093.53 5566.60 79.37 5.00   1.60 2594.99
   05:03:14.659.17-Sep-2021 5093.53 5563.74 79.37 5.00   1.80 2594.99
   05:03:14.859.17-Sep-2021 5093.53 5563.14 79.37 5.00   2.00 2594.99
   05:03:15.060.17-Sep-2021 5093.53 5563.14 79.37 5.00   2.20 2594.99
   05:03:15.260.17-Sep-2021 5093.53 5565.53 79.37 5.00   2.40 2594.99
   05:03:15.460.17-Sep-2021 5093.53 5561.95 79.37 5.00   2.60 2594.99
   05:03:15.660.17-Sep-2021 5093.53 5563.38 79.37 5.00   2.80 2594.99
   05:03:15.860.17-Sep-2021 5093.53 5563.66 79.37 5.00   3.00 2594.99
   05:03:16.061.17-Sep-2021 5093.53 5563.66 79.37 5.00   3.20 2594.99
   05:03:16.261.17-Sep-2021 5093.53 5564.58 79.37 5.00   3.40 2594.99
   05:03:16.461.17-Sep-2021 5093.53 5564.88 79.37 5.00   3.60 2594.99
   05:03:16.661.17-Sep-2021 5093.53 5565.50 79.37 5.00   3.80 2594.99
   05:03:16.861.17-Sep-2021 5093.53 5566.22 79.37 5.00   4.00 2594.99
   05:03:17.062.17-Sep-2021 5093.53 5566.22 79.37 5.00   4.20 2594.99
   05:03:17.262.17-Sep-2021 5093.53 5567.42 79.37 5.00   4.40 2594.99
   05:03:17.462.17-Sep-2021 5093.53 5567.93 79.37 5.00   4.60 2594.99
   05:03:17.662.17-Sep-2021 5093.53 5567.81 79.37 5.00   4.81 2594.99
   05:03:17.863.17-Sep-2021 5093.53 5567.93 79.37 5.00   5.01 2594.99
   05:03:18.063.17-Sep-2021 5093.53 5567.93 79.37 5.00   5.21 2594.99
   05:03:18.263.17-Sep-2021 5093.53 5568.14 79.37 5.00   5.41 2594.99
   05:03:18.463.17-Sep-2021 5093.53 5568.35 79.37 5.00   5.61 2594.99
   05:03:18.663.17-Sep-2021 5093.53 5568.32 79.37 5.00   5.81 2594.99
   05:03:18.864.17-Sep-2021 5093.53 5569.96 79.37 5.00   6.01 2594.99
   05:03:19.064.17-Sep-2021 5093.53 5569.96 79.37 5.00   6.21 2594.99
   05:03:19.264.17-Sep-2021 5093.53 5568.58 79.37 5.00   6.41 2594.99
   05:03:19.464.17-Sep-2021 5093.53 5567.82 79.37 5.00   6.61 2594.99
   05:03:19.665.17-Sep-2021 5093.53 5567.54 79.37 5.00   6.81 2594.99
   05:03:19.865.17-Sep-2021 5093.53 5567.70 79.37 5.00   7.01 2594.99
   05:03:20.065.17-Sep-2021 5093.53 5567.70 79.37 5.00   7.21 2594.99
   05:03:20.265.17-Sep-2021 5093.53 5568.01 79.37 5.00   7.41 2594.99
   05:03:20.465.17-Sep-2021 5093.53 5568.44 79.37 5.00   7.61 2594.99
   05:03:20.666.17-Sep-2021 5093.53 5568.75 79.37 5.00   7.81 2594.99
   05:03:20.866.17-Sep-2021 5093.53 5569.37 79.37 5.00   8.01 2594.99
   05:03:21.066.17-Sep-2021 5093.53 5569.37 79.37 5.00   8.21 2594.99
   05:03:21.266.17-Sep-2021 5093.53 5569.72 79.37 5.00   8.41 2594.99
   05:03:21.466.17-Sep-2021 5093.53 5569.83 79.37 5.00   8.61 2594.99
   05:03:21.667.17-Sep-2021 5093.53 5570.20 79.37 5.00   8.81 2594.99
   05:03:21.867.17-Sep-2021 5093.53 5569.77 79.37 5.00   9.01 2594.99
   05:03:22.067.17-Sep-2021 5093.53 5569.77 79.37 5.00   9.21 2594.99
   05:03:22.267.17-Sep-2021 5093.53 5573.61 79.37 5.00   9.41 2594.99
   05:03:22.468.17-Sep-2021 5093.53 5567.76 79.37 5.00   9.61 2594.99
   05:03:22.668.17-Sep-2021 5093.53 5570.52 79.37 5.00   9.81 2594.99
   05:03:22.868.17-Sep-2021 5093.53 5568.84 79.37 5.00  10.01 2594.99
   05:03:23.068.17-Sep-2021 5093.53 5568.84 79.37 5.00  10.21 2594.99
   05:03:23.268.17-Sep-2021 5093.53 5568.12 79.37 5.00  10.41 2594.99
   05:03:23.469.17-Sep-2021 5093.53 5569.86 79.37 5.00  10.61 2594.99
   05:03:23.669.17-Sep-2021 5093.53 5566.57 79.37 5.00  10.81 2594.99
   05:03:23.869.17-Sep-2021 5093.53 5567.51 79.37 5.00  11.01 2594.99
   05:03:24.069.17-Sep-2021 5093.53 5567.51 79.37 5.00  11.21 2594.99
   05:03:24.269.17-Sep-2021 5093.53 5565.65 79.36 5.00  11.41 2594.99
   05:03:24.470.17-Sep-2021 5093.53 5565.67 79.36 5.00  11.61 2594.99
   05:03:24.670.17-Sep-2021 5093.53 5566.58 79.36 5.00  11.81 2594.99
   05:03:24.870.17-Sep-2021 5093.53 5564.89 79.36 5.00  12.01 2594.99
   05:03:25.070.17-Sep-2021 5093.53 5564.89 79.36 5.00  12.21 2594.99
   05:03:25.271.17-Sep-2021 5093.53 5563.94 79.36 5.00  12.41 2594.99
   05:03:25.471.17-Sep-2021 5093.53 5563.98 79.36 5.00  12.61 2594.99
   05:03:25.671.17-Sep-2021 5093.53 5568.03 79.36 5.00  12.81 2594.99
   05:03:25.871.17-Sep-2021 5093.53 5562.41 79.36 5.00  13.01 2594.99
   05:03:26.071.17-Sep-2021 5093.53 5562.41 79.36 5.00  13.21 2594.99
   05:03:26.272.17-Sep-2021 5093.53 5564.75 79.36 5.00  13.41 2594.99
   05:03:26.472.17-Sep-2021 5093.53 5566.96 79.36 5.00  13.61 2594.99
   05:03:26.672.17-Sep-2021 5093.53 5565.14 79.36 5.00  13.81 2594.99
   05:03:26.872.17-Sep-2021 5093.53 5566.20 79.36 5.00  14.02 2594.99
   05:03:27.072.17-Sep-2021 5093.53 5566.20 79.36 5.00  14.22 2594.99
   05:03:27.273.17-Sep-2021 5093.53 5567.25 79.36 5.00  14.42 2594.99
   05:03:27.473.17-Sep-2021 5093.53 5564.96 79.36 5.00  14.62 2594.99
   05:03:27.673.17-Sep-2021 5093.53 5566.41 79.36 5.00  14.82 2594.99
   05:03:27.873.17-Sep-2021 5093.53 5564.81 79.36 5.00  15.02 2594.99
   05:03:28.074.17-Sep-2021 5093.53 5564.81 79.36 5.00  15.22 2594.99
   05:03:28.274.17-Sep-2021 5093.53 5564.24 79.36 5.00  15.42 2594.99
   05:03:28.474.17-Sep-2021 5093.53 5563.93 79.36 5.00  15.62 2594.99
   05:03:28.674.17-Sep-2021 5093.53 5563.72 79.36 5.00  15.82 2594.99
   05:03:28.874.17-Sep-2021 5093.53 5563.60 79.36 5.00  16.02 2594.99
   05:03:29.075.17-Sep-2021 5093.53 5563.60 79.36 5.00  16.22 2594.99
   05:03:29.275.17-Sep-2021 5093.53 5563.34 79.36 5.00  16.42 2594.99
   05:03:29.475.17-Sep-2021 5093.53 5563.15 79.36 5.00  16.62 2594.99
   05:03:29.675.17-Sep-2021 5093.53 5562.84 79.36 5.00  16.82 2594.99
   05:03:29.876.17-Sep-2021 5093.53 5562.33 79.36 5.00  17.02 2594.99
   05:03:30.076.17-Sep-2021 5093.53 5562.33 79.36 5.00  17.22 2594.99
   05:03:30.276.17-Sep-2021 5093.53 5562.43 79.36 5.00  17.42 2594.99
   05:03:30.476.17-Sep-2021 5093.53 5565.22 79.36 5.00  17.62 2594.99
   05:03:30.676.17-Sep-2021 5093.53 5562.01 79.36 5.00  17.82 2594.99
   05:03:30.877.17-Sep-2021 5093.53 5563.70 79.36 5.00  18.02 2594.99
   05:03:31.077.17-Sep-2021 5093.53 5563.70 79.36 5.00  18.22 2594.99
   05:03:31.277.17-Sep-2021 5093.53 5562.42 79.36 5.00  18.42 2594.99
   05:03:31.477.17-Sep-2021 5093.53 5562.24 79.36 5.00  18.62 2594.99
   05:03:31.677.17-Sep-2021 5093.53 5562.09 79.36 5.00  18.82 2594.99
   05:03:31.878.17-Sep-2021 5093.53 5561.87 79.36 5.00  19.02 2594.99
   05:03:32.078.17-Sep-2021 5093.53 5561.87 79.36 5.00  19.22 2594.99
   05:03:32.278.17-Sep-2021 5093.53 5561.87 79.36 5.00  19.42 2594.99
   05:03:32.478.17-Sep-2021 5093.53 5561.62 79.36 5.00  19.62 2594.99
   05:03:32.679.17-Sep-2021 5093.53 5561.26 79.36 5.00  19.82 2594.99
   05:03:32.879.17-Sep-2021 5093.53 5560.75 79.36 5.00  20.02 2594.99
   05:03:33.079.17-Sep-2021 5093.53 5560.75 79.36 5.00  20.22 2594.99
   05:03:33.279.17-Sep-2021 5093.53 5560.40 79.36 5.00  20.42 2594.99
   05:03:33.479.17-Sep-2021 5093.53 5560.07 79.36 5.00  20.62 2594.99
   05:03:33.680.17-Sep-2021 5093.53 5560.36 79.36 5.00  20.82 2594.99
   05:03:33.880.17-Sep-2021 5093.53 5564.26 79.36 5.00  21.02 2594.99
   05:03:34.080.17-Sep-2021 5093.53 5564.26 79.36 5.00  21.22 2594.99
   05:03:34.280.17-Sep-2021 5093.53 5561.64 79.36 5.00  21.42 2594.99
   05:03:34.480.17-Sep-2021 5093.53 5560.16 79.36 5.00  21.62 2594.99
   05:03:34.681.17-Sep-2021 5093.53 5560.14 79.36 5.00  21.82 2594.99
   05:03:34.881.17-Sep-2021 5093.53 5560.68 79.36 5.00  22.02 2594.99
   05:03:35.081.17-Sep-2021 5093.53 5560.68 79.36 5.00  22.22 2594.99
   05:03:35.281.17-Sep-2021 5093.53 5563.29 79.36 5.00  22.42 2594.99
   05:03:35.482.17-Sep-2021 5093.53 5560.55 79.36 5.00  22.62 2594.99
   05:03:35.682.17-Sep-2021 5093.53 5562.66 79.36 5.00  22.82 2594.99
