~Version Information
 VERS.                  2.0:   CWLS log ASCII Standard -VERSION 2.0
 WRAP.                   NO:   One line per depth step
~Well Information Block
#MNEM.UNIT     VALUE/NAME     DESCRIPTION
#---------     -----------    ---------------------------
 STRT.S             01:51:55 17-Sep-21: START TIME 01:51:55 17-Sep-21
 STOP.S             02:00:37 17-Sep-21: STOP TIME  02:00:37 17-Sep-21
 STEP.S                   0.00: STEP TIME
 NULL.                 -999.25: NULL VALUE
 DFWT.                        :  DIST FWL TEXT
 DFST.                        :  DIST FSL TEXT
 DMF .             Drill Floor:  DRILL MEAS FROM
 STIM.      10.59.12 05-Jul-21:  START TIME
 DATE.      10.59.12 10-Sep-21:  END TIME
 SPUD.               05-Jul-21:  SPUD DATE
 NREF.                    Grid:  NORTH REFERENCE
 HPTY.       Minimum Curvature:  HOLE POS TYPE
 DMOD.             Drill Model:  DRILL MOD DESC
 SVYD.                  Survey:  SURVEY DESC
 ILTD.               Lithology:  INTERP LTH DESC
 FTOP.          Formation Tops:  FORM TOPS DESC
 RIG .                     DWG:  RIG NAME
 PDAT.          Mean Sea Level:  PERMANENT DATUM
 FLD .                     ACG:  FIELD NAME
 SON .        AZ-XX-0907115008:  JOB NUMBER
 CTRY.              Azerbaijan:  COUNTRY NAME
 WELL.                    E35A:  WELL NAME
 SRVC.          TURAN DRILLING:  CONTRACTOR
 COMP.     BP Exploration (Caspian Sea LTD):  COMPANY
 UWI .                     N/A:  UNIQUE WELL IDENTIFIER
 API .                     N/A:  API NUMBER
 MDS .        Operator Entered:  MAG DATA SOURCE
 BASE.              Azerbaijan:  LOGGING EQUIPMENT BASE LOCATION
 REGN.                   EESSA:  REGION
 PROV.                    Baku:  PROVINCE
 STAT.                    Baku:  STATE NAME
 MWDS.                    Baku:  MWD SHOP
 JOBN.        AZ-XX-0907115008:  JOB TICKET NUMB
 DOE .                     N/A:  DOE NUMBER
 DCON.         Sperry Drilling:  DIRECTNL CONTR
 UNIT.                     N/A:  LOGGING EQUIPMENT ID
 WTYP.                Deviated:  WELL TYPE
 CNTY.                        :  COUNTY
 LOC .                        :  LOCATION
 LMF .             Drill Floor:  LOG MEASURED FROM
 TVDS.m                  43.16:  TVDSS CORRECTN
 LATI.deg                40.17:  LATITUDE
 LONG.deg                51.17:  LONGITUDE
 WHNS.m                  10.51:  WELL HEAD N/S
 WHEW.m                 -14.82:  WELL HEAD E/W
 UTMX.m              514336.92:  UTM X
 UTMY.m             4448618.56:  UTM Y
 DFWL.m                   0.00:  DISTANCE FWL
 DFSL.m                   0.00:  DISTANCE FSL
 SDEP.m                 849.00:  START DEPTH
 TDD .m                2862.00:  TOTAL DEPTH (DRILLER)
 VSDR.deg               292.10:  VERT SEC DIRECT
 GVFD.g                   1.00:  GRAVITY FIELD
 MFLD.nT              50382.00:  MAGNETIC FIELD
 MDIP.deg                59.68:  MAGNETIC DIP
 MDEC.deg                 6.66:  MAGNETIC DECL
 GRDC.deg                 0.09:  GRID CORRECTION
 AZTC.deg                 6.57:  AZM TOTAL CORR
 EPD .m                   0.00:  ELEVATION
 EGL .m                   0.00:  GROUND ELEVATION
 WDMS.m                 176.20:  WD ELEV
 APD .m                  43.16:  DEPTH ABOVE PD
 DEP .m                 363.42:  DEPTH
 AGAP.m                  43.16:  AIR GAP
 VSEW.m                 -14.82:  VERT SEC E/W
 VSNS.m                  10.51:  VERT SEC N/S
 EKB .m                  43.16:  KB ELEVATION
 EDF .m                  43.16:  DF ELEVATION
 TDL .m                1390.00:  TOTAL DEPTH (LOGGER)
 VSC .                       0:  VS TO CLOSURE
 MAGU.                 1855871:  MAGUTM CHECKSUM
~Parameter Information Block
#MNEM.UNIT       Value        Description
#---------     -----------    ---------------------------
 AV  .mps                 2.28:  Ann Velocity 
 AVMX.mps                 2.67:  Max Ann Veloc 
 AZIF.deg               305.00:  Azm, Final 
 BHAT.        Rotary Steerable:  BHA Type 
 BROT.°/30m               0.45:  Build Rotating 
 BS  .in                 12.25:  Bit Size 
 BSZ .in                 12.25:  Bit Size 
 BTPL.psig              600.00:  Bit Press Loss 
 CABU.                     Yes:  Customer Abuse 
 COMM.                     ü¢v:  Run Comments 1 
 TCS .hr                150.00:  Time Ciculation Ended 
 CV  .mps                 1.24:  Crit Velocity 
 CVMX.mps                 1.66:  Max Crit Veloc 
 DD1 .         Intigam Rahimov:  Direct Drillr 1 
 DD2 .            Azer Ravavov:  Direct Drillr 2 
 DD3 .              Samir Abas:  Direct Drillr 3 
 DDSV.               Geo-Pilot:  DD Service 
 DEFF.%                 100.00:  % Det Eff 
 DLRX.°/30m               1.57:  Dogleg Rot Max 
 DLSO.°/30m               0.00:  Dogleg Oriented 
 DLSX.°/30m               0.00:  Dogleg Str Max 
 DRET.      20.28.06 17-Sep-21:  Drill End Time 
 DRST.      20.27.35 10-Sep-21:  Drill Start Tim 
 DTIM.hr                 54.00:  Time Drilling 
 EDEP.m                5260.00:  End Depth 
 ENG1.      Bakhtiyar Jabbarli:  Engineer 1 
 ENG2.      Natik Hasanaghayev:  Engineer 2 
 ENG3.           Royal Nasirov:  Engineer 3 
 ETIM.      20.27.55 18-Sep-21:  End Time 
 FLOI.gpm              1100.00:  Flow In 
 FLON.gpm               800.00:  Flow In Min 
 FLOS.cptm                0.00:  Fluid Loss 
 FLOX.gpm              1200.00:  Flow In Max 
 DFT .        Mineral Oil Base:  Mud Type 
 HPRE.                      No:  High Pressure 
 HTEM.                      No:  High Temp 
 HYDO.m                   1.80:  Hydro Offset 
 IFIN.deg                72.31:  Inc, Final 
 IMAX.deg                72.36:  Inc Max 
 IMIN.deg                69.36:  Inc Min 
 IMND.m                4192.96:  Inc Min Depth 
 IMXD.m                5128.36:  Inc Max Depth 
 JARR.                      No:  Jarring 
 LETM.      20.29.00 17-Sep-21:  Log End Time 
 LOST.hr                     0:  Lost Rig Time 
 LSTM.      20.27.00 10-Sep-21:  Log Start Time 
 MDCL.ppm            227000.00:  Mud Chlorides 
 MDES.     Inversion Oil/Synthetic:  Mud Desc 
 DFD .sg                  1.45:  Mud Density 
 MDMN.sg                  1.45:  Dens Mud Min 
 MDMX.sg                  1.45:  Dens Mud Max 
 MOIL.                    70.5:  Run Mud Oil % 
 MOWR.                   71:29:  Run Mud OWR 
 MSND.                     0.3:  Run Mud Sand % 
 MSOL.                    19.8:  Run Mud Solids% 
 DFV .spqt               80.00:  Mud Viscosity 
 MWOD.in                  8.00:  MWD Tool OD 
 MWSI.                     Yes:  Serv Intrp, MWD 
 OTIM.hr                180.00:  Time Operating 
 PCON.           Look Like New:  Pad Condition 
 PMAX.psia             9910.94:  Press Op, Max 
 PV  .cP                 35.00:  Mud PV 
 RUN .                    1000:  Run Number 
 ROPA.m/hr               18.00:  ROP Avg 
 ROPN.m/hr                8.00:  ROP Min 
 ROPX.m/hr               23.00:  ROP Max 
 RPMA.rpm               150.00:  RPM Surface Avg 
 RPMN.rpm               120.00:  RPM Surface Min 
 RPMX.rpm               160.00:  RPM Surface Max 
 RRUN.                    L503:  Rig Run Number 
 RTIM.hr                  5.00:  Time Reaming 
 SAZI.deg               298.42:  Azm, Start 
 SDEP.m                3870.00:  Start Depth 
 SIDD.                      No:  Serv Intrp, DD 
 SINC.deg                69.57:  Inc, Start 
 SPPA.psig             5500.00:  SPP Avg 
 SPPN.psig             4400.00:  SPP Min 
 SPPX.psig             5800.00:  SPP Max 
 STIM.      15.29.39 09-Sep-21:  Start Time 
 SVCS.                 DD, MWD:  Services 
 SVER.                    9.20:  Sperry Version 
 TDAT.m                5260.00:  Tot Depth Attmp 
 TDDF.                      No:  Trip for DD 
 TDLG.m                1390.00:  Tot Depth Loggd 
 TFF .                      No:  Trip for Fail 
 TQAA.f-kp               22.00:  Torque Abs Avg 
 TQAN.f-kp               13.00:  Torque Abs Min 
 TQAX.f-kp               27.00:  Torque Abs Max 
 TRRT.°/30m               1.60:  Turn Rotating 
 MRT .                  EWR-M5:  Maximum Recorded Temperature 
 TTMX.degC               92.00:  Max Tool Temp 
 VS01.                12330975:  Virtual Str1 SN 
 VS02.                90658671:  Virtual Str2 SN 
 VS03.                90658508:  Virtual Str3 SN 
 VS04.                90660974:  Virtual Str4 SN 
 VS05.                90654675:  Virtual Str5 SN 
 WBMN.klb                15.00:  WOB Min 
 WITN.     Alexander Yadullayev:  Customer Rep 
 WITN.           Adil Mammadov:  Customer Rep 2 
 WOBA.klb                17.00:  WOB Avg 
 WOBX.klb                18.00:  WOB Max 
 YP  .lhf2               31.00:  Yield Point 
~Curve Information Block
#MNEM.UNIT                 API CODE     Curve Description
#---------               -----------    ---------------------------
 TIME.HHMMSS            00 000 000 000:  GT Time & Date
 GTDEPTH.m              00 000 000 000:  GT Depth
 GTPQH.psia             00 000 000 000:  GT HR Quartz Pressure
 GTTQ.degC              00 000 000 000:  GT Quartz Temperature
 GTTN.NONE              00 000 000 000:  GT Test Number
 GTET.sec               00 000 000 000:  GT Elapsed Test Time
 GTTVD.m                00 000 000 000:  GT True Vertical Depth
#Other Information
#
#WARRANTY: Halliburton will use its best efforts to furnish customers with 
#accurate information and interpretations that are part of, and incident to, the services 
#provided.  However, Halliburton cannot and does not warrant the accuracy 
#or correctness of such information and interpretations.  Under no circumstances should any 
#such information or interpretation be relied upon as the sole basis for any drilling, 
#completion, production, or financial decision or any procedure involving any risk to the 
#safety of any drilling venture, drilling rig or its crew or any other third party.  The 
#Customer has full responsibility for all drilling, completion and production operation.  
#Halliburton makes no representations or warranties, either expressed or 
#implied, including, but not limited to, the implied warranties of merchantability or fitness 
#for a particular purpose, with respect to the services rendered.  In no event will 
#Halliburton be liable for failure to obtain any particular results or for 
#any damages, including, but not limited to, indirect, special or consequential damages, 
#resulting from the use of any information or interpretation provided by Halliburton.
#
~A           TIME           GTDEPTH  GTPQH  GTTQ  GTTN  GTET   GTTVD  
# ...
   01:57:40.000.17-Sep-2021 5127.00 5568.78 79.85 1.00 345.00 2605.20
   01:57:40.200.17-Sep-2021 5127.00 5568.78 79.85 1.00 345.20 2605.20
   01:57:40.400.17-Sep-2021 5127.00 5568.33 79.85 1.00 345.40 2605.20
   01:57:40.600.17-Sep-2021 5127.00 5568.43 79.85 1.00 345.60 2605.20
   01:57:40.800.17-Sep-2021 5127.00 5568.25 79.85 1.00 345.80 2605.20
   01:57:41.000.17-Sep-2021 5127.00 5567.88 79.85 1.00 346.00 2605.20
   01:57:41.200.17-Sep-2021 5127.00 5567.88 79.85 1.00 346.20 2605.20
   01:57:41.400.17-Sep-2021 5127.00 5567.59 79.85 1.00 346.40 2605.20
   01:57:41.600.17-Sep-2021 5127.00 5567.54 79.85 1.00 346.60 2605.20
   01:57:41.800.17-Sep-2021 5127.00 5567.61 79.85 1.00 346.80 2605.20
   01:57:42.000.17-Sep-2021 5127.00 5567.64 79.85 1.00 347.00 2605.20
   01:57:42.200.17-Sep-2021 5127.00 5567.64 79.85 1.00 347.20 2605.20
   01:57:42.400.17-Sep-2021 5127.00 5567.66 79.85 1.00 347.40 2605.20
   01:57:42.600.17-Sep-2021 5127.00 5567.86 79.85 1.00 347.60 2605.20
   01:57:42.800.17-Sep-2021 5127.00 5568.06 79.85 1.00 347.80 2605.20
   01:57:43.000.17-Sep-2021 5127.00 5568.28 79.85 1.00 348.00 2605.20
   01:57:43.200.17-Sep-2021 5127.00 5568.28 79.85 1.00 348.20 2605.20
   01:57:43.400.17-Sep-2021 5127.00 5567.78 79.85 1.00 348.40 2605.20
   01:57:43.600.17-Sep-2021 5127.00 5568.95 79.85 1.00 348.60 2605.20
   01:57:43.800.17-Sep-2021 5127.00 5568.71 79.85 1.00 348.80 2605.20
   01:57:44.000.17-Sep-2021 5127.00 5568.38 79.85 1.00 349.00 2605.20
   01:57:44.200.17-Sep-2021 5127.00 5568.38 79.85 1.00 349.20 2605.20
   01:57:44.400.17-Sep-2021 5127.00 5569.30 79.85 1.00 349.40 2605.20
   01:57:44.600.17-Sep-2021 5127.00 5567.91 79.85 1.00 349.60 2605.20
   01:57:44.800.17-Sep-2021 5127.00 5567.68 79.85 1.00 349.80 2605.20
   01:57:45.000.17-Sep-2021 5127.00 5567.41 79.85 1.00 350.00 2605.20
   01:57:45.200.17-Sep-2021 5127.00 5567.41 79.85 1.00 350.20 2605.20
   01:57:45.400.17-Sep-2021 5127.00 5568.59 79.85 1.00 350.40 2605.20
   01:57:45.600.17-Sep-2021 5127.00 5567.47 79.85 1.00 350.60 2605.20
   01:57:45.800.17-Sep-2021 5127.00 5567.98 79.85 1.00 350.80 2605.20
   01:57:46.000.17-Sep-2021 5127.00 5567.39 79.85 1.00 351.00 2605.20
   01:57:46.200.17-Sep-2021 5127.00 5567.39 79.85 1.00 351.20 2605.20
   01:57:46.400.17-Sep-2021 5127.00 5569.66 79.85 1.00 351.40 2605.20
   01:57:46.600.17-Sep-2021 5127.00 5567.33 79.85 1.00 351.60 2605.20
   01:57:46.800.17-Sep-2021 5127.00 5568.45 79.85 1.00 351.80 2605.20
   01:57:47.000.17-Sep-2021 5127.00 5567.79 79.85 1.00 352.00 2605.20
   01:57:47.200.17-Sep-2021 5127.00 5567.79 79.85 1.00 352.20 2605.20
   01:57:47.400.17-Sep-2021 5127.00 5567.75 79.85 1.00 352.40 2605.20
   01:57:47.600.17-Sep-2021 5127.00 5567.80 79.85 1.00 352.60 2605.20
   01:57:47.800.17-Sep-2021 5127.00 5567.64 79.85 1.00 352.80 2605.20
   01:57:48.000.17-Sep-2021 5127.00 5567.38 79.85 1.00 353.00 2605.20
   01:57:48.200.17-Sep-2021 5127.00 5567.38 79.85 1.00 353.20 2605.20
   01:57:48.400.17-Sep-2021 5127.00 5567.45 79.85 1.00 353.40 2605.20
   01:57:48.600.17-Sep-2021 5127.00 5567.76 79.85 1.00 353.60 2605.20
   01:57:48.800.17-Sep-2021 5127.00 5567.87 79.85 1.00 353.80 2605.20
   01:57:49.000.17-Sep-2021 5127.00 5567.83 79.85 1.00 354.00 2605.20
   01:57:49.200.17-Sep-2021 5127.00 5567.83 79.85 1.00 354.20 2605.20
   01:57:49.400.17-Sep-2021 5127.00 5568.43 79.85 1.00 354.40 2605.20
   01:57:49.600.17-Sep-2021 5127.00 5569.20 79.85 1.00 354.60 2605.20
   01:57:49.800.17-Sep-2021 5127.00 5569.95 79.85 1.00 354.80 2605.20
   01:57:50.000.17-Sep-2021 5127.00 5569.22 79.85 1.00 355.00 2605.20
   01:57:50.200.17-Sep-2021 5127.00 5569.22 79.85 1.00 355.20 2605.20
   01:57:50.400.17-Sep-2021 5127.00 5569.24 79.85 1.00 355.40 2605.20
   01:57:50.600.17-Sep-2021 5127.00 5568.84 79.85 1.00 355.60 2605.20
   01:57:50.800.17-Sep-2021 5127.00 5568.71 79.85 1.00 355.80 2605.20
   01:57:51.000.17-Sep-2021 5127.00 5568.64 79.85 1.00 356.00 2605.20
   01:57:51.200.17-Sep-2021 5127.00 5568.64 79.85 1.00 356.20 2605.20
   01:57:51.400.17-Sep-2021 5127.00 5568.48 79.85 1.00 356.40 2605.20
   01:57:51.600.17-Sep-2021 5127.00 5568.49 79.85 1.00 356.60 2605.20
   01:57:51.800.17-Sep-2021 5127.00 5568.53 79.85 1.00 356.80 2605.20
   01:57:52.000.17-Sep-2021 5127.00 5568.55 79.85 1.00 357.00 2605.20
   01:57:52.200.17-Sep-2021 5127.00 5568.55 79.85 1.00 357.20 2605.20
   01:57:52.400.17-Sep-2021 5127.00 5568.73 79.85 1.00 357.40 2605.20
   01:57:52.600.17-Sep-2021 5127.00 5568.84 79.85 1.00 357.60 2605.20
   01:57:52.800.17-Sep-2021 5127.00 5569.03 79.85 1.00 357.80 2605.20
   01:57:53.000.17-Sep-2021 5127.00 5569.73 79.85 1.00 358.00 2605.20
   01:57:53.200.17-Sep-2021 5127.00 5569.73 79.85 1.00 358.20 2605.20
   01:57:53.400.17-Sep-2021 5127.00 5569.40 79.85 1.00 358.40 2605.20
   01:57:53.600.17-Sep-2021 5127.00 5569.20 79.85 1.00 358.60 2605.20
   01:57:53.800.17-Sep-2021 5127.00 5569.29 79.85 1.00 358.80 2605.20
   01:57:54.000.17-Sep-2021 5127.00 5569.71 79.85 1.00 359.00 2605.20
   01:57:54.200.17-Sep-2021 5127.00 5569.71 79.85 1.00 359.20 2605.20
   01:57:54.400.17-Sep-2021 5127.00 5569.12 79.85 1.00 359.40 2605.20
   01:57:54.600.17-Sep-2021 5127.00 5568.36 79.85 1.00 359.60 2605.20
   01:57:54.800.17-Sep-2021 5127.00 5567.92 79.85 1.00 359.80 2605.20
   01:57:55.000.17-Sep-2021 5127.00 5568.11 79.85 1.00 360.00 2605.20
   01:57:55.200.17-Sep-2021 5127.00 5568.11 79.85 1.00 360.20 2605.20
   01:57:55.400.17-Sep-2021 5127.00 5568.23 79.85 1.00 360.40 2605.20
   01:57:55.600.17-Sep-2021 5127.00 5568.20 79.85 1.00 360.60 2605.20
   01:57:55.800.17-Sep-2021 5127.00 5568.11 79.85 1.00 360.80 2605.20
   01:57:56.000.17-Sep-2021 5127.00 5569.08 79.85 1.00 361.00 2605.20
   01:57:56.200.17-Sep-2021 5127.00 5569.08 79.85 1.00 361.20 2605.20
   01:57:56.400.17-Sep-2021 5127.00 5568.63 79.85 1.00 361.40 2605.20
   01:57:56.600.17-Sep-2021 5127.00 5568.47 79.85 1.00 361.60 2605.20
   01:57:56.800.17-Sep-2021 5127.00 5568.48 79.85 1.00 361.80 2605.20
   01:57:57.000.17-Sep-2021 5127.00 5568.64 79.85 1.00 362.00 2605.20
   01:57:57.200.17-Sep-2021 5127.00 5568.64 79.85 1.00 362.20 2605.20
   01:57:57.400.17-Sep-2021 5127.00 5568.64 79.85 1.00 362.40 2605.20
   01:57:57.600.17-Sep-2021 5127.00 5568.51 79.85 1.00 362.60 2605.20
   01:57:57.800.17-Sep-2021 5127.00 5568.36 79.85 1.00 362.80 2605.20
   01:57:58.000.17-Sep-2021 5127.00 5568.41 79.85 1.00 363.00 2605.20
   01:57:58.200.17-Sep-2021 5127.00 5568.41 79.85 1.00 363.20 2605.20
   01:57:58.400.17-Sep-2021 5127.00 5568.56 79.85 1.00 363.40 2605.20
   01:57:58.600.17-Sep-2021 5127.00 5568.57 79.85 1.00 363.60 2605.20
   01:57:58.800.17-Sep-2021 5127.00 5568.65 79.85 1.00 363.80 2605.20
   01:57:59.000.17-Sep-2021 5127.00 5570.19 79.85 1.00 364.00 2605.20
   01:57:59.200.17-Sep-2021 5127.00 5570.19 79.85 1.00 364.20 2605.20
   01:57:59.400.17-Sep-2021 5127.00 5569.63 79.85 1.00 364.40 2605.20
   01:57:59.600.17-Sep-2021 5127.00 5569.36 79.85 1.00 364.60 2605.20
   01:57:59.800.17-Sep-2021 5127.00 5569.07 79.85 1.00 364.80 2605.20
   01:58:00.000.17-Sep-2021 5127.00 5569.03 79.85 1.00 365.00 2605.20
   01:58:00.200.17-Sep-2021 5127.00 5569.03 79.85 1.00 365.20 2605.20
   01:58:00.400.17-Sep-2021 5127.00 5568.84 79.85 1.00 365.40 2605.20
   01:58:00.600.17-Sep-2021 5127.00 5568.71 79.85 1.00 365.60 2605.20
   01:58:00.800.17-Sep-2021 5127.00 5568.61 79.85 1.00 365.80 2605.20
   01:58:01.000.17-Sep-2021 5127.00 5568.56 79.85 1.00 366.00 2605.20
   01:58:01.200.17-Sep-2021 5127.00 5568.56 79.85 1.00 366.20 2605.20
   01:58:01.400.17-Sep-2021 5127.00 5568.52 79.85 1.00 366.40 2605.20
   01:58:01.600.17-Sep-2021 5127.00 5568.53 79.85 1.00 366.60 2605.20
   01:58:01.800.17-Sep-2021 5127.00 5568.57 79.85 1.00 366.80 2605.20
   01:58:02.000.17-Sep-2021 5127.00 5568.64 79.85 1.00 367.00 2605.20
   01:58:02.200.17-Sep-2021 5127.00 5568.64 79.85 1.00 367.20 2605.20
   01:58:02.400.17-Sep-2021 5127.00 5569.63 79.85 1.00 367.40 2605.20
   01:58:02.600.17-Sep-2021 5127.00 5568.57 79.85 1.00 367.60 2605.20
   01:58:02.800.17-Sep-2021 5127.00 5569.59 79.85 1.00 367.80 2605.20
