~Version Information
 VERS.                  2.0:   CWLS log ASCII Standard -VERSION 2.0
 WRAP.                   NO:   One line per depth step
~Well Information Block
#MNEM.UNIT     VALUE/NAME     DESCRIPTION
#---------     -----------    ---------------------------
 STRT.S             04:34:50 17-Sep-21: START TIME 04:34:50 17-Sep-21
 STOP.S             04:43:20 17-Sep-21: STOP TIME  04:43:20 17-Sep-21
 STEP.S                   0.00: STEP TIME
 NULL.                 -999.25: NULL VALUE
 DFWT.                        :  DIST FWL TEXT
 DFST.                        :  DIST FSL TEXT
 DMF .             Drill Floor:  DRILL MEAS FROM
 STIM.      10.59.12 05-Jul-21:  START TIME
 DATE.      10.59.12 10-Sep-21:  END TIME
 SPUD.               05-Jul-21:  SPUD DATE
 NREF.                    Grid:  NORTH REFERENCE
 HPTY.       Minimum Curvature:  HOLE POS TYPE
 DMOD.             Drill Model:  DRILL MOD DESC
 SVYD.                  Survey:  SURVEY DESC
 ILTD.               Lithology:  INTERP LTH DESC
 FTOP.          Formation Tops:  FORM TOPS DESC
 RIG .                     DWG:  RIG NAME
 PDAT.          Mean Sea Level:  PERMANENT DATUM
 FLD .                     ACG:  FIELD NAME
 SON .        AZ-XX-0907115008:  JOB NUMBER
 CTRY.              Azerbaijan:  COUNTRY NAME
 WELL.                    E35A:  WELL NAME
 SRVC.          TURAN DRILLING:  CONTRACTOR
 COMP.     BP Exploration (Caspian Sea LTD):  COMPANY
 UWI .                     N/A:  UNIQUE WELL IDENTIFIER
 API .                     N/A:  API NUMBER
 MDS .        Operator Entered:  MAG DATA SOURCE
 BASE.              Azerbaijan:  LOGGING EQUIPMENT BASE LOCATION
 REGN.                   EESSA:  REGION
 PROV.                    Baku:  PROVINCE
 STAT.                    Baku:  STATE NAME
 MWDS.                    Baku:  MWD SHOP
 JOBN.        AZ-XX-0907115008:  JOB TICKET NUMB
 DOE .                     N/A:  DOE NUMBER
 DCON.         Sperry Drilling:  DIRECTNL CONTR
 UNIT.                     N/A:  LOGGING EQUIPMENT ID
 WTYP.                Deviated:  WELL TYPE
 CNTY.                        :  COUNTY
 LOC .                        :  LOCATION
 LMF .             Drill Floor:  LOG MEASURED FROM
 TVDS.m                  43.16:  TVDSS CORRECTN
 LATI.deg                40.17:  LATITUDE
 LONG.deg                51.17:  LONGITUDE
 WHNS.m                  10.51:  WELL HEAD N/S
 WHEW.m                 -14.82:  WELL HEAD E/W
 UTMX.m              514336.92:  UTM X
 UTMY.m             4448618.56:  UTM Y
 DFWL.m                   0.00:  DISTANCE FWL
 DFSL.m                   0.00:  DISTANCE FSL
 SDEP.m                 849.00:  START DEPTH
 TDD .m                2862.00:  TOTAL DEPTH (DRILLER)
 VSDR.deg               292.10:  VERT SEC DIRECT
 GVFD.g                   1.00:  GRAVITY FIELD
 MFLD.nT              50382.00:  MAGNETIC FIELD
 MDIP.deg                59.68:  MAGNETIC DIP
 MDEC.deg                 6.66:  MAGNETIC DECL
 GRDC.deg                 0.09:  GRID CORRECTION
 AZTC.deg                 6.57:  AZM TOTAL CORR
 EPD .m                   0.00:  ELEVATION
 EGL .m                   0.00:  GROUND ELEVATION
 WDMS.m                 176.20:  WD ELEV
 APD .m                  43.16:  DEPTH ABOVE PD
 DEP .m                 363.42:  DEPTH
 AGAP.m                  43.16:  AIR GAP
 VSEW.m                 -14.82:  VERT SEC E/W
 VSNS.m                  10.51:  VERT SEC N/S
 EKB .m                  43.16:  KB ELEVATION
 EDF .m                  43.16:  DF ELEVATION
 TDL .m                1390.00:  TOTAL DEPTH (LOGGER)
 VSC .                       0:  VS TO CLOSURE
 MAGU.                 1855871:  MAGUTM CHECKSUM
~Parameter Information Block
#MNEM.UNIT       Value        Description
#---------     -----------    ---------------------------
 AV  .mps                 2.28:  Ann Velocity 
 AVMX.mps                 2.67:  Max Ann Veloc 
 AZIF.deg               305.00:  Azm, Final 
 BHAT.        Rotary Steerable:  BHA Type 
 BROT.°/30m               0.45:  Build Rotating 
 BS  .in                 12.25:  Bit Size 
 BSZ .in                 12.25:  Bit Size 
 BTPL.psig              600.00:  Bit Press Loss 
 CABU.                     Yes:  Customer Abuse 
 COMM.                     ÌN:  Run Comments 1 
 TCS .hr                150.00:  Time Ciculation Ended 
 CV  .mps                 1.24:  Crit Velocity 
 CVMX.mps                 1.66:  Max Crit Veloc 
 DD1 .         Intigam Rahimov:  Direct Drillr 1 
 DD2 .            Azer Ravavov:  Direct Drillr 2 
 DD3 .              Samir Abas:  Direct Drillr 3 
 DDSV.               Geo-Pilot:  DD Service 
 DEFF.%                 100.00:  % Det Eff 
 DLRX.°/30m               1.57:  Dogleg Rot Max 
 DLSO.°/30m               0.00:  Dogleg Oriented 
 DLSX.°/30m               0.00:  Dogleg Str Max 
 DRET.      20.28.06 17-Sep-21:  Drill End Time 
 DRST.      20.27.35 10-Sep-21:  Drill Start Tim 
 DTIM.hr                 54.00:  Time Drilling 
 EDEP.m                5260.00:  End Depth 
 ENG1.      Bakhtiyar Jabbarli:  Engineer 1 
 ENG2.      Natik Hasanaghayev:  Engineer 2 
 ENG3.           Royal Nasirov:  Engineer 3 
 ETIM.      20.27.55 18-Sep-21:  End Time 
 FLOI.gpm              1100.00:  Flow In 
 FLON.gpm               800.00:  Flow In Min 
 FLOS.cptm                0.00:  Fluid Loss 
 FLOX.gpm              1200.00:  Flow In Max 
 DFT .        Mineral Oil Base:  Mud Type 
 HPRE.                      No:  High Pressure 
 HTEM.                      No:  High Temp 
 HYDO.m                   1.80:  Hydro Offset 
 IFIN.deg                72.31:  Inc, Final 
 IMAX.deg                72.36:  Inc Max 
 IMIN.deg                69.36:  Inc Min 
 IMND.m                4192.96:  Inc Min Depth 
 IMXD.m                5128.36:  Inc Max Depth 
 JARR.                      No:  Jarring 
 LETM.      20.29.00 17-Sep-21:  Log End Time 
 LOST.hr                     0:  Lost Rig Time 
 LSTM.      20.27.00 10-Sep-21:  Log Start Time 
 MDCL.ppm            227000.00:  Mud Chlorides 
 MDES.     Inversion Oil/Synthetic:  Mud Desc 
 DFD .sg                  1.45:  Mud Density 
 MDMN.sg                  1.45:  Dens Mud Min 
 MDMX.sg                  1.45:  Dens Mud Max 
 MOIL.                    70.5:  Run Mud Oil % 
 MOWR.                   71:29:  Run Mud OWR 
 MSND.                     0.3:  Run Mud Sand % 
 MSOL.                    19.8:  Run Mud Solids% 
 DFV .spqt               80.00:  Mud Viscosity 
 MWOD.in                  8.00:  MWD Tool OD 
 MWSI.                     Yes:  Serv Intrp, MWD 
 OTIM.hr                180.00:  Time Operating 
 PCON.           Look Like New:  Pad Condition 
 PMAX.psia             9910.94:  Press Op, Max 
 PV  .cP                 35.00:  Mud PV 
 RUN .                    1000:  Run Number 
 ROPA.m/hr               18.00:  ROP Avg 
 ROPN.m/hr                8.00:  ROP Min 
 ROPX.m/hr               23.00:  ROP Max 
 RPMA.rpm               150.00:  RPM Surface Avg 
 RPMN.rpm               120.00:  RPM Surface Min 
 RPMX.rpm               160.00:  RPM Surface Max 
 RRUN.                    L503:  Rig Run Number 
 RTIM.hr                  5.00:  Time Reaming 
 SAZI.deg               298.42:  Azm, Start 
 SDEP.m                3870.00:  Start Depth 
 SIDD.                      No:  Serv Intrp, DD 
 SINC.deg                69.57:  Inc, Start 
 SPPA.psig             5500.00:  SPP Avg 
 SPPN.psig             4400.00:  SPP Min 
 SPPX.psig             5800.00:  SPP Max 
 STIM.      15.29.39 09-Sep-21:  Start Time 
 SVCS.                 DD, MWD:  Services 
 SVER.                    9.20:  Sperry Version 
 TDAT.m                5260.00:  Tot Depth Attmp 
 TDDF.                      No:  Trip for DD 
 TDLG.m                1390.00:  Tot Depth Loggd 
 TFF .                      No:  Trip for Fail 
 TQAA.f-kp               22.00:  Torque Abs Avg 
 TQAN.f-kp               13.00:  Torque Abs Min 
 TQAX.f-kp               27.00:  Torque Abs Max 
 TRRT.°/30m               1.60:  Turn Rotating 
 MRT .                  EWR-M5:  Maximum Recorded Temperature 
 TTMX.degC               92.00:  Max Tool Temp 
 VS01.                12330975:  Virtual Str1 SN 
 VS02.                90658671:  Virtual Str2 SN 
 VS03.                90658508:  Virtual Str3 SN 
 VS04.                90660974:  Virtual Str4 SN 
 VS05.                90654675:  Virtual Str5 SN 
 WBMN.klb                15.00:  WOB Min 
 WITN.     Alexander Yadullayev:  Customer Rep 
 WITN.           Adil Mammadov:  Customer Rep 2 
 WOBA.klb                17.00:  WOB Avg 
 WOBX.klb                18.00:  WOB Max 
 YP  .lhf2               31.00:  Yield Point 
~Curve Information Block
#MNEM.UNIT                 API CODE     Curve Description
#---------               -----------    ---------------------------
 TIME.HHMMSS            00 000 000 000:  GT Time & Date
 GTDEPTH.m              00 000 000 000:  GT Depth
 GTPQH.psia             00 000 000 000:  GT HR Quartz Pressure
 GTTQ.degC              00 000 000 000:  GT Quartz Temperature
 GTTN.NONE              00 000 000 000:  GT Test Number
 GTET.sec               00 000 000 000:  GT Elapsed Test Time
 GTTVD.m                00 000 000 000:  GT True Vertical Depth
#Other Information
#
#WARRANTY: Halliburton will use its best efforts to furnish customers with 
#accurate information and interpretations that are part of, and incident to, the services 
#provided.  However, Halliburton cannot and does not warrant the accuracy 
#or correctness of such information and interpretations.  Under no circumstances should any 
#such information or interpretation be relied upon as the sole basis for any drilling, 
#completion, production, or financial decision or any procedure involving any risk to the 
#safety of any drilling venture, drilling rig or its crew or any other third party.  The 
#Customer has full responsibility for all drilling, completion and production operation.  
#Halliburton makes no representations or warranties, either expressed or 
#implied, including, but not limited to, the implied warranties of merchantability or fitness 
#for a particular purpose, with respect to the services rendered.  In no event will 
#Halliburton be liable for failure to obtain any particular results or for 
#any damages, including, but not limited to, indirect, special or consequential damages, 
#resulting from the use of any information or interpretation provided by Halliburton.
#
~A           TIME           GTDEPTH  GTPQH  GTTQ  GTTN  GTET   GTTVD  
# ...
   04:39:49.346.17-Sep-2021 5094.00 5572.13 80.23 4.00 299.32 2595.14
   04:39:49.546.17-Sep-2021 5094.00 5572.13 80.23 4.00 299.52 2595.14
   04:39:49.746.17-Sep-2021 5094.00 5571.97 80.23 4.00 299.72 2595.14
   04:39:49.946.17-Sep-2021 5094.00 5571.59 80.23 4.00 299.92 2595.14
   04:39:50.146.17-Sep-2021 5094.00 5571.75 80.23 4.00 300.12 2595.14
   04:39:50.347.17-Sep-2021 5094.00 5571.18 80.23 4.00 300.32 2595.14
   04:39:50.547.17-Sep-2021 5094.00 5571.18 80.23 4.00 300.52 2595.14
   04:39:50.747.17-Sep-2021 5094.00 5571.27 80.23 4.00 300.72 2595.14
   04:39:50.947.17-Sep-2021 5094.00 5571.48 80.23 4.00 300.92 2595.14
   04:39:51.148.17-Sep-2021 5094.00 5571.75 80.23 4.00 301.12 2595.14
   04:39:51.348.17-Sep-2021 5094.00 5571.83 80.23 4.00 301.32 2595.14
   04:39:51.548.17-Sep-2021 5094.00 5571.83 80.23 4.00 301.52 2595.14
   04:39:51.748.17-Sep-2021 5094.00 5571.82 80.22 4.00 301.72 2595.14
   04:39:51.948.17-Sep-2021 5094.00 5572.02 80.22 4.00 301.93 2595.14
   04:39:52.149.17-Sep-2021 5094.00 5575.29 80.22 4.00 302.13 2595.14
   04:39:52.349.17-Sep-2021 5094.00 5570.91 80.22 4.00 302.33 2595.14
   04:39:52.549.17-Sep-2021 5094.00 5570.91 80.22 4.00 302.53 2595.14
   04:39:52.749.17-Sep-2021 5094.00 5572.20 80.22 4.00 302.73 2595.14
   04:39:52.949.17-Sep-2021 5094.00 5571.90 80.22 4.00 302.93 2595.14
   04:39:53.150.17-Sep-2021 5094.00 5571.87 80.22 4.00 303.13 2595.14
   04:39:53.350.17-Sep-2021 5094.00 5571.38 80.22 4.00 303.33 2595.14
   04:39:53.550.17-Sep-2021 5094.00 5571.38 80.22 4.00 303.53 2595.14
   04:39:53.750.17-Sep-2021 5094.00 5571.03 80.22 4.00 303.73 2595.14
   04:39:53.951.17-Sep-2021 5094.00 5571.36 80.22 4.00 303.93 2595.14
   04:39:54.151.17-Sep-2021 5094.00 5571.21 80.22 4.00 304.13 2595.14
   04:39:54.351.17-Sep-2021 5094.00 5571.42 80.22 4.00 304.33 2595.14
   04:39:54.551.17-Sep-2021 5094.00 5571.42 80.22 4.00 304.53 2595.14
   04:39:54.751.17-Sep-2021 5094.00 5571.60 80.22 4.00 304.73 2595.14
   04:39:54.952.17-Sep-2021 5094.00 5571.89 80.22 4.00 304.93 2595.14
   04:39:55.152.17-Sep-2021 5094.00 5571.88 80.22 4.00 305.13 2595.14
   04:39:55.352.17-Sep-2021 5094.00 5572.27 80.22 4.00 305.33 2595.14
   04:39:55.552.17-Sep-2021 5094.00 5572.27 80.22 4.00 305.53 2595.14
   04:39:55.752.17-Sep-2021 5094.00 5572.39 80.22 4.00 305.73 2595.14
   04:39:55.953.17-Sep-2021 5094.00 5573.37 80.22 4.00 305.93 2595.14
   04:39:56.153.17-Sep-2021 5094.00 5572.12 80.22 4.00 306.13 2595.14
   04:39:56.353.17-Sep-2021 5094.00 5571.99 80.22 4.00 306.33 2595.14
   04:39:56.553.17-Sep-2021 5094.00 5571.99 80.22 4.00 306.53 2595.14
   04:39:56.754.17-Sep-2021 5094.00 5573.82 80.22 4.00 306.73 2595.14
   04:39:56.954.17-Sep-2021 5094.00 5570.42 80.22 4.00 306.93 2595.14
   04:39:57.154.17-Sep-2021 5094.00 5571.94 80.22 4.00 307.13 2595.14
   04:39:57.354.17-Sep-2021 5094.00 5571.86 80.22 4.00 307.33 2595.14
   04:39:57.554.17-Sep-2021 5094.00 5571.86 80.22 4.00 307.53 2595.14
   04:39:57.755.17-Sep-2021 5094.00 5571.17 80.21 4.00 307.73 2595.14
   04:39:57.955.17-Sep-2021 5094.00 5574.06 80.21 4.00 307.93 2595.14
   04:39:58.155.17-Sep-2021 5094.00 5569.20 80.21 4.00 308.13 2595.14
   04:39:58.355.17-Sep-2021 5094.00 5572.31 80.21 4.00 308.33 2595.14
   04:39:58.556.17-Sep-2021 5094.00 5572.31 80.21 4.00 308.53 2595.14
   04:39:58.756.17-Sep-2021 5094.00 5571.74 80.21 4.00 308.73 2595.14
   04:39:58.956.17-Sep-2021 5094.00 5573.48 80.21 4.00 308.93 2595.14
   04:39:59.156.17-Sep-2021 5094.00 5571.42 80.21 4.00 309.13 2595.14
   04:39:59.356.17-Sep-2021 5094.00 5572.61 80.21 4.00 309.33 2595.14
   04:39:59.557.17-Sep-2021 5094.00 5572.61 80.21 4.00 309.53 2595.14
   04:39:59.757.17-Sep-2021 5094.00 5571.71 80.21 4.00 309.73 2595.14
   04:39:59.957.17-Sep-2021 5094.00 5571.73 80.21 4.00 309.93 2595.14
   04:40:00.157.17-Sep-2021 5094.00 5571.43 80.21 4.00 310.13 2595.14
   04:40:00.357.17-Sep-2021 5094.00 5571.22 80.21 4.00 310.33 2595.14
   04:40:00.558.17-Sep-2021 5094.00 5571.22 80.21 4.00 310.53 2595.14
   04:40:00.758.17-Sep-2021 5094.00 5571.32 80.21 4.00 310.73 2595.14
   04:40:00.958.17-Sep-2021 5094.00 5571.12 80.21 4.00 310.93 2595.14
   04:40:01.158.17-Sep-2021 5094.00 5571.52 80.21 4.00 311.14 2595.14
   04:40:01.359.17-Sep-2021 5094.00 5571.61 80.21 4.00 311.34 2595.14
   04:40:01.559.17-Sep-2021 5094.00 5571.61 80.21 4.00 311.54 2595.14
   04:40:01.759.17-Sep-2021 5094.00 5571.64 80.21 4.00 311.74 2595.14
   04:40:01.959.17-Sep-2021 5094.00 5571.97 80.21 4.00 311.94 2595.14
   04:40:02.159.17-Sep-2021 5094.00 5574.42 80.21 4.00 312.14 2595.14
   04:40:02.360.17-Sep-2021 5094.00 5571.44 80.21 4.00 312.34 2595.14
   04:40:02.560.17-Sep-2021 5094.00 5571.44 80.21 4.00 312.54 2595.14
   04:40:02.760.17-Sep-2021 5094.00 5572.36 80.21 4.00 312.74 2595.14
   04:40:02.960.17-Sep-2021 5094.00 5571.58 80.21 4.00 312.94 2595.14
   04:40:03.160.17-Sep-2021 5094.00 5571.51 80.20 4.00 313.14 2595.14
   04:40:03.361.17-Sep-2021 5094.00 5571.15 80.20 4.00 313.34 2595.14
   04:40:03.561.17-Sep-2021 5094.00 5571.15 80.20 4.00 313.54 2595.14
   04:40:03.761.17-Sep-2021 5094.00 5570.82 80.20 4.00 313.74 2595.14
   04:40:03.961.17-Sep-2021 5094.00 5570.95 80.20 4.00 313.94 2595.14
   04:40:04.162.17-Sep-2021 5094.00 5571.00 80.20 4.00 314.14 2595.14
   04:40:04.362.17-Sep-2021 5094.00 5571.18 80.20 4.00 314.34 2595.14
   04:40:04.562.17-Sep-2021 5094.00 5571.18 80.20 4.00 314.54 2595.14
   04:40:04.762.17-Sep-2021 5094.00 5571.42 80.20 4.00 314.74 2595.14
   04:40:04.962.17-Sep-2021 5094.00 5571.62 80.20 4.00 314.94 2595.14
   04:40:05.163.17-Sep-2021 5094.00 5571.63 80.20 4.00 315.14 2595.14
   04:40:05.363.17-Sep-2021 5094.00 5572.09 80.20 4.00 315.34 2595.14
   04:40:05.563.17-Sep-2021 5094.00 5572.09 80.20 4.00 315.54 2595.14
   04:40:05.763.17-Sep-2021 5094.00 5570.55 80.20 4.00 315.74 2595.14
   04:40:05.963.17-Sep-2021 5094.00 5573.29 80.20 4.00 315.94 2595.14
   04:40:06.164.17-Sep-2021 5094.00 5571.67 80.20 4.00 316.14 2595.14
   04:40:06.364.17-Sep-2021 5094.00 5571.52 80.20 4.00 316.34 2595.14
   04:40:06.564.17-Sep-2021 5094.00 5571.52 80.20 4.00 316.54 2595.14
   04:40:06.764.17-Sep-2021 5094.00 5572.61 80.20 4.00 316.74 2595.14
   04:40:06.965.17-Sep-2021 5094.00 5571.33 80.20 4.00 316.94 2595.14
   04:40:07.165.17-Sep-2021 5094.00 5571.43 80.20 4.00 317.14 2595.14
   04:40:07.365.17-Sep-2021 5094.00 5571.27 80.20 4.00 317.34 2595.14
   04:40:07.565.17-Sep-2021 5094.00 5571.27 80.20 4.00 317.54 2595.14
   04:40:07.765.17-Sep-2021 5094.00 5570.99 80.20 4.00 317.74 2595.14
   04:40:07.966.17-Sep-2021 5094.00 5572.26 80.20 4.00 317.94 2595.14
   04:40:08.166.17-Sep-2021 5094.00 5571.21 80.20 4.00 318.14 2595.14
   04:40:08.366.17-Sep-2021 5094.00 5572.03 80.20 4.00 318.34 2595.14
   04:40:08.566.17-Sep-2021 5094.00 5572.03 80.20 4.00 318.54 2595.14
   04:40:08.767.17-Sep-2021 5094.00 5572.91 80.19 4.00 318.74 2595.14
   04:40:08.967.17-Sep-2021 5094.00 5571.46 80.19 4.00 318.94 2595.14
   04:40:09.167.17-Sep-2021 5094.00 5572.44 80.19 4.00 319.14 2595.14
   04:40:09.367.17-Sep-2021 5094.00 5571.29 80.19 4.00 319.34 2595.14
   04:40:09.567.17-Sep-2021 5094.00 5571.29 80.19 4.00 319.54 2595.14
   04:40:09.768.17-Sep-2021 5094.00 5571.45 80.19 4.00 319.74 2595.14
   04:40:09.968.17-Sep-2021 5094.00 5571.46 80.19 4.00 319.94 2595.14
   04:40:10.168.17-Sep-2021 5094.00 5571.12 80.19 4.00 320.14 2595.14
   04:40:10.368.17-Sep-2021 5094.00 5570.68 80.19 4.00 320.35 2595.14
   04:40:10.568.17-Sep-2021 5094.00 5570.68 80.19 4.00 320.55 2595.14
   04:40:10.769.17-Sep-2021 5094.00 5571.02 80.19 4.00 320.75 2595.14
   04:40:10.969.17-Sep-2021 5094.00 5571.35 80.19 4.00 320.95 2595.14
   04:40:11.169.17-Sep-2021 5094.00 5571.34 80.19 4.00 321.15 2595.14
   04:40:11.369.17-Sep-2021 5094.00 5571.27 80.19 4.00 321.35 2595.14
   04:40:11.570.17-Sep-2021 5094.00 5571.27 80.19 4.00 321.55 2595.14
   04:40:11.770.17-Sep-2021 5094.00 5571.64 80.19 4.00 321.75 2595.14
   04:40:11.970.17-Sep-2021 5094.00 5574.22 80.19 4.00 321.95 2595.14
   04:40:12.170.17-Sep-2021 5094.00 5571.22 80.19 4.00 322.15 2595.14
