~Version Information
 VERS.                  2.0:   CWLS log ASCII Standard -VERSION 2.0
 WRAP.                   NO:   One line per depth step
~Well Information Block
#MNEM.UNIT     VALUE/NAME     DESCRIPTION
#---------     -----------    ---------------------------
 STRT.S             10:29:45 17-Sep-21: START TIME 10:29:45 17-Sep-21
 STOP.S             10:36:56 17-Sep-21: STOP TIME  10:36:56 17-Sep-21
 STEP.S                   0.00: STEP TIME
 NULL.                 -999.25: NULL VALUE
 DFWT.                        :  DIST FWL TEXT
 DFST.                        :  DIST FSL TEXT
 DMF .             Drill Floor:  DRILL MEAS FROM
 STIM.      10.59.12 05-Jul-21:  START TIME
 DATE.      10.59.12 10-Sep-21:  END TIME
 SPUD.               05-Jul-21:  SPUD DATE
 NREF.                    Grid:  NORTH REFERENCE
 HPTY.       Minimum Curvature:  HOLE POS TYPE
 DMOD.             Drill Model:  DRILL MOD DESC
 SVYD.                  Survey:  SURVEY DESC
 ILTD.               Lithology:  INTERP LTH DESC
 FTOP.          Formation Tops:  FORM TOPS DESC
 RIG .                     DWG:  RIG NAME
 PDAT.          Mean Sea Level:  PERMANENT DATUM
 FLD .                     ACG:  FIELD NAME
 SON .        AZ-XX-0907115008:  JOB NUMBER
 CTRY.              Azerbaijan:  COUNTRY NAME
 WELL.                    E35A:  WELL NAME
 SRVC.          TURAN DRILLING:  CONTRACTOR
 COMP.     BP Exploration (Caspian Sea LTD):  COMPANY
 UWI .                     N/A:  UNIQUE WELL IDENTIFIER
 API .                     N/A:  API NUMBER
 MDS .        Operator Entered:  MAG DATA SOURCE
 BASE.              Azerbaijan:  LOGGING EQUIPMENT BASE LOCATION
 REGN.                   EESSA:  REGION
 PROV.                    Baku:  PROVINCE
 STAT.                    Baku:  STATE NAME
 MWDS.                    Baku:  MWD SHOP
 JOBN.        AZ-XX-0907115008:  JOB TICKET NUMB
 DOE .                     N/A:  DOE NUMBER
 DCON.         Sperry Drilling:  DIRECTNL CONTR
 UNIT.                     N/A:  LOGGING EQUIPMENT ID
 WTYP.                Deviated:  WELL TYPE
 CNTY.                        :  COUNTY
 LOC .                        :  LOCATION
 LMF .             Drill Floor:  LOG MEASURED FROM
 TVDS.m                  43.16:  TVDSS CORRECTN
 LATI.deg                40.17:  LATITUDE
 LONG.deg                51.17:  LONGITUDE
 WHNS.m                  10.51:  WELL HEAD N/S
 WHEW.m                 -14.82:  WELL HEAD E/W
 UTMX.m              514336.92:  UTM X
 UTMY.m             4448618.56:  UTM Y
 DFWL.m                   0.00:  DISTANCE FWL
 DFSL.m                   0.00:  DISTANCE FSL
 SDEP.m                 849.00:  START DEPTH
 TDD .m                2862.00:  TOTAL DEPTH (DRILLER)
 VSDR.deg               292.10:  VERT SEC DIRECT
 GVFD.g                   1.00:  GRAVITY FIELD
 MFLD.nT              50382.00:  MAGNETIC FIELD
 MDIP.deg                59.68:  MAGNETIC DIP
 MDEC.deg                 6.66:  MAGNETIC DECL
 GRDC.deg                 0.09:  GRID CORRECTION
 AZTC.deg                 6.57:  AZM TOTAL CORR
 EPD .m                   0.00:  ELEVATION
 EGL .m                   0.00:  GROUND ELEVATION
 WDMS.m                 176.20:  WD ELEV
 APD .m                  43.16:  DEPTH ABOVE PD
 DEP .m                 363.42:  DEPTH
 AGAP.m                  43.16:  AIR GAP
 VSEW.m                 -14.82:  VERT SEC E/W
 VSNS.m                  10.51:  VERT SEC N/S
 EKB .m                  43.16:  KB ELEVATION
 EDF .m                  43.16:  DF ELEVATION
 TDL .m                1390.00:  TOTAL DEPTH (LOGGER)
 VSC .                       0:  VS TO CLOSURE
 MAGU.                 1855871:  MAGUTM CHECKSUM
~Parameter Information Block
#MNEM.UNIT       Value        Description
#---------     -----------    ---------------------------
 AV  .mps                 2.28:  Ann Velocity 
 AVMX.mps                 2.67:  Max Ann Veloc 
 AZIF.deg               305.00:  Azm, Final 
 BHAT.        Rotary Steerable:  BHA Type 
 BROT.°/30m               0.45:  Build Rotating 
 BS  .in                 12.25:  Bit Size 
 BSZ .in                 12.25:  Bit Size 
 BTPL.psig              600.00:  Bit Press Loss 
 CABU.                     Yes:  Customer Abuse 
 COMM.                     ,)z:  Run Comments 1 
 TCS .hr                150.00:  Time Ciculation Ended 
 CV  .mps                 1.24:  Crit Velocity 
 CVMX.mps                 1.66:  Max Crit Veloc 
 DD1 .         Intigam Rahimov:  Direct Drillr 1 
 DD2 .            Azer Ravavov:  Direct Drillr 2 
 DD3 .              Samir Abas:  Direct Drillr 3 
 DDSV.               Geo-Pilot:  DD Service 
 DEFF.%                 100.00:  % Det Eff 
 DLRX.°/30m               1.57:  Dogleg Rot Max 
 DLSO.°/30m               0.00:  Dogleg Oriented 
 DLSX.°/30m               0.00:  Dogleg Str Max 
 DRET.      20.28.06 17-Sep-21:  Drill End Time 
 DRST.      20.27.35 10-Sep-21:  Drill Start Tim 
 DTIM.hr                 54.00:  Time Drilling 
 EDEP.m                5260.00:  End Depth 
 ENG1.      Bakhtiyar Jabbarli:  Engineer 1 
 ENG2.      Natik Hasanaghayev:  Engineer 2 
 ENG3.           Royal Nasirov:  Engineer 3 
 ETIM.      20.27.55 18-Sep-21:  End Time 
 FLOI.gpm              1100.00:  Flow In 
 FLON.gpm               800.00:  Flow In Min 
 FLOS.cptm                0.00:  Fluid Loss 
 FLOX.gpm              1200.00:  Flow In Max 
 DFT .        Mineral Oil Base:  Mud Type 
 HPRE.                      No:  High Pressure 
 HTEM.                      No:  High Temp 
 HYDO.m                   1.80:  Hydro Offset 
 IFIN.deg                72.31:  Inc, Final 
 IMAX.deg                72.36:  Inc Max 
 IMIN.deg                69.36:  Inc Min 
 IMND.m                4192.96:  Inc Min Depth 
 IMXD.m                5128.36:  Inc Max Depth 
 JARR.                      No:  Jarring 
 LETM.      20.29.00 17-Sep-21:  Log End Time 
 LOST.hr                     0:  Lost Rig Time 
 LSTM.      20.27.00 10-Sep-21:  Log Start Time 
 MDCL.ppm            227000.00:  Mud Chlorides 
 MDES.     Inversion Oil/Synthetic:  Mud Desc 
 DFD .sg                  1.45:  Mud Density 
 MDMN.sg                  1.45:  Dens Mud Min 
 MDMX.sg                  1.45:  Dens Mud Max 
 MOIL.                    70.5:  Run Mud Oil % 
 MOWR.                   71:29:  Run Mud OWR 
 MSND.                     0.3:  Run Mud Sand % 
 MSOL.                    19.8:  Run Mud Solids% 
 DFV .spqt               80.00:  Mud Viscosity 
 MWOD.in                  8.00:  MWD Tool OD 
 MWSI.                     Yes:  Serv Intrp, MWD 
 OTIM.hr                180.00:  Time Operating 
 PCON.           Look Like New:  Pad Condition 
 PMAX.psia             9910.94:  Press Op, Max 
 PV  .cP                 35.00:  Mud PV 
 RUN .                    1000:  Run Number 
 ROPA.m/hr               18.00:  ROP Avg 
 ROPN.m/hr                8.00:  ROP Min 
 ROPX.m/hr               23.00:  ROP Max 
 RPMA.rpm               150.00:  RPM Surface Avg 
 RPMN.rpm               120.00:  RPM Surface Min 
 RPMX.rpm               160.00:  RPM Surface Max 
 RRUN.                    L503:  Rig Run Number 
 RTIM.hr                  5.00:  Time Reaming 
 SAZI.deg               298.42:  Azm, Start 
 SDEP.m                3870.00:  Start Depth 
 SIDD.                      No:  Serv Intrp, DD 
 SINC.deg                69.57:  Inc, Start 
 SPPA.psig             5500.00:  SPP Avg 
 SPPN.psig             4400.00:  SPP Min 
 SPPX.psig             5800.00:  SPP Max 
 STIM.      15.29.39 09-Sep-21:  Start Time 
 SVCS.                 DD, MWD:  Services 
 SVER.                    9.20:  Sperry Version 
 TDAT.m                5260.00:  Tot Depth Attmp 
 TDDF.                      No:  Trip for DD 
 TDLG.m                1390.00:  Tot Depth Loggd 
 TFF .                      No:  Trip for Fail 
 TQAA.f-kp               22.00:  Torque Abs Avg 
 TQAN.f-kp               13.00:  Torque Abs Min 
 TQAX.f-kp               27.00:  Torque Abs Max 
 TRRT.°/30m               1.60:  Turn Rotating 
 MRT .                  EWR-M5:  Maximum Recorded Temperature 
 TTMX.degC               92.00:  Max Tool Temp 
 VS01.                12330975:  Virtual Str1 SN 
 VS02.                90658671:  Virtual Str2 SN 
 VS03.                90658508:  Virtual Str3 SN 
 VS04.                90660974:  Virtual Str4 SN 
 VS05.                90654675:  Virtual Str5 SN 
 WBMN.klb                15.00:  WOB Min 
 WITN.     Alexander Yadullayev:  Customer Rep 
 WITN.           Adil Mammadov:  Customer Rep 2 
 WOBA.klb                17.00:  WOB Avg 
 WOBX.klb                18.00:  WOB Max 
 YP  .lhf2               31.00:  Yield Point 
~Curve Information Block
#MNEM.UNIT                 API CODE     Curve Description
#---------               -----------    ---------------------------
 TIME.HHMMSS            00 000 000 000:  GT Time & Date
 GTDEPTH.m              00 000 000 000:  GT Depth
 GTPQH.psia             00 000 000 000:  GT HR Quartz Pressure
 GTTQ.degC              00 000 000 000:  GT Quartz Temperature
 GTTN.NONE              00 000 000 000:  GT Test Number
 GTET.sec               00 000 000 000:  GT Elapsed Test Time
 GTTVD.m                00 000 000 000:  GT True Vertical Depth
#Other Information
#
#WARRANTY: Halliburton will use its best efforts to furnish customers with 
#accurate information and interpretations that are part of, and incident to, the services 
#provided.  However, Halliburton cannot and does not warrant the accuracy 
#or correctness of such information and interpretations.  Under no circumstances should any 
#such information or interpretation be relied upon as the sole basis for any drilling, 
#completion, production, or financial decision or any procedure involving any risk to the 
#safety of any drilling venture, drilling rig or its crew or any other third party.  The 
#Customer has full responsibility for all drilling, completion and production operation.  
#Halliburton makes no representations or warranties, either expressed or 
#implied, including, but not limited to, the implied warranties of merchantability or fitness 
#for a particular purpose, with respect to the services rendered.  In no event will 
#Halliburton be liable for failure to obtain any particular results or for 
#any damages, including, but not limited to, indirect, special or consequential damages, 
#resulting from the use of any information or interpretation provided by Halliburton.
#
~A           TIME           GTDEPTH  GTPQH  GTTQ  GTTN  GTET   GTTVD  
# ...
   10:36:39.370.17-Sep-2021 4888.00 5436.42 75.87 8.00 414.05 2528.99
   10:36:39.570.17-Sep-2021 4888.00 5436.42 75.87 8.00 414.25 2528.99
   10:36:39.770.17-Sep-2021 4888.00 5435.07 75.87 8.00 414.45 2528.99
   10:36:39.970.17-Sep-2021 4888.00 5435.49 75.87 8.00 414.65 2528.99
   10:36:40.170.17-Sep-2021 4888.00 5436.21 75.87 8.00 414.85 2528.99
   10:36:40.370.17-Sep-2021 4888.00 5439.86 75.88 8.00 415.05 2528.99
   10:36:40.570.17-Sep-2021 4888.00 5439.86 75.88 8.00 415.25 2528.99
   10:36:40.770.17-Sep-2021 4888.00 5435.20 75.87 8.00 415.45 2528.99
   10:36:40.970.17-Sep-2021 4888.00 5436.24 75.88 8.00 415.65 2528.99
   10:36:41.170.17-Sep-2021 4888.00 5437.28 75.87 8.00 415.85 2528.99
   10:36:41.370.17-Sep-2021 4888.00 5435.21 75.88 8.00 416.05 2528.99
   10:36:41.570.17-Sep-2021 4888.00 5435.21 75.88 8.00 416.25 2528.99
   10:36:41.770.17-Sep-2021 4888.00 5434.86 75.88 8.00 416.45 2528.99
   10:36:41.970.17-Sep-2021 4888.00 5434.63 75.88 8.00 416.65 2528.99
   10:36:42.170.17-Sep-2021 4888.00 5434.22 75.88 8.00 416.85 2528.99
   10:36:42.370.17-Sep-2021 4888.00 5434.19 75.88 8.00 417.05 2528.99
   10:36:42.570.17-Sep-2021 4888.00 5434.19 75.88 8.00 417.25 2528.99
   10:36:42.770.17-Sep-2021 4888.00 5435.79 75.88 8.00 417.45 2528.99
   10:36:42.970.17-Sep-2021 4888.00 5435.47 75.88 8.00 417.65 2528.99
   10:36:43.170.17-Sep-2021 4888.00 5435.55 75.88 8.00 417.85 2528.99
   10:36:43.370.17-Sep-2021 4888.00 5438.26 75.88 8.00 418.05 2528.99
   10:36:43.570.17-Sep-2021 4888.00 5438.26 75.88 8.00 418.25 2528.99
   10:36:43.770.17-Sep-2021 4888.00 5436.65 75.88 8.00 418.45 2528.99
   10:36:43.970.17-Sep-2021 4888.00 5436.19 75.88 8.00 418.65 2528.99
   10:36:44.170.17-Sep-2021 4888.00 5437.50 75.88 8.00 418.85 2528.99
   10:36:44.370.17-Sep-2021 4888.00 5437.03 75.88 8.00 419.05 2528.99
   10:36:44.570.17-Sep-2021 4888.00 5437.03 75.88 8.00 419.25 2528.99
   10:36:44.770.17-Sep-2021 4888.00 5436.64 75.88 8.00 419.45 2528.99
   10:36:44.970.17-Sep-2021 4888.00 5436.21 75.88 8.00 419.65 2528.99
   10:36:45.170.17-Sep-2021 4888.00 5436.36 75.88 8.00 419.85 2528.99
   10:36:45.370.17-Sep-2021 4888.00 5435.94 75.88 8.00 420.05 2528.99
   10:36:45.571.17-Sep-2021 4888.00 5435.94 75.88 8.00 420.25 2528.99
   10:36:45.771.17-Sep-2021 4888.00 5436.37 75.88 8.00 420.45 2528.99
   10:36:45.971.17-Sep-2021 4888.00 5436.31 75.88 8.00 420.65 2528.99
   10:36:46.171.17-Sep-2021 4888.00 5436.66 75.88 8.00 420.85 2528.99
   10:36:46.371.17-Sep-2021 4888.00 5436.80 75.88 8.00 421.05 2528.99
   10:36:46.571.17-Sep-2021 4888.00 5436.80 75.88 8.00 421.25 2528.99
   10:36:46.771.17-Sep-2021 4888.00 5437.22 75.88 8.00 421.45 2528.99
   10:36:46.971.17-Sep-2021 4888.00 5438.80 75.88 8.00 421.65 2528.99
   10:36:47.171.17-Sep-2021 4888.00 5436.50 75.88 8.00 421.85 2528.99
   10:36:47.371.17-Sep-2021 4888.00 5436.06 75.88 8.00 422.05 2528.99
   10:36:47.571.17-Sep-2021 4888.00 5436.06 75.88 8.00 422.25 2528.99
   10:36:47.771.17-Sep-2021 4888.00 5437.33 75.88 8.00 422.45 2528.99
   10:36:47.971.17-Sep-2021 4888.00 5439.74 75.88 8.00 422.65 2528.99
   10:36:48.171.17-Sep-2021 4888.00 5435.35 75.88 8.00 422.85 2528.99
   10:36:48.371.17-Sep-2021 4888.00 5436.36 75.88 8.00 423.05 2528.99
   10:36:48.571.17-Sep-2021 4888.00 5436.36 75.88 8.00 423.25 2528.99
   10:36:48.771.17-Sep-2021 4888.00 5439.81 75.88 8.00 423.45 2528.99
   10:36:48.971.17-Sep-2021 4888.00 5435.72 75.88 8.00 423.65 2528.99
   10:36:49.171.17-Sep-2021 4888.00 5436.18 75.88 8.00 423.85 2528.99
   10:36:49.371.17-Sep-2021 4888.00 5436.72 75.88 8.00 424.05 2528.99
   10:36:49.571.17-Sep-2021 4888.00 5436.72 75.88 8.00 424.25 2528.99
   10:36:49.771.17-Sep-2021 4888.00 5436.31 75.88 8.00 424.45 2528.99
   10:36:49.971.17-Sep-2021 4888.00 5437.93 75.88 8.00 424.65 2528.99
   10:36:50.171.17-Sep-2021 4888.00 5436.57 75.88 8.00 424.85 2528.99
   10:36:50.371.17-Sep-2021 4888.00 5436.21 75.88 8.00 425.05 2528.99
   10:36:50.571.17-Sep-2021 4888.00 5436.21 75.88 8.00 425.25 2528.99
   10:36:50.771.17-Sep-2021 4888.00 5434.34 75.88 8.00 425.45 2528.99
   10:36:50.971.17-Sep-2021 4888.00 5433.88 75.88 8.00 425.65 2528.99
   10:36:51.171.17-Sep-2021 4888.00 5434.34 75.88 8.00 425.85 2528.99
   10:36:51.371.17-Sep-2021 4888.00 5434.43 75.88 8.00 426.05 2528.99
   10:36:51.571.17-Sep-2021 4888.00 5434.43 75.88 8.00 426.25 2528.99
   10:36:51.771.17-Sep-2021 4888.00 5433.50 75.88 8.00 426.45 2528.99
   10:36:51.971.17-Sep-2021 4888.00 5433.91 75.88 8.00 426.65 2528.99
   10:36:52.171.17-Sep-2021 4888.00 5434.23 75.88 8.00 426.85 2528.99
   10:36:52.371.17-Sep-2021 4888.00 5434.00 75.88 8.00 427.05 2528.99
   10:36:52.571.17-Sep-2021 4888.00 5434.00 75.88 8.00 427.25 2528.99
   10:36:52.771.17-Sep-2021 4888.00 5436.61 75.88 8.00 427.45 2528.99
   10:36:52.971.17-Sep-2021 4888.00 5439.76 75.88 8.00 427.65 2528.99
   10:36:53.171.17-Sep-2021 4888.00 5434.76 75.88 8.00 427.85 2528.99
   10:36:53.371.17-Sep-2021 4888.00 5432.03 75.88 8.00 428.05 2528.99
   10:36:53.571.17-Sep-2021 4888.00 5432.03 75.88 8.00 428.25 2528.99
   10:36:53.771.17-Sep-2021 4888.00 5434.31 75.88 8.00 428.45 2528.99
   10:36:53.971.17-Sep-2021 4888.00 5432.73 75.88 8.00 428.65 2528.99
   10:36:54.171.17-Sep-2021 4888.00 5432.70 75.88 8.00 428.85 2528.99
   10:36:54.371.17-Sep-2021 4888.00 5433.26 75.88 8.00 429.05 2528.99
   10:36:54.572.17-Sep-2021 4888.00 5433.26 75.88 8.00 429.25 2528.99
   10:36:54.772.17-Sep-2021 4888.00 5431.84 75.88 8.00 429.45 2528.99
   10:36:54.972.17-Sep-2021 4888.00 5431.52 75.88 8.00 429.65 2528.99
   10:36:55.172.17-Sep-2021 4888.00 5422.37 75.88 8.00 429.85 2528.99
   10:36:55.372.17-Sep-2021 4888.00 5424.00 75.88 8.00 430.05 2528.99
   10:36:55.572.17-Sep-2021 4888.00 5424.00 75.88 8.00 430.25 2528.99
   10:36:55.772.17-Sep-2021 4888.00 5425.90 75.88 8.00 430.45 2528.99
   10:36:55.972.17-Sep-2021 4888.00 5426.95 75.88 8.00 430.65 2528.99
   10:36:56.172.17-Sep-2021 4888.00 5428.52 75.88 8.00 430.85 2528.99
