~Version Information
 VERS.                  2.0:   CWLS log ASCII Standard -VERSION 2.0
 WRAP.                   NO:   One line per depth step
~Well Information Block
#MNEM.UNIT     VALUE/NAME     DESCRIPTION
#---------     -----------    ---------------------------
 STRT.S             05:03:12 17-Sep-21: START TIME 05:03:12 17-Sep-21
 STOP.S             05:12:54 17-Sep-21: STOP TIME  05:12:54 17-Sep-21
 STEP.S                   0.00: STEP TIME
 NULL.                 -999.25: NULL VALUE
 DFWT.                        :  DIST FWL TEXT
 DFST.                        :  DIST FSL TEXT
 DMF .             Drill Floor:  DRILL MEAS FROM
 STIM.      10.59.12 05-Jul-21:  START TIME
 DATE.      10.59.12 10-Sep-21:  END TIME
 SPUD.               05-Jul-21:  SPUD DATE
 NREF.                    Grid:  NORTH REFERENCE
 HPTY.       Minimum Curvature:  HOLE POS TYPE
 DMOD.             Drill Model:  DRILL MOD DESC
 SVYD.                  Survey:  SURVEY DESC
 ILTD.               Lithology:  INTERP LTH DESC
 FTOP.          Formation Tops:  FORM TOPS DESC
 RIG .                     DWG:  RIG NAME
 PDAT.          Mean Sea Level:  PERMANENT DATUM
 FLD .                     ACG:  FIELD NAME
 SON .        AZ-XX-0907115008:  JOB NUMBER
 CTRY.              Azerbaijan:  COUNTRY NAME
 WELL.                    E35A:  WELL NAME
 SRVC.          TURAN DRILLING:  CONTRACTOR
 COMP.     BP Exploration (Caspian Sea LTD):  COMPANY
 UWI .                     N/A:  UNIQUE WELL IDENTIFIER
 API .                     N/A:  API NUMBER
 MDS .        Operator Entered:  MAG DATA SOURCE
 BASE.              Azerbaijan:  LOGGING EQUIPMENT BASE LOCATION
 REGN.                   EESSA:  REGION
 PROV.                    Baku:  PROVINCE
 STAT.                    Baku:  STATE NAME
 MWDS.                    Baku:  MWD SHOP
 JOBN.        AZ-XX-0907115008:  JOB TICKET NUMB
 DOE .                     N/A:  DOE NUMBER
 DCON.         Sperry Drilling:  DIRECTNL CONTR
 UNIT.                     N/A:  LOGGING EQUIPMENT ID
 WTYP.                Deviated:  WELL TYPE
 CNTY.                        :  COUNTY
 LOC .                        :  LOCATION
 LMF .             Drill Floor:  LOG MEASURED FROM
 TVDS.m                  43.16:  TVDSS CORRECTN
 LATI.deg                40.17:  LATITUDE
 LONG.deg                51.17:  LONGITUDE
 WHNS.m                  10.51:  WELL HEAD N/S
 WHEW.m                 -14.82:  WELL HEAD E/W
 UTMX.m              514336.92:  UTM X
 UTMY.m             4448618.56:  UTM Y
 DFWL.m                   0.00:  DISTANCE FWL
 DFSL.m                   0.00:  DISTANCE FSL
 SDEP.m                 849.00:  START DEPTH
 TDD .m                2862.00:  TOTAL DEPTH (DRILLER)
 VSDR.deg               292.10:  VERT SEC DIRECT
 GVFD.g                   1.00:  GRAVITY FIELD
 MFLD.nT              50382.00:  MAGNETIC FIELD
 MDIP.deg                59.68:  MAGNETIC DIP
 MDEC.deg                 6.66:  MAGNETIC DECL
 GRDC.deg                 0.09:  GRID CORRECTION
 AZTC.deg                 6.57:  AZM TOTAL CORR
 EPD .m                   0.00:  ELEVATION
 EGL .m                   0.00:  GROUND ELEVATION
 WDMS.m                 176.20:  WD ELEV
 APD .m                  43.16:  DEPTH ABOVE PD
 DEP .m                 363.42:  DEPTH
 AGAP.m                  43.16:  AIR GAP
 VSEW.m                 -14.82:  VERT SEC E/W
 VSNS.m                  10.51:  VERT SEC N/S
 EKB .m                  43.16:  KB ELEVATION
 EDF .m                  43.16:  DF ELEVATION
 TDL .m                1390.00:  TOTAL DEPTH (LOGGER)
 VSC .                       0:  VS TO CLOSURE
 MAGU.                 1855871:  MAGUTM CHECKSUM
~Parameter Information Block
#MNEM.UNIT       Value        Description
#---------     -----------    ---------------------------
 AV  .mps                 2.28:  Ann Velocity 
 AVMX.mps                 2.67:  Max Ann Veloc 
 AZIF.deg               305.00:  Azm, Final 
 BHAT.        Rotary Steerable:  BHA Type 
 BROT.°/30m               0.45:  Build Rotating 
 BS  .in                 12.25:  Bit Size 
 BSZ .in                 12.25:  Bit Size 
 BTPL.psig              600.00:  Bit Press Loss 
 CABU.                     Yes:  Customer Abuse 
 COMM.                     äÏF:  Run Comments 1 
 TCS .hr                150.00:  Time Ciculation Ended 
 CV  .mps                 1.24:  Crit Velocity 
 CVMX.mps                 1.66:  Max Crit Veloc 
 DD1 .         Intigam Rahimov:  Direct Drillr 1 
 DD2 .            Azer Ravavov:  Direct Drillr 2 
 DD3 .              Samir Abas:  Direct Drillr 3 
 DDSV.               Geo-Pilot:  DD Service 
 DEFF.%                 100.00:  % Det Eff 
 DLRX.°/30m               1.57:  Dogleg Rot Max 
 DLSO.°/30m               0.00:  Dogleg Oriented 
 DLSX.°/30m               0.00:  Dogleg Str Max 
 DRET.      20.28.06 17-Sep-21:  Drill End Time 
 DRST.      20.27.35 10-Sep-21:  Drill Start Tim 
 DTIM.hr                 54.00:  Time Drilling 
 EDEP.m                5260.00:  End Depth 
 ENG1.      Bakhtiyar Jabbarli:  Engineer 1 
 ENG2.      Natik Hasanaghayev:  Engineer 2 
 ENG3.           Royal Nasirov:  Engineer 3 
 ETIM.      20.27.55 18-Sep-21:  End Time 
 FLOI.gpm              1100.00:  Flow In 
 FLON.gpm               800.00:  Flow In Min 
 FLOS.cptm                0.00:  Fluid Loss 
 FLOX.gpm              1200.00:  Flow In Max 
 DFT .        Mineral Oil Base:  Mud Type 
 HPRE.                      No:  High Pressure 
 HTEM.                      No:  High Temp 
 HYDO.m                   1.80:  Hydro Offset 
 IFIN.deg                72.31:  Inc, Final 
 IMAX.deg                72.36:  Inc Max 
 IMIN.deg                69.36:  Inc Min 
 IMND.m                4192.96:  Inc Min Depth 
 IMXD.m                5128.36:  Inc Max Depth 
 JARR.                      No:  Jarring 
 LETM.      20.29.00 17-Sep-21:  Log End Time 
 LOST.hr                     0:  Lost Rig Time 
 LSTM.      20.27.00 10-Sep-21:  Log Start Time 
 MDCL.ppm            227000.00:  Mud Chlorides 
 MDES.     Inversion Oil/Synthetic:  Mud Desc 
 DFD .sg                  1.45:  Mud Density 
 MDMN.sg                  1.45:  Dens Mud Min 
 MDMX.sg                  1.45:  Dens Mud Max 
 MOIL.                    70.5:  Run Mud Oil % 
 MOWR.                   71:29:  Run Mud OWR 
 MSND.                     0.3:  Run Mud Sand % 
 MSOL.                    19.8:  Run Mud Solids% 
 DFV .spqt               80.00:  Mud Viscosity 
 MWOD.in                  8.00:  MWD Tool OD 
 MWSI.                     Yes:  Serv Intrp, MWD 
 OTIM.hr                180.00:  Time Operating 
 PCON.           Look Like New:  Pad Condition 
 PMAX.psia             9910.94:  Press Op, Max 
 PV  .cP                 35.00:  Mud PV 
 RUN .                    1000:  Run Number 
 ROPA.m/hr               18.00:  ROP Avg 
 ROPN.m/hr                8.00:  ROP Min 
 ROPX.m/hr               23.00:  ROP Max 
 RPMA.rpm               150.00:  RPM Surface Avg 
 RPMN.rpm               120.00:  RPM Surface Min 
 RPMX.rpm               160.00:  RPM Surface Max 
 RRUN.                    L503:  Rig Run Number 
 RTIM.hr                  5.00:  Time Reaming 
 SAZI.deg               298.42:  Azm, Start 
 SDEP.m                3870.00:  Start Depth 
 SIDD.                      No:  Serv Intrp, DD 
 SINC.deg                69.57:  Inc, Start 
 SPPA.psig             5500.00:  SPP Avg 
 SPPN.psig             4400.00:  SPP Min 
 SPPX.psig             5800.00:  SPP Max 
 STIM.      15.29.39 09-Sep-21:  Start Time 
 SVCS.                 DD, MWD:  Services 
 SVER.                    9.20:  Sperry Version 
 TDAT.m                5260.00:  Tot Depth Attmp 
 TDDF.                      No:  Trip for DD 
 TDLG.m                1390.00:  Tot Depth Loggd 
 TFF .                      No:  Trip for Fail 
 TQAA.f-kp               22.00:  Torque Abs Avg 
 TQAN.f-kp               13.00:  Torque Abs Min 
 TQAX.f-kp               27.00:  Torque Abs Max 
 TRRT.°/30m               1.60:  Turn Rotating 
 MRT .                  EWR-M5:  Maximum Recorded Temperature 
 TTMX.degC               92.00:  Max Tool Temp 
 VS01.                12330975:  Virtual Str1 SN 
 VS02.                90658671:  Virtual Str2 SN 
 VS03.                90658508:  Virtual Str3 SN 
 VS04.                90660974:  Virtual Str4 SN 
 VS05.                90654675:  Virtual Str5 SN 
 WBMN.klb                15.00:  WOB Min 
 WITN.     Alexander Yadullayev:  Customer Rep 
 WITN.           Adil Mammadov:  Customer Rep 2 
 WOBA.klb                17.00:  WOB Avg 
 WOBX.klb                18.00:  WOB Max 
 YP  .lhf2               31.00:  Yield Point 
~Curve Information Block
#MNEM.UNIT                 API CODE     Curve Description
#---------               -----------    ---------------------------
 TIME.HHMMSS            00 000 000 000:  GT Time & Date
 GTDEPTH.m              00 000 000 000:  GT Depth
 GTPQH.psia             00 000 000 000:  GT HR Quartz Pressure
 GTTQ.degC              00 000 000 000:  GT Quartz Temperature
 GTTN.NONE              00 000 000 000:  GT Test Number
 GTET.sec               00 000 000 000:  GT Elapsed Test Time
 GTTVD.m                00 000 000 000:  GT True Vertical Depth
#Other Information
#
#WARRANTY: Halliburton will use its best efforts to furnish customers with 
#accurate information and interpretations that are part of, and incident to, the services 
#provided.  However, Halliburton cannot and does not warrant the accuracy 
#or correctness of such information and interpretations.  Under no circumstances should any 
#such information or interpretation be relied upon as the sole basis for any drilling, 
#completion, production, or financial decision or any procedure involving any risk to the 
#safety of any drilling venture, drilling rig or its crew or any other third party.  The 
#Customer has full responsibility for all drilling, completion and production operation.  
#Halliburton makes no representations or warranties, either expressed or 
#implied, including, but not limited to, the implied warranties of merchantability or fitness 
#for a particular purpose, with respect to the services rendered.  In no event will 
#Halliburton be liable for failure to obtain any particular results or for 
#any damages, including, but not limited to, indirect, special or consequential damages, 
#resulting from the use of any information or interpretation provided by Halliburton.
#
~A           TIME           GTDEPTH  GTPQH  GTTQ  GTTN  GTET   GTTVD  
# ...
   05:10:30.328.17-Sep-2021 5093.53 3747.01 79.47 5.00 437.47 2594.99
   05:10:30.529.17-Sep-2021 5093.53 3747.01 79.47 5.00 437.67 2594.99
   05:10:30.729.17-Sep-2021 5093.53 3747.10 79.47 5.00 437.87 2594.99
   05:10:30.929.17-Sep-2021 5093.53 3747.06 79.47 5.00 438.07 2594.99
   05:10:31.129.17-Sep-2021 5093.53 3747.08 79.47 5.00 438.27 2594.99
   05:10:31.329.17-Sep-2021 5093.53 3747.05 79.47 5.00 438.47 2594.99
   05:10:31.530.17-Sep-2021 5093.53 3747.05 79.47 5.00 438.67 2594.99
   05:10:31.730.17-Sep-2021 5093.53 3747.13 79.47 5.00 438.87 2594.99
   05:10:31.930.17-Sep-2021 5093.53 3747.13 79.47 5.00 439.07 2594.99
   05:10:32.130.17-Sep-2021 5093.53 3747.16 79.47 5.00 439.27 2594.99
   05:10:32.330.17-Sep-2021 5093.53 3747.15 79.47 5.00 439.47 2594.99
   05:10:32.531.17-Sep-2021 5093.53 3747.15 79.47 5.00 439.67 2594.99
   05:10:32.731.17-Sep-2021 5093.53 3747.16 79.47 5.00 439.87 2594.99
   05:10:32.931.17-Sep-2021 5093.53 3747.14 79.47 5.00 440.07 2594.99
   05:10:33.131.17-Sep-2021 5093.53 3747.15 79.47 5.00 440.27 2594.99
   05:10:33.332.17-Sep-2021 5093.53 3747.15 79.47 5.00 440.47 2594.99
   05:10:33.532.17-Sep-2021 5093.53 3747.15 79.47 5.00 440.67 2594.99
   05:10:33.732.17-Sep-2021 5093.53 3747.21 79.47 5.00 440.87 2594.99
   05:10:33.932.17-Sep-2021 5093.53 3747.20 79.47 5.00 441.08 2594.99
   05:10:34.132.17-Sep-2021 5093.53 3747.20 79.47 5.00 441.28 2594.99
   05:10:34.333.17-Sep-2021 5093.53 3747.20 79.47 5.00 441.48 2594.99
   05:10:34.533.17-Sep-2021 5093.53 3747.20 79.47 5.00 441.68 2594.99
   05:10:34.733.17-Sep-2021 5093.53 3747.18 79.47 5.00 441.88 2594.99
   05:10:34.933.17-Sep-2021 5093.53 3747.23 79.47 5.00 442.08 2594.99
   05:10:35.134.17-Sep-2021 5093.53 3747.27 79.47 5.00 442.28 2594.99
   05:10:35.334.17-Sep-2021 5093.53 3747.28 79.47 5.00 442.48 2594.99
   05:10:35.534.17-Sep-2021 5093.53 3747.28 79.47 5.00 442.68 2594.99
   05:10:35.734.17-Sep-2021 5093.53 3747.22 79.47 5.00 442.88 2594.99
   05:10:35.934.17-Sep-2021 5093.53 3747.21 79.47 5.00 443.08 2594.99
   05:10:36.135.17-Sep-2021 5093.53 3747.16 79.47 5.00 443.28 2594.99
   05:10:36.335.17-Sep-2021 5093.53 3747.20 79.47 5.00 443.48 2594.99
   05:10:36.535.17-Sep-2021 5093.53 3747.20 79.47 5.00 443.68 2594.99
   05:10:36.735.17-Sep-2021 5093.53 3747.25 79.47 5.00 443.88 2594.99
   05:10:36.935.17-Sep-2021 5093.53 3747.27 79.47 5.00 444.08 2594.99
   05:10:37.136.17-Sep-2021 5093.53 3747.28 79.47 5.00 444.28 2594.99
   05:10:37.336.17-Sep-2021 5093.53 3747.29 79.47 5.00 444.48 2594.99
   05:10:37.536.17-Sep-2021 5093.53 3747.29 79.47 5.00 444.68 2594.99
   05:10:37.736.17-Sep-2021 5093.53 3747.30 79.47 5.00 444.88 2594.99
   05:10:37.937.17-Sep-2021 5093.53 3747.26 79.47 5.00 445.08 2594.99
   05:10:38.137.17-Sep-2021 5093.53 3747.32 79.47 5.00 445.28 2594.99
   05:10:38.337.17-Sep-2021 5093.53 3747.36 79.47 5.00 445.48 2594.99
   05:10:38.537.17-Sep-2021 5093.53 3747.36 79.47 5.00 445.68 2594.99
   05:10:38.737.17-Sep-2021 5093.53 3747.35 79.47 5.00 445.88 2594.99
   05:10:38.938.17-Sep-2021 5093.53 3747.36 79.47 5.00 446.08 2594.99
   05:10:39.138.17-Sep-2021 5093.53 3747.33 79.47 5.00 446.28 2594.99
   05:10:39.338.17-Sep-2021 5093.53 3747.32 79.47 5.00 446.48 2594.99
   05:10:39.538.17-Sep-2021 5093.53 3747.32 79.47 5.00 446.68 2594.99
   05:10:39.738.17-Sep-2021 5093.53 3747.41 79.47 5.00 446.88 2594.99
   05:10:39.939.17-Sep-2021 5093.53 3747.40 79.47 5.00 447.08 2594.99
   05:10:40.139.17-Sep-2021 5093.53 3747.32 79.47 5.00 447.28 2594.99
   05:10:40.339.17-Sep-2021 5093.53 3747.36 79.47 5.00 447.48 2594.99
   05:10:40.539.17-Sep-2021 5093.53 3747.36 79.47 5.00 447.68 2594.99
   05:10:40.740.17-Sep-2021 5093.53 3747.32 79.47 5.00 447.88 2594.99
   05:10:40.940.17-Sep-2021 5093.53 3747.30 79.47 5.00 448.08 2594.99
   05:10:41.140.17-Sep-2021 5093.53 3747.31 79.47 5.00 448.28 2594.99
   05:10:41.340.17-Sep-2021 5093.53 3747.29 79.47 5.00 448.48 2594.99
   05:10:41.540.17-Sep-2021 5093.53 3747.29 79.47 5.00 448.68 2594.99
   05:10:41.741.17-Sep-2021 5093.53 3747.31 79.47 5.00 448.88 2594.99
   05:10:41.941.17-Sep-2021 5093.53 3747.32 79.47 5.00 449.08 2594.99
   05:10:42.141.17-Sep-2021 5093.53 3747.33 79.47 5.00 449.28 2594.99
   05:10:42.341.17-Sep-2021 5093.53 3747.36 79.47 5.00 449.48 2594.99
   05:10:42.541.17-Sep-2021 5093.53 3747.36 79.47 5.00 449.68 2594.99
   05:10:42.742.17-Sep-2021 5093.53 3747.33 79.47 5.00 449.88 2594.99
   05:10:42.942.17-Sep-2021 5093.53 3747.30 79.47 5.00 450.08 2594.99
   05:10:43.142.17-Sep-2021 5093.53 3747.30 79.47 5.00 450.28 2594.99
   05:10:43.342.17-Sep-2021 5093.53 3747.30 79.47 5.00 450.49 2594.99
   05:10:43.543.17-Sep-2021 5093.53 3747.30 79.47 5.00 450.69 2594.99
   05:10:43.743.17-Sep-2021 5093.53 3747.33 79.47 5.00 450.89 2594.99
   05:10:43.943.17-Sep-2021 5093.53 3747.33 79.47 5.00 451.09 2594.99
   05:10:44.143.17-Sep-2021 5093.53 3747.34 79.47 5.00 451.29 2594.99
   05:10:44.343.17-Sep-2021 5093.53 3747.36 79.48 5.00 451.49 2594.99
   05:10:44.544.17-Sep-2021 5093.53 3747.36 79.48 5.00 451.69 2594.99
   05:10:44.744.17-Sep-2021 5093.53 3747.36 79.48 5.00 451.89 2594.99
   05:10:44.944.17-Sep-2021 5093.53 3747.42 79.48 5.00 452.09 2594.99
   05:10:45.144.17-Sep-2021 5093.53 3747.32 79.48 5.00 452.29 2594.99
   05:10:45.345.17-Sep-2021 5093.53 3747.35 79.48 5.00 452.49 2594.99
   05:10:45.545.17-Sep-2021 5093.53 3747.35 79.48 5.00 452.69 2594.99
   05:10:45.745.17-Sep-2021 5093.53 3747.40 79.48 5.00 452.89 2594.99
   05:10:45.945.17-Sep-2021 5093.53 3747.38 79.48 5.00 453.09 2594.99
   05:10:46.145.17-Sep-2021 5093.53 3747.43 79.48 5.00 453.29 2594.99
   05:10:46.346.17-Sep-2021 5093.53 3747.42 79.48 5.00 453.49 2594.99
   05:10:46.546.17-Sep-2021 5093.53 3747.42 79.48 5.00 453.69 2594.99
   05:10:46.746.17-Sep-2021 5093.53 3747.43 79.48 5.00 453.89 2594.99
   05:10:46.946.17-Sep-2021 5093.53 3747.44 79.48 5.00 454.09 2594.99
   05:10:47.146.17-Sep-2021 5093.53 3747.44 79.48 5.00 454.29 2594.99
   05:10:47.347.17-Sep-2021 5093.53 3747.47 79.48 5.00 454.49 2594.99
   05:10:47.547.17-Sep-2021 5093.53 3747.47 79.48 5.00 454.69 2594.99
   05:10:47.747.17-Sep-2021 5093.53 3747.53 79.48 5.00 454.89 2594.99
   05:10:47.947.17-Sep-2021 5093.53 3747.59 79.48 5.00 455.09 2594.99
   05:10:48.148.17-Sep-2021 5093.53 3747.67 79.48 5.00 455.29 2594.99
   05:10:48.348.17-Sep-2021 5093.53 3747.57 79.48 5.00 455.49 2594.99
   05:10:48.548.17-Sep-2021 5093.53 3747.57 79.48 5.00 455.69 2594.99
   05:10:48.748.17-Sep-2021 5093.53 3747.56 79.48 5.00 455.89 2594.99
   05:10:48.948.17-Sep-2021 5093.53 3747.58 79.48 5.00 456.09 2594.99
   05:10:49.149.17-Sep-2021 5093.53 3747.60 79.48 5.00 456.29 2594.99
   05:10:49.349.17-Sep-2021 5093.53 3747.59 79.48 5.00 456.49 2594.99
   05:10:49.549.17-Sep-2021 5093.53 3747.59 79.48 5.00 456.69 2594.99
   05:10:49.749.17-Sep-2021 5093.53 3747.60 79.48 5.00 456.89 2594.99
   05:10:49.949.17-Sep-2021 5093.53 3747.60 79.48 5.00 457.09 2594.99
   05:10:50.150.17-Sep-2021 5093.53 3747.57 79.48 5.00 457.29 2594.99
   05:10:50.350.17-Sep-2021 5093.53 3747.67 79.48 5.00 457.49 2594.99
   05:10:50.550.17-Sep-2021 5093.53 3747.67 79.48 5.00 457.69 2594.99
   05:10:50.750.17-Sep-2021 5093.53 3747.68 79.48 5.00 457.89 2594.99
   05:10:50.951.17-Sep-2021 5093.53 3747.72 79.48 5.00 458.09 2594.99
   05:10:51.151.17-Sep-2021 5093.53 3747.68 79.48 5.00 458.29 2594.99
   05:10:51.351.17-Sep-2021 5093.53 3747.70 79.48 5.00 458.49 2594.99
   05:10:51.551.17-Sep-2021 5093.53 3747.70 79.48 5.00 458.69 2594.99
   05:10:51.751.17-Sep-2021 5093.53 3747.65 79.48 5.00 458.89 2594.99
   05:10:51.952.17-Sep-2021 5093.53 3747.58 79.48 5.00 459.09 2594.99
   05:10:52.152.17-Sep-2021 5093.53 3747.49 79.48 5.00 459.29 2594.99
   05:10:52.352.17-Sep-2021 5093.53 3747.49 79.48 5.00 459.49 2594.99
   05:10:52.552.17-Sep-2021 5093.53 3747.49 79.48 5.00 459.70 2594.99
   05:10:52.752.17-Sep-2021 5093.53 3747.54 79.48 5.00 459.90 2594.99
   05:10:52.953.17-Sep-2021 5093.53 3747.53 79.48 5.00 460.10 2594.99
   05:10:53.153.17-Sep-2021 5093.53 3747.56 79.48 5.00 460.30 2594.99
