~Version Information
 VERS.                  2.0:   CWLS log ASCII Standard -VERSION 2.0
 WRAP.                   NO:   One line per depth step
~Well Information Block
#MNEM.UNIT     VALUE/NAME     DESCRIPTION
#---------     -----------    ---------------------------
 STRT.S             11:33:10 17-Sep-21: START TIME 11:33:10 17-Sep-21
 STOP.S             11:40:20 17-Sep-21: STOP TIME  11:40:20 17-Sep-21
 STEP.S                   0.00: STEP TIME
 NULL.                 -999.25: NULL VALUE
 DFWT.                        :  DIST FWL TEXT
 DFST.                        :  DIST FSL TEXT
 DMF .             Drill Floor:  DRILL MEAS FROM
 STIM.      10.59.12 05-Jul-21:  START TIME
 DATE.      10.59.12 10-Sep-21:  END TIME
 SPUD.               05-Jul-21:  SPUD DATE
 NREF.                    Grid:  NORTH REFERENCE
 HPTY.       Minimum Curvature:  HOLE POS TYPE
 DMOD.             Drill Model:  DRILL MOD DESC
 SVYD.                  Survey:  SURVEY DESC
 ILTD.               Lithology:  INTERP LTH DESC
 FTOP.          Formation Tops:  FORM TOPS DESC
 RIG .                     DWG:  RIG NAME
 PDAT.          Mean Sea Level:  PERMANENT DATUM
 FLD .                     ACG:  FIELD NAME
 SON .        AZ-XX-0907115008:  JOB NUMBER
 CTRY.              Azerbaijan:  COUNTRY NAME
 WELL.                    E35A:  WELL NAME
 SRVC.          TURAN DRILLING:  CONTRACTOR
 COMP.     BP Exploration (Caspian Sea LTD):  COMPANY
 UWI .                     N/A:  UNIQUE WELL IDENTIFIER
 API .                     N/A:  API NUMBER
 MDS .        Operator Entered:  MAG DATA SOURCE
 BASE.              Azerbaijan:  LOGGING EQUIPMENT BASE LOCATION
 REGN.                   EESSA:  REGION
 PROV.                    Baku:  PROVINCE
 STAT.                    Baku:  STATE NAME
 MWDS.                    Baku:  MWD SHOP
 JOBN.        AZ-XX-0907115008:  JOB TICKET NUMB
 DOE .                     N/A:  DOE NUMBER
 DCON.         Sperry Drilling:  DIRECTNL CONTR
 UNIT.                     N/A:  LOGGING EQUIPMENT ID
 WTYP.                Deviated:  WELL TYPE
 CNTY.                        :  COUNTY
 LOC .                        :  LOCATION
 LMF .             Drill Floor:  LOG MEASURED FROM
 TVDS.m                  43.16:  TVDSS CORRECTN
 LATI.deg                40.17:  LATITUDE
 LONG.deg                51.17:  LONGITUDE
 WHNS.m                  10.51:  WELL HEAD N/S
 WHEW.m                 -14.82:  WELL HEAD E/W
 UTMX.m              514336.92:  UTM X
 UTMY.m             4448618.56:  UTM Y
 DFWL.m                   0.00:  DISTANCE FWL
 DFSL.m                   0.00:  DISTANCE FSL
 SDEP.m                 849.00:  START DEPTH
 TDD .m                2862.00:  TOTAL DEPTH (DRILLER)
 VSDR.deg               292.10:  VERT SEC DIRECT
 GVFD.g                   1.00:  GRAVITY FIELD
 MFLD.nT              50382.00:  MAGNETIC FIELD
 MDIP.deg                59.68:  MAGNETIC DIP
 MDEC.deg                 6.66:  MAGNETIC DECL
 GRDC.deg                 0.09:  GRID CORRECTION
 AZTC.deg                 6.57:  AZM TOTAL CORR
 EPD .m                   0.00:  ELEVATION
 EGL .m                   0.00:  GROUND ELEVATION
 WDMS.m                 176.20:  WD ELEV
 APD .m                  43.16:  DEPTH ABOVE PD
 DEP .m                 363.42:  DEPTH
 AGAP.m                  43.16:  AIR GAP
 VSEW.m                 -14.82:  VERT SEC E/W
 VSNS.m                  10.51:  VERT SEC N/S
 EKB .m                  43.16:  KB ELEVATION
 EDF .m                  43.16:  DF ELEVATION
 TDL .m                1390.00:  TOTAL DEPTH (LOGGER)
 VSC .                       0:  VS TO CLOSURE
 MAGU.                 1855871:  MAGUTM CHECKSUM
~Parameter Information Block
#MNEM.UNIT       Value        Description
#---------     -----------    ---------------------------
 AV  .mps                 2.28:  Ann Velocity 
 AVMX.mps                 2.67:  Max Ann Veloc 
 AZIF.deg               305.00:  Azm, Final 
 BHAT.        Rotary Steerable:  BHA Type 
 BROT.°/30m               0.45:  Build Rotating 
 BS  .in                 12.25:  Bit Size 
 BSZ .in                 12.25:  Bit Size 
 BTPL.psig              600.00:  Bit Press Loss 
 CABU.                     Yes:  Customer Abuse 
 COMM.                     Á~:  Run Comments 1 
 TCS .hr                150.00:  Time Ciculation Ended 
 CV  .mps                 1.24:  Crit Velocity 
 CVMX.mps                 1.66:  Max Crit Veloc 
 DD1 .         Intigam Rahimov:  Direct Drillr 1 
 DD2 .            Azer Ravavov:  Direct Drillr 2 
 DD3 .              Samir Abas:  Direct Drillr 3 
 DDSV.               Geo-Pilot:  DD Service 
 DEFF.%                 100.00:  % Det Eff 
 DLRX.°/30m               1.57:  Dogleg Rot Max 
 DLSO.°/30m               0.00:  Dogleg Oriented 
 DLSX.°/30m               0.00:  Dogleg Str Max 
 DRET.      20.28.06 17-Sep-21:  Drill End Time 
 DRST.      20.27.35 10-Sep-21:  Drill Start Tim 
 DTIM.hr                 54.00:  Time Drilling 
 EDEP.m                5260.00:  End Depth 
 ENG1.      Bakhtiyar Jabbarli:  Engineer 1 
 ENG2.      Natik Hasanaghayev:  Engineer 2 
 ENG3.           Royal Nasirov:  Engineer 3 
 ETIM.      20.27.55 18-Sep-21:  End Time 
 FLOI.gpm              1100.00:  Flow In 
 FLON.gpm               800.00:  Flow In Min 
 FLOS.cptm                0.00:  Fluid Loss 
 FLOX.gpm              1200.00:  Flow In Max 
 DFT .        Mineral Oil Base:  Mud Type 
 HPRE.                      No:  High Pressure 
 HTEM.                      No:  High Temp 
 HYDO.m                   1.80:  Hydro Offset 
 IFIN.deg                72.31:  Inc, Final 
 IMAX.deg                72.36:  Inc Max 
 IMIN.deg                69.36:  Inc Min 
 IMND.m                4192.96:  Inc Min Depth 
 IMXD.m                5128.36:  Inc Max Depth 
 JARR.                      No:  Jarring 
 LETM.      20.29.00 17-Sep-21:  Log End Time 
 LOST.hr                     0:  Lost Rig Time 
 LSTM.      20.27.00 10-Sep-21:  Log Start Time 
 MDCL.ppm            227000.00:  Mud Chlorides 
 MDES.     Inversion Oil/Synthetic:  Mud Desc 
 DFD .sg                  1.45:  Mud Density 
 MDMN.sg                  1.45:  Dens Mud Min 
 MDMX.sg                  1.45:  Dens Mud Max 
 MOIL.                    70.5:  Run Mud Oil % 
 MOWR.                   71:29:  Run Mud OWR 
 MSND.                     0.3:  Run Mud Sand % 
 MSOL.                    19.8:  Run Mud Solids% 
 DFV .spqt               80.00:  Mud Viscosity 
 MWOD.in                  8.00:  MWD Tool OD 
 MWSI.                     Yes:  Serv Intrp, MWD 
 OTIM.hr                180.00:  Time Operating 
 PCON.           Look Like New:  Pad Condition 
 PMAX.psia             9910.94:  Press Op, Max 
 PV  .cP                 35.00:  Mud PV 
 RUN .                    1000:  Run Number 
 ROPA.m/hr               18.00:  ROP Avg 
 ROPN.m/hr                8.00:  ROP Min 
 ROPX.m/hr               23.00:  ROP Max 
 RPMA.rpm               150.00:  RPM Surface Avg 
 RPMN.rpm               120.00:  RPM Surface Min 
 RPMX.rpm               160.00:  RPM Surface Max 
 RRUN.                    L503:  Rig Run Number 
 RTIM.hr                  5.00:  Time Reaming 
 SAZI.deg               298.42:  Azm, Start 
 SDEP.m                3870.00:  Start Depth 
 SIDD.                      No:  Serv Intrp, DD 
 SINC.deg                69.57:  Inc, Start 
 SPPA.psig             5500.00:  SPP Avg 
 SPPN.psig             4400.00:  SPP Min 
 SPPX.psig             5800.00:  SPP Max 
 STIM.      15.29.39 09-Sep-21:  Start Time 
 SVCS.                 DD, MWD:  Services 
 SVER.                    9.20:  Sperry Version 
 TDAT.m                5260.00:  Tot Depth Attmp 
 TDDF.                      No:  Trip for DD 
 TDLG.m                1390.00:  Tot Depth Loggd 
 TFF .                      No:  Trip for Fail 
 TQAA.f-kp               22.00:  Torque Abs Avg 
 TQAN.f-kp               13.00:  Torque Abs Min 
 TQAX.f-kp               27.00:  Torque Abs Max 
 TRRT.°/30m               1.60:  Turn Rotating 
 MRT .                  EWR-M5:  Maximum Recorded Temperature 
 TTMX.degC               92.00:  Max Tool Temp 
 VS01.                12330975:  Virtual Str1 SN 
 VS02.                90658671:  Virtual Str2 SN 
 VS03.                90658508:  Virtual Str3 SN 
 VS04.                90660974:  Virtual Str4 SN 
 VS05.                90654675:  Virtual Str5 SN 
 WBMN.klb                15.00:  WOB Min 
 WITN.     Alexander Yadullayev:  Customer Rep 
 WITN.           Adil Mammadov:  Customer Rep 2 
 WOBA.klb                17.00:  WOB Avg 
 WOBX.klb                18.00:  WOB Max 
 YP  .lhf2               31.00:  Yield Point 
~Curve Information Block
#MNEM.UNIT                 API CODE     Curve Description
#---------               -----------    ---------------------------
 TIME.HHMMSS            00 000 000 000:  GT Time & Date
 GTDEPTH.m              00 000 000 000:  GT Depth
 GTPQH.psia             00 000 000 000:  GT HR Quartz Pressure
 GTTQ.degC              00 000 000 000:  GT Quartz Temperature
 GTTN.NONE              00 000 000 000:  GT Test Number
 GTET.sec               00 000 000 000:  GT Elapsed Test Time
 GTTVD.m                00 000 000 000:  GT True Vertical Depth
#Other Information
#
#WARRANTY: Halliburton will use its best efforts to furnish customers with 
#accurate information and interpretations that are part of, and incident to, the services 
#provided.  However, Halliburton cannot and does not warrant the accuracy 
#or correctness of such information and interpretations.  Under no circumstances should any 
#such information or interpretation be relied upon as the sole basis for any drilling, 
#completion, production, or financial decision or any procedure involving any risk to the 
#safety of any drilling venture, drilling rig or its crew or any other third party.  The 
#Customer has full responsibility for all drilling, completion and production operation.  
#Halliburton makes no representations or warranties, either expressed or 
#implied, including, but not limited to, the implied warranties of merchantability or fitness 
#for a particular purpose, with respect to the services rendered.  In no event will 
#Halliburton be liable for failure to obtain any particular results or for 
#any damages, including, but not limited to, indirect, special or consequential damages, 
#resulting from the use of any information or interpretation provided by Halliburton.
#
~A           TIME           GTDEPTH  GTPQH  GTTQ  GTTN  GTET   GTTVD  
# ...
   11:40:04.791.17-Sep-2021 4887.00 5435.24 77.25 9.00 414.05 2528.65
   11:40:04.991.17-Sep-2021 4887.00 5435.24 77.25 9.00 414.25 2528.65
   11:40:05.191.17-Sep-2021 4887.00 5439.25 77.25 9.00 414.45 2528.65
   11:40:05.391.17-Sep-2021 4887.00 5434.04 77.25 9.00 414.65 2528.65
   11:40:05.591.17-Sep-2021 4887.00 5435.45 77.25 9.00 414.85 2528.65
   11:40:05.791.17-Sep-2021 4887.00 5435.57 77.25 9.00 415.05 2528.65
   11:40:05.991.17-Sep-2021 4887.00 5435.57 77.25 9.00 415.25 2528.65
   11:40:06.191.17-Sep-2021 4887.00 5439.84 77.25 9.00 415.45 2528.65
   11:40:06.391.17-Sep-2021 4887.00 5434.24 77.25 9.00 415.65 2528.65
   11:40:06.591.17-Sep-2021 4887.00 5436.05 77.25 9.00 415.85 2528.65
   11:40:06.791.17-Sep-2021 4887.00 5435.31 77.25 9.00 416.05 2528.65
   11:40:06.991.17-Sep-2021 4887.00 5435.31 77.25 9.00 416.25 2528.65
   11:40:07.191.17-Sep-2021 4887.00 5437.61 77.25 9.00 416.45 2528.65
   11:40:07.391.17-Sep-2021 4887.00 5435.09 77.25 9.00 416.65 2528.65
   11:40:07.591.17-Sep-2021 4887.00 5435.49 77.25 9.00 416.85 2528.65
   11:40:07.791.17-Sep-2021 4887.00 5435.70 77.25 9.00 417.05 2528.65
   11:40:07.991.17-Sep-2021 4887.00 5435.70 77.25 9.00 417.25 2528.65
   11:40:08.191.17-Sep-2021 4887.00 5434.27 77.25 9.00 417.45 2528.65
   11:40:08.391.17-Sep-2021 4887.00 5435.13 77.25 9.00 417.65 2528.65
   11:40:08.591.17-Sep-2021 4887.00 5435.79 77.25 9.00 417.85 2528.65
   11:40:08.792.17-Sep-2021 4887.00 5437.23 77.25 9.00 418.05 2528.65
   11:40:08.992.17-Sep-2021 4887.00 5437.23 77.25 9.00 418.25 2528.65
   11:40:09.192.17-Sep-2021 4887.00 5434.91 77.25 9.00 418.45 2528.65
   11:40:09.392.17-Sep-2021 4887.00 5436.02 77.25 9.00 418.65 2528.65
   11:40:09.592.17-Sep-2021 4887.00 5435.91 77.25 9.00 418.85 2528.65
   11:40:09.792.17-Sep-2021 4887.00 5435.35 77.25 9.00 419.05 2528.65
   11:40:09.992.17-Sep-2021 4887.00 5435.35 77.25 9.00 419.25 2528.65
   11:40:10.192.17-Sep-2021 4887.00 5435.94 77.25 9.00 419.45 2528.65
   11:40:10.392.17-Sep-2021 4887.00 5436.46 77.25 9.00 419.65 2528.65
   11:40:10.592.17-Sep-2021 4887.00 5436.14 77.25 9.00 419.85 2528.65
   11:40:10.792.17-Sep-2021 4887.00 5436.04 77.25 9.00 420.05 2528.65
   11:40:10.992.17-Sep-2021 4887.00 5436.04 77.25 9.00 420.25 2528.65
   11:40:11.192.17-Sep-2021 4887.00 5437.23 77.25 9.00 420.45 2528.65
   11:40:11.392.17-Sep-2021 4887.00 5436.72 77.25 9.00 420.65 2528.65
   11:40:11.592.17-Sep-2021 4887.00 5436.29 77.25 9.00 420.85 2528.65
   11:40:11.792.17-Sep-2021 4887.00 5437.21 77.25 9.00 421.05 2528.65
   11:40:11.992.17-Sep-2021 4887.00 5437.21 77.25 9.00 421.25 2528.65
   11:40:12.192.17-Sep-2021 4887.00 5436.32 77.25 9.00 421.45 2528.65
   11:40:12.392.17-Sep-2021 4887.00 5436.24 77.25 9.00 421.65 2528.65
   11:40:12.592.17-Sep-2021 4887.00 5436.13 77.25 9.00 421.85 2528.65
   11:40:12.792.17-Sep-2021 4887.00 5436.11 77.25 9.00 422.05 2528.65
   11:40:12.992.17-Sep-2021 4887.00 5436.11 77.25 9.00 422.25 2528.65
   11:40:13.192.17-Sep-2021 4887.00 5435.88 77.25 9.00 422.45 2528.65
   11:40:13.392.17-Sep-2021 4887.00 5436.11 77.25 9.00 422.65 2528.65
   11:40:13.592.17-Sep-2021 4887.00 5436.17 77.25 9.00 422.85 2528.65
   11:40:13.792.17-Sep-2021 4887.00 5435.98 77.25 9.00 423.05 2528.65
   11:40:13.992.17-Sep-2021 4887.00 5435.98 77.25 9.00 423.25 2528.65
   11:40:14.192.17-Sep-2021 4887.00 5436.27 77.25 9.00 423.45 2528.65
   11:40:14.392.17-Sep-2021 4887.00 5436.46 77.25 9.00 423.65 2528.65
   11:40:14.592.17-Sep-2021 4887.00 5438.90 77.25 9.00 423.85 2528.65
   11:40:14.792.17-Sep-2021 4887.00 5436.60 77.25 9.00 424.05 2528.65
   11:40:14.992.17-Sep-2021 4887.00 5436.60 77.25 9.00 424.25 2528.65
   11:40:15.192.17-Sep-2021 4887.00 5434.14 77.25 9.00 424.45 2528.65
   11:40:15.392.17-Sep-2021 4887.00 5435.31 77.25 9.00 424.65 2528.65
   11:40:15.592.17-Sep-2021 4887.00 5437.48 77.25 9.00 424.85 2528.65
   11:40:15.792.17-Sep-2021 4887.00 5433.49 77.25 9.00 425.05 2528.65
   11:40:15.992.17-Sep-2021 4887.00 5433.49 77.25 9.00 425.25 2528.65
   11:40:16.192.17-Sep-2021 4887.00 5434.59 77.25 9.00 425.45 2528.65
   11:40:16.392.17-Sep-2021 4887.00 5435.42 77.25 9.00 425.65 2528.65
   11:40:16.592.17-Sep-2021 4887.00 5436.16 77.25 9.00 425.85 2528.65
   11:40:16.792.17-Sep-2021 4887.00 5435.72 77.25 9.00 426.05 2528.65
   11:40:16.992.17-Sep-2021 4887.00 5435.72 77.25 9.00 426.25 2528.65
   11:40:17.192.17-Sep-2021 4887.00 5435.13 77.25 9.00 426.45 2528.65
   11:40:17.392.17-Sep-2021 4887.00 5436.51 77.25 9.00 426.65 2528.65
   11:40:17.592.17-Sep-2021 4887.00 5435.35 77.25 9.00 426.85 2528.65
   11:40:17.793.17-Sep-2021 4887.00 5432.55 77.25 9.00 427.05 2528.65
   11:40:17.993.17-Sep-2021 4887.00 5432.55 77.25 9.00 427.25 2528.65
   11:40:18.193.17-Sep-2021 4887.00 5433.02 77.25 9.00 427.45 2528.65
   11:40:18.393.17-Sep-2021 4887.00 5432.77 77.25 9.00 427.65 2528.65
   11:40:18.593.17-Sep-2021 4887.00 5432.34 77.25 9.00 427.85 2528.65
   11:40:18.793.17-Sep-2021 4887.00 5432.84 77.25 9.00 428.05 2528.65
   11:40:18.993.17-Sep-2021 4887.00 5432.84 77.25 9.00 428.25 2528.65
   11:40:19.193.17-Sep-2021 4887.00 5432.14 77.25 9.00 428.45 2528.65
   11:40:19.393.17-Sep-2021 4887.00 5429.27 77.25 9.00 428.65 2528.65
   11:40:19.593.17-Sep-2021 4887.00 5424.00 77.25 9.00 428.85 2528.65
   11:40:19.793.17-Sep-2021 4887.00 5425.23 77.25 9.00 429.05 2528.65
   11:40:19.993.17-Sep-2021 4887.00 5425.23 77.25 9.00 429.25 2528.65
   11:40:20.193.17-Sep-2021 4887.00 5427.05 77.25 9.00 429.45 2528.65
   11:40:20.393.17-Sep-2021 4887.00 5428.13 77.25 9.00 429.65 2528.65
   11:40:20.593.17-Sep-2021 4887.00 5432.86 77.25 9.00 429.85 2528.65
