~Version Information
 VERS.                  2.0:   CWLS log ASCII Standard -VERSION 2.0
 WRAP.                   NO:   One line per depth step
~Well Information Block
#MNEM.UNIT     VALUE/NAME     DESCRIPTION
#---------     -----------    ---------------------------
 STRT.S             11:33:10 17-Sep-21: START TIME 11:33:10 17-Sep-21
 STOP.S             11:40:20 17-Sep-21: STOP TIME  11:40:20 17-Sep-21
 STEP.S                   0.00: STEP TIME
 NULL.                 -999.25: NULL VALUE
 DFWT.                        :  DIST FWL TEXT
 DFST.                        :  DIST FSL TEXT
 DMF .             Drill Floor:  DRILL MEAS FROM
 STIM.      10.59.12 05-Jul-21:  START TIME
 DATE.      10.59.12 10-Sep-21:  END TIME
 SPUD.               05-Jul-21:  SPUD DATE
 NREF.                    Grid:  NORTH REFERENCE
 HPTY.       Minimum Curvature:  HOLE POS TYPE
 DMOD.             Drill Model:  DRILL MOD DESC
 SVYD.                  Survey:  SURVEY DESC
 ILTD.               Lithology:  INTERP LTH DESC
 FTOP.          Formation Tops:  FORM TOPS DESC
 RIG .                     DWG:  RIG NAME
 PDAT.          Mean Sea Level:  PERMANENT DATUM
 FLD .                     ACG:  FIELD NAME
 SON .        AZ-XX-0907115008:  JOB NUMBER
 CTRY.              Azerbaijan:  COUNTRY NAME
 WELL.                    E35A:  WELL NAME
 SRVC.          TURAN DRILLING:  CONTRACTOR
 COMP.     BP Exploration (Caspian Sea LTD):  COMPANY
 UWI .                     N/A:  UNIQUE WELL IDENTIFIER
 API .                     N/A:  API NUMBER
 MDS .        Operator Entered:  MAG DATA SOURCE
 BASE.              Azerbaijan:  LOGGING EQUIPMENT BASE LOCATION
 REGN.                   EESSA:  REGION
 PROV.                    Baku:  PROVINCE
 STAT.                    Baku:  STATE NAME
 MWDS.                    Baku:  MWD SHOP
 JOBN.        AZ-XX-0907115008:  JOB TICKET NUMB
 DOE .                     N/A:  DOE NUMBER
 DCON.         Sperry Drilling:  DIRECTNL CONTR
 UNIT.                     N/A:  LOGGING EQUIPMENT ID
 WTYP.                Deviated:  WELL TYPE
 CNTY.                        :  COUNTY
 LOC .                        :  LOCATION
 LMF .             Drill Floor:  LOG MEASURED FROM
 TVDS.m                  43.16:  TVDSS CORRECTN
 LATI.deg                40.17:  LATITUDE
 LONG.deg                51.17:  LONGITUDE
 WHNS.m                  10.51:  WELL HEAD N/S
 WHEW.m                 -14.82:  WELL HEAD E/W
 UTMX.m              514336.92:  UTM X
 UTMY.m             4448618.56:  UTM Y
 DFWL.m                   0.00:  DISTANCE FWL
 DFSL.m                   0.00:  DISTANCE FSL
 SDEP.m                 849.00:  START DEPTH
 TDD .m                2862.00:  TOTAL DEPTH (DRILLER)
 VSDR.deg               292.10:  VERT SEC DIRECT
 GVFD.g                   1.00:  GRAVITY FIELD
 MFLD.nT              50382.00:  MAGNETIC FIELD
 MDIP.deg                59.68:  MAGNETIC DIP
 MDEC.deg                 6.66:  MAGNETIC DECL
 GRDC.deg                 0.09:  GRID CORRECTION
 AZTC.deg                 6.57:  AZM TOTAL CORR
 EPD .m                   0.00:  ELEVATION
 EGL .m                   0.00:  GROUND ELEVATION
 WDMS.m                 176.20:  WD ELEV
 APD .m                  43.16:  DEPTH ABOVE PD
 DEP .m                 363.42:  DEPTH
 AGAP.m                  43.16:  AIR GAP
 VSEW.m                 -14.82:  VERT SEC E/W
 VSNS.m                  10.51:  VERT SEC N/S
 EKB .m                  43.16:  KB ELEVATION
 EDF .m                  43.16:  DF ELEVATION
 TDL .m                1390.00:  TOTAL DEPTH (LOGGER)
 VSC .                       0:  VS TO CLOSURE
 MAGU.                 1855871:  MAGUTM CHECKSUM
~Parameter Information Block
#MNEM.UNIT       Value        Description
#---------     -----------    ---------------------------
 AV  .mps                 2.28:  Ann Velocity 
 AVMX.mps                 2.67:  Max Ann Veloc 
 AZIF.deg               305.00:  Azm, Final 
 BHAT.        Rotary Steerable:  BHA Type 
 BROT.°/30m               0.45:  Build Rotating 
 BS  .in                 12.25:  Bit Size 
 BSZ .in                 12.25:  Bit Size 
 BTPL.psig              600.00:  Bit Press Loss 
 CABU.                     Yes:  Customer Abuse 
 COMM.                     Á~:  Run Comments 1 
 TCS .hr                150.00:  Time Ciculation Ended 
 CV  .mps                 1.24:  Crit Velocity 
 CVMX.mps                 1.66:  Max Crit Veloc 
 DD1 .         Intigam Rahimov:  Direct Drillr 1 
 DD2 .            Azer Ravavov:  Direct Drillr 2 
 DD3 .              Samir Abas:  Direct Drillr 3 
 DDSV.               Geo-Pilot:  DD Service 
 DEFF.%                 100.00:  % Det Eff 
 DLRX.°/30m               1.57:  Dogleg Rot Max 
 DLSO.°/30m               0.00:  Dogleg Oriented 
 DLSX.°/30m               0.00:  Dogleg Str Max 
 DRET.      20.28.06 17-Sep-21:  Drill End Time 
 DRST.      20.27.35 10-Sep-21:  Drill Start Tim 
 DTIM.hr                 54.00:  Time Drilling 
 EDEP.m                5260.00:  End Depth 
 ENG1.      Bakhtiyar Jabbarli:  Engineer 1 
 ENG2.      Natik Hasanaghayev:  Engineer 2 
 ENG3.           Royal Nasirov:  Engineer 3 
 ETIM.      20.27.55 18-Sep-21:  End Time 
 FLOI.gpm              1100.00:  Flow In 
 FLON.gpm               800.00:  Flow In Min 
 FLOS.cptm                0.00:  Fluid Loss 
 FLOX.gpm              1200.00:  Flow In Max 
 DFT .        Mineral Oil Base:  Mud Type 
 HPRE.                      No:  High Pressure 
 HTEM.                      No:  High Temp 
 HYDO.m                   1.80:  Hydro Offset 
 IFIN.deg                72.31:  Inc, Final 
 IMAX.deg                72.36:  Inc Max 
 IMIN.deg                69.36:  Inc Min 
 IMND.m                4192.96:  Inc Min Depth 
 IMXD.m                5128.36:  Inc Max Depth 
 JARR.                      No:  Jarring 
 LETM.      20.29.00 17-Sep-21:  Log End Time 
 LOST.hr                     0:  Lost Rig Time 
 LSTM.      20.27.00 10-Sep-21:  Log Start Time 
 MDCL.ppm            227000.00:  Mud Chlorides 
 MDES.     Inversion Oil/Synthetic:  Mud Desc 
 DFD .sg                  1.45:  Mud Density 
 MDMN.sg                  1.45:  Dens Mud Min 
 MDMX.sg                  1.45:  Dens Mud Max 
 MOIL.                    70.5:  Run Mud Oil % 
 MOWR.                   71:29:  Run Mud OWR 
 MSND.                     0.3:  Run Mud Sand % 
 MSOL.                    19.8:  Run Mud Solids% 
 DFV .spqt               80.00:  Mud Viscosity 
 MWOD.in                  8.00:  MWD Tool OD 
 MWSI.                     Yes:  Serv Intrp, MWD 
 OTIM.hr                180.00:  Time Operating 
 PCON.           Look Like New:  Pad Condition 
 PMAX.psia             9910.94:  Press Op, Max 
 PV  .cP                 35.00:  Mud PV 
 RUN .                    1000:  Run Number 
 ROPA.m/hr               18.00:  ROP Avg 
 ROPN.m/hr                8.00:  ROP Min 
 ROPX.m/hr               23.00:  ROP Max 
 RPMA.rpm               150.00:  RPM Surface Avg 
 RPMN.rpm               120.00:  RPM Surface Min 
 RPMX.rpm               160.00:  RPM Surface Max 
 RRUN.                    L503:  Rig Run Number 
 RTIM.hr                  5.00:  Time Reaming 
 SAZI.deg               298.42:  Azm, Start 
 SDEP.m                3870.00:  Start Depth 
 SIDD.                      No:  Serv Intrp, DD 
 SINC.deg                69.57:  Inc, Start 
 SPPA.psig             5500.00:  SPP Avg 
 SPPN.psig             4400.00:  SPP Min 
 SPPX.psig             5800.00:  SPP Max 
 STIM.      15.29.39 09-Sep-21:  Start Time 
 SVCS.                 DD, MWD:  Services 
 SVER.                    9.20:  Sperry Version 
 TDAT.m                5260.00:  Tot Depth Attmp 
 TDDF.                      No:  Trip for DD 
 TDLG.m                1390.00:  Tot Depth Loggd 
 TFF .                      No:  Trip for Fail 
 TQAA.f-kp               22.00:  Torque Abs Avg 
 TQAN.f-kp               13.00:  Torque Abs Min 
 TQAX.f-kp               27.00:  Torque Abs Max 
 TRRT.°/30m               1.60:  Turn Rotating 
 MRT .                  EWR-M5:  Maximum Recorded Temperature 
 TTMX.degC               92.00:  Max Tool Temp 
 VS01.                12330975:  Virtual Str1 SN 
 VS02.                90658671:  Virtual Str2 SN 
 VS03.                90658508:  Virtual Str3 SN 
 VS04.                90660974:  Virtual Str4 SN 
 VS05.                90654675:  Virtual Str5 SN 
 WBMN.klb                15.00:  WOB Min 
 WITN.     Alexander Yadullayev:  Customer Rep 
 WITN.           Adil Mammadov:  Customer Rep 2 
 WOBA.klb                17.00:  WOB Avg 
 WOBX.klb                18.00:  WOB Max 
 YP  .lhf2               31.00:  Yield Point 
~Curve Information Block
#MNEM.UNIT                 API CODE     Curve Description
#---------               -----------    ---------------------------
 TIME.HHMMSS            00 000 000 000:  GT Time & Date
 GTDEPTH.m              00 000 000 000:  GT Depth
 GTPQH.psia             00 000 000 000:  GT HR Quartz Pressure
 GTTQ.degC              00 000 000 000:  GT Quartz Temperature
 GTTN.NONE              00 000 000 000:  GT Test Number
 GTET.sec               00 000 000 000:  GT Elapsed Test Time
 GTTVD.m                00 000 000 000:  GT True Vertical Depth
#Other Information
#
#WARRANTY: Halliburton will use its best efforts to furnish customers with 
#accurate information and interpretations that are part of, and incident to, the services 
#provided.  However, Halliburton cannot and does not warrant the accuracy 
#or correctness of such information and interpretations.  Under no circumstances should any 
#such information or interpretation be relied upon as the sole basis for any drilling, 
#completion, production, or financial decision or any procedure involving any risk to the 
#safety of any drilling venture, drilling rig or its crew or any other third party.  The 
#Customer has full responsibility for all drilling, completion and production operation.  
#Halliburton makes no representations or warranties, either expressed or 
#implied, including, but not limited to, the implied warranties of merchantability or fitness 
#for a particular purpose, with respect to the services rendered.  In no event will 
#Halliburton be liable for failure to obtain any particular results or for 
#any damages, including, but not limited to, indirect, special or consequential damages, 
#resulting from the use of any information or interpretation provided by Halliburton.
#
~A           TIME           GTDEPTH  GTPQH  GTTQ  GTTN  GTET   GTTVD  
# ...
   11:37:46.776.17-Sep-2021 4887.00 5435.85 77.25 9.00 276.03 2528.65
   11:37:46.976.17-Sep-2021 4887.00 5435.85 77.25 9.00 276.23 2528.65
   11:37:47.176.17-Sep-2021 4887.00 5434.63 77.25 9.00 276.43 2528.65
   11:37:47.376.17-Sep-2021 4887.00 5434.60 77.25 9.00 276.63 2528.65
   11:37:47.576.17-Sep-2021 4887.00 5434.77 77.25 9.00 276.83 2528.65
   11:37:47.776.17-Sep-2021 4887.00 5434.17 77.25 9.00 277.03 2528.65
   11:37:47.976.17-Sep-2021 4887.00 5434.17 77.25 9.00 277.23 2528.65
   11:37:48.176.17-Sep-2021 4887.00 5434.82 77.25 9.00 277.43 2528.65
   11:37:48.376.17-Sep-2021 4887.00 5434.50 77.25 9.00 277.63 2528.65
   11:37:48.576.17-Sep-2021 4887.00 5434.21 77.25 9.00 277.83 2528.65
   11:37:48.776.17-Sep-2021 4887.00 5434.53 77.25 9.00 278.03 2528.65
   11:37:48.976.17-Sep-2021 4887.00 5434.53 77.25 9.00 278.23 2528.65
   11:37:49.176.17-Sep-2021 4887.00 5435.00 77.25 9.00 278.43 2528.65
   11:37:49.376.17-Sep-2021 4887.00 5434.88 77.25 9.00 278.63 2528.65
   11:37:49.576.17-Sep-2021 4887.00 5434.86 77.25 9.00 278.83 2528.65
   11:37:49.776.17-Sep-2021 4887.00 5438.96 77.25 9.00 279.03 2528.65
   11:37:49.976.17-Sep-2021 4887.00 5438.96 77.25 9.00 279.23 2528.65
   11:37:50.176.17-Sep-2021 4887.00 5435.04 77.25 9.00 279.43 2528.65
   11:37:50.376.17-Sep-2021 4887.00 5434.77 77.25 9.00 279.63 2528.65
   11:37:50.576.17-Sep-2021 4887.00 5436.16 77.25 9.00 279.83 2528.65
   11:37:50.776.17-Sep-2021 4887.00 5434.70 77.25 9.00 280.03 2528.65
   11:37:50.976.17-Sep-2021 4887.00 5434.70 77.25 9.00 280.23 2528.65
   11:37:51.176.17-Sep-2021 4887.00 5434.12 77.25 9.00 280.43 2528.65
   11:37:51.376.17-Sep-2021 4887.00 5432.74 77.25 9.00 280.63 2528.65
   11:37:51.576.17-Sep-2021 4887.00 5432.99 77.25 9.00 280.83 2528.65
   11:37:51.776.17-Sep-2021 4887.00 5434.11 77.25 9.00 281.03 2528.65
   11:37:51.976.17-Sep-2021 4887.00 5434.11 77.25 9.00 281.23 2528.65
   11:37:52.176.17-Sep-2021 4887.00 5434.64 77.25 9.00 281.43 2528.65
   11:37:52.376.17-Sep-2021 4887.00 5434.53 77.25 9.00 281.63 2528.65
   11:37:52.576.17-Sep-2021 4887.00 5434.45 77.25 9.00 281.83 2528.65
   11:37:52.776.17-Sep-2021 4887.00 5434.60 77.25 9.00 282.03 2528.65
   11:37:52.976.17-Sep-2021 4887.00 5434.60 77.25 9.00 282.23 2528.65
   11:37:53.176.17-Sep-2021 4887.00 5437.37 77.25 9.00 282.43 2528.65
   11:37:53.377.17-Sep-2021 4887.00 5434.63 77.25 9.00 282.63 2528.65
   11:37:53.577.17-Sep-2021 4887.00 5435.13 77.25 9.00 282.83 2528.65
   11:37:53.777.17-Sep-2021 4887.00 5434.70 77.25 9.00 283.03 2528.65
   11:37:53.977.17-Sep-2021 4887.00 5434.70 77.25 9.00 283.23 2528.65
   11:37:54.177.17-Sep-2021 4887.00 5435.54 77.25 9.00 283.43 2528.65
   11:37:54.377.17-Sep-2021 4887.00 5436.75 77.25 9.00 283.63 2528.65
   11:37:54.577.17-Sep-2021 4887.00 5435.01 77.25 9.00 283.83 2528.65
   11:37:54.777.17-Sep-2021 4887.00 5434.39 77.25 9.00 284.03 2528.65
   11:37:54.977.17-Sep-2021 4887.00 5434.39 77.25 9.00 284.23 2528.65
   11:37:55.177.17-Sep-2021 4887.00 5439.07 77.25 9.00 284.43 2528.65
   11:37:55.377.17-Sep-2021 4887.00 5432.73 77.25 9.00 284.63 2528.65
   11:37:55.577.17-Sep-2021 4887.00 5434.37 77.25 9.00 284.83 2528.65
   11:37:55.777.17-Sep-2021 4887.00 5434.35 77.25 9.00 285.03 2528.65
   11:37:55.977.17-Sep-2021 4887.00 5434.35 77.25 9.00 285.23 2528.65
   11:37:56.177.17-Sep-2021 4887.00 5436.31 77.25 9.00 285.43 2528.65
   11:37:56.377.17-Sep-2021 4887.00 5433.60 77.25 9.00 285.63 2528.65
   11:37:56.577.17-Sep-2021 4887.00 5434.95 77.25 9.00 285.83 2528.65
   11:37:56.777.17-Sep-2021 4887.00 5434.14 77.25 9.00 286.03 2528.65
   11:37:56.977.17-Sep-2021 4887.00 5434.14 77.25 9.00 286.23 2528.65
   11:37:57.177.17-Sep-2021 4887.00 5434.34 77.25 9.00 286.43 2528.65
   11:37:57.377.17-Sep-2021 4887.00 5434.43 77.25 9.00 286.63 2528.65
   11:37:57.577.17-Sep-2021 4887.00 5435.03 77.25 9.00 286.83 2528.65
   11:37:57.777.17-Sep-2021 4887.00 5434.62 77.25 9.00 287.03 2528.65
   11:37:57.977.17-Sep-2021 4887.00 5434.62 77.25 9.00 287.23 2528.65
   11:37:58.177.17-Sep-2021 4887.00 5434.32 77.25 9.00 287.43 2528.65
   11:37:58.377.17-Sep-2021 4887.00 5434.75 77.25 9.00 287.63 2528.65
   11:37:58.577.17-Sep-2021 4887.00 5434.86 77.25 9.00 287.83 2528.65
   11:37:58.777.17-Sep-2021 4887.00 5434.80 77.25 9.00 288.03 2528.65
   11:37:58.977.17-Sep-2021 4887.00 5434.80 77.25 9.00 288.23 2528.65
   11:37:59.177.17-Sep-2021 4887.00 5434.77 77.25 9.00 288.43 2528.65
   11:37:59.377.17-Sep-2021 4887.00 5438.03 77.25 9.00 288.63 2528.65
   11:37:59.577.17-Sep-2021 4887.00 5434.54 77.25 9.00 288.83 2528.65
   11:37:59.777.17-Sep-2021 4887.00 5434.78 77.25 9.00 289.03 2528.65
   11:37:59.977.17-Sep-2021 4887.00 5434.78 77.25 9.00 289.23 2528.65
   11:38:00.177.17-Sep-2021 4887.00 5435.89 77.25 9.00 289.43 2528.65
   11:38:00.377.17-Sep-2021 4887.00 5434.60 77.25 9.00 289.63 2528.65
   11:38:00.577.17-Sep-2021 4887.00 5434.38 77.25 9.00 289.83 2528.65
   11:38:00.777.17-Sep-2021 4887.00 5434.64 77.25 9.00 290.03 2528.65
   11:38:00.977.17-Sep-2021 4887.00 5434.64 77.25 9.00 290.23 2528.65
   11:38:01.177.17-Sep-2021 4887.00 5434.14 77.25 9.00 290.43 2528.65
   11:38:01.377.17-Sep-2021 4887.00 5434.22 77.25 9.00 290.63 2528.65
   11:38:01.577.17-Sep-2021 4887.00 5434.38 77.25 9.00 290.83 2528.65
   11:38:01.777.17-Sep-2021 4887.00 5434.70 77.25 9.00 291.03 2528.65
   11:38:01.977.17-Sep-2021 4887.00 5434.70 77.25 9.00 291.23 2528.65
   11:38:02.177.17-Sep-2021 4887.00 5434.42 77.25 9.00 291.43 2528.65
   11:38:02.378.17-Sep-2021 4887.00 5434.57 77.25 9.00 291.63 2528.65
   11:38:02.578.17-Sep-2021 4887.00 5434.98 77.25 9.00 291.83 2528.65
   11:38:02.778.17-Sep-2021 4887.00 5438.73 77.25 9.00 292.03 2528.65
   11:38:02.978.17-Sep-2021 4887.00 5438.73 77.25 9.00 292.23 2528.65
   11:38:03.178.17-Sep-2021 4887.00 5434.85 77.25 9.00 292.43 2528.65
   11:38:03.378.17-Sep-2021 4887.00 5434.50 77.25 9.00 292.63 2528.65
   11:38:03.578.17-Sep-2021 4887.00 5435.94 77.25 9.00 292.83 2528.65
   11:38:03.778.17-Sep-2021 4887.00 5437.05 77.25 9.00 293.03 2528.65
   11:38:03.978.17-Sep-2021 4887.00 5437.05 77.25 9.00 293.23 2528.65
   11:38:04.178.17-Sep-2021 4887.00 5434.91 77.25 9.00 293.43 2528.65
   11:38:04.378.17-Sep-2021 4887.00 5434.08 77.25 9.00 293.63 2528.65
   11:38:04.578.17-Sep-2021 4887.00 5434.75 77.25 9.00 293.83 2528.65
   11:38:04.778.17-Sep-2021 4887.00 5437.25 77.25 9.00 294.03 2528.65
   11:38:04.978.17-Sep-2021 4887.00 5437.25 77.25 9.00 294.23 2528.65
   11:38:05.178.17-Sep-2021 4887.00 5434.26 77.25 9.00 294.43 2528.65
   11:38:05.378.17-Sep-2021 4887.00 5433.91 77.25 9.00 294.63 2528.65
   11:38:05.578.17-Sep-2021 4887.00 5434.89 77.25 9.00 294.83 2528.65
   11:38:05.778.17-Sep-2021 4887.00 5437.64 77.25 9.00 295.03 2528.65
   11:38:05.978.17-Sep-2021 4887.00 5437.64 77.25 9.00 295.23 2528.65
   11:38:06.178.17-Sep-2021 4887.00 5434.71 77.25 9.00 295.43 2528.65
   11:38:06.378.17-Sep-2021 4887.00 5433.92 77.25 9.00 295.63 2528.65
   11:38:06.578.17-Sep-2021 4887.00 5435.13 77.25 9.00 295.83 2528.65
   11:38:06.778.17-Sep-2021 4887.00 5433.57 77.25 9.00 296.03 2528.65
   11:38:06.978.17-Sep-2021 4887.00 5433.57 77.25 9.00 296.23 2528.65
   11:38:07.178.17-Sep-2021 4887.00 5434.77 77.25 9.00 296.43 2528.65
   11:38:07.378.17-Sep-2021 4887.00 5433.99 77.25 9.00 296.63 2528.65
   11:38:07.578.17-Sep-2021 4887.00 5433.94 77.25 9.00 296.83 2528.65
   11:38:07.778.17-Sep-2021 4887.00 5434.06 77.25 9.00 297.03 2528.65
   11:38:07.978.17-Sep-2021 4887.00 5434.06 77.25 9.00 297.23 2528.65
   11:38:08.178.17-Sep-2021 4887.00 5434.67 77.25 9.00 297.43 2528.65
   11:38:08.378.17-Sep-2021 4887.00 5434.44 77.25 9.00 297.63 2528.65
   11:38:08.578.17-Sep-2021 4887.00 5434.46 77.25 9.00 297.83 2528.65
   11:38:08.778.17-Sep-2021 4887.00 5434.66 77.25 9.00 298.03 2528.65
   11:38:08.978.17-Sep-2021 4887.00 5434.66 77.25 9.00 298.23 2528.65
   11:38:09.178.17-Sep-2021 4887.00 5434.75 77.25 9.00 298.43 2528.65
   11:38:09.378.17-Sep-2021 4887.00 5434.40 77.25 9.00 298.63 2528.65
   11:38:09.578.17-Sep-2021 4887.00 5434.81 77.25 9.00 298.83 2528.65
