~Version Information
 VERS.                  2.0:   CWLS log ASCII Standard -VERSION 2.0
 WRAP.                   NO:   One line per depth step
~Well Information Block
#MNEM.UNIT     VALUE/NAME     DESCRIPTION
#---------     -----------    ---------------------------
 STRT.S             11:33:10 17-Sep-21: START TIME 11:33:10 17-Sep-21
 STOP.S             11:40:20 17-Sep-21: STOP TIME  11:40:20 17-Sep-21
 STEP.S                   0.00: STEP TIME
 NULL.                 -999.25: NULL VALUE
 DFWT.                        :  DIST FWL TEXT
 DFST.                        :  DIST FSL TEXT
 DMF .             Drill Floor:  DRILL MEAS FROM
 STIM.      10.59.12 05-Jul-21:  START TIME
 DATE.      10.59.12 10-Sep-21:  END TIME
 SPUD.               05-Jul-21:  SPUD DATE
 NREF.                    Grid:  NORTH REFERENCE
 HPTY.       Minimum Curvature:  HOLE POS TYPE
 DMOD.             Drill Model:  DRILL MOD DESC
 SVYD.                  Survey:  SURVEY DESC
 ILTD.               Lithology:  INTERP LTH DESC
 FTOP.          Formation Tops:  FORM TOPS DESC
 RIG .                     DWG:  RIG NAME
 PDAT.          Mean Sea Level:  PERMANENT DATUM
 FLD .                     ACG:  FIELD NAME
 SON .        AZ-XX-0907115008:  JOB NUMBER
 CTRY.              Azerbaijan:  COUNTRY NAME
 WELL.                    E35A:  WELL NAME
 SRVC.          TURAN DRILLING:  CONTRACTOR
 COMP.     BP Exploration (Caspian Sea LTD):  COMPANY
 UWI .                     N/A:  UNIQUE WELL IDENTIFIER
 API .                     N/A:  API NUMBER
 MDS .        Operator Entered:  MAG DATA SOURCE
 BASE.              Azerbaijan:  LOGGING EQUIPMENT BASE LOCATION
 REGN.                   EESSA:  REGION
 PROV.                    Baku:  PROVINCE
 STAT.                    Baku:  STATE NAME
 MWDS.                    Baku:  MWD SHOP
 JOBN.        AZ-XX-0907115008:  JOB TICKET NUMB
 DOE .                     N/A:  DOE NUMBER
 DCON.         Sperry Drilling:  DIRECTNL CONTR
 UNIT.                     N/A:  LOGGING EQUIPMENT ID
 WTYP.                Deviated:  WELL TYPE
 CNTY.                        :  COUNTY
 LOC .                        :  LOCATION
 LMF .             Drill Floor:  LOG MEASURED FROM
 TVDS.m                  43.16:  TVDSS CORRECTN
 LATI.deg                40.17:  LATITUDE
 LONG.deg                51.17:  LONGITUDE
 WHNS.m                  10.51:  WELL HEAD N/S
 WHEW.m                 -14.82:  WELL HEAD E/W
 UTMX.m              514336.92:  UTM X
 UTMY.m             4448618.56:  UTM Y
 DFWL.m                   0.00:  DISTANCE FWL
 DFSL.m                   0.00:  DISTANCE FSL
 SDEP.m                 849.00:  START DEPTH
 TDD .m                2862.00:  TOTAL DEPTH (DRILLER)
 VSDR.deg               292.10:  VERT SEC DIRECT
 GVFD.g                   1.00:  GRAVITY FIELD
 MFLD.nT              50382.00:  MAGNETIC FIELD
 MDIP.deg                59.68:  MAGNETIC DIP
 MDEC.deg                 6.66:  MAGNETIC DECL
 GRDC.deg                 0.09:  GRID CORRECTION
 AZTC.deg                 6.57:  AZM TOTAL CORR
 EPD .m                   0.00:  ELEVATION
 EGL .m                   0.00:  GROUND ELEVATION
 WDMS.m                 176.20:  WD ELEV
 APD .m                  43.16:  DEPTH ABOVE PD
 DEP .m                 363.42:  DEPTH
 AGAP.m                  43.16:  AIR GAP
 VSEW.m                 -14.82:  VERT SEC E/W
 VSNS.m                  10.51:  VERT SEC N/S
 EKB .m                  43.16:  KB ELEVATION
 EDF .m                  43.16:  DF ELEVATION
 TDL .m                1390.00:  TOTAL DEPTH (LOGGER)
 VSC .                       0:  VS TO CLOSURE
 MAGU.                 1855871:  MAGUTM CHECKSUM
~Parameter Information Block
#MNEM.UNIT       Value        Description
#---------     -----------    ---------------------------
 AV  .mps                 2.28:  Ann Velocity 
 AVMX.mps                 2.67:  Max Ann Veloc 
 AZIF.deg               305.00:  Azm, Final 
 BHAT.        Rotary Steerable:  BHA Type 
 BROT.°/30m               0.45:  Build Rotating 
 BS  .in                 12.25:  Bit Size 
 BSZ .in                 12.25:  Bit Size 
 BTPL.psig              600.00:  Bit Press Loss 
 CABU.                     Yes:  Customer Abuse 
 COMM.                     Á~:  Run Comments 1 
 TCS .hr                150.00:  Time Ciculation Ended 
 CV  .mps                 1.24:  Crit Velocity 
 CVMX.mps                 1.66:  Max Crit Veloc 
 DD1 .         Intigam Rahimov:  Direct Drillr 1 
 DD2 .            Azer Ravavov:  Direct Drillr 2 
 DD3 .              Samir Abas:  Direct Drillr 3 
 DDSV.               Geo-Pilot:  DD Service 
 DEFF.%                 100.00:  % Det Eff 
 DLRX.°/30m               1.57:  Dogleg Rot Max 
 DLSO.°/30m               0.00:  Dogleg Oriented 
 DLSX.°/30m               0.00:  Dogleg Str Max 
 DRET.      20.28.06 17-Sep-21:  Drill End Time 
 DRST.      20.27.35 10-Sep-21:  Drill Start Tim 
 DTIM.hr                 54.00:  Time Drilling 
 EDEP.m                5260.00:  End Depth 
 ENG1.      Bakhtiyar Jabbarli:  Engineer 1 
 ENG2.      Natik Hasanaghayev:  Engineer 2 
 ENG3.           Royal Nasirov:  Engineer 3 
 ETIM.      20.27.55 18-Sep-21:  End Time 
 FLOI.gpm              1100.00:  Flow In 
 FLON.gpm               800.00:  Flow In Min 
 FLOS.cptm                0.00:  Fluid Loss 
 FLOX.gpm              1200.00:  Flow In Max 
 DFT .        Mineral Oil Base:  Mud Type 
 HPRE.                      No:  High Pressure 
 HTEM.                      No:  High Temp 
 HYDO.m                   1.80:  Hydro Offset 
 IFIN.deg                72.31:  Inc, Final 
 IMAX.deg                72.36:  Inc Max 
 IMIN.deg                69.36:  Inc Min 
 IMND.m                4192.96:  Inc Min Depth 
 IMXD.m                5128.36:  Inc Max Depth 
 JARR.                      No:  Jarring 
 LETM.      20.29.00 17-Sep-21:  Log End Time 
 LOST.hr                     0:  Lost Rig Time 
 LSTM.      20.27.00 10-Sep-21:  Log Start Time 
 MDCL.ppm            227000.00:  Mud Chlorides 
 MDES.     Inversion Oil/Synthetic:  Mud Desc 
 DFD .sg                  1.45:  Mud Density 
 MDMN.sg                  1.45:  Dens Mud Min 
 MDMX.sg                  1.45:  Dens Mud Max 
 MOIL.                    70.5:  Run Mud Oil % 
 MOWR.                   71:29:  Run Mud OWR 
 MSND.                     0.3:  Run Mud Sand % 
 MSOL.                    19.8:  Run Mud Solids% 
 DFV .spqt               80.00:  Mud Viscosity 
 MWOD.in                  8.00:  MWD Tool OD 
 MWSI.                     Yes:  Serv Intrp, MWD 
 OTIM.hr                180.00:  Time Operating 
 PCON.           Look Like New:  Pad Condition 
 PMAX.psia             9910.94:  Press Op, Max 
 PV  .cP                 35.00:  Mud PV 
 RUN .                    1000:  Run Number 
 ROPA.m/hr               18.00:  ROP Avg 
 ROPN.m/hr                8.00:  ROP Min 
 ROPX.m/hr               23.00:  ROP Max 
 RPMA.rpm               150.00:  RPM Surface Avg 
 RPMN.rpm               120.00:  RPM Surface Min 
 RPMX.rpm               160.00:  RPM Surface Max 
 RRUN.                    L503:  Rig Run Number 
 RTIM.hr                  5.00:  Time Reaming 
 SAZI.deg               298.42:  Azm, Start 
 SDEP.m                3870.00:  Start Depth 
 SIDD.                      No:  Serv Intrp, DD 
 SINC.deg                69.57:  Inc, Start 
 SPPA.psig             5500.00:  SPP Avg 
 SPPN.psig             4400.00:  SPP Min 
 SPPX.psig             5800.00:  SPP Max 
 STIM.      15.29.39 09-Sep-21:  Start Time 
 SVCS.                 DD, MWD:  Services 
 SVER.                    9.20:  Sperry Version 
 TDAT.m                5260.00:  Tot Depth Attmp 
 TDDF.                      No:  Trip for DD 
 TDLG.m                1390.00:  Tot Depth Loggd 
 TFF .                      No:  Trip for Fail 
 TQAA.f-kp               22.00:  Torque Abs Avg 
 TQAN.f-kp               13.00:  Torque Abs Min 
 TQAX.f-kp               27.00:  Torque Abs Max 
 TRRT.°/30m               1.60:  Turn Rotating 
 MRT .                  EWR-M5:  Maximum Recorded Temperature 
 TTMX.degC               92.00:  Max Tool Temp 
 VS01.                12330975:  Virtual Str1 SN 
 VS02.                90658671:  Virtual Str2 SN 
 VS03.                90658508:  Virtual Str3 SN 
 VS04.                90660974:  Virtual Str4 SN 
 VS05.                90654675:  Virtual Str5 SN 
 WBMN.klb                15.00:  WOB Min 
 WITN.     Alexander Yadullayev:  Customer Rep 
 WITN.           Adil Mammadov:  Customer Rep 2 
 WOBA.klb                17.00:  WOB Avg 
 WOBX.klb                18.00:  WOB Max 
 YP  .lhf2               31.00:  Yield Point 
~Curve Information Block
#MNEM.UNIT                 API CODE     Curve Description
#---------               -----------    ---------------------------
 TIME.HHMMSS            00 000 000 000:  GT Time & Date
 GTDEPTH.m              00 000 000 000:  GT Depth
 GTPQH.psia             00 000 000 000:  GT HR Quartz Pressure
 GTTQ.degC              00 000 000 000:  GT Quartz Temperature
 GTTN.NONE              00 000 000 000:  GT Test Number
 GTET.sec               00 000 000 000:  GT Elapsed Test Time
 GTTVD.m                00 000 000 000:  GT True Vertical Depth
#Other Information
#
#WARRANTY: Halliburton will use its best efforts to furnish customers with 
#accurate information and interpretations that are part of, and incident to, the services 
#provided.  However, Halliburton cannot and does not warrant the accuracy 
#or correctness of such information and interpretations.  Under no circumstances should any 
#such information or interpretation be relied upon as the sole basis for any drilling, 
#completion, production, or financial decision or any procedure involving any risk to the 
#safety of any drilling venture, drilling rig or its crew or any other third party.  The 
#Customer has full responsibility for all drilling, completion and production operation.  
#Halliburton makes no representations or warranties, either expressed or 
#implied, including, but not limited to, the implied warranties of merchantability or fitness 
#for a particular purpose, with respect to the services rendered.  In no event will 
#Halliburton be liable for failure to obtain any particular results or for 
#any damages, including, but not limited to, indirect, special or consequential damages, 
#resulting from the use of any information or interpretation provided by Halliburton.
#
~A           TIME           GTDEPTH  GTPQH  GTTQ  GTTN  GTET   GTTVD  
   11:33:10.745.17-Sep-2021 4887.00 5443.28 77.34 9.00   0.00 2528.65
   11:33:10.945.17-Sep-2021 4887.00 5443.28 77.34 9.00   0.20 2528.65
   11:33:11.145.17-Sep-2021 4887.00 5440.88 77.34 9.00   0.40 2528.65
   11:33:11.345.17-Sep-2021 4887.00 5440.36 77.34 9.00   0.60 2528.65
   11:33:11.545.17-Sep-2021 4887.00 5443.00 77.34 9.00   0.80 2528.65
   11:33:11.745.17-Sep-2021 4887.00 5438.80 77.34 9.00   1.00 2528.65
   11:33:11.945.17-Sep-2021 4887.00 5438.80 77.34 9.00   1.20 2528.65
   11:33:12.145.17-Sep-2021 4887.00 5438.48 77.34 9.00   1.40 2528.65
   11:33:12.345.17-Sep-2021 4887.00 5439.38 77.34 9.00   1.60 2528.65
   11:33:12.545.17-Sep-2021 4887.00 5438.10 77.34 9.00   1.80 2528.65
   11:33:12.745.17-Sep-2021 4887.00 5437.63 77.34 9.00   2.00 2528.65
   11:33:12.945.17-Sep-2021 4887.00 5437.63 77.34 9.00   2.20 2528.65
   11:33:13.145.17-Sep-2021 4887.00 5438.70 77.34 9.00   2.40 2528.65
   11:33:13.346.17-Sep-2021 4887.00 5440.93 77.33 9.00   2.60 2528.65
   11:33:13.546.17-Sep-2021 4887.00 5443.50 77.33 9.00   2.80 2528.65
   11:33:13.746.17-Sep-2021 4887.00 5442.22 77.33 9.00   3.00 2528.65
   11:33:13.946.17-Sep-2021 4887.00 5442.22 77.33 9.00   3.20 2528.65
   11:33:14.146.17-Sep-2021 4887.00 5446.43 77.33 9.00   3.40 2528.65
   11:33:14.346.17-Sep-2021 4887.00 5444.52 77.33 9.00   3.60 2528.65
   11:33:14.546.17-Sep-2021 4887.00 5444.62 77.33 9.00   3.80 2528.65
   11:33:14.746.17-Sep-2021 4887.00 5444.69 77.33 9.00   4.00 2528.65
   11:33:14.946.17-Sep-2021 4887.00 5444.69 77.33 9.00   4.20 2528.65
   11:33:15.146.17-Sep-2021 4887.00 5445.46 77.33 9.00   4.40 2528.65
   11:33:15.346.17-Sep-2021 4887.00 5445.31 77.33 9.00   4.60 2528.65
   11:33:15.546.17-Sep-2021 4887.00 5445.57 77.33 9.00   4.80 2528.65
   11:33:15.746.17-Sep-2021 4887.00 5445.41 77.33 9.00   5.00 2528.65
   11:33:15.946.17-Sep-2021 4887.00 5445.41 77.33 9.00   5.20 2528.65
   11:33:16.146.17-Sep-2021 4887.00 5445.54 77.30 9.00   5.40 2528.65
   11:33:16.346.17-Sep-2021 4887.00 5446.01 77.33 9.00   5.60 2528.65
   11:33:16.546.17-Sep-2021 4887.00 5446.51 77.33 9.00   5.80 2528.65
   11:33:16.746.17-Sep-2021 4887.00 5446.66 77.33 9.00   6.00 2528.65
   11:33:16.946.17-Sep-2021 4887.00 5446.66 77.33 9.00   6.20 2528.65
   11:33:17.146.17-Sep-2021 4887.00 5447.19 77.33 9.00   6.40 2528.65
   11:33:17.346.17-Sep-2021 4887.00 5447.75 77.33 9.00   6.60 2528.65
   11:33:17.546.17-Sep-2021 4887.00 5448.06 77.33 9.00   6.80 2528.65
   11:33:17.746.17-Sep-2021 4887.00 5451.75 77.33 9.00   7.00 2528.65
   11:33:17.946.17-Sep-2021 4887.00 5451.75 77.33 9.00   7.20 2528.65
   11:33:18.146.17-Sep-2021 4887.00 5447.95 77.33 9.00   7.40 2528.65
   11:33:18.346.17-Sep-2021 4887.00 5447.88 77.33 9.00   7.60 2528.65
   11:33:18.546.17-Sep-2021 4887.00 5449.40 77.33 9.00   7.80 2528.65
   11:33:18.746.17-Sep-2021 4887.00 5448.25 77.33 9.00   8.00 2528.65
   11:33:18.946.17-Sep-2021 4887.00 5448.25 77.33 9.00   8.20 2528.65
   11:33:19.146.17-Sep-2021 4887.00 5444.75 77.33 9.00   8.40 2528.65
   11:33:19.346.17-Sep-2021 4887.00 5444.26 77.33 9.00   8.60 2528.65
   11:33:19.546.17-Sep-2021 4887.00 5444.21 77.33 9.00   8.80 2528.65
   11:33:19.746.17-Sep-2021 4887.00 5443.82 77.33 9.00   9.00 2528.65
   11:33:19.946.17-Sep-2021 4887.00 5443.82 77.33 9.00   9.20 2528.65
   11:33:20.146.17-Sep-2021 4887.00 5443.42 77.33 9.00   9.40 2528.65
   11:33:20.346.17-Sep-2021 4887.00 5442.65 77.33 9.00   9.60 2528.65
   11:33:20.546.17-Sep-2021 4887.00 5441.97 77.33 9.00   9.80 2528.65
   11:33:20.746.17-Sep-2021 4887.00 5441.73 77.33 9.00  10.00 2528.65
   11:33:20.946.17-Sep-2021 4887.00 5441.73 77.33 9.00  10.20 2528.65
   11:33:21.146.17-Sep-2021 4887.00 5440.78 77.33 9.00  10.40 2528.65
   11:33:21.346.17-Sep-2021 4887.00 5442.22 77.33 9.00  10.60 2528.65
   11:33:21.546.17-Sep-2021 4887.00 5439.38 77.33 9.00  10.80 2528.65
   11:33:21.746.17-Sep-2021 4887.00 5439.16 77.33 9.00  11.00 2528.65
   11:33:21.946.17-Sep-2021 4887.00 5439.16 77.33 9.00  11.20 2528.65
   11:33:22.146.17-Sep-2021 4887.00 5439.42 77.33 9.00  11.40 2528.65
   11:33:22.347.17-Sep-2021 4887.00 5440.20 77.33 9.00  11.60 2528.65
   11:33:22.547.17-Sep-2021 4887.00 5438.44 77.33 9.00  11.80 2528.65
   11:33:22.747.17-Sep-2021 4887.00 5438.41 77.33 9.00  12.00 2528.65
   11:33:22.947.17-Sep-2021 4887.00 5438.41 77.33 9.00  12.20 2528.65
   11:33:23.147.17-Sep-2021 4887.00 5438.88 77.33 9.00  12.40 2528.65
   11:33:23.347.17-Sep-2021 4887.00 5439.19 77.33 9.00  12.60 2528.65
   11:33:23.547.17-Sep-2021 4887.00 5434.94 77.33 9.00  12.80 2528.65
   11:33:23.747.17-Sep-2021 4887.00 5417.81 77.33 9.00  13.00 2528.65
   11:33:23.947.17-Sep-2021 4887.00 5417.81 77.33 9.00  13.20 2528.65
   11:33:24.147.17-Sep-2021 4887.00 5421.33 77.33 9.00  13.40 2528.65
   11:33:24.347.17-Sep-2021 4887.00 5422.00 77.33 9.00  13.60 2528.65
   11:33:24.547.17-Sep-2021 4887.00 5415.76 77.33 9.00  13.80 2528.65
   11:33:24.747.17-Sep-2021 4887.00 5396.02 77.33 9.00  14.00 2528.65
   11:33:24.947.17-Sep-2021 4887.00 5396.02 77.33 9.00  14.20 2528.65
   11:33:25.147.17-Sep-2021 4887.00 5260.58 77.33 9.00  14.40 2528.65
   11:33:25.347.17-Sep-2021 4887.00 5142.93 77.33 9.00  14.60 2528.65
   11:33:25.547.17-Sep-2021 4887.00 5101.79 77.33 9.00  14.80 2528.65
   11:33:25.747.17-Sep-2021 4887.00 5033.83 77.33 9.00  15.00 2528.65
   11:33:25.947.17-Sep-2021 4887.00 5033.83 77.33 9.00  15.20 2528.65
   11:33:26.147.17-Sep-2021 4887.00 4836.14 77.33 9.00  15.40 2528.65
   11:33:26.347.17-Sep-2021 4887.00 4921.93 77.32 9.00  15.60 2528.65
   11:33:26.547.17-Sep-2021 4887.00 4791.52 77.32 9.00  15.80 2528.65
   11:33:26.747.17-Sep-2021 4887.00 4778.34 77.32 9.00  16.00 2528.65
   11:33:26.947.17-Sep-2021 4887.00 4778.34 77.32 9.00  16.20 2528.65
   11:33:27.147.17-Sep-2021 4887.00 4647.96 77.32 9.00  16.40 2528.65
   11:33:27.347.17-Sep-2021 4887.00 4728.29 77.32 9.00  16.60 2528.65
   11:33:27.547.17-Sep-2021 4887.00 4661.94 77.32 9.00  16.80 2528.65
   11:33:27.747.17-Sep-2021 4887.00 4576.89 77.32 9.00  17.00 2528.65
   11:33:27.947.17-Sep-2021 4887.00 4576.89 77.32 9.00  17.20 2528.65
   11:33:28.147.17-Sep-2021 4887.00 4529.59 77.29 9.00  17.40 2528.65
   11:33:28.347.17-Sep-2021 4887.00 4510.81 77.32 9.00  17.60 2528.65
   11:33:28.547.17-Sep-2021 4887.00 4493.31 77.32 9.00  17.80 2528.65
   11:33:28.747.17-Sep-2021 4887.00 4476.32 77.32 9.00  18.00 2528.65
   11:33:28.947.17-Sep-2021 4887.00 4476.32 77.32 9.00  18.20 2528.65
   11:33:29.147.17-Sep-2021 4887.00 4445.53 77.32 9.00  18.40 2528.65
   11:33:29.347.17-Sep-2021 4887.00 4430.17 77.32 9.00  18.60 2528.65
   11:33:29.547.17-Sep-2021 4887.00 4416.34 77.31 9.00  18.80 2528.65
   11:33:29.747.17-Sep-2021 4887.00 4407.04 77.31 9.00  19.00 2528.65
   11:33:29.947.17-Sep-2021 4887.00 4407.04 77.31 9.00  19.20 2528.65
   11:33:30.147.17-Sep-2021 4887.00 4387.62 77.31 9.00  19.40 2528.65
   11:33:30.347.17-Sep-2021 4887.00 4379.86 77.31 9.00  19.60 2528.65
   11:33:30.547.17-Sep-2021 4887.00 4372.07 77.31 9.00  19.80 2528.65
   11:33:30.747.17-Sep-2021 4887.00 4365.68 77.31 9.00  20.00 2528.65
   11:33:30.947.17-Sep-2021 4887.00 4365.68 77.31 9.00  20.20 2528.65
   11:33:31.147.17-Sep-2021 4887.00 4354.55 77.31 9.00  20.40 2528.65
   11:33:31.348.17-Sep-2021 4887.00 4349.17 77.31 9.00  20.60 2528.65
   11:33:31.548.17-Sep-2021 4887.00 4343.53 77.31 9.00  20.80 2528.65
   11:33:31.748.17-Sep-2021 4887.00 4339.40 77.31 9.00  21.00 2528.65
   11:33:31.948.17-Sep-2021 4887.00 4339.40 77.31 9.00  21.20 2528.65
   11:33:32.148.17-Sep-2021 4887.00 4331.71 77.30 9.00  21.40 2528.65
   11:33:32.348.17-Sep-2021 4887.00 4329.12 77.30 9.00  21.60 2528.65
   11:33:32.548.17-Sep-2021 4887.00 4326.95 77.30 9.00  21.80 2528.65
   11:33:32.748.17-Sep-2021 4887.00 4324.45 77.30 9.00  22.00 2528.65
   11:33:32.948.17-Sep-2021 4887.00 4324.45 77.30 9.00  22.20 2528.65
   11:33:33.148.17-Sep-2021 4887.00 4320.88 77.30 9.00  22.40 2528.65
   11:33:33.348.17-Sep-2021 4887.00 4320.47 77.30 9.00  22.60 2528.65
   11:33:33.548.17-Sep-2021 4887.00 4322.15 77.30 9.00  22.80 2528.65
