~Version Information
 VERS.                  2.0:   CWLS log ASCII Standard -VERSION 2.0
 WRAP.                   NO:   One line per depth step
~Well Information Block
#MNEM.UNIT     VALUE/NAME     DESCRIPTION
#---------     -----------    ---------------------------
 STRT.S             05:03:12 17-Sep-21: START TIME 05:03:12 17-Sep-21
 STOP.S             05:12:54 17-Sep-21: STOP TIME  05:12:54 17-Sep-21
 STEP.S                   0.00: STEP TIME
 NULL.                 -999.25: NULL VALUE
 DFWT.                        :  DIST FWL TEXT
 DFST.                        :  DIST FSL TEXT
 DMF .             Drill Floor:  DRILL MEAS FROM
 STIM.      10.59.12 05-Jul-21:  START TIME
 DATE.      10.59.12 10-Sep-21:  END TIME
 SPUD.               05-Jul-21:  SPUD DATE
 NREF.                    Grid:  NORTH REFERENCE
 HPTY.       Minimum Curvature:  HOLE POS TYPE
 DMOD.             Drill Model:  DRILL MOD DESC
 SVYD.                  Survey:  SURVEY DESC
 ILTD.               Lithology:  INTERP LTH DESC
 FTOP.          Formation Tops:  FORM TOPS DESC
 RIG .                     DWG:  RIG NAME
 PDAT.          Mean Sea Level:  PERMANENT DATUM
 FLD .                     ACG:  FIELD NAME
 SON .        AZ-XX-0907115008:  JOB NUMBER
 CTRY.              Azerbaijan:  COUNTRY NAME
 WELL.                    E35A:  WELL NAME
 SRVC.          TURAN DRILLING:  CONTRACTOR
 COMP.     BP Exploration (Caspian Sea LTD):  COMPANY
 UWI .                     N/A:  UNIQUE WELL IDENTIFIER
 API .                     N/A:  API NUMBER
 MDS .        Operator Entered:  MAG DATA SOURCE
 BASE.              Azerbaijan:  LOGGING EQUIPMENT BASE LOCATION
 REGN.                   EESSA:  REGION
 PROV.                    Baku:  PROVINCE
 STAT.                    Baku:  STATE NAME
 MWDS.                    Baku:  MWD SHOP
 JOBN.        AZ-XX-0907115008:  JOB TICKET NUMB
 DOE .                     N/A:  DOE NUMBER
 DCON.         Sperry Drilling:  DIRECTNL CONTR
 UNIT.                     N/A:  LOGGING EQUIPMENT ID
 WTYP.                Deviated:  WELL TYPE
 CNTY.                        :  COUNTY
 LOC .                        :  LOCATION
 LMF .             Drill Floor:  LOG MEASURED FROM
 TVDS.m                  43.16:  TVDSS CORRECTN
 LATI.deg                40.17:  LATITUDE
 LONG.deg                51.17:  LONGITUDE
 WHNS.m                  10.51:  WELL HEAD N/S
 WHEW.m                 -14.82:  WELL HEAD E/W
 UTMX.m              514336.92:  UTM X
 UTMY.m             4448618.56:  UTM Y
 DFWL.m                   0.00:  DISTANCE FWL
 DFSL.m                   0.00:  DISTANCE FSL
 SDEP.m                 849.00:  START DEPTH
 TDD .m                2862.00:  TOTAL DEPTH (DRILLER)
 VSDR.deg               292.10:  VERT SEC DIRECT
 GVFD.g                   1.00:  GRAVITY FIELD
 MFLD.nT              50382.00:  MAGNETIC FIELD
 MDIP.deg                59.68:  MAGNETIC DIP
 MDEC.deg                 6.66:  MAGNETIC DECL
 GRDC.deg                 0.09:  GRID CORRECTION
 AZTC.deg                 6.57:  AZM TOTAL CORR
 EPD .m                   0.00:  ELEVATION
 EGL .m                   0.00:  GROUND ELEVATION
 WDMS.m                 176.20:  WD ELEV
 APD .m                  43.16:  DEPTH ABOVE PD
 DEP .m                 363.42:  DEPTH
 AGAP.m                  43.16:  AIR GAP
 VSEW.m                 -14.82:  VERT SEC E/W
 VSNS.m                  10.51:  VERT SEC N/S
 EKB .m                  43.16:  KB ELEVATION
 EDF .m                  43.16:  DF ELEVATION
 TDL .m                1390.00:  TOTAL DEPTH (LOGGER)
 VSC .                       0:  VS TO CLOSURE
 MAGU.                 1855871:  MAGUTM CHECKSUM
~Parameter Information Block
#MNEM.UNIT       Value        Description
#---------     -----------    ---------------------------
 AV  .mps                 2.28:  Ann Velocity 
 AVMX.mps                 2.67:  Max Ann Veloc 
 AZIF.deg               305.00:  Azm, Final 
 BHAT.        Rotary Steerable:  BHA Type 
 BROT.°/30m               0.45:  Build Rotating 
 BS  .in                 12.25:  Bit Size 
 BSZ .in                 12.25:  Bit Size 
 BTPL.psig              600.00:  Bit Press Loss 
 CABU.                     Yes:  Customer Abuse 
 COMM.                     äÏF:  Run Comments 1 
 TCS .hr                150.00:  Time Ciculation Ended 
 CV  .mps                 1.24:  Crit Velocity 
 CVMX.mps                 1.66:  Max Crit Veloc 
 DD1 .         Intigam Rahimov:  Direct Drillr 1 
 DD2 .            Azer Ravavov:  Direct Drillr 2 
 DD3 .              Samir Abas:  Direct Drillr 3 
 DDSV.               Geo-Pilot:  DD Service 
 DEFF.%                 100.00:  % Det Eff 
 DLRX.°/30m               1.57:  Dogleg Rot Max 
 DLSO.°/30m               0.00:  Dogleg Oriented 
 DLSX.°/30m               0.00:  Dogleg Str Max 
 DRET.      20.28.06 17-Sep-21:  Drill End Time 
 DRST.      20.27.35 10-Sep-21:  Drill Start Tim 
 DTIM.hr                 54.00:  Time Drilling 
 EDEP.m                5260.00:  End Depth 
 ENG1.      Bakhtiyar Jabbarli:  Engineer 1 
 ENG2.      Natik Hasanaghayev:  Engineer 2 
 ENG3.           Royal Nasirov:  Engineer 3 
 ETIM.      20.27.55 18-Sep-21:  End Time 
 FLOI.gpm              1100.00:  Flow In 
 FLON.gpm               800.00:  Flow In Min 
 FLOS.cptm                0.00:  Fluid Loss 
 FLOX.gpm              1200.00:  Flow In Max 
 DFT .        Mineral Oil Base:  Mud Type 
 HPRE.                      No:  High Pressure 
 HTEM.                      No:  High Temp 
 HYDO.m                   1.80:  Hydro Offset 
 IFIN.deg                72.31:  Inc, Final 
 IMAX.deg                72.36:  Inc Max 
 IMIN.deg                69.36:  Inc Min 
 IMND.m                4192.96:  Inc Min Depth 
 IMXD.m                5128.36:  Inc Max Depth 
 JARR.                      No:  Jarring 
 LETM.      20.29.00 17-Sep-21:  Log End Time 
 LOST.hr                     0:  Lost Rig Time 
 LSTM.      20.27.00 10-Sep-21:  Log Start Time 
 MDCL.ppm            227000.00:  Mud Chlorides 
 MDES.     Inversion Oil/Synthetic:  Mud Desc 
 DFD .sg                  1.45:  Mud Density 
 MDMN.sg                  1.45:  Dens Mud Min 
 MDMX.sg                  1.45:  Dens Mud Max 
 MOIL.                    70.5:  Run Mud Oil % 
 MOWR.                   71:29:  Run Mud OWR 
 MSND.                     0.3:  Run Mud Sand % 
 MSOL.                    19.8:  Run Mud Solids% 
 DFV .spqt               80.00:  Mud Viscosity 
 MWOD.in                  8.00:  MWD Tool OD 
 MWSI.                     Yes:  Serv Intrp, MWD 
 OTIM.hr                180.00:  Time Operating 
 PCON.           Look Like New:  Pad Condition 
 PMAX.psia             9910.94:  Press Op, Max 
 PV  .cP                 35.00:  Mud PV 
 RUN .                    1000:  Run Number 
 ROPA.m/hr               18.00:  ROP Avg 
 ROPN.m/hr                8.00:  ROP Min 
 ROPX.m/hr               23.00:  ROP Max 
 RPMA.rpm               150.00:  RPM Surface Avg 
 RPMN.rpm               120.00:  RPM Surface Min 
 RPMX.rpm               160.00:  RPM Surface Max 
 RRUN.                    L503:  Rig Run Number 
 RTIM.hr                  5.00:  Time Reaming 
 SAZI.deg               298.42:  Azm, Start 
 SDEP.m                3870.00:  Start Depth 
 SIDD.                      No:  Serv Intrp, DD 
 SINC.deg                69.57:  Inc, Start 
 SPPA.psig             5500.00:  SPP Avg 
 SPPN.psig             4400.00:  SPP Min 
 SPPX.psig             5800.00:  SPP Max 
 STIM.      15.29.39 09-Sep-21:  Start Time 
 SVCS.                 DD, MWD:  Services 
 SVER.                    9.20:  Sperry Version 
 TDAT.m                5260.00:  Tot Depth Attmp 
 TDDF.                      No:  Trip for DD 
 TDLG.m                1390.00:  Tot Depth Loggd 
 TFF .                      No:  Trip for Fail 
 TQAA.f-kp               22.00:  Torque Abs Avg 
 TQAN.f-kp               13.00:  Torque Abs Min 
 TQAX.f-kp               27.00:  Torque Abs Max 
 TRRT.°/30m               1.60:  Turn Rotating 
 MRT .                  EWR-M5:  Maximum Recorded Temperature 
 TTMX.degC               92.00:  Max Tool Temp 
 VS01.                12330975:  Virtual Str1 SN 
 VS02.                90658671:  Virtual Str2 SN 
 VS03.                90658508:  Virtual Str3 SN 
 VS04.                90660974:  Virtual Str4 SN 
 VS05.                90654675:  Virtual Str5 SN 
 WBMN.klb                15.00:  WOB Min 
 WITN.     Alexander Yadullayev:  Customer Rep 
 WITN.           Adil Mammadov:  Customer Rep 2 
 WOBA.klb                17.00:  WOB Avg 
 WOBX.klb                18.00:  WOB Max 
 YP  .lhf2               31.00:  Yield Point 
~Curve Information Block
#MNEM.UNIT                 API CODE     Curve Description
#---------               -----------    ---------------------------
 TIME.HHMMSS            00 000 000 000:  GT Time & Date
 GTDEPTH.m              00 000 000 000:  GT Depth
 GTPQH.psia             00 000 000 000:  GT HR Quartz Pressure
 GTTQ.degC              00 000 000 000:  GT Quartz Temperature
 GTTN.NONE              00 000 000 000:  GT Test Number
 GTET.sec               00 000 000 000:  GT Elapsed Test Time
 GTTVD.m                00 000 000 000:  GT True Vertical Depth
#Other Information
#
#WARRANTY: Halliburton will use its best efforts to furnish customers with 
#accurate information and interpretations that are part of, and incident to, the services 
#provided.  However, Halliburton cannot and does not warrant the accuracy 
#or correctness of such information and interpretations.  Under no circumstances should any 
#such information or interpretation be relied upon as the sole basis for any drilling, 
#completion, production, or financial decision or any procedure involving any risk to the 
#safety of any drilling venture, drilling rig or its crew or any other third party.  The 
#Customer has full responsibility for all drilling, completion and production operation.  
#Halliburton makes no representations or warranties, either expressed or 
#implied, including, but not limited to, the implied warranties of merchantability or fitness 
#for a particular purpose, with respect to the services rendered.  In no event will 
#Halliburton be liable for failure to obtain any particular results or for 
#any damages, including, but not limited to, indirect, special or consequential damages, 
#resulting from the use of any information or interpretation provided by Halliburton.
#
~A           TIME           GTDEPTH  GTPQH  GTTQ  GTTN  GTET   GTTVD  
# ...
   05:11:16.378.17-Sep-2021 5093.53 3747.82 79.49 5.00 483.52 2594.99
   05:11:16.578.17-Sep-2021 5093.53 3747.82 79.49 5.00 483.72 2594.99
   05:11:16.778.17-Sep-2021 5093.53 3747.86 79.49 5.00 483.92 2594.99
   05:11:16.979.17-Sep-2021 5093.53 3747.87 79.49 5.00 484.12 2594.99
   05:11:17.179.17-Sep-2021 5093.53 3747.90 79.49 5.00 484.32 2594.99
   05:11:17.379.17-Sep-2021 5093.53 3747.92 79.49 5.00 484.52 2594.99
   05:11:17.579.17-Sep-2021 5093.53 3747.92 79.49 5.00 484.72 2594.99
   05:11:17.779.17-Sep-2021 5093.53 3747.89 79.49 5.00 484.92 2594.99
   05:11:17.980.17-Sep-2021 5093.53 3747.82 79.49 5.00 485.12 2594.99
   05:11:18.180.17-Sep-2021 5093.53 3747.83 79.49 5.00 485.32 2594.99
   05:11:18.380.17-Sep-2021 5093.53 3747.80 79.49 5.00 485.52 2594.99
   05:11:18.580.17-Sep-2021 5093.53 3747.80 79.49 5.00 485.72 2594.99
   05:11:18.781.17-Sep-2021 5093.53 3747.79 79.49 5.00 485.92 2594.99
   05:11:18.981.17-Sep-2021 5093.53 3747.78 79.49 5.00 486.12 2594.99
   05:11:19.181.17-Sep-2021 5093.53 3747.70 79.49 5.00 486.32 2594.99
   05:11:19.381.17-Sep-2021 5093.53 3747.76 79.49 5.00 486.52 2594.99
   05:11:19.581.17-Sep-2021 5093.53 3747.76 79.49 5.00 486.72 2594.99
   05:11:19.782.17-Sep-2021 5093.53 3747.69 79.49 5.00 486.92 2594.99
   05:11:19.982.17-Sep-2021 5093.53 3747.49 79.49 5.00 487.12 2594.99
   05:11:20.182.17-Sep-2021 5093.53 3747.42 79.49 5.00 487.32 2594.99
   05:11:20.382.17-Sep-2021 5093.53 3747.35 79.49 5.00 487.53 2594.99
   05:11:20.582.17-Sep-2021 5093.53 3747.35 79.49 5.00 487.73 2594.99
   05:11:20.783.17-Sep-2021 5093.53 3747.39 79.49 5.00 487.93 2594.99
   05:11:20.983.17-Sep-2021 5093.53 3747.39 79.49 5.00 488.13 2594.99
   05:11:21.183.17-Sep-2021 5093.53 3747.35 79.49 5.00 488.33 2594.99
   05:11:21.383.17-Sep-2021 5093.53 3747.30 79.49 5.00 488.53 2594.99
   05:11:21.584.17-Sep-2021 5093.53 3747.30 79.49 5.00 488.73 2594.99
   05:11:21.784.17-Sep-2021 5093.53 3747.32 79.49 5.00 488.93 2594.99
   05:11:21.984.17-Sep-2021 5093.53 3747.30 79.49 5.00 489.13 2594.99
   05:11:22.184.17-Sep-2021 5093.53 3747.31 79.49 5.00 489.33 2594.99
   05:11:22.384.17-Sep-2021 5093.53 3747.32 79.49 5.00 489.53 2594.99
   05:11:22.585.17-Sep-2021 5093.53 3747.32 79.49 5.00 489.73 2594.99
   05:11:22.785.17-Sep-2021 5093.53 3747.32 79.49 5.00 489.93 2594.99
   05:11:22.985.17-Sep-2021 5093.53 3747.33 79.49 5.00 490.13 2594.99
   05:11:23.185.17-Sep-2021 5093.53 3747.34 79.49 5.00 490.33 2594.99
   05:11:23.385.17-Sep-2021 5093.53 3747.35 79.49 5.00 490.53 2594.99
   05:11:23.586.17-Sep-2021 5093.53 3747.35 79.49 5.00 490.73 2594.99
   05:11:23.786.17-Sep-2021 5093.53 3747.35 79.49 5.00 490.93 2594.99
   05:11:23.986.17-Sep-2021 5093.53 3747.40 79.49 5.00 491.13 2594.99
   05:11:24.186.17-Sep-2021 5093.53 3747.42 79.49 5.00 491.33 2594.99
   05:11:24.387.17-Sep-2021 5093.53 3747.46 79.49 5.00 491.53 2594.99
   05:11:24.587.17-Sep-2021 5093.53 3747.46 79.49 5.00 491.73 2594.99
   05:11:24.787.17-Sep-2021 5093.53 3747.42 79.49 5.00 491.93 2594.99
   05:11:24.987.17-Sep-2021 5093.53 3747.43 79.49 5.00 492.13 2594.99
   05:11:25.187.17-Sep-2021 5093.53 3747.35 79.49 5.00 492.33 2594.99
   05:11:25.388.17-Sep-2021 5093.53 3747.35 79.49 5.00 492.53 2594.99
   05:11:25.588.17-Sep-2021 5093.53 3747.35 79.49 5.00 492.73 2594.99
   05:11:25.788.17-Sep-2021 5093.53 3747.42 79.49 5.00 492.93 2594.99
   05:11:25.988.17-Sep-2021 5093.53 3747.43 79.49 5.00 493.13 2594.99
   05:11:26.189.17-Sep-2021 5093.53 3747.43 79.49 5.00 493.33 2594.99
   05:11:26.389.17-Sep-2021 5093.53 3747.43 79.49 5.00 493.53 2594.99
   05:11:26.589.17-Sep-2021 5093.53 3747.43 79.49 5.00 493.73 2594.99
   05:11:26.789.17-Sep-2021 5093.53 3747.42 79.49 5.00 493.93 2594.99
   05:11:26.989.17-Sep-2021 5093.53 3747.44 79.49 5.00 494.13 2594.99
   05:11:27.190.17-Sep-2021 5093.53 3747.47 79.49 5.00 494.33 2594.99
   05:11:27.390.17-Sep-2021 5093.53 3747.49 79.49 5.00 494.53 2594.99
   05:11:27.590.17-Sep-2021 5093.53 3747.49 79.49 5.00 494.73 2594.99
   05:11:27.790.17-Sep-2021 5093.53 3747.54 79.49 5.00 494.93 2594.99
   05:11:27.990.17-Sep-2021 5093.53 3747.42 79.49 5.00 495.13 2594.99
   05:11:28.191.17-Sep-2021 5093.53 3747.46 79.49 5.00 495.33 2594.99
   05:11:28.391.17-Sep-2021 5093.53 3752.80 79.49 5.00 495.53 2594.99
   05:11:28.591.17-Sep-2021 5093.53 3752.80 79.49 5.00 495.73 2594.99
   05:11:28.791.17-Sep-2021 5093.53 4582.55 79.49 5.00 495.93 2594.99
   05:11:28.992.17-Sep-2021 5093.53 5111.77 79.49 5.00 496.13 2594.99
   05:11:29.192.17-Sep-2021 5093.53 4683.73 79.49 5.00 496.33 2594.99
   05:11:29.392.17-Sep-2021 5093.53 4908.40 79.50 5.00 496.53 2594.99
   05:11:29.592.17-Sep-2021 5093.53 4908.40 79.50 5.00 496.73 2594.99
   05:11:29.792.17-Sep-2021 5093.53 5277.99 79.50 5.00 496.94 2594.99
   05:11:29.993.17-Sep-2021 5093.53 5312.57 79.50 5.00 497.14 2594.99
   05:11:30.193.17-Sep-2021 5093.53 5274.09 79.50 5.00 497.34 2594.99
   05:11:30.393.17-Sep-2021 5093.53 5229.75 79.50 5.00 497.54 2594.99
   05:11:30.593.17-Sep-2021 5093.53 5229.75 79.50 5.00 497.74 2594.99
   05:11:30.793.17-Sep-2021 5093.53 5128.51 79.50 5.00 497.94 2594.99
   05:11:30.994.17-Sep-2021 5093.53 5089.13 79.50 5.00 498.14 2594.99
   05:11:31.194.17-Sep-2021 5093.53 5061.40 79.50 5.00 498.34 2594.99
   05:11:31.394.17-Sep-2021 5093.53 5079.57 79.50 5.00 498.54 2594.99
   05:11:31.594.17-Sep-2021 5093.53 5079.57 79.50 5.00 498.74 2594.99
   05:11:31.795.17-Sep-2021 5093.53 5151.29 79.50 5.00 498.94 2594.99
   05:11:31.995.17-Sep-2021 5093.53 5157.06 79.51 5.00 499.14 2594.99
   05:11:32.195.17-Sep-2021 5093.53 5110.70 79.51 5.00 499.34 2594.99
   05:11:32.395.17-Sep-2021 5093.53 5081.14 79.51 5.00 499.54 2594.99
   05:11:32.595.17-Sep-2021 5093.53 5081.14 79.51 5.00 499.74 2594.99
   05:11:32.796.17-Sep-2021 5093.53 5117.38 79.51 5.00 499.94 2594.99
   05:11:32.996.17-Sep-2021 5093.53 5177.35 79.51 5.00 500.14 2594.99
   05:11:33.196.17-Sep-2021 5093.53 5222.40 79.51 5.00 500.34 2594.99
   05:11:33.396.17-Sep-2021 5093.53 5259.39 79.51 5.00 500.54 2594.99
   05:11:33.596.17-Sep-2021 5093.53 5259.39 79.51 5.00 500.74 2594.99
   05:11:33.797.17-Sep-2021 5093.53 5323.43 79.52 5.00 500.94 2594.99
   05:11:33.997.17-Sep-2021 5093.53 5361.79 79.52 5.00 501.14 2594.99
   05:11:34.197.17-Sep-2021 5093.53 5389.66 79.52 5.00 501.34 2594.99
   05:11:34.397.17-Sep-2021 5093.53 5425.51 79.52 5.00 501.54 2594.99
   05:11:34.598.17-Sep-2021 5093.53 5425.51 79.52 5.00 501.74 2594.99
   05:11:34.798.17-Sep-2021 5093.53 5515.09 79.52 5.00 501.94 2594.99
   05:11:34.998.17-Sep-2021 5093.53 5543.84 79.52 5.00 502.14 2594.99
   05:11:35.198.17-Sep-2021 5093.53 5536.40 79.52 5.00 502.34 2594.99
   05:11:35.398.17-Sep-2021 5093.53 5519.92 79.52 5.00 502.54 2594.99
   05:11:35.599.17-Sep-2021 5093.53 5519.92 79.52 5.00 502.74 2594.99
   05:11:35.799.17-Sep-2021 5093.53 5568.08 79.53 5.00 502.94 2594.99
   05:11:35.999.17-Sep-2021 5093.53 5587.63 79.53 5.00 503.14 2594.99
   05:11:36.199.17-Sep-2021 5093.53 5572.22 79.53 5.00 503.34 2594.99
   05:11:36.400.17-Sep-2021 5093.53 5524.50 79.53 5.00 503.54 2594.99
   05:11:36.600.17-Sep-2021 5093.53 5524.50 79.53 5.00 503.74 2594.99
   05:11:36.800.17-Sep-2021 5093.53 5587.63 79.53 5.00 503.94 2594.99
   05:11:37.000.17-Sep-2021 5093.53 5592.06 79.53 5.00 504.14 2594.99
   05:11:37.200.17-Sep-2021 5093.53 5598.78 79.53 5.00 504.34 2594.99
   05:11:37.401.17-Sep-2021 5093.53 5625.14 79.53 5.00 504.54 2594.99
   05:11:37.601.17-Sep-2021 5093.53 5625.14 79.53 5.00 504.74 2594.99
   05:11:37.801.17-Sep-2021 5093.53 5595.12 79.54 5.00 504.94 2594.99
   05:11:38.001.17-Sep-2021 5093.53 5628.48 79.54 5.00 505.14 2594.99
   05:11:38.201.17-Sep-2021 5093.53 5638.12 79.54 5.00 505.34 2594.99
   05:11:38.402.17-Sep-2021 5093.53 5648.62 79.54 5.00 505.54 2594.99
   05:11:38.602.17-Sep-2021 5093.53 5648.62 79.54 5.00 505.74 2594.99
   05:11:38.802.17-Sep-2021 5093.53 5730.58 79.54 5.00 505.94 2594.99
   05:11:39.002.17-Sep-2021 5093.53 5763.23 79.54 5.00 506.15 2594.99
   05:11:39.203.17-Sep-2021 5093.53 5784.09 79.54 5.00 506.35 2594.99
