~Version Information
 VERS.                  2.0:   CWLS log ASCII Standard -VERSION 2.0
 WRAP.                   NO:   One line per depth step
~Well Information Block
#MNEM.UNIT     VALUE/NAME     DESCRIPTION
#---------     -----------    ---------------------------
 STRT.S             04:34:50 17-Sep-21: START TIME 04:34:50 17-Sep-21
 STOP.S             04:43:20 17-Sep-21: STOP TIME  04:43:20 17-Sep-21
 STEP.S                   0.00: STEP TIME
 NULL.                 -999.25: NULL VALUE
 DFWT.                        :  DIST FWL TEXT
 DFST.                        :  DIST FSL TEXT
 DMF .             Drill Floor:  DRILL MEAS FROM
 STIM.      10.59.12 05-Jul-21:  START TIME
 DATE.      10.59.12 10-Sep-21:  END TIME
 SPUD.               05-Jul-21:  SPUD DATE
 NREF.                    Grid:  NORTH REFERENCE
 HPTY.       Minimum Curvature:  HOLE POS TYPE
 DMOD.             Drill Model:  DRILL MOD DESC
 SVYD.                  Survey:  SURVEY DESC
 ILTD.               Lithology:  INTERP LTH DESC
 FTOP.          Formation Tops:  FORM TOPS DESC
 RIG .                     DWG:  RIG NAME
 PDAT.          Mean Sea Level:  PERMANENT DATUM
 FLD .                     ACG:  FIELD NAME
 SON .        AZ-XX-0907115008:  JOB NUMBER
 CTRY.              Azerbaijan:  COUNTRY NAME
 WELL.                    E35A:  WELL NAME
 SRVC.          TURAN DRILLING:  CONTRACTOR
 COMP.     BP Exploration (Caspian Sea LTD):  COMPANY
 UWI .                     N/A:  UNIQUE WELL IDENTIFIER
 API .                     N/A:  API NUMBER
 MDS .        Operator Entered:  MAG DATA SOURCE
 BASE.              Azerbaijan:  LOGGING EQUIPMENT BASE LOCATION
 REGN.                   EESSA:  REGION
 PROV.                    Baku:  PROVINCE
 STAT.                    Baku:  STATE NAME
 MWDS.                    Baku:  MWD SHOP
 JOBN.        AZ-XX-0907115008:  JOB TICKET NUMB
 DOE .                     N/A:  DOE NUMBER
 DCON.         Sperry Drilling:  DIRECTNL CONTR
 UNIT.                     N/A:  LOGGING EQUIPMENT ID
 WTYP.                Deviated:  WELL TYPE
 CNTY.                        :  COUNTY
 LOC .                        :  LOCATION
 LMF .             Drill Floor:  LOG MEASURED FROM
 TVDS.m                  43.16:  TVDSS CORRECTN
 LATI.deg                40.17:  LATITUDE
 LONG.deg                51.17:  LONGITUDE
 WHNS.m                  10.51:  WELL HEAD N/S
 WHEW.m                 -14.82:  WELL HEAD E/W
 UTMX.m              514336.92:  UTM X
 UTMY.m             4448618.56:  UTM Y
 DFWL.m                   0.00:  DISTANCE FWL
 DFSL.m                   0.00:  DISTANCE FSL
 SDEP.m                 849.00:  START DEPTH
 TDD .m                2862.00:  TOTAL DEPTH (DRILLER)
 VSDR.deg               292.10:  VERT SEC DIRECT
 GVFD.g                   1.00:  GRAVITY FIELD
 MFLD.nT              50382.00:  MAGNETIC FIELD
 MDIP.deg                59.68:  MAGNETIC DIP
 MDEC.deg                 6.66:  MAGNETIC DECL
 GRDC.deg                 0.09:  GRID CORRECTION
 AZTC.deg                 6.57:  AZM TOTAL CORR
 EPD .m                   0.00:  ELEVATION
 EGL .m                   0.00:  GROUND ELEVATION
 WDMS.m                 176.20:  WD ELEV
 APD .m                  43.16:  DEPTH ABOVE PD
 DEP .m                 363.42:  DEPTH
 AGAP.m                  43.16:  AIR GAP
 VSEW.m                 -14.82:  VERT SEC E/W
 VSNS.m                  10.51:  VERT SEC N/S
 EKB .m                  43.16:  KB ELEVATION
 EDF .m                  43.16:  DF ELEVATION
 TDL .m                1390.00:  TOTAL DEPTH (LOGGER)
 VSC .                       0:  VS TO CLOSURE
 MAGU.                 1855871:  MAGUTM CHECKSUM
~Parameter Information Block
#MNEM.UNIT       Value        Description
#---------     -----------    ---------------------------
 AV  .mps                 2.28:  Ann Velocity 
 AVMX.mps                 2.67:  Max Ann Veloc 
 AZIF.deg               305.00:  Azm, Final 
 BHAT.        Rotary Steerable:  BHA Type 
 BROT.°/30m               0.45:  Build Rotating 
 BS  .in                 12.25:  Bit Size 
 BSZ .in                 12.25:  Bit Size 
 BTPL.psig              600.00:  Bit Press Loss 
 CABU.                     Yes:  Customer Abuse 
 COMM.                     ÌN:  Run Comments 1 
 TCS .hr                150.00:  Time Ciculation Ended 
 CV  .mps                 1.24:  Crit Velocity 
 CVMX.mps                 1.66:  Max Crit Veloc 
 DD1 .         Intigam Rahimov:  Direct Drillr 1 
 DD2 .            Azer Ravavov:  Direct Drillr 2 
 DD3 .              Samir Abas:  Direct Drillr 3 
 DDSV.               Geo-Pilot:  DD Service 
 DEFF.%                 100.00:  % Det Eff 
 DLRX.°/30m               1.57:  Dogleg Rot Max 
 DLSO.°/30m               0.00:  Dogleg Oriented 
 DLSX.°/30m               0.00:  Dogleg Str Max 
 DRET.      20.28.06 17-Sep-21:  Drill End Time 
 DRST.      20.27.35 10-Sep-21:  Drill Start Tim 
 DTIM.hr                 54.00:  Time Drilling 
 EDEP.m                5260.00:  End Depth 
 ENG1.      Bakhtiyar Jabbarli:  Engineer 1 
 ENG2.      Natik Hasanaghayev:  Engineer 2 
 ENG3.           Royal Nasirov:  Engineer 3 
 ETIM.      20.27.55 18-Sep-21:  End Time 
 FLOI.gpm              1100.00:  Flow In 
 FLON.gpm               800.00:  Flow In Min 
 FLOS.cptm                0.00:  Fluid Loss 
 FLOX.gpm              1200.00:  Flow In Max 
 DFT .        Mineral Oil Base:  Mud Type 
 HPRE.                      No:  High Pressure 
 HTEM.                      No:  High Temp 
 HYDO.m                   1.80:  Hydro Offset 
 IFIN.deg                72.31:  Inc, Final 
 IMAX.deg                72.36:  Inc Max 
 IMIN.deg                69.36:  Inc Min 
 IMND.m                4192.96:  Inc Min Depth 
 IMXD.m                5128.36:  Inc Max Depth 
 JARR.                      No:  Jarring 
 LETM.      20.29.00 17-Sep-21:  Log End Time 
 LOST.hr                     0:  Lost Rig Time 
 LSTM.      20.27.00 10-Sep-21:  Log Start Time 
 MDCL.ppm            227000.00:  Mud Chlorides 
 MDES.     Inversion Oil/Synthetic:  Mud Desc 
 DFD .sg                  1.45:  Mud Density 
 MDMN.sg                  1.45:  Dens Mud Min 
 MDMX.sg                  1.45:  Dens Mud Max 
 MOIL.                    70.5:  Run Mud Oil % 
 MOWR.                   71:29:  Run Mud OWR 
 MSND.                     0.3:  Run Mud Sand % 
 MSOL.                    19.8:  Run Mud Solids% 
 DFV .spqt               80.00:  Mud Viscosity 
 MWOD.in                  8.00:  MWD Tool OD 
 MWSI.                     Yes:  Serv Intrp, MWD 
 OTIM.hr                180.00:  Time Operating 
 PCON.           Look Like New:  Pad Condition 
 PMAX.psia             9910.94:  Press Op, Max 
 PV  .cP                 35.00:  Mud PV 
 RUN .                    1000:  Run Number 
 ROPA.m/hr               18.00:  ROP Avg 
 ROPN.m/hr                8.00:  ROP Min 
 ROPX.m/hr               23.00:  ROP Max 
 RPMA.rpm               150.00:  RPM Surface Avg 
 RPMN.rpm               120.00:  RPM Surface Min 
 RPMX.rpm               160.00:  RPM Surface Max 
 RRUN.                    L503:  Rig Run Number 
 RTIM.hr                  5.00:  Time Reaming 
 SAZI.deg               298.42:  Azm, Start 
 SDEP.m                3870.00:  Start Depth 
 SIDD.                      No:  Serv Intrp, DD 
 SINC.deg                69.57:  Inc, Start 
 SPPA.psig             5500.00:  SPP Avg 
 SPPN.psig             4400.00:  SPP Min 
 SPPX.psig             5800.00:  SPP Max 
 STIM.      15.29.39 09-Sep-21:  Start Time 
 SVCS.                 DD, MWD:  Services 
 SVER.                    9.20:  Sperry Version 
 TDAT.m                5260.00:  Tot Depth Attmp 
 TDDF.                      No:  Trip for DD 
 TDLG.m                1390.00:  Tot Depth Loggd 
 TFF .                      No:  Trip for Fail 
 TQAA.f-kp               22.00:  Torque Abs Avg 
 TQAN.f-kp               13.00:  Torque Abs Min 
 TQAX.f-kp               27.00:  Torque Abs Max 
 TRRT.°/30m               1.60:  Turn Rotating 
 MRT .                  EWR-M5:  Maximum Recorded Temperature 
 TTMX.degC               92.00:  Max Tool Temp 
 VS01.                12330975:  Virtual Str1 SN 
 VS02.                90658671:  Virtual Str2 SN 
 VS03.                90658508:  Virtual Str3 SN 
 VS04.                90660974:  Virtual Str4 SN 
 VS05.                90654675:  Virtual Str5 SN 
 WBMN.klb                15.00:  WOB Min 
 WITN.     Alexander Yadullayev:  Customer Rep 
 WITN.           Adil Mammadov:  Customer Rep 2 
 WOBA.klb                17.00:  WOB Avg 
 WOBX.klb                18.00:  WOB Max 
 YP  .lhf2               31.00:  Yield Point 
~Curve Information Block
#MNEM.UNIT                 API CODE     Curve Description
#---------               -----------    ---------------------------
 TIME.HHMMSS            00 000 000 000:  GT Time & Date
 GTDEPTH.m              00 000 000 000:  GT Depth
 GTPQH.psia             00 000 000 000:  GT HR Quartz Pressure
 GTTQ.degC              00 000 000 000:  GT Quartz Temperature
 GTTN.NONE              00 000 000 000:  GT Test Number
 GTET.sec               00 000 000 000:  GT Elapsed Test Time
 GTTVD.m                00 000 000 000:  GT True Vertical Depth
#Other Information
#
#WARRANTY: Halliburton will use its best efforts to furnish customers with 
#accurate information and interpretations that are part of, and incident to, the services 
#provided.  However, Halliburton cannot and does not warrant the accuracy 
#or correctness of such information and interpretations.  Under no circumstances should any 
#such information or interpretation be relied upon as the sole basis for any drilling, 
#completion, production, or financial decision or any procedure involving any risk to the 
#safety of any drilling venture, drilling rig or its crew or any other third party.  The 
#Customer has full responsibility for all drilling, completion and production operation.  
#Halliburton makes no representations or warranties, either expressed or 
#implied, including, but not limited to, the implied warranties of merchantability or fitness 
#for a particular purpose, with respect to the services rendered.  In no event will 
#Halliburton be liable for failure to obtain any particular results or for 
#any damages, including, but not limited to, indirect, special or consequential damages, 
#resulting from the use of any information or interpretation provided by Halliburton.
#
~A           TIME           GTDEPTH  GTPQH  GTTQ  GTTN  GTET   GTTVD  
# ...
   04:41:21.445.17-Sep-2021 5094.00 5442.79 80.07 4.00 391.42 2595.14
   04:41:21.645.17-Sep-2021 5094.00 5442.79 80.07 4.00 391.62 2595.14
   04:41:21.845.17-Sep-2021 5094.00 5442.69 80.07 4.00 391.82 2595.14
   04:41:22.045.17-Sep-2021 5094.00 5442.62 80.06 4.00 392.02 2595.14
   04:41:22.246.17-Sep-2021 5094.00 5442.61 80.06 4.00 392.22 2595.14
   04:41:22.446.17-Sep-2021 5094.00 5442.63 80.06 4.00 392.42 2595.14
   04:41:22.646.17-Sep-2021 5094.00 5442.63 80.06 4.00 392.62 2595.14
   04:41:22.846.17-Sep-2021 5094.00 5442.74 80.06 4.00 392.82 2595.14
   04:41:23.047.17-Sep-2021 5094.00 5442.75 80.06 4.00 393.02 2595.14
   04:41:23.247.17-Sep-2021 5094.00 5442.81 80.06 4.00 393.22 2595.14
   04:41:23.447.17-Sep-2021 5094.00 5443.57 80.06 4.00 393.42 2595.14
   04:41:23.647.17-Sep-2021 5094.00 5443.57 80.06 4.00 393.62 2595.14
   04:41:23.847.17-Sep-2021 5094.00 5442.94 80.06 4.00 393.82 2595.14
   04:41:24.048.17-Sep-2021 5094.00 5443.07 80.06 4.00 394.02 2595.14
   04:41:24.248.17-Sep-2021 5094.00 5442.88 80.06 4.00 394.22 2595.14
   04:41:24.448.17-Sep-2021 5094.00 5442.62 80.06 4.00 394.42 2595.14
   04:41:24.648.17-Sep-2021 5094.00 5442.62 80.06 4.00 394.63 2595.14
   04:41:24.848.17-Sep-2021 5094.00 5442.32 80.06 4.00 394.83 2595.14
   04:41:25.049.17-Sep-2021 5094.00 5442.29 80.06 4.00 395.03 2595.14
   04:41:25.249.17-Sep-2021 5094.00 5442.24 80.06 4.00 395.23 2595.14
   04:41:25.449.17-Sep-2021 5094.00 5442.41 80.06 4.00 395.43 2595.14
   04:41:25.649.17-Sep-2021 5094.00 5442.41 80.06 4.00 395.63 2595.14
   04:41:25.850.17-Sep-2021 5094.00 5441.79 80.06 4.00 395.83 2595.14
   04:41:26.050.17-Sep-2021 5094.00 5441.79 80.06 4.00 396.03 2595.14
   04:41:26.250.17-Sep-2021 5094.00 5441.79 80.06 4.00 396.23 2595.14
   04:41:26.450.17-Sep-2021 5094.00 5441.77 80.06 4.00 396.43 2595.14
   04:41:26.650.17-Sep-2021 5094.00 5441.77 80.06 4.00 396.63 2595.14
   04:41:26.851.17-Sep-2021 5094.00 5441.66 80.06 4.00 396.83 2595.14
   04:41:27.051.17-Sep-2021 5094.00 5441.60 80.06 4.00 397.03 2595.14
   04:41:27.251.17-Sep-2021 5094.00 5441.55 80.06 4.00 397.23 2595.14
   04:41:27.451.17-Sep-2021 5094.00 5441.52 80.06 4.00 397.43 2595.14
   04:41:27.651.17-Sep-2021 5094.00 5441.52 80.06 4.00 397.63 2595.14
   04:41:27.852.17-Sep-2021 5094.00 5441.43 80.05 4.00 397.83 2595.14
   04:41:28.052.17-Sep-2021 5094.00 5441.41 80.05 4.00 398.03 2595.14
   04:41:28.252.17-Sep-2021 5094.00 5441.45 80.05 4.00 398.23 2595.14
   04:41:28.452.17-Sep-2021 5094.00 5441.48 80.05 4.00 398.43 2595.14
   04:41:28.653.17-Sep-2021 5094.00 5441.48 80.05 4.00 398.63 2595.14
   04:41:28.853.17-Sep-2021 5094.00 5441.46 80.05 4.00 398.83 2595.14
   04:41:29.053.17-Sep-2021 5094.00 5441.45 80.05 4.00 399.03 2595.14
   04:41:29.253.17-Sep-2021 5094.00 5441.41 80.05 4.00 399.23 2595.14
   04:41:29.453.17-Sep-2021 5094.00 5442.04 80.05 4.00 399.43 2595.14
   04:41:29.654.17-Sep-2021 5094.00 5442.04 80.05 4.00 399.63 2595.14
   04:41:29.854.17-Sep-2021 5094.00 5441.31 80.05 4.00 399.83 2595.14
   04:41:30.054.17-Sep-2021 5094.00 5441.34 80.05 4.00 400.03 2595.14
   04:41:30.254.17-Sep-2021 5094.00 5441.23 80.05 4.00 400.23 2595.14
   04:41:30.454.17-Sep-2021 5094.00 5441.17 80.05 4.00 400.43 2595.14
   04:41:30.655.17-Sep-2021 5094.00 5441.17 80.05 4.00 400.63 2595.14
   04:41:30.855.17-Sep-2021 5094.00 5441.17 80.05 4.00 400.83 2595.14
   04:41:31.055.17-Sep-2021 5094.00 5441.00 80.05 4.00 401.03 2595.14
   04:41:31.255.17-Sep-2021 5094.00 5440.96 80.05 4.00 401.23 2595.14
   04:41:31.456.17-Sep-2021 5094.00 5440.92 80.05 4.00 401.43 2595.14
   04:41:31.656.17-Sep-2021 5094.00 5440.92 80.05 4.00 401.63 2595.14
   04:41:31.856.17-Sep-2021 5094.00 5441.02 80.05 4.00 401.83 2595.14
   04:41:32.056.17-Sep-2021 5094.00 5440.99 80.05 4.00 402.03 2595.14
   04:41:32.256.17-Sep-2021 5094.00 5441.00 80.05 4.00 402.23 2595.14
   04:41:32.457.17-Sep-2021 5094.00 5440.99 80.05 4.00 402.43 2595.14
   04:41:32.657.17-Sep-2021 5094.00 5440.99 80.05 4.00 402.63 2595.14
   04:41:32.857.17-Sep-2021 5094.00 5441.43 80.05 4.00 402.83 2595.14
   04:41:33.057.17-Sep-2021 5094.00 5440.76 80.05 4.00 403.03 2595.14
   04:41:33.258.17-Sep-2021 5094.00 5441.01 80.05 4.00 403.23 2595.14
   04:41:33.458.17-Sep-2021 5094.00 5440.72 80.05 4.00 403.43 2595.14
   04:41:33.658.17-Sep-2021 5094.00 5440.72 80.05 4.00 403.63 2595.14
   04:41:33.858.17-Sep-2021 5094.00 5440.80 80.04 4.00 403.83 2595.14
   04:41:34.058.17-Sep-2021 5094.00 5441.28 80.04 4.00 404.04 2595.14
   04:41:34.259.17-Sep-2021 5094.00 5441.23 80.04 4.00 404.24 2595.14
   04:41:34.459.17-Sep-2021 5094.00 5441.06 80.04 4.00 404.44 2595.14
   04:41:34.659.17-Sep-2021 5094.00 5441.06 80.04 4.00 404.64 2595.14
   04:41:34.859.17-Sep-2021 5094.00 5440.67 80.04 4.00 404.84 2595.14
   04:41:35.059.17-Sep-2021 5094.00 5440.33 80.04 4.00 405.04 2595.14
   04:41:35.260.17-Sep-2021 5094.00 5440.16 80.04 4.00 405.24 2595.14
   04:41:35.460.17-Sep-2021 5094.00 5440.06 80.04 4.00 405.44 2595.14
   04:41:35.660.17-Sep-2021 5094.00 5440.06 80.04 4.00 405.64 2595.14
   04:41:35.860.17-Sep-2021 5094.00 5440.24 80.04 4.00 405.84 2595.14
   04:41:36.061.17-Sep-2021 5094.00 5439.48 80.04 4.00 406.04 2595.14
   04:41:36.261.17-Sep-2021 5094.00 5439.64 80.04 4.00 406.24 2595.14
   04:41:36.461.17-Sep-2021 5094.00 5439.73 80.04 4.00 406.44 2595.14
   04:41:36.661.17-Sep-2021 5094.00 5439.73 80.04 4.00 406.64 2595.14
   04:41:36.861.17-Sep-2021 5094.00 5439.65 80.04 4.00 406.84 2595.14
   04:41:37.062.17-Sep-2021 5094.00 5439.59 80.04 4.00 407.04 2595.14
   04:41:37.262.17-Sep-2021 5094.00 5439.53 80.04 4.00 407.24 2595.14
   04:41:37.462.17-Sep-2021 5094.00 5439.46 80.04 4.00 407.44 2595.14
   04:41:37.662.17-Sep-2021 5094.00 5439.46 80.04 4.00 407.64 2595.14
   04:41:37.862.17-Sep-2021 5094.00 5439.39 80.04 4.00 407.84 2595.14
   04:41:38.063.17-Sep-2021 5094.00 5439.42 80.04 4.00 408.04 2595.14
   04:41:38.263.17-Sep-2021 5094.00 5439.43 80.04 4.00 408.24 2595.14
   04:41:38.463.17-Sep-2021 5094.00 5439.45 80.04 4.00 408.44 2595.14
   04:41:38.663.17-Sep-2021 5094.00 5439.45 80.04 4.00 408.64 2595.14
   04:41:38.864.17-Sep-2021 5094.00 5441.28 80.04 4.00 408.84 2595.14
   04:41:39.064.17-Sep-2021 5094.00 5447.58 80.04 4.00 409.04 2595.14
   04:41:39.264.17-Sep-2021 5094.00 5447.11 80.04 4.00 409.24 2595.14
   04:41:39.464.17-Sep-2021 5094.00 5446.70 80.04 4.00 409.44 2595.14
   04:41:39.664.17-Sep-2021 5094.00 5446.70 80.04 4.00 409.64 2595.14
   04:41:39.865.17-Sep-2021 5094.00 5446.67 80.03 4.00 409.84 2595.14
   04:41:40.065.17-Sep-2021 5094.00 5446.57 80.03 4.00 410.04 2595.14
   04:41:40.265.17-Sep-2021 5094.00 5446.46 80.03 4.00 410.24 2595.14
   04:41:40.465.17-Sep-2021 5094.00 5446.35 80.03 4.00 410.44 2595.14
   04:41:40.665.17-Sep-2021 5094.00 5446.35 80.03 4.00 410.64 2595.14
   04:41:40.866.17-Sep-2021 5094.00 5446.19 80.03 4.00 410.84 2595.14
   04:41:41.066.17-Sep-2021 5094.00 5446.18 80.03 4.00 411.04 2595.14
   04:41:41.266.17-Sep-2021 5094.00 5446.18 80.03 4.00 411.24 2595.14
   04:41:41.466.17-Sep-2021 5094.00 5446.18 80.03 4.00 411.44 2595.14
   04:41:41.667.17-Sep-2021 5094.00 5446.18 80.03 4.00 411.64 2595.14
   04:41:41.867.17-Sep-2021 5094.00 5446.23 80.03 4.00 411.84 2595.14
   04:41:42.067.17-Sep-2021 5094.00 5446.23 80.03 4.00 412.04 2595.14
   04:41:42.267.17-Sep-2021 5094.00 5446.25 80.03 4.00 412.24 2595.14
   04:41:42.467.17-Sep-2021 5094.00 5445.86 80.03 4.00 412.44 2595.14
   04:41:42.668.17-Sep-2021 5094.00 5445.86 80.03 4.00 412.64 2595.14
   04:41:42.868.17-Sep-2021 5094.00 5445.40 80.03 4.00 412.84 2595.14
   04:41:43.068.17-Sep-2021 5094.00 5445.97 80.03 4.00 413.04 2595.14
   04:41:43.268.17-Sep-2021 5094.00 5444.27 80.03 4.00 413.25 2595.14
   04:41:43.469.17-Sep-2021 5094.00 5444.78 80.03 4.00 413.45 2595.14
   04:41:43.669.17-Sep-2021 5094.00 5444.78 80.03 4.00 413.65 2595.14
   04:41:43.869.17-Sep-2021 5094.00 5444.58 80.03 4.00 413.85 2595.14
   04:41:44.069.17-Sep-2021 5094.00 5444.52 80.03 4.00 414.05 2595.14
   04:41:44.269.17-Sep-2021 5094.00 5444.26 80.03 4.00 414.25 2595.14
