~Version Information
 VERS.                  2.0:   CWLS log ASCII Standard -VERSION 2.0
 WRAP.                   NO:   One line per depth step
~Well Information Block
#MNEM.UNIT     VALUE/NAME     DESCRIPTION
#---------     -----------    ---------------------------
 STRT.S             04:34:50 17-Sep-21: START TIME 04:34:50 17-Sep-21
 STOP.S             04:43:20 17-Sep-21: STOP TIME  04:43:20 17-Sep-21
 STEP.S                   0.00: STEP TIME
 NULL.                 -999.25: NULL VALUE
 DFWT.                        :  DIST FWL TEXT
 DFST.                        :  DIST FSL TEXT
 DMF .             Drill Floor:  DRILL MEAS FROM
 STIM.      10.59.12 05-Jul-21:  START TIME
 DATE.      10.59.12 10-Sep-21:  END TIME
 SPUD.               05-Jul-21:  SPUD DATE
 NREF.                    Grid:  NORTH REFERENCE
 HPTY.       Minimum Curvature:  HOLE POS TYPE
 DMOD.             Drill Model:  DRILL MOD DESC
 SVYD.                  Survey:  SURVEY DESC
 ILTD.               Lithology:  INTERP LTH DESC
 FTOP.          Formation Tops:  FORM TOPS DESC
 RIG .                     DWG:  RIG NAME
 PDAT.          Mean Sea Level:  PERMANENT DATUM
 FLD .                     ACG:  FIELD NAME
 SON .        AZ-XX-0907115008:  JOB NUMBER
 CTRY.              Azerbaijan:  COUNTRY NAME
 WELL.                    E35A:  WELL NAME
 SRVC.          TURAN DRILLING:  CONTRACTOR
 COMP.     BP Exploration (Caspian Sea LTD):  COMPANY
 UWI .                     N/A:  UNIQUE WELL IDENTIFIER
 API .                     N/A:  API NUMBER
 MDS .        Operator Entered:  MAG DATA SOURCE
 BASE.              Azerbaijan:  LOGGING EQUIPMENT BASE LOCATION
 REGN.                   EESSA:  REGION
 PROV.                    Baku:  PROVINCE
 STAT.                    Baku:  STATE NAME
 MWDS.                    Baku:  MWD SHOP
 JOBN.        AZ-XX-0907115008:  JOB TICKET NUMB
 DOE .                     N/A:  DOE NUMBER
 DCON.         Sperry Drilling:  DIRECTNL CONTR
 UNIT.                     N/A:  LOGGING EQUIPMENT ID
 WTYP.                Deviated:  WELL TYPE
 CNTY.                        :  COUNTY
 LOC .                        :  LOCATION
 LMF .             Drill Floor:  LOG MEASURED FROM
 TVDS.m                  43.16:  TVDSS CORRECTN
 LATI.deg                40.17:  LATITUDE
 LONG.deg                51.17:  LONGITUDE
 WHNS.m                  10.51:  WELL HEAD N/S
 WHEW.m                 -14.82:  WELL HEAD E/W
 UTMX.m              514336.92:  UTM X
 UTMY.m             4448618.56:  UTM Y
 DFWL.m                   0.00:  DISTANCE FWL
 DFSL.m                   0.00:  DISTANCE FSL
 SDEP.m                 849.00:  START DEPTH
 TDD .m                2862.00:  TOTAL DEPTH (DRILLER)
 VSDR.deg               292.10:  VERT SEC DIRECT
 GVFD.g                   1.00:  GRAVITY FIELD
 MFLD.nT              50382.00:  MAGNETIC FIELD
 MDIP.deg                59.68:  MAGNETIC DIP
 MDEC.deg                 6.66:  MAGNETIC DECL
 GRDC.deg                 0.09:  GRID CORRECTION
 AZTC.deg                 6.57:  AZM TOTAL CORR
 EPD .m                   0.00:  ELEVATION
 EGL .m                   0.00:  GROUND ELEVATION
 WDMS.m                 176.20:  WD ELEV
 APD .m                  43.16:  DEPTH ABOVE PD
 DEP .m                 363.42:  DEPTH
 AGAP.m                  43.16:  AIR GAP
 VSEW.m                 -14.82:  VERT SEC E/W
 VSNS.m                  10.51:  VERT SEC N/S
 EKB .m                  43.16:  KB ELEVATION
 EDF .m                  43.16:  DF ELEVATION
 TDL .m                1390.00:  TOTAL DEPTH (LOGGER)
 VSC .                       0:  VS TO CLOSURE
 MAGU.                 1855871:  MAGUTM CHECKSUM
~Parameter Information Block
#MNEM.UNIT       Value        Description
#---------     -----------    ---------------------------
 AV  .mps                 2.28:  Ann Velocity 
 AVMX.mps                 2.67:  Max Ann Veloc 
 AZIF.deg               305.00:  Azm, Final 
 BHAT.        Rotary Steerable:  BHA Type 
 BROT.°/30m               0.45:  Build Rotating 
 BS  .in                 12.25:  Bit Size 
 BSZ .in                 12.25:  Bit Size 
 BTPL.psig              600.00:  Bit Press Loss 
 CABU.                     Yes:  Customer Abuse 
 COMM.                     ÌN:  Run Comments 1 
 TCS .hr                150.00:  Time Ciculation Ended 
 CV  .mps                 1.24:  Crit Velocity 
 CVMX.mps                 1.66:  Max Crit Veloc 
 DD1 .         Intigam Rahimov:  Direct Drillr 1 
 DD2 .            Azer Ravavov:  Direct Drillr 2 
 DD3 .              Samir Abas:  Direct Drillr 3 
 DDSV.               Geo-Pilot:  DD Service 
 DEFF.%                 100.00:  % Det Eff 
 DLRX.°/30m               1.57:  Dogleg Rot Max 
 DLSO.°/30m               0.00:  Dogleg Oriented 
 DLSX.°/30m               0.00:  Dogleg Str Max 
 DRET.      20.28.06 17-Sep-21:  Drill End Time 
 DRST.      20.27.35 10-Sep-21:  Drill Start Tim 
 DTIM.hr                 54.00:  Time Drilling 
 EDEP.m                5260.00:  End Depth 
 ENG1.      Bakhtiyar Jabbarli:  Engineer 1 
 ENG2.      Natik Hasanaghayev:  Engineer 2 
 ENG3.           Royal Nasirov:  Engineer 3 
 ETIM.      20.27.55 18-Sep-21:  End Time 
 FLOI.gpm              1100.00:  Flow In 
 FLON.gpm               800.00:  Flow In Min 
 FLOS.cptm                0.00:  Fluid Loss 
 FLOX.gpm              1200.00:  Flow In Max 
 DFT .        Mineral Oil Base:  Mud Type 
 HPRE.                      No:  High Pressure 
 HTEM.                      No:  High Temp 
 HYDO.m                   1.80:  Hydro Offset 
 IFIN.deg                72.31:  Inc, Final 
 IMAX.deg                72.36:  Inc Max 
 IMIN.deg                69.36:  Inc Min 
 IMND.m                4192.96:  Inc Min Depth 
 IMXD.m                5128.36:  Inc Max Depth 
 JARR.                      No:  Jarring 
 LETM.      20.29.00 17-Sep-21:  Log End Time 
 LOST.hr                     0:  Lost Rig Time 
 LSTM.      20.27.00 10-Sep-21:  Log Start Time 
 MDCL.ppm            227000.00:  Mud Chlorides 
 MDES.     Inversion Oil/Synthetic:  Mud Desc 
 DFD .sg                  1.45:  Mud Density 
 MDMN.sg                  1.45:  Dens Mud Min 
 MDMX.sg                  1.45:  Dens Mud Max 
 MOIL.                    70.5:  Run Mud Oil % 
 MOWR.                   71:29:  Run Mud OWR 
 MSND.                     0.3:  Run Mud Sand % 
 MSOL.                    19.8:  Run Mud Solids% 
 DFV .spqt               80.00:  Mud Viscosity 
 MWOD.in                  8.00:  MWD Tool OD 
 MWSI.                     Yes:  Serv Intrp, MWD 
 OTIM.hr                180.00:  Time Operating 
 PCON.           Look Like New:  Pad Condition 
 PMAX.psia             9910.94:  Press Op, Max 
 PV  .cP                 35.00:  Mud PV 
 RUN .                    1000:  Run Number 
 ROPA.m/hr               18.00:  ROP Avg 
 ROPN.m/hr                8.00:  ROP Min 
 ROPX.m/hr               23.00:  ROP Max 
 RPMA.rpm               150.00:  RPM Surface Avg 
 RPMN.rpm               120.00:  RPM Surface Min 
 RPMX.rpm               160.00:  RPM Surface Max 
 RRUN.                    L503:  Rig Run Number 
 RTIM.hr                  5.00:  Time Reaming 
 SAZI.deg               298.42:  Azm, Start 
 SDEP.m                3870.00:  Start Depth 
 SIDD.                      No:  Serv Intrp, DD 
 SINC.deg                69.57:  Inc, Start 
 SPPA.psig             5500.00:  SPP Avg 
 SPPN.psig             4400.00:  SPP Min 
 SPPX.psig             5800.00:  SPP Max 
 STIM.      15.29.39 09-Sep-21:  Start Time 
 SVCS.                 DD, MWD:  Services 
 SVER.                    9.20:  Sperry Version 
 TDAT.m                5260.00:  Tot Depth Attmp 
 TDDF.                      No:  Trip for DD 
 TDLG.m                1390.00:  Tot Depth Loggd 
 TFF .                      No:  Trip for Fail 
 TQAA.f-kp               22.00:  Torque Abs Avg 
 TQAN.f-kp               13.00:  Torque Abs Min 
 TQAX.f-kp               27.00:  Torque Abs Max 
 TRRT.°/30m               1.60:  Turn Rotating 
 MRT .                  EWR-M5:  Maximum Recorded Temperature 
 TTMX.degC               92.00:  Max Tool Temp 
 VS01.                12330975:  Virtual Str1 SN 
 VS02.                90658671:  Virtual Str2 SN 
 VS03.                90658508:  Virtual Str3 SN 
 VS04.                90660974:  Virtual Str4 SN 
 VS05.                90654675:  Virtual Str5 SN 
 WBMN.klb                15.00:  WOB Min 
 WITN.     Alexander Yadullayev:  Customer Rep 
 WITN.           Adil Mammadov:  Customer Rep 2 
 WOBA.klb                17.00:  WOB Avg 
 WOBX.klb                18.00:  WOB Max 
 YP  .lhf2               31.00:  Yield Point 
~Curve Information Block
#MNEM.UNIT                 API CODE     Curve Description
#---------               -----------    ---------------------------
 TIME.HHMMSS            00 000 000 000:  GT Time & Date
 GTDEPTH.m              00 000 000 000:  GT Depth
 GTPQH.psia             00 000 000 000:  GT HR Quartz Pressure
 GTTQ.degC              00 000 000 000:  GT Quartz Temperature
 GTTN.NONE              00 000 000 000:  GT Test Number
 GTET.sec               00 000 000 000:  GT Elapsed Test Time
 GTTVD.m                00 000 000 000:  GT True Vertical Depth
#Other Information
#
#WARRANTY: Halliburton will use its best efforts to furnish customers with 
#accurate information and interpretations that are part of, and incident to, the services 
#provided.  However, Halliburton cannot and does not warrant the accuracy 
#or correctness of such information and interpretations.  Under no circumstances should any 
#such information or interpretation be relied upon as the sole basis for any drilling, 
#completion, production, or financial decision or any procedure involving any risk to the 
#safety of any drilling venture, drilling rig or its crew or any other third party.  The 
#Customer has full responsibility for all drilling, completion and production operation.  
#Halliburton makes no representations or warranties, either expressed or 
#implied, including, but not limited to, the implied warranties of merchantability or fitness 
#for a particular purpose, with respect to the services rendered.  In no event will 
#Halliburton be liable for failure to obtain any particular results or for 
#any damages, including, but not limited to, indirect, special or consequential damages, 
#resulting from the use of any information or interpretation provided by Halliburton.
#
~A           TIME           GTDEPTH  GTPQH  GTTQ  GTTN  GTET   GTTVD  
# ...
   04:38:40.271.17-Sep-2021 5094.00 5573.03 80.35 4.00 230.25 2595.14
   04:38:40.471.17-Sep-2021 5094.00 5573.03 80.35 4.00 230.45 2595.14
   04:38:40.672.17-Sep-2021 5094.00 5573.43 80.35 4.00 230.65 2595.14
   04:38:40.872.17-Sep-2021 5094.00 5573.12 80.35 4.00 230.85 2595.14
   04:38:41.072.17-Sep-2021 5094.00 5573.19 80.35 4.00 231.05 2595.14
   04:38:41.272.17-Sep-2021 5094.00 5572.71 80.35 4.00 231.25 2595.14
   04:38:41.472.17-Sep-2021 5094.00 5572.71 80.35 4.00 231.45 2595.14
   04:38:41.673.17-Sep-2021 5094.00 5572.69 80.35 4.00 231.65 2595.14
   04:38:41.873.17-Sep-2021 5094.00 5573.04 80.35 4.00 231.85 2595.14
   04:38:42.073.17-Sep-2021 5094.00 5573.05 80.35 4.00 232.05 2595.14
   04:38:42.273.17-Sep-2021 5094.00 5573.34 80.35 4.00 232.25 2595.14
   04:38:42.474.17-Sep-2021 5094.00 5573.34 80.35 4.00 232.45 2595.14
   04:38:42.674.17-Sep-2021 5094.00 5573.58 80.35 4.00 232.65 2595.14
   04:38:42.874.17-Sep-2021 5094.00 5576.11 80.35 4.00 232.85 2595.14
   04:38:43.074.17-Sep-2021 5094.00 5573.45 80.35 4.00 233.05 2595.14
   04:38:43.274.17-Sep-2021 5094.00 5574.86 80.35 4.00 233.25 2595.14
   04:38:43.475.17-Sep-2021 5094.00 5574.86 80.35 4.00 233.45 2595.14
   04:38:43.675.17-Sep-2021 5094.00 5573.67 80.35 4.00 233.65 2595.14
   04:38:43.875.17-Sep-2021 5094.00 5573.50 80.35 4.00 233.85 2595.14
   04:38:44.075.17-Sep-2021 5094.00 5573.07 80.34 4.00 234.05 2595.14
   04:38:44.276.17-Sep-2021 5094.00 5572.91 80.34 4.00 234.25 2595.14
   04:38:44.476.17-Sep-2021 5094.00 5572.91 80.34 4.00 234.45 2595.14
   04:38:44.676.17-Sep-2021 5094.00 5572.81 80.34 4.00 234.65 2595.14
   04:38:44.876.17-Sep-2021 5094.00 5572.85 80.34 4.00 234.85 2595.14
   04:38:45.076.17-Sep-2021 5094.00 5572.83 80.34 4.00 235.05 2595.14
   04:38:45.277.17-Sep-2021 5094.00 5572.92 80.34 4.00 235.25 2595.14
   04:38:45.477.17-Sep-2021 5094.00 5572.92 80.34 4.00 235.45 2595.14
   04:38:45.677.17-Sep-2021 5094.00 5573.38 80.34 4.00 235.65 2595.14
   04:38:45.877.17-Sep-2021 5094.00 5573.23 80.34 4.00 235.85 2595.14
   04:38:46.077.17-Sep-2021 5094.00 5573.58 80.34 4.00 236.05 2595.14
   04:38:46.278.17-Sep-2021 5094.00 5577.21 80.34 4.00 236.25 2595.14
   04:38:46.478.17-Sep-2021 5094.00 5577.21 80.34 4.00 236.45 2595.14
   04:38:46.678.17-Sep-2021 5094.00 5575.00 80.34 4.00 236.65 2595.14
   04:38:46.878.17-Sep-2021 5094.00 5573.92 80.34 4.00 236.86 2595.14
   04:38:47.079.17-Sep-2021 5094.00 5573.69 80.34 4.00 237.06 2595.14
   04:38:47.279.17-Sep-2021 5094.00 5573.68 80.34 4.00 237.26 2595.14
   04:38:47.479.17-Sep-2021 5094.00 5573.68 80.34 4.00 237.46 2595.14
   04:38:47.679.17-Sep-2021 5094.00 5573.67 80.34 4.00 237.66 2595.14
   04:38:47.879.17-Sep-2021 5094.00 5573.35 80.34 4.00 237.86 2595.14
   04:38:48.080.17-Sep-2021 5094.00 5573.02 80.34 4.00 238.06 2595.14
   04:38:48.280.17-Sep-2021 5094.00 5572.61 80.34 4.00 238.26 2595.14
   04:38:48.480.17-Sep-2021 5094.00 5572.61 80.34 4.00 238.46 2595.14
   04:38:48.680.17-Sep-2021 5094.00 5574.85 80.34 4.00 238.66 2595.14
   04:38:48.880.17-Sep-2021 5094.00 5571.90 80.34 4.00 238.86 2595.14
   04:38:49.081.17-Sep-2021 5094.00 5573.78 80.34 4.00 239.06 2595.14
   04:38:49.281.17-Sep-2021 5094.00 5573.30 80.34 4.00 239.26 2595.14
   04:38:49.481.17-Sep-2021 5094.00 5573.30 80.34 4.00 239.46 2595.14
   04:38:49.681.17-Sep-2021 5094.00 5576.86 80.33 4.00 239.66 2595.14
   04:38:49.882.17-Sep-2021 5094.00 5571.04 80.33 4.00 239.86 2595.14
   04:38:50.082.17-Sep-2021 5094.00 5574.02 80.33 4.00 240.06 2595.14
   04:38:50.282.17-Sep-2021 5094.00 5573.10 80.33 4.00 240.26 2595.14
   04:38:50.482.17-Sep-2021 5094.00 5573.10 80.33 4.00 240.46 2595.14
   04:38:50.682.17-Sep-2021 5094.00 5573.13 80.33 4.00 240.66 2595.14
   04:38:50.883.17-Sep-2021 5094.00 5572.70 80.33 4.00 240.86 2595.14
   04:38:51.083.17-Sep-2021 5094.00 5572.53 80.33 4.00 241.06 2595.14
   04:38:51.283.17-Sep-2021 5094.00 5572.40 80.33 4.00 241.26 2595.14
   04:38:51.483.17-Sep-2021 5094.00 5572.40 80.33 4.00 241.46 2595.14
   04:38:51.683.17-Sep-2021 5094.00 5572.90 80.33 4.00 241.66 2595.14
   04:38:51.884.17-Sep-2021 5094.00 5573.35 80.33 4.00 241.86 2595.14
   04:38:52.084.17-Sep-2021 5094.00 5573.21 80.33 4.00 242.06 2595.14
   04:38:52.284.17-Sep-2021 5094.00 5573.20 80.33 4.00 242.26 2595.14
   04:38:52.484.17-Sep-2021 5094.00 5573.20 80.33 4.00 242.46 2595.14
   04:38:52.685.17-Sep-2021 5094.00 5573.51 80.33 4.00 242.66 2595.14
   04:38:52.885.17-Sep-2021 5094.00 5575.43 80.33 4.00 242.86 2595.14
   04:38:53.085.17-Sep-2021 5094.00 5574.32 80.33 4.00 243.06 2595.14
   04:38:53.285.17-Sep-2021 5094.00 5574.52 80.33 4.00 243.26 2595.14
   04:38:53.485.17-Sep-2021 5094.00 5574.52 80.33 4.00 243.46 2595.14
   04:38:53.686.17-Sep-2021 5094.00 5573.01 80.33 4.00 243.66 2595.14
   04:38:53.886.17-Sep-2021 5094.00 5572.99 80.33 4.00 243.86 2595.14
   04:38:54.086.17-Sep-2021 5094.00 5572.62 80.33 4.00 244.06 2595.14
   04:38:54.286.17-Sep-2021 5094.00 5572.58 80.33 4.00 244.26 2595.14
   04:38:54.487.17-Sep-2021 5094.00 5572.58 80.33 4.00 244.46 2595.14
   04:38:54.687.17-Sep-2021 5094.00 5572.49 80.33 4.00 244.66 2595.14
   04:38:54.887.17-Sep-2021 5094.00 5572.67 80.33 4.00 244.86 2595.14
   04:38:55.087.17-Sep-2021 5094.00 5572.88 80.33 4.00 245.06 2595.14
   04:38:55.287.17-Sep-2021 5094.00 5573.07 80.32 4.00 245.26 2595.14
   04:38:55.488.17-Sep-2021 5094.00 5573.07 80.32 4.00 245.46 2595.14
   04:38:55.688.17-Sep-2021 5094.00 5573.29 80.32 4.00 245.66 2595.14
   04:38:55.888.17-Sep-2021 5094.00 5573.31 80.32 4.00 245.86 2595.14
   04:38:56.088.17-Sep-2021 5094.00 5573.71 80.32 4.00 246.07 2595.14
   04:38:56.288.17-Sep-2021 5094.00 5575.87 80.32 4.00 246.27 2595.14
   04:38:56.489.17-Sep-2021 5094.00 5575.87 80.32 4.00 246.47 2595.14
   04:38:56.689.17-Sep-2021 5094.00 5574.50 80.32 4.00 246.67 2595.14
   04:38:56.889.17-Sep-2021 5094.00 5573.91 80.32 4.00 246.87 2595.14
   04:38:57.089.17-Sep-2021 5094.00 5573.14 80.32 4.00 247.07 2595.14
   04:38:57.290.17-Sep-2021 5094.00 5573.01 80.32 4.00 247.27 2595.14
   04:38:57.490.17-Sep-2021 5094.00 5573.01 80.32 4.00 247.47 2595.14
   04:38:57.690.17-Sep-2021 5094.00 5571.79 80.32 4.00 247.67 2595.14
   04:38:57.890.17-Sep-2021 5094.00 5573.44 80.32 4.00 247.87 2595.14
   04:38:58.090.17-Sep-2021 5094.00 5572.83 80.32 4.00 248.07 2595.14
   04:38:58.291.17-Sep-2021 5094.00 5572.17 80.32 4.00 248.27 2595.14
   04:38:58.491.17-Sep-2021 5094.00 5572.17 80.32 4.00 248.47 2595.14
   04:38:58.691.17-Sep-2021 5094.00 5573.83 80.32 4.00 248.67 2595.14
   04:38:58.891.17-Sep-2021 5094.00 5572.86 80.32 4.00 248.87 2595.14
   04:38:59.091.17-Sep-2021 5094.00 5573.46 80.32 4.00 249.07 2595.14
   04:38:59.292.17-Sep-2021 5094.00 5573.10 80.32 4.00 249.27 2595.14
   04:38:59.492.17-Sep-2021 5094.00 5573.10 80.32 4.00 249.47 2595.14
   04:38:59.692.17-Sep-2021 5094.00 5572.92 80.32 4.00 249.67 2595.14
   04:38:59.892.17-Sep-2021 5094.00 5574.45 80.32 4.00 249.87 2595.14
   04:39:00.093.17-Sep-2021 5094.00 5572.23 80.32 4.00 250.07 2595.14
   04:39:00.293.17-Sep-2021 5094.00 5574.02 80.32 4.00 250.27 2595.14
   04:39:00.493.17-Sep-2021 5094.00 5574.02 80.32 4.00 250.47 2595.14
   04:39:00.693.17-Sep-2021 5094.00 5572.86 80.32 4.00 250.67 2595.14
   04:39:00.893.17-Sep-2021 5094.00 5572.65 80.31 4.00 250.87 2595.14
   04:39:01.094.17-Sep-2021 5094.00 5572.33 80.31 4.00 251.07 2595.14
   04:39:01.294.17-Sep-2021 5094.00 5572.33 80.31 4.00 251.27 2595.14
   04:39:01.494.17-Sep-2021 5094.00 5572.33 80.31 4.00 251.47 2595.14
   04:39:01.694.17-Sep-2021 5094.00 5572.68 80.31 4.00 251.67 2595.14
   04:39:01.894.17-Sep-2021 5094.00 5573.07 80.31 4.00 251.87 2595.14
   04:39:02.095.17-Sep-2021 5094.00 5572.94 80.31 4.00 252.07 2595.14
   04:39:02.295.17-Sep-2021 5094.00 5572.94 80.31 4.00 252.27 2595.14
   04:39:02.495.17-Sep-2021 5094.00 5572.94 80.31 4.00 252.47 2595.14
   04:39:02.695.17-Sep-2021 5094.00 5573.20 80.31 4.00 252.67 2595.14
   04:39:02.896.17-Sep-2021 5094.00 5575.13 80.31 4.00 252.87 2595.14
   04:39:03.096.17-Sep-2021 5094.00 5573.44 80.31 4.00 253.07 2595.14
