~Version Information
 VERS.                  2.0:   CWLS log ASCII Standard -VERSION 2.0
 WRAP.                   NO:   One line per depth step
~Well Information Block
#MNEM.UNIT     VALUE/NAME     DESCRIPTION
#---------     -----------    ---------------------------
 STRT.S             06:03:21 17-Sep-21: START TIME 06:03:21 17-Sep-21
 STOP.S             06:11:58 17-Sep-21: STOP TIME  06:11:58 17-Sep-21
 STEP.S                   0.00: STEP TIME
 NULL.                 -999.25: NULL VALUE
 DFWT.                        :  DIST FWL TEXT
 DFST.                        :  DIST FSL TEXT
 DMF .             Drill Floor:  DRILL MEAS FROM
 STIM.      10.59.12 05-Jul-21:  START TIME
 DATE.      10.59.12 10-Sep-21:  END TIME
 SPUD.               05-Jul-21:  SPUD DATE
 NREF.                    Grid:  NORTH REFERENCE
 HPTY.       Minimum Curvature:  HOLE POS TYPE
 DMOD.             Drill Model:  DRILL MOD DESC
 SVYD.                  Survey:  SURVEY DESC
 ILTD.               Lithology:  INTERP LTH DESC
 FTOP.          Formation Tops:  FORM TOPS DESC
 RIG .                     DWG:  RIG NAME
 PDAT.          Mean Sea Level:  PERMANENT DATUM
 FLD .                     ACG:  FIELD NAME
 SON .        AZ-XX-0907115008:  JOB NUMBER
 CTRY.              Azerbaijan:  COUNTRY NAME
 WELL.                    E35A:  WELL NAME
 SRVC.          TURAN DRILLING:  CONTRACTOR
 COMP.     BP Exploration (Caspian Sea LTD):  COMPANY
 UWI .                     N/A:  UNIQUE WELL IDENTIFIER
 API .                     N/A:  API NUMBER
 MDS .        Operator Entered:  MAG DATA SOURCE
 BASE.              Azerbaijan:  LOGGING EQUIPMENT BASE LOCATION
 REGN.                   EESSA:  REGION
 PROV.                    Baku:  PROVINCE
 STAT.                    Baku:  STATE NAME
 MWDS.                    Baku:  MWD SHOP
 JOBN.        AZ-XX-0907115008:  JOB TICKET NUMB
 DOE .                     N/A:  DOE NUMBER
 DCON.         Sperry Drilling:  DIRECTNL CONTR
 UNIT.                     N/A:  LOGGING EQUIPMENT ID
 WTYP.                Deviated:  WELL TYPE
 CNTY.                        :  COUNTY
 LOC .                        :  LOCATION
 LMF .             Drill Floor:  LOG MEASURED FROM
 TVDS.m                  43.16:  TVDSS CORRECTN
 LATI.deg                40.17:  LATITUDE
 LONG.deg                51.17:  LONGITUDE
 WHNS.m                  10.51:  WELL HEAD N/S
 WHEW.m                 -14.82:  WELL HEAD E/W
 UTMX.m              514336.92:  UTM X
 UTMY.m             4448618.56:  UTM Y
 DFWL.m                   0.00:  DISTANCE FWL
 DFSL.m                   0.00:  DISTANCE FSL
 SDEP.m                 849.00:  START DEPTH
 TDD .m                2862.00:  TOTAL DEPTH (DRILLER)
 VSDR.deg               292.10:  VERT SEC DIRECT
 GVFD.g                   1.00:  GRAVITY FIELD
 MFLD.nT              50382.00:  MAGNETIC FIELD
 MDIP.deg                59.68:  MAGNETIC DIP
 MDEC.deg                 6.66:  MAGNETIC DECL
 GRDC.deg                 0.09:  GRID CORRECTION
 AZTC.deg                 6.57:  AZM TOTAL CORR
 EPD .m                   0.00:  ELEVATION
 EGL .m                   0.00:  GROUND ELEVATION
 WDMS.m                 176.20:  WD ELEV
 APD .m                  43.16:  DEPTH ABOVE PD
 DEP .m                 363.42:  DEPTH
 AGAP.m                  43.16:  AIR GAP
 VSEW.m                 -14.82:  VERT SEC E/W
 VSNS.m                  10.51:  VERT SEC N/S
 EKB .m                  43.16:  KB ELEVATION
 EDF .m                  43.16:  DF ELEVATION
 TDL .m                1390.00:  TOTAL DEPTH (LOGGER)
 VSC .                       0:  VS TO CLOSURE
 MAGU.                 1855871:  MAGUTM CHECKSUM
~Parameter Information Block
#MNEM.UNIT       Value        Description
#---------     -----------    ---------------------------
 AV  .mps                 2.28:  Ann Velocity 
 AVMX.mps                 2.67:  Max Ann Veloc 
 AZIF.deg               305.00:  Azm, Final 
 BHAT.        Rotary Steerable:  BHA Type 
 BROT.°/30m               0.45:  Build Rotating 
 BS  .in                 12.25:  Bit Size 
 BSZ .in                 12.25:  Bit Size 
 BTPL.psig              600.00:  Bit Press Loss 
 CABU.                     Yes:  Customer Abuse 
 COMM.                     $t:  Run Comments 1 
 TCS .hr                150.00:  Time Ciculation Ended 
 CV  .mps                 1.24:  Crit Velocity 
 CVMX.mps                 1.66:  Max Crit Veloc 
 DD1 .         Intigam Rahimov:  Direct Drillr 1 
 DD2 .            Azer Ravavov:  Direct Drillr 2 
 DD3 .              Samir Abas:  Direct Drillr 3 
 DDSV.               Geo-Pilot:  DD Service 
 DEFF.%                 100.00:  % Det Eff 
 DLRX.°/30m               1.57:  Dogleg Rot Max 
 DLSO.°/30m               0.00:  Dogleg Oriented 
 DLSX.°/30m               0.00:  Dogleg Str Max 
 DRET.      20.28.06 17-Sep-21:  Drill End Time 
 DRST.      20.27.35 10-Sep-21:  Drill Start Tim 
 DTIM.hr                 54.00:  Time Drilling 
 EDEP.m                5260.00:  End Depth 
 ENG1.      Bakhtiyar Jabbarli:  Engineer 1 
 ENG2.      Natik Hasanaghayev:  Engineer 2 
 ENG3.           Royal Nasirov:  Engineer 3 
 ETIM.      20.27.55 18-Sep-21:  End Time 
 FLOI.gpm              1100.00:  Flow In 
 FLON.gpm               800.00:  Flow In Min 
 FLOS.cptm                0.00:  Fluid Loss 
 FLOX.gpm              1200.00:  Flow In Max 
 DFT .        Mineral Oil Base:  Mud Type 
 HPRE.                      No:  High Pressure 
 HTEM.                      No:  High Temp 
 HYDO.m                   1.80:  Hydro Offset 
 IFIN.deg                72.31:  Inc, Final 
 IMAX.deg                72.36:  Inc Max 
 IMIN.deg                69.36:  Inc Min 
 IMND.m                4192.96:  Inc Min Depth 
 IMXD.m                5128.36:  Inc Max Depth 
 JARR.                      No:  Jarring 
 LETM.      20.29.00 17-Sep-21:  Log End Time 
 LOST.hr                     0:  Lost Rig Time 
 LSTM.      20.27.00 10-Sep-21:  Log Start Time 
 MDCL.ppm            227000.00:  Mud Chlorides 
 MDES.     Inversion Oil/Synthetic:  Mud Desc 
 DFD .sg                  1.45:  Mud Density 
 MDMN.sg                  1.45:  Dens Mud Min 
 MDMX.sg                  1.45:  Dens Mud Max 
 MOIL.                    70.5:  Run Mud Oil % 
 MOWR.                   71:29:  Run Mud OWR 
 MSND.                     0.3:  Run Mud Sand % 
 MSOL.                    19.8:  Run Mud Solids% 
 DFV .spqt               80.00:  Mud Viscosity 
 MWOD.in                  8.00:  MWD Tool OD 
 MWSI.                     Yes:  Serv Intrp, MWD 
 OTIM.hr                180.00:  Time Operating 
 PCON.           Look Like New:  Pad Condition 
 PMAX.psia             9910.94:  Press Op, Max 
 PV  .cP                 35.00:  Mud PV 
 RUN .                    1000:  Run Number 
 ROPA.m/hr               18.00:  ROP Avg 
 ROPN.m/hr                8.00:  ROP Min 
 ROPX.m/hr               23.00:  ROP Max 
 RPMA.rpm               150.00:  RPM Surface Avg 
 RPMN.rpm               120.00:  RPM Surface Min 
 RPMX.rpm               160.00:  RPM Surface Max 
 RRUN.                    L503:  Rig Run Number 
 RTIM.hr                  5.00:  Time Reaming 
 SAZI.deg               298.42:  Azm, Start 
 SDEP.m                3870.00:  Start Depth 
 SIDD.                      No:  Serv Intrp, DD 
 SINC.deg                69.57:  Inc, Start 
 SPPA.psig             5500.00:  SPP Avg 
 SPPN.psig             4400.00:  SPP Min 
 SPPX.psig             5800.00:  SPP Max 
 STIM.      15.29.39 09-Sep-21:  Start Time 
 SVCS.                 DD, MWD:  Services 
 SVER.                    9.20:  Sperry Version 
 TDAT.m                5260.00:  Tot Depth Attmp 
 TDDF.                      No:  Trip for DD 
 TDLG.m                1390.00:  Tot Depth Loggd 
 TFF .                      No:  Trip for Fail 
 TQAA.f-kp               22.00:  Torque Abs Avg 
 TQAN.f-kp               13.00:  Torque Abs Min 
 TQAX.f-kp               27.00:  Torque Abs Max 
 TRRT.°/30m               1.60:  Turn Rotating 
 MRT .                  EWR-M5:  Maximum Recorded Temperature 
 TTMX.degC               92.00:  Max Tool Temp 
 VS01.                12330975:  Virtual Str1 SN 
 VS02.                90658671:  Virtual Str2 SN 
 VS03.                90658508:  Virtual Str3 SN 
 VS04.                90660974:  Virtual Str4 SN 
 VS05.                90654675:  Virtual Str5 SN 
 WBMN.klb                15.00:  WOB Min 
 WITN.     Alexander Yadullayev:  Customer Rep 
 WITN.           Adil Mammadov:  Customer Rep 2 
 WOBA.klb                17.00:  WOB Avg 
 WOBX.klb                18.00:  WOB Max 
 YP  .lhf2               31.00:  Yield Point 
~Curve Information Block
#MNEM.UNIT                 API CODE     Curve Description
#---------               -----------    ---------------------------
 TIME.HHMMSS            00 000 000 000:  GT Time & Date
 GTDEPTH.m              00 000 000 000:  GT Depth
 GTPQH.psia             00 000 000 000:  GT HR Quartz Pressure
 GTTQ.degC              00 000 000 000:  GT Quartz Temperature
 GTTN.NONE              00 000 000 000:  GT Test Number
 GTET.sec               00 000 000 000:  GT Elapsed Test Time
 GTTVD.m                00 000 000 000:  GT True Vertical Depth
#Other Information
#
#WARRANTY: Halliburton will use its best efforts to furnish customers with 
#accurate information and interpretations that are part of, and incident to, the services 
#provided.  However, Halliburton cannot and does not warrant the accuracy 
#or correctness of such information and interpretations.  Under no circumstances should any 
#such information or interpretation be relied upon as the sole basis for any drilling, 
#completion, production, or financial decision or any procedure involving any risk to the 
#safety of any drilling venture, drilling rig or its crew or any other third party.  The 
#Customer has full responsibility for all drilling, completion and production operation.  
#Halliburton makes no representations or warranties, either expressed or 
#implied, including, but not limited to, the implied warranties of merchantability or fitness 
#for a particular purpose, with respect to the services rendered.  In no event will 
#Halliburton be liable for failure to obtain any particular results or for 
#any damages, including, but not limited to, indirect, special or consequential damages, 
#resulting from the use of any information or interpretation provided by Halliburton.
#
~A           TIME           GTDEPTH  GTPQH  GTTQ  GTTN  GTET   GTTVD  
# ...
   06:06:25.615.17-Sep-2021 5057.50 5543.28 79.83 6.00 183.96 2583.80
   06:06:25.815.17-Sep-2021 5057.50 5543.28 79.83 6.00 184.16 2583.80
   06:06:26.015.17-Sep-2021 5057.50 5546.31 79.83 6.00 184.36 2583.80
   06:06:26.215.17-Sep-2021 5057.50 5540.69 79.83 6.00 184.56 2583.80
   06:06:26.415.17-Sep-2021 5057.50 5543.47 79.83 6.00 184.76 2583.80
   06:06:26.615.17-Sep-2021 5057.50 5542.92 79.83 6.00 184.96 2583.80
   06:06:26.815.17-Sep-2021 5057.50 5542.92 79.83 6.00 185.16 2583.80
   06:06:27.015.17-Sep-2021 5057.50 5540.65 79.83 6.00 185.36 2583.80
   06:06:27.215.17-Sep-2021 5057.50 5543.45 79.83 6.00 185.56 2583.80
   06:06:27.415.17-Sep-2021 5057.50 5542.96 79.83 6.00 185.76 2583.80
   06:06:27.615.17-Sep-2021 5057.50 5545.91 79.83 6.00 185.96 2583.80
   06:06:27.815.17-Sep-2021 5057.50 5545.91 79.83 6.00 186.16 2583.80
   06:06:28.015.17-Sep-2021 5057.50 5544.22 79.83 6.00 186.36 2583.80
   06:06:28.214.17-Sep-2021 5057.50 5542.35 79.83 6.00 186.56 2583.80
   06:06:28.414.17-Sep-2021 5057.50 5542.16 79.83 6.00 186.76 2583.80
   06:06:28.614.17-Sep-2021 5057.50 5542.95 79.83 6.00 186.96 2583.80
   06:06:28.814.17-Sep-2021 5057.50 5542.95 79.83 6.00 187.16 2583.80
   06:06:29.014.17-Sep-2021 5057.50 5542.40 79.82 6.00 187.36 2583.80
   06:06:29.214.17-Sep-2021 5057.50 5542.44 79.82 6.00 187.56 2583.80
   06:06:29.414.17-Sep-2021 5057.50 5542.47 79.82 6.00 187.76 2583.80
   06:06:29.614.17-Sep-2021 5057.50 5542.77 79.82 6.00 187.96 2583.80
   06:06:29.814.17-Sep-2021 5057.50 5542.77 79.82 6.00 188.16 2583.80
   06:06:30.014.17-Sep-2021 5057.50 5542.86 79.82 6.00 188.36 2583.80
   06:06:30.214.17-Sep-2021 5057.50 5543.00 79.82 6.00 188.56 2583.80
   06:06:30.414.17-Sep-2021 5057.50 5543.30 79.82 6.00 188.76 2583.80
   06:06:30.614.17-Sep-2021 5057.50 5544.52 79.82 6.00 188.96 2583.80
   06:06:30.814.17-Sep-2021 5057.50 5544.52 79.82 6.00 189.16 2583.80
   06:06:31.014.17-Sep-2021 5057.50 5543.33 79.82 6.00 189.36 2583.80
   06:06:31.214.17-Sep-2021 5057.50 5544.41 79.82 6.00 189.56 2583.80
   06:06:31.414.17-Sep-2021 5057.50 5544.03 79.82 6.00 189.76 2583.80
   06:06:31.614.17-Sep-2021 5057.50 5543.15 79.82 6.00 189.96 2583.80
   06:06:31.814.17-Sep-2021 5057.50 5543.15 79.82 6.00 190.16 2583.80
   06:06:32.014.17-Sep-2021 5057.50 5542.88 79.82 6.00 190.36 2583.80
   06:06:32.214.17-Sep-2021 5057.50 5542.60 79.82 6.00 190.56 2583.80
   06:06:32.414.17-Sep-2021 5057.50 5542.63 79.82 6.00 190.76 2583.80
   06:06:32.614.17-Sep-2021 5057.50 5542.24 79.82 6.00 190.96 2583.80
   06:06:32.813.17-Sep-2021 5057.50 5542.24 79.82 6.00 191.16 2583.80
   06:06:33.013.17-Sep-2021 5057.50 5542.44 79.82 6.00 191.36 2583.80
   06:06:33.213.17-Sep-2021 5057.50 5542.49 79.82 6.00 191.56 2583.80
   06:06:33.413.17-Sep-2021 5057.50 5542.76 79.82 6.00 191.76 2583.80
   06:06:33.613.17-Sep-2021 5057.50 5542.79 79.82 6.00 191.96 2583.80
   06:06:33.813.17-Sep-2021 5057.50 5542.79 79.82 6.00 192.16 2583.80
   06:06:34.013.17-Sep-2021 5057.50 5543.02 79.82 6.00 192.36 2583.80
   06:06:34.213.17-Sep-2021 5057.50 5545.37 79.82 6.00 192.56 2583.80
   06:06:34.413.17-Sep-2021 5057.50 5542.86 79.82 6.00 192.76 2583.80
   06:06:34.613.17-Sep-2021 5057.50 5544.71 79.81 6.00 192.96 2583.80
   06:06:34.813.17-Sep-2021 5057.50 5544.71 79.81 6.00 193.16 2583.80
   06:06:35.013.17-Sep-2021 5057.50 5543.08 79.81 6.00 193.36 2583.80
   06:06:35.213.17-Sep-2021 5057.50 5543.53 79.81 6.00 193.56 2583.80
   06:06:35.413.17-Sep-2021 5057.50 5544.28 79.81 6.00 193.76 2583.80
   06:06:35.613.17-Sep-2021 5057.50 5543.02 79.81 6.00 193.96 2583.80
   06:06:35.813.17-Sep-2021 5057.50 5543.02 79.81 6.00 194.16 2583.80
   06:06:36.013.17-Sep-2021 5057.50 5543.21 79.81 6.00 194.36 2583.80
   06:06:36.213.17-Sep-2021 5057.50 5544.55 79.81 6.00 194.56 2583.80
   06:06:36.413.17-Sep-2021 5057.50 5542.61 79.81 6.00 194.76 2583.80
   06:06:36.613.17-Sep-2021 5057.50 5542.51 79.81 6.00 194.96 2583.80
   06:06:36.813.17-Sep-2021 5057.50 5542.51 79.81 6.00 195.16 2583.80
   06:06:37.013.17-Sep-2021 5057.50 5546.38 79.81 6.00 195.36 2583.80
   06:06:37.213.17-Sep-2021 5057.50 5540.64 79.81 6.00 195.56 2583.80
   06:06:37.413.17-Sep-2021 5057.50 5543.54 79.81 6.00 195.76 2583.80
   06:06:37.612.17-Sep-2021 5057.50 5542.91 79.81 6.00 195.96 2583.80
   06:06:37.812.17-Sep-2021 5057.50 5542.91 79.81 6.00 196.16 2583.80
   06:06:38.012.17-Sep-2021 5057.50 5542.44 79.81 6.00 196.36 2583.80
   06:06:38.212.17-Sep-2021 5057.50 5542.17 79.81 6.00 196.56 2583.80
   06:06:38.412.17-Sep-2021 5057.50 5542.16 79.81 6.00 196.76 2583.80
   06:06:38.612.17-Sep-2021 5057.50 5542.17 79.81 6.00 196.96 2583.80
   06:06:38.812.17-Sep-2021 5057.50 5542.17 79.81 6.00 197.16 2583.80
   06:06:39.012.17-Sep-2021 5057.50 5542.47 79.81 6.00 197.36 2583.80
   06:06:39.212.17-Sep-2021 5057.50 5542.69 79.81 6.00 197.56 2583.80
   06:06:39.412.17-Sep-2021 5057.50 5542.76 79.81 6.00 197.76 2583.80
   06:06:39.612.17-Sep-2021 5057.50 5543.03 79.81 6.00 197.96 2583.80
   06:06:39.812.17-Sep-2021 5057.50 5543.03 79.81 6.00 198.16 2583.80
   06:06:40.012.17-Sep-2021 5057.50 5543.07 79.81 6.00 198.36 2583.80
   06:06:40.212.17-Sep-2021 5057.50 5545.42 79.81 6.00 198.56 2583.80
   06:06:40.412.17-Sep-2021 5057.50 5542.90 79.80 6.00 198.76 2583.80
   06:06:40.612.17-Sep-2021 5057.50 5544.67 79.80 6.00 198.96 2583.80
   06:06:40.812.17-Sep-2021 5057.50 5544.67 79.80 6.00 199.16 2583.80
   06:06:41.012.17-Sep-2021 5057.50 5543.00 79.80 6.00 199.36 2583.80
   06:06:41.212.17-Sep-2021 5057.50 5543.51 79.80 6.00 199.56 2583.80
   06:06:41.412.17-Sep-2021 5057.50 5542.64 79.80 6.00 199.76 2583.80
   06:06:41.612.17-Sep-2021 5057.50 5542.60 79.80 6.00 199.96 2583.80
   06:06:41.812.17-Sep-2021 5057.50 5542.60 79.80 6.00 200.16 2583.80
   06:06:42.012.17-Sep-2021 5057.50 5542.55 79.80 6.00 200.36 2583.80
   06:06:42.211.17-Sep-2021 5057.50 5542.48 79.80 6.00 200.56 2583.80
   06:06:42.411.17-Sep-2021 5057.50 5542.39 79.80 6.00 200.76 2583.80
   06:06:42.611.17-Sep-2021 5057.50 5542.40 79.80 6.00 200.96 2583.80
   06:06:42.811.17-Sep-2021 5057.50 5542.40 79.80 6.00 201.16 2583.80
   06:06:43.011.17-Sep-2021 5057.50 5542.84 79.80 6.00 201.36 2583.80
   06:06:43.211.17-Sep-2021 5057.50 5542.93 79.80 6.00 201.56 2583.80
   06:06:43.411.17-Sep-2021 5057.50 5543.17 79.80 6.00 201.76 2583.80
   06:06:43.611.17-Sep-2021 5057.50 5546.32 79.80 6.00 201.96 2583.80
   06:06:43.811.17-Sep-2021 5057.50 5546.32 79.80 6.00 202.16 2583.80
   06:06:44.011.17-Sep-2021 5057.50 5545.12 79.80 6.00 202.36 2583.80
   06:06:44.211.17-Sep-2021 5057.50 5543.06 79.80 6.00 202.56 2583.80
   06:06:44.411.17-Sep-2021 5057.50 5543.22 79.80 6.00 202.76 2583.80
   06:06:44.611.17-Sep-2021 5057.50 5543.60 79.80 6.00 202.96 2583.80
   06:06:44.811.17-Sep-2021 5057.50 5543.60 79.80 6.00 203.16 2583.80
   06:06:45.011.17-Sep-2021 5057.50 5544.89 79.80 6.00 203.36 2583.80
   06:06:45.211.17-Sep-2021 5057.50 5542.11 79.80 6.00 203.56 2583.80
   06:06:45.411.17-Sep-2021 5057.50 5543.74 79.80 6.00 203.76 2583.80
   06:06:45.611.17-Sep-2021 5057.50 5542.48 79.80 6.00 203.96 2583.80
   06:06:45.811.17-Sep-2021 5057.50 5542.48 79.80 6.00 204.16 2583.80
   06:06:46.011.17-Sep-2021 5057.50 5544.25 79.80 6.00 204.36 2583.80
   06:06:46.211.17-Sep-2021 5057.50 5543.39 79.79 6.00 204.56 2583.80
   06:06:46.411.17-Sep-2021 5057.50 5544.03 79.79 6.00 204.76 2583.80
   06:06:46.611.17-Sep-2021 5057.50 5542.74 79.79 6.00 204.96 2583.80
   06:06:46.810.17-Sep-2021 5057.50 5542.74 79.79 6.00 205.16 2583.80
   06:06:47.010.17-Sep-2021 5057.50 5543.06 79.79 6.00 205.36 2583.80
   06:06:47.210.17-Sep-2021 5057.50 5542.72 79.79 6.00 205.56 2583.80
   06:06:47.410.17-Sep-2021 5057.50 5542.06 79.79 6.00 205.76 2583.80
   06:06:47.610.17-Sep-2021 5057.50 5542.04 79.79 6.00 205.96 2583.80
   06:06:47.810.17-Sep-2021 5057.50 5542.04 79.79 6.00 206.16 2583.80
   06:06:48.010.17-Sep-2021 5057.50 5541.23 79.79 6.00 206.36 2583.80
   06:06:48.210.17-Sep-2021 5057.50 5542.01 79.79 6.00 206.56 2583.80
   06:06:48.410.17-Sep-2021 5057.50 5541.06 79.79 6.00 206.76 2583.80
