~Version Information
 VERS.                  2.0:   CWLS log ASCII Standard -VERSION 2.0
 WRAP.                   NO:   One line per depth step
~Well Information Block
#MNEM.UNIT     VALUE/NAME     DESCRIPTION
#---------     -----------    ---------------------------
 STRT.S             11:33:10 17-Sep-21: START TIME 11:33:10 17-Sep-21
 STOP.S             11:40:20 17-Sep-21: STOP TIME  11:40:20 17-Sep-21
 STEP.S                   0.00: STEP TIME
 NULL.                 -999.25: NULL VALUE
 DFWT.                        :  DIST FWL TEXT
 DFST.                        :  DIST FSL TEXT
 DMF .             Drill Floor:  DRILL MEAS FROM
 STIM.      10.59.12 05-Jul-21:  START TIME
 DATE.      10.59.12 10-Sep-21:  END TIME
 SPUD.               05-Jul-21:  SPUD DATE
 NREF.                    Grid:  NORTH REFERENCE
 HPTY.       Minimum Curvature:  HOLE POS TYPE
 DMOD.             Drill Model:  DRILL MOD DESC
 SVYD.                  Survey:  SURVEY DESC
 ILTD.               Lithology:  INTERP LTH DESC
 FTOP.          Formation Tops:  FORM TOPS DESC
 RIG .                     DWG:  RIG NAME
 PDAT.          Mean Sea Level:  PERMANENT DATUM
 FLD .                     ACG:  FIELD NAME
 SON .        AZ-XX-0907115008:  JOB NUMBER
 CTRY.              Azerbaijan:  COUNTRY NAME
 WELL.                    E35A:  WELL NAME
 SRVC.          TURAN DRILLING:  CONTRACTOR
 COMP.     BP Exploration (Caspian Sea LTD):  COMPANY
 UWI .                     N/A:  UNIQUE WELL IDENTIFIER
 API .                     N/A:  API NUMBER
 MDS .        Operator Entered:  MAG DATA SOURCE
 BASE.              Azerbaijan:  LOGGING EQUIPMENT BASE LOCATION
 REGN.                   EESSA:  REGION
 PROV.                    Baku:  PROVINCE
 STAT.                    Baku:  STATE NAME
 MWDS.                    Baku:  MWD SHOP
 JOBN.        AZ-XX-0907115008:  JOB TICKET NUMB
 DOE .                     N/A:  DOE NUMBER
 DCON.         Sperry Drilling:  DIRECTNL CONTR
 UNIT.                     N/A:  LOGGING EQUIPMENT ID
 WTYP.                Deviated:  WELL TYPE
 CNTY.                        :  COUNTY
 LOC .                        :  LOCATION
 LMF .             Drill Floor:  LOG MEASURED FROM
 TVDS.m                  43.16:  TVDSS CORRECTN
 LATI.deg                40.17:  LATITUDE
 LONG.deg                51.17:  LONGITUDE
 WHNS.m                  10.51:  WELL HEAD N/S
 WHEW.m                 -14.82:  WELL HEAD E/W
 UTMX.m              514336.92:  UTM X
 UTMY.m             4448618.56:  UTM Y
 DFWL.m                   0.00:  DISTANCE FWL
 DFSL.m                   0.00:  DISTANCE FSL
 SDEP.m                 849.00:  START DEPTH
 TDD .m                2862.00:  TOTAL DEPTH (DRILLER)
 VSDR.deg               292.10:  VERT SEC DIRECT
 GVFD.g                   1.00:  GRAVITY FIELD
 MFLD.nT              50382.00:  MAGNETIC FIELD
 MDIP.deg                59.68:  MAGNETIC DIP
 MDEC.deg                 6.66:  MAGNETIC DECL
 GRDC.deg                 0.09:  GRID CORRECTION
 AZTC.deg                 6.57:  AZM TOTAL CORR
 EPD .m                   0.00:  ELEVATION
 EGL .m                   0.00:  GROUND ELEVATION
 WDMS.m                 176.20:  WD ELEV
 APD .m                  43.16:  DEPTH ABOVE PD
 DEP .m                 363.42:  DEPTH
 AGAP.m                  43.16:  AIR GAP
 VSEW.m                 -14.82:  VERT SEC E/W
 VSNS.m                  10.51:  VERT SEC N/S
 EKB .m                  43.16:  KB ELEVATION
 EDF .m                  43.16:  DF ELEVATION
 TDL .m                1390.00:  TOTAL DEPTH (LOGGER)
 VSC .                       0:  VS TO CLOSURE
 MAGU.                 1855871:  MAGUTM CHECKSUM
~Parameter Information Block
#MNEM.UNIT       Value        Description
#---------     -----------    ---------------------------
 AV  .mps                 2.28:  Ann Velocity 
 AVMX.mps                 2.67:  Max Ann Veloc 
 AZIF.deg               305.00:  Azm, Final 
 BHAT.        Rotary Steerable:  BHA Type 
 BROT.°/30m               0.45:  Build Rotating 
 BS  .in                 12.25:  Bit Size 
 BSZ .in                 12.25:  Bit Size 
 BTPL.psig              600.00:  Bit Press Loss 
 CABU.                     Yes:  Customer Abuse 
 COMM.                     Á~:  Run Comments 1 
 TCS .hr                150.00:  Time Ciculation Ended 
 CV  .mps                 1.24:  Crit Velocity 
 CVMX.mps                 1.66:  Max Crit Veloc 
 DD1 .         Intigam Rahimov:  Direct Drillr 1 
 DD2 .            Azer Ravavov:  Direct Drillr 2 
 DD3 .              Samir Abas:  Direct Drillr 3 
 DDSV.               Geo-Pilot:  DD Service 
 DEFF.%                 100.00:  % Det Eff 
 DLRX.°/30m               1.57:  Dogleg Rot Max 
 DLSO.°/30m               0.00:  Dogleg Oriented 
 DLSX.°/30m               0.00:  Dogleg Str Max 
 DRET.      20.28.06 17-Sep-21:  Drill End Time 
 DRST.      20.27.35 10-Sep-21:  Drill Start Tim 
 DTIM.hr                 54.00:  Time Drilling 
 EDEP.m                5260.00:  End Depth 
 ENG1.      Bakhtiyar Jabbarli:  Engineer 1 
 ENG2.      Natik Hasanaghayev:  Engineer 2 
 ENG3.           Royal Nasirov:  Engineer 3 
 ETIM.      20.27.55 18-Sep-21:  End Time 
 FLOI.gpm              1100.00:  Flow In 
 FLON.gpm               800.00:  Flow In Min 
 FLOS.cptm                0.00:  Fluid Loss 
 FLOX.gpm              1200.00:  Flow In Max 
 DFT .        Mineral Oil Base:  Mud Type 
 HPRE.                      No:  High Pressure 
 HTEM.                      No:  High Temp 
 HYDO.m                   1.80:  Hydro Offset 
 IFIN.deg                72.31:  Inc, Final 
 IMAX.deg                72.36:  Inc Max 
 IMIN.deg                69.36:  Inc Min 
 IMND.m                4192.96:  Inc Min Depth 
 IMXD.m                5128.36:  Inc Max Depth 
 JARR.                      No:  Jarring 
 LETM.      20.29.00 17-Sep-21:  Log End Time 
 LOST.hr                     0:  Lost Rig Time 
 LSTM.      20.27.00 10-Sep-21:  Log Start Time 
 MDCL.ppm            227000.00:  Mud Chlorides 
 MDES.     Inversion Oil/Synthetic:  Mud Desc 
 DFD .sg                  1.45:  Mud Density 
 MDMN.sg                  1.45:  Dens Mud Min 
 MDMX.sg                  1.45:  Dens Mud Max 
 MOIL.                    70.5:  Run Mud Oil % 
 MOWR.                   71:29:  Run Mud OWR 
 MSND.                     0.3:  Run Mud Sand % 
 MSOL.                    19.8:  Run Mud Solids% 
 DFV .spqt               80.00:  Mud Viscosity 
 MWOD.in                  8.00:  MWD Tool OD 
 MWSI.                     Yes:  Serv Intrp, MWD 
 OTIM.hr                180.00:  Time Operating 
 PCON.           Look Like New:  Pad Condition 
 PMAX.psia             9910.94:  Press Op, Max 
 PV  .cP                 35.00:  Mud PV 
 RUN .                    1000:  Run Number 
 ROPA.m/hr               18.00:  ROP Avg 
 ROPN.m/hr                8.00:  ROP Min 
 ROPX.m/hr               23.00:  ROP Max 
 RPMA.rpm               150.00:  RPM Surface Avg 
 RPMN.rpm               120.00:  RPM Surface Min 
 RPMX.rpm               160.00:  RPM Surface Max 
 RRUN.                    L503:  Rig Run Number 
 RTIM.hr                  5.00:  Time Reaming 
 SAZI.deg               298.42:  Azm, Start 
 SDEP.m                3870.00:  Start Depth 
 SIDD.                      No:  Serv Intrp, DD 
 SINC.deg                69.57:  Inc, Start 
 SPPA.psig             5500.00:  SPP Avg 
 SPPN.psig             4400.00:  SPP Min 
 SPPX.psig             5800.00:  SPP Max 
 STIM.      15.29.39 09-Sep-21:  Start Time 
 SVCS.                 DD, MWD:  Services 
 SVER.                    9.20:  Sperry Version 
 TDAT.m                5260.00:  Tot Depth Attmp 
 TDDF.                      No:  Trip for DD 
 TDLG.m                1390.00:  Tot Depth Loggd 
 TFF .                      No:  Trip for Fail 
 TQAA.f-kp               22.00:  Torque Abs Avg 
 TQAN.f-kp               13.00:  Torque Abs Min 
 TQAX.f-kp               27.00:  Torque Abs Max 
 TRRT.°/30m               1.60:  Turn Rotating 
 MRT .                  EWR-M5:  Maximum Recorded Temperature 
 TTMX.degC               92.00:  Max Tool Temp 
 VS01.                12330975:  Virtual Str1 SN 
 VS02.                90658671:  Virtual Str2 SN 
 VS03.                90658508:  Virtual Str3 SN 
 VS04.                90660974:  Virtual Str4 SN 
 VS05.                90654675:  Virtual Str5 SN 
 WBMN.klb                15.00:  WOB Min 
 WITN.     Alexander Yadullayev:  Customer Rep 
 WITN.           Adil Mammadov:  Customer Rep 2 
 WOBA.klb                17.00:  WOB Avg 
 WOBX.klb                18.00:  WOB Max 
 YP  .lhf2               31.00:  Yield Point 
~Curve Information Block
#MNEM.UNIT                 API CODE     Curve Description
#---------               -----------    ---------------------------
 TIME.HHMMSS            00 000 000 000:  GT Time & Date
 GTDEPTH.m              00 000 000 000:  GT Depth
 GTPQH.psia             00 000 000 000:  GT HR Quartz Pressure
 GTTQ.degC              00 000 000 000:  GT Quartz Temperature
 GTTN.NONE              00 000 000 000:  GT Test Number
 GTET.sec               00 000 000 000:  GT Elapsed Test Time
 GTTVD.m                00 000 000 000:  GT True Vertical Depth
#Other Information
#
#WARRANTY: Halliburton will use its best efforts to furnish customers with 
#accurate information and interpretations that are part of, and incident to, the services 
#provided.  However, Halliburton cannot and does not warrant the accuracy 
#or correctness of such information and interpretations.  Under no circumstances should any 
#such information or interpretation be relied upon as the sole basis for any drilling, 
#completion, production, or financial decision or any procedure involving any risk to the 
#safety of any drilling venture, drilling rig or its crew or any other third party.  The 
#Customer has full responsibility for all drilling, completion and production operation.  
#Halliburton makes no representations or warranties, either expressed or 
#implied, including, but not limited to, the implied warranties of merchantability or fitness 
#for a particular purpose, with respect to the services rendered.  In no event will 
#Halliburton be liable for failure to obtain any particular results or for 
#any damages, including, but not limited to, indirect, special or consequential damages, 
#resulting from the use of any information or interpretation provided by Halliburton.
#
~A           TIME           GTDEPTH  GTPQH  GTTQ  GTTN  GTET   GTTVD  
# ...
   11:37:23.773.17-Sep-2021 4887.00 5435.14 77.25 9.00 253.03 2528.65
   11:37:23.973.17-Sep-2021 4887.00 5435.14 77.25 9.00 253.23 2528.65
   11:37:24.173.17-Sep-2021 4887.00 5434.93 77.25 9.00 253.43 2528.65
   11:37:24.373.17-Sep-2021 4887.00 5435.10 77.25 9.00 253.63 2528.65
   11:37:24.573.17-Sep-2021 4887.00 5435.57 77.25 9.00 253.83 2528.65
   11:37:24.773.17-Sep-2021 4887.00 5437.19 77.25 9.00 254.03 2528.65
   11:37:24.973.17-Sep-2021 4887.00 5437.19 77.25 9.00 254.23 2528.65
   11:37:25.173.17-Sep-2021 4887.00 5435.15 77.25 9.00 254.43 2528.65
   11:37:25.373.17-Sep-2021 4887.00 5435.55 77.25 9.00 254.63 2528.65
   11:37:25.573.17-Sep-2021 4887.00 5436.22 77.25 9.00 254.83 2528.65
   11:37:25.773.17-Sep-2021 4887.00 5438.15 77.25 9.00 255.03 2528.65
   11:37:25.973.17-Sep-2021 4887.00 5438.15 77.25 9.00 255.23 2528.65
   11:37:26.174.17-Sep-2021 4887.00 5434.97 77.25 9.00 255.43 2528.65
   11:37:26.374.17-Sep-2021 4887.00 5435.00 77.25 9.00 255.63 2528.65
   11:37:26.574.17-Sep-2021 4887.00 5436.06 77.25 9.00 255.83 2528.65
   11:37:26.774.17-Sep-2021 4887.00 5436.48 77.25 9.00 256.03 2528.65
   11:37:26.974.17-Sep-2021 4887.00 5436.48 77.25 9.00 256.23 2528.65
   11:37:27.174.17-Sep-2021 4887.00 5434.78 77.25 9.00 256.43 2528.65
   11:37:27.374.17-Sep-2021 4887.00 5434.90 77.25 9.00 256.63 2528.65
   11:37:27.574.17-Sep-2021 4887.00 5437.73 77.25 9.00 256.83 2528.65
   11:37:27.774.17-Sep-2021 4887.00 5434.14 77.25 9.00 257.03 2528.65
   11:37:27.974.17-Sep-2021 4887.00 5434.14 77.25 9.00 257.23 2528.65
   11:37:28.174.17-Sep-2021 4887.00 5434.93 77.25 9.00 257.43 2528.65
   11:37:28.374.17-Sep-2021 4887.00 5435.42 77.25 9.00 257.63 2528.65
   11:37:28.574.17-Sep-2021 4887.00 5434.64 77.25 9.00 257.83 2528.65
   11:37:28.774.17-Sep-2021 4887.00 5434.51 77.25 9.00 258.03 2528.65
   11:37:28.974.17-Sep-2021 4887.00 5434.51 77.25 9.00 258.23 2528.65
   11:37:29.174.17-Sep-2021 4887.00 5435.02 77.25 9.00 258.43 2528.65
   11:37:29.374.17-Sep-2021 4887.00 5434.71 77.25 9.00 258.63 2528.65
   11:37:29.574.17-Sep-2021 4887.00 5434.56 77.25 9.00 258.83 2528.65
   11:37:29.774.17-Sep-2021 4887.00 5434.94 77.25 9.00 259.03 2528.65
   11:37:29.974.17-Sep-2021 4887.00 5434.94 77.25 9.00 259.23 2528.65
   11:37:30.174.17-Sep-2021 4887.00 5435.28 77.25 9.00 259.43 2528.65
   11:37:30.374.17-Sep-2021 4887.00 5435.07 77.25 9.00 259.63 2528.65
   11:37:30.574.17-Sep-2021 4887.00 5435.22 77.25 9.00 259.83 2528.65
   11:37:30.774.17-Sep-2021 4887.00 5438.34 77.25 9.00 260.03 2528.65
   11:37:30.974.17-Sep-2021 4887.00 5438.34 77.25 9.00 260.23 2528.65
   11:37:31.174.17-Sep-2021 4887.00 5435.24 77.25 9.00 260.43 2528.65
   11:37:31.374.17-Sep-2021 4887.00 5435.46 77.25 9.00 260.63 2528.65
   11:37:31.574.17-Sep-2021 4887.00 5436.45 77.25 9.00 260.83 2528.65
   11:37:31.774.17-Sep-2021 4887.00 5435.08 77.25 9.00 261.03 2528.65
   11:37:31.974.17-Sep-2021 4887.00 5435.08 77.25 9.00 261.23 2528.65
   11:37:32.174.17-Sep-2021 4887.00 5435.15 77.25 9.00 261.43 2528.65
   11:37:32.374.17-Sep-2021 4887.00 5434.87 77.25 9.00 261.63 2528.65
   11:37:32.574.17-Sep-2021 4887.00 5434.64 77.25 9.00 261.83 2528.65
   11:37:32.774.17-Sep-2021 4887.00 5434.56 77.25 9.00 262.03 2528.65
   11:37:32.974.17-Sep-2021 4887.00 5434.56 77.25 9.00 262.23 2528.65
   11:37:33.174.17-Sep-2021 4887.00 5435.22 77.25 9.00 262.43 2528.65
   11:37:33.374.17-Sep-2021 4887.00 5434.93 77.25 9.00 262.63 2528.65
   11:37:33.574.17-Sep-2021 4887.00 5434.93 77.25 9.00 262.83 2528.65
   11:37:33.774.17-Sep-2021 4887.00 5435.00 77.25 9.00 263.03 2528.65
   11:37:33.974.17-Sep-2021 4887.00 5435.00 77.25 9.00 263.23 2528.65
   11:37:34.174.17-Sep-2021 4887.00 5439.16 77.25 9.00 263.43 2528.65
   11:37:34.374.17-Sep-2021 4887.00 5433.64 77.25 9.00 263.63 2528.65
   11:37:34.574.17-Sep-2021 4887.00 5435.18 77.25 9.00 263.83 2528.65
   11:37:34.774.17-Sep-2021 4887.00 5434.88 77.25 9.00 264.03 2528.65
   11:37:34.974.17-Sep-2021 4887.00 5434.88 77.25 9.00 264.23 2528.65
   11:37:35.175.17-Sep-2021 4887.00 5437.58 77.25 9.00 264.43 2528.65
   11:37:35.375.17-Sep-2021 4887.00 5434.32 77.25 9.00 264.63 2528.65
   11:37:35.575.17-Sep-2021 4887.00 5435.38 77.25 9.00 264.83 2528.65
   11:37:35.775.17-Sep-2021 4887.00 5434.55 77.25 9.00 265.03 2528.65
   11:37:35.975.17-Sep-2021 4887.00 5434.55 77.25 9.00 265.23 2528.65
   11:37:36.175.17-Sep-2021 4887.00 5437.52 77.25 9.00 265.43 2528.65
   11:37:36.375.17-Sep-2021 4887.00 5433.95 77.25 9.00 265.63 2528.65
   11:37:36.575.17-Sep-2021 4887.00 5434.76 77.25 9.00 265.83 2528.65
   11:37:36.775.17-Sep-2021 4887.00 5434.55 77.25 9.00 266.03 2528.65
   11:37:36.975.17-Sep-2021 4887.00 5434.55 77.25 9.00 266.23 2528.65
   11:37:37.175.17-Sep-2021 4887.00 5437.94 77.25 9.00 266.43 2528.65
   11:37:37.375.17-Sep-2021 4887.00 5432.66 77.25 9.00 266.63 2528.65
   11:37:37.575.17-Sep-2021 4887.00 5434.99 77.25 9.00 266.83 2528.65
   11:37:37.775.17-Sep-2021 4887.00 5434.47 77.25 9.00 267.03 2528.65
   11:37:37.975.17-Sep-2021 4887.00 5434.47 77.25 9.00 267.23 2528.65
   11:37:38.175.17-Sep-2021 4887.00 5433.91 77.25 9.00 267.43 2528.65
   11:37:38.375.17-Sep-2021 4887.00 5434.44 77.25 9.00 267.63 2528.65
   11:37:38.575.17-Sep-2021 4887.00 5435.25 77.25 9.00 267.83 2528.65
   11:37:38.775.17-Sep-2021 4887.00 5434.59 77.25 9.00 268.03 2528.65
   11:37:38.975.17-Sep-2021 4887.00 5434.59 77.25 9.00 268.23 2528.65
   11:37:39.175.17-Sep-2021 4887.00 5434.57 77.25 9.00 268.43 2528.65
   11:37:39.375.17-Sep-2021 4887.00 5434.98 77.25 9.00 268.63 2528.65
   11:37:39.575.17-Sep-2021 4887.00 5435.12 77.25 9.00 268.83 2528.65
   11:37:39.775.17-Sep-2021 4887.00 5434.95 77.25 9.00 269.03 2528.65
   11:37:39.975.17-Sep-2021 4887.00 5434.95 77.25 9.00 269.23 2528.65
   11:37:40.175.17-Sep-2021 4887.00 5435.38 77.25 9.00 269.43 2528.65
   11:37:40.375.17-Sep-2021 4887.00 5437.35 77.25 9.00 269.63 2528.65
   11:37:40.575.17-Sep-2021 4887.00 5435.21 77.25 9.00 269.83 2528.65
   11:37:40.775.17-Sep-2021 4887.00 5435.05 77.25 9.00 270.03 2528.65
   11:37:40.975.17-Sep-2021 4887.00 5435.05 77.25 9.00 270.23 2528.65
   11:37:41.175.17-Sep-2021 4887.00 5436.00 77.25 9.00 270.43 2528.65
   11:37:41.375.17-Sep-2021 4887.00 5435.01 77.25 9.00 270.63 2528.65
   11:37:41.575.17-Sep-2021 4887.00 5434.61 77.25 9.00 270.83 2528.65
   11:37:41.775.17-Sep-2021 4887.00 5434.89 77.25 9.00 271.03 2528.65
   11:37:41.975.17-Sep-2021 4887.00 5434.89 77.25 9.00 271.23 2528.65
   11:37:42.175.17-Sep-2021 4887.00 5434.38 77.25 9.00 271.43 2528.65
   11:37:42.375.17-Sep-2021 4887.00 5434.45 77.25 9.00 271.63 2528.65
   11:37:42.575.17-Sep-2021 4887.00 5434.70 77.25 9.00 271.83 2528.65
   11:37:42.775.17-Sep-2021 4887.00 5434.85 77.25 9.00 272.03 2528.65
   11:37:42.975.17-Sep-2021 4887.00 5434.85 77.25 9.00 272.23 2528.65
   11:37:43.175.17-Sep-2021 4887.00 5434.71 77.25 9.00 272.43 2528.65
   11:37:43.375.17-Sep-2021 4887.00 5434.95 77.25 9.00 272.63 2528.65
   11:37:43.575.17-Sep-2021 4887.00 5435.08 77.25 9.00 272.83 2528.65
   11:37:43.775.17-Sep-2021 4887.00 5437.81 77.25 9.00 273.03 2528.65
   11:37:43.975.17-Sep-2021 4887.00 5437.81 77.25 9.00 273.23 2528.65
   11:37:44.175.17-Sep-2021 4887.00 5434.74 77.25 9.00 273.43 2528.65
   11:37:44.376.17-Sep-2021 4887.00 5435.01 77.25 9.00 273.63 2528.65
   11:37:44.576.17-Sep-2021 4887.00 5436.03 77.25 9.00 273.83 2528.65
   11:37:44.776.17-Sep-2021 4887.00 5438.78 77.25 9.00 274.03 2528.65
   11:37:44.976.17-Sep-2021 4887.00 5438.78 77.25 9.00 274.23 2528.65
   11:37:45.176.17-Sep-2021 4887.00 5434.93 77.25 9.00 274.43 2528.65
   11:37:45.376.17-Sep-2021 4887.00 5434.38 77.25 9.00 274.63 2528.65
   11:37:45.576.17-Sep-2021 4887.00 5435.57 77.25 9.00 274.83 2528.65
   11:37:45.776.17-Sep-2021 4887.00 5436.98 77.25 9.00 275.03 2528.65
   11:37:45.976.17-Sep-2021 4887.00 5436.98 77.25 9.00 275.23 2528.65
   11:37:46.176.17-Sep-2021 4887.00 5434.76 77.25 9.00 275.43 2528.65
   11:37:46.376.17-Sep-2021 4887.00 5434.25 77.25 9.00 275.63 2528.65
   11:37:46.576.17-Sep-2021 4887.00 5435.27 77.25 9.00 275.83 2528.65
