~Version Information
 VERS.                  2.0:   CWLS log ASCII Standard -VERSION 2.0
 WRAP.                   NO:   One line per depth step
~Well Information Block
#MNEM.UNIT     VALUE/NAME     DESCRIPTION
#---------     -----------    ---------------------------
 STRT.S             05:03:12 17-Sep-21: START TIME 05:03:12 17-Sep-21
 STOP.S             05:12:54 17-Sep-21: STOP TIME  05:12:54 17-Sep-21
 STEP.S                   0.00: STEP TIME
 NULL.                 -999.25: NULL VALUE
 DFWT.                        :  DIST FWL TEXT
 DFST.                        :  DIST FSL TEXT
 DMF .             Drill Floor:  DRILL MEAS FROM
 STIM.      10.59.12 05-Jul-21:  START TIME
 DATE.      10.59.12 10-Sep-21:  END TIME
 SPUD.               05-Jul-21:  SPUD DATE
 NREF.                    Grid:  NORTH REFERENCE
 HPTY.       Minimum Curvature:  HOLE POS TYPE
 DMOD.             Drill Model:  DRILL MOD DESC
 SVYD.                  Survey:  SURVEY DESC
 ILTD.               Lithology:  INTERP LTH DESC
 FTOP.          Formation Tops:  FORM TOPS DESC
 RIG .                     DWG:  RIG NAME
 PDAT.          Mean Sea Level:  PERMANENT DATUM
 FLD .                     ACG:  FIELD NAME
 SON .        AZ-XX-0907115008:  JOB NUMBER
 CTRY.              Azerbaijan:  COUNTRY NAME
 WELL.                    E35A:  WELL NAME
 SRVC.          TURAN DRILLING:  CONTRACTOR
 COMP.     BP Exploration (Caspian Sea LTD):  COMPANY
 UWI .                     N/A:  UNIQUE WELL IDENTIFIER
 API .                     N/A:  API NUMBER
 MDS .        Operator Entered:  MAG DATA SOURCE
 BASE.              Azerbaijan:  LOGGING EQUIPMENT BASE LOCATION
 REGN.                   EESSA:  REGION
 PROV.                    Baku:  PROVINCE
 STAT.                    Baku:  STATE NAME
 MWDS.                    Baku:  MWD SHOP
 JOBN.        AZ-XX-0907115008:  JOB TICKET NUMB
 DOE .                     N/A:  DOE NUMBER
 DCON.         Sperry Drilling:  DIRECTNL CONTR
 UNIT.                     N/A:  LOGGING EQUIPMENT ID
 WTYP.                Deviated:  WELL TYPE
 CNTY.                        :  COUNTY
 LOC .                        :  LOCATION
 LMF .             Drill Floor:  LOG MEASURED FROM
 TVDS.m                  43.16:  TVDSS CORRECTN
 LATI.deg                40.17:  LATITUDE
 LONG.deg                51.17:  LONGITUDE
 WHNS.m                  10.51:  WELL HEAD N/S
 WHEW.m                 -14.82:  WELL HEAD E/W
 UTMX.m              514336.92:  UTM X
 UTMY.m             4448618.56:  UTM Y
 DFWL.m                   0.00:  DISTANCE FWL
 DFSL.m                   0.00:  DISTANCE FSL
 SDEP.m                 849.00:  START DEPTH
 TDD .m                2862.00:  TOTAL DEPTH (DRILLER)
 VSDR.deg               292.10:  VERT SEC DIRECT
 GVFD.g                   1.00:  GRAVITY FIELD
 MFLD.nT              50382.00:  MAGNETIC FIELD
 MDIP.deg                59.68:  MAGNETIC DIP
 MDEC.deg                 6.66:  MAGNETIC DECL
 GRDC.deg                 0.09:  GRID CORRECTION
 AZTC.deg                 6.57:  AZM TOTAL CORR
 EPD .m                   0.00:  ELEVATION
 EGL .m                   0.00:  GROUND ELEVATION
 WDMS.m                 176.20:  WD ELEV
 APD .m                  43.16:  DEPTH ABOVE PD
 DEP .m                 363.42:  DEPTH
 AGAP.m                  43.16:  AIR GAP
 VSEW.m                 -14.82:  VERT SEC E/W
 VSNS.m                  10.51:  VERT SEC N/S
 EKB .m                  43.16:  KB ELEVATION
 EDF .m                  43.16:  DF ELEVATION
 TDL .m                1390.00:  TOTAL DEPTH (LOGGER)
 VSC .                       0:  VS TO CLOSURE
 MAGU.                 1855871:  MAGUTM CHECKSUM
~Parameter Information Block
#MNEM.UNIT       Value        Description
#---------     -----------    ---------------------------
 AV  .mps                 2.28:  Ann Velocity 
 AVMX.mps                 2.67:  Max Ann Veloc 
 AZIF.deg               305.00:  Azm, Final 
 BHAT.        Rotary Steerable:  BHA Type 
 BROT.°/30m               0.45:  Build Rotating 
 BS  .in                 12.25:  Bit Size 
 BSZ .in                 12.25:  Bit Size 
 BTPL.psig              600.00:  Bit Press Loss 
 CABU.                     Yes:  Customer Abuse 
 COMM.                     äÏF:  Run Comments 1 
 TCS .hr                150.00:  Time Ciculation Ended 
 CV  .mps                 1.24:  Crit Velocity 
 CVMX.mps                 1.66:  Max Crit Veloc 
 DD1 .         Intigam Rahimov:  Direct Drillr 1 
 DD2 .            Azer Ravavov:  Direct Drillr 2 
 DD3 .              Samir Abas:  Direct Drillr 3 
 DDSV.               Geo-Pilot:  DD Service 
 DEFF.%                 100.00:  % Det Eff 
 DLRX.°/30m               1.57:  Dogleg Rot Max 
 DLSO.°/30m               0.00:  Dogleg Oriented 
 DLSX.°/30m               0.00:  Dogleg Str Max 
 DRET.      20.28.06 17-Sep-21:  Drill End Time 
 DRST.      20.27.35 10-Sep-21:  Drill Start Tim 
 DTIM.hr                 54.00:  Time Drilling 
 EDEP.m                5260.00:  End Depth 
 ENG1.      Bakhtiyar Jabbarli:  Engineer 1 
 ENG2.      Natik Hasanaghayev:  Engineer 2 
 ENG3.           Royal Nasirov:  Engineer 3 
 ETIM.      20.27.55 18-Sep-21:  End Time 
 FLOI.gpm              1100.00:  Flow In 
 FLON.gpm               800.00:  Flow In Min 
 FLOS.cptm                0.00:  Fluid Loss 
 FLOX.gpm              1200.00:  Flow In Max 
 DFT .        Mineral Oil Base:  Mud Type 
 HPRE.                      No:  High Pressure 
 HTEM.                      No:  High Temp 
 HYDO.m                   1.80:  Hydro Offset 
 IFIN.deg                72.31:  Inc, Final 
 IMAX.deg                72.36:  Inc Max 
 IMIN.deg                69.36:  Inc Min 
 IMND.m                4192.96:  Inc Min Depth 
 IMXD.m                5128.36:  Inc Max Depth 
 JARR.                      No:  Jarring 
 LETM.      20.29.00 17-Sep-21:  Log End Time 
 LOST.hr                     0:  Lost Rig Time 
 LSTM.      20.27.00 10-Sep-21:  Log Start Time 
 MDCL.ppm            227000.00:  Mud Chlorides 
 MDES.     Inversion Oil/Synthetic:  Mud Desc 
 DFD .sg                  1.45:  Mud Density 
 MDMN.sg                  1.45:  Dens Mud Min 
 MDMX.sg                  1.45:  Dens Mud Max 
 MOIL.                    70.5:  Run Mud Oil % 
 MOWR.                   71:29:  Run Mud OWR 
 MSND.                     0.3:  Run Mud Sand % 
 MSOL.                    19.8:  Run Mud Solids% 
 DFV .spqt               80.00:  Mud Viscosity 
 MWOD.in                  8.00:  MWD Tool OD 
 MWSI.                     Yes:  Serv Intrp, MWD 
 OTIM.hr                180.00:  Time Operating 
 PCON.           Look Like New:  Pad Condition 
 PMAX.psia             9910.94:  Press Op, Max 
 PV  .cP                 35.00:  Mud PV 
 RUN .                    1000:  Run Number 
 ROPA.m/hr               18.00:  ROP Avg 
 ROPN.m/hr                8.00:  ROP Min 
 ROPX.m/hr               23.00:  ROP Max 
 RPMA.rpm               150.00:  RPM Surface Avg 
 RPMN.rpm               120.00:  RPM Surface Min 
 RPMX.rpm               160.00:  RPM Surface Max 
 RRUN.                    L503:  Rig Run Number 
 RTIM.hr                  5.00:  Time Reaming 
 SAZI.deg               298.42:  Azm, Start 
 SDEP.m                3870.00:  Start Depth 
 SIDD.                      No:  Serv Intrp, DD 
 SINC.deg                69.57:  Inc, Start 
 SPPA.psig             5500.00:  SPP Avg 
 SPPN.psig             4400.00:  SPP Min 
 SPPX.psig             5800.00:  SPP Max 
 STIM.      15.29.39 09-Sep-21:  Start Time 
 SVCS.                 DD, MWD:  Services 
 SVER.                    9.20:  Sperry Version 
 TDAT.m                5260.00:  Tot Depth Attmp 
 TDDF.                      No:  Trip for DD 
 TDLG.m                1390.00:  Tot Depth Loggd 
 TFF .                      No:  Trip for Fail 
 TQAA.f-kp               22.00:  Torque Abs Avg 
 TQAN.f-kp               13.00:  Torque Abs Min 
 TQAX.f-kp               27.00:  Torque Abs Max 
 TRRT.°/30m               1.60:  Turn Rotating 
 MRT .                  EWR-M5:  Maximum Recorded Temperature 
 TTMX.degC               92.00:  Max Tool Temp 
 VS01.                12330975:  Virtual Str1 SN 
 VS02.                90658671:  Virtual Str2 SN 
 VS03.                90658508:  Virtual Str3 SN 
 VS04.                90660974:  Virtual Str4 SN 
 VS05.                90654675:  Virtual Str5 SN 
 WBMN.klb                15.00:  WOB Min 
 WITN.     Alexander Yadullayev:  Customer Rep 
 WITN.           Adil Mammadov:  Customer Rep 2 
 WOBA.klb                17.00:  WOB Avg 
 WOBX.klb                18.00:  WOB Max 
 YP  .lhf2               31.00:  Yield Point 
~Curve Information Block
#MNEM.UNIT                 API CODE     Curve Description
#---------               -----------    ---------------------------
 TIME.HHMMSS            00 000 000 000:  GT Time & Date
 GTDEPTH.m              00 000 000 000:  GT Depth
 GTPQH.psia             00 000 000 000:  GT HR Quartz Pressure
 GTTQ.degC              00 000 000 000:  GT Quartz Temperature
 GTTN.NONE              00 000 000 000:  GT Test Number
 GTET.sec               00 000 000 000:  GT Elapsed Test Time
 GTTVD.m                00 000 000 000:  GT True Vertical Depth
#Other Information
#
#WARRANTY: Halliburton will use its best efforts to furnish customers with 
#accurate information and interpretations that are part of, and incident to, the services 
#provided.  However, Halliburton cannot and does not warrant the accuracy 
#or correctness of such information and interpretations.  Under no circumstances should any 
#such information or interpretation be relied upon as the sole basis for any drilling, 
#completion, production, or financial decision or any procedure involving any risk to the 
#safety of any drilling venture, drilling rig or its crew or any other third party.  The 
#Customer has full responsibility for all drilling, completion and production operation.  
#Halliburton makes no representations or warranties, either expressed or 
#implied, including, but not limited to, the implied warranties of merchantability or fitness 
#for a particular purpose, with respect to the services rendered.  In no event will 
#Halliburton be liable for failure to obtain any particular results or for 
#any damages, including, but not limited to, indirect, special or consequential damages, 
#resulting from the use of any information or interpretation provided by Halliburton.
#
~A           TIME           GTDEPTH  GTPQH  GTTQ  GTTN  GTET   GTTVD  
# ...
   05:06:17.056.17-Sep-2021 5093.53 3743.90 79.35 5.00 184.20 2594.99
   05:06:17.256.17-Sep-2021 5093.53 3743.90 79.35 5.00 184.40 2594.99
   05:06:17.456.17-Sep-2021 5093.53 3743.94 79.35 5.00 184.60 2594.99
   05:06:17.656.17-Sep-2021 5093.53 3743.95 79.35 5.00 184.80 2594.99
   05:06:17.856.17-Sep-2021 5093.53 3743.98 79.35 5.00 185.00 2594.99
   05:06:18.057.17-Sep-2021 5093.53 3744.01 79.35 5.00 185.20 2594.99
   05:06:18.257.17-Sep-2021 5093.53 3744.01 79.35 5.00 185.40 2594.99
   05:06:18.457.17-Sep-2021 5093.53 3744.10 79.35 5.00 185.60 2594.99
   05:06:18.657.17-Sep-2021 5093.53 3744.16 79.35 5.00 185.80 2594.99
   05:06:18.858.17-Sep-2021 5093.53 3744.18 79.35 5.00 186.00 2594.99
   05:06:19.058.17-Sep-2021 5093.53 3744.11 79.35 5.00 186.20 2594.99
   05:06:19.258.17-Sep-2021 5093.53 3744.11 79.35 5.00 186.40 2594.99
   05:06:19.458.17-Sep-2021 5093.53 3744.16 79.35 5.00 186.60 2594.99
   05:06:19.658.17-Sep-2021 5093.53 3744.15 79.35 5.00 186.80 2594.99
   05:06:19.859.17-Sep-2021 5093.53 3744.17 79.35 5.00 187.00 2594.99
   05:06:20.059.17-Sep-2021 5093.53 3744.18 79.35 5.00 187.20 2594.99
   05:06:20.259.17-Sep-2021 5093.53 3744.18 79.35 5.00 187.40 2594.99
   05:06:20.459.17-Sep-2021 5093.53 3744.21 79.35 5.00 187.60 2594.99
   05:06:20.659.17-Sep-2021 5093.53 3744.23 79.35 5.00 187.80 2594.99
   05:06:20.860.17-Sep-2021 5093.53 3744.25 79.35 5.00 188.00 2594.99
   05:06:21.060.17-Sep-2021 5093.53 3744.28 79.35 5.00 188.20 2594.99
   05:06:21.260.17-Sep-2021 5093.53 3744.28 79.35 5.00 188.40 2594.99
   05:06:21.460.17-Sep-2021 5093.53 3744.36 79.35 5.00 188.60 2594.99
   05:06:21.661.17-Sep-2021 5093.53 3744.40 79.35 5.00 188.80 2594.99
   05:06:21.861.17-Sep-2021 5093.53 3744.44 79.35 5.00 189.00 2594.99
   05:06:22.061.17-Sep-2021 5093.53 3744.43 79.35 5.00 189.20 2594.99
   05:06:22.261.17-Sep-2021 5093.53 3744.43 79.35 5.00 189.40 2594.99
   05:06:22.461.17-Sep-2021 5093.53 3744.29 79.35 5.00 189.60 2594.99
   05:06:22.662.17-Sep-2021 5093.53 3744.26 79.35 5.00 189.80 2594.99
   05:06:22.862.17-Sep-2021 5093.53 3744.24 79.35 5.00 190.00 2594.99
   05:06:23.062.17-Sep-2021 5093.53 3744.26 79.35 5.00 190.20 2594.99
   05:06:23.262.17-Sep-2021 5093.53 3744.26 79.35 5.00 190.41 2594.99
   05:06:23.462.17-Sep-2021 5093.53 3743.99 79.36 5.00 190.61 2594.99
   05:06:23.663.17-Sep-2021 5093.53 3743.97 79.36 5.00 190.81 2594.99
   05:06:23.863.17-Sep-2021 5093.53 3743.96 79.36 5.00 191.01 2594.99
   05:06:24.063.17-Sep-2021 5093.53 3743.93 79.36 5.00 191.21 2594.99
   05:06:24.263.17-Sep-2021 5093.53 3743.93 79.36 5.00 191.41 2594.99
   05:06:24.464.17-Sep-2021 5093.53 3743.84 79.36 5.00 191.61 2594.99
   05:06:24.664.17-Sep-2021 5093.53 3743.86 79.36 5.00 191.81 2594.99
   05:06:24.864.17-Sep-2021 5093.53 3743.82 79.36 5.00 192.01 2594.99
   05:06:25.064.17-Sep-2021 5093.53 3743.86 79.36 5.00 192.21 2594.99
   05:06:25.264.17-Sep-2021 5093.53 3743.86 79.36 5.00 192.41 2594.99
   05:06:25.465.17-Sep-2021 5093.53 3743.88 79.36 5.00 192.61 2594.99
   05:06:25.665.17-Sep-2021 5093.53 3743.92 79.36 5.00 192.81 2594.99
   05:06:25.865.17-Sep-2021 5093.53 3743.91 79.36 5.00 193.01 2594.99
   05:06:26.065.17-Sep-2021 5093.53 3743.92 79.36 5.00 193.21 2594.99
   05:06:26.265.17-Sep-2021 5093.53 3743.92 79.36 5.00 193.41 2594.99
   05:06:26.466.17-Sep-2021 5093.53 3743.95 79.36 5.00 193.61 2594.99
   05:06:26.666.17-Sep-2021 5093.53 3743.95 79.36 5.00 193.81 2594.99
   05:06:26.866.17-Sep-2021 5093.53 3743.98 79.36 5.00 194.01 2594.99
   05:06:27.066.17-Sep-2021 5093.53 3744.01 79.36 5.00 194.21 2594.99
   05:06:27.267.17-Sep-2021 5093.53 3744.01 79.36 5.00 194.41 2594.99
   05:06:27.467.17-Sep-2021 5093.53 3744.09 79.36 5.00 194.61 2594.99
   05:06:27.667.17-Sep-2021 5093.53 3744.12 79.36 5.00 194.81 2594.99
   05:06:27.867.17-Sep-2021 5093.53 3744.16 79.36 5.00 195.01 2594.99
   05:06:28.067.17-Sep-2021 5093.53 3744.19 79.36 5.00 195.21 2594.99
   05:06:28.268.17-Sep-2021 5093.53 3744.19 79.36 5.00 195.41 2594.99
   05:06:28.468.17-Sep-2021 5093.53 3744.26 79.36 5.00 195.61 2594.99
   05:06:28.668.17-Sep-2021 5093.53 3744.31 79.36 5.00 195.81 2594.99
   05:06:28.868.17-Sep-2021 5093.53 3744.34 79.36 5.00 196.01 2594.99
   05:06:29.069.17-Sep-2021 5093.53 3744.41 79.36 5.00 196.21 2594.99
   05:06:29.269.17-Sep-2021 5093.53 3744.41 79.36 5.00 196.41 2594.99
   05:06:29.469.17-Sep-2021 5093.53 3744.49 79.36 5.00 196.61 2594.99
   05:06:29.669.17-Sep-2021 5093.53 3744.54 79.36 5.00 196.81 2594.99
   05:06:29.869.17-Sep-2021 5093.53 3744.55 79.36 5.00 197.01 2594.99
   05:06:30.070.17-Sep-2021 5093.53 3744.56 79.36 5.00 197.21 2594.99
   05:06:30.270.17-Sep-2021 5093.53 3744.56 79.36 5.00 197.41 2594.99
   05:06:30.470.17-Sep-2021 5093.53 3744.60 79.36 5.00 197.61 2594.99
   05:06:30.670.17-Sep-2021 5093.53 3744.63 79.36 5.00 197.81 2594.99
   05:06:30.870.17-Sep-2021 5093.53 3744.64 79.36 5.00 198.01 2594.99
   05:06:31.071.17-Sep-2021 5093.53 3744.66 79.36 5.00 198.21 2594.99
   05:06:31.271.17-Sep-2021 5093.53 3744.66 79.36 5.00 198.41 2594.99
   05:06:31.471.17-Sep-2021 5093.53 3744.68 79.36 5.00 198.61 2594.99
   05:06:31.671.17-Sep-2021 5093.53 3744.75 79.36 5.00 198.81 2594.99
   05:06:31.872.17-Sep-2021 5093.53 3744.79 79.36 5.00 199.01 2594.99
   05:06:32.072.17-Sep-2021 5093.53 3744.79 79.36 5.00 199.21 2594.99
   05:06:32.272.17-Sep-2021 5093.53 3744.79 79.36 5.00 199.41 2594.99
   05:06:32.472.17-Sep-2021 5093.53 3744.90 79.36 5.00 199.61 2594.99
   05:06:32.672.17-Sep-2021 5093.53 3744.91 79.36 5.00 199.82 2594.99
   05:06:32.873.17-Sep-2021 5093.53 3744.89 79.36 5.00 200.02 2594.99
   05:06:33.073.17-Sep-2021 5093.53 3744.88 79.36 5.00 200.22 2594.99
   05:06:33.273.17-Sep-2021 5093.53 3744.88 79.36 5.00 200.42 2594.99
   05:06:33.473.17-Sep-2021 5093.53 3744.76 79.36 5.00 200.62 2594.99
   05:06:33.673.17-Sep-2021 5093.53 3744.74 79.36 5.00 200.82 2594.99
   05:06:33.874.17-Sep-2021 5093.53 3744.72 79.36 5.00 201.02 2594.99
   05:06:34.074.17-Sep-2021 5093.53 3744.73 79.36 5.00 201.22 2594.99
   05:06:34.274.17-Sep-2021 5093.53 3744.73 79.36 5.00 201.42 2594.99
   05:06:34.474.17-Sep-2021 5093.53 3744.73 79.36 5.00 201.62 2594.99
   05:06:34.675.17-Sep-2021 5093.53 3744.74 79.36 5.00 201.82 2594.99
   05:06:34.875.17-Sep-2021 5093.53 3744.73 79.36 5.00 202.02 2594.99
   05:06:35.075.17-Sep-2021 5093.53 3744.73 79.36 5.00 202.22 2594.99
   05:06:35.275.17-Sep-2021 5093.53 3744.73 79.36 5.00 202.42 2594.99
   05:06:35.475.17-Sep-2021 5093.53 3744.71 79.36 5.00 202.62 2594.99
   05:06:35.676.17-Sep-2021 5093.53 3744.67 79.36 5.00 202.82 2594.99
   05:06:35.876.17-Sep-2021 5093.53 3744.71 79.36 5.00 203.02 2594.99
   05:06:36.076.17-Sep-2021 5093.53 3744.71 79.36 5.00 203.22 2594.99
   05:06:36.276.17-Sep-2021 5093.53 3744.71 79.36 5.00 203.42 2594.99
   05:06:36.476.17-Sep-2021 5093.53 3744.72 79.36 5.00 203.62 2594.99
   05:06:36.677.17-Sep-2021 5093.53 3744.73 79.36 5.00 203.82 2594.99
   05:06:36.877.17-Sep-2021 5093.53 3744.75 79.36 5.00 204.02 2594.99
   05:06:37.077.17-Sep-2021 5093.53 3744.76 79.36 5.00 204.22 2594.99
   05:06:37.277.17-Sep-2021 5093.53 3744.76 79.36 5.00 204.42 2594.99
   05:06:37.478.17-Sep-2021 5093.53 3744.80 79.36 5.00 204.62 2594.99
   05:06:37.678.17-Sep-2021 5093.53 3744.80 79.36 5.00 204.82 2594.99
   05:06:37.878.17-Sep-2021 5093.53 3744.83 79.36 5.00 205.02 2594.99
   05:06:38.078.17-Sep-2021 5093.53 3744.86 79.36 5.00 205.22 2594.99
   05:06:38.278.17-Sep-2021 5093.53 3744.86 79.36 5.00 205.42 2594.99
   05:06:38.479.17-Sep-2021 5093.53 3744.89 79.36 5.00 205.62 2594.99
   05:06:38.679.17-Sep-2021 5093.53 3744.88 79.36 5.00 205.82 2594.99
   05:06:38.879.17-Sep-2021 5093.53 3744.87 79.36 5.00 206.02 2594.99
   05:06:39.079.17-Sep-2021 5093.53 3744.91 79.36 5.00 206.22 2594.99
   05:06:39.280.17-Sep-2021 5093.53 3744.91 79.36 5.00 206.42 2594.99
   05:06:39.480.17-Sep-2021 5093.53 3744.92 79.36 5.00 206.62 2594.99
   05:06:39.680.17-Sep-2021 5093.53 3744.98 79.36 5.00 206.82 2594.99
   05:06:39.880.17-Sep-2021 5093.53 3745.02 79.36 5.00 207.02 2594.99
