~Version Information
 VERS.                  2.0:   CWLS log ASCII Standard -VERSION 2.0
 WRAP.                   NO:   One line per depth step
~Well Information Block
#MNEM.UNIT     VALUE/NAME     DESCRIPTION
#---------     -----------    ---------------------------
 STRT.S             06:26:37 17-Sep-21: START TIME 06:26:37 17-Sep-21
 STOP.S             06:35:42 17-Sep-21: STOP TIME  06:35:42 17-Sep-21
 STEP.S                   0.00: STEP TIME
 NULL.                 -999.25: NULL VALUE
 DFWT.                        :  DIST FWL TEXT
 DFST.                        :  DIST FSL TEXT
 DMF .             Drill Floor:  DRILL MEAS FROM
 STIM.      10.59.12 05-Jul-21:  START TIME
 DATE.      10.59.12 10-Sep-21:  END TIME
 SPUD.               05-Jul-21:  SPUD DATE
 NREF.                    Grid:  NORTH REFERENCE
 HPTY.       Minimum Curvature:  HOLE POS TYPE
 DMOD.             Drill Model:  DRILL MOD DESC
 SVYD.                  Survey:  SURVEY DESC
 ILTD.               Lithology:  INTERP LTH DESC
 FTOP.          Formation Tops:  FORM TOPS DESC
 RIG .                     DWG:  RIG NAME
 PDAT.          Mean Sea Level:  PERMANENT DATUM
 FLD .                     ACG:  FIELD NAME
 SON .        AZ-XX-0907115008:  JOB NUMBER
 CTRY.              Azerbaijan:  COUNTRY NAME
 WELL.                    E35A:  WELL NAME
 SRVC.          TURAN DRILLING:  CONTRACTOR
 COMP.     BP Exploration (Caspian Sea LTD):  COMPANY
 UWI .                     N/A:  UNIQUE WELL IDENTIFIER
 API .                     N/A:  API NUMBER
 MDS .        Operator Entered:  MAG DATA SOURCE
 BASE.              Azerbaijan:  LOGGING EQUIPMENT BASE LOCATION
 REGN.                   EESSA:  REGION
 PROV.                    Baku:  PROVINCE
 STAT.                    Baku:  STATE NAME
 MWDS.                    Baku:  MWD SHOP
 JOBN.        AZ-XX-0907115008:  JOB TICKET NUMB
 DOE .                     N/A:  DOE NUMBER
 DCON.         Sperry Drilling:  DIRECTNL CONTR
 UNIT.                     N/A:  LOGGING EQUIPMENT ID
 WTYP.                Deviated:  WELL TYPE
 CNTY.                        :  COUNTY
 LOC .                        :  LOCATION
 LMF .             Drill Floor:  LOG MEASURED FROM
 TVDS.m                  43.16:  TVDSS CORRECTN
 LATI.deg                40.17:  LATITUDE
 LONG.deg                51.17:  LONGITUDE
 WHNS.m                  10.51:  WELL HEAD N/S
 WHEW.m                 -14.82:  WELL HEAD E/W
 UTMX.m              514336.92:  UTM X
 UTMY.m             4448618.56:  UTM Y
 DFWL.m                   0.00:  DISTANCE FWL
 DFSL.m                   0.00:  DISTANCE FSL
 SDEP.m                 849.00:  START DEPTH
 TDD .m                2862.00:  TOTAL DEPTH (DRILLER)
 VSDR.deg               292.10:  VERT SEC DIRECT
 GVFD.g                   1.00:  GRAVITY FIELD
 MFLD.nT              50382.00:  MAGNETIC FIELD
 MDIP.deg                59.68:  MAGNETIC DIP
 MDEC.deg                 6.66:  MAGNETIC DECL
 GRDC.deg                 0.09:  GRID CORRECTION
 AZTC.deg                 6.57:  AZM TOTAL CORR
 EPD .m                   0.00:  ELEVATION
 EGL .m                   0.00:  GROUND ELEVATION
 WDMS.m                 176.20:  WD ELEV
 APD .m                  43.16:  DEPTH ABOVE PD
 DEP .m                 363.42:  DEPTH
 AGAP.m                  43.16:  AIR GAP
 VSEW.m                 -14.82:  VERT SEC E/W
 VSNS.m                  10.51:  VERT SEC N/S
 EKB .m                  43.16:  KB ELEVATION
 EDF .m                  43.16:  DF ELEVATION
 TDL .m                1390.00:  TOTAL DEPTH (LOGGER)
 VSC .                       0:  VS TO CLOSURE
 MAGU.                 1855871:  MAGUTM CHECKSUM
~Parameter Information Block
#MNEM.UNIT       Value        Description
#---------     -----------    ---------------------------
 AV  .mps                 2.28:  Ann Velocity 
 AVMX.mps                 2.67:  Max Ann Veloc 
 AZIF.deg               305.00:  Azm, Final 
 BHAT.        Rotary Steerable:  BHA Type 
 BROT.°/30m               0.45:  Build Rotating 
 BS  .in                 12.25:  Bit Size 
 BSZ .in                 12.25:  Bit Size 
 BTPL.psig              600.00:  Bit Press Loss 
 CABU.                     Yes:  Customer Abuse 
 COMM.                     D5N:  Run Comments 1 
 TCS .hr                150.00:  Time Ciculation Ended 
 CV  .mps                 1.24:  Crit Velocity 
 CVMX.mps                 1.66:  Max Crit Veloc 
 DD1 .         Intigam Rahimov:  Direct Drillr 1 
 DD2 .            Azer Ravavov:  Direct Drillr 2 
 DD3 .              Samir Abas:  Direct Drillr 3 
 DDSV.               Geo-Pilot:  DD Service 
 DEFF.%                 100.00:  % Det Eff 
 DLRX.°/30m               1.57:  Dogleg Rot Max 
 DLSO.°/30m               0.00:  Dogleg Oriented 
 DLSX.°/30m               0.00:  Dogleg Str Max 
 DRET.      20.28.06 17-Sep-21:  Drill End Time 
 DRST.      20.27.35 10-Sep-21:  Drill Start Tim 
 DTIM.hr                 54.00:  Time Drilling 
 EDEP.m                5260.00:  End Depth 
 ENG1.      Bakhtiyar Jabbarli:  Engineer 1 
 ENG2.      Natik Hasanaghayev:  Engineer 2 
 ENG3.           Royal Nasirov:  Engineer 3 
 ETIM.      20.27.55 18-Sep-21:  End Time 
 FLOI.gpm              1100.00:  Flow In 
 FLON.gpm               800.00:  Flow In Min 
 FLOS.cptm                0.00:  Fluid Loss 
 FLOX.gpm              1200.00:  Flow In Max 
 DFT .        Mineral Oil Base:  Mud Type 
 HPRE.                      No:  High Pressure 
 HTEM.                      No:  High Temp 
 HYDO.m                   1.80:  Hydro Offset 
 IFIN.deg                72.31:  Inc, Final 
 IMAX.deg                72.36:  Inc Max 
 IMIN.deg                69.36:  Inc Min 
 IMND.m                4192.96:  Inc Min Depth 
 IMXD.m                5128.36:  Inc Max Depth 
 JARR.                      No:  Jarring 
 LETM.      20.29.00 17-Sep-21:  Log End Time 
 LOST.hr                     0:  Lost Rig Time 
 LSTM.      20.27.00 10-Sep-21:  Log Start Time 
 MDCL.ppm            227000.00:  Mud Chlorides 
 MDES.     Inversion Oil/Synthetic:  Mud Desc 
 DFD .sg                  1.45:  Mud Density 
 MDMN.sg                  1.45:  Dens Mud Min 
 MDMX.sg                  1.45:  Dens Mud Max 
 MOIL.                    70.5:  Run Mud Oil % 
 MOWR.                   71:29:  Run Mud OWR 
 MSND.                     0.3:  Run Mud Sand % 
 MSOL.                    19.8:  Run Mud Solids% 
 DFV .spqt               80.00:  Mud Viscosity 
 MWOD.in                  8.00:  MWD Tool OD 
 MWSI.                     Yes:  Serv Intrp, MWD 
 OTIM.hr                180.00:  Time Operating 
 PCON.           Look Like New:  Pad Condition 
 PMAX.psia             9910.94:  Press Op, Max 
 PV  .cP                 35.00:  Mud PV 
 RUN .                    1000:  Run Number 
 ROPA.m/hr               18.00:  ROP Avg 
 ROPN.m/hr                8.00:  ROP Min 
 ROPX.m/hr               23.00:  ROP Max 
 RPMA.rpm               150.00:  RPM Surface Avg 
 RPMN.rpm               120.00:  RPM Surface Min 
 RPMX.rpm               160.00:  RPM Surface Max 
 RRUN.                    L503:  Rig Run Number 
 RTIM.hr                  5.00:  Time Reaming 
 SAZI.deg               298.42:  Azm, Start 
 SDEP.m                3870.00:  Start Depth 
 SIDD.                      No:  Serv Intrp, DD 
 SINC.deg                69.57:  Inc, Start 
 SPPA.psig             5500.00:  SPP Avg 
 SPPN.psig             4400.00:  SPP Min 
 SPPX.psig             5800.00:  SPP Max 
 STIM.      15.29.39 09-Sep-21:  Start Time 
 SVCS.                 DD, MWD:  Services 
 SVER.                    9.20:  Sperry Version 
 TDAT.m                5260.00:  Tot Depth Attmp 
 TDDF.                      No:  Trip for DD 
 TDLG.m                1390.00:  Tot Depth Loggd 
 TFF .                      No:  Trip for Fail 
 TQAA.f-kp               22.00:  Torque Abs Avg 
 TQAN.f-kp               13.00:  Torque Abs Min 
 TQAX.f-kp               27.00:  Torque Abs Max 
 TRRT.°/30m               1.60:  Turn Rotating 
 MRT .                  EWR-M5:  Maximum Recorded Temperature 
 TTMX.degC               92.00:  Max Tool Temp 
 VS01.                12330975:  Virtual Str1 SN 
 VS02.                90658671:  Virtual Str2 SN 
 VS03.                90658508:  Virtual Str3 SN 
 VS04.                90660974:  Virtual Str4 SN 
 VS05.                90654675:  Virtual Str5 SN 
 WBMN.klb                15.00:  WOB Min 
 WITN.     Alexander Yadullayev:  Customer Rep 
 WITN.           Adil Mammadov:  Customer Rep 2 
 WOBA.klb                17.00:  WOB Avg 
 WOBX.klb                18.00:  WOB Max 
 YP  .lhf2               31.00:  Yield Point 
~Curve Information Block
#MNEM.UNIT                 API CODE     Curve Description
#---------               -----------    ---------------------------
 TIME.HHMMSS            00 000 000 000:  GT Time & Date
 GTDEPTH.m              00 000 000 000:  GT Depth
 GTPQH.psia             00 000 000 000:  GT HR Quartz Pressure
 GTTQ.degC              00 000 000 000:  GT Quartz Temperature
 GTTN.NONE              00 000 000 000:  GT Test Number
 GTET.sec               00 000 000 000:  GT Elapsed Test Time
 GTTVD.m                00 000 000 000:  GT True Vertical Depth
#Other Information
#
#WARRANTY: Halliburton will use its best efforts to furnish customers with 
#accurate information and interpretations that are part of, and incident to, the services 
#provided.  However, Halliburton cannot and does not warrant the accuracy 
#or correctness of such information and interpretations.  Under no circumstances should any 
#such information or interpretation be relied upon as the sole basis for any drilling, 
#completion, production, or financial decision or any procedure involving any risk to the 
#safety of any drilling venture, drilling rig or its crew or any other third party.  The 
#Customer has full responsibility for all drilling, completion and production operation.  
#Halliburton makes no representations or warranties, either expressed or 
#implied, including, but not limited to, the implied warranties of merchantability or fitness 
#for a particular purpose, with respect to the services rendered.  In no event will 
#Halliburton be liable for failure to obtain any particular results or for 
#any damages, including, but not limited to, indirect, special or consequential damages, 
#resulting from the use of any information or interpretation provided by Halliburton.
#
~A           TIME           GTDEPTH  GTPQH  GTTQ  GTTN  GTET   GTTVD  
# ...
   06:31:13.298.17-Sep-2021 5057.00 5594.23 78.69 7.00 275.94 2583.65
   06:31:13.498.17-Sep-2021 5057.00 5594.23 78.69 7.00 276.14 2583.65
   06:31:13.698.17-Sep-2021 5057.00 5594.05 78.69 7.00 276.34 2583.65
   06:31:13.898.17-Sep-2021 5057.00 5594.14 78.69 7.00 276.54 2583.65
   06:31:14.098.17-Sep-2021 5057.00 5594.04 78.69 7.00 276.74 2583.65
   06:31:14.298.17-Sep-2021 5057.00 5594.14 78.69 7.00 276.94 2583.65
   06:31:14.498.17-Sep-2021 5057.00 5594.14 78.69 7.00 277.14 2583.65
   06:31:14.698.17-Sep-2021 5057.00 5594.32 78.69 7.00 277.34 2583.65
   06:31:14.898.17-Sep-2021 5057.00 5594.20 78.69 7.00 277.54 2583.65
   06:31:15.097.17-Sep-2021 5057.00 5594.42 78.69 7.00 277.74 2583.65
   06:31:15.297.17-Sep-2021 5057.00 5594.37 78.69 7.00 277.94 2583.65
   06:31:15.497.17-Sep-2021 5057.00 5594.37 78.69 7.00 278.14 2583.65
   06:31:15.697.17-Sep-2021 5057.00 5594.81 78.69 7.00 278.34 2583.65
   06:31:15.897.17-Sep-2021 5057.00 5594.74 78.69 7.00 278.54 2583.65
   06:31:16.097.17-Sep-2021 5057.00 5595.21 78.69 7.00 278.74 2583.65
   06:31:16.297.17-Sep-2021 5057.00 5594.72 78.69 7.00 278.94 2583.65
   06:31:16.497.17-Sep-2021 5057.00 5594.72 78.69 7.00 279.14 2583.65
   06:31:16.697.17-Sep-2021 5057.00 5595.21 78.69 7.00 279.34 2583.65
   06:31:16.897.17-Sep-2021 5057.00 5595.05 78.69 7.00 279.54 2583.65
   06:31:17.097.17-Sep-2021 5057.00 5595.16 78.69 7.00 279.74 2583.65
   06:31:17.297.17-Sep-2021 5057.00 5595.07 78.69 7.00 279.94 2583.65
   06:31:17.497.17-Sep-2021 5057.00 5595.07 78.69 7.00 280.14 2583.65
   06:31:17.697.17-Sep-2021 5057.00 5594.88 78.68 7.00 280.34 2583.65
   06:31:17.897.17-Sep-2021 5057.00 5594.90 78.69 7.00 280.54 2583.65
   06:31:18.097.17-Sep-2021 5057.00 5594.83 78.68 7.00 280.74 2583.65
   06:31:18.297.17-Sep-2021 5057.00 5594.81 78.68 7.00 280.94 2583.65
   06:31:18.497.17-Sep-2021 5057.00 5594.81 78.68 7.00 281.14 2583.65
   06:31:18.697.17-Sep-2021 5057.00 5594.76 78.68 7.00 281.34 2583.65
   06:31:18.897.17-Sep-2021 5057.00 5594.76 78.68 7.00 281.54 2583.65
   06:31:19.097.17-Sep-2021 5057.00 5594.74 78.68 7.00 281.74 2583.65
   06:31:19.297.17-Sep-2021 5057.00 5595.31 78.68 7.00 281.94 2583.65
   06:31:19.497.17-Sep-2021 5057.00 5595.31 78.68 7.00 282.14 2583.65
   06:31:19.697.17-Sep-2021 5057.00 5595.47 78.68 7.00 282.34 2583.65
   06:31:19.896.17-Sep-2021 5057.00 5595.56 78.68 7.00 282.54 2583.65
   06:31:20.096.17-Sep-2021 5057.00 5595.31 78.68 7.00 282.74 2583.65
   06:31:20.296.17-Sep-2021 5057.00 5595.34 78.68 7.00 282.94 2583.65
   06:31:20.496.17-Sep-2021 5057.00 5595.34 78.68 7.00 283.14 2583.65
   06:31:20.696.17-Sep-2021 5057.00 5595.13 78.68 7.00 283.34 2583.65
   06:31:20.896.17-Sep-2021 5057.00 5595.09 78.68 7.00 283.54 2583.65
   06:31:21.096.17-Sep-2021 5057.00 5595.00 78.68 7.00 283.74 2583.65
   06:31:21.296.17-Sep-2021 5057.00 5595.00 78.68 7.00 283.94 2583.65
   06:31:21.496.17-Sep-2021 5057.00 5595.00 78.68 7.00 284.14 2583.65
   06:31:21.696.17-Sep-2021 5057.00 5594.97 78.68 7.00 284.34 2583.65
   06:31:21.896.17-Sep-2021 5057.00 5594.96 78.68 7.00 284.54 2583.65
   06:31:22.096.17-Sep-2021 5057.00 5594.95 78.68 7.00 284.74 2583.65
   06:31:22.296.17-Sep-2021 5057.00 5594.94 78.68 7.00 284.94 2583.65
   06:31:22.496.17-Sep-2021 5057.00 5594.94 78.68 7.00 285.14 2583.65
   06:31:22.696.17-Sep-2021 5057.00 5595.14 78.68 7.00 285.34 2583.65
   06:31:22.896.17-Sep-2021 5057.00 5595.35 78.68 7.00 285.54 2583.65
   06:31:23.096.17-Sep-2021 5057.00 5595.52 78.68 7.00 285.74 2583.65
   06:31:23.296.17-Sep-2021 5057.00 5595.35 78.68 7.00 285.94 2583.65
   06:31:23.496.17-Sep-2021 5057.00 5595.35 78.68 7.00 286.14 2583.65
   06:31:23.696.17-Sep-2021 5057.00 5595.40 78.68 7.00 286.34 2583.65
   06:31:23.896.17-Sep-2021 5057.00 5595.53 78.68 7.00 286.54 2583.65
   06:31:24.096.17-Sep-2021 5057.00 5595.17 78.68 7.00 286.74 2583.65
   06:31:24.296.17-Sep-2021 5057.00 5595.70 78.68 7.00 286.94 2583.65
   06:31:24.495.17-Sep-2021 5057.00 5595.70 78.68 7.00 287.14 2583.65
   06:31:24.695.17-Sep-2021 5057.00 5595.38 78.68 7.00 287.34 2583.65
   06:31:24.895.17-Sep-2021 5057.00 5595.45 78.68 7.00 287.54 2583.65
   06:31:25.095.17-Sep-2021 5057.00 5595.36 78.68 7.00 287.74 2583.65
   06:31:25.295.17-Sep-2021 5057.00 5595.48 78.68 7.00 287.94 2583.65
   06:31:25.495.17-Sep-2021 5057.00 5595.48 78.68 7.00 288.14 2583.65
   06:31:25.695.17-Sep-2021 5057.00 5595.74 78.68 7.00 288.34 2583.65
   06:31:25.895.17-Sep-2021 5057.00 5595.84 78.68 7.00 288.54 2583.65
   06:31:26.095.17-Sep-2021 5057.00 5595.88 78.68 7.00 288.74 2583.65
   06:31:26.295.17-Sep-2021 5057.00 5596.09 78.68 7.00 288.94 2583.65
   06:31:26.495.17-Sep-2021 5057.00 5596.09 78.68 7.00 289.14 2583.65
   06:31:26.695.17-Sep-2021 5057.00 5596.04 78.68 7.00 289.34 2583.65
   06:31:26.895.17-Sep-2021 5057.00 5596.07 78.68 7.00 289.54 2583.65
   06:31:27.095.17-Sep-2021 5057.00 5595.79 78.68 7.00 289.74 2583.65
   06:31:27.295.17-Sep-2021 5057.00 5595.91 78.68 7.00 289.94 2583.65
   06:31:27.495.17-Sep-2021 5057.00 5595.91 78.68 7.00 290.14 2583.65
   06:31:27.695.17-Sep-2021 5057.00 5595.71 78.68 7.00 290.34 2583.65
   06:31:27.895.17-Sep-2021 5057.00 5595.82 78.68 7.00 290.54 2583.65
   06:31:28.095.17-Sep-2021 5057.00 5595.79 78.68 7.00 290.74 2583.65
   06:31:28.295.17-Sep-2021 5057.00 5595.77 78.68 7.00 290.94 2583.65
   06:31:28.495.17-Sep-2021 5057.00 5595.77 78.68 7.00 291.14 2583.65
   06:31:28.695.17-Sep-2021 5057.00 5595.73 78.68 7.00 291.34 2583.65
   06:31:28.895.17-Sep-2021 5057.00 5595.71 78.68 7.00 291.54 2583.65
   06:31:29.095.17-Sep-2021 5057.00 5595.66 78.68 7.00 291.74 2583.65
   06:31:29.294.17-Sep-2021 5057.00 5595.96 78.68 7.00 291.94 2583.65
   06:31:29.494.17-Sep-2021 5057.00 5595.96 78.68 7.00 292.14 2583.65
   06:31:29.694.17-Sep-2021 5057.00 5596.31 78.68 7.00 292.34 2583.65
   06:31:29.894.17-Sep-2021 5057.00 5596.09 78.68 7.00 292.54 2583.65
   06:31:30.094.17-Sep-2021 5057.00 5595.98 78.68 7.00 292.74 2583.65
   06:31:30.294.17-Sep-2021 5057.00 5596.10 78.68 7.00 292.94 2583.65
   06:31:30.494.17-Sep-2021 5057.00 5596.10 78.68 7.00 293.14 2583.65
   06:31:30.694.17-Sep-2021 5057.00 5595.75 78.68 7.00 293.34 2583.65
   06:31:30.894.17-Sep-2021 5057.00 5595.74 78.68 7.00 293.54 2583.65
   06:31:31.094.17-Sep-2021 5057.00 5595.67 78.68 7.00 293.74 2583.65
   06:31:31.294.17-Sep-2021 5057.00 5595.66 78.68 7.00 293.94 2583.65
   06:31:31.494.17-Sep-2021 5057.00 5595.66 78.68 7.00 294.14 2583.65
   06:31:31.694.17-Sep-2021 5057.00 5595.66 78.68 7.00 294.34 2583.65
   06:31:31.894.17-Sep-2021 5057.00 5595.67 78.68 7.00 294.54 2583.65
   06:31:32.094.17-Sep-2021 5057.00 5595.69 78.68 7.00 294.74 2583.65
   06:31:32.294.17-Sep-2021 5057.00 5595.67 78.68 7.00 294.94 2583.65
   06:31:32.494.17-Sep-2021 5057.00 5595.67 78.68 7.00 295.14 2583.65
   06:31:32.694.17-Sep-2021 5057.00 5596.13 78.68 7.00 295.34 2583.65
   06:31:32.894.17-Sep-2021 5057.00 5595.81 78.68 7.00 295.54 2583.65
   06:31:33.094.17-Sep-2021 5057.00 5596.37 78.68 7.00 295.74 2583.65
   06:31:33.294.17-Sep-2021 5057.00 5596.11 78.68 7.00 295.94 2583.65
   06:31:33.494.17-Sep-2021 5057.00 5596.11 78.68 7.00 296.14 2583.65
   06:31:33.694.17-Sep-2021 5057.00 5595.97 78.68 7.00 296.34 2583.65
   06:31:33.893.17-Sep-2021 5057.00 5596.03 78.68 7.00 296.54 2583.65
   06:31:34.093.17-Sep-2021 5057.00 5595.98 78.68 7.00 296.74 2583.65
   06:31:34.293.17-Sep-2021 5057.00 5596.01 78.68 7.00 296.94 2583.65
   06:31:34.493.17-Sep-2021 5057.00 5596.01 78.68 7.00 297.14 2583.65
   06:31:34.693.17-Sep-2021 5057.00 5596.15 78.68 7.00 297.34 2583.65
   06:31:34.893.17-Sep-2021 5057.00 5595.85 78.68 7.00 297.54 2583.65
   06:31:35.093.17-Sep-2021 5057.00 5595.83 78.68 7.00 297.74 2583.65
   06:31:35.293.17-Sep-2021 5057.00 5596.34 78.68 7.00 297.94 2583.65
   06:31:35.493.17-Sep-2021 5057.00 5596.34 78.68 7.00 298.14 2583.65
   06:31:35.693.17-Sep-2021 5057.00 5596.55 78.68 7.00 298.34 2583.65
   06:31:35.893.17-Sep-2021 5057.00 5596.41 78.68 7.00 298.54 2583.65
   06:31:36.093.17-Sep-2021 5057.00 5596.22 78.68 7.00 298.74 2583.65
