~Version Information
 VERS.                  2.0:   CWLS log ASCII Standard -VERSION 2.0
 WRAP.                   NO:   One line per depth step
~Well Information Block
#MNEM.UNIT     VALUE/NAME     DESCRIPTION
#---------     -----------    ---------------------------
 STRT.S             11:33:10 17-Sep-21: START TIME 11:33:10 17-Sep-21
 STOP.S             11:40:20 17-Sep-21: STOP TIME  11:40:20 17-Sep-21
 STEP.S                   0.00: STEP TIME
 NULL.                 -999.25: NULL VALUE
 DFWT.                        :  DIST FWL TEXT
 DFST.                        :  DIST FSL TEXT
 DMF .             Drill Floor:  DRILL MEAS FROM
 STIM.      10.59.12 05-Jul-21:  START TIME
 DATE.      10.59.12 10-Sep-21:  END TIME
 SPUD.               05-Jul-21:  SPUD DATE
 NREF.                    Grid:  NORTH REFERENCE
 HPTY.       Minimum Curvature:  HOLE POS TYPE
 DMOD.             Drill Model:  DRILL MOD DESC
 SVYD.                  Survey:  SURVEY DESC
 ILTD.               Lithology:  INTERP LTH DESC
 FTOP.          Formation Tops:  FORM TOPS DESC
 RIG .                     DWG:  RIG NAME
 PDAT.          Mean Sea Level:  PERMANENT DATUM
 FLD .                     ACG:  FIELD NAME
 SON .        AZ-XX-0907115008:  JOB NUMBER
 CTRY.              Azerbaijan:  COUNTRY NAME
 WELL.                    E35A:  WELL NAME
 SRVC.          TURAN DRILLING:  CONTRACTOR
 COMP.     BP Exploration (Caspian Sea LTD):  COMPANY
 UWI .                     N/A:  UNIQUE WELL IDENTIFIER
 API .                     N/A:  API NUMBER
 MDS .        Operator Entered:  MAG DATA SOURCE
 BASE.              Azerbaijan:  LOGGING EQUIPMENT BASE LOCATION
 REGN.                   EESSA:  REGION
 PROV.                    Baku:  PROVINCE
 STAT.                    Baku:  STATE NAME
 MWDS.                    Baku:  MWD SHOP
 JOBN.        AZ-XX-0907115008:  JOB TICKET NUMB
 DOE .                     N/A:  DOE NUMBER
 DCON.         Sperry Drilling:  DIRECTNL CONTR
 UNIT.                     N/A:  LOGGING EQUIPMENT ID
 WTYP.                Deviated:  WELL TYPE
 CNTY.                        :  COUNTY
 LOC .                        :  LOCATION
 LMF .             Drill Floor:  LOG MEASURED FROM
 TVDS.m                  43.16:  TVDSS CORRECTN
 LATI.deg                40.17:  LATITUDE
 LONG.deg                51.17:  LONGITUDE
 WHNS.m                  10.51:  WELL HEAD N/S
 WHEW.m                 -14.82:  WELL HEAD E/W
 UTMX.m              514336.92:  UTM X
 UTMY.m             4448618.56:  UTM Y
 DFWL.m                   0.00:  DISTANCE FWL
 DFSL.m                   0.00:  DISTANCE FSL
 SDEP.m                 849.00:  START DEPTH
 TDD .m                2862.00:  TOTAL DEPTH (DRILLER)
 VSDR.deg               292.10:  VERT SEC DIRECT
 GVFD.g                   1.00:  GRAVITY FIELD
 MFLD.nT              50382.00:  MAGNETIC FIELD
 MDIP.deg                59.68:  MAGNETIC DIP
 MDEC.deg                 6.66:  MAGNETIC DECL
 GRDC.deg                 0.09:  GRID CORRECTION
 AZTC.deg                 6.57:  AZM TOTAL CORR
 EPD .m                   0.00:  ELEVATION
 EGL .m                   0.00:  GROUND ELEVATION
 WDMS.m                 176.20:  WD ELEV
 APD .m                  43.16:  DEPTH ABOVE PD
 DEP .m                 363.42:  DEPTH
 AGAP.m                  43.16:  AIR GAP
 VSEW.m                 -14.82:  VERT SEC E/W
 VSNS.m                  10.51:  VERT SEC N/S
 EKB .m                  43.16:  KB ELEVATION
 EDF .m                  43.16:  DF ELEVATION
 TDL .m                1390.00:  TOTAL DEPTH (LOGGER)
 VSC .                       0:  VS TO CLOSURE
 MAGU.                 1855871:  MAGUTM CHECKSUM
~Parameter Information Block
#MNEM.UNIT       Value        Description
#---------     -----------    ---------------------------
 AV  .mps                 2.28:  Ann Velocity 
 AVMX.mps                 2.67:  Max Ann Veloc 
 AZIF.deg               305.00:  Azm, Final 
 BHAT.        Rotary Steerable:  BHA Type 
 BROT.°/30m               0.45:  Build Rotating 
 BS  .in                 12.25:  Bit Size 
 BSZ .in                 12.25:  Bit Size 
 BTPL.psig              600.00:  Bit Press Loss 
 CABU.                     Yes:  Customer Abuse 
 COMM.                     Á~:  Run Comments 1 
 TCS .hr                150.00:  Time Ciculation Ended 
 CV  .mps                 1.24:  Crit Velocity 
 CVMX.mps                 1.66:  Max Crit Veloc 
 DD1 .         Intigam Rahimov:  Direct Drillr 1 
 DD2 .            Azer Ravavov:  Direct Drillr 2 
 DD3 .              Samir Abas:  Direct Drillr 3 
 DDSV.               Geo-Pilot:  DD Service 
 DEFF.%                 100.00:  % Det Eff 
 DLRX.°/30m               1.57:  Dogleg Rot Max 
 DLSO.°/30m               0.00:  Dogleg Oriented 
 DLSX.°/30m               0.00:  Dogleg Str Max 
 DRET.      20.28.06 17-Sep-21:  Drill End Time 
 DRST.      20.27.35 10-Sep-21:  Drill Start Tim 
 DTIM.hr                 54.00:  Time Drilling 
 EDEP.m                5260.00:  End Depth 
 ENG1.      Bakhtiyar Jabbarli:  Engineer 1 
 ENG2.      Natik Hasanaghayev:  Engineer 2 
 ENG3.           Royal Nasirov:  Engineer 3 
 ETIM.      20.27.55 18-Sep-21:  End Time 
 FLOI.gpm              1100.00:  Flow In 
 FLON.gpm               800.00:  Flow In Min 
 FLOS.cptm                0.00:  Fluid Loss 
 FLOX.gpm              1200.00:  Flow In Max 
 DFT .        Mineral Oil Base:  Mud Type 
 HPRE.                      No:  High Pressure 
 HTEM.                      No:  High Temp 
 HYDO.m                   1.80:  Hydro Offset 
 IFIN.deg                72.31:  Inc, Final 
 IMAX.deg                72.36:  Inc Max 
 IMIN.deg                69.36:  Inc Min 
 IMND.m                4192.96:  Inc Min Depth 
 IMXD.m                5128.36:  Inc Max Depth 
 JARR.                      No:  Jarring 
 LETM.      20.29.00 17-Sep-21:  Log End Time 
 LOST.hr                     0:  Lost Rig Time 
 LSTM.      20.27.00 10-Sep-21:  Log Start Time 
 MDCL.ppm            227000.00:  Mud Chlorides 
 MDES.     Inversion Oil/Synthetic:  Mud Desc 
 DFD .sg                  1.45:  Mud Density 
 MDMN.sg                  1.45:  Dens Mud Min 
 MDMX.sg                  1.45:  Dens Mud Max 
 MOIL.                    70.5:  Run Mud Oil % 
 MOWR.                   71:29:  Run Mud OWR 
 MSND.                     0.3:  Run Mud Sand % 
 MSOL.                    19.8:  Run Mud Solids% 
 DFV .spqt               80.00:  Mud Viscosity 
 MWOD.in                  8.00:  MWD Tool OD 
 MWSI.                     Yes:  Serv Intrp, MWD 
 OTIM.hr                180.00:  Time Operating 
 PCON.           Look Like New:  Pad Condition 
 PMAX.psia             9910.94:  Press Op, Max 
 PV  .cP                 35.00:  Mud PV 
 RUN .                    1000:  Run Number 
 ROPA.m/hr               18.00:  ROP Avg 
 ROPN.m/hr                8.00:  ROP Min 
 ROPX.m/hr               23.00:  ROP Max 
 RPMA.rpm               150.00:  RPM Surface Avg 
 RPMN.rpm               120.00:  RPM Surface Min 
 RPMX.rpm               160.00:  RPM Surface Max 
 RRUN.                    L503:  Rig Run Number 
 RTIM.hr                  5.00:  Time Reaming 
 SAZI.deg               298.42:  Azm, Start 
 SDEP.m                3870.00:  Start Depth 
 SIDD.                      No:  Serv Intrp, DD 
 SINC.deg                69.57:  Inc, Start 
 SPPA.psig             5500.00:  SPP Avg 
 SPPN.psig             4400.00:  SPP Min 
 SPPX.psig             5800.00:  SPP Max 
 STIM.      15.29.39 09-Sep-21:  Start Time 
 SVCS.                 DD, MWD:  Services 
 SVER.                    9.20:  Sperry Version 
 TDAT.m                5260.00:  Tot Depth Attmp 
 TDDF.                      No:  Trip for DD 
 TDLG.m                1390.00:  Tot Depth Loggd 
 TFF .                      No:  Trip for Fail 
 TQAA.f-kp               22.00:  Torque Abs Avg 
 TQAN.f-kp               13.00:  Torque Abs Min 
 TQAX.f-kp               27.00:  Torque Abs Max 
 TRRT.°/30m               1.60:  Turn Rotating 
 MRT .                  EWR-M5:  Maximum Recorded Temperature 
 TTMX.degC               92.00:  Max Tool Temp 
 VS01.                12330975:  Virtual Str1 SN 
 VS02.                90658671:  Virtual Str2 SN 
 VS03.                90658508:  Virtual Str3 SN 
 VS04.                90660974:  Virtual Str4 SN 
 VS05.                90654675:  Virtual Str5 SN 
 WBMN.klb                15.00:  WOB Min 
 WITN.     Alexander Yadullayev:  Customer Rep 
 WITN.           Adil Mammadov:  Customer Rep 2 
 WOBA.klb                17.00:  WOB Avg 
 WOBX.klb                18.00:  WOB Max 
 YP  .lhf2               31.00:  Yield Point 
~Curve Information Block
#MNEM.UNIT                 API CODE     Curve Description
#---------               -----------    ---------------------------
 TIME.HHMMSS            00 000 000 000:  GT Time & Date
 GTDEPTH.m              00 000 000 000:  GT Depth
 GTPQH.psia             00 000 000 000:  GT HR Quartz Pressure
 GTTQ.degC              00 000 000 000:  GT Quartz Temperature
 GTTN.NONE              00 000 000 000:  GT Test Number
 GTET.sec               00 000 000 000:  GT Elapsed Test Time
 GTTVD.m                00 000 000 000:  GT True Vertical Depth
#Other Information
#
#WARRANTY: Halliburton will use its best efforts to furnish customers with 
#accurate information and interpretations that are part of, and incident to, the services 
#provided.  However, Halliburton cannot and does not warrant the accuracy 
#or correctness of such information and interpretations.  Under no circumstances should any 
#such information or interpretation be relied upon as the sole basis for any drilling, 
#completion, production, or financial decision or any procedure involving any risk to the 
#safety of any drilling venture, drilling rig or its crew or any other third party.  The 
#Customer has full responsibility for all drilling, completion and production operation.  
#Halliburton makes no representations or warranties, either expressed or 
#implied, including, but not limited to, the implied warranties of merchantability or fitness 
#for a particular purpose, with respect to the services rendered.  In no event will 
#Halliburton be liable for failure to obtain any particular results or for 
#any damages, including, but not limited to, indirect, special or consequential damages, 
#resulting from the use of any information or interpretation provided by Halliburton.
#
~A           TIME           GTDEPTH  GTPQH  GTTQ  GTTN  GTET   GTTVD  
# ...
   11:37:00.771.17-Sep-2021 4887.00 5435.33 77.25 9.00 230.03 2528.65
   11:37:00.971.17-Sep-2021 4887.00 5435.33 77.25 9.00 230.23 2528.65
   11:37:01.171.17-Sep-2021 4887.00 5435.08 77.25 9.00 230.43 2528.65
   11:37:01.371.17-Sep-2021 4887.00 5435.56 77.25 9.00 230.63 2528.65
   11:37:01.571.17-Sep-2021 4887.00 5435.71 77.25 9.00 230.83 2528.65
   11:37:01.771.17-Sep-2021 4887.00 5435.51 77.25 9.00 231.03 2528.65
   11:37:01.971.17-Sep-2021 4887.00 5435.51 77.25 9.00 231.23 2528.65
   11:37:02.171.17-Sep-2021 4887.00 5438.39 77.25 9.00 231.43 2528.65
   11:37:02.371.17-Sep-2021 4887.00 5435.35 77.25 9.00 231.63 2528.65
   11:37:02.571.17-Sep-2021 4887.00 5435.79 77.25 9.00 231.83 2528.65
   11:37:02.771.17-Sep-2021 4887.00 5435.47 77.25 9.00 232.03 2528.65
   11:37:02.971.17-Sep-2021 4887.00 5435.47 77.25 9.00 232.23 2528.65
   11:37:03.171.17-Sep-2021 4887.00 5435.93 77.25 9.00 232.43 2528.65
   11:37:03.371.17-Sep-2021 4887.00 5435.28 77.25 9.00 232.63 2528.65
   11:37:03.571.17-Sep-2021 4887.00 5435.55 77.25 9.00 232.83 2528.65
   11:37:03.771.17-Sep-2021 4887.00 5435.45 77.25 9.00 233.03 2528.65
   11:37:03.971.17-Sep-2021 4887.00 5435.45 77.25 9.00 233.23 2528.65
   11:37:04.171.17-Sep-2021 4887.00 5434.99 77.25 9.00 233.43 2528.65
   11:37:04.371.17-Sep-2021 4887.00 5435.15 77.25 9.00 233.63 2528.65
   11:37:04.571.17-Sep-2021 4887.00 5435.39 77.25 9.00 233.83 2528.65
   11:37:04.771.17-Sep-2021 4887.00 5435.39 77.25 9.00 234.03 2528.65
   11:37:04.971.17-Sep-2021 4887.00 5435.39 77.25 9.00 234.23 2528.65
   11:37:05.171.17-Sep-2021 4887.00 5435.33 77.25 9.00 234.43 2528.65
   11:37:05.371.17-Sep-2021 4887.00 5435.52 77.25 9.00 234.63 2528.65
   11:37:05.571.17-Sep-2021 4887.00 5436.10 77.25 9.00 234.83 2528.65
   11:37:05.771.17-Sep-2021 4887.00 5437.46 77.25 9.00 235.03 2528.65
   11:37:05.971.17-Sep-2021 4887.00 5437.46 77.25 9.00 235.23 2528.65
   11:37:06.171.17-Sep-2021 4887.00 5435.55 77.25 9.00 235.43 2528.65
   11:37:06.371.17-Sep-2021 4887.00 5435.94 77.25 9.00 235.63 2528.65
   11:37:06.571.17-Sep-2021 4887.00 5436.55 77.25 9.00 235.83 2528.65
   11:37:06.771.17-Sep-2021 4887.00 5438.35 77.25 9.00 236.03 2528.65
   11:37:06.971.17-Sep-2021 4887.00 5438.35 77.25 9.00 236.23 2528.65
   11:37:07.171.17-Sep-2021 4887.00 5435.22 77.25 9.00 236.43 2528.65
   11:37:07.371.17-Sep-2021 4887.00 5435.31 77.25 9.00 236.63 2528.65
   11:37:07.571.17-Sep-2021 4887.00 5436.47 77.25 9.00 236.83 2528.65
   11:37:07.771.17-Sep-2021 4887.00 5436.51 77.25 9.00 237.03 2528.65
   11:37:07.971.17-Sep-2021 4887.00 5436.51 77.25 9.00 237.23 2528.65
   11:37:08.172.17-Sep-2021 4887.00 5435.21 77.25 9.00 237.43 2528.65
   11:37:08.372.17-Sep-2021 4887.00 5435.30 77.25 9.00 237.63 2528.65
   11:37:08.572.17-Sep-2021 4887.00 5438.17 77.25 9.00 237.83 2528.65
   11:37:08.772.17-Sep-2021 4887.00 5434.18 77.25 9.00 238.03 2528.65
   11:37:08.972.17-Sep-2021 4887.00 5434.18 77.25 9.00 238.23 2528.65
   11:37:09.172.17-Sep-2021 4887.00 5435.09 77.25 9.00 238.43 2528.65
   11:37:09.372.17-Sep-2021 4887.00 5435.69 77.25 9.00 238.63 2528.65
   11:37:09.572.17-Sep-2021 4887.00 5434.89 77.25 9.00 238.83 2528.65
   11:37:09.772.17-Sep-2021 4887.00 5434.71 77.25 9.00 239.03 2528.65
   11:37:09.972.17-Sep-2021 4887.00 5434.71 77.25 9.00 239.23 2528.65
   11:37:10.172.17-Sep-2021 4887.00 5435.21 77.25 9.00 239.43 2528.65
   11:37:10.372.17-Sep-2021 4887.00 5434.94 77.25 9.00 239.63 2528.65
   11:37:10.572.17-Sep-2021 4887.00 5434.74 77.25 9.00 239.83 2528.65
   11:37:10.772.17-Sep-2021 4887.00 5435.14 77.25 9.00 240.03 2528.65
   11:37:10.972.17-Sep-2021 4887.00 5435.14 77.25 9.00 240.23 2528.65
   11:37:11.172.17-Sep-2021 4887.00 5435.37 77.25 9.00 240.43 2528.65
   11:37:11.372.17-Sep-2021 4887.00 5435.15 77.25 9.00 240.63 2528.65
   11:37:11.572.17-Sep-2021 4887.00 5435.37 77.25 9.00 240.83 2528.65
   11:37:11.772.17-Sep-2021 4887.00 5438.43 77.25 9.00 241.03 2528.65
   11:37:11.972.17-Sep-2021 4887.00 5438.43 77.25 9.00 241.23 2528.65
   11:37:12.172.17-Sep-2021 4887.00 5435.23 77.25 9.00 241.43 2528.65
   11:37:12.372.17-Sep-2021 4887.00 5435.44 77.25 9.00 241.63 2528.65
   11:37:12.572.17-Sep-2021 4887.00 5436.41 77.25 9.00 241.83 2528.65
   11:37:12.772.17-Sep-2021 4887.00 5435.29 77.25 9.00 242.03 2528.65
   11:37:12.972.17-Sep-2021 4887.00 5435.29 77.25 9.00 242.23 2528.65
   11:37:13.172.17-Sep-2021 4887.00 5435.34 77.25 9.00 242.43 2528.65
   11:37:13.372.17-Sep-2021 4887.00 5435.02 77.25 9.00 242.63 2528.65
   11:37:13.572.17-Sep-2021 4887.00 5434.72 77.25 9.00 242.83 2528.65
   11:37:13.772.17-Sep-2021 4887.00 5434.70 77.25 9.00 243.03 2528.65
   11:37:13.972.17-Sep-2021 4887.00 5434.70 77.25 9.00 243.23 2528.65
   11:37:14.172.17-Sep-2021 4887.00 5435.25 77.25 9.00 243.43 2528.65
   11:37:14.372.17-Sep-2021 4887.00 5435.02 77.25 9.00 243.63 2528.65
   11:37:14.572.17-Sep-2021 4887.00 5434.91 77.25 9.00 243.83 2528.65
   11:37:14.772.17-Sep-2021 4887.00 5435.07 77.25 9.00 244.03 2528.65
   11:37:14.972.17-Sep-2021 4887.00 5435.07 77.25 9.00 244.23 2528.65
   11:37:15.172.17-Sep-2021 4887.00 5439.17 77.25 9.00 244.43 2528.65
   11:37:15.372.17-Sep-2021 4887.00 5433.75 77.25 9.00 244.63 2528.65
   11:37:15.572.17-Sep-2021 4887.00 5435.34 77.25 9.00 244.83 2528.65
   11:37:15.772.17-Sep-2021 4887.00 5435.17 77.25 9.00 245.03 2528.65
   11:37:15.972.17-Sep-2021 4887.00 5435.17 77.25 9.00 245.23 2528.65
   11:37:16.172.17-Sep-2021 4887.00 5437.83 77.25 9.00 245.43 2528.65
   11:37:16.372.17-Sep-2021 4887.00 5434.18 77.25 9.00 245.63 2528.65
   11:37:16.572.17-Sep-2021 4887.00 5435.37 77.25 9.00 245.83 2528.65
   11:37:16.772.17-Sep-2021 4887.00 5434.68 77.25 9.00 246.03 2528.65
   11:37:16.972.17-Sep-2021 4887.00 5434.68 77.25 9.00 246.23 2528.65
   11:37:17.173.17-Sep-2021 4887.00 5438.80 77.25 9.00 246.43 2528.65
   11:37:17.373.17-Sep-2021 4887.00 5432.97 77.25 9.00 246.63 2528.65
   11:37:17.573.17-Sep-2021 4887.00 5435.04 77.25 9.00 246.83 2528.65
   11:37:17.773.17-Sep-2021 4887.00 5434.43 77.25 9.00 247.03 2528.65
   11:37:17.973.17-Sep-2021 4887.00 5434.43 77.25 9.00 247.23 2528.65
   11:37:18.173.17-Sep-2021 4887.00 5436.96 77.25 9.00 247.43 2528.65
   11:37:18.373.17-Sep-2021 4887.00 5434.09 77.25 9.00 247.63 2528.65
   11:37:18.573.17-Sep-2021 4887.00 5435.03 77.25 9.00 247.83 2528.65
   11:37:18.773.17-Sep-2021 4887.00 5434.83 77.25 9.00 248.03 2528.65
   11:37:18.973.17-Sep-2021 4887.00 5434.83 77.25 9.00 248.23 2528.65
   11:37:19.173.17-Sep-2021 4887.00 5434.13 77.25 9.00 248.43 2528.65
   11:37:19.373.17-Sep-2021 4887.00 5434.49 77.25 9.00 248.63 2528.65
   11:37:19.573.17-Sep-2021 4887.00 5435.20 77.25 9.00 248.83 2528.65
   11:37:19.773.17-Sep-2021 4887.00 5434.89 77.25 9.00 249.03 2528.65
   11:37:19.973.17-Sep-2021 4887.00 5434.89 77.25 9.00 249.23 2528.65
   11:37:20.173.17-Sep-2021 4887.00 5434.69 77.25 9.00 249.43 2528.65
   11:37:20.373.17-Sep-2021 4887.00 5435.04 77.25 9.00 249.63 2528.65
   11:37:20.573.17-Sep-2021 4887.00 5435.24 77.25 9.00 249.83 2528.65
   11:37:20.773.17-Sep-2021 4887.00 5435.01 77.25 9.00 250.03 2528.65
   11:37:20.973.17-Sep-2021 4887.00 5435.01 77.25 9.00 250.23 2528.65
   11:37:21.173.17-Sep-2021 4887.00 5437.87 77.25 9.00 250.43 2528.65
   11:37:21.373.17-Sep-2021 4887.00 5435.18 77.25 9.00 250.63 2528.65
   11:37:21.573.17-Sep-2021 4887.00 5435.53 77.25 9.00 250.83 2528.65
   11:37:21.773.17-Sep-2021 4887.00 5435.23 77.25 9.00 251.03 2528.65
   11:37:21.973.17-Sep-2021 4887.00 5435.23 77.25 9.00 251.23 2528.65
   11:37:22.173.17-Sep-2021 4887.00 5435.59 77.25 9.00 251.43 2528.65
   11:37:22.373.17-Sep-2021 4887.00 5434.99 77.25 9.00 251.63 2528.65
   11:37:22.573.17-Sep-2021 4887.00 5435.16 77.25 9.00 251.83 2528.65
   11:37:22.773.17-Sep-2021 4887.00 5434.94 77.25 9.00 252.03 2528.65
   11:37:22.973.17-Sep-2021 4887.00 5434.94 77.25 9.00 252.23 2528.65
   11:37:23.173.17-Sep-2021 4887.00 5434.61 77.25 9.00 252.43 2528.65
   11:37:23.373.17-Sep-2021 4887.00 5434.69 77.25 9.00 252.63 2528.65
   11:37:23.573.17-Sep-2021 4887.00 5435.02 77.25 9.00 252.83 2528.65
