~Version Information
 VERS.                  2.0:   CWLS log ASCII Standard -VERSION 2.0
 WRAP.                   NO:   One line per depth step
~Well Information Block
#MNEM.UNIT     VALUE/NAME     DESCRIPTION
#---------     -----------    ---------------------------
 STRT.S             06:03:21 17-Sep-21: START TIME 06:03:21 17-Sep-21
 STOP.S             06:11:58 17-Sep-21: STOP TIME  06:11:58 17-Sep-21
 STEP.S                   0.00: STEP TIME
 NULL.                 -999.25: NULL VALUE
 DFWT.                        :  DIST FWL TEXT
 DFST.                        :  DIST FSL TEXT
 DMF .             Drill Floor:  DRILL MEAS FROM
 STIM.      10.59.12 05-Jul-21:  START TIME
 DATE.      10.59.12 10-Sep-21:  END TIME
 SPUD.               05-Jul-21:  SPUD DATE
 NREF.                    Grid:  NORTH REFERENCE
 HPTY.       Minimum Curvature:  HOLE POS TYPE
 DMOD.             Drill Model:  DRILL MOD DESC
 SVYD.                  Survey:  SURVEY DESC
 ILTD.               Lithology:  INTERP LTH DESC
 FTOP.          Formation Tops:  FORM TOPS DESC
 RIG .                     DWG:  RIG NAME
 PDAT.          Mean Sea Level:  PERMANENT DATUM
 FLD .                     ACG:  FIELD NAME
 SON .        AZ-XX-0907115008:  JOB NUMBER
 CTRY.              Azerbaijan:  COUNTRY NAME
 WELL.                    E35A:  WELL NAME
 SRVC.          TURAN DRILLING:  CONTRACTOR
 COMP.     BP Exploration (Caspian Sea LTD):  COMPANY
 UWI .                     N/A:  UNIQUE WELL IDENTIFIER
 API .                     N/A:  API NUMBER
 MDS .        Operator Entered:  MAG DATA SOURCE
 BASE.              Azerbaijan:  LOGGING EQUIPMENT BASE LOCATION
 REGN.                   EESSA:  REGION
 PROV.                    Baku:  PROVINCE
 STAT.                    Baku:  STATE NAME
 MWDS.                    Baku:  MWD SHOP
 JOBN.        AZ-XX-0907115008:  JOB TICKET NUMB
 DOE .                     N/A:  DOE NUMBER
 DCON.         Sperry Drilling:  DIRECTNL CONTR
 UNIT.                     N/A:  LOGGING EQUIPMENT ID
 WTYP.                Deviated:  WELL TYPE
 CNTY.                        :  COUNTY
 LOC .                        :  LOCATION
 LMF .             Drill Floor:  LOG MEASURED FROM
 TVDS.m                  43.16:  TVDSS CORRECTN
 LATI.deg                40.17:  LATITUDE
 LONG.deg                51.17:  LONGITUDE
 WHNS.m                  10.51:  WELL HEAD N/S
 WHEW.m                 -14.82:  WELL HEAD E/W
 UTMX.m              514336.92:  UTM X
 UTMY.m             4448618.56:  UTM Y
 DFWL.m                   0.00:  DISTANCE FWL
 DFSL.m                   0.00:  DISTANCE FSL
 SDEP.m                 849.00:  START DEPTH
 TDD .m                2862.00:  TOTAL DEPTH (DRILLER)
 VSDR.deg               292.10:  VERT SEC DIRECT
 GVFD.g                   1.00:  GRAVITY FIELD
 MFLD.nT              50382.00:  MAGNETIC FIELD
 MDIP.deg                59.68:  MAGNETIC DIP
 MDEC.deg                 6.66:  MAGNETIC DECL
 GRDC.deg                 0.09:  GRID CORRECTION
 AZTC.deg                 6.57:  AZM TOTAL CORR
 EPD .m                   0.00:  ELEVATION
 EGL .m                   0.00:  GROUND ELEVATION
 WDMS.m                 176.20:  WD ELEV
 APD .m                  43.16:  DEPTH ABOVE PD
 DEP .m                 363.42:  DEPTH
 AGAP.m                  43.16:  AIR GAP
 VSEW.m                 -14.82:  VERT SEC E/W
 VSNS.m                  10.51:  VERT SEC N/S
 EKB .m                  43.16:  KB ELEVATION
 EDF .m                  43.16:  DF ELEVATION
 TDL .m                1390.00:  TOTAL DEPTH (LOGGER)
 VSC .                       0:  VS TO CLOSURE
 MAGU.                 1855871:  MAGUTM CHECKSUM
~Parameter Information Block
#MNEM.UNIT       Value        Description
#---------     -----------    ---------------------------
 AV  .mps                 2.28:  Ann Velocity 
 AVMX.mps                 2.67:  Max Ann Veloc 
 AZIF.deg               305.00:  Azm, Final 
 BHAT.        Rotary Steerable:  BHA Type 
 BROT.°/30m               0.45:  Build Rotating 
 BS  .in                 12.25:  Bit Size 
 BSZ .in                 12.25:  Bit Size 
 BTPL.psig              600.00:  Bit Press Loss 
 CABU.                     Yes:  Customer Abuse 
 COMM.                     $t:  Run Comments 1 
 TCS .hr                150.00:  Time Ciculation Ended 
 CV  .mps                 1.24:  Crit Velocity 
 CVMX.mps                 1.66:  Max Crit Veloc 
 DD1 .         Intigam Rahimov:  Direct Drillr 1 
 DD2 .            Azer Ravavov:  Direct Drillr 2 
 DD3 .              Samir Abas:  Direct Drillr 3 
 DDSV.               Geo-Pilot:  DD Service 
 DEFF.%                 100.00:  % Det Eff 
 DLRX.°/30m               1.57:  Dogleg Rot Max 
 DLSO.°/30m               0.00:  Dogleg Oriented 
 DLSX.°/30m               0.00:  Dogleg Str Max 
 DRET.      20.28.06 17-Sep-21:  Drill End Time 
 DRST.      20.27.35 10-Sep-21:  Drill Start Tim 
 DTIM.hr                 54.00:  Time Drilling 
 EDEP.m                5260.00:  End Depth 
 ENG1.      Bakhtiyar Jabbarli:  Engineer 1 
 ENG2.      Natik Hasanaghayev:  Engineer 2 
 ENG3.           Royal Nasirov:  Engineer 3 
 ETIM.      20.27.55 18-Sep-21:  End Time 
 FLOI.gpm              1100.00:  Flow In 
 FLON.gpm               800.00:  Flow In Min 
 FLOS.cptm                0.00:  Fluid Loss 
 FLOX.gpm              1200.00:  Flow In Max 
 DFT .        Mineral Oil Base:  Mud Type 
 HPRE.                      No:  High Pressure 
 HTEM.                      No:  High Temp 
 HYDO.m                   1.80:  Hydro Offset 
 IFIN.deg                72.31:  Inc, Final 
 IMAX.deg                72.36:  Inc Max 
 IMIN.deg                69.36:  Inc Min 
 IMND.m                4192.96:  Inc Min Depth 
 IMXD.m                5128.36:  Inc Max Depth 
 JARR.                      No:  Jarring 
 LETM.      20.29.00 17-Sep-21:  Log End Time 
 LOST.hr                     0:  Lost Rig Time 
 LSTM.      20.27.00 10-Sep-21:  Log Start Time 
 MDCL.ppm            227000.00:  Mud Chlorides 
 MDES.     Inversion Oil/Synthetic:  Mud Desc 
 DFD .sg                  1.45:  Mud Density 
 MDMN.sg                  1.45:  Dens Mud Min 
 MDMX.sg                  1.45:  Dens Mud Max 
 MOIL.                    70.5:  Run Mud Oil % 
 MOWR.                   71:29:  Run Mud OWR 
 MSND.                     0.3:  Run Mud Sand % 
 MSOL.                    19.8:  Run Mud Solids% 
 DFV .spqt               80.00:  Mud Viscosity 
 MWOD.in                  8.00:  MWD Tool OD 
 MWSI.                     Yes:  Serv Intrp, MWD 
 OTIM.hr                180.00:  Time Operating 
 PCON.           Look Like New:  Pad Condition 
 PMAX.psia             9910.94:  Press Op, Max 
 PV  .cP                 35.00:  Mud PV 
 RUN .                    1000:  Run Number 
 ROPA.m/hr               18.00:  ROP Avg 
 ROPN.m/hr                8.00:  ROP Min 
 ROPX.m/hr               23.00:  ROP Max 
 RPMA.rpm               150.00:  RPM Surface Avg 
 RPMN.rpm               120.00:  RPM Surface Min 
 RPMX.rpm               160.00:  RPM Surface Max 
 RRUN.                    L503:  Rig Run Number 
 RTIM.hr                  5.00:  Time Reaming 
 SAZI.deg               298.42:  Azm, Start 
 SDEP.m                3870.00:  Start Depth 
 SIDD.                      No:  Serv Intrp, DD 
 SINC.deg                69.57:  Inc, Start 
 SPPA.psig             5500.00:  SPP Avg 
 SPPN.psig             4400.00:  SPP Min 
 SPPX.psig             5800.00:  SPP Max 
 STIM.      15.29.39 09-Sep-21:  Start Time 
 SVCS.                 DD, MWD:  Services 
 SVER.                    9.20:  Sperry Version 
 TDAT.m                5260.00:  Tot Depth Attmp 
 TDDF.                      No:  Trip for DD 
 TDLG.m                1390.00:  Tot Depth Loggd 
 TFF .                      No:  Trip for Fail 
 TQAA.f-kp               22.00:  Torque Abs Avg 
 TQAN.f-kp               13.00:  Torque Abs Min 
 TQAX.f-kp               27.00:  Torque Abs Max 
 TRRT.°/30m               1.60:  Turn Rotating 
 MRT .                  EWR-M5:  Maximum Recorded Temperature 
 TTMX.degC               92.00:  Max Tool Temp 
 VS01.                12330975:  Virtual Str1 SN 
 VS02.                90658671:  Virtual Str2 SN 
 VS03.                90658508:  Virtual Str3 SN 
 VS04.                90660974:  Virtual Str4 SN 
 VS05.                90654675:  Virtual Str5 SN 
 WBMN.klb                15.00:  WOB Min 
 WITN.     Alexander Yadullayev:  Customer Rep 
 WITN.           Adil Mammadov:  Customer Rep 2 
 WOBA.klb                17.00:  WOB Avg 
 WOBX.klb                18.00:  WOB Max 
 YP  .lhf2               31.00:  Yield Point 
~Curve Information Block
#MNEM.UNIT                 API CODE     Curve Description
#---------               -----------    ---------------------------
 TIME.HHMMSS            00 000 000 000:  GT Time & Date
 GTDEPTH.m              00 000 000 000:  GT Depth
 GTPQH.psia             00 000 000 000:  GT HR Quartz Pressure
 GTTQ.degC              00 000 000 000:  GT Quartz Temperature
 GTTN.NONE              00 000 000 000:  GT Test Number
 GTET.sec               00 000 000 000:  GT Elapsed Test Time
 GTTVD.m                00 000 000 000:  GT True Vertical Depth
#Other Information
#
#WARRANTY: Halliburton will use its best efforts to furnish customers with 
#accurate information and interpretations that are part of, and incident to, the services 
#provided.  However, Halliburton cannot and does not warrant the accuracy 
#or correctness of such information and interpretations.  Under no circumstances should any 
#such information or interpretation be relied upon as the sole basis for any drilling, 
#completion, production, or financial decision or any procedure involving any risk to the 
#safety of any drilling venture, drilling rig or its crew or any other third party.  The 
#Customer has full responsibility for all drilling, completion and production operation.  
#Halliburton makes no representations or warranties, either expressed or 
#implied, including, but not limited to, the implied warranties of merchantability or fitness 
#for a particular purpose, with respect to the services rendered.  In no event will 
#Halliburton be liable for failure to obtain any particular results or for 
#any damages, including, but not limited to, indirect, special or consequential damages, 
#resulting from the use of any information or interpretation provided by Halliburton.
#
~A           TIME           GTDEPTH  GTPQH  GTTQ  GTTN  GTET   GTTVD  
# ...
   06:04:53.635.17-Sep-2021 5057.50 5545.01 80.00 6.00  91.98 2583.80
   06:04:53.835.17-Sep-2021 5057.50 5545.01 80.00 6.00  92.18 2583.80
   06:04:54.035.17-Sep-2021 5057.50 5544.97 80.00 6.00  92.38 2583.80
   06:04:54.234.17-Sep-2021 5057.50 5548.09 79.99 6.00  92.58 2583.80
   06:04:54.434.17-Sep-2021 5057.50 5543.78 79.99 6.00  92.78 2583.80
   06:04:54.634.17-Sep-2021 5057.50 5546.92 79.99 6.00  92.98 2583.80
   06:04:54.834.17-Sep-2021 5057.50 5546.92 79.99 6.00  93.18 2583.80
   06:04:55.034.17-Sep-2021 5057.50 5544.79 79.99 6.00  93.38 2583.80
   06:04:55.234.17-Sep-2021 5057.50 5545.17 79.99 6.00  93.58 2583.80
   06:04:55.434.17-Sep-2021 5057.50 5544.35 79.99 6.00  93.78 2583.80
   06:04:55.634.17-Sep-2021 5057.50 5544.30 79.99 6.00  93.98 2583.80
   06:04:55.834.17-Sep-2021 5057.50 5544.30 79.99 6.00  94.18 2583.80
   06:04:56.034.17-Sep-2021 5057.50 5544.15 79.99 6.00  94.38 2583.80
   06:04:56.234.17-Sep-2021 5057.50 5544.16 79.99 6.00  94.58 2583.80
   06:04:56.434.17-Sep-2021 5057.50 5544.28 79.99 6.00  94.78 2583.80
   06:04:56.634.17-Sep-2021 5057.50 5544.23 79.99 6.00  94.98 2583.80
   06:04:56.834.17-Sep-2021 5057.50 5544.23 79.99 6.00  95.18 2583.80
   06:04:57.034.17-Sep-2021 5057.50 5544.76 79.99 6.00  95.38 2583.80
   06:04:57.234.17-Sep-2021 5057.50 5544.68 79.99 6.00  95.58 2583.80
   06:04:57.434.17-Sep-2021 5057.50 5545.10 79.99 6.00  95.78 2583.80
   06:04:57.634.17-Sep-2021 5057.50 5548.80 79.99 6.00  95.98 2583.80
   06:04:57.834.17-Sep-2021 5057.50 5548.80 79.99 6.00  96.18 2583.80
   06:04:58.034.17-Sep-2021 5057.50 5546.13 79.99 6.00  96.38 2583.80
   06:04:58.234.17-Sep-2021 5057.50 5545.30 79.99 6.00  96.58 2583.80
   06:04:58.434.17-Sep-2021 5057.50 5545.12 79.99 6.00  96.78 2583.80
   06:04:58.634.17-Sep-2021 5057.50 5544.80 79.99 6.00  96.98 2583.80
   06:04:58.834.17-Sep-2021 5057.50 5544.80 79.99 6.00  97.18 2583.80
   06:04:59.033.17-Sep-2021 5057.50 5548.09 79.99 6.00  97.38 2583.80
   06:04:59.233.17-Sep-2021 5057.50 5541.69 79.99 6.00  97.58 2583.80
   06:04:59.433.17-Sep-2021 5057.50 5545.15 79.99 6.00  97.78 2583.80
   06:04:59.633.17-Sep-2021 5057.50 5544.12 79.98 6.00  97.98 2583.80
   06:04:59.833.17-Sep-2021 5057.50 5544.12 79.98 6.00  98.18 2583.80
   06:05:00.033.17-Sep-2021 5057.50 5543.73 79.98 6.00  98.38 2583.80
   06:05:00.233.17-Sep-2021 5057.50 5545.12 79.98 6.00  98.58 2583.80
   06:05:00.433.17-Sep-2021 5057.50 5544.42 79.98 6.00  98.78 2583.80
   06:05:00.633.17-Sep-2021 5057.50 5543.54 79.98 6.00  98.98 2583.80
   06:05:00.833.17-Sep-2021 5057.50 5543.54 79.98 6.00  99.18 2583.80
   06:05:01.033.17-Sep-2021 5057.50 5543.73 79.98 6.00  99.38 2583.80
   06:05:01.233.17-Sep-2021 5057.50 5544.09 79.98 6.00  99.58 2583.80
   06:05:01.433.17-Sep-2021 5057.50 5544.90 79.98 6.00  99.78 2583.80
   06:05:01.633.17-Sep-2021 5057.50 5544.41 79.98 6.00  99.98 2583.80
   06:05:01.833.17-Sep-2021 5057.50 5544.41 79.98 6.00 100.18 2583.80
   06:05:02.033.17-Sep-2021 5057.50 5543.82 79.98 6.00 100.38 2583.80
   06:05:02.233.17-Sep-2021 5057.50 5544.06 79.98 6.00 100.58 2583.80
   06:05:02.433.17-Sep-2021 5057.50 5543.87 79.98 6.00 100.78 2583.80
   06:05:02.633.17-Sep-2021 5057.50 5544.33 79.98 6.00 100.98 2583.80
   06:05:02.833.17-Sep-2021 5057.50 5544.33 79.98 6.00 101.18 2583.80
   06:05:03.033.17-Sep-2021 5057.50 5544.68 79.98 6.00 101.38 2583.80
   06:05:03.233.17-Sep-2021 5057.50 5544.36 79.98 6.00 101.58 2583.80
   06:05:03.433.17-Sep-2021 5057.50 5544.46 79.98 6.00 101.78 2583.80
   06:05:03.632.17-Sep-2021 5057.50 5544.60 79.98 6.00 101.98 2583.80
   06:05:03.832.17-Sep-2021 5057.50 5544.60 79.98 6.00 102.18 2583.80
   06:05:04.032.17-Sep-2021 5057.50 5547.77 79.98 6.00 102.38 2583.80
   06:05:04.232.17-Sep-2021 5057.50 5543.66 79.98 6.00 102.58 2583.80
   06:05:04.432.17-Sep-2021 5057.50 5546.57 79.98 6.00 102.78 2583.80
   06:05:04.632.17-Sep-2021 5057.50 5544.39 79.98 6.00 102.98 2583.80
   06:05:04.832.17-Sep-2021 5057.50 5544.39 79.98 6.00 103.18 2583.80
   06:05:05.032.17-Sep-2021 5057.50 5544.56 79.97 6.00 103.38 2583.80
   06:05:05.232.17-Sep-2021 5057.50 5543.73 79.97 6.00 103.58 2583.80
   06:05:05.432.17-Sep-2021 5057.50 5543.75 79.97 6.00 103.78 2583.80
   06:05:05.632.17-Sep-2021 5057.50 5543.70 79.97 6.00 103.98 2583.80
   06:05:05.832.17-Sep-2021 5057.50 5543.70 79.97 6.00 104.18 2583.80
   06:05:06.032.17-Sep-2021 5057.50 5543.84 79.97 6.00 104.38 2583.80
   06:05:06.232.17-Sep-2021 5057.50 5544.05 79.97 6.00 104.58 2583.80
   06:05:06.432.17-Sep-2021 5057.50 5544.07 79.97 6.00 104.78 2583.80
   06:05:06.632.17-Sep-2021 5057.50 5544.14 79.97 6.00 104.98 2583.80
   06:05:06.832.17-Sep-2021 5057.50 5544.14 79.97 6.00 105.18 2583.80
   06:05:07.032.17-Sep-2021 5057.50 5544.42 79.97 6.00 105.38 2583.80
   06:05:07.232.17-Sep-2021 5057.50 5544.75 79.97 6.00 105.58 2583.80
   06:05:07.432.17-Sep-2021 5057.50 5548.51 79.97 6.00 105.78 2583.80
   06:05:07.632.17-Sep-2021 5057.50 5542.76 79.97 6.00 105.98 2583.80
   06:05:07.832.17-Sep-2021 5057.50 5542.76 79.97 6.00 106.18 2583.80
   06:05:08.032.17-Sep-2021 5057.50 5545.02 79.97 6.00 106.38 2583.80
   06:05:08.232.17-Sep-2021 5057.50 5544.68 79.97 6.00 106.58 2583.80
   06:05:08.431.17-Sep-2021 5057.50 5544.24 79.97 6.00 106.78 2583.80
   06:05:08.631.17-Sep-2021 5057.50 5543.96 79.97 6.00 106.98 2583.80
   06:05:08.831.17-Sep-2021 5057.50 5543.96 79.97 6.00 107.18 2583.80
   06:05:09.031.17-Sep-2021 5057.50 5541.44 79.97 6.00 107.38 2583.80
   06:05:09.231.17-Sep-2021 5057.50 5544.99 79.97 6.00 107.58 2583.80
   06:05:09.431.17-Sep-2021 5057.50 5544.12 79.97 6.00 107.78 2583.80
   06:05:09.631.17-Sep-2021 5057.50 5546.38 79.97 6.00 107.98 2583.80
   06:05:09.831.17-Sep-2021 5057.50 5546.38 79.97 6.00 108.18 2583.80
   06:05:10.031.17-Sep-2021 5057.50 5544.77 79.97 6.00 108.38 2583.80
   06:05:10.231.17-Sep-2021 5057.50 5544.09 79.96 6.00 108.58 2583.80
   06:05:10.431.17-Sep-2021 5057.50 5543.15 79.96 6.00 108.78 2583.80
   06:05:10.631.17-Sep-2021 5057.50 5546.49 79.96 6.00 108.98 2583.80
   06:05:10.831.17-Sep-2021 5057.50 5546.49 79.96 6.00 109.18 2583.80
   06:05:11.031.17-Sep-2021 5057.50 5543.56 79.96 6.00 109.38 2583.80
   06:05:11.231.17-Sep-2021 5057.50 5543.56 79.96 6.00 109.58 2583.80
   06:05:11.431.17-Sep-2021 5057.50 5544.23 79.96 6.00 109.78 2583.80
   06:05:11.631.17-Sep-2021 5057.50 5543.98 79.96 6.00 109.98 2583.80
   06:05:11.831.17-Sep-2021 5057.50 5543.98 79.96 6.00 110.18 2583.80
   06:05:12.031.17-Sep-2021 5057.50 5544.08 79.96 6.00 110.38 2583.80
   06:05:12.231.17-Sep-2021 5057.50 5543.79 79.96 6.00 110.58 2583.80
   06:05:12.431.17-Sep-2021 5057.50 5544.27 79.96 6.00 110.78 2583.80
   06:05:12.631.17-Sep-2021 5057.50 5544.01 79.96 6.00 110.98 2583.80
   06:05:12.831.17-Sep-2021 5057.50 5544.01 79.96 6.00 111.18 2583.80
   06:05:13.030.17-Sep-2021 5057.50 5544.08 79.96 6.00 111.38 2583.80
   06:05:13.230.17-Sep-2021 5057.50 5544.36 79.96 6.00 111.58 2583.80
   06:05:13.430.17-Sep-2021 5057.50 5544.55 79.96 6.00 111.78 2583.80
   06:05:13.630.17-Sep-2021 5057.50 5544.49 79.96 6.00 111.98 2583.80
   06:05:13.830.17-Sep-2021 5057.50 5544.49 79.96 6.00 112.18 2583.80
   06:05:14.030.17-Sep-2021 5057.50 5543.45 79.96 6.00 112.38 2583.80
   06:05:14.230.17-Sep-2021 5057.50 5546.46 79.96 6.00 112.58 2583.80
   06:05:14.430.17-Sep-2021 5057.50 5544.23 79.96 6.00 112.78 2583.80
   06:05:14.630.17-Sep-2021 5057.50 5544.25 79.96 6.00 112.98 2583.80
   06:05:14.830.17-Sep-2021 5057.50 5544.25 79.96 6.00 113.18 2583.80
   06:05:15.030.17-Sep-2021 5057.50 5543.73 79.96 6.00 113.38 2583.80
   06:05:15.230.17-Sep-2021 5057.50 5543.68 79.96 6.00 113.58 2583.80
   06:05:15.430.17-Sep-2021 5057.50 5543.64 79.96 6.00 113.78 2583.80
   06:05:15.630.17-Sep-2021 5057.50 5543.74 79.95 6.00 113.98 2583.80
   06:05:15.830.17-Sep-2021 5057.50 5543.74 79.95 6.00 114.18 2583.80
   06:05:16.030.17-Sep-2021 5057.50 5543.96 79.95 6.00 114.38 2583.80
   06:05:16.230.17-Sep-2021 5057.50 5543.99 79.95 6.00 114.58 2583.80
   06:05:16.430.17-Sep-2021 5057.50 5544.17 79.95 6.00 114.78 2583.80
