~Version Information
 VERS.                  2.0:   CWLS log ASCII Standard -VERSION 2.0
 WRAP.                   NO:   One line per depth step
~Well Information Block
#MNEM.UNIT     VALUE/NAME     DESCRIPTION
#---------     -----------    ---------------------------
 STRT.S             06:26:37 17-Sep-21: START TIME 06:26:37 17-Sep-21
 STOP.S             06:35:42 17-Sep-21: STOP TIME  06:35:42 17-Sep-21
 STEP.S                   0.00: STEP TIME
 NULL.                 -999.25: NULL VALUE
 DFWT.                        :  DIST FWL TEXT
 DFST.                        :  DIST FSL TEXT
 DMF .             Drill Floor:  DRILL MEAS FROM
 STIM.      10.59.12 05-Jul-21:  START TIME
 DATE.      10.59.12 10-Sep-21:  END TIME
 SPUD.               05-Jul-21:  SPUD DATE
 NREF.                    Grid:  NORTH REFERENCE
 HPTY.       Minimum Curvature:  HOLE POS TYPE
 DMOD.             Drill Model:  DRILL MOD DESC
 SVYD.                  Survey:  SURVEY DESC
 ILTD.               Lithology:  INTERP LTH DESC
 FTOP.          Formation Tops:  FORM TOPS DESC
 RIG .                     DWG:  RIG NAME
 PDAT.          Mean Sea Level:  PERMANENT DATUM
 FLD .                     ACG:  FIELD NAME
 SON .        AZ-XX-0907115008:  JOB NUMBER
 CTRY.              Azerbaijan:  COUNTRY NAME
 WELL.                    E35A:  WELL NAME
 SRVC.          TURAN DRILLING:  CONTRACTOR
 COMP.     BP Exploration (Caspian Sea LTD):  COMPANY
 UWI .                     N/A:  UNIQUE WELL IDENTIFIER
 API .                     N/A:  API NUMBER
 MDS .        Operator Entered:  MAG DATA SOURCE
 BASE.              Azerbaijan:  LOGGING EQUIPMENT BASE LOCATION
 REGN.                   EESSA:  REGION
 PROV.                    Baku:  PROVINCE
 STAT.                    Baku:  STATE NAME
 MWDS.                    Baku:  MWD SHOP
 JOBN.        AZ-XX-0907115008:  JOB TICKET NUMB
 DOE .                     N/A:  DOE NUMBER
 DCON.         Sperry Drilling:  DIRECTNL CONTR
 UNIT.                     N/A:  LOGGING EQUIPMENT ID
 WTYP.                Deviated:  WELL TYPE
 CNTY.                        :  COUNTY
 LOC .                        :  LOCATION
 LMF .             Drill Floor:  LOG MEASURED FROM
 TVDS.m                  43.16:  TVDSS CORRECTN
 LATI.deg                40.17:  LATITUDE
 LONG.deg                51.17:  LONGITUDE
 WHNS.m                  10.51:  WELL HEAD N/S
 WHEW.m                 -14.82:  WELL HEAD E/W
 UTMX.m              514336.92:  UTM X
 UTMY.m             4448618.56:  UTM Y
 DFWL.m                   0.00:  DISTANCE FWL
 DFSL.m                   0.00:  DISTANCE FSL
 SDEP.m                 849.00:  START DEPTH
 TDD .m                2862.00:  TOTAL DEPTH (DRILLER)
 VSDR.deg               292.10:  VERT SEC DIRECT
 GVFD.g                   1.00:  GRAVITY FIELD
 MFLD.nT              50382.00:  MAGNETIC FIELD
 MDIP.deg                59.68:  MAGNETIC DIP
 MDEC.deg                 6.66:  MAGNETIC DECL
 GRDC.deg                 0.09:  GRID CORRECTION
 AZTC.deg                 6.57:  AZM TOTAL CORR
 EPD .m                   0.00:  ELEVATION
 EGL .m                   0.00:  GROUND ELEVATION
 WDMS.m                 176.20:  WD ELEV
 APD .m                  43.16:  DEPTH ABOVE PD
 DEP .m                 363.42:  DEPTH
 AGAP.m                  43.16:  AIR GAP
 VSEW.m                 -14.82:  VERT SEC E/W
 VSNS.m                  10.51:  VERT SEC N/S
 EKB .m                  43.16:  KB ELEVATION
 EDF .m                  43.16:  DF ELEVATION
 TDL .m                1390.00:  TOTAL DEPTH (LOGGER)
 VSC .                       0:  VS TO CLOSURE
 MAGU.                 1855871:  MAGUTM CHECKSUM
~Parameter Information Block
#MNEM.UNIT       Value        Description
#---------     -----------    ---------------------------
 AV  .mps                 2.28:  Ann Velocity 
 AVMX.mps                 2.67:  Max Ann Veloc 
 AZIF.deg               305.00:  Azm, Final 
 BHAT.        Rotary Steerable:  BHA Type 
 BROT.°/30m               0.45:  Build Rotating 
 BS  .in                 12.25:  Bit Size 
 BSZ .in                 12.25:  Bit Size 
 BTPL.psig              600.00:  Bit Press Loss 
 CABU.                     Yes:  Customer Abuse 
 COMM.                     D5N:  Run Comments 1 
 TCS .hr                150.00:  Time Ciculation Ended 
 CV  .mps                 1.24:  Crit Velocity 
 CVMX.mps                 1.66:  Max Crit Veloc 
 DD1 .         Intigam Rahimov:  Direct Drillr 1 
 DD2 .            Azer Ravavov:  Direct Drillr 2 
 DD3 .              Samir Abas:  Direct Drillr 3 
 DDSV.               Geo-Pilot:  DD Service 
 DEFF.%                 100.00:  % Det Eff 
 DLRX.°/30m               1.57:  Dogleg Rot Max 
 DLSO.°/30m               0.00:  Dogleg Oriented 
 DLSX.°/30m               0.00:  Dogleg Str Max 
 DRET.      20.28.06 17-Sep-21:  Drill End Time 
 DRST.      20.27.35 10-Sep-21:  Drill Start Tim 
 DTIM.hr                 54.00:  Time Drilling 
 EDEP.m                5260.00:  End Depth 
 ENG1.      Bakhtiyar Jabbarli:  Engineer 1 
 ENG2.      Natik Hasanaghayev:  Engineer 2 
 ENG3.           Royal Nasirov:  Engineer 3 
 ETIM.      20.27.55 18-Sep-21:  End Time 
 FLOI.gpm              1100.00:  Flow In 
 FLON.gpm               800.00:  Flow In Min 
 FLOS.cptm                0.00:  Fluid Loss 
 FLOX.gpm              1200.00:  Flow In Max 
 DFT .        Mineral Oil Base:  Mud Type 
 HPRE.                      No:  High Pressure 
 HTEM.                      No:  High Temp 
 HYDO.m                   1.80:  Hydro Offset 
 IFIN.deg                72.31:  Inc, Final 
 IMAX.deg                72.36:  Inc Max 
 IMIN.deg                69.36:  Inc Min 
 IMND.m                4192.96:  Inc Min Depth 
 IMXD.m                5128.36:  Inc Max Depth 
 JARR.                      No:  Jarring 
 LETM.      20.29.00 17-Sep-21:  Log End Time 
 LOST.hr                     0:  Lost Rig Time 
 LSTM.      20.27.00 10-Sep-21:  Log Start Time 
 MDCL.ppm            227000.00:  Mud Chlorides 
 MDES.     Inversion Oil/Synthetic:  Mud Desc 
 DFD .sg                  1.45:  Mud Density 
 MDMN.sg                  1.45:  Dens Mud Min 
 MDMX.sg                  1.45:  Dens Mud Max 
 MOIL.                    70.5:  Run Mud Oil % 
 MOWR.                   71:29:  Run Mud OWR 
 MSND.                     0.3:  Run Mud Sand % 
 MSOL.                    19.8:  Run Mud Solids% 
 DFV .spqt               80.00:  Mud Viscosity 
 MWOD.in                  8.00:  MWD Tool OD 
 MWSI.                     Yes:  Serv Intrp, MWD 
 OTIM.hr                180.00:  Time Operating 
 PCON.           Look Like New:  Pad Condition 
 PMAX.psia             9910.94:  Press Op, Max 
 PV  .cP                 35.00:  Mud PV 
 RUN .                    1000:  Run Number 
 ROPA.m/hr               18.00:  ROP Avg 
 ROPN.m/hr                8.00:  ROP Min 
 ROPX.m/hr               23.00:  ROP Max 
 RPMA.rpm               150.00:  RPM Surface Avg 
 RPMN.rpm               120.00:  RPM Surface Min 
 RPMX.rpm               160.00:  RPM Surface Max 
 RRUN.                    L503:  Rig Run Number 
 RTIM.hr                  5.00:  Time Reaming 
 SAZI.deg               298.42:  Azm, Start 
 SDEP.m                3870.00:  Start Depth 
 SIDD.                      No:  Serv Intrp, DD 
 SINC.deg                69.57:  Inc, Start 
 SPPA.psig             5500.00:  SPP Avg 
 SPPN.psig             4400.00:  SPP Min 
 SPPX.psig             5800.00:  SPP Max 
 STIM.      15.29.39 09-Sep-21:  Start Time 
 SVCS.                 DD, MWD:  Services 
 SVER.                    9.20:  Sperry Version 
 TDAT.m                5260.00:  Tot Depth Attmp 
 TDDF.                      No:  Trip for DD 
 TDLG.m                1390.00:  Tot Depth Loggd 
 TFF .                      No:  Trip for Fail 
 TQAA.f-kp               22.00:  Torque Abs Avg 
 TQAN.f-kp               13.00:  Torque Abs Min 
 TQAX.f-kp               27.00:  Torque Abs Max 
 TRRT.°/30m               1.60:  Turn Rotating 
 MRT .                  EWR-M5:  Maximum Recorded Temperature 
 TTMX.degC               92.00:  Max Tool Temp 
 VS01.                12330975:  Virtual Str1 SN 
 VS02.                90658671:  Virtual Str2 SN 
 VS03.                90658508:  Virtual Str3 SN 
 VS04.                90660974:  Virtual Str4 SN 
 VS05.                90654675:  Virtual Str5 SN 
 WBMN.klb                15.00:  WOB Min 
 WITN.     Alexander Yadullayev:  Customer Rep 
 WITN.           Adil Mammadov:  Customer Rep 2 
 WOBA.klb                17.00:  WOB Avg 
 WOBX.klb                18.00:  WOB Max 
 YP  .lhf2               31.00:  Yield Point 
~Curve Information Block
#MNEM.UNIT                 API CODE     Curve Description
#---------               -----------    ---------------------------
 TIME.HHMMSS            00 000 000 000:  GT Time & Date
 GTDEPTH.m              00 000 000 000:  GT Depth
 GTPQH.psia             00 000 000 000:  GT HR Quartz Pressure
 GTTQ.degC              00 000 000 000:  GT Quartz Temperature
 GTTN.NONE              00 000 000 000:  GT Test Number
 GTET.sec               00 000 000 000:  GT Elapsed Test Time
 GTTVD.m                00 000 000 000:  GT True Vertical Depth
#Other Information
#
#WARRANTY: Halliburton will use its best efforts to furnish customers with 
#accurate information and interpretations that are part of, and incident to, the services 
#provided.  However, Halliburton cannot and does not warrant the accuracy 
#or correctness of such information and interpretations.  Under no circumstances should any 
#such information or interpretation be relied upon as the sole basis for any drilling, 
#completion, production, or financial decision or any procedure involving any risk to the 
#safety of any drilling venture, drilling rig or its crew or any other third party.  The 
#Customer has full responsibility for all drilling, completion and production operation.  
#Halliburton makes no representations or warranties, either expressed or 
#implied, including, but not limited to, the implied warranties of merchantability or fitness 
#for a particular purpose, with respect to the services rendered.  In no event will 
#Halliburton be liable for failure to obtain any particular results or for 
#any damages, including, but not limited to, indirect, special or consequential damages, 
#resulting from the use of any information or interpretation provided by Halliburton.
#
~A           TIME           GTDEPTH  GTPQH  GTTQ  GTTN  GTET   GTTVD  
# ...
   06:28:32.332.17-Sep-2021 5057.00 2682.33 78.62 7.00 114.98 2583.65
   06:28:32.532.17-Sep-2021 5057.00 2682.33 78.62 7.00 115.18 2583.65
   06:28:32.732.17-Sep-2021 5057.00 2689.05 78.62 7.00 115.38 2583.65
   06:28:32.932.17-Sep-2021 5057.00 2693.06 78.62 7.00 115.58 2583.65
   06:28:33.132.17-Sep-2021 5057.00 2696.67 78.62 7.00 115.78 2583.65
   06:28:33.332.17-Sep-2021 5057.00 2699.02 78.62 7.00 115.98 2583.65
   06:28:33.532.17-Sep-2021 5057.00 2699.02 78.62 7.00 116.18 2583.65
   06:28:33.732.17-Sep-2021 5057.00 2706.20 78.62 7.00 116.38 2583.65
   06:28:33.932.17-Sep-2021 5057.00 2709.20 78.62 7.00 116.58 2583.65
   06:28:34.132.17-Sep-2021 5057.00 2712.32 78.62 7.00 116.78 2583.65
   06:28:34.332.17-Sep-2021 5057.00 2715.46 78.62 7.00 116.98 2583.65
   06:28:34.532.17-Sep-2021 5057.00 2715.46 78.62 7.00 117.18 2583.65
   06:28:34.732.17-Sep-2021 5057.00 2721.67 78.62 7.00 117.37 2583.65
   06:28:34.932.17-Sep-2021 5057.00 2724.91 78.62 7.00 117.57 2583.65
   06:28:35.132.17-Sep-2021 5057.00 2728.23 78.63 7.00 117.77 2583.65
   06:28:35.332.17-Sep-2021 5057.00 2731.56 78.63 7.00 117.97 2583.65
   06:28:35.532.17-Sep-2021 5057.00 2731.56 78.63 7.00 118.17 2583.65
   06:28:35.731.17-Sep-2021 5057.00 2737.70 78.63 7.00 118.37 2583.65
   06:28:35.931.17-Sep-2021 5057.00 2740.83 78.63 7.00 118.57 2583.65
   06:28:36.131.17-Sep-2021 5057.00 2745.13 78.63 7.00 118.77 2583.65
   06:28:36.331.17-Sep-2021 5057.00 2747.63 78.63 7.00 118.97 2583.65
   06:28:36.531.17-Sep-2021 5057.00 2747.63 78.63 7.00 119.17 2583.65
   06:28:36.731.17-Sep-2021 5057.00 2753.69 78.63 7.00 119.37 2583.65
   06:28:36.931.17-Sep-2021 5057.00 2756.95 78.63 7.00 119.57 2583.65
   06:28:37.131.17-Sep-2021 5057.00 2761.26 78.63 7.00 119.77 2583.65
   06:28:37.331.17-Sep-2021 5057.00 2763.01 78.63 7.00 119.97 2583.65
   06:28:37.531.17-Sep-2021 5057.00 2763.01 78.63 7.00 120.17 2583.65
   06:28:37.731.17-Sep-2021 5057.00 2769.51 78.63 7.00 120.37 2583.65
   06:28:37.931.17-Sep-2021 5057.00 2773.18 78.63 7.00 120.57 2583.65
   06:28:38.131.17-Sep-2021 5057.00 2775.37 78.63 7.00 120.77 2583.65
   06:28:38.331.17-Sep-2021 5057.00 2778.25 78.63 7.00 120.97 2583.65
   06:28:38.531.17-Sep-2021 5057.00 2778.25 78.63 7.00 121.17 2583.65
   06:28:38.731.17-Sep-2021 5057.00 2783.78 78.63 7.00 121.37 2583.65
   06:28:38.931.17-Sep-2021 5057.00 2786.47 78.63 7.00 121.57 2583.65
   06:28:39.131.17-Sep-2021 5057.00 2790.58 78.63 7.00 121.77 2583.65
   06:28:39.331.17-Sep-2021 5057.00 2793.77 78.63 7.00 121.97 2583.65
   06:28:39.531.17-Sep-2021 5057.00 2793.77 78.63 7.00 122.17 2583.65
   06:28:39.731.17-Sep-2021 5057.00 2798.51 78.63 7.00 122.37 2583.65
   06:28:39.931.17-Sep-2021 5057.00 2801.47 78.63 7.00 122.57 2583.65
   06:28:40.131.17-Sep-2021 5057.00 2804.20 78.63 7.00 122.77 2583.65
   06:28:40.330.17-Sep-2021 5057.00 2807.06 78.63 7.00 122.97 2583.65
   06:28:40.530.17-Sep-2021 5057.00 2807.06 78.63 7.00 123.17 2583.65
   06:28:40.730.17-Sep-2021 5057.00 2813.07 78.63 7.00 123.37 2583.65
   06:28:40.930.17-Sep-2021 5057.00 2816.03 78.63 7.00 123.57 2583.65
   06:28:41.130.17-Sep-2021 5057.00 2818.56 78.63 7.00 123.77 2583.65
   06:28:41.330.17-Sep-2021 5057.00 2821.51 78.63 7.00 123.97 2583.65
   06:28:41.530.17-Sep-2021 5057.00 2821.51 78.63 7.00 124.17 2583.65
   06:28:41.730.17-Sep-2021 5057.00 2827.44 78.63 7.00 124.37 2583.65
   06:28:41.930.17-Sep-2021 5057.00 2830.41 78.63 7.00 124.57 2583.65
   06:28:42.130.17-Sep-2021 5057.00 2833.37 78.63 7.00 124.77 2583.65
   06:28:42.330.17-Sep-2021 5057.00 2836.74 78.63 7.00 124.97 2583.65
   06:28:42.530.17-Sep-2021 5057.00 2836.74 78.63 7.00 125.17 2583.65
   06:28:42.730.17-Sep-2021 5057.00 2841.81 78.63 7.00 125.37 2583.65
   06:28:42.930.17-Sep-2021 5057.00 2844.52 78.63 7.00 125.57 2583.65
   06:28:43.130.17-Sep-2021 5057.00 2847.66 78.63 7.00 125.77 2583.65
   06:28:43.330.17-Sep-2021 5057.00 2850.34 78.63 7.00 125.97 2583.65
   06:28:43.530.17-Sep-2021 5057.00 2850.34 78.63 7.00 126.17 2583.65
   06:28:43.730.17-Sep-2021 5057.00 2853.03 78.63 7.00 126.37 2583.65
   06:28:43.930.17-Sep-2021 5057.00 2858.32 78.63 7.00 126.57 2583.65
   06:28:44.130.17-Sep-2021 5057.00 2861.13 78.63 7.00 126.77 2583.65
   06:28:44.330.17-Sep-2021 5057.00 2863.99 78.63 7.00 126.97 2583.65
   06:28:44.530.17-Sep-2021 5057.00 2863.99 78.63 7.00 127.17 2583.65
   06:28:44.730.17-Sep-2021 5057.00 2869.45 78.63 7.00 127.37 2583.65
   06:28:44.930.17-Sep-2021 5057.00 2872.10 78.63 7.00 127.57 2583.65
   06:28:45.129.17-Sep-2021 5057.00 2874.81 78.63 7.00 127.77 2583.65
   06:28:45.329.17-Sep-2021 5057.00 2877.63 78.63 7.00 127.97 2583.65
   06:28:45.529.17-Sep-2021 5057.00 2877.63 78.63 7.00 128.17 2583.65
   06:28:45.729.17-Sep-2021 5057.00 2883.85 78.63 7.00 128.37 2583.65
   06:28:45.929.17-Sep-2021 5057.00 2886.07 78.63 7.00 128.57 2583.65
   06:28:46.129.17-Sep-2021 5057.00 2888.78 78.63 7.00 128.77 2583.65
   06:28:46.329.17-Sep-2021 5057.00 2891.58 78.63 7.00 128.97 2583.65
   06:28:46.529.17-Sep-2021 5057.00 2891.58 78.63 7.00 129.17 2583.65
   06:28:46.729.17-Sep-2021 5057.00 2896.58 78.63 7.00 129.37 2583.65
   06:28:46.929.17-Sep-2021 5057.00 2900.14 78.63 7.00 129.57 2583.65
   06:28:47.129.17-Sep-2021 5057.00 2902.54 78.63 7.00 129.77 2583.65
   06:28:47.329.17-Sep-2021 5057.00 2904.80 78.63 7.00 129.97 2583.65
   06:28:47.529.17-Sep-2021 5057.00 2904.80 78.63 7.00 130.17 2583.65
   06:28:47.729.17-Sep-2021 5057.00 2910.36 78.63 7.00 130.37 2583.65
   06:28:47.929.17-Sep-2021 5057.00 2914.39 78.63 7.00 130.57 2583.65
   06:28:48.129.17-Sep-2021 5057.00 2916.60 78.63 7.00 130.77 2583.65
   06:28:48.329.17-Sep-2021 5057.00 2918.44 78.63 7.00 130.97 2583.65
   06:28:48.529.17-Sep-2021 5057.00 2918.44 78.63 7.00 131.17 2583.65
   06:28:48.729.17-Sep-2021 5057.00 2924.25 78.63 7.00 131.37 2583.65
   06:28:48.929.17-Sep-2021 5057.00 2926.56 78.63 7.00 131.57 2583.65
   06:28:49.129.17-Sep-2021 5057.00 2928.91 78.63 7.00 131.77 2583.65
   06:28:49.329.17-Sep-2021 5057.00 2932.24 78.63 7.00 131.97 2583.65
   06:28:49.529.17-Sep-2021 5057.00 2932.24 78.63 7.00 132.17 2583.65
   06:28:49.728.17-Sep-2021 5057.00 2936.55 78.63 7.00 132.37 2583.65
   06:28:49.928.17-Sep-2021 5057.00 2939.27 78.63 7.00 132.57 2583.65
   06:28:50.128.17-Sep-2021 5057.00 2941.97 78.63 7.00 132.77 2583.65
   06:28:50.328.17-Sep-2021 5057.00 2944.43 78.63 7.00 132.97 2583.65
   06:28:50.528.17-Sep-2021 5057.00 2944.43 78.63 7.00 133.17 2583.65
   06:28:50.728.17-Sep-2021 5057.00 2949.23 78.63 7.00 133.37 2583.65
   06:28:50.928.17-Sep-2021 5057.00 2951.65 78.63 7.00 133.57 2583.65
   06:28:51.128.17-Sep-2021 5057.00 2954.19 78.63 7.00 133.77 2583.65
   06:28:51.328.17-Sep-2021 5057.00 2956.64 78.63 7.00 133.97 2583.65
   06:28:51.528.17-Sep-2021 5057.00 2956.64 78.63 7.00 134.17 2583.65
   06:28:51.728.17-Sep-2021 5057.00 2962.17 78.63 7.00 134.37 2583.65
   06:28:51.928.17-Sep-2021 5057.00 2964.80 78.63 7.00 134.57 2583.65
   06:28:52.128.17-Sep-2021 5057.00 2967.26 78.63 7.00 134.77 2583.65
   06:28:52.328.17-Sep-2021 5057.00 2969.64 78.63 7.00 134.97 2583.65
   06:28:52.528.17-Sep-2021 5057.00 2969.64 78.63 7.00 135.17 2583.65
   06:28:52.728.17-Sep-2021 5057.00 2975.64 78.63 7.00 135.37 2583.65
   06:28:52.928.17-Sep-2021 5057.00 2977.21 78.63 7.00 135.57 2583.65
   06:28:53.128.17-Sep-2021 5057.00 2979.70 78.63 7.00 135.77 2583.65
   06:28:53.328.17-Sep-2021 5057.00 2982.61 78.63 7.00 135.97 2583.65
   06:28:53.528.17-Sep-2021 5057.00 2982.61 78.63 7.00 136.17 2583.65
   06:28:53.728.17-Sep-2021 5057.00 2987.26 78.64 7.00 136.37 2583.65
   06:28:53.928.17-Sep-2021 5057.00 2989.63 78.63 7.00 136.57 2583.65
   06:28:54.128.17-Sep-2021 5057.00 2992.01 78.64 7.00 136.77 2583.65
   06:28:54.328.17-Sep-2021 5057.00 2994.53 78.64 7.00 136.97 2583.65
   06:28:54.527.17-Sep-2021 5057.00 2994.53 78.64 7.00 137.17 2583.65
   06:28:54.727.17-Sep-2021 5057.00 2999.38 78.64 7.00 137.37 2583.65
   06:28:54.927.17-Sep-2021 5057.00 3001.92 78.64 7.00 137.57 2583.65
   06:28:55.127.17-Sep-2021 5057.00 3004.50 78.64 7.00 137.77 2583.65
