~Version Information
 VERS.                  2.0:   CWLS log ASCII Standard -VERSION 2.0
 WRAP.                   NO:   One line per depth step
~Well Information Block
#MNEM.UNIT     VALUE/NAME     DESCRIPTION
#---------     -----------    ---------------------------
 STRT.S             02:32:25 17-Sep-21: START TIME 02:32:25 17-Sep-21
 STOP.S             02:40:50 17-Sep-21: STOP TIME  02:40:50 17-Sep-21
 STEP.S                   0.00: STEP TIME
 NULL.                 -999.25: NULL VALUE
 DFWT.                        :  DIST FWL TEXT
 DFST.                        :  DIST FSL TEXT
 DMF .             Drill Floor:  DRILL MEAS FROM
 STIM.      10.59.12 05-Jul-21:  START TIME
 DATE.      10.59.12 10-Sep-21:  END TIME
 SPUD.               05-Jul-21:  SPUD DATE
 NREF.                    Grid:  NORTH REFERENCE
 HPTY.       Minimum Curvature:  HOLE POS TYPE
 DMOD.             Drill Model:  DRILL MOD DESC
 SVYD.                  Survey:  SURVEY DESC
 ILTD.               Lithology:  INTERP LTH DESC
 FTOP.          Formation Tops:  FORM TOPS DESC
 RIG .                     DWG:  RIG NAME
 PDAT.          Mean Sea Level:  PERMANENT DATUM
 FLD .                     ACG:  FIELD NAME
 SON .        AZ-XX-0907115008:  JOB NUMBER
 CTRY.              Azerbaijan:  COUNTRY NAME
 WELL.                    E35A:  WELL NAME
 SRVC.          TURAN DRILLING:  CONTRACTOR
 COMP.     BP Exploration (Caspian Sea LTD):  COMPANY
 UWI .                     N/A:  UNIQUE WELL IDENTIFIER
 API .                     N/A:  API NUMBER
 MDS .        Operator Entered:  MAG DATA SOURCE
 BASE.              Azerbaijan:  LOGGING EQUIPMENT BASE LOCATION
 REGN.                   EESSA:  REGION
 PROV.                    Baku:  PROVINCE
 STAT.                    Baku:  STATE NAME
 MWDS.                    Baku:  MWD SHOP
 JOBN.        AZ-XX-0907115008:  JOB TICKET NUMB
 DOE .                     N/A:  DOE NUMBER
 DCON.         Sperry Drilling:  DIRECTNL CONTR
 UNIT.                     N/A:  LOGGING EQUIPMENT ID
 WTYP.                Deviated:  WELL TYPE
 CNTY.                        :  COUNTY
 LOC .                        :  LOCATION
 LMF .             Drill Floor:  LOG MEASURED FROM
 TVDS.m                  43.16:  TVDSS CORRECTN
 LATI.deg                40.17:  LATITUDE
 LONG.deg                51.17:  LONGITUDE
 WHNS.m                  10.51:  WELL HEAD N/S
 WHEW.m                 -14.82:  WELL HEAD E/W
 UTMX.m              514336.92:  UTM X
 UTMY.m             4448618.56:  UTM Y
 DFWL.m                   0.00:  DISTANCE FWL
 DFSL.m                   0.00:  DISTANCE FSL
 SDEP.m                 849.00:  START DEPTH
 TDD .m                2862.00:  TOTAL DEPTH (DRILLER)
 VSDR.deg               292.10:  VERT SEC DIRECT
 GVFD.g                   1.00:  GRAVITY FIELD
 MFLD.nT              50382.00:  MAGNETIC FIELD
 MDIP.deg                59.68:  MAGNETIC DIP
 MDEC.deg                 6.66:  MAGNETIC DECL
 GRDC.deg                 0.09:  GRID CORRECTION
 AZTC.deg                 6.57:  AZM TOTAL CORR
 EPD .m                   0.00:  ELEVATION
 EGL .m                   0.00:  GROUND ELEVATION
 WDMS.m                 176.20:  WD ELEV
 APD .m                  43.16:  DEPTH ABOVE PD
 DEP .m                 363.42:  DEPTH
 AGAP.m                  43.16:  AIR GAP
 VSEW.m                 -14.82:  VERT SEC E/W
 VSNS.m                  10.51:  VERT SEC N/S
 EKB .m                  43.16:  KB ELEVATION
 EDF .m                  43.16:  DF ELEVATION
 TDL .m                1390.00:  TOTAL DEPTH (LOGGER)
 VSC .                       0:  VS TO CLOSURE
 MAGU.                 1855871:  MAGUTM CHECKSUM
~Parameter Information Block
#MNEM.UNIT       Value        Description
#---------     -----------    ---------------------------
 AV  .mps                 2.28:  Ann Velocity 
 AVMX.mps                 2.67:  Max Ann Veloc 
 AZIF.deg               305.00:  Azm, Final 
 BHAT.        Rotary Steerable:  BHA Type 
 BROT.°/30m               0.45:  Build Rotating 
 BS  .in                 12.25:  Bit Size 
 BSZ .in                 12.25:  Bit Size 
 BTPL.psig              600.00:  Bit Press Loss 
 CABU.                     Yes:  Customer Abuse 
 COMM.                     Œ$a:  Run Comments 1 
 TCS .hr                150.00:  Time Ciculation Ended 
 CV  .mps                 1.24:  Crit Velocity 
 CVMX.mps                 1.66:  Max Crit Veloc 
 DD1 .         Intigam Rahimov:  Direct Drillr 1 
 DD2 .            Azer Ravavov:  Direct Drillr 2 
 DD3 .              Samir Abas:  Direct Drillr 3 
 DDSV.               Geo-Pilot:  DD Service 
 DEFF.%                 100.00:  % Det Eff 
 DLRX.°/30m               1.57:  Dogleg Rot Max 
 DLSO.°/30m               0.00:  Dogleg Oriented 
 DLSX.°/30m               0.00:  Dogleg Str Max 
 DRET.      20.28.06 17-Sep-21:  Drill End Time 
 DRST.      20.27.35 10-Sep-21:  Drill Start Tim 
 DTIM.hr                 54.00:  Time Drilling 
 EDEP.m                5260.00:  End Depth 
 ENG1.      Bakhtiyar Jabbarli:  Engineer 1 
 ENG2.      Natik Hasanaghayev:  Engineer 2 
 ENG3.           Royal Nasirov:  Engineer 3 
 ETIM.      20.27.55 18-Sep-21:  End Time 
 FLOI.gpm              1100.00:  Flow In 
 FLON.gpm               800.00:  Flow In Min 
 FLOS.cptm                0.00:  Fluid Loss 
 FLOX.gpm              1200.00:  Flow In Max 
 DFT .        Mineral Oil Base:  Mud Type 
 HPRE.                      No:  High Pressure 
 HTEM.                      No:  High Temp 
 HYDO.m                   1.80:  Hydro Offset 
 IFIN.deg                72.31:  Inc, Final 
 IMAX.deg                72.36:  Inc Max 
 IMIN.deg                69.36:  Inc Min 
 IMND.m                4192.96:  Inc Min Depth 
 IMXD.m                5128.36:  Inc Max Depth 
 JARR.                      No:  Jarring 
 LETM.      20.29.00 17-Sep-21:  Log End Time 
 LOST.hr                     0:  Lost Rig Time 
 LSTM.      20.27.00 10-Sep-21:  Log Start Time 
 MDCL.ppm            227000.00:  Mud Chlorides 
 MDES.     Inversion Oil/Synthetic:  Mud Desc 
 DFD .sg                  1.45:  Mud Density 
 MDMN.sg                  1.45:  Dens Mud Min 
 MDMX.sg                  1.45:  Dens Mud Max 
 MOIL.                    70.5:  Run Mud Oil % 
 MOWR.                   71:29:  Run Mud OWR 
 MSND.                     0.3:  Run Mud Sand % 
 MSOL.                    19.8:  Run Mud Solids% 
 DFV .spqt               80.00:  Mud Viscosity 
 MWOD.in                  8.00:  MWD Tool OD 
 MWSI.                     Yes:  Serv Intrp, MWD 
 OTIM.hr                180.00:  Time Operating 
 PCON.           Look Like New:  Pad Condition 
 PMAX.psia             9910.94:  Press Op, Max 
 PV  .cP                 35.00:  Mud PV 
 RUN .                    1000:  Run Number 
 ROPA.m/hr               18.00:  ROP Avg 
 ROPN.m/hr                8.00:  ROP Min 
 ROPX.m/hr               23.00:  ROP Max 
 RPMA.rpm               150.00:  RPM Surface Avg 
 RPMN.rpm               120.00:  RPM Surface Min 
 RPMX.rpm               160.00:  RPM Surface Max 
 RRUN.                    L503:  Rig Run Number 
 RTIM.hr                  5.00:  Time Reaming 
 SAZI.deg               298.42:  Azm, Start 
 SDEP.m                3870.00:  Start Depth 
 SIDD.                      No:  Serv Intrp, DD 
 SINC.deg                69.57:  Inc, Start 
 SPPA.psig             5500.00:  SPP Avg 
 SPPN.psig             4400.00:  SPP Min 
 SPPX.psig             5800.00:  SPP Max 
 STIM.      15.29.39 09-Sep-21:  Start Time 
 SVCS.                 DD, MWD:  Services 
 SVER.                    9.20:  Sperry Version 
 TDAT.m                5260.00:  Tot Depth Attmp 
 TDDF.                      No:  Trip for DD 
 TDLG.m                1390.00:  Tot Depth Loggd 
 TFF .                      No:  Trip for Fail 
 TQAA.f-kp               22.00:  Torque Abs Avg 
 TQAN.f-kp               13.00:  Torque Abs Min 
 TQAX.f-kp               27.00:  Torque Abs Max 
 TRRT.°/30m               1.60:  Turn Rotating 
 MRT .                  EWR-M5:  Maximum Recorded Temperature 
 TTMX.degC               92.00:  Max Tool Temp 
 VS01.                12330975:  Virtual Str1 SN 
 VS02.                90658671:  Virtual Str2 SN 
 VS03.                90658508:  Virtual Str3 SN 
 VS04.                90660974:  Virtual Str4 SN 
 VS05.                90654675:  Virtual Str5 SN 
 WBMN.klb                15.00:  WOB Min 
 WITN.     Alexander Yadullayev:  Customer Rep 
 WITN.           Adil Mammadov:  Customer Rep 2 
 WOBA.klb                17.00:  WOB Avg 
 WOBX.klb                18.00:  WOB Max 
 YP  .lhf2               31.00:  Yield Point 
~Curve Information Block
#MNEM.UNIT                 API CODE     Curve Description
#---------               -----------    ---------------------------
 TIME.HHMMSS            00 000 000 000:  GT Time & Date
 GTDEPTH.m              00 000 000 000:  GT Depth
 GTPQH.psia             00 000 000 000:  GT HR Quartz Pressure
 GTTQ.degC              00 000 000 000:  GT Quartz Temperature
 GTTN.NONE              00 000 000 000:  GT Test Number
 GTET.sec               00 000 000 000:  GT Elapsed Test Time
 GTTVD.m                00 000 000 000:  GT True Vertical Depth
#Other Information
#
#WARRANTY: Halliburton will use its best efforts to furnish customers with 
#accurate information and interpretations that are part of, and incident to, the services 
#provided.  However, Halliburton cannot and does not warrant the accuracy 
#or correctness of such information and interpretations.  Under no circumstances should any 
#such information or interpretation be relied upon as the sole basis for any drilling, 
#completion, production, or financial decision or any procedure involving any risk to the 
#safety of any drilling venture, drilling rig or its crew or any other third party.  The 
#Customer has full responsibility for all drilling, completion and production operation.  
#Halliburton makes no representations or warranties, either expressed or 
#implied, including, but not limited to, the implied warranties of merchantability or fitness 
#for a particular purpose, with respect to the services rendered.  In no event will 
#Halliburton be liable for failure to obtain any particular results or for 
#any damages, including, but not limited to, indirect, special or consequential damages, 
#resulting from the use of any information or interpretation provided by Halliburton.
#
~A           TIME           GTDEPTH  GTPQH  GTTQ  GTTN  GTET   GTTVD  
# ...
   02:38:56.000.17-Sep-2021 5127.50  544.76 80.33 2.00 391.00 2605.35
   02:38:56.200.17-Sep-2021 5127.50  544.76 80.33 2.00 391.20 2605.35
   02:38:56.400.17-Sep-2021 5127.50  546.15 80.33 2.00 391.40 2605.35
   02:38:56.600.17-Sep-2021 5127.50  546.83 80.33 2.00 391.60 2605.35
   02:38:56.800.17-Sep-2021 5127.50  547.48 80.33 2.00 391.80 2605.35
   02:38:57.000.17-Sep-2021 5127.50  548.10 80.33 2.00 392.00 2605.35
   02:38:57.200.17-Sep-2021 5127.50  548.10 80.33 2.00 392.20 2605.35
   02:38:57.400.17-Sep-2021 5127.50  549.26 80.33 2.00 392.40 2605.35
   02:38:57.600.17-Sep-2021 5127.50  549.80 80.33 2.00 392.60 2605.35
   02:38:57.800.17-Sep-2021 5127.50  550.33 80.33 2.00 392.80 2605.35
   02:38:58.000.17-Sep-2021 5127.50  550.82 80.33 2.00 393.00 2605.35
   02:38:58.200.17-Sep-2021 5127.50  550.82 80.33 2.00 393.20 2605.35
   02:38:58.400.17-Sep-2021 5127.50  551.81 80.33 2.00 393.40 2605.35
   02:38:58.600.17-Sep-2021 5127.50  552.31 80.33 2.00 393.60 2605.35
   02:38:58.800.17-Sep-2021 5127.50  552.78 80.33 2.00 393.80 2605.35
   02:38:59.000.17-Sep-2021 5127.50  553.23 80.33 2.00 394.00 2605.35
   02:38:59.200.17-Sep-2021 5127.50  553.23 80.33 2.00 394.20 2605.35
   02:38:59.400.17-Sep-2021 5127.50  554.18 80.33 2.00 394.40 2605.35
   02:38:59.600.17-Sep-2021 5127.50  554.81 80.33 2.00 394.60 2605.35
   02:38:59.800.17-Sep-2021 5127.50  555.38 80.33 2.00 394.80 2605.35
   02:39:00.000.17-Sep-2021 5127.50  555.95 80.33 2.00 395.00 2605.35
   02:39:00.200.17-Sep-2021 5127.50  555.95 80.33 2.00 395.20 2605.35
   02:39:00.400.17-Sep-2021 5127.50  556.98 80.33 2.00 395.40 2605.35
   02:39:00.600.17-Sep-2021 5127.50  557.47 80.33 2.00 395.60 2605.35
   02:39:00.800.17-Sep-2021 5127.50  557.94 80.33 2.00 395.80 2605.35
   02:39:01.000.17-Sep-2021 5127.50  558.39 80.33 2.00 396.00 2605.35
   02:39:01.200.17-Sep-2021 5127.50  558.39 80.33 2.00 396.20 2605.35
   02:39:01.400.17-Sep-2021 5127.50  559.28 80.33 2.00 396.40 2605.35
   02:39:01.600.17-Sep-2021 5127.50  559.73 80.33 2.00 396.60 2605.35
   02:39:01.800.17-Sep-2021 5127.50  560.19 80.33 2.00 396.80 2605.35
   02:39:02.000.17-Sep-2021 5127.50  560.64 80.33 2.00 397.00 2605.35
   02:39:02.200.17-Sep-2021 5127.50  560.64 80.33 2.00 397.20 2605.35
   02:39:02.400.17-Sep-2021 5127.50  561.58 80.33 2.00 397.40 2605.35
   02:39:02.600.17-Sep-2021 5127.50  562.16 80.34 2.00 397.60 2605.35
   02:39:02.800.17-Sep-2021 5127.50  562.84 80.34 2.00 397.80 2605.35
   02:39:03.000.17-Sep-2021 5127.50  563.40 80.34 2.00 398.00 2605.35
   02:39:03.200.17-Sep-2021 5127.50  563.40 80.34 2.00 398.20 2605.35
   02:39:03.400.17-Sep-2021 5127.50  564.63 80.34 2.00 398.40 2605.35
   02:39:03.600.17-Sep-2021 5127.50  565.23 80.34 2.00 398.60 2605.35
   02:39:03.800.17-Sep-2021 5127.50  565.81 80.34 2.00 398.80 2605.35
   02:39:04.000.17-Sep-2021 5127.50  566.36 80.34 2.00 399.00 2605.35
   02:39:04.200.17-Sep-2021 5127.50  566.36 80.34 2.00 399.20 2605.35
   02:39:04.400.17-Sep-2021 5127.50  567.51 80.34 2.00 399.40 2605.35
   02:39:04.600.17-Sep-2021 5127.50  568.16 80.34 2.00 399.60 2605.35
   02:39:04.800.17-Sep-2021 5127.50  568.72 80.34 2.00 399.80 2605.35
   02:39:05.000.17-Sep-2021 5127.50  569.30 80.34 2.00 400.00 2605.35
   02:39:05.200.17-Sep-2021 5127.50  569.30 80.34 2.00 400.20 2605.35
   02:39:05.400.17-Sep-2021 5127.50  570.60 80.34 2.00 400.40 2605.35
   02:39:05.600.17-Sep-2021 5127.50  571.20 80.34 2.00 400.60 2605.35
   02:39:05.800.17-Sep-2021 5127.50  571.74 80.34 2.00 400.80 2605.35
   02:39:06.000.17-Sep-2021 5127.50  572.27 80.34 2.00 401.00 2605.35
   02:39:06.200.17-Sep-2021 5127.50  572.27 80.34 2.00 401.20 2605.35
   02:39:06.400.17-Sep-2021 5127.50  573.24 80.34 2.00 401.40 2605.35
   02:39:06.600.17-Sep-2021 5127.50  573.68 80.34 2.00 401.60 2605.35
   02:39:06.800.17-Sep-2021 5127.50  574.12 80.34 2.00 401.80 2605.35
   02:39:07.000.17-Sep-2021 5127.50  574.56 80.34 2.00 402.00 2605.35
   02:39:07.200.17-Sep-2021 5127.50  574.56 80.34 2.00 402.20 2605.35
   02:39:07.400.17-Sep-2021 5127.50  575.44 80.34 2.00 402.40 2605.35
   02:39:07.600.17-Sep-2021 5127.50  575.90 80.34 2.00 402.60 2605.35
   02:39:07.800.17-Sep-2021 5127.50  576.36 80.34 2.00 402.80 2605.35
   02:39:08.000.17-Sep-2021 5127.50  576.84 80.34 2.00 403.00 2605.35
   02:39:08.200.17-Sep-2021 5127.50  576.84 80.34 2.00 403.20 2605.35
   02:39:08.400.17-Sep-2021 5127.50  577.98 80.34 2.00 403.40 2605.35
   02:39:08.600.17-Sep-2021 5127.50  578.60 80.34 2.00 403.60 2605.35
   02:39:08.800.17-Sep-2021 5127.50  579.19 80.34 2.00 403.80 2605.35
   02:39:09.000.17-Sep-2021 5127.50  579.73 80.34 2.00 404.00 2605.35
   02:39:09.200.17-Sep-2021 5127.50  579.73 80.34 2.00 404.20 2605.35
   02:39:09.400.17-Sep-2021 5127.50  580.71 80.34 2.00 404.40 2605.35
   02:39:09.600.17-Sep-2021 5127.50  581.16 80.34 2.00 404.60 2605.35
   02:39:09.800.17-Sep-2021 5127.50  581.60 80.34 2.00 404.80 2605.35
   02:39:10.000.17-Sep-2021 5127.50  582.02 80.34 2.00 405.00 2605.35
   02:39:10.200.17-Sep-2021 5127.50  582.02 80.34 2.00 405.20 2605.35
   02:39:10.400.17-Sep-2021 5127.50  582.82 80.34 2.00 405.40 2605.35
   02:39:10.600.17-Sep-2021 5127.50  583.22 80.34 2.00 405.60 2605.35
   02:39:10.800.17-Sep-2021 5127.50  583.61 80.34 2.00 405.80 2605.35
   02:39:11.000.17-Sep-2021 5127.50  583.99 80.34 2.00 406.00 2605.35
   02:39:11.200.17-Sep-2021 5127.50  583.99 80.34 2.00 406.20 2605.35
   02:39:11.400.17-Sep-2021 5127.50  584.93 80.34 2.00 406.40 2605.35
   02:39:11.600.17-Sep-2021 5127.50  585.53 80.34 2.00 406.60 2605.35
   02:39:11.800.17-Sep-2021 5127.50  586.09 80.34 2.00 406.80 2605.35
   02:39:12.000.17-Sep-2021 5127.50  586.65 80.34 2.00 407.00 2605.35
   02:39:12.200.17-Sep-2021 5127.50  586.65 80.34 2.00 407.20 2605.35
   02:39:12.400.17-Sep-2021 5127.50  587.87 80.34 2.00 407.40 2605.35
   02:39:12.600.17-Sep-2021 5127.50  588.48 80.34 2.00 407.60 2605.35
   02:39:12.800.17-Sep-2021 5127.50  589.05 80.34 2.00 407.80 2605.35
   02:39:13.000.17-Sep-2021 5127.50  589.57 80.34 2.00 408.00 2605.35
   02:39:13.200.17-Sep-2021 5127.50  589.57 80.34 2.00 408.20 2605.35
   02:39:13.400.17-Sep-2021 5127.50  590.85 80.34 2.00 408.40 2605.35
   02:39:13.600.17-Sep-2021 5127.50  591.42 80.34 2.00 408.60 2605.35
   02:39:13.800.17-Sep-2021 5127.50  591.99 80.34 2.00 408.80 2605.35
   02:39:14.000.17-Sep-2021 5127.50  592.60 80.34 2.00 409.00 2605.35
   02:39:14.200.17-Sep-2021 5127.50  592.60 80.34 2.00 409.20 2605.35
   02:39:14.400.17-Sep-2021 5127.50  593.77 80.34 2.00 409.40 2605.35
   02:39:14.600.17-Sep-2021 5127.50  594.28 80.34 2.00 409.60 2605.35
   02:39:14.800.17-Sep-2021 5127.50  594.77 80.34 2.00 409.80 2605.35
   02:39:15.000.17-Sep-2021 5127.50  595.24 80.34 2.00 410.00 2605.35
   02:39:15.200.17-Sep-2021 5127.50  595.24 80.34 2.00 410.20 2605.35
   02:39:15.400.17-Sep-2021 5127.50  596.12 80.34 2.00 410.40 2605.35
   02:39:15.600.17-Sep-2021 5127.50  596.55 80.34 2.00 410.60 2605.35
   02:39:15.800.17-Sep-2021 5127.50  596.97 80.35 2.00 410.80 2605.35
   02:39:16.000.17-Sep-2021 5127.50  597.37 80.35 2.00 411.00 2605.35
   02:39:16.200.17-Sep-2021 5127.50  597.37 80.35 2.00 411.20 2605.35
   02:39:16.400.17-Sep-2021 5127.50  598.17 80.35 2.00 411.40 2605.35
   02:39:16.600.17-Sep-2021 5127.50  598.56 80.35 2.00 411.60 2605.35
   02:39:16.800.17-Sep-2021 5127.50  598.94 80.35 2.00 411.80 2605.35
   02:39:17.000.17-Sep-2021 5127.50  599.31 80.35 2.00 412.00 2605.35
   02:39:17.200.17-Sep-2021 5127.50  599.31 80.35 2.00 412.20 2605.35
   02:39:17.400.17-Sep-2021 5127.50  600.38 80.35 2.00 412.40 2605.35
   02:39:17.600.17-Sep-2021 5127.50  600.89 80.35 2.00 412.60 2605.35
   02:39:17.800.17-Sep-2021 5127.50  601.38 80.35 2.00 412.80 2605.35
   02:39:18.000.17-Sep-2021 5127.50  601.84 80.35 2.00 413.00 2605.35
   02:39:18.200.17-Sep-2021 5127.50  601.84 80.35 2.00 413.20 2605.35
   02:39:18.400.17-Sep-2021 5127.50  602.68 80.35 2.00 413.40 2605.35
   02:39:18.600.17-Sep-2021 5127.50  603.08 80.35 2.00 413.60 2605.35
   02:39:18.800.17-Sep-2021 5127.50  603.45 80.35 2.00 413.80 2605.35
