~Version Information
 VERS.                  2.0:   CWLS log ASCII Standard -VERSION 2.0
 WRAP.                   NO:   One line per depth step
~Well Information Block
#MNEM.UNIT     VALUE/NAME     DESCRIPTION
#---------     -----------    ---------------------------
 STRT.S             04:34:50 17-Sep-21: START TIME 04:34:50 17-Sep-21
 STOP.S             04:43:20 17-Sep-21: STOP TIME  04:43:20 17-Sep-21
 STEP.S                   0.00: STEP TIME
 NULL.                 -999.25: NULL VALUE
 DFWT.                        :  DIST FWL TEXT
 DFST.                        :  DIST FSL TEXT
 DMF .             Drill Floor:  DRILL MEAS FROM
 STIM.      10.59.12 05-Jul-21:  START TIME
 DATE.      10.59.12 10-Sep-21:  END TIME
 SPUD.               05-Jul-21:  SPUD DATE
 NREF.                    Grid:  NORTH REFERENCE
 HPTY.       Minimum Curvature:  HOLE POS TYPE
 DMOD.             Drill Model:  DRILL MOD DESC
 SVYD.                  Survey:  SURVEY DESC
 ILTD.               Lithology:  INTERP LTH DESC
 FTOP.          Formation Tops:  FORM TOPS DESC
 RIG .                     DWG:  RIG NAME
 PDAT.          Mean Sea Level:  PERMANENT DATUM
 FLD .                     ACG:  FIELD NAME
 SON .        AZ-XX-0907115008:  JOB NUMBER
 CTRY.              Azerbaijan:  COUNTRY NAME
 WELL.                    E35A:  WELL NAME
 SRVC.          TURAN DRILLING:  CONTRACTOR
 COMP.     BP Exploration (Caspian Sea LTD):  COMPANY
 UWI .                     N/A:  UNIQUE WELL IDENTIFIER
 API .                     N/A:  API NUMBER
 MDS .        Operator Entered:  MAG DATA SOURCE
 BASE.              Azerbaijan:  LOGGING EQUIPMENT BASE LOCATION
 REGN.                   EESSA:  REGION
 PROV.                    Baku:  PROVINCE
 STAT.                    Baku:  STATE NAME
 MWDS.                    Baku:  MWD SHOP
 JOBN.        AZ-XX-0907115008:  JOB TICKET NUMB
 DOE .                     N/A:  DOE NUMBER
 DCON.         Sperry Drilling:  DIRECTNL CONTR
 UNIT.                     N/A:  LOGGING EQUIPMENT ID
 WTYP.                Deviated:  WELL TYPE
 CNTY.                        :  COUNTY
 LOC .                        :  LOCATION
 LMF .             Drill Floor:  LOG MEASURED FROM
 TVDS.m                  43.16:  TVDSS CORRECTN
 LATI.deg                40.17:  LATITUDE
 LONG.deg                51.17:  LONGITUDE
 WHNS.m                  10.51:  WELL HEAD N/S
 WHEW.m                 -14.82:  WELL HEAD E/W
 UTMX.m              514336.92:  UTM X
 UTMY.m             4448618.56:  UTM Y
 DFWL.m                   0.00:  DISTANCE FWL
 DFSL.m                   0.00:  DISTANCE FSL
 SDEP.m                 849.00:  START DEPTH
 TDD .m                2862.00:  TOTAL DEPTH (DRILLER)
 VSDR.deg               292.10:  VERT SEC DIRECT
 GVFD.g                   1.00:  GRAVITY FIELD
 MFLD.nT              50382.00:  MAGNETIC FIELD
 MDIP.deg                59.68:  MAGNETIC DIP
 MDEC.deg                 6.66:  MAGNETIC DECL
 GRDC.deg                 0.09:  GRID CORRECTION
 AZTC.deg                 6.57:  AZM TOTAL CORR
 EPD .m                   0.00:  ELEVATION
 EGL .m                   0.00:  GROUND ELEVATION
 WDMS.m                 176.20:  WD ELEV
 APD .m                  43.16:  DEPTH ABOVE PD
 DEP .m                 363.42:  DEPTH
 AGAP.m                  43.16:  AIR GAP
 VSEW.m                 -14.82:  VERT SEC E/W
 VSNS.m                  10.51:  VERT SEC N/S
 EKB .m                  43.16:  KB ELEVATION
 EDF .m                  43.16:  DF ELEVATION
 TDL .m                1390.00:  TOTAL DEPTH (LOGGER)
 VSC .                       0:  VS TO CLOSURE
 MAGU.                 1855871:  MAGUTM CHECKSUM
~Parameter Information Block
#MNEM.UNIT       Value        Description
#---------     -----------    ---------------------------
 AV  .mps                 2.28:  Ann Velocity 
 AVMX.mps                 2.67:  Max Ann Veloc 
 AZIF.deg               305.00:  Azm, Final 
 BHAT.        Rotary Steerable:  BHA Type 
 BROT.°/30m               0.45:  Build Rotating 
 BS  .in                 12.25:  Bit Size 
 BSZ .in                 12.25:  Bit Size 
 BTPL.psig              600.00:  Bit Press Loss 
 CABU.                     Yes:  Customer Abuse 
 COMM.                     ÌN:  Run Comments 1 
 TCS .hr                150.00:  Time Ciculation Ended 
 CV  .mps                 1.24:  Crit Velocity 
 CVMX.mps                 1.66:  Max Crit Veloc 
 DD1 .         Intigam Rahimov:  Direct Drillr 1 
 DD2 .            Azer Ravavov:  Direct Drillr 2 
 DD3 .              Samir Abas:  Direct Drillr 3 
 DDSV.               Geo-Pilot:  DD Service 
 DEFF.%                 100.00:  % Det Eff 
 DLRX.°/30m               1.57:  Dogleg Rot Max 
 DLSO.°/30m               0.00:  Dogleg Oriented 
 DLSX.°/30m               0.00:  Dogleg Str Max 
 DRET.      20.28.06 17-Sep-21:  Drill End Time 
 DRST.      20.27.35 10-Sep-21:  Drill Start Tim 
 DTIM.hr                 54.00:  Time Drilling 
 EDEP.m                5260.00:  End Depth 
 ENG1.      Bakhtiyar Jabbarli:  Engineer 1 
 ENG2.      Natik Hasanaghayev:  Engineer 2 
 ENG3.           Royal Nasirov:  Engineer 3 
 ETIM.      20.27.55 18-Sep-21:  End Time 
 FLOI.gpm              1100.00:  Flow In 
 FLON.gpm               800.00:  Flow In Min 
 FLOS.cptm                0.00:  Fluid Loss 
 FLOX.gpm              1200.00:  Flow In Max 
 DFT .        Mineral Oil Base:  Mud Type 
 HPRE.                      No:  High Pressure 
 HTEM.                      No:  High Temp 
 HYDO.m                   1.80:  Hydro Offset 
 IFIN.deg                72.31:  Inc, Final 
 IMAX.deg                72.36:  Inc Max 
 IMIN.deg                69.36:  Inc Min 
 IMND.m                4192.96:  Inc Min Depth 
 IMXD.m                5128.36:  Inc Max Depth 
 JARR.                      No:  Jarring 
 LETM.      20.29.00 17-Sep-21:  Log End Time 
 LOST.hr                     0:  Lost Rig Time 
 LSTM.      20.27.00 10-Sep-21:  Log Start Time 
 MDCL.ppm            227000.00:  Mud Chlorides 
 MDES.     Inversion Oil/Synthetic:  Mud Desc 
 DFD .sg                  1.45:  Mud Density 
 MDMN.sg                  1.45:  Dens Mud Min 
 MDMX.sg                  1.45:  Dens Mud Max 
 MOIL.                    70.5:  Run Mud Oil % 
 MOWR.                   71:29:  Run Mud OWR 
 MSND.                     0.3:  Run Mud Sand % 
 MSOL.                    19.8:  Run Mud Solids% 
 DFV .spqt               80.00:  Mud Viscosity 
 MWOD.in                  8.00:  MWD Tool OD 
 MWSI.                     Yes:  Serv Intrp, MWD 
 OTIM.hr                180.00:  Time Operating 
 PCON.           Look Like New:  Pad Condition 
 PMAX.psia             9910.94:  Press Op, Max 
 PV  .cP                 35.00:  Mud PV 
 RUN .                    1000:  Run Number 
 ROPA.m/hr               18.00:  ROP Avg 
 ROPN.m/hr                8.00:  ROP Min 
 ROPX.m/hr               23.00:  ROP Max 
 RPMA.rpm               150.00:  RPM Surface Avg 
 RPMN.rpm               120.00:  RPM Surface Min 
 RPMX.rpm               160.00:  RPM Surface Max 
 RRUN.                    L503:  Rig Run Number 
 RTIM.hr                  5.00:  Time Reaming 
 SAZI.deg               298.42:  Azm, Start 
 SDEP.m                3870.00:  Start Depth 
 SIDD.                      No:  Serv Intrp, DD 
 SINC.deg                69.57:  Inc, Start 
 SPPA.psig             5500.00:  SPP Avg 
 SPPN.psig             4400.00:  SPP Min 
 SPPX.psig             5800.00:  SPP Max 
 STIM.      15.29.39 09-Sep-21:  Start Time 
 SVCS.                 DD, MWD:  Services 
 SVER.                    9.20:  Sperry Version 
 TDAT.m                5260.00:  Tot Depth Attmp 
 TDDF.                      No:  Trip for DD 
 TDLG.m                1390.00:  Tot Depth Loggd 
 TFF .                      No:  Trip for Fail 
 TQAA.f-kp               22.00:  Torque Abs Avg 
 TQAN.f-kp               13.00:  Torque Abs Min 
 TQAX.f-kp               27.00:  Torque Abs Max 
 TRRT.°/30m               1.60:  Turn Rotating 
 MRT .                  EWR-M5:  Maximum Recorded Temperature 
 TTMX.degC               92.00:  Max Tool Temp 
 VS01.                12330975:  Virtual Str1 SN 
 VS02.                90658671:  Virtual Str2 SN 
 VS03.                90658508:  Virtual Str3 SN 
 VS04.                90660974:  Virtual Str4 SN 
 VS05.                90654675:  Virtual Str5 SN 
 WBMN.klb                15.00:  WOB Min 
 WITN.     Alexander Yadullayev:  Customer Rep 
 WITN.           Adil Mammadov:  Customer Rep 2 
 WOBA.klb                17.00:  WOB Avg 
 WOBX.klb                18.00:  WOB Max 
 YP  .lhf2               31.00:  Yield Point 
~Curve Information Block
#MNEM.UNIT                 API CODE     Curve Description
#---------               -----------    ---------------------------
 TIME.HHMMSS            00 000 000 000:  GT Time & Date
 GTDEPTH.m              00 000 000 000:  GT Depth
 GTPQH.psia             00 000 000 000:  GT HR Quartz Pressure
 GTTQ.degC              00 000 000 000:  GT Quartz Temperature
 GTTN.NONE              00 000 000 000:  GT Test Number
 GTET.sec               00 000 000 000:  GT Elapsed Test Time
 GTTVD.m                00 000 000 000:  GT True Vertical Depth
#Other Information
#
#WARRANTY: Halliburton will use its best efforts to furnish customers with 
#accurate information and interpretations that are part of, and incident to, the services 
#provided.  However, Halliburton cannot and does not warrant the accuracy 
#or correctness of such information and interpretations.  Under no circumstances should any 
#such information or interpretation be relied upon as the sole basis for any drilling, 
#completion, production, or financial decision or any procedure involving any risk to the 
#safety of any drilling venture, drilling rig or its crew or any other third party.  The 
#Customer has full responsibility for all drilling, completion and production operation.  
#Halliburton makes no representations or warranties, either expressed or 
#implied, including, but not limited to, the implied warranties of merchantability or fitness 
#for a particular purpose, with respect to the services rendered.  In no event will 
#Halliburton be liable for failure to obtain any particular results or for 
#any damages, including, but not limited to, indirect, special or consequential damages, 
#resulting from the use of any information or interpretation provided by Halliburton.
#
~A           TIME           GTDEPTH  GTPQH  GTTQ  GTTN  GTET   GTTVD  
# ...
   04:35:59.098.17-Sep-2021 5094.00 5576.01 80.66 4.00  69.07 2595.14
   04:35:59.298.17-Sep-2021 5094.00 5576.01 80.66 4.00  69.27 2595.14
   04:35:59.498.17-Sep-2021 5094.00 5575.70 80.66 4.00  69.47 2595.14
   04:35:59.698.17-Sep-2021 5094.00 5576.55 80.66 4.00  69.68 2595.14
   04:35:59.898.17-Sep-2021 5094.00 5575.61 80.66 4.00  69.88 2595.14
   04:36:00.099.17-Sep-2021 5094.00 5575.72 80.66 4.00  70.08 2595.14
   04:36:00.299.17-Sep-2021 5094.00 5575.72 80.66 4.00  70.28 2595.14
   04:36:00.499.17-Sep-2021 5094.00 5576.49 80.66 4.00  70.48 2595.14
   04:36:00.699.17-Sep-2021 5094.00 5576.42 80.66 4.00  70.68 2595.14
   04:36:00.900.17-Sep-2021 5094.00 5576.20 80.65 4.00  70.88 2595.14
   04:36:01.100.17-Sep-2021 5094.00 5578.04 80.65 4.00  71.08 2595.14
   04:36:01.300.17-Sep-2021 5094.00 5578.04 80.65 4.00  71.28 2595.14
   04:36:01.500.17-Sep-2021 5094.00 5576.88 80.65 4.00  71.48 2595.14
   04:36:01.700.17-Sep-2021 5094.00 5576.44 80.65 4.00  71.68 2595.14
   04:36:01.901.17-Sep-2021 5094.00 5575.93 80.65 4.00  71.88 2595.14
   04:36:02.101.17-Sep-2021 5094.00 5576.19 80.65 4.00  72.08 2595.14
   04:36:02.301.17-Sep-2021 5094.00 5576.19 80.65 4.00  72.28 2595.14
   04:36:02.501.17-Sep-2021 5094.00 5576.31 80.65 4.00  72.48 2595.14
   04:36:02.701.17-Sep-2021 5094.00 5576.08 80.65 4.00  72.68 2595.14
   04:36:02.902.17-Sep-2021 5094.00 5576.26 80.65 4.00  72.88 2595.14
   04:36:03.102.17-Sep-2021 5094.00 5576.58 80.65 4.00  73.08 2595.14
   04:36:03.302.17-Sep-2021 5094.00 5576.58 80.65 4.00  73.28 2595.14
   04:36:03.502.17-Sep-2021 5094.00 5576.62 80.65 4.00  73.48 2595.14
   04:36:03.703.17-Sep-2021 5094.00 5576.60 80.65 4.00  73.68 2595.14
   04:36:03.903.17-Sep-2021 5094.00 5576.74 80.65 4.00  73.88 2595.14
   04:36:04.103.17-Sep-2021 5094.00 5579.43 80.65 4.00  74.08 2595.14
   04:36:04.303.17-Sep-2021 5094.00 5579.43 80.65 4.00  74.28 2595.14
   04:36:04.503.17-Sep-2021 5094.00 5578.36 80.65 4.00  74.48 2595.14
   04:36:04.704.17-Sep-2021 5094.00 5576.58 80.65 4.00  74.68 2595.14
   04:36:04.904.17-Sep-2021 5094.00 5576.70 80.65 4.00  74.88 2595.14
   04:36:05.104.17-Sep-2021 5094.00 5576.94 80.65 4.00  75.08 2595.14
   04:36:05.304.17-Sep-2021 5094.00 5576.94 80.65 4.00  75.28 2595.14
   04:36:05.505.17-Sep-2021 5094.00 5575.98 80.65 4.00  75.48 2595.14
   04:36:05.705.17-Sep-2021 5094.00 5575.70 80.65 4.00  75.68 2595.14
   04:36:05.905.17-Sep-2021 5094.00 5575.97 80.64 4.00  75.88 2595.14
   04:36:06.105.17-Sep-2021 5094.00 5575.83 80.64 4.00  76.08 2595.14
   04:36:06.305.17-Sep-2021 5094.00 5575.83 80.64 4.00  76.28 2595.14
   04:36:06.506.17-Sep-2021 5094.00 5576.07 80.64 4.00  76.48 2595.14
   04:36:06.706.17-Sep-2021 5094.00 5576.18 80.64 4.00  76.68 2595.14
   04:36:06.906.17-Sep-2021 5094.00 5576.33 80.64 4.00  76.88 2595.14
   04:36:07.106.17-Sep-2021 5094.00 5576.40 80.64 4.00  77.08 2595.14
   04:36:07.306.17-Sep-2021 5094.00 5576.40 80.64 4.00  77.28 2595.14
   04:36:07.507.17-Sep-2021 5094.00 5577.39 80.64 4.00  77.48 2595.14
   04:36:07.707.17-Sep-2021 5094.00 5577.42 80.64 4.00  77.68 2595.14
   04:36:07.907.17-Sep-2021 5094.00 5577.54 80.64 4.00  77.88 2595.14
   04:36:08.107.17-Sep-2021 5094.00 5577.32 80.64 4.00  78.08 2595.14
   04:36:08.308.17-Sep-2021 5094.00 5577.32 80.64 4.00  78.28 2595.14
   04:36:08.508.17-Sep-2021 5094.00 5576.47 80.64 4.00  78.48 2595.14
   04:36:08.708.17-Sep-2021 5094.00 5579.23 80.64 4.00  78.68 2595.14
   04:36:08.908.17-Sep-2021 5094.00 5574.59 80.64 4.00  78.88 2595.14
   04:36:09.108.17-Sep-2021 5094.00 5577.19 80.64 4.00  79.09 2595.14
   04:36:09.309.17-Sep-2021 5094.00 5577.19 80.64 4.00  79.29 2595.14
   04:36:09.509.17-Sep-2021 5094.00 5575.69 80.64 4.00  79.49 2595.14
   04:36:09.709.17-Sep-2021 5094.00 5576.02 80.64 4.00  79.69 2595.14
   04:36:09.909.17-Sep-2021 5094.00 5576.72 80.64 4.00  79.89 2595.14
   04:36:10.109.17-Sep-2021 5094.00 5576.63 80.64 4.00  80.09 2595.14
   04:36:10.310.17-Sep-2021 5094.00 5576.63 80.64 4.00  80.29 2595.14
   04:36:10.510.17-Sep-2021 5094.00 5576.63 80.64 4.00  80.49 2595.14
   04:36:10.710.17-Sep-2021 5094.00 5576.05 80.63 4.00  80.69 2595.14
   04:36:10.910.17-Sep-2021 5094.00 5577.82 80.63 4.00  80.89 2595.14
   04:36:11.111.17-Sep-2021 5094.00 5575.89 80.63 4.00  81.09 2595.14
   04:36:11.311.17-Sep-2021 5094.00 5575.89 80.63 4.00  81.29 2595.14
   04:36:11.511.17-Sep-2021 5094.00 5576.31 80.63 4.00  81.49 2595.14
   04:36:11.711.17-Sep-2021 5094.00 5575.88 80.63 4.00  81.69 2595.14
   04:36:11.911.17-Sep-2021 5094.00 5576.03 80.63 4.00  81.89 2595.14
   04:36:12.112.17-Sep-2021 5094.00 5575.95 80.63 4.00  82.09 2595.14
   04:36:12.312.17-Sep-2021 5094.00 5575.95 80.63 4.00  82.29 2595.14
   04:36:12.512.17-Sep-2021 5094.00 5575.91 80.63 4.00  82.49 2595.14
   04:36:12.712.17-Sep-2021 5094.00 5575.87 80.63 4.00  82.69 2595.14
   04:36:12.912.17-Sep-2021 5094.00 5576.16 80.63 4.00  82.89 2595.14
   04:36:13.113.17-Sep-2021 5094.00 5576.38 80.63 4.00  83.09 2595.14
   04:36:13.313.17-Sep-2021 5094.00 5576.38 80.63 4.00  83.29 2595.14
   04:36:13.513.17-Sep-2021 5094.00 5576.46 80.63 4.00  83.49 2595.14
   04:36:13.713.17-Sep-2021 5094.00 5576.66 80.63 4.00  83.69 2595.14
   04:36:13.914.17-Sep-2021 5094.00 5579.54 80.63 4.00  83.89 2595.14
   04:36:14.114.17-Sep-2021 5094.00 5575.92 80.63 4.00  84.09 2595.14
   04:36:14.314.17-Sep-2021 5094.00 5575.92 80.63 4.00  84.29 2595.14
   04:36:14.514.17-Sep-2021 5094.00 5576.73 80.63 4.00  84.49 2595.14
   04:36:14.714.17-Sep-2021 5094.00 5576.57 80.63 4.00  84.69 2595.14
   04:36:14.915.17-Sep-2021 5094.00 5576.62 80.63 4.00  84.89 2595.14
   04:36:15.115.17-Sep-2021 5094.00 5576.12 80.63 4.00  85.09 2595.14
   04:36:15.315.17-Sep-2021 5094.00 5576.12 80.63 4.00  85.29 2595.14
   04:36:15.515.17-Sep-2021 5094.00 5575.74 80.62 4.00  85.49 2595.14
   04:36:15.716.17-Sep-2021 5094.00 5575.95 80.62 4.00  85.69 2595.14
   04:36:15.916.17-Sep-2021 5094.00 5575.77 80.62 4.00  85.89 2595.14
   04:36:16.116.17-Sep-2021 5094.00 5576.06 80.62 4.00  86.09 2595.14
   04:36:16.316.17-Sep-2021 5094.00 5576.06 80.62 4.00  86.29 2595.14
   04:36:16.516.17-Sep-2021 5094.00 5576.25 80.62 4.00  86.49 2595.14
   04:36:16.717.17-Sep-2021 5094.00 5576.42 80.62 4.00  86.69 2595.14
   04:36:16.917.17-Sep-2021 5094.00 5576.63 80.62 4.00  86.89 2595.14
   04:36:17.117.17-Sep-2021 5094.00 5576.98 80.62 4.00  87.09 2595.14
   04:36:17.317.17-Sep-2021 5094.00 5576.98 80.62 4.00  87.29 2595.14
   04:36:17.517.17-Sep-2021 5094.00 5577.90 80.62 4.00  87.49 2595.14
   04:36:17.718.17-Sep-2021 5094.00 5578.01 80.62 4.00  87.69 2595.14
   04:36:17.918.17-Sep-2021 5094.00 5577.50 80.62 4.00  87.89 2595.14
   04:36:18.118.17-Sep-2021 5094.00 5576.97 80.62 4.00  88.09 2595.14
   04:36:18.318.17-Sep-2021 5094.00 5576.97 80.62 4.00  88.30 2595.14
   04:36:18.519.17-Sep-2021 5094.00 5577.21 80.62 4.00  88.50 2595.14
   04:36:18.719.17-Sep-2021 5094.00 5577.00 80.62 4.00  88.70 2595.14
   04:36:18.919.17-Sep-2021 5094.00 5576.77 80.62 4.00  88.90 2595.14
   04:36:19.119.17-Sep-2021 5094.00 5576.51 80.62 4.00  89.10 2595.14
   04:36:19.319.17-Sep-2021 5094.00 5576.51 80.62 4.00  89.30 2595.14
   04:36:19.520.17-Sep-2021 5094.00 5575.79 80.62 4.00  89.50 2595.14
   04:36:19.720.17-Sep-2021 5094.00 5578.73 80.62 4.00  89.70 2595.14
   04:36:19.920.17-Sep-2021 5094.00 5574.55 80.62 4.00  89.90 2595.14
   04:36:20.120.17-Sep-2021 5094.00 5577.11 80.62 4.00  90.10 2595.14
   04:36:20.320.17-Sep-2021 5094.00 5577.11 80.62 4.00  90.30 2595.14
   04:36:20.521.17-Sep-2021 5094.00 5576.36 80.61 4.00  90.50 2595.14
   04:36:20.721.17-Sep-2021 5094.00 5576.92 80.61 4.00  90.70 2595.14
   04:36:20.921.17-Sep-2021 5094.00 5577.21 80.61 4.00  90.90 2595.14
   04:36:21.121.17-Sep-2021 5094.00 5577.40 80.61 4.00  91.10 2595.14
   04:36:21.322.17-Sep-2021 5094.00 5577.40 80.61 4.00  91.30 2595.14
   04:36:21.522.17-Sep-2021 5094.00 5576.87 80.61 4.00  91.50 2595.14
   04:36:21.722.17-Sep-2021 5094.00 5576.37 80.61 4.00  91.70 2595.14
   04:36:21.922.17-Sep-2021 5094.00 5576.25 80.61 4.00  91.90 2595.14
