~Version Information
 VERS.                  2.0:   CWLS log ASCII Standard -VERSION 2.0
 WRAP.                   NO:   One line per depth step
~Well Information Block
#MNEM.UNIT     VALUE/NAME     DESCRIPTION
#---------     -----------    ---------------------------
 STRT.S             04:34:50 17-Sep-21: START TIME 04:34:50 17-Sep-21
 STOP.S             04:43:20 17-Sep-21: STOP TIME  04:43:20 17-Sep-21
 STEP.S                   0.00: STEP TIME
 NULL.                 -999.25: NULL VALUE
 DFWT.                        :  DIST FWL TEXT
 DFST.                        :  DIST FSL TEXT
 DMF .             Drill Floor:  DRILL MEAS FROM
 STIM.      10.59.12 05-Jul-21:  START TIME
 DATE.      10.59.12 10-Sep-21:  END TIME
 SPUD.               05-Jul-21:  SPUD DATE
 NREF.                    Grid:  NORTH REFERENCE
 HPTY.       Minimum Curvature:  HOLE POS TYPE
 DMOD.             Drill Model:  DRILL MOD DESC
 SVYD.                  Survey:  SURVEY DESC
 ILTD.               Lithology:  INTERP LTH DESC
 FTOP.          Formation Tops:  FORM TOPS DESC
 RIG .                     DWG:  RIG NAME
 PDAT.          Mean Sea Level:  PERMANENT DATUM
 FLD .                     ACG:  FIELD NAME
 SON .        AZ-XX-0907115008:  JOB NUMBER
 CTRY.              Azerbaijan:  COUNTRY NAME
 WELL.                    E35A:  WELL NAME
 SRVC.          TURAN DRILLING:  CONTRACTOR
 COMP.     BP Exploration (Caspian Sea LTD):  COMPANY
 UWI .                     N/A:  UNIQUE WELL IDENTIFIER
 API .                     N/A:  API NUMBER
 MDS .        Operator Entered:  MAG DATA SOURCE
 BASE.              Azerbaijan:  LOGGING EQUIPMENT BASE LOCATION
 REGN.                   EESSA:  REGION
 PROV.                    Baku:  PROVINCE
 STAT.                    Baku:  STATE NAME
 MWDS.                    Baku:  MWD SHOP
 JOBN.        AZ-XX-0907115008:  JOB TICKET NUMB
 DOE .                     N/A:  DOE NUMBER
 DCON.         Sperry Drilling:  DIRECTNL CONTR
 UNIT.                     N/A:  LOGGING EQUIPMENT ID
 WTYP.                Deviated:  WELL TYPE
 CNTY.                        :  COUNTY
 LOC .                        :  LOCATION
 LMF .             Drill Floor:  LOG MEASURED FROM
 TVDS.m                  43.16:  TVDSS CORRECTN
 LATI.deg                40.17:  LATITUDE
 LONG.deg                51.17:  LONGITUDE
 WHNS.m                  10.51:  WELL HEAD N/S
 WHEW.m                 -14.82:  WELL HEAD E/W
 UTMX.m              514336.92:  UTM X
 UTMY.m             4448618.56:  UTM Y
 DFWL.m                   0.00:  DISTANCE FWL
 DFSL.m                   0.00:  DISTANCE FSL
 SDEP.m                 849.00:  START DEPTH
 TDD .m                2862.00:  TOTAL DEPTH (DRILLER)
 VSDR.deg               292.10:  VERT SEC DIRECT
 GVFD.g                   1.00:  GRAVITY FIELD
 MFLD.nT              50382.00:  MAGNETIC FIELD
 MDIP.deg                59.68:  MAGNETIC DIP
 MDEC.deg                 6.66:  MAGNETIC DECL
 GRDC.deg                 0.09:  GRID CORRECTION
 AZTC.deg                 6.57:  AZM TOTAL CORR
 EPD .m                   0.00:  ELEVATION
 EGL .m                   0.00:  GROUND ELEVATION
 WDMS.m                 176.20:  WD ELEV
 APD .m                  43.16:  DEPTH ABOVE PD
 DEP .m                 363.42:  DEPTH
 AGAP.m                  43.16:  AIR GAP
 VSEW.m                 -14.82:  VERT SEC E/W
 VSNS.m                  10.51:  VERT SEC N/S
 EKB .m                  43.16:  KB ELEVATION
 EDF .m                  43.16:  DF ELEVATION
 TDL .m                1390.00:  TOTAL DEPTH (LOGGER)
 VSC .                       0:  VS TO CLOSURE
 MAGU.                 1855871:  MAGUTM CHECKSUM
~Parameter Information Block
#MNEM.UNIT       Value        Description
#---------     -----------    ---------------------------
 AV  .mps                 2.28:  Ann Velocity 
 AVMX.mps                 2.67:  Max Ann Veloc 
 AZIF.deg               305.00:  Azm, Final 
 BHAT.        Rotary Steerable:  BHA Type 
 BROT.°/30m               0.45:  Build Rotating 
 BS  .in                 12.25:  Bit Size 
 BSZ .in                 12.25:  Bit Size 
 BTPL.psig              600.00:  Bit Press Loss 
 CABU.                     Yes:  Customer Abuse 
 COMM.                     ÌN:  Run Comments 1 
 TCS .hr                150.00:  Time Ciculation Ended 
 CV  .mps                 1.24:  Crit Velocity 
 CVMX.mps                 1.66:  Max Crit Veloc 
 DD1 .         Intigam Rahimov:  Direct Drillr 1 
 DD2 .            Azer Ravavov:  Direct Drillr 2 
 DD3 .              Samir Abas:  Direct Drillr 3 
 DDSV.               Geo-Pilot:  DD Service 
 DEFF.%                 100.00:  % Det Eff 
 DLRX.°/30m               1.57:  Dogleg Rot Max 
 DLSO.°/30m               0.00:  Dogleg Oriented 
 DLSX.°/30m               0.00:  Dogleg Str Max 
 DRET.      20.28.06 17-Sep-21:  Drill End Time 
 DRST.      20.27.35 10-Sep-21:  Drill Start Tim 
 DTIM.hr                 54.00:  Time Drilling 
 EDEP.m                5260.00:  End Depth 
 ENG1.      Bakhtiyar Jabbarli:  Engineer 1 
 ENG2.      Natik Hasanaghayev:  Engineer 2 
 ENG3.           Royal Nasirov:  Engineer 3 
 ETIM.      20.27.55 18-Sep-21:  End Time 
 FLOI.gpm              1100.00:  Flow In 
 FLON.gpm               800.00:  Flow In Min 
 FLOS.cptm                0.00:  Fluid Loss 
 FLOX.gpm              1200.00:  Flow In Max 
 DFT .        Mineral Oil Base:  Mud Type 
 HPRE.                      No:  High Pressure 
 HTEM.                      No:  High Temp 
 HYDO.m                   1.80:  Hydro Offset 
 IFIN.deg                72.31:  Inc, Final 
 IMAX.deg                72.36:  Inc Max 
 IMIN.deg                69.36:  Inc Min 
 IMND.m                4192.96:  Inc Min Depth 
 IMXD.m                5128.36:  Inc Max Depth 
 JARR.                      No:  Jarring 
 LETM.      20.29.00 17-Sep-21:  Log End Time 
 LOST.hr                     0:  Lost Rig Time 
 LSTM.      20.27.00 10-Sep-21:  Log Start Time 
 MDCL.ppm            227000.00:  Mud Chlorides 
 MDES.     Inversion Oil/Synthetic:  Mud Desc 
 DFD .sg                  1.45:  Mud Density 
 MDMN.sg                  1.45:  Dens Mud Min 
 MDMX.sg                  1.45:  Dens Mud Max 
 MOIL.                    70.5:  Run Mud Oil % 
 MOWR.                   71:29:  Run Mud OWR 
 MSND.                     0.3:  Run Mud Sand % 
 MSOL.                    19.8:  Run Mud Solids% 
 DFV .spqt               80.00:  Mud Viscosity 
 MWOD.in                  8.00:  MWD Tool OD 
 MWSI.                     Yes:  Serv Intrp, MWD 
 OTIM.hr                180.00:  Time Operating 
 PCON.           Look Like New:  Pad Condition 
 PMAX.psia             9910.94:  Press Op, Max 
 PV  .cP                 35.00:  Mud PV 
 RUN .                    1000:  Run Number 
 ROPA.m/hr               18.00:  ROP Avg 
 ROPN.m/hr                8.00:  ROP Min 
 ROPX.m/hr               23.00:  ROP Max 
 RPMA.rpm               150.00:  RPM Surface Avg 
 RPMN.rpm               120.00:  RPM Surface Min 
 RPMX.rpm               160.00:  RPM Surface Max 
 RRUN.                    L503:  Rig Run Number 
 RTIM.hr                  5.00:  Time Reaming 
 SAZI.deg               298.42:  Azm, Start 
 SDEP.m                3870.00:  Start Depth 
 SIDD.                      No:  Serv Intrp, DD 
 SINC.deg                69.57:  Inc, Start 
 SPPA.psig             5500.00:  SPP Avg 
 SPPN.psig             4400.00:  SPP Min 
 SPPX.psig             5800.00:  SPP Max 
 STIM.      15.29.39 09-Sep-21:  Start Time 
 SVCS.                 DD, MWD:  Services 
 SVER.                    9.20:  Sperry Version 
 TDAT.m                5260.00:  Tot Depth Attmp 
 TDDF.                      No:  Trip for DD 
 TDLG.m                1390.00:  Tot Depth Loggd 
 TFF .                      No:  Trip for Fail 
 TQAA.f-kp               22.00:  Torque Abs Avg 
 TQAN.f-kp               13.00:  Torque Abs Min 
 TQAX.f-kp               27.00:  Torque Abs Max 
 TRRT.°/30m               1.60:  Turn Rotating 
 MRT .                  EWR-M5:  Maximum Recorded Temperature 
 TTMX.degC               92.00:  Max Tool Temp 
 VS01.                12330975:  Virtual Str1 SN 
 VS02.                90658671:  Virtual Str2 SN 
 VS03.                90658508:  Virtual Str3 SN 
 VS04.                90660974:  Virtual Str4 SN 
 VS05.                90654675:  Virtual Str5 SN 
 WBMN.klb                15.00:  WOB Min 
 WITN.     Alexander Yadullayev:  Customer Rep 
 WITN.           Adil Mammadov:  Customer Rep 2 
 WOBA.klb                17.00:  WOB Avg 
 WOBX.klb                18.00:  WOB Max 
 YP  .lhf2               31.00:  Yield Point 
~Curve Information Block
#MNEM.UNIT                 API CODE     Curve Description
#---------               -----------    ---------------------------
 TIME.HHMMSS            00 000 000 000:  GT Time & Date
 GTDEPTH.m              00 000 000 000:  GT Depth
 GTPQH.psia             00 000 000 000:  GT HR Quartz Pressure
 GTTQ.degC              00 000 000 000:  GT Quartz Temperature
 GTTN.NONE              00 000 000 000:  GT Test Number
 GTET.sec               00 000 000 000:  GT Elapsed Test Time
 GTTVD.m                00 000 000 000:  GT True Vertical Depth
#Other Information
#
#WARRANTY: Halliburton will use its best efforts to furnish customers with 
#accurate information and interpretations that are part of, and incident to, the services 
#provided.  However, Halliburton cannot and does not warrant the accuracy 
#or correctness of such information and interpretations.  Under no circumstances should any 
#such information or interpretation be relied upon as the sole basis for any drilling, 
#completion, production, or financial decision or any procedure involving any risk to the 
#safety of any drilling venture, drilling rig or its crew or any other third party.  The 
#Customer has full responsibility for all drilling, completion and production operation.  
#Halliburton makes no representations or warranties, either expressed or 
#implied, including, but not limited to, the implied warranties of merchantability or fitness 
#for a particular purpose, with respect to the services rendered.  In no event will 
#Halliburton be liable for failure to obtain any particular results or for 
#any damages, including, but not limited to, indirect, special or consequential damages, 
#resulting from the use of any information or interpretation provided by Halliburton.
#
~A           TIME           GTDEPTH  GTPQH  GTTQ  GTTN  GTET   GTTVD  
# ...
   04:39:03.296.17-Sep-2021 5094.00 5574.71 80.31 4.00 253.27 2595.14
   04:39:03.496.17-Sep-2021 5094.00 5574.71 80.31 4.00 253.47 2595.14
   04:39:03.696.17-Sep-2021 5094.00 5572.93 80.31 4.00 253.67 2595.14
   04:39:03.897.17-Sep-2021 5094.00 5572.78 80.31 4.00 253.87 2595.14
   04:39:04.097.17-Sep-2021 5094.00 5572.38 80.31 4.00 254.07 2595.14
   04:39:04.297.17-Sep-2021 5094.00 5572.40 80.31 4.00 254.27 2595.14
   04:39:04.497.17-Sep-2021 5094.00 5572.40 80.31 4.00 254.47 2595.14
   04:39:04.698.17-Sep-2021 5094.00 5572.42 80.31 4.00 254.67 2595.14
   04:39:04.898.17-Sep-2021 5094.00 5572.45 80.31 4.00 254.87 2595.14
   04:39:05.098.17-Sep-2021 5094.00 5572.77 80.31 4.00 255.07 2595.14
   04:39:05.298.17-Sep-2021 5094.00 5572.77 80.31 4.00 255.27 2595.14
   04:39:05.498.17-Sep-2021 5094.00 5572.77 80.31 4.00 255.48 2595.14
   04:39:05.699.17-Sep-2021 5094.00 5572.99 80.31 4.00 255.68 2595.14
   04:39:05.899.17-Sep-2021 5094.00 5573.27 80.31 4.00 255.88 2595.14
   04:39:06.099.17-Sep-2021 5094.00 5573.35 80.31 4.00 256.08 2595.14
   04:39:06.299.17-Sep-2021 5094.00 5573.45 80.31 4.00 256.28 2595.14
   04:39:06.499.17-Sep-2021 5094.00 5573.45 80.31 4.00 256.48 2595.14
   04:39:06.700.17-Sep-2021 5094.00 5573.79 80.30 4.00 256.68 2595.14
   04:39:06.900.17-Sep-2021 5094.00 5573.92 80.30 4.00 256.88 2595.14
   04:39:07.100.17-Sep-2021 5094.00 5573.06 80.30 4.00 257.08 2595.14
   04:39:07.300.17-Sep-2021 5094.00 5572.35 80.30 4.00 257.28 2595.14
   04:39:07.501.17-Sep-2021 5094.00 5572.35 80.30 4.00 257.48 2595.14
   04:39:07.701.17-Sep-2021 5094.00 5571.99 80.30 4.00 257.68 2595.14
   04:39:07.901.17-Sep-2021 5094.00 5573.43 80.30 4.00 257.88 2595.14
   04:39:08.101.17-Sep-2021 5094.00 5572.47 80.30 4.00 258.08 2595.14
   04:39:08.301.17-Sep-2021 5094.00 5572.21 80.30 4.00 258.28 2595.14
   04:39:08.502.17-Sep-2021 5094.00 5572.21 80.30 4.00 258.48 2595.14
   04:39:08.702.17-Sep-2021 5094.00 5572.20 80.30 4.00 258.68 2595.14
   04:39:08.902.17-Sep-2021 5094.00 5573.90 80.30 4.00 258.88 2595.14
   04:39:09.102.17-Sep-2021 5094.00 5572.72 80.30 4.00 259.08 2595.14
   04:39:09.302.17-Sep-2021 5094.00 5573.68 80.30 4.00 259.28 2595.14
   04:39:09.503.17-Sep-2021 5094.00 5573.68 80.30 4.00 259.48 2595.14
   04:39:09.703.17-Sep-2021 5094.00 5575.17 80.30 4.00 259.68 2595.14
   04:39:09.903.17-Sep-2021 5094.00 5572.08 80.30 4.00 259.88 2595.14
   04:39:10.103.17-Sep-2021 5094.00 5573.66 80.30 4.00 260.08 2595.14
   04:39:10.304.17-Sep-2021 5094.00 5573.24 80.30 4.00 260.28 2595.14
   04:39:10.504.17-Sep-2021 5094.00 5573.24 80.30 4.00 260.48 2595.14
   04:39:10.704.17-Sep-2021 5094.00 5572.83 80.30 4.00 260.68 2595.14
   04:39:10.904.17-Sep-2021 5094.00 5572.56 80.30 4.00 260.88 2595.14
   04:39:11.104.17-Sep-2021 5094.00 5572.50 80.30 4.00 261.08 2595.14
   04:39:11.305.17-Sep-2021 5094.00 5572.06 80.30 4.00 261.28 2595.14
   04:39:11.505.17-Sep-2021 5094.00 5572.06 80.30 4.00 261.48 2595.14
   04:39:11.705.17-Sep-2021 5094.00 5572.54 80.30 4.00 261.68 2595.14
   04:39:11.905.17-Sep-2021 5094.00 5572.58 80.30 4.00 261.88 2595.14
   04:39:12.105.17-Sep-2021 5094.00 5572.73 80.29 4.00 262.08 2595.14
   04:39:12.306.17-Sep-2021 5094.00 5572.71 80.29 4.00 262.28 2595.14
   04:39:12.506.17-Sep-2021 5094.00 5572.71 80.29 4.00 262.48 2595.14
   04:39:12.706.17-Sep-2021 5094.00 5574.79 80.29 4.00 262.68 2595.14
   04:39:12.906.17-Sep-2021 5094.00 5573.04 80.29 4.00 262.88 2595.14
   04:39:13.107.17-Sep-2021 5094.00 5574.51 80.29 4.00 263.08 2595.14
   04:39:13.307.17-Sep-2021 5094.00 5573.08 80.29 4.00 263.28 2595.14
   04:39:13.507.17-Sep-2021 5094.00 5573.08 80.29 4.00 263.48 2595.14
   04:39:13.707.17-Sep-2021 5094.00 5572.91 80.29 4.00 263.68 2595.14
   04:39:13.907.17-Sep-2021 5094.00 5572.57 80.29 4.00 263.88 2595.14
   04:39:14.108.17-Sep-2021 5094.00 5572.19 80.29 4.00 264.08 2595.14
   04:39:14.308.17-Sep-2021 5094.00 5571.95 80.29 4.00 264.28 2595.14
   04:39:14.508.17-Sep-2021 5094.00 5571.95 80.29 4.00 264.48 2595.14
   04:39:14.708.17-Sep-2021 5094.00 5572.03 80.29 4.00 264.69 2595.14
   04:39:14.909.17-Sep-2021 5094.00 5572.27 80.29 4.00 264.89 2595.14
   04:39:15.109.17-Sep-2021 5094.00 5572.30 80.29 4.00 265.09 2595.14
   04:39:15.309.17-Sep-2021 5094.00 5572.50 80.29 4.00 265.29 2595.14
   04:39:15.509.17-Sep-2021 5094.00 5572.50 80.29 4.00 265.49 2595.14
   04:39:15.709.17-Sep-2021 5094.00 5572.82 80.29 4.00 265.69 2595.14
   04:39:15.910.17-Sep-2021 5094.00 5572.91 80.29 4.00 265.89 2595.14
   04:39:16.110.17-Sep-2021 5094.00 5573.02 80.29 4.00 266.09 2595.14
   04:39:16.310.17-Sep-2021 5094.00 5574.75 80.29 4.00 266.29 2595.14
   04:39:16.510.17-Sep-2021 5094.00 5574.75 80.29 4.00 266.49 2595.14
   04:39:16.710.17-Sep-2021 5094.00 5573.96 80.29 4.00 266.69 2595.14
   04:39:16.911.17-Sep-2021 5094.00 5573.12 80.29 4.00 266.89 2595.14
   04:39:17.111.17-Sep-2021 5094.00 5572.55 80.29 4.00 267.09 2595.14
   04:39:17.311.17-Sep-2021 5094.00 5576.00 80.29 4.00 267.29 2595.14
   04:39:17.511.17-Sep-2021 5094.00 5576.00 80.29 4.00 267.49 2595.14
   04:39:17.712.17-Sep-2021 5094.00 5573.10 80.29 4.00 267.69 2595.14
   04:39:17.912.17-Sep-2021 5094.00 5571.98 80.28 4.00 267.89 2595.14
   04:39:18.112.17-Sep-2021 5094.00 5571.81 80.28 4.00 268.09 2595.14
   04:39:18.312.17-Sep-2021 5094.00 5572.18 80.28 4.00 268.29 2595.14
   04:39:18.512.17-Sep-2021 5094.00 5572.18 80.28 4.00 268.49 2595.14
   04:39:18.713.17-Sep-2021 5094.00 5571.90 80.28 4.00 268.69 2595.14
   04:39:18.913.17-Sep-2021 5094.00 5573.11 80.28 4.00 268.89 2595.14
   04:39:19.113.17-Sep-2021 5094.00 5572.42 80.28 4.00 269.09 2595.14
   04:39:19.313.17-Sep-2021 5094.00 5572.47 80.28 4.00 269.29 2595.14
   04:39:19.513.17-Sep-2021 5094.00 5572.47 80.28 4.00 269.49 2595.14
   04:39:19.714.17-Sep-2021 5094.00 5574.18 80.28 4.00 269.69 2595.14
   04:39:19.914.17-Sep-2021 5094.00 5572.96 80.28 4.00 269.89 2595.14
   04:39:20.114.17-Sep-2021 5094.00 5573.21 80.28 4.00 270.09 2595.14
   04:39:20.314.17-Sep-2021 5094.00 5572.70 80.28 4.00 270.29 2595.14
   04:39:20.515.17-Sep-2021 5094.00 5572.70 80.28 4.00 270.49 2595.14
   04:39:20.715.17-Sep-2021 5094.00 5572.28 80.28 4.00 270.69 2595.14
   04:39:20.915.17-Sep-2021 5094.00 5571.73 80.28 4.00 270.89 2595.14
   04:39:21.115.17-Sep-2021 5094.00 5571.78 80.28 4.00 271.09 2595.14
   04:39:21.315.17-Sep-2021 5094.00 5572.08 80.28 4.00 271.29 2595.14
   04:39:21.516.17-Sep-2021 5094.00 5572.08 80.28 4.00 271.49 2595.14
   04:39:21.716.17-Sep-2021 5094.00 5572.38 80.28 4.00 271.69 2595.14
   04:39:21.916.17-Sep-2021 5094.00 5572.35 80.28 4.00 271.89 2595.14
   04:39:22.116.17-Sep-2021 5094.00 5572.44 80.28 4.00 272.09 2595.14
   04:39:22.316.17-Sep-2021 5094.00 5572.36 80.28 4.00 272.29 2595.14
   04:39:22.517.17-Sep-2021 5094.00 5572.36 80.28 4.00 272.49 2595.14
   04:39:22.717.17-Sep-2021 5094.00 5576.18 80.28 4.00 272.69 2595.14
   04:39:22.917.17-Sep-2021 5094.00 5571.48 80.28 4.00 272.89 2595.14
   04:39:23.117.17-Sep-2021 5094.00 5574.28 80.28 4.00 273.09 2595.14
   04:39:23.318.17-Sep-2021 5094.00 5573.06 80.28 4.00 273.29 2595.14
   04:39:23.518.17-Sep-2021 5094.00 5573.06 80.28 4.00 273.49 2595.14
   04:39:23.718.17-Sep-2021 5094.00 5572.35 80.27 4.00 273.69 2595.14
   04:39:23.918.17-Sep-2021 5094.00 5572.00 80.27 4.00 273.89 2595.14
   04:39:24.118.17-Sep-2021 5094.00 5571.98 80.27 4.00 274.10 2595.14
   04:39:24.319.17-Sep-2021 5094.00 5571.64 80.27 4.00 274.30 2595.14
   04:39:24.519.17-Sep-2021 5094.00 5571.64 80.27 4.00 274.50 2595.14
   04:39:24.719.17-Sep-2021 5094.00 5571.88 80.27 4.00 274.70 2595.14
   04:39:24.919.17-Sep-2021 5094.00 5572.18 80.27 4.00 274.90 2595.14
   04:39:25.120.17-Sep-2021 5094.00 5572.09 80.27 4.00 275.10 2595.14
   04:39:25.320.17-Sep-2021 5094.00 5572.25 80.27 4.00 275.30 2595.14
   04:39:25.520.17-Sep-2021 5094.00 5572.25 80.27 4.00 275.50 2595.14
   04:39:25.720.17-Sep-2021 5094.00 5572.57 80.27 4.00 275.70 2595.14
   04:39:25.920.17-Sep-2021 5094.00 5572.89 80.27 4.00 275.90 2595.14
   04:39:26.121.17-Sep-2021 5094.00 5574.53 80.27 4.00 276.10 2595.14
