~Version Information
 VERS.                  2.0:   CWLS log ASCII Standard -VERSION 2.0
 WRAP.                   NO:   One line per depth step
~Well Information Block
#MNEM.UNIT     VALUE/NAME     DESCRIPTION
#---------     -----------    ---------------------------
 STRT.S             02:32:25 17-Sep-21: START TIME 02:32:25 17-Sep-21
 STOP.S             02:40:50 17-Sep-21: STOP TIME  02:40:50 17-Sep-21
 STEP.S                   0.00: STEP TIME
 NULL.                 -999.25: NULL VALUE
 DFWT.                        :  DIST FWL TEXT
 DFST.                        :  DIST FSL TEXT
 DMF .             Drill Floor:  DRILL MEAS FROM
 STIM.      10.59.12 05-Jul-21:  START TIME
 DATE.      10.59.12 10-Sep-21:  END TIME
 SPUD.               05-Jul-21:  SPUD DATE
 NREF.                    Grid:  NORTH REFERENCE
 HPTY.       Minimum Curvature:  HOLE POS TYPE
 DMOD.             Drill Model:  DRILL MOD DESC
 SVYD.                  Survey:  SURVEY DESC
 ILTD.               Lithology:  INTERP LTH DESC
 FTOP.          Formation Tops:  FORM TOPS DESC
 RIG .                     DWG:  RIG NAME
 PDAT.          Mean Sea Level:  PERMANENT DATUM
 FLD .                     ACG:  FIELD NAME
 SON .        AZ-XX-0907115008:  JOB NUMBER
 CTRY.              Azerbaijan:  COUNTRY NAME
 WELL.                    E35A:  WELL NAME
 SRVC.          TURAN DRILLING:  CONTRACTOR
 COMP.     BP Exploration (Caspian Sea LTD):  COMPANY
 UWI .                     N/A:  UNIQUE WELL IDENTIFIER
 API .                     N/A:  API NUMBER
 MDS .        Operator Entered:  MAG DATA SOURCE
 BASE.              Azerbaijan:  LOGGING EQUIPMENT BASE LOCATION
 REGN.                   EESSA:  REGION
 PROV.                    Baku:  PROVINCE
 STAT.                    Baku:  STATE NAME
 MWDS.                    Baku:  MWD SHOP
 JOBN.        AZ-XX-0907115008:  JOB TICKET NUMB
 DOE .                     N/A:  DOE NUMBER
 DCON.         Sperry Drilling:  DIRECTNL CONTR
 UNIT.                     N/A:  LOGGING EQUIPMENT ID
 WTYP.                Deviated:  WELL TYPE
 CNTY.                        :  COUNTY
 LOC .                        :  LOCATION
 LMF .             Drill Floor:  LOG MEASURED FROM
 TVDS.m                  43.16:  TVDSS CORRECTN
 LATI.deg                40.17:  LATITUDE
 LONG.deg                51.17:  LONGITUDE
 WHNS.m                  10.51:  WELL HEAD N/S
 WHEW.m                 -14.82:  WELL HEAD E/W
 UTMX.m              514336.92:  UTM X
 UTMY.m             4448618.56:  UTM Y
 DFWL.m                   0.00:  DISTANCE FWL
 DFSL.m                   0.00:  DISTANCE FSL
 SDEP.m                 849.00:  START DEPTH
 TDD .m                2862.00:  TOTAL DEPTH (DRILLER)
 VSDR.deg               292.10:  VERT SEC DIRECT
 GVFD.g                   1.00:  GRAVITY FIELD
 MFLD.nT              50382.00:  MAGNETIC FIELD
 MDIP.deg                59.68:  MAGNETIC DIP
 MDEC.deg                 6.66:  MAGNETIC DECL
 GRDC.deg                 0.09:  GRID CORRECTION
 AZTC.deg                 6.57:  AZM TOTAL CORR
 EPD .m                   0.00:  ELEVATION
 EGL .m                   0.00:  GROUND ELEVATION
 WDMS.m                 176.20:  WD ELEV
 APD .m                  43.16:  DEPTH ABOVE PD
 DEP .m                 363.42:  DEPTH
 AGAP.m                  43.16:  AIR GAP
 VSEW.m                 -14.82:  VERT SEC E/W
 VSNS.m                  10.51:  VERT SEC N/S
 EKB .m                  43.16:  KB ELEVATION
 EDF .m                  43.16:  DF ELEVATION
 TDL .m                1390.00:  TOTAL DEPTH (LOGGER)
 VSC .                       0:  VS TO CLOSURE
 MAGU.                 1855871:  MAGUTM CHECKSUM
~Parameter Information Block
#MNEM.UNIT       Value        Description
#---------     -----------    ---------------------------
 AV  .mps                 2.28:  Ann Velocity 
 AVMX.mps                 2.67:  Max Ann Veloc 
 AZIF.deg               305.00:  Azm, Final 
 BHAT.        Rotary Steerable:  BHA Type 
 BROT.°/30m               0.45:  Build Rotating 
 BS  .in                 12.25:  Bit Size 
 BSZ .in                 12.25:  Bit Size 
 BTPL.psig              600.00:  Bit Press Loss 
 CABU.                     Yes:  Customer Abuse 
 COMM.                     Œ$a:  Run Comments 1 
 TCS .hr                150.00:  Time Ciculation Ended 
 CV  .mps                 1.24:  Crit Velocity 
 CVMX.mps                 1.66:  Max Crit Veloc 
 DD1 .         Intigam Rahimov:  Direct Drillr 1 
 DD2 .            Azer Ravavov:  Direct Drillr 2 
 DD3 .              Samir Abas:  Direct Drillr 3 
 DDSV.               Geo-Pilot:  DD Service 
 DEFF.%                 100.00:  % Det Eff 
 DLRX.°/30m               1.57:  Dogleg Rot Max 
 DLSO.°/30m               0.00:  Dogleg Oriented 
 DLSX.°/30m               0.00:  Dogleg Str Max 
 DRET.      20.28.06 17-Sep-21:  Drill End Time 
 DRST.      20.27.35 10-Sep-21:  Drill Start Tim 
 DTIM.hr                 54.00:  Time Drilling 
 EDEP.m                5260.00:  End Depth 
 ENG1.      Bakhtiyar Jabbarli:  Engineer 1 
 ENG2.      Natik Hasanaghayev:  Engineer 2 
 ENG3.           Royal Nasirov:  Engineer 3 
 ETIM.      20.27.55 18-Sep-21:  End Time 
 FLOI.gpm              1100.00:  Flow In 
 FLON.gpm               800.00:  Flow In Min 
 FLOS.cptm                0.00:  Fluid Loss 
 FLOX.gpm              1200.00:  Flow In Max 
 DFT .        Mineral Oil Base:  Mud Type 
 HPRE.                      No:  High Pressure 
 HTEM.                      No:  High Temp 
 HYDO.m                   1.80:  Hydro Offset 
 IFIN.deg                72.31:  Inc, Final 
 IMAX.deg                72.36:  Inc Max 
 IMIN.deg                69.36:  Inc Min 
 IMND.m                4192.96:  Inc Min Depth 
 IMXD.m                5128.36:  Inc Max Depth 
 JARR.                      No:  Jarring 
 LETM.      20.29.00 17-Sep-21:  Log End Time 
 LOST.hr                     0:  Lost Rig Time 
 LSTM.      20.27.00 10-Sep-21:  Log Start Time 
 MDCL.ppm            227000.00:  Mud Chlorides 
 MDES.     Inversion Oil/Synthetic:  Mud Desc 
 DFD .sg                  1.45:  Mud Density 
 MDMN.sg                  1.45:  Dens Mud Min 
 MDMX.sg                  1.45:  Dens Mud Max 
 MOIL.                    70.5:  Run Mud Oil % 
 MOWR.                   71:29:  Run Mud OWR 
 MSND.                     0.3:  Run Mud Sand % 
 MSOL.                    19.8:  Run Mud Solids% 
 DFV .spqt               80.00:  Mud Viscosity 
 MWOD.in                  8.00:  MWD Tool OD 
 MWSI.                     Yes:  Serv Intrp, MWD 
 OTIM.hr                180.00:  Time Operating 
 PCON.           Look Like New:  Pad Condition 
 PMAX.psia             9910.94:  Press Op, Max 
 PV  .cP                 35.00:  Mud PV 
 RUN .                    1000:  Run Number 
 ROPA.m/hr               18.00:  ROP Avg 
 ROPN.m/hr                8.00:  ROP Min 
 ROPX.m/hr               23.00:  ROP Max 
 RPMA.rpm               150.00:  RPM Surface Avg 
 RPMN.rpm               120.00:  RPM Surface Min 
 RPMX.rpm               160.00:  RPM Surface Max 
 RRUN.                    L503:  Rig Run Number 
 RTIM.hr                  5.00:  Time Reaming 
 SAZI.deg               298.42:  Azm, Start 
 SDEP.m                3870.00:  Start Depth 
 SIDD.                      No:  Serv Intrp, DD 
 SINC.deg                69.57:  Inc, Start 
 SPPA.psig             5500.00:  SPP Avg 
 SPPN.psig             4400.00:  SPP Min 
 SPPX.psig             5800.00:  SPP Max 
 STIM.      15.29.39 09-Sep-21:  Start Time 
 SVCS.                 DD, MWD:  Services 
 SVER.                    9.20:  Sperry Version 
 TDAT.m                5260.00:  Tot Depth Attmp 
 TDDF.                      No:  Trip for DD 
 TDLG.m                1390.00:  Tot Depth Loggd 
 TFF .                      No:  Trip for Fail 
 TQAA.f-kp               22.00:  Torque Abs Avg 
 TQAN.f-kp               13.00:  Torque Abs Min 
 TQAX.f-kp               27.00:  Torque Abs Max 
 TRRT.°/30m               1.60:  Turn Rotating 
 MRT .                  EWR-M5:  Maximum Recorded Temperature 
 TTMX.degC               92.00:  Max Tool Temp 
 VS01.                12330975:  Virtual Str1 SN 
 VS02.                90658671:  Virtual Str2 SN 
 VS03.                90658508:  Virtual Str3 SN 
 VS04.                90660974:  Virtual Str4 SN 
 VS05.                90654675:  Virtual Str5 SN 
 WBMN.klb                15.00:  WOB Min 
 WITN.     Alexander Yadullayev:  Customer Rep 
 WITN.           Adil Mammadov:  Customer Rep 2 
 WOBA.klb                17.00:  WOB Avg 
 WOBX.klb                18.00:  WOB Max 
 YP  .lhf2               31.00:  Yield Point 
~Curve Information Block
#MNEM.UNIT                 API CODE     Curve Description
#---------               -----------    ---------------------------
 TIME.HHMMSS            00 000 000 000:  GT Time & Date
 GTDEPTH.m              00 000 000 000:  GT Depth
 GTPQH.psia             00 000 000 000:  GT HR Quartz Pressure
 GTTQ.degC              00 000 000 000:  GT Quartz Temperature
 GTTN.NONE              00 000 000 000:  GT Test Number
 GTET.sec               00 000 000 000:  GT Elapsed Test Time
 GTTVD.m                00 000 000 000:  GT True Vertical Depth
#Other Information
#
#WARRANTY: Halliburton will use its best efforts to furnish customers with 
#accurate information and interpretations that are part of, and incident to, the services 
#provided.  However, Halliburton cannot and does not warrant the accuracy 
#or correctness of such information and interpretations.  Under no circumstances should any 
#such information or interpretation be relied upon as the sole basis for any drilling, 
#completion, production, or financial decision or any procedure involving any risk to the 
#safety of any drilling venture, drilling rig or its crew or any other third party.  The 
#Customer has full responsibility for all drilling, completion and production operation.  
#Halliburton makes no representations or warranties, either expressed or 
#implied, including, but not limited to, the implied warranties of merchantability or fitness 
#for a particular purpose, with respect to the services rendered.  In no event will 
#Halliburton be liable for failure to obtain any particular results or for 
#any damages, including, but not limited to, indirect, special or consequential damages, 
#resulting from the use of any information or interpretation provided by Halliburton.
#
~A           TIME           GTDEPTH  GTPQH  GTTQ  GTTN  GTET   GTTVD  
# ...
   02:37:47.000.17-Sep-2021 5127.50 5576.27 80.43 2.00 322.00 2605.35
   02:37:47.200.17-Sep-2021 5127.50 5576.27 80.43 2.00 322.20 2605.35
   02:37:47.400.17-Sep-2021 5127.50 5576.99 80.43 2.00 322.40 2605.35
   02:37:47.600.17-Sep-2021 5127.50 5576.45 80.43 2.00 322.60 2605.35
   02:37:47.800.17-Sep-2021 5127.50 5576.93 80.43 2.00 322.80 2605.35
   02:37:48.000.17-Sep-2021 5127.50 5576.48 80.43 2.00 323.00 2605.35
   02:37:48.200.17-Sep-2021 5127.50 5576.48 80.43 2.00 323.20 2605.35
   02:37:48.400.17-Sep-2021 5127.50 5576.24 80.43 2.00 323.40 2605.35
   02:37:48.600.17-Sep-2021 5127.50 5576.21 80.43 2.00 323.60 2605.35
   02:37:48.800.17-Sep-2021 5127.50 5576.27 80.43 2.00 323.80 2605.35
   02:37:49.000.17-Sep-2021 5127.50 5576.15 80.43 2.00 324.00 2605.35
   02:37:49.200.17-Sep-2021 5127.50 5576.15 80.43 2.00 324.20 2605.35
   02:37:49.400.17-Sep-2021 5127.50 5575.74 80.43 2.00 324.40 2605.35
   02:37:49.600.17-Sep-2021 5127.50 5575.98 80.43 2.00 324.60 2605.35
   02:37:49.800.17-Sep-2021 5127.50 5576.06 80.43 2.00 324.80 2605.35
   02:37:50.000.17-Sep-2021 5127.50 5576.09 80.43 2.00 325.00 2605.35
   02:37:50.200.17-Sep-2021 5127.50 5576.09 80.43 2.00 325.20 2605.35
   02:37:50.400.17-Sep-2021 5127.50 5576.63 80.43 2.00 325.40 2605.35
   02:37:50.600.17-Sep-2021 5127.50 5576.29 80.43 2.00 325.60 2605.35
   02:37:50.800.17-Sep-2021 5127.50 5577.51 80.43 2.00 325.80 2605.35
   02:37:51.000.17-Sep-2021 5127.50 5576.83 80.43 2.00 326.00 2605.35
   02:37:51.200.17-Sep-2021 5127.50 5576.83 80.43 2.00 326.20 2605.35
   02:37:51.400.17-Sep-2021 5127.50 5576.44 80.43 2.00 326.40 2605.35
   02:37:51.600.17-Sep-2021 5127.50 5576.46 80.43 2.00 326.60 2605.35
   02:37:51.800.17-Sep-2021 5127.50 5576.12 80.43 2.00 326.80 2605.35
   02:37:52.000.17-Sep-2021 5127.50 5575.98 80.43 2.00 327.00 2605.35
   02:37:52.200.17-Sep-2021 5127.50 5575.98 80.43 2.00 327.20 2605.35
   02:37:52.400.17-Sep-2021 5127.50 5575.81 80.43 2.00 327.40 2605.35
   02:37:52.600.17-Sep-2021 5127.50 5575.81 80.43 2.00 327.60 2605.35
   02:37:52.800.17-Sep-2021 5127.50 5575.79 80.43 2.00 327.80 2605.35
   02:37:53.000.17-Sep-2021 5127.50 5575.83 80.43 2.00 328.00 2605.35
   02:37:53.200.17-Sep-2021 5127.50 5575.83 80.43 2.00 328.20 2605.35
   02:37:53.400.17-Sep-2021 5127.50 5575.94 80.43 2.00 328.40 2605.35
   02:37:53.600.17-Sep-2021 5127.50 5576.05 80.43 2.00 328.60 2605.35
   02:37:53.800.17-Sep-2021 5127.50 5576.16 80.43 2.00 328.80 2605.35
   02:37:54.000.17-Sep-2021 5127.50 5576.69 80.43 2.00 329.00 2605.35
   02:37:54.200.17-Sep-2021 5127.50 5576.69 80.43 2.00 329.20 2605.35
   02:37:54.400.17-Sep-2021 5127.50 5576.69 80.43 2.00 329.40 2605.35
   02:37:54.600.17-Sep-2021 5127.50 5576.81 80.43 2.00 329.60 2605.35
   02:37:54.800.17-Sep-2021 5127.50 5576.88 80.43 2.00 329.80 2605.35
   02:37:55.000.17-Sep-2021 5127.50 5577.14 80.43 2.00 330.00 2605.35
   02:37:55.200.17-Sep-2021 5127.50 5577.14 80.43 2.00 330.20 2605.35
   02:37:55.400.17-Sep-2021 5127.50 5577.29 80.43 2.00 330.40 2605.35
   02:37:55.600.17-Sep-2021 5127.50 5576.39 80.43 2.00 330.60 2605.35
   02:37:55.800.17-Sep-2021 5127.50 5575.94 80.43 2.00 330.80 2605.35
   02:37:56.000.17-Sep-2021 5127.50 5575.77 80.43 2.00 331.00 2605.35
   02:37:56.200.17-Sep-2021 5127.50 5575.77 80.43 2.00 331.20 2605.35
   02:37:56.400.17-Sep-2021 5127.50 5576.39 80.43 2.00 331.40 2605.35
   02:37:56.600.17-Sep-2021 5127.50 5577.06 80.43 2.00 331.60 2605.35
   02:37:56.800.17-Sep-2021 5127.50 5576.00 80.43 2.00 331.80 2605.35
   02:37:57.000.17-Sep-2021 5127.50 5576.16 80.43 2.00 332.00 2605.35
   02:37:57.200.17-Sep-2021 5127.50 5576.16 80.43 2.00 332.20 2605.35
   02:37:57.400.17-Sep-2021 5127.50 5576.53 80.43 2.00 332.40 2605.35
   02:37:57.600.17-Sep-2021 5127.50 5576.97 80.43 2.00 332.60 2605.35
   02:37:57.800.17-Sep-2021 5127.50 5576.48 80.43 2.00 332.80 2605.35
   02:37:58.000.17-Sep-2021 5127.50 5576.69 80.43 2.00 333.00 2605.35
   02:37:58.200.17-Sep-2021 5127.50 5576.69 80.43 2.00 333.20 2605.35
   02:37:58.400.17-Sep-2021 5127.50 5576.46 80.43 2.00 333.40 2605.35
   02:37:58.600.17-Sep-2021 5127.50 5576.52 80.43 2.00 333.60 2605.35
   02:37:58.800.17-Sep-2021 5127.50 5576.26 80.43 2.00 333.80 2605.35
   02:37:59.000.17-Sep-2021 5127.50 5576.19 80.43 2.00 334.00 2605.35
   02:37:59.200.17-Sep-2021 5127.50 5576.19 80.43 2.00 334.20 2605.35
   02:37:59.400.17-Sep-2021 5127.50 5576.53 80.43 2.00 334.40 2605.35
   02:37:59.600.17-Sep-2021 5127.50 5576.68 80.43 2.00 334.60 2605.35
   02:37:59.800.17-Sep-2021 5127.50 5576.57 80.43 2.00 334.80 2605.35
   02:38:00.000.17-Sep-2021 5127.50 5576.52 80.43 2.00 335.00 2605.35
   02:38:00.200.17-Sep-2021 5127.50 5576.52 80.43 2.00 335.20 2605.35
   02:38:00.400.17-Sep-2021 5127.50 5576.86 80.43 2.00 335.40 2605.35
   02:38:00.600.17-Sep-2021 5127.50 5578.14 80.43 2.00 335.60 2605.35
   02:38:00.800.17-Sep-2021 5127.50 5577.42 80.43 2.00 335.80 2605.35
   02:38:01.000.17-Sep-2021 5127.50 5577.09 80.43 2.00 336.00 2605.35
   02:38:01.200.17-Sep-2021 5127.50 5577.09 80.43 2.00 336.20 2605.35
   02:38:01.400.17-Sep-2021 5127.50 5576.97 80.43 2.00 336.40 2605.35
   02:38:01.600.17-Sep-2021 5127.50 5576.66 80.43 2.00 336.60 2605.35
   02:38:01.800.17-Sep-2021 5127.50 5576.46 80.43 2.00 336.80 2605.35
   02:38:02.000.17-Sep-2021 5127.50 5576.37 80.43 2.00 337.00 2605.35
   02:38:02.200.17-Sep-2021 5127.50 5576.37 80.43 2.00 337.20 2605.35
   02:38:02.400.17-Sep-2021 5127.50 5576.28 80.43 2.00 337.40 2605.35
   02:38:02.600.17-Sep-2021 5127.50 5576.30 80.43 2.00 337.60 2605.35
   02:38:02.800.17-Sep-2021 5127.50 5455.49 80.43 2.00 337.80 2605.35
   02:38:03.000.17-Sep-2021 5127.50 4399.04 80.43 2.00 338.00 2605.35
   02:38:03.200.17-Sep-2021 5127.50 4399.04 80.43 2.00 338.20 2605.35
   02:38:03.400.17-Sep-2021 5127.50 3743.24 80.43 2.00 338.40 2605.35
   02:38:03.600.17-Sep-2021 5127.50 3416.80 80.43 2.00 338.60 2605.35
   02:38:03.800.17-Sep-2021 5127.50 3103.58 80.43 2.00 338.80 2605.35
   02:38:04.000.17-Sep-2021 5127.50 2815.23 80.43 2.00 339.00 2605.35
   02:38:04.200.17-Sep-2021 5127.50 2815.23 80.43 2.00 339.20 2605.35
   02:38:04.400.17-Sep-2021 5127.50 2293.70 80.43 2.00 339.40 2605.35
   02:38:04.600.17-Sep-2021 5127.50 2078.55 80.43 2.00 339.60 2605.35
   02:38:04.800.17-Sep-2021 5127.50 1988.98 80.42 2.00 339.80 2605.35
   02:38:05.000.17-Sep-2021 5127.50 1979.11 80.42 2.00 340.00 2605.35
   02:38:05.200.17-Sep-2021 5127.50 1979.11 80.42 2.00 340.20 2605.35
   02:38:05.400.17-Sep-2021 5127.50 1950.76 80.42 2.00 340.40 2605.35
   02:38:05.600.17-Sep-2021 5127.50 1929.83 80.42 2.00 340.60 2605.35
   02:38:05.800.17-Sep-2021 5127.50 1929.29 80.41 2.00 340.80 2605.35
   02:38:06.000.17-Sep-2021 5127.50 1920.88 80.41 2.00 341.00 2605.35
   02:38:06.200.17-Sep-2021 5127.50 1920.88 80.41 2.00 341.20 2605.35
   02:38:06.400.17-Sep-2021 5127.50 1889.24 80.41 2.00 341.40 2605.35
   02:38:06.600.17-Sep-2021 5127.50 1876.36 80.40 2.00 341.60 2605.35
   02:38:06.800.17-Sep-2021 5127.50 1863.12 80.40 2.00 341.80 2605.35
   02:38:07.000.17-Sep-2021 5127.50 1756.57 80.40 2.00 342.00 2605.35
   02:38:07.200.17-Sep-2021 5127.50 1756.57 80.40 2.00 342.20 2605.35
   02:38:07.400.17-Sep-2021 5127.50 1438.20 80.39 2.00 342.40 2605.35
   02:38:07.600.17-Sep-2021 5127.50 1364.13 80.39 2.00 342.60 2605.35
   02:38:07.800.17-Sep-2021 5127.50 1326.38 80.39 2.00 342.80 2605.35
   02:38:08.000.17-Sep-2021 5127.50 1333.10 80.38 2.00 343.00 2605.35
   02:38:08.200.17-Sep-2021 5127.50 1333.10 80.38 2.00 343.20 2605.35
   02:38:08.400.17-Sep-2021 5127.50 1304.89 80.38 2.00 343.40 2605.35
   02:38:08.600.17-Sep-2021 5127.50 1287.08 80.38 2.00 343.60 2605.35
   02:38:08.800.17-Sep-2021 5127.50 1257.05 80.37 2.00 343.80 2605.35
   02:38:09.000.17-Sep-2021 5127.50 1251.36 80.37 2.00 344.00 2605.35
   02:38:09.200.17-Sep-2021 5127.50 1251.36 80.37 2.00 344.20 2605.35
   02:38:09.400.17-Sep-2021 5127.50 1166.49 80.36 2.00 344.40 2605.35
   02:38:09.600.17-Sep-2021 5127.50 1145.50 80.36 2.00 344.60 2605.35
   02:38:09.800.17-Sep-2021 5127.50 1089.83 80.36 2.00 344.80 2605.35
