~Version Information
 VERS.                  2.0:   CWLS log ASCII Standard -VERSION 2.0
 WRAP.                   NO:   One line per depth step
~Well Information Block
#MNEM.UNIT     VALUE/NAME     DESCRIPTION
#---------     -----------    ---------------------------
 STRT.S             10:29:45 17-Sep-21: START TIME 10:29:45 17-Sep-21
 STOP.S             10:36:56 17-Sep-21: STOP TIME  10:36:56 17-Sep-21
 STEP.S                   0.00: STEP TIME
 NULL.                 -999.25: NULL VALUE
 DFWT.                        :  DIST FWL TEXT
 DFST.                        :  DIST FSL TEXT
 DMF .             Drill Floor:  DRILL MEAS FROM
 STIM.      10.59.12 05-Jul-21:  START TIME
 DATE.      10.59.12 10-Sep-21:  END TIME
 SPUD.               05-Jul-21:  SPUD DATE
 NREF.                    Grid:  NORTH REFERENCE
 HPTY.       Minimum Curvature:  HOLE POS TYPE
 DMOD.             Drill Model:  DRILL MOD DESC
 SVYD.                  Survey:  SURVEY DESC
 ILTD.               Lithology:  INTERP LTH DESC
 FTOP.          Formation Tops:  FORM TOPS DESC
 RIG .                     DWG:  RIG NAME
 PDAT.          Mean Sea Level:  PERMANENT DATUM
 FLD .                     ACG:  FIELD NAME
 SON .        AZ-XX-0907115008:  JOB NUMBER
 CTRY.              Azerbaijan:  COUNTRY NAME
 WELL.                    E35A:  WELL NAME
 SRVC.          TURAN DRILLING:  CONTRACTOR
 COMP.     BP Exploration (Caspian Sea LTD):  COMPANY
 UWI .                     N/A:  UNIQUE WELL IDENTIFIER
 API .                     N/A:  API NUMBER
 MDS .        Operator Entered:  MAG DATA SOURCE
 BASE.              Azerbaijan:  LOGGING EQUIPMENT BASE LOCATION
 REGN.                   EESSA:  REGION
 PROV.                    Baku:  PROVINCE
 STAT.                    Baku:  STATE NAME
 MWDS.                    Baku:  MWD SHOP
 JOBN.        AZ-XX-0907115008:  JOB TICKET NUMB
 DOE .                     N/A:  DOE NUMBER
 DCON.         Sperry Drilling:  DIRECTNL CONTR
 UNIT.                     N/A:  LOGGING EQUIPMENT ID
 WTYP.                Deviated:  WELL TYPE
 CNTY.                        :  COUNTY
 LOC .                        :  LOCATION
 LMF .             Drill Floor:  LOG MEASURED FROM
 TVDS.m                  43.16:  TVDSS CORRECTN
 LATI.deg                40.17:  LATITUDE
 LONG.deg                51.17:  LONGITUDE
 WHNS.m                  10.51:  WELL HEAD N/S
 WHEW.m                 -14.82:  WELL HEAD E/W
 UTMX.m              514336.92:  UTM X
 UTMY.m             4448618.56:  UTM Y
 DFWL.m                   0.00:  DISTANCE FWL
 DFSL.m                   0.00:  DISTANCE FSL
 SDEP.m                 849.00:  START DEPTH
 TDD .m                2862.00:  TOTAL DEPTH (DRILLER)
 VSDR.deg               292.10:  VERT SEC DIRECT
 GVFD.g                   1.00:  GRAVITY FIELD
 MFLD.nT              50382.00:  MAGNETIC FIELD
 MDIP.deg                59.68:  MAGNETIC DIP
 MDEC.deg                 6.66:  MAGNETIC DECL
 GRDC.deg                 0.09:  GRID CORRECTION
 AZTC.deg                 6.57:  AZM TOTAL CORR
 EPD .m                   0.00:  ELEVATION
 EGL .m                   0.00:  GROUND ELEVATION
 WDMS.m                 176.20:  WD ELEV
 APD .m                  43.16:  DEPTH ABOVE PD
 DEP .m                 363.42:  DEPTH
 AGAP.m                  43.16:  AIR GAP
 VSEW.m                 -14.82:  VERT SEC E/W
 VSNS.m                  10.51:  VERT SEC N/S
 EKB .m                  43.16:  KB ELEVATION
 EDF .m                  43.16:  DF ELEVATION
 TDL .m                1390.00:  TOTAL DEPTH (LOGGER)
 VSC .                       0:  VS TO CLOSURE
 MAGU.                 1855871:  MAGUTM CHECKSUM
~Parameter Information Block
#MNEM.UNIT       Value        Description
#---------     -----------    ---------------------------
 AV  .mps                 2.28:  Ann Velocity 
 AVMX.mps                 2.67:  Max Ann Veloc 
 AZIF.deg               305.00:  Azm, Final 
 BHAT.        Rotary Steerable:  BHA Type 
 BROT.°/30m               0.45:  Build Rotating 
 BS  .in                 12.25:  Bit Size 
 BSZ .in                 12.25:  Bit Size 
 BTPL.psig              600.00:  Bit Press Loss 
 CABU.                     Yes:  Customer Abuse 
 COMM.                     ,)z:  Run Comments 1 
 TCS .hr                150.00:  Time Ciculation Ended 
 CV  .mps                 1.24:  Crit Velocity 
 CVMX.mps                 1.66:  Max Crit Veloc 
 DD1 .         Intigam Rahimov:  Direct Drillr 1 
 DD2 .            Azer Ravavov:  Direct Drillr 2 
 DD3 .              Samir Abas:  Direct Drillr 3 
 DDSV.               Geo-Pilot:  DD Service 
 DEFF.%                 100.00:  % Det Eff 
 DLRX.°/30m               1.57:  Dogleg Rot Max 
 DLSO.°/30m               0.00:  Dogleg Oriented 
 DLSX.°/30m               0.00:  Dogleg Str Max 
 DRET.      20.28.06 17-Sep-21:  Drill End Time 
 DRST.      20.27.35 10-Sep-21:  Drill Start Tim 
 DTIM.hr                 54.00:  Time Drilling 
 EDEP.m                5260.00:  End Depth 
 ENG1.      Bakhtiyar Jabbarli:  Engineer 1 
 ENG2.      Natik Hasanaghayev:  Engineer 2 
 ENG3.           Royal Nasirov:  Engineer 3 
 ETIM.      20.27.55 18-Sep-21:  End Time 
 FLOI.gpm              1100.00:  Flow In 
 FLON.gpm               800.00:  Flow In Min 
 FLOS.cptm                0.00:  Fluid Loss 
 FLOX.gpm              1200.00:  Flow In Max 
 DFT .        Mineral Oil Base:  Mud Type 
 HPRE.                      No:  High Pressure 
 HTEM.                      No:  High Temp 
 HYDO.m                   1.80:  Hydro Offset 
 IFIN.deg                72.31:  Inc, Final 
 IMAX.deg                72.36:  Inc Max 
 IMIN.deg                69.36:  Inc Min 
 IMND.m                4192.96:  Inc Min Depth 
 IMXD.m                5128.36:  Inc Max Depth 
 JARR.                      No:  Jarring 
 LETM.      20.29.00 17-Sep-21:  Log End Time 
 LOST.hr                     0:  Lost Rig Time 
 LSTM.      20.27.00 10-Sep-21:  Log Start Time 
 MDCL.ppm            227000.00:  Mud Chlorides 
 MDES.     Inversion Oil/Synthetic:  Mud Desc 
 DFD .sg                  1.45:  Mud Density 
 MDMN.sg                  1.45:  Dens Mud Min 
 MDMX.sg                  1.45:  Dens Mud Max 
 MOIL.                    70.5:  Run Mud Oil % 
 MOWR.                   71:29:  Run Mud OWR 
 MSND.                     0.3:  Run Mud Sand % 
 MSOL.                    19.8:  Run Mud Solids% 
 DFV .spqt               80.00:  Mud Viscosity 
 MWOD.in                  8.00:  MWD Tool OD 
 MWSI.                     Yes:  Serv Intrp, MWD 
 OTIM.hr                180.00:  Time Operating 
 PCON.           Look Like New:  Pad Condition 
 PMAX.psia             9910.94:  Press Op, Max 
 PV  .cP                 35.00:  Mud PV 
 RUN .                    1000:  Run Number 
 ROPA.m/hr               18.00:  ROP Avg 
 ROPN.m/hr                8.00:  ROP Min 
 ROPX.m/hr               23.00:  ROP Max 
 RPMA.rpm               150.00:  RPM Surface Avg 
 RPMN.rpm               120.00:  RPM Surface Min 
 RPMX.rpm               160.00:  RPM Surface Max 
 RRUN.                    L503:  Rig Run Number 
 RTIM.hr                  5.00:  Time Reaming 
 SAZI.deg               298.42:  Azm, Start 
 SDEP.m                3870.00:  Start Depth 
 SIDD.                      No:  Serv Intrp, DD 
 SINC.deg                69.57:  Inc, Start 
 SPPA.psig             5500.00:  SPP Avg 
 SPPN.psig             4400.00:  SPP Min 
 SPPX.psig             5800.00:  SPP Max 
 STIM.      15.29.39 09-Sep-21:  Start Time 
 SVCS.                 DD, MWD:  Services 
 SVER.                    9.20:  Sperry Version 
 TDAT.m                5260.00:  Tot Depth Attmp 
 TDDF.                      No:  Trip for DD 
 TDLG.m                1390.00:  Tot Depth Loggd 
 TFF .                      No:  Trip for Fail 
 TQAA.f-kp               22.00:  Torque Abs Avg 
 TQAN.f-kp               13.00:  Torque Abs Min 
 TQAX.f-kp               27.00:  Torque Abs Max 
 TRRT.°/30m               1.60:  Turn Rotating 
 MRT .                  EWR-M5:  Maximum Recorded Temperature 
 TTMX.degC               92.00:  Max Tool Temp 
 VS01.                12330975:  Virtual Str1 SN 
 VS02.                90658671:  Virtual Str2 SN 
 VS03.                90658508:  Virtual Str3 SN 
 VS04.                90660974:  Virtual Str4 SN 
 VS05.                90654675:  Virtual Str5 SN 
 WBMN.klb                15.00:  WOB Min 
 WITN.     Alexander Yadullayev:  Customer Rep 
 WITN.           Adil Mammadov:  Customer Rep 2 
 WOBA.klb                17.00:  WOB Avg 
 WOBX.klb                18.00:  WOB Max 
 YP  .lhf2               31.00:  Yield Point 
~Curve Information Block
#MNEM.UNIT                 API CODE     Curve Description
#---------               -----------    ---------------------------
 TIME.HHMMSS            00 000 000 000:  GT Time & Date
 GTDEPTH.m              00 000 000 000:  GT Depth
 GTPQH.psia             00 000 000 000:  GT HR Quartz Pressure
 GTTQ.degC              00 000 000 000:  GT Quartz Temperature
 GTTN.NONE              00 000 000 000:  GT Test Number
 GTET.sec               00 000 000 000:  GT Elapsed Test Time
 GTTVD.m                00 000 000 000:  GT True Vertical Depth
#Other Information
#
#WARRANTY: Halliburton will use its best efforts to furnish customers with 
#accurate information and interpretations that are part of, and incident to, the services 
#provided.  However, Halliburton cannot and does not warrant the accuracy 
#or correctness of such information and interpretations.  Under no circumstances should any 
#such information or interpretation be relied upon as the sole basis for any drilling, 
#completion, production, or financial decision or any procedure involving any risk to the 
#safety of any drilling venture, drilling rig or its crew or any other third party.  The 
#Customer has full responsibility for all drilling, completion and production operation.  
#Halliburton makes no representations or warranties, either expressed or 
#implied, including, but not limited to, the implied warranties of merchantability or fitness 
#for a particular purpose, with respect to the services rendered.  In no event will 
#Halliburton be liable for failure to obtain any particular results or for 
#any damages, including, but not limited to, indirect, special or consequential damages, 
#resulting from the use of any information or interpretation provided by Halliburton.
#
~A           TIME           GTDEPTH  GTPQH  GTTQ  GTTN  GTET   GTTVD  
# ...
   10:31:40.337.17-Sep-2021 4888.00 5436.72 75.89 8.00 115.01 2528.99
   10:31:40.537.17-Sep-2021 4888.00 5436.72 75.89 8.00 115.21 2528.99
   10:31:40.737.17-Sep-2021 4888.00 5436.33 75.89 8.00 115.41 2528.99
   10:31:40.937.17-Sep-2021 4888.00 5436.53 75.89 8.00 115.61 2528.99
   10:31:41.137.17-Sep-2021 4888.00 5440.41 75.89 8.00 115.81 2528.99
   10:31:41.337.17-Sep-2021 4888.00 5435.44 75.89 8.00 116.01 2528.99
   10:31:41.537.17-Sep-2021 4888.00 5435.44 75.89 8.00 116.21 2528.99
   10:31:41.737.17-Sep-2021 4888.00 5436.45 75.89 8.00 116.41 2528.99
   10:31:41.937.17-Sep-2021 4888.00 5437.70 75.89 8.00 116.61 2528.99
   10:31:42.137.17-Sep-2021 4888.00 5436.42 75.89 8.00 116.81 2528.99
   10:31:42.337.17-Sep-2021 4888.00 5436.43 75.89 8.00 117.01 2528.99
   10:31:42.537.17-Sep-2021 4888.00 5436.43 75.89 8.00 117.21 2528.99
   10:31:42.737.17-Sep-2021 4888.00 5436.85 75.89 8.00 117.41 2528.99
   10:31:42.937.17-Sep-2021 4888.00 5436.11 75.89 8.00 117.61 2528.99
   10:31:43.137.17-Sep-2021 4888.00 5435.76 75.89 8.00 117.81 2528.99
   10:31:43.337.17-Sep-2021 4888.00 5436.18 75.89 8.00 118.01 2528.99
   10:31:43.537.17-Sep-2021 4888.00 5436.18 75.89 8.00 118.21 2528.99
   10:31:43.737.17-Sep-2021 4888.00 5436.40 75.89 8.00 118.41 2528.99
   10:31:43.937.17-Sep-2021 4888.00 5436.27 75.89 8.00 118.61 2528.99
   10:31:44.137.17-Sep-2021 4888.00 5436.45 75.89 8.00 118.81 2528.99
   10:31:44.337.17-Sep-2021 4888.00 5436.86 75.89 8.00 119.01 2528.99
   10:31:44.537.17-Sep-2021 4888.00 5436.86 75.89 8.00 119.21 2528.99
   10:31:44.737.17-Sep-2021 4888.00 5436.93 75.89 8.00 119.41 2528.99
   10:31:44.937.17-Sep-2021 4888.00 5437.01 75.89 8.00 119.61 2528.99
   10:31:45.137.17-Sep-2021 4888.00 5436.45 75.89 8.00 119.81 2528.99
   10:31:45.337.17-Sep-2021 4888.00 5437.19 75.89 8.00 120.01 2528.99
   10:31:45.537.17-Sep-2021 4888.00 5437.19 75.89 8.00 120.21 2528.99
   10:31:45.737.17-Sep-2021 4888.00 5436.97 75.89 8.00 120.41 2528.99
   10:31:45.937.17-Sep-2021 4888.00 5436.79 75.89 8.00 120.61 2528.99
   10:31:46.137.17-Sep-2021 4888.00 5436.11 75.89 8.00 120.81 2528.99
   10:31:46.337.17-Sep-2021 4888.00 5436.77 75.89 8.00 121.01 2528.99
   10:31:46.537.17-Sep-2021 4888.00 5436.77 75.89 8.00 121.21 2528.99
   10:31:46.737.17-Sep-2021 4888.00 5437.90 75.89 8.00 121.41 2528.99
   10:31:46.937.17-Sep-2021 4888.00 5436.49 75.89 8.00 121.61 2528.99
   10:31:47.137.17-Sep-2021 4888.00 5435.89 75.89 8.00 121.81 2528.99
   10:31:47.337.17-Sep-2021 4888.00 5436.32 75.89 8.00 122.01 2528.99
   10:31:47.538.17-Sep-2021 4888.00 5436.32 75.89 8.00 122.21 2528.99
   10:31:47.738.17-Sep-2021 4888.00 5438.52 75.89 8.00 122.41 2528.99
   10:31:47.938.17-Sep-2021 4888.00 5436.51 75.89 8.00 122.61 2528.99
   10:31:48.138.17-Sep-2021 4888.00 5435.83 75.89 8.00 122.81 2528.99
   10:31:48.338.17-Sep-2021 4888.00 5436.00 75.89 8.00 123.01 2528.99
   10:31:48.538.17-Sep-2021 4888.00 5436.00 75.89 8.00 123.21 2528.99
   10:31:48.738.17-Sep-2021 4888.00 5436.29 75.89 8.00 123.41 2528.99
   10:31:48.938.17-Sep-2021 4888.00 5436.21 75.89 8.00 123.61 2528.99
   10:31:49.138.17-Sep-2021 4888.00 5436.24 75.89 8.00 123.81 2528.99
   10:31:49.338.17-Sep-2021 4888.00 5436.10 75.89 8.00 124.01 2528.99
   10:31:49.538.17-Sep-2021 4888.00 5436.10 75.89 8.00 124.21 2528.99
   10:31:49.738.17-Sep-2021 4888.00 5436.35 75.89 8.00 124.41 2528.99
   10:31:49.938.17-Sep-2021 4888.00 5436.52 75.89 8.00 124.61 2528.99
   10:31:50.138.17-Sep-2021 4888.00 5436.68 75.89 8.00 124.81 2528.99
   10:31:50.338.17-Sep-2021 4888.00 5436.42 75.89 8.00 125.01 2528.99
   10:31:50.538.17-Sep-2021 4888.00 5436.42 75.89 8.00 125.21 2528.99
   10:31:50.738.17-Sep-2021 4888.00 5436.46 75.89 8.00 125.41 2528.99
   10:31:50.938.17-Sep-2021 4888.00 5435.28 75.89 8.00 125.61 2528.99
   10:31:51.138.17-Sep-2021 4888.00 5436.82 75.89 8.00 125.81 2528.99
   10:31:51.338.17-Sep-2021 4888.00 5436.26 75.89 8.00 126.01 2528.99
   10:31:51.538.17-Sep-2021 4888.00 5436.26 75.89 8.00 126.21 2528.99
   10:31:51.738.17-Sep-2021 4888.00 5436.22 75.89 8.00 126.41 2528.99
   10:31:51.938.17-Sep-2021 4888.00 5436.04 75.89 8.00 126.61 2528.99
   10:31:52.138.17-Sep-2021 4888.00 5436.62 75.89 8.00 126.81 2528.99
   10:31:52.338.17-Sep-2021 4888.00 5436.04 75.89 8.00 127.01 2528.99
   10:31:52.538.17-Sep-2021 4888.00 5436.04 75.89 8.00 127.21 2528.99
   10:31:52.738.17-Sep-2021 4888.00 5435.77 75.89 8.00 127.41 2528.99
   10:31:52.938.17-Sep-2021 4888.00 5435.94 75.89 8.00 127.61 2528.99
   10:31:53.138.17-Sep-2021 4888.00 5436.30 75.89 8.00 127.81 2528.99
   10:31:53.338.17-Sep-2021 4888.00 5436.18 75.89 8.00 128.01 2528.99
   10:31:53.538.17-Sep-2021 4888.00 5436.18 75.89 8.00 128.21 2528.99
   10:31:53.738.17-Sep-2021 4888.00 5436.21 75.89 8.00 128.41 2528.99
   10:31:53.938.17-Sep-2021 4888.00 5436.66 75.89 8.00 128.61 2528.99
   10:31:54.138.17-Sep-2021 4888.00 5438.11 75.89 8.00 128.81 2528.99
   10:31:54.338.17-Sep-2021 4888.00 5436.97 75.89 8.00 129.01 2528.99
   10:31:54.538.17-Sep-2021 4888.00 5436.97 75.89 8.00 129.21 2528.99
   10:31:54.738.17-Sep-2021 4888.00 5436.69 75.89 8.00 129.41 2528.99
   10:31:54.938.17-Sep-2021 4888.00 5436.88 75.89 8.00 129.61 2528.99
   10:31:55.138.17-Sep-2021 4888.00 5438.36 75.89 8.00 129.81 2528.99
   10:31:55.338.17-Sep-2021 4888.00 5436.78 75.89 8.00 130.01 2528.99
   10:31:55.538.17-Sep-2021 4888.00 5436.78 75.89 8.00 130.21 2528.99
   10:31:55.738.17-Sep-2021 4888.00 5435.82 75.89 8.00 130.41 2528.99
   10:31:55.938.17-Sep-2021 4888.00 5436.40 75.89 8.00 130.61 2528.99
   10:31:56.138.17-Sep-2021 4888.00 5437.71 75.89 8.00 130.81 2528.99
   10:31:56.338.17-Sep-2021 4888.00 5436.44 75.89 8.00 131.01 2528.99
   10:31:56.539.17-Sep-2021 4888.00 5436.44 75.89 8.00 131.21 2528.99
   10:31:56.739.17-Sep-2021 4888.00 5435.59 75.89 8.00 131.41 2528.99
   10:31:56.939.17-Sep-2021 4888.00 5435.99 75.89 8.00 131.61 2528.99
   10:31:57.139.17-Sep-2021 4888.00 5435.98 75.89 8.00 131.81 2528.99
   10:31:57.339.17-Sep-2021 4888.00 5438.44 75.89 8.00 132.01 2528.99
   10:31:57.539.17-Sep-2021 4888.00 5438.44 75.89 8.00 132.21 2528.99
   10:31:57.739.17-Sep-2021 4888.00 5435.71 75.89 8.00 132.41 2528.99
   10:31:57.939.17-Sep-2021 4888.00 5435.75 75.89 8.00 132.61 2528.99
   10:31:58.139.17-Sep-2021 4888.00 5436.60 75.89 8.00 132.81 2528.99
   10:31:58.339.17-Sep-2021 4888.00 5436.24 75.89 8.00 133.01 2528.99
   10:31:58.539.17-Sep-2021 4888.00 5436.24 75.89 8.00 133.21 2528.99
   10:31:58.739.17-Sep-2021 4888.00 5435.96 75.89 8.00 133.41 2528.99
   10:31:58.939.17-Sep-2021 4888.00 5435.70 75.89 8.00 133.61 2528.99
   10:31:59.139.17-Sep-2021 4888.00 5435.69 75.89 8.00 133.81 2528.99
   10:31:59.339.17-Sep-2021 4888.00 5436.14 75.89 8.00 134.01 2528.99
   10:31:59.539.17-Sep-2021 4888.00 5436.14 75.89 8.00 134.21 2528.99
   10:31:59.739.17-Sep-2021 4888.00 5436.52 75.89 8.00 134.41 2528.99
   10:31:59.939.17-Sep-2021 4888.00 5436.02 75.89 8.00 134.61 2528.99
   10:32:00.139.17-Sep-2021 4888.00 5436.28 75.89 8.00 134.81 2528.99
   10:32:00.339.17-Sep-2021 4888.00 5439.92 75.89 8.00 135.01 2528.99
   10:32:00.539.17-Sep-2021 4888.00 5439.92 75.89 8.00 135.21 2528.99
   10:32:00.739.17-Sep-2021 4888.00 5436.56 75.89 8.00 135.41 2528.99
   10:32:00.939.17-Sep-2021 4888.00 5436.13 75.89 8.00 135.62 2528.99
   10:32:01.139.17-Sep-2021 4888.00 5437.35 75.89 8.00 135.82 2528.99
   10:32:01.339.17-Sep-2021 4888.00 5436.09 75.89 8.00 136.02 2528.99
   10:32:01.539.17-Sep-2021 4888.00 5436.09 75.89 8.00 136.22 2528.99
   10:32:01.739.17-Sep-2021 4888.00 5436.21 75.89 8.00 136.42 2528.99
   10:32:01.939.17-Sep-2021 4888.00 5435.71 75.89 8.00 136.62 2528.99
   10:32:02.139.17-Sep-2021 4888.00 5435.68 75.89 8.00 136.82 2528.99
   10:32:02.339.17-Sep-2021 4888.00 5435.52 75.89 8.00 137.02 2528.99
   10:32:02.539.17-Sep-2021 4888.00 5435.52 75.89 8.00 137.22 2528.99
   10:32:02.739.17-Sep-2021 4888.00 5436.13 75.88 8.00 137.42 2528.99
   10:32:02.939.17-Sep-2021 4888.00 5436.03 75.88 8.00 137.62 2528.99
   10:32:03.139.17-Sep-2021 4888.00 5435.93 75.88 8.00 137.82 2528.99
