~Version Information
 VERS.                  2.0:   CWLS log ASCII Standard -VERSION 2.0
 WRAP.                   NO:   One line per depth step
~Well Information Block
#MNEM.UNIT     VALUE/NAME     DESCRIPTION
#---------     -----------    ---------------------------
 STRT.S             11:33:10 17-Sep-21: START TIME 11:33:10 17-Sep-21
 STOP.S             11:40:20 17-Sep-21: STOP TIME  11:40:20 17-Sep-21
 STEP.S                   0.00: STEP TIME
 NULL.                 -999.25: NULL VALUE
 DFWT.                        :  DIST FWL TEXT
 DFST.                        :  DIST FSL TEXT
 DMF .             Drill Floor:  DRILL MEAS FROM
 STIM.      10.59.12 05-Jul-21:  START TIME
 DATE.      10.59.12 10-Sep-21:  END TIME
 SPUD.               05-Jul-21:  SPUD DATE
 NREF.                    Grid:  NORTH REFERENCE
 HPTY.       Minimum Curvature:  HOLE POS TYPE
 DMOD.             Drill Model:  DRILL MOD DESC
 SVYD.                  Survey:  SURVEY DESC
 ILTD.               Lithology:  INTERP LTH DESC
 FTOP.          Formation Tops:  FORM TOPS DESC
 RIG .                     DWG:  RIG NAME
 PDAT.          Mean Sea Level:  PERMANENT DATUM
 FLD .                     ACG:  FIELD NAME
 SON .        AZ-XX-0907115008:  JOB NUMBER
 CTRY.              Azerbaijan:  COUNTRY NAME
 WELL.                    E35A:  WELL NAME
 SRVC.          TURAN DRILLING:  CONTRACTOR
 COMP.     BP Exploration (Caspian Sea LTD):  COMPANY
 UWI .                     N/A:  UNIQUE WELL IDENTIFIER
 API .                     N/A:  API NUMBER
 MDS .        Operator Entered:  MAG DATA SOURCE
 BASE.              Azerbaijan:  LOGGING EQUIPMENT BASE LOCATION
 REGN.                   EESSA:  REGION
 PROV.                    Baku:  PROVINCE
 STAT.                    Baku:  STATE NAME
 MWDS.                    Baku:  MWD SHOP
 JOBN.        AZ-XX-0907115008:  JOB TICKET NUMB
 DOE .                     N/A:  DOE NUMBER
 DCON.         Sperry Drilling:  DIRECTNL CONTR
 UNIT.                     N/A:  LOGGING EQUIPMENT ID
 WTYP.                Deviated:  WELL TYPE
 CNTY.                        :  COUNTY
 LOC .                        :  LOCATION
 LMF .             Drill Floor:  LOG MEASURED FROM
 TVDS.m                  43.16:  TVDSS CORRECTN
 LATI.deg                40.17:  LATITUDE
 LONG.deg                51.17:  LONGITUDE
 WHNS.m                  10.51:  WELL HEAD N/S
 WHEW.m                 -14.82:  WELL HEAD E/W
 UTMX.m              514336.92:  UTM X
 UTMY.m             4448618.56:  UTM Y
 DFWL.m                   0.00:  DISTANCE FWL
 DFSL.m                   0.00:  DISTANCE FSL
 SDEP.m                 849.00:  START DEPTH
 TDD .m                2862.00:  TOTAL DEPTH (DRILLER)
 VSDR.deg               292.10:  VERT SEC DIRECT
 GVFD.g                   1.00:  GRAVITY FIELD
 MFLD.nT              50382.00:  MAGNETIC FIELD
 MDIP.deg                59.68:  MAGNETIC DIP
 MDEC.deg                 6.66:  MAGNETIC DECL
 GRDC.deg                 0.09:  GRID CORRECTION
 AZTC.deg                 6.57:  AZM TOTAL CORR
 EPD .m                   0.00:  ELEVATION
 EGL .m                   0.00:  GROUND ELEVATION
 WDMS.m                 176.20:  WD ELEV
 APD .m                  43.16:  DEPTH ABOVE PD
 DEP .m                 363.42:  DEPTH
 AGAP.m                  43.16:  AIR GAP
 VSEW.m                 -14.82:  VERT SEC E/W
 VSNS.m                  10.51:  VERT SEC N/S
 EKB .m                  43.16:  KB ELEVATION
 EDF .m                  43.16:  DF ELEVATION
 TDL .m                1390.00:  TOTAL DEPTH (LOGGER)
 VSC .                       0:  VS TO CLOSURE
 MAGU.                 1855871:  MAGUTM CHECKSUM
~Parameter Information Block
#MNEM.UNIT       Value        Description
#---------     -----------    ---------------------------
 AV  .mps                 2.28:  Ann Velocity 
 AVMX.mps                 2.67:  Max Ann Veloc 
 AZIF.deg               305.00:  Azm, Final 
 BHAT.        Rotary Steerable:  BHA Type 
 BROT.°/30m               0.45:  Build Rotating 
 BS  .in                 12.25:  Bit Size 
 BSZ .in                 12.25:  Bit Size 
 BTPL.psig              600.00:  Bit Press Loss 
 CABU.                     Yes:  Customer Abuse 
 COMM.                     Á~:  Run Comments 1 
 TCS .hr                150.00:  Time Ciculation Ended 
 CV  .mps                 1.24:  Crit Velocity 
 CVMX.mps                 1.66:  Max Crit Veloc 
 DD1 .         Intigam Rahimov:  Direct Drillr 1 
 DD2 .            Azer Ravavov:  Direct Drillr 2 
 DD3 .              Samir Abas:  Direct Drillr 3 
 DDSV.               Geo-Pilot:  DD Service 
 DEFF.%                 100.00:  % Det Eff 
 DLRX.°/30m               1.57:  Dogleg Rot Max 
 DLSO.°/30m               0.00:  Dogleg Oriented 
 DLSX.°/30m               0.00:  Dogleg Str Max 
 DRET.      20.28.06 17-Sep-21:  Drill End Time 
 DRST.      20.27.35 10-Sep-21:  Drill Start Tim 
 DTIM.hr                 54.00:  Time Drilling 
 EDEP.m                5260.00:  End Depth 
 ENG1.      Bakhtiyar Jabbarli:  Engineer 1 
 ENG2.      Natik Hasanaghayev:  Engineer 2 
 ENG3.           Royal Nasirov:  Engineer 3 
 ETIM.      20.27.55 18-Sep-21:  End Time 
 FLOI.gpm              1100.00:  Flow In 
 FLON.gpm               800.00:  Flow In Min 
 FLOS.cptm                0.00:  Fluid Loss 
 FLOX.gpm              1200.00:  Flow In Max 
 DFT .        Mineral Oil Base:  Mud Type 
 HPRE.                      No:  High Pressure 
 HTEM.                      No:  High Temp 
 HYDO.m                   1.80:  Hydro Offset 
 IFIN.deg                72.31:  Inc, Final 
 IMAX.deg                72.36:  Inc Max 
 IMIN.deg                69.36:  Inc Min 
 IMND.m                4192.96:  Inc Min Depth 
 IMXD.m                5128.36:  Inc Max Depth 
 JARR.                      No:  Jarring 
 LETM.      20.29.00 17-Sep-21:  Log End Time 
 LOST.hr                     0:  Lost Rig Time 
 LSTM.      20.27.00 10-Sep-21:  Log Start Time 
 MDCL.ppm            227000.00:  Mud Chlorides 
 MDES.     Inversion Oil/Synthetic:  Mud Desc 
 DFD .sg                  1.45:  Mud Density 
 MDMN.sg                  1.45:  Dens Mud Min 
 MDMX.sg                  1.45:  Dens Mud Max 
 MOIL.                    70.5:  Run Mud Oil % 
 MOWR.                   71:29:  Run Mud OWR 
 MSND.                     0.3:  Run Mud Sand % 
 MSOL.                    19.8:  Run Mud Solids% 
 DFV .spqt               80.00:  Mud Viscosity 
 MWOD.in                  8.00:  MWD Tool OD 
 MWSI.                     Yes:  Serv Intrp, MWD 
 OTIM.hr                180.00:  Time Operating 
 PCON.           Look Like New:  Pad Condition 
 PMAX.psia             9910.94:  Press Op, Max 
 PV  .cP                 35.00:  Mud PV 
 RUN .                    1000:  Run Number 
 ROPA.m/hr               18.00:  ROP Avg 
 ROPN.m/hr                8.00:  ROP Min 
 ROPX.m/hr               23.00:  ROP Max 
 RPMA.rpm               150.00:  RPM Surface Avg 
 RPMN.rpm               120.00:  RPM Surface Min 
 RPMX.rpm               160.00:  RPM Surface Max 
 RRUN.                    L503:  Rig Run Number 
 RTIM.hr                  5.00:  Time Reaming 
 SAZI.deg               298.42:  Azm, Start 
 SDEP.m                3870.00:  Start Depth 
 SIDD.                      No:  Serv Intrp, DD 
 SINC.deg                69.57:  Inc, Start 
 SPPA.psig             5500.00:  SPP Avg 
 SPPN.psig             4400.00:  SPP Min 
 SPPX.psig             5800.00:  SPP Max 
 STIM.      15.29.39 09-Sep-21:  Start Time 
 SVCS.                 DD, MWD:  Services 
 SVER.                    9.20:  Sperry Version 
 TDAT.m                5260.00:  Tot Depth Attmp 
 TDDF.                      No:  Trip for DD 
 TDLG.m                1390.00:  Tot Depth Loggd 
 TFF .                      No:  Trip for Fail 
 TQAA.f-kp               22.00:  Torque Abs Avg 
 TQAN.f-kp               13.00:  Torque Abs Min 
 TQAX.f-kp               27.00:  Torque Abs Max 
 TRRT.°/30m               1.60:  Turn Rotating 
 MRT .                  EWR-M5:  Maximum Recorded Temperature 
 TTMX.degC               92.00:  Max Tool Temp 
 VS01.                12330975:  Virtual Str1 SN 
 VS02.                90658671:  Virtual Str2 SN 
 VS03.                90658508:  Virtual Str3 SN 
 VS04.                90660974:  Virtual Str4 SN 
 VS05.                90654675:  Virtual Str5 SN 
 WBMN.klb                15.00:  WOB Min 
 WITN.     Alexander Yadullayev:  Customer Rep 
 WITN.           Adil Mammadov:  Customer Rep 2 
 WOBA.klb                17.00:  WOB Avg 
 WOBX.klb                18.00:  WOB Max 
 YP  .lhf2               31.00:  Yield Point 
~Curve Information Block
#MNEM.UNIT                 API CODE     Curve Description
#---------               -----------    ---------------------------
 TIME.HHMMSS            00 000 000 000:  GT Time & Date
 GTDEPTH.m              00 000 000 000:  GT Depth
 GTPQH.psia             00 000 000 000:  GT HR Quartz Pressure
 GTTQ.degC              00 000 000 000:  GT Quartz Temperature
 GTTN.NONE              00 000 000 000:  GT Test Number
 GTET.sec               00 000 000 000:  GT Elapsed Test Time
 GTTVD.m                00 000 000 000:  GT True Vertical Depth
#Other Information
#
#WARRANTY: Halliburton will use its best efforts to furnish customers with 
#accurate information and interpretations that are part of, and incident to, the services 
#provided.  However, Halliburton cannot and does not warrant the accuracy 
#or correctness of such information and interpretations.  Under no circumstances should any 
#such information or interpretation be relied upon as the sole basis for any drilling, 
#completion, production, or financial decision or any procedure involving any risk to the 
#safety of any drilling venture, drilling rig or its crew or any other third party.  The 
#Customer has full responsibility for all drilling, completion and production operation.  
#Halliburton makes no representations or warranties, either expressed or 
#implied, including, but not limited to, the implied warranties of merchantability or fitness 
#for a particular purpose, with respect to the services rendered.  In no event will 
#Halliburton be liable for failure to obtain any particular results or for 
#any damages, including, but not limited to, indirect, special or consequential damages, 
#resulting from the use of any information or interpretation provided by Halliburton.
#
~A           TIME           GTDEPTH  GTPQH  GTTQ  GTTN  GTET   GTTVD  
# ...
   11:39:18.786.17-Sep-2021 4887.00 5433.78 77.25 9.00 368.04 2528.65
   11:39:18.986.17-Sep-2021 4887.00 5433.78 77.25 9.00 368.24 2528.65
   11:39:19.186.17-Sep-2021 4887.00 5433.95 77.25 9.00 368.44 2528.65
   11:39:19.386.17-Sep-2021 4887.00 5433.78 77.25 9.00 368.64 2528.65
   11:39:19.586.17-Sep-2021 4887.00 5434.12 77.25 9.00 368.84 2528.65
   11:39:19.786.17-Sep-2021 4887.00 5434.88 77.25 9.00 369.04 2528.65
   11:39:19.986.17-Sep-2021 4887.00 5434.88 77.25 9.00 369.24 2528.65
   11:39:20.186.17-Sep-2021 4887.00 5433.42 77.25 9.00 369.44 2528.65
   11:39:20.386.17-Sep-2021 4887.00 5433.42 77.25 9.00 369.64 2528.65
   11:39:20.586.17-Sep-2021 4887.00 5433.74 77.25 9.00 369.84 2528.65
   11:39:20.786.17-Sep-2021 4887.00 5436.39 77.25 9.00 370.04 2528.65
   11:39:20.986.17-Sep-2021 4887.00 5436.39 77.25 9.00 370.24 2528.65
   11:39:21.186.17-Sep-2021 4887.00 5432.94 77.25 9.00 370.44 2528.65
   11:39:21.386.17-Sep-2021 4887.00 5433.22 77.25 9.00 370.64 2528.65
   11:39:21.586.17-Sep-2021 4887.00 5437.70 77.25 9.00 370.84 2528.65
   11:39:21.786.17-Sep-2021 4887.00 5431.95 77.25 9.00 371.04 2528.65
   11:39:21.986.17-Sep-2021 4887.00 5431.95 77.25 9.00 371.24 2528.65
   11:39:22.186.17-Sep-2021 4887.00 5433.15 77.25 9.00 371.44 2528.65
   11:39:22.386.17-Sep-2021 4887.00 5434.56 77.25 9.00 371.64 2528.65
   11:39:22.586.17-Sep-2021 4887.00 5432.93 77.25 9.00 371.84 2528.65
   11:39:22.786.17-Sep-2021 4887.00 5432.42 77.25 9.00 372.04 2528.65
   11:39:22.986.17-Sep-2021 4887.00 5432.42 77.25 9.00 372.24 2528.65
   11:39:23.186.17-Sep-2021 4887.00 5433.12 77.25 9.00 372.44 2528.65
   11:39:23.386.17-Sep-2021 4887.00 5433.16 77.25 9.00 372.64 2528.65
   11:39:23.587.17-Sep-2021 4887.00 5432.70 77.25 9.00 372.84 2528.65
   11:39:23.787.17-Sep-2021 4887.00 5433.05 77.25 9.00 373.04 2528.65
   11:39:23.987.17-Sep-2021 4887.00 5433.05 77.25 9.00 373.24 2528.65
   11:39:24.187.17-Sep-2021 4887.00 5433.49 77.25 9.00 373.44 2528.65
   11:39:24.387.17-Sep-2021 4887.00 5433.24 77.25 9.00 373.64 2528.65
   11:39:24.587.17-Sep-2021 4887.00 5433.40 77.25 9.00 373.84 2528.65
   11:39:24.787.17-Sep-2021 4887.00 5436.29 77.25 9.00 374.04 2528.65
   11:39:24.987.17-Sep-2021 4887.00 5436.29 77.25 9.00 374.24 2528.65
   11:39:25.187.17-Sep-2021 4887.00 5433.41 77.25 9.00 374.44 2528.65
   11:39:25.387.17-Sep-2021 4887.00 5433.77 77.25 9.00 374.64 2528.65
   11:39:25.587.17-Sep-2021 4887.00 5434.76 77.25 9.00 374.84 2528.65
   11:39:25.787.17-Sep-2021 4887.00 5433.76 77.25 9.00 375.04 2528.65
   11:39:25.987.17-Sep-2021 4887.00 5433.76 77.25 9.00 375.24 2528.65
   11:39:26.187.17-Sep-2021 4887.00 5433.54 77.25 9.00 375.44 2528.65
   11:39:26.387.17-Sep-2021 4887.00 5433.29 77.25 9.00 375.64 2528.65
   11:39:26.587.17-Sep-2021 4887.00 5433.10 77.25 9.00 375.84 2528.65
   11:39:26.787.17-Sep-2021 4887.00 5432.86 77.25 9.00 376.04 2528.65
   11:39:26.987.17-Sep-2021 4887.00 5432.86 77.25 9.00 376.24 2528.65
   11:39:27.187.17-Sep-2021 4887.00 5433.41 77.25 9.00 376.44 2528.65
   11:39:27.387.17-Sep-2021 4887.00 5433.21 77.25 9.00 376.64 2528.65
   11:39:27.587.17-Sep-2021 4887.00 5433.21 77.25 9.00 376.84 2528.65
   11:39:27.787.17-Sep-2021 4887.00 5433.43 77.25 9.00 377.04 2528.65
   11:39:27.987.17-Sep-2021 4887.00 5433.43 77.25 9.00 377.24 2528.65
   11:39:28.187.17-Sep-2021 4887.00 5436.78 77.25 9.00 377.44 2528.65
   11:39:28.387.17-Sep-2021 4887.00 5432.77 77.25 9.00 377.64 2528.65
   11:39:28.587.17-Sep-2021 4887.00 5433.51 77.25 9.00 377.84 2528.65
   11:39:28.787.17-Sep-2021 4887.00 5433.55 77.25 9.00 378.04 2528.65
   11:39:28.987.17-Sep-2021 4887.00 5433.55 77.25 9.00 378.24 2528.65
   11:39:29.187.17-Sep-2021 4887.00 5436.85 77.25 9.00 378.44 2528.65
   11:39:29.387.17-Sep-2021 4887.00 5432.27 77.25 9.00 378.64 2528.65
   11:39:29.587.17-Sep-2021 4887.00 5433.38 77.25 9.00 378.84 2528.65
   11:39:29.787.17-Sep-2021 4887.00 5433.24 77.25 9.00 379.04 2528.65
   11:39:29.987.17-Sep-2021 4887.00 5433.24 77.25 9.00 379.24 2528.65
   11:39:30.187.17-Sep-2021 4887.00 5435.37 77.25 9.00 379.44 2528.65
   11:39:30.387.17-Sep-2021 4887.00 5432.60 77.25 9.00 379.64 2528.65
   11:39:30.587.17-Sep-2021 4887.00 5433.23 77.25 9.00 379.84 2528.65
   11:39:30.787.17-Sep-2021 4887.00 5435.05 77.25 9.00 380.04 2528.65
   11:39:30.987.17-Sep-2021 4887.00 5435.05 77.25 9.00 380.24 2528.65
   11:39:31.187.17-Sep-2021 4887.00 5432.75 77.25 9.00 380.44 2528.65
   11:39:31.387.17-Sep-2021 4887.00 5432.49 77.25 9.00 380.64 2528.65
   11:39:31.587.17-Sep-2021 4887.00 5433.70 77.25 9.00 380.84 2528.65
   11:39:31.787.17-Sep-2021 4887.00 5433.39 77.25 9.00 381.04 2528.65
   11:39:31.987.17-Sep-2021 4887.00 5433.39 77.25 9.00 381.24 2528.65
   11:39:32.187.17-Sep-2021 4887.00 5432.54 77.25 9.00 381.44 2528.65
   11:39:32.387.17-Sep-2021 4887.00 5432.98 77.25 9.00 381.64 2528.65
   11:39:32.587.17-Sep-2021 4887.00 5433.08 77.25 9.00 381.84 2528.65
   11:39:32.788.17-Sep-2021 4887.00 5432.65 77.25 9.00 382.04 2528.65
   11:39:32.988.17-Sep-2021 4887.00 5432.65 77.25 9.00 382.24 2528.65
   11:39:33.188.17-Sep-2021 4887.00 5433.19 77.25 9.00 382.44 2528.65
   11:39:33.388.17-Sep-2021 4887.00 5433.47 77.25 9.00 382.64 2528.65
   11:39:33.588.17-Sep-2021 4887.00 5433.11 77.25 9.00 382.84 2528.65
   11:39:33.788.17-Sep-2021 4887.00 5433.17 77.25 9.00 383.04 2528.65
   11:39:33.988.17-Sep-2021 4887.00 5433.17 77.25 9.00 383.24 2528.65
   11:39:34.188.17-Sep-2021 4887.00 5433.13 77.25 9.00 383.44 2528.65
   11:39:34.388.17-Sep-2021 4887.00 5433.41 77.25 9.00 383.64 2528.65
   11:39:34.588.17-Sep-2021 4887.00 5433.59 77.25 9.00 383.84 2528.65
   11:39:34.788.17-Sep-2021 4887.00 5435.06 77.25 9.00 384.04 2528.65
   11:39:34.988.17-Sep-2021 4887.00 5435.06 77.25 9.00 384.24 2528.65
   11:39:35.188.17-Sep-2021 4887.00 5433.01 77.25 9.00 384.44 2528.65
   11:39:35.388.17-Sep-2021 4887.00 5433.44 77.25 9.00 384.64 2528.65
   11:39:35.588.17-Sep-2021 4887.00 5433.05 77.25 9.00 384.84 2528.65
   11:39:35.788.17-Sep-2021 4887.00 5432.93 77.25 9.00 385.04 2528.65
   11:39:35.988.17-Sep-2021 4887.00 5432.93 77.25 9.00 385.24 2528.65
   11:39:36.188.17-Sep-2021 4887.00 5432.90 77.25 9.00 385.44 2528.65
   11:39:36.388.17-Sep-2021 4887.00 5433.33 77.25 9.00 385.64 2528.65
   11:39:36.588.17-Sep-2021 4887.00 5433.13 77.25 9.00 385.84 2528.65
   11:39:36.788.17-Sep-2021 4887.00 5433.10 77.25 9.00 386.04 2528.65
   11:39:36.988.17-Sep-2021 4887.00 5433.10 77.25 9.00 386.24 2528.65
   11:39:37.188.17-Sep-2021 4887.00 5433.56 77.25 9.00 386.44 2528.65
   11:39:37.388.17-Sep-2021 4887.00 5437.18 77.25 9.00 386.64 2528.65
   11:39:37.588.17-Sep-2021 4887.00 5432.00 77.25 9.00 386.84 2528.65
   11:39:37.788.17-Sep-2021 4887.00 5433.51 77.25 9.00 387.04 2528.65
   11:39:37.988.17-Sep-2021 4887.00 5433.51 77.25 9.00 387.24 2528.65
   11:39:38.188.17-Sep-2021 4887.00 5434.92 77.25 9.00 387.44 2528.65
   11:39:38.388.17-Sep-2021 4887.00 5437.52 77.25 9.00 387.64 2528.65
   11:39:38.588.17-Sep-2021 4887.00 5431.86 77.25 9.00 387.84 2528.65
   11:39:38.788.17-Sep-2021 4887.00 5433.67 77.25 9.00 388.04 2528.65
   11:39:38.988.17-Sep-2021 4887.00 5433.67 77.25 9.00 388.24 2528.65
   11:39:39.188.17-Sep-2021 4887.00 5434.28 77.25 9.00 388.44 2528.65
   11:39:39.388.17-Sep-2021 4887.00 5436.21 77.25 9.00 388.64 2528.65
   11:39:39.588.17-Sep-2021 4887.00 5431.86 77.25 9.00 388.84 2528.65
   11:39:39.788.17-Sep-2021 4887.00 5433.17 77.25 9.00 389.04 2528.65
   11:39:39.988.17-Sep-2021 4887.00 5433.17 77.25 9.00 389.24 2528.65
   11:39:40.188.17-Sep-2021 4887.00 5436.53 77.25 9.00 389.44 2528.65
   11:39:40.388.17-Sep-2021 4887.00 5432.39 77.25 9.00 389.64 2528.65
   11:39:40.588.17-Sep-2021 4887.00 5432.34 77.25 9.00 389.84 2528.65
   11:39:40.788.17-Sep-2021 4887.00 5433.39 77.25 9.00 390.04 2528.65
   11:39:40.988.17-Sep-2021 4887.00 5433.39 77.25 9.00 390.24 2528.65
   11:39:41.188.17-Sep-2021 4887.00 5432.56 77.25 9.00 390.44 2528.65
   11:39:41.388.17-Sep-2021 4887.00 5432.10 77.25 9.00 390.64 2528.65
   11:39:41.588.17-Sep-2021 4887.00 5432.96 77.25 9.00 390.84 2528.65
