~Version Information
 VERS.                  2.0:   CWLS log ASCII Standard -VERSION 2.0
 WRAP.                   NO:   One line per depth step
~Well Information Block
#MNEM.UNIT     VALUE/NAME     DESCRIPTION
#---------     -----------    ---------------------------
 STRT.S             06:26:37 17-Sep-21: START TIME 06:26:37 17-Sep-21
 STOP.S             06:35:42 17-Sep-21: STOP TIME  06:35:42 17-Sep-21
 STEP.S                   0.00: STEP TIME
 NULL.                 -999.25: NULL VALUE
 DFWT.                        :  DIST FWL TEXT
 DFST.                        :  DIST FSL TEXT
 DMF .             Drill Floor:  DRILL MEAS FROM
 STIM.      10.59.12 05-Jul-21:  START TIME
 DATE.      10.59.12 10-Sep-21:  END TIME
 SPUD.               05-Jul-21:  SPUD DATE
 NREF.                    Grid:  NORTH REFERENCE
 HPTY.       Minimum Curvature:  HOLE POS TYPE
 DMOD.             Drill Model:  DRILL MOD DESC
 SVYD.                  Survey:  SURVEY DESC
 ILTD.               Lithology:  INTERP LTH DESC
 FTOP.          Formation Tops:  FORM TOPS DESC
 RIG .                     DWG:  RIG NAME
 PDAT.          Mean Sea Level:  PERMANENT DATUM
 FLD .                     ACG:  FIELD NAME
 SON .        AZ-XX-0907115008:  JOB NUMBER
 CTRY.              Azerbaijan:  COUNTRY NAME
 WELL.                    E35A:  WELL NAME
 SRVC.          TURAN DRILLING:  CONTRACTOR
 COMP.     BP Exploration (Caspian Sea LTD):  COMPANY
 UWI .                     N/A:  UNIQUE WELL IDENTIFIER
 API .                     N/A:  API NUMBER
 MDS .        Operator Entered:  MAG DATA SOURCE
 BASE.              Azerbaijan:  LOGGING EQUIPMENT BASE LOCATION
 REGN.                   EESSA:  REGION
 PROV.                    Baku:  PROVINCE
 STAT.                    Baku:  STATE NAME
 MWDS.                    Baku:  MWD SHOP
 JOBN.        AZ-XX-0907115008:  JOB TICKET NUMB
 DOE .                     N/A:  DOE NUMBER
 DCON.         Sperry Drilling:  DIRECTNL CONTR
 UNIT.                     N/A:  LOGGING EQUIPMENT ID
 WTYP.                Deviated:  WELL TYPE
 CNTY.                        :  COUNTY
 LOC .                        :  LOCATION
 LMF .             Drill Floor:  LOG MEASURED FROM
 TVDS.m                  43.16:  TVDSS CORRECTN
 LATI.deg                40.17:  LATITUDE
 LONG.deg                51.17:  LONGITUDE
 WHNS.m                  10.51:  WELL HEAD N/S
 WHEW.m                 -14.82:  WELL HEAD E/W
 UTMX.m              514336.92:  UTM X
 UTMY.m             4448618.56:  UTM Y
 DFWL.m                   0.00:  DISTANCE FWL
 DFSL.m                   0.00:  DISTANCE FSL
 SDEP.m                 849.00:  START DEPTH
 TDD .m                2862.00:  TOTAL DEPTH (DRILLER)
 VSDR.deg               292.10:  VERT SEC DIRECT
 GVFD.g                   1.00:  GRAVITY FIELD
 MFLD.nT              50382.00:  MAGNETIC FIELD
 MDIP.deg                59.68:  MAGNETIC DIP
 MDEC.deg                 6.66:  MAGNETIC DECL
 GRDC.deg                 0.09:  GRID CORRECTION
 AZTC.deg                 6.57:  AZM TOTAL CORR
 EPD .m                   0.00:  ELEVATION
 EGL .m                   0.00:  GROUND ELEVATION
 WDMS.m                 176.20:  WD ELEV
 APD .m                  43.16:  DEPTH ABOVE PD
 DEP .m                 363.42:  DEPTH
 AGAP.m                  43.16:  AIR GAP
 VSEW.m                 -14.82:  VERT SEC E/W
 VSNS.m                  10.51:  VERT SEC N/S
 EKB .m                  43.16:  KB ELEVATION
 EDF .m                  43.16:  DF ELEVATION
 TDL .m                1390.00:  TOTAL DEPTH (LOGGER)
 VSC .                       0:  VS TO CLOSURE
 MAGU.                 1855871:  MAGUTM CHECKSUM
~Parameter Information Block
#MNEM.UNIT       Value        Description
#---------     -----------    ---------------------------
 AV  .mps                 2.28:  Ann Velocity 
 AVMX.mps                 2.67:  Max Ann Veloc 
 AZIF.deg               305.00:  Azm, Final 
 BHAT.        Rotary Steerable:  BHA Type 
 BROT.°/30m               0.45:  Build Rotating 
 BS  .in                 12.25:  Bit Size 
 BSZ .in                 12.25:  Bit Size 
 BTPL.psig              600.00:  Bit Press Loss 
 CABU.                     Yes:  Customer Abuse 
 COMM.                     D5N:  Run Comments 1 
 TCS .hr                150.00:  Time Ciculation Ended 
 CV  .mps                 1.24:  Crit Velocity 
 CVMX.mps                 1.66:  Max Crit Veloc 
 DD1 .         Intigam Rahimov:  Direct Drillr 1 
 DD2 .            Azer Ravavov:  Direct Drillr 2 
 DD3 .              Samir Abas:  Direct Drillr 3 
 DDSV.               Geo-Pilot:  DD Service 
 DEFF.%                 100.00:  % Det Eff 
 DLRX.°/30m               1.57:  Dogleg Rot Max 
 DLSO.°/30m               0.00:  Dogleg Oriented 
 DLSX.°/30m               0.00:  Dogleg Str Max 
 DRET.      20.28.06 17-Sep-21:  Drill End Time 
 DRST.      20.27.35 10-Sep-21:  Drill Start Tim 
 DTIM.hr                 54.00:  Time Drilling 
 EDEP.m                5260.00:  End Depth 
 ENG1.      Bakhtiyar Jabbarli:  Engineer 1 
 ENG2.      Natik Hasanaghayev:  Engineer 2 
 ENG3.           Royal Nasirov:  Engineer 3 
 ETIM.      20.27.55 18-Sep-21:  End Time 
 FLOI.gpm              1100.00:  Flow In 
 FLON.gpm               800.00:  Flow In Min 
 FLOS.cptm                0.00:  Fluid Loss 
 FLOX.gpm              1200.00:  Flow In Max 
 DFT .        Mineral Oil Base:  Mud Type 
 HPRE.                      No:  High Pressure 
 HTEM.                      No:  High Temp 
 HYDO.m                   1.80:  Hydro Offset 
 IFIN.deg                72.31:  Inc, Final 
 IMAX.deg                72.36:  Inc Max 
 IMIN.deg                69.36:  Inc Min 
 IMND.m                4192.96:  Inc Min Depth 
 IMXD.m                5128.36:  Inc Max Depth 
 JARR.                      No:  Jarring 
 LETM.      20.29.00 17-Sep-21:  Log End Time 
 LOST.hr                     0:  Lost Rig Time 
 LSTM.      20.27.00 10-Sep-21:  Log Start Time 
 MDCL.ppm            227000.00:  Mud Chlorides 
 MDES.     Inversion Oil/Synthetic:  Mud Desc 
 DFD .sg                  1.45:  Mud Density 
 MDMN.sg                  1.45:  Dens Mud Min 
 MDMX.sg                  1.45:  Dens Mud Max 
 MOIL.                    70.5:  Run Mud Oil % 
 MOWR.                   71:29:  Run Mud OWR 
 MSND.                     0.3:  Run Mud Sand % 
 MSOL.                    19.8:  Run Mud Solids% 
 DFV .spqt               80.00:  Mud Viscosity 
 MWOD.in                  8.00:  MWD Tool OD 
 MWSI.                     Yes:  Serv Intrp, MWD 
 OTIM.hr                180.00:  Time Operating 
 PCON.           Look Like New:  Pad Condition 
 PMAX.psia             9910.94:  Press Op, Max 
 PV  .cP                 35.00:  Mud PV 
 RUN .                    1000:  Run Number 
 ROPA.m/hr               18.00:  ROP Avg 
 ROPN.m/hr                8.00:  ROP Min 
 ROPX.m/hr               23.00:  ROP Max 
 RPMA.rpm               150.00:  RPM Surface Avg 
 RPMN.rpm               120.00:  RPM Surface Min 
 RPMX.rpm               160.00:  RPM Surface Max 
 RRUN.                    L503:  Rig Run Number 
 RTIM.hr                  5.00:  Time Reaming 
 SAZI.deg               298.42:  Azm, Start 
 SDEP.m                3870.00:  Start Depth 
 SIDD.                      No:  Serv Intrp, DD 
 SINC.deg                69.57:  Inc, Start 
 SPPA.psig             5500.00:  SPP Avg 
 SPPN.psig             4400.00:  SPP Min 
 SPPX.psig             5800.00:  SPP Max 
 STIM.      15.29.39 09-Sep-21:  Start Time 
 SVCS.                 DD, MWD:  Services 
 SVER.                    9.20:  Sperry Version 
 TDAT.m                5260.00:  Tot Depth Attmp 
 TDDF.                      No:  Trip for DD 
 TDLG.m                1390.00:  Tot Depth Loggd 
 TFF .                      No:  Trip for Fail 
 TQAA.f-kp               22.00:  Torque Abs Avg 
 TQAN.f-kp               13.00:  Torque Abs Min 
 TQAX.f-kp               27.00:  Torque Abs Max 
 TRRT.°/30m               1.60:  Turn Rotating 
 MRT .                  EWR-M5:  Maximum Recorded Temperature 
 TTMX.degC               92.00:  Max Tool Temp 
 VS01.                12330975:  Virtual Str1 SN 
 VS02.                90658671:  Virtual Str2 SN 
 VS03.                90658508:  Virtual Str3 SN 
 VS04.                90660974:  Virtual Str4 SN 
 VS05.                90654675:  Virtual Str5 SN 
 WBMN.klb                15.00:  WOB Min 
 WITN.     Alexander Yadullayev:  Customer Rep 
 WITN.           Adil Mammadov:  Customer Rep 2 
 WOBA.klb                17.00:  WOB Avg 
 WOBX.klb                18.00:  WOB Max 
 YP  .lhf2               31.00:  Yield Point 
~Curve Information Block
#MNEM.UNIT                 API CODE     Curve Description
#---------               -----------    ---------------------------
 TIME.HHMMSS            00 000 000 000:  GT Time & Date
 GTDEPTH.m              00 000 000 000:  GT Depth
 GTPQH.psia             00 000 000 000:  GT HR Quartz Pressure
 GTTQ.degC              00 000 000 000:  GT Quartz Temperature
 GTTN.NONE              00 000 000 000:  GT Test Number
 GTET.sec               00 000 000 000:  GT Elapsed Test Time
 GTTVD.m                00 000 000 000:  GT True Vertical Depth
#Other Information
#
#WARRANTY: Halliburton will use its best efforts to furnish customers with 
#accurate information and interpretations that are part of, and incident to, the services 
#provided.  However, Halliburton cannot and does not warrant the accuracy 
#or correctness of such information and interpretations.  Under no circumstances should any 
#such information or interpretation be relied upon as the sole basis for any drilling, 
#completion, production, or financial decision or any procedure involving any risk to the 
#safety of any drilling venture, drilling rig or its crew or any other third party.  The 
#Customer has full responsibility for all drilling, completion and production operation.  
#Halliburton makes no representations or warranties, either expressed or 
#implied, including, but not limited to, the implied warranties of merchantability or fitness 
#for a particular purpose, with respect to the services rendered.  In no event will 
#Halliburton be liable for failure to obtain any particular results or for 
#any damages, including, but not limited to, indirect, special or consequential damages, 
#resulting from the use of any information or interpretation provided by Halliburton.
#
~A           TIME           GTDEPTH  GTPQH  GTTQ  GTTN  GTET   GTTVD  
# ...
   06:31:59.288.17-Sep-2021 5057.00 5597.50 78.68 7.00 321.93 2583.65
   06:31:59.488.17-Sep-2021 5057.00 5597.50 78.68 7.00 322.13 2583.65
   06:31:59.688.17-Sep-2021 5057.00 5597.85 78.68 7.00 322.33 2583.65
   06:31:59.888.17-Sep-2021 5057.00 5597.81 78.68 7.00 322.53 2583.65
   06:32:00.088.17-Sep-2021 5057.00 5598.13 78.68 7.00 322.73 2583.65
   06:32:00.288.17-Sep-2021 5057.00 5597.79 78.68 7.00 322.93 2583.65
   06:32:00.488.17-Sep-2021 5057.00 5597.79 78.68 7.00 323.13 2583.65
   06:32:00.688.17-Sep-2021 5057.00 5597.82 78.68 7.00 323.33 2583.65
   06:32:00.888.17-Sep-2021 5057.00 5597.40 78.68 7.00 323.53 2583.65
   06:32:01.088.17-Sep-2021 5057.00 5597.43 78.68 7.00 323.73 2583.65
   06:32:01.288.17-Sep-2021 5057.00 5597.44 78.68 7.00 323.93 2583.65
   06:32:01.488.17-Sep-2021 5057.00 5597.44 78.68 7.00 324.13 2583.65
   06:32:01.688.17-Sep-2021 5057.00 5597.40 78.68 7.00 324.33 2583.65
   06:32:01.888.17-Sep-2021 5057.00 5597.46 78.68 7.00 324.53 2583.65
   06:32:02.087.17-Sep-2021 5057.00 5597.44 78.68 7.00 324.73 2583.65
   06:32:02.287.17-Sep-2021 5057.00 5597.45 78.68 7.00 324.93 2583.65
   06:32:02.487.17-Sep-2021 5057.00 5597.45 78.68 7.00 325.13 2583.65
   06:32:02.687.17-Sep-2021 5057.00 5597.50 78.68 7.00 325.33 2583.65
   06:32:02.887.17-Sep-2021 5057.00 5597.52 78.68 7.00 325.53 2583.65
   06:32:03.087.17-Sep-2021 5057.00 5598.05 78.68 7.00 325.73 2583.65
   06:32:03.287.17-Sep-2021 5057.00 5597.42 78.68 7.00 325.93 2583.65
   06:32:03.487.17-Sep-2021 5057.00 5597.42 78.68 7.00 326.13 2583.65
   06:32:03.687.17-Sep-2021 5057.00 5597.92 78.68 7.00 326.33 2583.65
   06:32:03.887.17-Sep-2021 5057.00 5597.72 78.68 7.00 326.53 2583.65
   06:32:04.087.17-Sep-2021 5057.00 5597.71 78.68 7.00 326.73 2583.65
   06:32:04.287.17-Sep-2021 5057.00 5598.10 78.68 7.00 326.93 2583.65
   06:32:04.487.17-Sep-2021 5057.00 5598.10 78.68 7.00 327.13 2583.65
   06:32:04.687.17-Sep-2021 5057.00 5597.91 78.68 7.00 327.33 2583.65
   06:32:04.887.17-Sep-2021 5057.00 5597.68 78.68 7.00 327.53 2583.65
   06:32:05.087.17-Sep-2021 5057.00 5597.37 78.68 7.00 327.73 2583.65
   06:32:05.287.17-Sep-2021 5057.00 5597.64 78.68 7.00 327.93 2583.65
   06:32:05.487.17-Sep-2021 5057.00 5597.64 78.68 7.00 328.13 2583.65
   06:32:05.687.17-Sep-2021 5057.00 5597.78 78.71 7.00 328.33 2583.65
   06:32:05.887.17-Sep-2021 5057.00 5597.76 78.68 7.00 328.53 2583.65
   06:32:06.087.17-Sep-2021 5057.00 5597.96 78.68 7.00 328.73 2583.65
   06:32:06.287.17-Sep-2021 5057.00 5598.13 78.68 7.00 328.93 2583.65
   06:32:06.487.17-Sep-2021 5057.00 5598.13 78.68 7.00 329.13 2583.65
   06:32:06.686.17-Sep-2021 5057.00 5597.87 78.68 7.00 329.33 2583.65
   06:32:06.886.17-Sep-2021 5057.00 5597.98 78.68 7.00 329.53 2583.65
   06:32:07.086.17-Sep-2021 5057.00 5597.94 78.68 7.00 329.73 2583.65
   06:32:07.286.17-Sep-2021 5057.00 5597.91 78.68 7.00 329.93 2583.65
   06:32:07.486.17-Sep-2021 5057.00 5597.91 78.68 7.00 330.13 2583.65
   06:32:07.686.17-Sep-2021 5057.00 5597.73 78.68 7.00 330.33 2583.65
   06:32:07.886.17-Sep-2021 5057.00 5597.81 78.68 7.00 330.53 2583.65
   06:32:08.086.17-Sep-2021 5057.00 5597.77 78.68 7.00 330.73 2583.65
   06:32:08.286.17-Sep-2021 5057.00 5597.75 78.68 7.00 330.93 2583.65
   06:32:08.486.17-Sep-2021 5057.00 5597.75 78.68 7.00 331.13 2583.65
   06:32:08.686.17-Sep-2021 5057.00 5597.75 78.68 7.00 331.33 2583.65
   06:32:08.886.17-Sep-2021 5057.00 5597.83 78.68 7.00 331.53 2583.65
   06:32:09.086.17-Sep-2021 5057.00 5597.78 78.68 7.00 331.73 2583.65
   06:32:09.286.17-Sep-2021 5057.00 5597.76 78.68 7.00 331.93 2583.65
   06:32:09.486.17-Sep-2021 5057.00 5597.76 78.68 7.00 332.13 2583.65
   06:32:09.686.17-Sep-2021 5057.00 5597.80 78.68 7.00 332.33 2583.65
   06:32:09.886.17-Sep-2021 5057.00 5598.44 78.68 7.00 332.53 2583.65
   06:32:10.086.17-Sep-2021 5057.00 5597.82 78.68 7.00 332.73 2583.65
   06:32:10.286.17-Sep-2021 5057.00 5598.50 78.68 7.00 332.93 2583.65
   06:32:10.486.17-Sep-2021 5057.00 5598.50 78.68 7.00 333.13 2583.65
   06:32:10.686.17-Sep-2021 5057.00 5597.97 78.68 7.00 333.33 2583.65
   06:32:10.886.17-Sep-2021 5057.00 5597.92 78.68 7.00 333.53 2583.65
   06:32:11.086.17-Sep-2021 5057.00 5597.85 78.68 7.00 333.73 2583.65
   06:32:11.286.17-Sep-2021 5057.00 5597.82 78.68 7.00 333.93 2583.65
   06:32:11.485.17-Sep-2021 5057.00 5597.82 78.68 7.00 334.13 2583.65
   06:32:11.685.17-Sep-2021 5057.00 5597.90 78.68 7.00 334.33 2583.65
   06:32:11.885.17-Sep-2021 5057.00 5597.85 78.68 7.00 334.53 2583.65
   06:32:12.085.17-Sep-2021 5057.00 5597.86 78.68 7.00 334.73 2583.65
   06:32:12.285.17-Sep-2021 5057.00 5597.86 78.68 7.00 334.93 2583.65
   06:32:12.485.17-Sep-2021 5057.00 5597.86 78.68 7.00 335.13 2583.65
   06:32:12.685.17-Sep-2021 5057.00 5597.90 78.68 7.00 335.33 2583.65
   06:32:12.885.17-Sep-2021 5057.00 5597.89 78.68 7.00 335.53 2583.65
   06:32:13.085.17-Sep-2021 5057.00 5597.89 78.68 7.00 335.73 2583.65
   06:32:13.285.17-Sep-2021 5057.00 5598.14 78.68 7.00 335.93 2583.65
   06:32:13.485.17-Sep-2021 5057.00 5598.14 78.68 7.00 336.13 2583.65
   06:32:13.685.17-Sep-2021 5057.00 5598.08 78.68 7.00 336.33 2583.65
   06:32:13.885.17-Sep-2021 5057.00 5598.11 78.68 7.00 336.53 2583.65
   06:32:14.085.17-Sep-2021 5057.00 5598.18 78.68 7.00 336.73 2583.65
   06:32:14.285.17-Sep-2021 5057.00 5597.78 78.68 7.00 336.93 2583.65
   06:32:14.485.17-Sep-2021 5057.00 5597.78 78.68 7.00 337.13 2583.65
   06:32:14.685.17-Sep-2021 5057.00 5597.87 78.68 7.00 337.33 2583.65
   06:32:14.885.17-Sep-2021 5057.00 5597.83 78.68 7.00 337.53 2583.65
   06:32:15.085.17-Sep-2021 5057.00 5598.10 78.68 7.00 337.73 2583.65
   06:32:15.285.17-Sep-2021 5057.00 5598.12 78.68 7.00 337.93 2583.65
   06:32:15.485.17-Sep-2021 5057.00 5598.12 78.68 7.00 338.13 2583.65
   06:32:15.685.17-Sep-2021 5057.00 5597.79 78.68 7.00 338.33 2583.65
   06:32:15.885.17-Sep-2021 5057.00 5597.88 78.68 7.00 338.53 2583.65
   06:32:16.084.17-Sep-2021 5057.00 5598.25 78.68 7.00 338.73 2583.65
   06:32:16.284.17-Sep-2021 5057.00 5598.24 78.68 7.00 338.93 2583.65
   06:32:16.484.17-Sep-2021 5057.00 5598.24 78.68 7.00 339.13 2583.65
   06:32:16.684.17-Sep-2021 5057.00 5598.47 78.68 7.00 339.33 2583.65
   06:32:16.884.17-Sep-2021 5057.00 5598.17 78.68 7.00 339.53 2583.65
   06:32:17.084.17-Sep-2021 5057.00 5598.38 78.68 7.00 339.73 2583.65
   06:32:17.284.17-Sep-2021 5057.00 5598.18 78.68 7.00 339.93 2583.65
   06:32:17.484.17-Sep-2021 5057.00 5598.18 78.68 7.00 340.13 2583.65
   06:32:17.684.17-Sep-2021 5057.00 5594.48 78.68 7.00 340.33 2583.65
   06:32:17.884.17-Sep-2021 5057.00 5594.68 78.68 7.00 340.53 2583.65
   06:32:18.084.17-Sep-2021 5057.00 5595.59 78.68 7.00 340.73 2583.65
   06:32:18.284.17-Sep-2021 5057.00 5595.80 78.68 7.00 340.93 2583.65
   06:32:18.484.17-Sep-2021 5057.00 5595.80 78.68 7.00 341.13 2583.65
   06:32:18.684.17-Sep-2021 5057.00 5596.30 78.68 7.00 341.33 2583.65
   06:32:18.884.17-Sep-2021 5057.00 5596.26 78.68 7.00 341.53 2583.65
   06:32:19.084.17-Sep-2021 5057.00 5595.99 78.68 7.00 341.73 2583.65
   06:32:19.284.17-Sep-2021 5057.00 5595.82 78.68 7.00 341.93 2583.65
   06:32:19.484.17-Sep-2021 5057.00 5595.82 78.68 7.00 342.13 2583.65
   06:32:19.684.17-Sep-2021 5057.00 5595.17 78.68 7.00 342.33 2583.65
   06:32:19.884.17-Sep-2021 5057.00 5594.96 78.68 7.00 342.53 2583.65
   06:32:20.084.17-Sep-2021 5057.00 5594.61 78.68 7.00 342.73 2583.65
   06:32:20.284.17-Sep-2021 5057.00 5595.02 78.68 7.00 342.93 2583.65
   06:32:20.484.17-Sep-2021 5057.00 5595.02 78.68 7.00 343.13 2583.65
   06:32:20.684.17-Sep-2021 5057.00 5594.55 78.68 7.00 343.33 2583.65
   06:32:20.883.17-Sep-2021 5057.00 5594.15 78.68 7.00 343.53 2583.65
   06:32:21.083.17-Sep-2021 5057.00 5593.69 78.68 7.00 343.73 2583.65
   06:32:21.283.17-Sep-2021 5057.00 5593.83 78.68 7.00 343.93 2583.65
   06:32:21.483.17-Sep-2021 5057.00 5593.83 78.68 7.00 344.13 2583.65
   06:32:21.683.17-Sep-2021 5057.00 5593.46 78.68 7.00 344.33 2583.65
   06:32:21.883.17-Sep-2021 5057.00 5593.82 78.68 7.00 344.53 2583.65
   06:32:22.083.17-Sep-2021 5057.00 5593.95 78.68 7.00 344.73 2583.65
