~Version Information
 VERS.                  2.0:   CWLS log ASCII Standard -VERSION 2.0
 WRAP.                   NO:   One line per depth step
~Well Information Block
#MNEM.UNIT     VALUE/NAME     DESCRIPTION
#---------     -----------    ---------------------------
 STRT.S             04:34:50 17-Sep-21: START TIME 04:34:50 17-Sep-21
 STOP.S             04:43:20 17-Sep-21: STOP TIME  04:43:20 17-Sep-21
 STEP.S                   0.00: STEP TIME
 NULL.                 -999.25: NULL VALUE
 DFWT.                        :  DIST FWL TEXT
 DFST.                        :  DIST FSL TEXT
 DMF .             Drill Floor:  DRILL MEAS FROM
 STIM.      10.59.12 05-Jul-21:  START TIME
 DATE.      10.59.12 10-Sep-21:  END TIME
 SPUD.               05-Jul-21:  SPUD DATE
 NREF.                    Grid:  NORTH REFERENCE
 HPTY.       Minimum Curvature:  HOLE POS TYPE
 DMOD.             Drill Model:  DRILL MOD DESC
 SVYD.                  Survey:  SURVEY DESC
 ILTD.               Lithology:  INTERP LTH DESC
 FTOP.          Formation Tops:  FORM TOPS DESC
 RIG .                     DWG:  RIG NAME
 PDAT.          Mean Sea Level:  PERMANENT DATUM
 FLD .                     ACG:  FIELD NAME
 SON .        AZ-XX-0907115008:  JOB NUMBER
 CTRY.              Azerbaijan:  COUNTRY NAME
 WELL.                    E35A:  WELL NAME
 SRVC.          TURAN DRILLING:  CONTRACTOR
 COMP.     BP Exploration (Caspian Sea LTD):  COMPANY
 UWI .                     N/A:  UNIQUE WELL IDENTIFIER
 API .                     N/A:  API NUMBER
 MDS .        Operator Entered:  MAG DATA SOURCE
 BASE.              Azerbaijan:  LOGGING EQUIPMENT BASE LOCATION
 REGN.                   EESSA:  REGION
 PROV.                    Baku:  PROVINCE
 STAT.                    Baku:  STATE NAME
 MWDS.                    Baku:  MWD SHOP
 JOBN.        AZ-XX-0907115008:  JOB TICKET NUMB
 DOE .                     N/A:  DOE NUMBER
 DCON.         Sperry Drilling:  DIRECTNL CONTR
 UNIT.                     N/A:  LOGGING EQUIPMENT ID
 WTYP.                Deviated:  WELL TYPE
 CNTY.                        :  COUNTY
 LOC .                        :  LOCATION
 LMF .             Drill Floor:  LOG MEASURED FROM
 TVDS.m                  43.16:  TVDSS CORRECTN
 LATI.deg                40.17:  LATITUDE
 LONG.deg                51.17:  LONGITUDE
 WHNS.m                  10.51:  WELL HEAD N/S
 WHEW.m                 -14.82:  WELL HEAD E/W
 UTMX.m              514336.92:  UTM X
 UTMY.m             4448618.56:  UTM Y
 DFWL.m                   0.00:  DISTANCE FWL
 DFSL.m                   0.00:  DISTANCE FSL
 SDEP.m                 849.00:  START DEPTH
 TDD .m                2862.00:  TOTAL DEPTH (DRILLER)
 VSDR.deg               292.10:  VERT SEC DIRECT
 GVFD.g                   1.00:  GRAVITY FIELD
 MFLD.nT              50382.00:  MAGNETIC FIELD
 MDIP.deg                59.68:  MAGNETIC DIP
 MDEC.deg                 6.66:  MAGNETIC DECL
 GRDC.deg                 0.09:  GRID CORRECTION
 AZTC.deg                 6.57:  AZM TOTAL CORR
 EPD .m                   0.00:  ELEVATION
 EGL .m                   0.00:  GROUND ELEVATION
 WDMS.m                 176.20:  WD ELEV
 APD .m                  43.16:  DEPTH ABOVE PD
 DEP .m                 363.42:  DEPTH
 AGAP.m                  43.16:  AIR GAP
 VSEW.m                 -14.82:  VERT SEC E/W
 VSNS.m                  10.51:  VERT SEC N/S
 EKB .m                  43.16:  KB ELEVATION
 EDF .m                  43.16:  DF ELEVATION
 TDL .m                1390.00:  TOTAL DEPTH (LOGGER)
 VSC .                       0:  VS TO CLOSURE
 MAGU.                 1855871:  MAGUTM CHECKSUM
~Parameter Information Block
#MNEM.UNIT       Value        Description
#---------     -----------    ---------------------------
 AV  .mps                 2.28:  Ann Velocity 
 AVMX.mps                 2.67:  Max Ann Veloc 
 AZIF.deg               305.00:  Azm, Final 
 BHAT.        Rotary Steerable:  BHA Type 
 BROT.°/30m               0.45:  Build Rotating 
 BS  .in                 12.25:  Bit Size 
 BSZ .in                 12.25:  Bit Size 
 BTPL.psig              600.00:  Bit Press Loss 
 CABU.                     Yes:  Customer Abuse 
 COMM.                     ÌN:  Run Comments 1 
 TCS .hr                150.00:  Time Ciculation Ended 
 CV  .mps                 1.24:  Crit Velocity 
 CVMX.mps                 1.66:  Max Crit Veloc 
 DD1 .         Intigam Rahimov:  Direct Drillr 1 
 DD2 .            Azer Ravavov:  Direct Drillr 2 
 DD3 .              Samir Abas:  Direct Drillr 3 
 DDSV.               Geo-Pilot:  DD Service 
 DEFF.%                 100.00:  % Det Eff 
 DLRX.°/30m               1.57:  Dogleg Rot Max 
 DLSO.°/30m               0.00:  Dogleg Oriented 
 DLSX.°/30m               0.00:  Dogleg Str Max 
 DRET.      20.28.06 17-Sep-21:  Drill End Time 
 DRST.      20.27.35 10-Sep-21:  Drill Start Tim 
 DTIM.hr                 54.00:  Time Drilling 
 EDEP.m                5260.00:  End Depth 
 ENG1.      Bakhtiyar Jabbarli:  Engineer 1 
 ENG2.      Natik Hasanaghayev:  Engineer 2 
 ENG3.           Royal Nasirov:  Engineer 3 
 ETIM.      20.27.55 18-Sep-21:  End Time 
 FLOI.gpm              1100.00:  Flow In 
 FLON.gpm               800.00:  Flow In Min 
 FLOS.cptm                0.00:  Fluid Loss 
 FLOX.gpm              1200.00:  Flow In Max 
 DFT .        Mineral Oil Base:  Mud Type 
 HPRE.                      No:  High Pressure 
 HTEM.                      No:  High Temp 
 HYDO.m                   1.80:  Hydro Offset 
 IFIN.deg                72.31:  Inc, Final 
 IMAX.deg                72.36:  Inc Max 
 IMIN.deg                69.36:  Inc Min 
 IMND.m                4192.96:  Inc Min Depth 
 IMXD.m                5128.36:  Inc Max Depth 
 JARR.                      No:  Jarring 
 LETM.      20.29.00 17-Sep-21:  Log End Time 
 LOST.hr                     0:  Lost Rig Time 
 LSTM.      20.27.00 10-Sep-21:  Log Start Time 
 MDCL.ppm            227000.00:  Mud Chlorides 
 MDES.     Inversion Oil/Synthetic:  Mud Desc 
 DFD .sg                  1.45:  Mud Density 
 MDMN.sg                  1.45:  Dens Mud Min 
 MDMX.sg                  1.45:  Dens Mud Max 
 MOIL.                    70.5:  Run Mud Oil % 
 MOWR.                   71:29:  Run Mud OWR 
 MSND.                     0.3:  Run Mud Sand % 
 MSOL.                    19.8:  Run Mud Solids% 
 DFV .spqt               80.00:  Mud Viscosity 
 MWOD.in                  8.00:  MWD Tool OD 
 MWSI.                     Yes:  Serv Intrp, MWD 
 OTIM.hr                180.00:  Time Operating 
 PCON.           Look Like New:  Pad Condition 
 PMAX.psia             9910.94:  Press Op, Max 
 PV  .cP                 35.00:  Mud PV 
 RUN .                    1000:  Run Number 
 ROPA.m/hr               18.00:  ROP Avg 
 ROPN.m/hr                8.00:  ROP Min 
 ROPX.m/hr               23.00:  ROP Max 
 RPMA.rpm               150.00:  RPM Surface Avg 
 RPMN.rpm               120.00:  RPM Surface Min 
 RPMX.rpm               160.00:  RPM Surface Max 
 RRUN.                    L503:  Rig Run Number 
 RTIM.hr                  5.00:  Time Reaming 
 SAZI.deg               298.42:  Azm, Start 
 SDEP.m                3870.00:  Start Depth 
 SIDD.                      No:  Serv Intrp, DD 
 SINC.deg                69.57:  Inc, Start 
 SPPA.psig             5500.00:  SPP Avg 
 SPPN.psig             4400.00:  SPP Min 
 SPPX.psig             5800.00:  SPP Max 
 STIM.      15.29.39 09-Sep-21:  Start Time 
 SVCS.                 DD, MWD:  Services 
 SVER.                    9.20:  Sperry Version 
 TDAT.m                5260.00:  Tot Depth Attmp 
 TDDF.                      No:  Trip for DD 
 TDLG.m                1390.00:  Tot Depth Loggd 
 TFF .                      No:  Trip for Fail 
 TQAA.f-kp               22.00:  Torque Abs Avg 
 TQAN.f-kp               13.00:  Torque Abs Min 
 TQAX.f-kp               27.00:  Torque Abs Max 
 TRRT.°/30m               1.60:  Turn Rotating 
 MRT .                  EWR-M5:  Maximum Recorded Temperature 
 TTMX.degC               92.00:  Max Tool Temp 
 VS01.                12330975:  Virtual Str1 SN 
 VS02.                90658671:  Virtual Str2 SN 
 VS03.                90658508:  Virtual Str3 SN 
 VS04.                90660974:  Virtual Str4 SN 
 VS05.                90654675:  Virtual Str5 SN 
 WBMN.klb                15.00:  WOB Min 
 WITN.     Alexander Yadullayev:  Customer Rep 
 WITN.           Adil Mammadov:  Customer Rep 2 
 WOBA.klb                17.00:  WOB Avg 
 WOBX.klb                18.00:  WOB Max 
 YP  .lhf2               31.00:  Yield Point 
~Curve Information Block
#MNEM.UNIT                 API CODE     Curve Description
#---------               -----------    ---------------------------
 TIME.HHMMSS            00 000 000 000:  GT Time & Date
 GTDEPTH.m              00 000 000 000:  GT Depth
 GTPQH.psia             00 000 000 000:  GT HR Quartz Pressure
 GTTQ.degC              00 000 000 000:  GT Quartz Temperature
 GTTN.NONE              00 000 000 000:  GT Test Number
 GTET.sec               00 000 000 000:  GT Elapsed Test Time
 GTTVD.m                00 000 000 000:  GT True Vertical Depth
#Other Information
#
#WARRANTY: Halliburton will use its best efforts to furnish customers with 
#accurate information and interpretations that are part of, and incident to, the services 
#provided.  However, Halliburton cannot and does not warrant the accuracy 
#or correctness of such information and interpretations.  Under no circumstances should any 
#such information or interpretation be relied upon as the sole basis for any drilling, 
#completion, production, or financial decision or any procedure involving any risk to the 
#safety of any drilling venture, drilling rig or its crew or any other third party.  The 
#Customer has full responsibility for all drilling, completion and production operation.  
#Halliburton makes no representations or warranties, either expressed or 
#implied, including, but not limited to, the implied warranties of merchantability or fitness 
#for a particular purpose, with respect to the services rendered.  In no event will 
#Halliburton be liable for failure to obtain any particular results or for 
#any damages, including, but not limited to, indirect, special or consequential damages, 
#resulting from the use of any information or interpretation provided by Halliburton.
#
~A           TIME           GTDEPTH  GTPQH  GTTQ  GTTN  GTET   GTTVD  
# ...
   04:40:12.370.17-Sep-2021 5094.00 5572.80 80.19 4.00 322.35 2595.14
   04:40:12.571.17-Sep-2021 5094.00 5572.80 80.19 4.00 322.55 2595.14
   04:40:12.771.17-Sep-2021 5094.00 5571.53 80.19 4.00 322.75 2595.14
   04:40:12.971.17-Sep-2021 5094.00 5571.45 80.19 4.00 322.95 2595.14
   04:40:13.171.17-Sep-2021 5094.00 5571.06 80.19 4.00 323.15 2595.14
   04:40:13.371.17-Sep-2021 5094.00 5570.84 80.19 4.00 323.35 2595.14
   04:40:13.572.17-Sep-2021 5094.00 5570.84 80.19 4.00 323.55 2595.14
   04:40:13.772.17-Sep-2021 5094.00 5570.77 80.19 4.00 323.75 2595.14
   04:40:13.972.17-Sep-2021 5094.00 5570.75 80.19 4.00 323.95 2595.14
   04:40:14.172.17-Sep-2021 5094.00 5570.96 80.19 4.00 324.15 2595.14
   04:40:14.373.17-Sep-2021 5094.00 5571.01 80.19 4.00 324.35 2595.14
   04:40:14.573.17-Sep-2021 5094.00 5571.01 80.19 4.00 324.55 2595.14
   04:40:14.773.17-Sep-2021 5094.00 5571.46 80.18 4.00 324.75 2595.14
   04:40:14.973.17-Sep-2021 5094.00 5571.46 80.18 4.00 324.95 2595.14
   04:40:15.173.17-Sep-2021 5094.00 5571.78 80.18 4.00 325.15 2595.14
   04:40:15.374.17-Sep-2021 5094.00 5574.88 80.18 4.00 325.35 2595.14
   04:40:15.574.17-Sep-2021 5094.00 5574.88 80.18 4.00 325.55 2595.14
   04:40:15.774.17-Sep-2021 5094.00 5573.14 80.18 4.00 325.75 2595.14
   04:40:15.974.17-Sep-2021 5094.00 5571.70 80.18 4.00 325.95 2595.14
   04:40:16.174.17-Sep-2021 5094.00 5571.50 80.18 4.00 326.15 2595.14
   04:40:16.375.17-Sep-2021 5094.00 5571.49 80.18 4.00 326.35 2595.14
   04:40:16.575.17-Sep-2021 5094.00 5571.49 80.18 4.00 326.55 2595.14
   04:40:16.775.17-Sep-2021 5094.00 5571.31 80.18 4.00 326.75 2595.14
   04:40:16.975.17-Sep-2021 5094.00 5571.33 80.18 4.00 326.95 2595.14
   04:40:17.176.17-Sep-2021 5094.00 5571.15 80.18 4.00 327.15 2595.14
   04:40:17.376.17-Sep-2021 5094.00 5570.63 80.18 4.00 327.35 2595.14
   04:40:17.576.17-Sep-2021 5094.00 5570.63 80.18 4.00 327.55 2595.14
   04:40:17.776.17-Sep-2021 5094.00 5571.99 80.18 4.00 327.75 2595.14
   04:40:17.976.17-Sep-2021 5094.00 5570.82 80.18 4.00 327.95 2595.14
   04:40:18.177.17-Sep-2021 5094.00 5571.67 80.18 4.00 328.15 2595.14
   04:40:18.377.17-Sep-2021 5094.00 5571.39 80.18 4.00 328.35 2595.14
   04:40:18.577.17-Sep-2021 5094.00 5571.39 80.18 4.00 328.55 2595.14
   04:40:18.777.17-Sep-2021 5094.00 5571.50 80.18 4.00 328.75 2595.14
   04:40:18.978.17-Sep-2021 5094.00 5572.30 80.18 4.00 328.95 2595.14
   04:40:19.178.17-Sep-2021 5094.00 5571.00 80.18 4.00 329.15 2595.14
   04:40:19.378.17-Sep-2021 5094.00 5571.33 80.18 4.00 329.35 2595.14
   04:40:19.578.17-Sep-2021 5094.00 5571.33 80.18 4.00 329.55 2595.14
   04:40:19.778.17-Sep-2021 5094.00 5571.01 80.18 4.00 329.76 2595.14
   04:40:19.979.17-Sep-2021 5094.00 5570.84 80.18 4.00 329.96 2595.14
   04:40:20.179.17-Sep-2021 5094.00 5570.42 80.17 4.00 330.16 2595.14
   04:40:20.379.17-Sep-2021 5094.00 5570.65 80.17 4.00 330.36 2595.14
   04:40:20.579.17-Sep-2021 5094.00 5570.65 80.17 4.00 330.56 2595.14
   04:40:20.779.17-Sep-2021 5094.00 5571.07 80.17 4.00 330.76 2595.14
   04:40:20.980.17-Sep-2021 5094.00 5571.15 80.17 4.00 330.96 2595.14
   04:40:21.180.17-Sep-2021 5094.00 5571.02 80.17 4.00 331.16 2595.14
   04:40:21.380.17-Sep-2021 5094.00 5571.09 80.17 4.00 331.36 2595.14
   04:40:21.580.17-Sep-2021 5094.00 5571.09 80.17 4.00 331.56 2595.14
   04:40:21.781.17-Sep-2021 5094.00 5573.93 80.17 4.00 331.76 2595.14
   04:40:21.981.17-Sep-2021 5094.00 5570.97 80.17 4.00 331.96 2595.14
   04:40:22.181.17-Sep-2021 5094.00 5572.47 80.17 4.00 332.16 2595.14
   04:40:22.381.17-Sep-2021 5094.00 5572.13 80.17 4.00 332.36 2595.14
   04:40:22.581.17-Sep-2021 5094.00 5572.13 80.17 4.00 332.56 2595.14
   04:40:22.782.17-Sep-2021 5094.00 5571.31 80.17 4.00 332.76 2595.14
   04:40:22.982.17-Sep-2021 5094.00 5570.87 80.17 4.00 332.96 2595.14
   04:40:23.182.17-Sep-2021 5094.00 5570.65 80.17 4.00 333.16 2595.14
   04:40:23.382.17-Sep-2021 5094.00 5570.43 80.17 4.00 333.36 2595.14
   04:40:23.582.17-Sep-2021 5094.00 5570.43 80.17 4.00 333.56 2595.14
   04:40:23.783.17-Sep-2021 5094.00 5570.61 80.17 4.00 333.76 2595.14
   04:40:23.983.17-Sep-2021 5094.00 5570.70 80.17 4.00 333.96 2595.14
   04:40:24.183.17-Sep-2021 5094.00 5570.67 80.17 4.00 334.16 2595.14
   04:40:24.383.17-Sep-2021 5094.00 5570.87 80.17 4.00 334.36 2595.14
   04:40:24.584.17-Sep-2021 5094.00 5570.87 80.17 4.00 334.56 2595.14
   04:40:24.784.17-Sep-2021 5094.00 5571.28 80.17 4.00 334.76 2595.14
   04:40:24.984.17-Sep-2021 5094.00 5571.58 80.17 4.00 334.96 2595.14
   04:40:25.184.17-Sep-2021 5094.00 5574.51 80.17 4.00 335.16 2595.14
   04:40:25.384.17-Sep-2021 5094.00 5570.11 80.17 4.00 335.36 2595.14
   04:40:25.585.17-Sep-2021 5094.00 5570.11 80.17 4.00 335.56 2595.14
   04:40:25.785.17-Sep-2021 5094.00 5571.46 80.17 4.00 335.76 2595.14
   04:40:25.985.17-Sep-2021 5094.00 5571.50 80.16 4.00 335.96 2595.14
   04:40:26.185.17-Sep-2021 5094.00 5569.01 80.16 4.00 336.16 2595.14
   04:40:26.385.17-Sep-2021 5094.00 5571.23 80.16 4.00 336.36 2595.14
   04:40:26.586.17-Sep-2021 5094.00 5571.23 80.16 4.00 336.56 2595.14
   04:40:26.786.17-Sep-2021 5094.00 5568.46 80.16 4.00 336.76 2595.14
   04:40:26.986.17-Sep-2021 5094.00 5568.14 80.16 4.00 336.96 2595.14
   04:40:27.186.17-Sep-2021 5094.00 5567.11 80.16 4.00 337.16 2595.14
   04:40:27.387.17-Sep-2021 5094.00 5565.89 80.16 4.00 337.36 2595.14
   04:40:27.587.17-Sep-2021 5094.00 5565.89 80.16 4.00 337.56 2595.14
   04:40:27.787.17-Sep-2021 5094.00 5567.40 80.16 4.00 337.76 2595.14
   04:40:27.987.17-Sep-2021 5094.00 5566.92 80.16 4.00 337.96 2595.14
   04:40:28.187.17-Sep-2021 5094.00 5560.26 80.16 4.00 338.16 2595.14
   04:40:28.388.17-Sep-2021 5094.00 5553.44 80.16 4.00 338.36 2595.14
   04:40:28.588.17-Sep-2021 5094.00 5553.44 80.16 4.00 338.56 2595.14
   04:40:28.788.17-Sep-2021 5094.00 5514.09 80.16 4.00 338.76 2595.14
   04:40:28.988.17-Sep-2021 5094.00 5495.60 80.16 4.00 338.97 2595.14
   04:40:29.189.17-Sep-2021 5094.00 5472.52 80.16 4.00 339.17 2595.14
   04:40:29.389.17-Sep-2021 5094.00 5490.74 80.16 4.00 339.37 2595.14
   04:40:29.589.17-Sep-2021 5094.00 5490.74 80.16 4.00 339.57 2595.14
   04:40:29.789.17-Sep-2021 5094.00 5522.30 80.16 4.00 339.77 2595.14
   04:40:29.989.17-Sep-2021 5094.00 5479.57 80.16 4.00 339.97 2595.14
   04:40:30.190.17-Sep-2021 5094.00 5464.68 80.16 4.00 340.17 2595.14
   04:40:30.390.17-Sep-2021 5094.00 5423.88 80.16 4.00 340.37 2595.14
   04:40:30.590.17-Sep-2021 5094.00 5423.88 80.16 4.00 340.57 2595.14
   04:40:30.790.17-Sep-2021 5094.00 5384.41 80.16 4.00 340.77 2595.14
   04:40:30.990.17-Sep-2021 5094.00 5411.43 80.16 4.00 340.97 2595.14
   04:40:31.191.17-Sep-2021 5094.00 5390.82 80.16 4.00 341.17 2595.14
   04:40:31.391.17-Sep-2021 5094.00 5372.37 80.15 4.00 341.37 2595.14
   04:40:31.591.17-Sep-2021 5094.00 5372.37 80.15 4.00 341.57 2595.14
   04:40:31.791.17-Sep-2021 5094.00 5401.00 80.15 4.00 341.77 2595.14
   04:40:31.992.17-Sep-2021 5094.00 5397.23 80.15 4.00 341.97 2595.14
   04:40:32.192.17-Sep-2021 5094.00 5365.57 80.15 4.00 342.17 2595.14
   04:40:32.392.17-Sep-2021 5094.00 5400.20 80.15 4.00 342.37 2595.14
   04:40:32.592.17-Sep-2021 5094.00 5400.20 80.15 4.00 342.57 2595.14
   04:40:32.792.17-Sep-2021 5094.00 5409.42 80.15 4.00 342.77 2595.14
   04:40:32.993.17-Sep-2021 5094.00 5384.94 80.15 4.00 342.97 2595.14
   04:40:33.193.17-Sep-2021 5094.00 5362.43 80.15 4.00 343.17 2595.14
   04:40:33.393.17-Sep-2021 5094.00 5369.38 80.15 4.00 343.37 2595.14
   04:40:33.593.17-Sep-2021 5094.00 5369.38 80.15 4.00 343.57 2595.14
   04:40:33.793.17-Sep-2021 5094.00 5426.61 80.15 4.00 343.77 2595.14
   04:40:33.994.17-Sep-2021 5094.00 5403.71 80.15 4.00 343.97 2595.14
   04:40:34.194.17-Sep-2021 5094.00 5490.34 80.15 4.00 344.17 2595.14
   04:40:34.394.17-Sep-2021 5094.00 5405.41 80.15 4.00 344.37 2595.14
   04:40:34.594.17-Sep-2021 5094.00 5405.41 80.15 4.00 344.57 2595.14
   04:40:34.795.17-Sep-2021 5094.00 5453.57 80.15 4.00 344.77 2595.14
   04:40:34.995.17-Sep-2021 5094.00 5475.14 80.15 4.00 344.97 2595.14
   04:40:35.195.17-Sep-2021 5094.00 5473.90 80.15 4.00 345.17 2595.14
