~Version Information
 VERS.                  2.0:   CWLS log ASCII Standard -VERSION 2.0
 WRAP.                   NO:   One line per depth step
~Well Information Block
#MNEM.UNIT     VALUE/NAME     DESCRIPTION
#---------     -----------    ---------------------------
 STRT.S             11:33:10 17-Sep-21: START TIME 11:33:10 17-Sep-21
 STOP.S             11:40:20 17-Sep-21: STOP TIME  11:40:20 17-Sep-21
 STEP.S                   0.00: STEP TIME
 NULL.                 -999.25: NULL VALUE
 DFWT.                        :  DIST FWL TEXT
 DFST.                        :  DIST FSL TEXT
 DMF .             Drill Floor:  DRILL MEAS FROM
 STIM.      10.59.12 05-Jul-21:  START TIME
 DATE.      10.59.12 10-Sep-21:  END TIME
 SPUD.               05-Jul-21:  SPUD DATE
 NREF.                    Grid:  NORTH REFERENCE
 HPTY.       Minimum Curvature:  HOLE POS TYPE
 DMOD.             Drill Model:  DRILL MOD DESC
 SVYD.                  Survey:  SURVEY DESC
 ILTD.               Lithology:  INTERP LTH DESC
 FTOP.          Formation Tops:  FORM TOPS DESC
 RIG .                     DWG:  RIG NAME
 PDAT.          Mean Sea Level:  PERMANENT DATUM
 FLD .                     ACG:  FIELD NAME
 SON .        AZ-XX-0907115008:  JOB NUMBER
 CTRY.              Azerbaijan:  COUNTRY NAME
 WELL.                    E35A:  WELL NAME
 SRVC.          TURAN DRILLING:  CONTRACTOR
 COMP.     BP Exploration (Caspian Sea LTD):  COMPANY
 UWI .                     N/A:  UNIQUE WELL IDENTIFIER
 API .                     N/A:  API NUMBER
 MDS .        Operator Entered:  MAG DATA SOURCE
 BASE.              Azerbaijan:  LOGGING EQUIPMENT BASE LOCATION
 REGN.                   EESSA:  REGION
 PROV.                    Baku:  PROVINCE
 STAT.                    Baku:  STATE NAME
 MWDS.                    Baku:  MWD SHOP
 JOBN.        AZ-XX-0907115008:  JOB TICKET NUMB
 DOE .                     N/A:  DOE NUMBER
 DCON.         Sperry Drilling:  DIRECTNL CONTR
 UNIT.                     N/A:  LOGGING EQUIPMENT ID
 WTYP.                Deviated:  WELL TYPE
 CNTY.                        :  COUNTY
 LOC .                        :  LOCATION
 LMF .             Drill Floor:  LOG MEASURED FROM
 TVDS.m                  43.16:  TVDSS CORRECTN
 LATI.deg                40.17:  LATITUDE
 LONG.deg                51.17:  LONGITUDE
 WHNS.m                  10.51:  WELL HEAD N/S
 WHEW.m                 -14.82:  WELL HEAD E/W
 UTMX.m              514336.92:  UTM X
 UTMY.m             4448618.56:  UTM Y
 DFWL.m                   0.00:  DISTANCE FWL
 DFSL.m                   0.00:  DISTANCE FSL
 SDEP.m                 849.00:  START DEPTH
 TDD .m                2862.00:  TOTAL DEPTH (DRILLER)
 VSDR.deg               292.10:  VERT SEC DIRECT
 GVFD.g                   1.00:  GRAVITY FIELD
 MFLD.nT              50382.00:  MAGNETIC FIELD
 MDIP.deg                59.68:  MAGNETIC DIP
 MDEC.deg                 6.66:  MAGNETIC DECL
 GRDC.deg                 0.09:  GRID CORRECTION
 AZTC.deg                 6.57:  AZM TOTAL CORR
 EPD .m                   0.00:  ELEVATION
 EGL .m                   0.00:  GROUND ELEVATION
 WDMS.m                 176.20:  WD ELEV
 APD .m                  43.16:  DEPTH ABOVE PD
 DEP .m                 363.42:  DEPTH
 AGAP.m                  43.16:  AIR GAP
 VSEW.m                 -14.82:  VERT SEC E/W
 VSNS.m                  10.51:  VERT SEC N/S
 EKB .m                  43.16:  KB ELEVATION
 EDF .m                  43.16:  DF ELEVATION
 TDL .m                1390.00:  TOTAL DEPTH (LOGGER)
 VSC .                       0:  VS TO CLOSURE
 MAGU.                 1855871:  MAGUTM CHECKSUM
~Parameter Information Block
#MNEM.UNIT       Value        Description
#---------     -----------    ---------------------------
 AV  .mps                 2.28:  Ann Velocity 
 AVMX.mps                 2.67:  Max Ann Veloc 
 AZIF.deg               305.00:  Azm, Final 
 BHAT.        Rotary Steerable:  BHA Type 
 BROT.°/30m               0.45:  Build Rotating 
 BS  .in                 12.25:  Bit Size 
 BSZ .in                 12.25:  Bit Size 
 BTPL.psig              600.00:  Bit Press Loss 
 CABU.                     Yes:  Customer Abuse 
 COMM.                     Á~:  Run Comments 1 
 TCS .hr                150.00:  Time Ciculation Ended 
 CV  .mps                 1.24:  Crit Velocity 
 CVMX.mps                 1.66:  Max Crit Veloc 
 DD1 .         Intigam Rahimov:  Direct Drillr 1 
 DD2 .            Azer Ravavov:  Direct Drillr 2 
 DD3 .              Samir Abas:  Direct Drillr 3 
 DDSV.               Geo-Pilot:  DD Service 
 DEFF.%                 100.00:  % Det Eff 
 DLRX.°/30m               1.57:  Dogleg Rot Max 
 DLSO.°/30m               0.00:  Dogleg Oriented 
 DLSX.°/30m               0.00:  Dogleg Str Max 
 DRET.      20.28.06 17-Sep-21:  Drill End Time 
 DRST.      20.27.35 10-Sep-21:  Drill Start Tim 
 DTIM.hr                 54.00:  Time Drilling 
 EDEP.m                5260.00:  End Depth 
 ENG1.      Bakhtiyar Jabbarli:  Engineer 1 
 ENG2.      Natik Hasanaghayev:  Engineer 2 
 ENG3.           Royal Nasirov:  Engineer 3 
 ETIM.      20.27.55 18-Sep-21:  End Time 
 FLOI.gpm              1100.00:  Flow In 
 FLON.gpm               800.00:  Flow In Min 
 FLOS.cptm                0.00:  Fluid Loss 
 FLOX.gpm              1200.00:  Flow In Max 
 DFT .        Mineral Oil Base:  Mud Type 
 HPRE.                      No:  High Pressure 
 HTEM.                      No:  High Temp 
 HYDO.m                   1.80:  Hydro Offset 
 IFIN.deg                72.31:  Inc, Final 
 IMAX.deg                72.36:  Inc Max 
 IMIN.deg                69.36:  Inc Min 
 IMND.m                4192.96:  Inc Min Depth 
 IMXD.m                5128.36:  Inc Max Depth 
 JARR.                      No:  Jarring 
 LETM.      20.29.00 17-Sep-21:  Log End Time 
 LOST.hr                     0:  Lost Rig Time 
 LSTM.      20.27.00 10-Sep-21:  Log Start Time 
 MDCL.ppm            227000.00:  Mud Chlorides 
 MDES.     Inversion Oil/Synthetic:  Mud Desc 
 DFD .sg                  1.45:  Mud Density 
 MDMN.sg                  1.45:  Dens Mud Min 
 MDMX.sg                  1.45:  Dens Mud Max 
 MOIL.                    70.5:  Run Mud Oil % 
 MOWR.                   71:29:  Run Mud OWR 
 MSND.                     0.3:  Run Mud Sand % 
 MSOL.                    19.8:  Run Mud Solids% 
 DFV .spqt               80.00:  Mud Viscosity 
 MWOD.in                  8.00:  MWD Tool OD 
 MWSI.                     Yes:  Serv Intrp, MWD 
 OTIM.hr                180.00:  Time Operating 
 PCON.           Look Like New:  Pad Condition 
 PMAX.psia             9910.94:  Press Op, Max 
 PV  .cP                 35.00:  Mud PV 
 RUN .                    1000:  Run Number 
 ROPA.m/hr               18.00:  ROP Avg 
 ROPN.m/hr                8.00:  ROP Min 
 ROPX.m/hr               23.00:  ROP Max 
 RPMA.rpm               150.00:  RPM Surface Avg 
 RPMN.rpm               120.00:  RPM Surface Min 
 RPMX.rpm               160.00:  RPM Surface Max 
 RRUN.                    L503:  Rig Run Number 
 RTIM.hr                  5.00:  Time Reaming 
 SAZI.deg               298.42:  Azm, Start 
 SDEP.m                3870.00:  Start Depth 
 SIDD.                      No:  Serv Intrp, DD 
 SINC.deg                69.57:  Inc, Start 
 SPPA.psig             5500.00:  SPP Avg 
 SPPN.psig             4400.00:  SPP Min 
 SPPX.psig             5800.00:  SPP Max 
 STIM.      15.29.39 09-Sep-21:  Start Time 
 SVCS.                 DD, MWD:  Services 
 SVER.                    9.20:  Sperry Version 
 TDAT.m                5260.00:  Tot Depth Attmp 
 TDDF.                      No:  Trip for DD 
 TDLG.m                1390.00:  Tot Depth Loggd 
 TFF .                      No:  Trip for Fail 
 TQAA.f-kp               22.00:  Torque Abs Avg 
 TQAN.f-kp               13.00:  Torque Abs Min 
 TQAX.f-kp               27.00:  Torque Abs Max 
 TRRT.°/30m               1.60:  Turn Rotating 
 MRT .                  EWR-M5:  Maximum Recorded Temperature 
 TTMX.degC               92.00:  Max Tool Temp 
 VS01.                12330975:  Virtual Str1 SN 
 VS02.                90658671:  Virtual Str2 SN 
 VS03.                90658508:  Virtual Str3 SN 
 VS04.                90660974:  Virtual Str4 SN 
 VS05.                90654675:  Virtual Str5 SN 
 WBMN.klb                15.00:  WOB Min 
 WITN.     Alexander Yadullayev:  Customer Rep 
 WITN.           Adil Mammadov:  Customer Rep 2 
 WOBA.klb                17.00:  WOB Avg 
 WOBX.klb                18.00:  WOB Max 
 YP  .lhf2               31.00:  Yield Point 
~Curve Information Block
#MNEM.UNIT                 API CODE     Curve Description
#---------               -----------    ---------------------------
 TIME.HHMMSS            00 000 000 000:  GT Time & Date
 GTDEPTH.m              00 000 000 000:  GT Depth
 GTPQH.psia             00 000 000 000:  GT HR Quartz Pressure
 GTTQ.degC              00 000 000 000:  GT Quartz Temperature
 GTTN.NONE              00 000 000 000:  GT Test Number
 GTET.sec               00 000 000 000:  GT Elapsed Test Time
 GTTVD.m                00 000 000 000:  GT True Vertical Depth
#Other Information
#
#WARRANTY: Halliburton will use its best efforts to furnish customers with 
#accurate information and interpretations that are part of, and incident to, the services 
#provided.  However, Halliburton cannot and does not warrant the accuracy 
#or correctness of such information and interpretations.  Under no circumstances should any 
#such information or interpretation be relied upon as the sole basis for any drilling, 
#completion, production, or financial decision or any procedure involving any risk to the 
#safety of any drilling venture, drilling rig or its crew or any other third party.  The 
#Customer has full responsibility for all drilling, completion and production operation.  
#Halliburton makes no representations or warranties, either expressed or 
#implied, including, but not limited to, the implied warranties of merchantability or fitness 
#for a particular purpose, with respect to the services rendered.  In no event will 
#Halliburton be liable for failure to obtain any particular results or for 
#any damages, including, but not limited to, indirect, special or consequential damages, 
#resulting from the use of any information or interpretation provided by Halliburton.
#
~A           TIME           GTDEPTH  GTPQH  GTTQ  GTTN  GTET   GTTVD  
# ...
   11:38:09.778.17-Sep-2021 4887.00 5435.26 77.25 9.00 299.03 2528.65
   11:38:09.978.17-Sep-2021 4887.00 5435.26 77.25 9.00 299.23 2528.65
   11:38:10.178.17-Sep-2021 4887.00 5434.05 77.25 9.00 299.43 2528.65
   11:38:10.378.17-Sep-2021 4887.00 5434.36 77.25 9.00 299.63 2528.65
   11:38:10.578.17-Sep-2021 4887.00 5434.17 77.25 9.00 299.83 2528.65
   11:38:10.778.17-Sep-2021 4887.00 5433.94 77.25 9.00 300.03 2528.65
   11:38:10.978.17-Sep-2021 4887.00 5433.94 77.25 9.00 300.23 2528.65
   11:38:11.178.17-Sep-2021 4887.00 5434.16 77.25 9.00 300.43 2528.65
   11:38:11.379.17-Sep-2021 4887.00 5434.31 77.25 9.00 300.63 2528.65
   11:38:11.579.17-Sep-2021 4887.00 5434.25 77.25 9.00 300.83 2528.65
   11:38:11.779.17-Sep-2021 4887.00 5434.22 77.25 9.00 301.03 2528.65
   11:38:11.979.17-Sep-2021 4887.00 5434.22 77.25 9.00 301.23 2528.65
   11:38:12.179.17-Sep-2021 4887.00 5434.78 77.25 9.00 301.43 2528.65
   11:38:12.379.17-Sep-2021 4887.00 5437.62 77.25 9.00 301.63 2528.65
   11:38:12.579.17-Sep-2021 4887.00 5433.98 77.25 9.00 301.83 2528.65
   11:38:12.779.17-Sep-2021 4887.00 5434.38 77.25 9.00 302.03 2528.65
   11:38:12.979.17-Sep-2021 4887.00 5434.38 77.25 9.00 302.23 2528.65
   11:38:13.179.17-Sep-2021 4887.00 5435.64 77.25 9.00 302.43 2528.65
   11:38:13.379.17-Sep-2021 4887.00 5438.40 77.25 9.00 302.63 2528.65
   11:38:13.579.17-Sep-2021 4887.00 5432.47 77.25 9.00 302.83 2528.65
   11:38:13.779.17-Sep-2021 4887.00 5434.49 77.25 9.00 303.03 2528.65
   11:38:13.979.17-Sep-2021 4887.00 5434.49 77.25 9.00 303.23 2528.65
   11:38:14.179.17-Sep-2021 4887.00 5435.21 77.25 9.00 303.43 2528.65
   11:38:14.379.17-Sep-2021 4887.00 5435.66 77.25 9.00 303.63 2528.65
   11:38:14.579.17-Sep-2021 4887.00 5433.73 77.25 9.00 303.83 2528.65
   11:38:14.779.17-Sep-2021 4887.00 5434.31 77.25 9.00 304.03 2528.65
   11:38:14.979.17-Sep-2021 4887.00 5434.31 77.25 9.00 304.23 2528.65
   11:38:15.179.17-Sep-2021 4887.00 5434.45 77.25 9.00 304.43 2528.65
   11:38:15.379.17-Sep-2021 4887.00 5436.73 77.25 9.00 304.63 2528.65
   11:38:15.579.17-Sep-2021 4887.00 5433.50 77.25 9.00 304.83 2528.65
   11:38:15.779.17-Sep-2021 4887.00 5434.18 77.25 9.00 305.03 2528.65
   11:38:15.979.17-Sep-2021 4887.00 5434.18 77.25 9.00 305.23 2528.65
   11:38:16.179.17-Sep-2021 4887.00 5434.77 77.25 9.00 305.43 2528.65
   11:38:16.379.17-Sep-2021 4887.00 5433.77 77.25 9.00 305.63 2528.65
   11:38:16.579.17-Sep-2021 4887.00 5433.93 77.25 9.00 305.83 2528.65
   11:38:16.779.17-Sep-2021 4887.00 5434.58 77.25 9.00 306.03 2528.65
   11:38:16.979.17-Sep-2021 4887.00 5434.58 77.25 9.00 306.23 2528.65
   11:38:17.179.17-Sep-2021 4887.00 5433.94 77.25 9.00 306.43 2528.65
   11:38:17.379.17-Sep-2021 4887.00 5434.17 77.25 9.00 306.63 2528.65
   11:38:17.579.17-Sep-2021 4887.00 5434.51 77.25 9.00 306.83 2528.65
   11:38:17.779.17-Sep-2021 4887.00 5434.60 77.25 9.00 307.03 2528.65
   11:38:17.979.17-Sep-2021 4887.00 5434.60 77.25 9.00 307.23 2528.65
   11:38:18.179.17-Sep-2021 4887.00 5434.32 77.25 9.00 307.43 2528.65
   11:38:18.379.17-Sep-2021 4887.00 5436.83 77.25 9.00 307.63 2528.65
   11:38:18.579.17-Sep-2021 4887.00 5434.59 77.25 9.00 307.83 2528.65
   11:38:18.779.17-Sep-2021 4887.00 5434.72 77.25 9.00 308.03 2528.65
   11:38:18.979.17-Sep-2021 4887.00 5434.72 77.25 9.00 308.23 2528.65
   11:38:19.179.17-Sep-2021 4887.00 5435.14 77.25 9.00 308.43 2528.65
   11:38:19.379.17-Sep-2021 4887.00 5434.93 77.25 9.00 308.63 2528.65
   11:38:19.579.17-Sep-2021 4887.00 5434.34 77.25 9.00 308.83 2528.65
   11:38:19.779.17-Sep-2021 4887.00 5434.41 77.25 9.00 309.03 2528.65
   11:38:19.979.17-Sep-2021 4887.00 5434.41 77.25 9.00 309.23 2528.65
   11:38:20.179.17-Sep-2021 4887.00 5434.04 77.25 9.00 309.43 2528.65
   11:38:20.380.17-Sep-2021 4887.00 5433.97 77.25 9.00 309.63 2528.65
   11:38:20.580.17-Sep-2021 4887.00 5434.07 77.25 9.00 309.83 2528.65
   11:38:20.780.17-Sep-2021 4887.00 5434.28 77.25 9.00 310.03 2528.65
   11:38:20.980.17-Sep-2021 4887.00 5434.28 77.25 9.00 310.23 2528.65
   11:38:21.180.17-Sep-2021 4887.00 5434.11 77.25 9.00 310.43 2528.65
   11:38:21.380.17-Sep-2021 4887.00 5434.23 77.25 9.00 310.63 2528.65
   11:38:21.580.17-Sep-2021 4887.00 5434.49 77.25 9.00 310.83 2528.65
   11:38:21.780.17-Sep-2021 4887.00 5434.72 77.25 9.00 311.03 2528.65
   11:38:21.980.17-Sep-2021 4887.00 5434.72 77.25 9.00 311.23 2528.65
   11:38:22.180.17-Sep-2021 4887.00 5434.57 77.25 9.00 311.43 2528.65
   11:38:22.380.17-Sep-2021 4887.00 5434.29 77.25 9.00 311.63 2528.65
   11:38:22.580.17-Sep-2021 4887.00 5434.69 77.25 9.00 311.83 2528.65
   11:38:22.780.17-Sep-2021 4887.00 5435.33 77.25 9.00 312.03 2528.65
   11:38:22.980.17-Sep-2021 4887.00 5435.33 77.25 9.00 312.23 2528.65
   11:38:23.180.17-Sep-2021 4887.00 5433.46 77.25 9.00 312.43 2528.65
   11:38:23.380.17-Sep-2021 4887.00 5434.22 77.25 9.00 312.63 2528.65
   11:38:23.580.17-Sep-2021 4887.00 5434.29 77.25 9.00 312.83 2528.65
   11:38:23.780.17-Sep-2021 4887.00 5437.32 77.25 9.00 313.03 2528.65
   11:38:23.980.17-Sep-2021 4887.00 5437.32 77.25 9.00 313.23 2528.65
   11:38:24.180.17-Sep-2021 4887.00 5433.73 77.25 9.00 313.43 2528.65
   11:38:24.380.17-Sep-2021 4887.00 5434.00 77.25 9.00 313.63 2528.65
   11:38:24.580.17-Sep-2021 4887.00 5434.35 77.25 9.00 313.83 2528.65
   11:38:24.780.17-Sep-2021 4887.00 5433.98 77.25 9.00 314.03 2528.65
   11:38:24.980.17-Sep-2021 4887.00 5433.98 77.25 9.00 314.23 2528.65
   11:38:25.180.17-Sep-2021 4887.00 5434.24 77.25 9.00 314.43 2528.65
   11:38:25.380.17-Sep-2021 4887.00 5433.95 77.25 9.00 314.63 2528.65
   11:38:25.580.17-Sep-2021 4887.00 5433.85 77.25 9.00 314.83 2528.65
   11:38:25.780.17-Sep-2021 4887.00 5434.33 77.25 9.00 315.03 2528.65
   11:38:25.980.17-Sep-2021 4887.00 5434.33 77.25 9.00 315.23 2528.65
   11:38:26.180.17-Sep-2021 4887.00 5434.19 77.25 9.00 315.43 2528.65
   11:38:26.380.17-Sep-2021 4887.00 5434.31 77.25 9.00 315.63 2528.65
   11:38:26.580.17-Sep-2021 4887.00 5433.92 77.25 9.00 315.83 2528.65
   11:38:26.780.17-Sep-2021 4887.00 5433.80 77.25 9.00 316.03 2528.65
   11:38:26.980.17-Sep-2021 4887.00 5433.80 77.25 9.00 316.24 2528.65
   11:38:27.180.17-Sep-2021 4887.00 5434.41 77.25 9.00 316.44 2528.65
   11:38:27.380.17-Sep-2021 4887.00 5434.43 77.25 9.00 316.64 2528.65
   11:38:27.580.17-Sep-2021 4887.00 5434.27 77.25 9.00 316.84 2528.65
   11:38:27.780.17-Sep-2021 4887.00 5434.30 77.25 9.00 317.04 2528.65
   11:38:27.980.17-Sep-2021 4887.00 5434.30 77.25 9.00 317.24 2528.65
   11:38:28.180.17-Sep-2021 4887.00 5433.03 77.25 9.00 317.44 2528.65
   11:38:28.380.17-Sep-2021 4887.00 5434.54 77.25 9.00 317.64 2528.65
   11:38:28.580.17-Sep-2021 4887.00 5434.16 77.25 9.00 317.84 2528.65
   11:38:28.780.17-Sep-2021 4887.00 5435.61 77.25 9.00 318.04 2528.65
   11:38:28.980.17-Sep-2021 4887.00 5435.61 77.25 9.00 318.24 2528.65
   11:38:29.180.17-Sep-2021 4887.00 5433.90 77.25 9.00 318.44 2528.65
   11:38:29.381.17-Sep-2021 4887.00 5434.41 77.25 9.00 318.64 2528.65
   11:38:29.581.17-Sep-2021 4887.00 5433.98 77.25 9.00 318.84 2528.65
   11:38:29.781.17-Sep-2021 4887.00 5433.80 77.25 9.00 319.04 2528.65
   11:38:29.981.17-Sep-2021 4887.00 5433.80 77.25 9.00 319.24 2528.65
   11:38:30.181.17-Sep-2021 4887.00 5433.95 77.25 9.00 319.44 2528.65
   11:38:30.381.17-Sep-2021 4887.00 5434.27 77.25 9.00 319.64 2528.65
   11:38:30.581.17-Sep-2021 4887.00 5434.16 77.25 9.00 319.84 2528.65
   11:38:30.781.17-Sep-2021 4887.00 5434.15 77.25 9.00 320.04 2528.65
   11:38:30.981.17-Sep-2021 4887.00 5434.15 77.25 9.00 320.24 2528.65
   11:38:31.181.17-Sep-2021 4887.00 5434.44 77.25 9.00 320.44 2528.65
   11:38:31.381.17-Sep-2021 4887.00 5436.63 77.25 9.00 320.64 2528.65
   11:38:31.581.17-Sep-2021 4887.00 5434.26 77.25 9.00 320.84 2528.65
   11:38:31.781.17-Sep-2021 4887.00 5434.63 77.25 9.00 321.04 2528.65
   11:38:31.981.17-Sep-2021 4887.00 5434.63 77.25 9.00 321.24 2528.65
   11:38:32.181.17-Sep-2021 4887.00 5435.13 77.25 9.00 321.44 2528.65
   11:38:32.381.17-Sep-2021 4887.00 5434.93 77.25 9.00 321.64 2528.65
   11:38:32.581.17-Sep-2021 4887.00 5436.51 77.25 9.00 321.84 2528.65
