~Version Information
 VERS.                  2.0:   CWLS log ASCII Standard -VERSION 2.0
 WRAP.                   NO:   One line per depth step
~Well Information Block
#MNEM.UNIT     VALUE/NAME     DESCRIPTION
#---------     -----------    ---------------------------
 STRT.S             11:33:10 17-Sep-21: START TIME 11:33:10 17-Sep-21
 STOP.S             11:40:20 17-Sep-21: STOP TIME  11:40:20 17-Sep-21
 STEP.S                   0.00: STEP TIME
 NULL.                 -999.25: NULL VALUE
 DFWT.                        :  DIST FWL TEXT
 DFST.                        :  DIST FSL TEXT
 DMF .             Drill Floor:  DRILL MEAS FROM
 STIM.      10.59.12 05-Jul-21:  START TIME
 DATE.      10.59.12 10-Sep-21:  END TIME
 SPUD.               05-Jul-21:  SPUD DATE
 NREF.                    Grid:  NORTH REFERENCE
 HPTY.       Minimum Curvature:  HOLE POS TYPE
 DMOD.             Drill Model:  DRILL MOD DESC
 SVYD.                  Survey:  SURVEY DESC
 ILTD.               Lithology:  INTERP LTH DESC
 FTOP.          Formation Tops:  FORM TOPS DESC
 RIG .                     DWG:  RIG NAME
 PDAT.          Mean Sea Level:  PERMANENT DATUM
 FLD .                     ACG:  FIELD NAME
 SON .        AZ-XX-0907115008:  JOB NUMBER
 CTRY.              Azerbaijan:  COUNTRY NAME
 WELL.                    E35A:  WELL NAME
 SRVC.          TURAN DRILLING:  CONTRACTOR
 COMP.     BP Exploration (Caspian Sea LTD):  COMPANY
 UWI .                     N/A:  UNIQUE WELL IDENTIFIER
 API .                     N/A:  API NUMBER
 MDS .        Operator Entered:  MAG DATA SOURCE
 BASE.              Azerbaijan:  LOGGING EQUIPMENT BASE LOCATION
 REGN.                   EESSA:  REGION
 PROV.                    Baku:  PROVINCE
 STAT.                    Baku:  STATE NAME
 MWDS.                    Baku:  MWD SHOP
 JOBN.        AZ-XX-0907115008:  JOB TICKET NUMB
 DOE .                     N/A:  DOE NUMBER
 DCON.         Sperry Drilling:  DIRECTNL CONTR
 UNIT.                     N/A:  LOGGING EQUIPMENT ID
 WTYP.                Deviated:  WELL TYPE
 CNTY.                        :  COUNTY
 LOC .                        :  LOCATION
 LMF .             Drill Floor:  LOG MEASURED FROM
 TVDS.m                  43.16:  TVDSS CORRECTN
 LATI.deg                40.17:  LATITUDE
 LONG.deg                51.17:  LONGITUDE
 WHNS.m                  10.51:  WELL HEAD N/S
 WHEW.m                 -14.82:  WELL HEAD E/W
 UTMX.m              514336.92:  UTM X
 UTMY.m             4448618.56:  UTM Y
 DFWL.m                   0.00:  DISTANCE FWL
 DFSL.m                   0.00:  DISTANCE FSL
 SDEP.m                 849.00:  START DEPTH
 TDD .m                2862.00:  TOTAL DEPTH (DRILLER)
 VSDR.deg               292.10:  VERT SEC DIRECT
 GVFD.g                   1.00:  GRAVITY FIELD
 MFLD.nT              50382.00:  MAGNETIC FIELD
 MDIP.deg                59.68:  MAGNETIC DIP
 MDEC.deg                 6.66:  MAGNETIC DECL
 GRDC.deg                 0.09:  GRID CORRECTION
 AZTC.deg                 6.57:  AZM TOTAL CORR
 EPD .m                   0.00:  ELEVATION
 EGL .m                   0.00:  GROUND ELEVATION
 WDMS.m                 176.20:  WD ELEV
 APD .m                  43.16:  DEPTH ABOVE PD
 DEP .m                 363.42:  DEPTH
 AGAP.m                  43.16:  AIR GAP
 VSEW.m                 -14.82:  VERT SEC E/W
 VSNS.m                  10.51:  VERT SEC N/S
 EKB .m                  43.16:  KB ELEVATION
 EDF .m                  43.16:  DF ELEVATION
 TDL .m                1390.00:  TOTAL DEPTH (LOGGER)
 VSC .                       0:  VS TO CLOSURE
 MAGU.                 1855871:  MAGUTM CHECKSUM
~Parameter Information Block
#MNEM.UNIT       Value        Description
#---------     -----------    ---------------------------
 AV  .mps                 2.28:  Ann Velocity 
 AVMX.mps                 2.67:  Max Ann Veloc 
 AZIF.deg               305.00:  Azm, Final 
 BHAT.        Rotary Steerable:  BHA Type 
 BROT.°/30m               0.45:  Build Rotating 
 BS  .in                 12.25:  Bit Size 
 BSZ .in                 12.25:  Bit Size 
 BTPL.psig              600.00:  Bit Press Loss 
 CABU.                     Yes:  Customer Abuse 
 COMM.                     Á~:  Run Comments 1 
 TCS .hr                150.00:  Time Ciculation Ended 
 CV  .mps                 1.24:  Crit Velocity 
 CVMX.mps                 1.66:  Max Crit Veloc 
 DD1 .         Intigam Rahimov:  Direct Drillr 1 
 DD2 .            Azer Ravavov:  Direct Drillr 2 
 DD3 .              Samir Abas:  Direct Drillr 3 
 DDSV.               Geo-Pilot:  DD Service 
 DEFF.%                 100.00:  % Det Eff 
 DLRX.°/30m               1.57:  Dogleg Rot Max 
 DLSO.°/30m               0.00:  Dogleg Oriented 
 DLSX.°/30m               0.00:  Dogleg Str Max 
 DRET.      20.28.06 17-Sep-21:  Drill End Time 
 DRST.      20.27.35 10-Sep-21:  Drill Start Tim 
 DTIM.hr                 54.00:  Time Drilling 
 EDEP.m                5260.00:  End Depth 
 ENG1.      Bakhtiyar Jabbarli:  Engineer 1 
 ENG2.      Natik Hasanaghayev:  Engineer 2 
 ENG3.           Royal Nasirov:  Engineer 3 
 ETIM.      20.27.55 18-Sep-21:  End Time 
 FLOI.gpm              1100.00:  Flow In 
 FLON.gpm               800.00:  Flow In Min 
 FLOS.cptm                0.00:  Fluid Loss 
 FLOX.gpm              1200.00:  Flow In Max 
 DFT .        Mineral Oil Base:  Mud Type 
 HPRE.                      No:  High Pressure 
 HTEM.                      No:  High Temp 
 HYDO.m                   1.80:  Hydro Offset 
 IFIN.deg                72.31:  Inc, Final 
 IMAX.deg                72.36:  Inc Max 
 IMIN.deg                69.36:  Inc Min 
 IMND.m                4192.96:  Inc Min Depth 
 IMXD.m                5128.36:  Inc Max Depth 
 JARR.                      No:  Jarring 
 LETM.      20.29.00 17-Sep-21:  Log End Time 
 LOST.hr                     0:  Lost Rig Time 
 LSTM.      20.27.00 10-Sep-21:  Log Start Time 
 MDCL.ppm            227000.00:  Mud Chlorides 
 MDES.     Inversion Oil/Synthetic:  Mud Desc 
 DFD .sg                  1.45:  Mud Density 
 MDMN.sg                  1.45:  Dens Mud Min 
 MDMX.sg                  1.45:  Dens Mud Max 
 MOIL.                    70.5:  Run Mud Oil % 
 MOWR.                   71:29:  Run Mud OWR 
 MSND.                     0.3:  Run Mud Sand % 
 MSOL.                    19.8:  Run Mud Solids% 
 DFV .spqt               80.00:  Mud Viscosity 
 MWOD.in                  8.00:  MWD Tool OD 
 MWSI.                     Yes:  Serv Intrp, MWD 
 OTIM.hr                180.00:  Time Operating 
 PCON.           Look Like New:  Pad Condition 
 PMAX.psia             9910.94:  Press Op, Max 
 PV  .cP                 35.00:  Mud PV 
 RUN .                    1000:  Run Number 
 ROPA.m/hr               18.00:  ROP Avg 
 ROPN.m/hr                8.00:  ROP Min 
 ROPX.m/hr               23.00:  ROP Max 
 RPMA.rpm               150.00:  RPM Surface Avg 
 RPMN.rpm               120.00:  RPM Surface Min 
 RPMX.rpm               160.00:  RPM Surface Max 
 RRUN.                    L503:  Rig Run Number 
 RTIM.hr                  5.00:  Time Reaming 
 SAZI.deg               298.42:  Azm, Start 
 SDEP.m                3870.00:  Start Depth 
 SIDD.                      No:  Serv Intrp, DD 
 SINC.deg                69.57:  Inc, Start 
 SPPA.psig             5500.00:  SPP Avg 
 SPPN.psig             4400.00:  SPP Min 
 SPPX.psig             5800.00:  SPP Max 
 STIM.      15.29.39 09-Sep-21:  Start Time 
 SVCS.                 DD, MWD:  Services 
 SVER.                    9.20:  Sperry Version 
 TDAT.m                5260.00:  Tot Depth Attmp 
 TDDF.                      No:  Trip for DD 
 TDLG.m                1390.00:  Tot Depth Loggd 
 TFF .                      No:  Trip for Fail 
 TQAA.f-kp               22.00:  Torque Abs Avg 
 TQAN.f-kp               13.00:  Torque Abs Min 
 TQAX.f-kp               27.00:  Torque Abs Max 
 TRRT.°/30m               1.60:  Turn Rotating 
 MRT .                  EWR-M5:  Maximum Recorded Temperature 
 TTMX.degC               92.00:  Max Tool Temp 
 VS01.                12330975:  Virtual Str1 SN 
 VS02.                90658671:  Virtual Str2 SN 
 VS03.                90658508:  Virtual Str3 SN 
 VS04.                90660974:  Virtual Str4 SN 
 VS05.                90654675:  Virtual Str5 SN 
 WBMN.klb                15.00:  WOB Min 
 WITN.     Alexander Yadullayev:  Customer Rep 
 WITN.           Adil Mammadov:  Customer Rep 2 
 WOBA.klb                17.00:  WOB Avg 
 WOBX.klb                18.00:  WOB Max 
 YP  .lhf2               31.00:  Yield Point 
~Curve Information Block
#MNEM.UNIT                 API CODE     Curve Description
#---------               -----------    ---------------------------
 TIME.HHMMSS            00 000 000 000:  GT Time & Date
 GTDEPTH.m              00 000 000 000:  GT Depth
 GTPQH.psia             00 000 000 000:  GT HR Quartz Pressure
 GTTQ.degC              00 000 000 000:  GT Quartz Temperature
 GTTN.NONE              00 000 000 000:  GT Test Number
 GTET.sec               00 000 000 000:  GT Elapsed Test Time
 GTTVD.m                00 000 000 000:  GT True Vertical Depth
#Other Information
#
#WARRANTY: Halliburton will use its best efforts to furnish customers with 
#accurate information and interpretations that are part of, and incident to, the services 
#provided.  However, Halliburton cannot and does not warrant the accuracy 
#or correctness of such information and interpretations.  Under no circumstances should any 
#such information or interpretation be relied upon as the sole basis for any drilling, 
#completion, production, or financial decision or any procedure involving any risk to the 
#safety of any drilling venture, drilling rig or its crew or any other third party.  The 
#Customer has full responsibility for all drilling, completion and production operation.  
#Halliburton makes no representations or warranties, either expressed or 
#implied, including, but not limited to, the implied warranties of merchantability or fitness 
#for a particular purpose, with respect to the services rendered.  In no event will 
#Halliburton be liable for failure to obtain any particular results or for 
#any damages, including, but not limited to, indirect, special or consequential damages, 
#resulting from the use of any information or interpretation provided by Halliburton.
#
~A           TIME           GTDEPTH  GTPQH  GTTQ  GTTN  GTET   GTTVD  
# ...
   11:36:14.766.17-Sep-2021 4887.00 5438.86 77.26 9.00 184.02 2528.65
   11:36:14.966.17-Sep-2021 4887.00 5438.86 77.26 9.00 184.22 2528.65
   11:36:15.166.17-Sep-2021 4887.00 5435.94 77.26 9.00 184.42 2528.65
   11:36:15.366.17-Sep-2021 4887.00 5436.17 77.26 9.00 184.62 2528.65
   11:36:15.566.17-Sep-2021 4887.00 5437.15 77.26 9.00 184.82 2528.65
   11:36:15.766.17-Sep-2021 4887.00 5435.92 77.26 9.00 185.02 2528.65
   11:36:15.966.17-Sep-2021 4887.00 5435.92 77.26 9.00 185.22 2528.65
   11:36:16.166.17-Sep-2021 4887.00 5436.06 77.26 9.00 185.42 2528.65
   11:36:16.366.17-Sep-2021 4887.00 5435.96 77.26 9.00 185.62 2528.65
   11:36:16.566.17-Sep-2021 4887.00 5435.62 77.26 9.00 185.82 2528.65
   11:36:16.766.17-Sep-2021 4887.00 5435.49 77.26 9.00 186.02 2528.65
   11:36:16.966.17-Sep-2021 4887.00 5435.49 77.26 9.00 186.22 2528.65
   11:36:17.166.17-Sep-2021 4887.00 5435.91 77.26 9.00 186.42 2528.65
   11:36:17.366.17-Sep-2021 4887.00 5435.76 77.25 9.00 186.62 2528.65
   11:36:17.566.17-Sep-2021 4887.00 5435.80 77.26 9.00 186.82 2528.65
   11:36:17.766.17-Sep-2021 4887.00 5435.96 77.26 9.00 187.02 2528.65
   11:36:17.966.17-Sep-2021 4887.00 5435.96 77.26 9.00 187.22 2528.65
   11:36:18.166.17-Sep-2021 4887.00 5439.85 77.25 9.00 187.42 2528.65
   11:36:18.366.17-Sep-2021 4887.00 5434.63 77.26 9.00 187.62 2528.65
   11:36:18.566.17-Sep-2021 4887.00 5436.20 77.25 9.00 187.82 2528.65
   11:36:18.766.17-Sep-2021 4887.00 5435.95 77.25 9.00 188.02 2528.65
   11:36:18.966.17-Sep-2021 4887.00 5435.95 77.25 9.00 188.22 2528.65
   11:36:19.166.17-Sep-2021 4887.00 5438.83 77.25 9.00 188.42 2528.65
   11:36:19.366.17-Sep-2021 4887.00 5434.73 77.25 9.00 188.62 2528.65
   11:36:19.566.17-Sep-2021 4887.00 5436.34 77.25 9.00 188.82 2528.65
   11:36:19.766.17-Sep-2021 4887.00 5435.43 77.25 9.00 189.02 2528.65
   11:36:19.966.17-Sep-2021 4887.00 5435.43 77.25 9.00 189.22 2528.65
   11:36:20.166.17-Sep-2021 4887.00 5439.31 77.25 9.00 189.42 2528.65
   11:36:20.366.17-Sep-2021 4887.00 5433.78 77.25 9.00 189.62 2528.65
   11:36:20.566.17-Sep-2021 4887.00 5435.79 77.25 9.00 189.82 2528.65
   11:36:20.766.17-Sep-2021 4887.00 5435.17 77.25 9.00 190.02 2528.65
   11:36:20.966.17-Sep-2021 4887.00 5435.17 77.25 9.00 190.22 2528.65
   11:36:21.166.17-Sep-2021 4887.00 5437.47 77.25 9.00 190.42 2528.65
   11:36:21.366.17-Sep-2021 4887.00 5434.95 77.25 9.00 190.62 2528.65
   11:36:21.566.17-Sep-2021 4887.00 5435.59 77.25 9.00 190.82 2528.65
   11:36:21.766.17-Sep-2021 4887.00 5435.52 77.25 9.00 191.02 2528.65
   11:36:21.966.17-Sep-2021 4887.00 5435.52 77.25 9.00 191.22 2528.65
   11:36:22.166.17-Sep-2021 4887.00 5434.93 77.25 9.00 191.42 2528.65
   11:36:22.366.17-Sep-2021 4887.00 5435.25 77.25 9.00 191.62 2528.65
   11:36:22.566.17-Sep-2021 4887.00 5435.99 77.25 9.00 191.82 2528.65
   11:36:22.766.17-Sep-2021 4887.00 5435.64 77.25 9.00 192.02 2528.65
   11:36:22.967.17-Sep-2021 4887.00 5435.64 77.25 9.00 192.22 2528.65
   11:36:23.167.17-Sep-2021 4887.00 5435.33 77.25 9.00 192.42 2528.65
   11:36:23.367.17-Sep-2021 4887.00 5435.81 77.25 9.00 192.62 2528.65
   11:36:23.567.17-Sep-2021 4887.00 5436.03 77.25 9.00 192.82 2528.65
   11:36:23.767.17-Sep-2021 4887.00 5435.79 77.25 9.00 193.02 2528.65
   11:36:23.967.17-Sep-2021 4887.00 5435.79 77.25 9.00 193.22 2528.65
   11:36:24.167.17-Sep-2021 4887.00 5438.95 77.25 9.00 193.42 2528.65
   11:36:24.367.17-Sep-2021 4887.00 5435.47 77.25 9.00 193.62 2528.65
   11:36:24.567.17-Sep-2021 4887.00 5436.22 77.25 9.00 193.82 2528.65
   11:36:24.767.17-Sep-2021 4887.00 5435.84 77.25 9.00 194.02 2528.65
   11:36:24.967.17-Sep-2021 4887.00 5435.84 77.25 9.00 194.22 2528.65
   11:36:25.167.17-Sep-2021 4887.00 5436.12 77.25 9.00 194.42 2528.65
   11:36:25.367.17-Sep-2021 4887.00 5435.56 77.25 9.00 194.62 2528.65
   11:36:25.567.17-Sep-2021 4887.00 5435.75 77.25 9.00 194.82 2528.65
   11:36:25.767.17-Sep-2021 4887.00 5435.62 77.25 9.00 195.02 2528.65
   11:36:25.967.17-Sep-2021 4887.00 5435.62 77.25 9.00 195.22 2528.65
   11:36:26.167.17-Sep-2021 4887.00 5435.20 77.25 9.00 195.42 2528.65
   11:36:26.367.17-Sep-2021 4887.00 5435.38 77.25 9.00 195.62 2528.65
   11:36:26.567.17-Sep-2021 4887.00 5435.58 77.25 9.00 195.82 2528.65
   11:36:26.767.17-Sep-2021 4887.00 5435.67 77.25 9.00 196.02 2528.65
   11:36:26.967.17-Sep-2021 4887.00 5435.67 77.25 9.00 196.22 2528.65
   11:36:27.167.17-Sep-2021 4887.00 5435.52 77.25 9.00 196.42 2528.65
   11:36:27.367.17-Sep-2021 4887.00 5435.82 77.25 9.00 196.62 2528.65
   11:36:27.567.17-Sep-2021 4887.00 5436.59 77.25 9.00 196.82 2528.65
   11:36:27.767.17-Sep-2021 4887.00 5437.47 77.25 9.00 197.02 2528.65
   11:36:27.967.17-Sep-2021 4887.00 5437.47 77.25 9.00 197.22 2528.65
   11:36:28.167.17-Sep-2021 4887.00 5435.82 77.25 9.00 197.42 2528.65
   11:36:28.367.17-Sep-2021 4887.00 5436.28 77.25 9.00 197.62 2528.65
   11:36:28.567.17-Sep-2021 4887.00 5436.61 77.25 9.00 197.82 2528.65
   11:36:28.767.17-Sep-2021 4887.00 5438.43 77.25 9.00 198.02 2528.65
   11:36:28.967.17-Sep-2021 4887.00 5438.43 77.25 9.00 198.22 2528.65
   11:36:29.167.17-Sep-2021 4887.00 5435.52 77.25 9.00 198.42 2528.65
   11:36:29.367.17-Sep-2021 4887.00 5435.71 77.25 9.00 198.62 2528.65
   11:36:29.567.17-Sep-2021 4887.00 5436.89 77.25 9.00 198.82 2528.65
   11:36:29.767.17-Sep-2021 4887.00 5436.66 77.25 9.00 199.02 2528.65
   11:36:29.967.17-Sep-2021 4887.00 5436.66 77.25 9.00 199.22 2528.65
   11:36:30.167.17-Sep-2021 4887.00 5435.46 77.25 9.00 199.42 2528.65
   11:36:30.367.17-Sep-2021 4887.00 5435.67 77.25 9.00 199.62 2528.65
   11:36:30.567.17-Sep-2021 4887.00 5438.71 77.25 9.00 199.82 2528.65
   11:36:30.767.17-Sep-2021 4887.00 5434.44 77.25 9.00 200.02 2528.65
   11:36:30.967.17-Sep-2021 4887.00 5434.44 77.25 9.00 200.22 2528.65
   11:36:31.167.17-Sep-2021 4887.00 5435.43 77.25 9.00 200.42 2528.65
   11:36:31.367.17-Sep-2021 4887.00 5436.18 77.25 9.00 200.62 2528.65
   11:36:31.567.17-Sep-2021 4887.00 5435.18 77.25 9.00 200.82 2528.65
   11:36:31.767.17-Sep-2021 4887.00 5435.13 77.25 9.00 201.02 2528.65
   11:36:31.968.17-Sep-2021 4887.00 5435.13 77.25 9.00 201.22 2528.65
   11:36:32.168.17-Sep-2021 4887.00 5435.60 77.25 9.00 201.42 2528.65
   11:36:32.368.17-Sep-2021 4887.00 5435.23 77.25 9.00 201.62 2528.65
   11:36:32.568.17-Sep-2021 4887.00 5435.25 77.25 9.00 201.82 2528.65
   11:36:32.768.17-Sep-2021 4887.00 5435.61 77.25 9.00 202.02 2528.65
   11:36:32.968.17-Sep-2021 4887.00 5435.61 77.25 9.00 202.22 2528.65
   11:36:33.168.17-Sep-2021 4887.00 5435.81 77.25 9.00 202.42 2528.65
   11:36:33.368.17-Sep-2021 4887.00 5435.66 77.25 9.00 202.62 2528.65
   11:36:33.568.17-Sep-2021 4887.00 5435.73 77.25 9.00 202.82 2528.65
   11:36:33.768.17-Sep-2021 4887.00 5438.72 77.25 9.00 203.02 2528.65
   11:36:33.968.17-Sep-2021 4887.00 5438.72 77.25 9.00 203.22 2528.65
   11:36:34.168.17-Sep-2021 4887.00 5435.81 77.25 9.00 203.42 2528.65
   11:36:34.368.17-Sep-2021 4887.00 5436.05 77.25 9.00 203.62 2528.65
   11:36:34.568.17-Sep-2021 4887.00 5436.99 77.25 9.00 203.82 2528.65
   11:36:34.768.17-Sep-2021 4887.00 5435.67 77.25 9.00 204.02 2528.65
   11:36:34.968.17-Sep-2021 4887.00 5435.67 77.25 9.00 204.22 2528.65
   11:36:35.168.17-Sep-2021 4887.00 5435.89 77.25 9.00 204.42 2528.65
   11:36:35.368.17-Sep-2021 4887.00 5435.61 77.25 9.00 204.62 2528.65
   11:36:35.568.17-Sep-2021 4887.00 5435.23 77.25 9.00 204.82 2528.65
   11:36:35.768.17-Sep-2021 4887.00 5435.26 77.25 9.00 205.02 2528.65
   11:36:35.968.17-Sep-2021 4887.00 5435.26 77.25 9.00 205.22 2528.65
   11:36:36.168.17-Sep-2021 4887.00 5435.79 77.25 9.00 205.42 2528.65
   11:36:36.368.17-Sep-2021 4887.00 5435.58 77.25 9.00 205.62 2528.65
   11:36:36.568.17-Sep-2021 4887.00 5435.43 77.25 9.00 205.82 2528.65
   11:36:36.768.17-Sep-2021 4887.00 5435.69 77.25 9.00 206.02 2528.65
   11:36:36.968.17-Sep-2021 4887.00 5435.69 77.25 9.00 206.22 2528.65
   11:36:37.168.17-Sep-2021 4887.00 5439.81 77.25 9.00 206.42 2528.65
   11:36:37.368.17-Sep-2021 4887.00 5434.69 77.25 9.00 206.62 2528.65
   11:36:37.568.17-Sep-2021 4887.00 5435.93 77.25 9.00 206.82 2528.65
