~Version Information
 VERS.                  2.0:   CWLS log ASCII Standard -VERSION 2.0
 WRAP.                   NO:   One line per depth step
~Well Information Block
#MNEM.UNIT     VALUE/NAME     DESCRIPTION
#---------     -----------    ---------------------------
 STRT.S             05:03:12 17-Sep-21: START TIME 05:03:12 17-Sep-21
 STOP.S             05:12:54 17-Sep-21: STOP TIME  05:12:54 17-Sep-21
 STEP.S                   0.00: STEP TIME
 NULL.                 -999.25: NULL VALUE
 DFWT.                        :  DIST FWL TEXT
 DFST.                        :  DIST FSL TEXT
 DMF .             Drill Floor:  DRILL MEAS FROM
 STIM.      10.59.12 05-Jul-21:  START TIME
 DATE.      10.59.12 10-Sep-21:  END TIME
 SPUD.               05-Jul-21:  SPUD DATE
 NREF.                    Grid:  NORTH REFERENCE
 HPTY.       Minimum Curvature:  HOLE POS TYPE
 DMOD.             Drill Model:  DRILL MOD DESC
 SVYD.                  Survey:  SURVEY DESC
 ILTD.               Lithology:  INTERP LTH DESC
 FTOP.          Formation Tops:  FORM TOPS DESC
 RIG .                     DWG:  RIG NAME
 PDAT.          Mean Sea Level:  PERMANENT DATUM
 FLD .                     ACG:  FIELD NAME
 SON .        AZ-XX-0907115008:  JOB NUMBER
 CTRY.              Azerbaijan:  COUNTRY NAME
 WELL.                    E35A:  WELL NAME
 SRVC.          TURAN DRILLING:  CONTRACTOR
 COMP.     BP Exploration (Caspian Sea LTD):  COMPANY
 UWI .                     N/A:  UNIQUE WELL IDENTIFIER
 API .                     N/A:  API NUMBER
 MDS .        Operator Entered:  MAG DATA SOURCE
 BASE.              Azerbaijan:  LOGGING EQUIPMENT BASE LOCATION
 REGN.                   EESSA:  REGION
 PROV.                    Baku:  PROVINCE
 STAT.                    Baku:  STATE NAME
 MWDS.                    Baku:  MWD SHOP
 JOBN.        AZ-XX-0907115008:  JOB TICKET NUMB
 DOE .                     N/A:  DOE NUMBER
 DCON.         Sperry Drilling:  DIRECTNL CONTR
 UNIT.                     N/A:  LOGGING EQUIPMENT ID
 WTYP.                Deviated:  WELL TYPE
 CNTY.                        :  COUNTY
 LOC .                        :  LOCATION
 LMF .             Drill Floor:  LOG MEASURED FROM
 TVDS.m                  43.16:  TVDSS CORRECTN
 LATI.deg                40.17:  LATITUDE
 LONG.deg                51.17:  LONGITUDE
 WHNS.m                  10.51:  WELL HEAD N/S
 WHEW.m                 -14.82:  WELL HEAD E/W
 UTMX.m              514336.92:  UTM X
 UTMY.m             4448618.56:  UTM Y
 DFWL.m                   0.00:  DISTANCE FWL
 DFSL.m                   0.00:  DISTANCE FSL
 SDEP.m                 849.00:  START DEPTH
 TDD .m                2862.00:  TOTAL DEPTH (DRILLER)
 VSDR.deg               292.10:  VERT SEC DIRECT
 GVFD.g                   1.00:  GRAVITY FIELD
 MFLD.nT              50382.00:  MAGNETIC FIELD
 MDIP.deg                59.68:  MAGNETIC DIP
 MDEC.deg                 6.66:  MAGNETIC DECL
 GRDC.deg                 0.09:  GRID CORRECTION
 AZTC.deg                 6.57:  AZM TOTAL CORR
 EPD .m                   0.00:  ELEVATION
 EGL .m                   0.00:  GROUND ELEVATION
 WDMS.m                 176.20:  WD ELEV
 APD .m                  43.16:  DEPTH ABOVE PD
 DEP .m                 363.42:  DEPTH
 AGAP.m                  43.16:  AIR GAP
 VSEW.m                 -14.82:  VERT SEC E/W
 VSNS.m                  10.51:  VERT SEC N/S
 EKB .m                  43.16:  KB ELEVATION
 EDF .m                  43.16:  DF ELEVATION
 TDL .m                1390.00:  TOTAL DEPTH (LOGGER)
 VSC .                       0:  VS TO CLOSURE
 MAGU.                 1855871:  MAGUTM CHECKSUM
~Parameter Information Block
#MNEM.UNIT       Value        Description
#---------     -----------    ---------------------------
 AV  .mps                 2.28:  Ann Velocity 
 AVMX.mps                 2.67:  Max Ann Veloc 
 AZIF.deg               305.00:  Azm, Final 
 BHAT.        Rotary Steerable:  BHA Type 
 BROT.°/30m               0.45:  Build Rotating 
 BS  .in                 12.25:  Bit Size 
 BSZ .in                 12.25:  Bit Size 
 BTPL.psig              600.00:  Bit Press Loss 
 CABU.                     Yes:  Customer Abuse 
 COMM.                     äÏF:  Run Comments 1 
 TCS .hr                150.00:  Time Ciculation Ended 
 CV  .mps                 1.24:  Crit Velocity 
 CVMX.mps                 1.66:  Max Crit Veloc 
 DD1 .         Intigam Rahimov:  Direct Drillr 1 
 DD2 .            Azer Ravavov:  Direct Drillr 2 
 DD3 .              Samir Abas:  Direct Drillr 3 
 DDSV.               Geo-Pilot:  DD Service 
 DEFF.%                 100.00:  % Det Eff 
 DLRX.°/30m               1.57:  Dogleg Rot Max 
 DLSO.°/30m               0.00:  Dogleg Oriented 
 DLSX.°/30m               0.00:  Dogleg Str Max 
 DRET.      20.28.06 17-Sep-21:  Drill End Time 
 DRST.      20.27.35 10-Sep-21:  Drill Start Tim 
 DTIM.hr                 54.00:  Time Drilling 
 EDEP.m                5260.00:  End Depth 
 ENG1.      Bakhtiyar Jabbarli:  Engineer 1 
 ENG2.      Natik Hasanaghayev:  Engineer 2 
 ENG3.           Royal Nasirov:  Engineer 3 
 ETIM.      20.27.55 18-Sep-21:  End Time 
 FLOI.gpm              1100.00:  Flow In 
 FLON.gpm               800.00:  Flow In Min 
 FLOS.cptm                0.00:  Fluid Loss 
 FLOX.gpm              1200.00:  Flow In Max 
 DFT .        Mineral Oil Base:  Mud Type 
 HPRE.                      No:  High Pressure 
 HTEM.                      No:  High Temp 
 HYDO.m                   1.80:  Hydro Offset 
 IFIN.deg                72.31:  Inc, Final 
 IMAX.deg                72.36:  Inc Max 
 IMIN.deg                69.36:  Inc Min 
 IMND.m                4192.96:  Inc Min Depth 
 IMXD.m                5128.36:  Inc Max Depth 
 JARR.                      No:  Jarring 
 LETM.      20.29.00 17-Sep-21:  Log End Time 
 LOST.hr                     0:  Lost Rig Time 
 LSTM.      20.27.00 10-Sep-21:  Log Start Time 
 MDCL.ppm            227000.00:  Mud Chlorides 
 MDES.     Inversion Oil/Synthetic:  Mud Desc 
 DFD .sg                  1.45:  Mud Density 
 MDMN.sg                  1.45:  Dens Mud Min 
 MDMX.sg                  1.45:  Dens Mud Max 
 MOIL.                    70.5:  Run Mud Oil % 
 MOWR.                   71:29:  Run Mud OWR 
 MSND.                     0.3:  Run Mud Sand % 
 MSOL.                    19.8:  Run Mud Solids% 
 DFV .spqt               80.00:  Mud Viscosity 
 MWOD.in                  8.00:  MWD Tool OD 
 MWSI.                     Yes:  Serv Intrp, MWD 
 OTIM.hr                180.00:  Time Operating 
 PCON.           Look Like New:  Pad Condition 
 PMAX.psia             9910.94:  Press Op, Max 
 PV  .cP                 35.00:  Mud PV 
 RUN .                    1000:  Run Number 
 ROPA.m/hr               18.00:  ROP Avg 
 ROPN.m/hr                8.00:  ROP Min 
 ROPX.m/hr               23.00:  ROP Max 
 RPMA.rpm               150.00:  RPM Surface Avg 
 RPMN.rpm               120.00:  RPM Surface Min 
 RPMX.rpm               160.00:  RPM Surface Max 
 RRUN.                    L503:  Rig Run Number 
 RTIM.hr                  5.00:  Time Reaming 
 SAZI.deg               298.42:  Azm, Start 
 SDEP.m                3870.00:  Start Depth 
 SIDD.                      No:  Serv Intrp, DD 
 SINC.deg                69.57:  Inc, Start 
 SPPA.psig             5500.00:  SPP Avg 
 SPPN.psig             4400.00:  SPP Min 
 SPPX.psig             5800.00:  SPP Max 
 STIM.      15.29.39 09-Sep-21:  Start Time 
 SVCS.                 DD, MWD:  Services 
 SVER.                    9.20:  Sperry Version 
 TDAT.m                5260.00:  Tot Depth Attmp 
 TDDF.                      No:  Trip for DD 
 TDLG.m                1390.00:  Tot Depth Loggd 
 TFF .                      No:  Trip for Fail 
 TQAA.f-kp               22.00:  Torque Abs Avg 
 TQAN.f-kp               13.00:  Torque Abs Min 
 TQAX.f-kp               27.00:  Torque Abs Max 
 TRRT.°/30m               1.60:  Turn Rotating 
 MRT .                  EWR-M5:  Maximum Recorded Temperature 
 TTMX.degC               92.00:  Max Tool Temp 
 VS01.                12330975:  Virtual Str1 SN 
 VS02.                90658671:  Virtual Str2 SN 
 VS03.                90658508:  Virtual Str3 SN 
 VS04.                90660974:  Virtual Str4 SN 
 VS05.                90654675:  Virtual Str5 SN 
 WBMN.klb                15.00:  WOB Min 
 WITN.     Alexander Yadullayev:  Customer Rep 
 WITN.           Adil Mammadov:  Customer Rep 2 
 WOBA.klb                17.00:  WOB Avg 
 WOBX.klb                18.00:  WOB Max 
 YP  .lhf2               31.00:  Yield Point 
~Curve Information Block
#MNEM.UNIT                 API CODE     Curve Description
#---------               -----------    ---------------------------
 TIME.HHMMSS            00 000 000 000:  GT Time & Date
 GTDEPTH.m              00 000 000 000:  GT Depth
 GTPQH.psia             00 000 000 000:  GT HR Quartz Pressure
 GTTQ.degC              00 000 000 000:  GT Quartz Temperature
 GTTN.NONE              00 000 000 000:  GT Test Number
 GTET.sec               00 000 000 000:  GT Elapsed Test Time
 GTTVD.m                00 000 000 000:  GT True Vertical Depth
#Other Information
#
#WARRANTY: Halliburton will use its best efforts to furnish customers with 
#accurate information and interpretations that are part of, and incident to, the services 
#provided.  However, Halliburton cannot and does not warrant the accuracy 
#or correctness of such information and interpretations.  Under no circumstances should any 
#such information or interpretation be relied upon as the sole basis for any drilling, 
#completion, production, or financial decision or any procedure involving any risk to the 
#safety of any drilling venture, drilling rig or its crew or any other third party.  The 
#Customer has full responsibility for all drilling, completion and production operation.  
#Halliburton makes no representations or warranties, either expressed or 
#implied, including, but not limited to, the implied warranties of merchantability or fitness 
#for a particular purpose, with respect to the services rendered.  In no event will 
#Halliburton be liable for failure to obtain any particular results or for 
#any damages, including, but not limited to, indirect, special or consequential damages, 
#resulting from the use of any information or interpretation provided by Halliburton.
#
~A           TIME           GTDEPTH  GTPQH  GTTQ  GTTN  GTET   GTTVD  
# ...
   05:07:03.105.17-Sep-2021 5093.53 3740.20 79.37 5.00 230.25 2594.99
   05:07:03.305.17-Sep-2021 5093.53 3740.20 79.37 5.00 230.45 2594.99
   05:07:03.506.17-Sep-2021 5093.53 3740.30 79.37 5.00 230.65 2594.99
   05:07:03.706.17-Sep-2021 5093.53 3740.31 79.37 5.00 230.85 2594.99
   05:07:03.906.17-Sep-2021 5093.53 3740.35 79.37 5.00 231.05 2594.99
   05:07:04.106.17-Sep-2021 5093.53 3740.38 79.37 5.00 231.25 2594.99
   05:07:04.306.17-Sep-2021 5093.53 3740.38 79.37 5.00 231.45 2594.99
   05:07:04.507.17-Sep-2021 5093.53 3740.36 79.37 5.00 231.65 2594.99
   05:07:04.707.17-Sep-2021 5093.53 3740.49 79.37 5.00 231.85 2594.99
   05:07:04.907.17-Sep-2021 5093.53 3740.45 79.37 5.00 232.05 2594.99
   05:07:05.107.17-Sep-2021 5093.53 3740.55 79.37 5.00 232.25 2594.99
   05:07:05.308.17-Sep-2021 5093.53 3740.55 79.37 5.00 232.45 2594.99
   05:07:05.508.17-Sep-2021 5093.53 3740.61 79.37 5.00 232.65 2594.99
   05:07:05.708.17-Sep-2021 5093.53 3740.67 79.37 5.00 232.85 2594.99
   05:07:05.908.17-Sep-2021 5093.53 3740.69 79.37 5.00 233.05 2594.99
   05:07:06.108.17-Sep-2021 5093.53 3740.71 79.37 5.00 233.25 2594.99
   05:07:06.309.17-Sep-2021 5093.53 3740.71 79.37 5.00 233.45 2594.99
   05:07:06.509.17-Sep-2021 5093.53 3740.76 79.37 5.00 233.65 2594.99
   05:07:06.709.17-Sep-2021 5093.53 3740.80 79.37 5.00 233.85 2594.99
   05:07:06.909.17-Sep-2021 5093.53 3740.82 79.37 5.00 234.05 2594.99
   05:07:07.109.17-Sep-2021 5093.53 3740.90 79.37 5.00 234.25 2594.99
   05:07:07.310.17-Sep-2021 5093.53 3740.90 79.37 5.00 234.45 2594.99
   05:07:07.510.17-Sep-2021 5093.53 3740.91 79.37 5.00 234.65 2594.99
   05:07:07.710.17-Sep-2021 5093.53 3740.86 79.37 5.00 234.85 2594.99
   05:07:07.910.17-Sep-2021 5093.53 3740.88 79.37 5.00 235.05 2594.99
   05:07:08.111.17-Sep-2021 5093.53 3740.88 79.37 5.00 235.25 2594.99
   05:07:08.311.17-Sep-2021 5093.53 3740.88 79.37 5.00 235.45 2594.99
   05:07:08.511.17-Sep-2021 5093.53 3740.88 79.37 5.00 235.65 2594.99
   05:07:08.711.17-Sep-2021 5093.53 3740.88 79.37 5.00 235.85 2594.99
   05:07:08.911.17-Sep-2021 5093.53 3740.91 79.38 5.00 236.05 2594.99
   05:07:09.112.17-Sep-2021 5093.53 3740.93 79.37 5.00 236.25 2594.99
   05:07:09.312.17-Sep-2021 5093.53 3740.93 79.37 5.00 236.45 2594.99
   05:07:09.512.17-Sep-2021 5093.53 3740.94 79.38 5.00 236.65 2594.99
   05:07:09.712.17-Sep-2021 5093.53 3740.99 79.38 5.00 236.86 2594.99
   05:07:09.912.17-Sep-2021 5093.53 3741.03 79.38 5.00 237.06 2594.99
   05:07:10.113.17-Sep-2021 5093.53 3741.07 79.38 5.00 237.26 2594.99
   05:07:10.313.17-Sep-2021 5093.53 3741.07 79.38 5.00 237.46 2594.99
   05:07:10.513.17-Sep-2021 5093.53 3741.17 79.38 5.00 237.66 2594.99
   05:07:10.713.17-Sep-2021 5093.53 3741.18 79.38 5.00 237.86 2594.99
   05:07:10.914.17-Sep-2021 5093.53 3741.18 79.38 5.00 238.06 2594.99
   05:07:11.114.17-Sep-2021 5093.53 3741.23 79.38 5.00 238.26 2594.99
   05:07:11.314.17-Sep-2021 5093.53 3741.23 79.38 5.00 238.46 2594.99
   05:07:11.514.17-Sep-2021 5093.53 3741.22 79.38 5.00 238.66 2594.99
   05:07:11.714.17-Sep-2021 5093.53 3741.24 79.38 5.00 238.86 2594.99
   05:07:11.915.17-Sep-2021 5093.53 3741.23 79.38 5.00 239.06 2594.99
   05:07:12.115.17-Sep-2021 5093.53 3741.22 79.38 5.00 239.26 2594.99
   05:07:12.315.17-Sep-2021 5093.53 3741.22 79.38 5.00 239.46 2594.99
   05:07:12.515.17-Sep-2021 5093.53 3741.29 79.38 5.00 239.66 2594.99
   05:07:12.716.17-Sep-2021 5093.53 3741.25 79.38 5.00 239.86 2594.99
   05:07:12.916.17-Sep-2021 5093.53 3741.19 79.38 5.00 240.06 2594.99
   05:07:13.116.17-Sep-2021 5093.53 3741.04 79.38 5.00 240.26 2594.99
   05:07:13.316.17-Sep-2021 5093.53 3741.04 79.38 5.00 240.46 2594.99
   05:07:13.516.17-Sep-2021 5093.53 3740.96 79.38 5.00 240.66 2594.99
   05:07:13.717.17-Sep-2021 5093.53 3741.00 79.38 5.00 240.86 2594.99
   05:07:13.917.17-Sep-2021 5093.53 3741.04 79.38 5.00 241.06 2594.99
   05:07:14.117.17-Sep-2021 5093.53 3741.06 79.38 5.00 241.26 2594.99
   05:07:14.317.17-Sep-2021 5093.53 3741.06 79.38 5.00 241.46 2594.99
   05:07:14.517.17-Sep-2021 5093.53 3741.06 79.38 5.00 241.66 2594.99
   05:07:14.718.17-Sep-2021 5093.53 3741.01 79.38 5.00 241.86 2594.99
   05:07:14.918.17-Sep-2021 5093.53 3740.93 79.38 5.00 242.06 2594.99
   05:07:15.118.17-Sep-2021 5093.53 3741.00 79.38 5.00 242.26 2594.99
   05:07:15.318.17-Sep-2021 5093.53 3741.00 79.38 5.00 242.46 2594.99
   05:07:15.519.17-Sep-2021 5093.53 3741.00 79.38 5.00 242.66 2594.99
   05:07:15.719.17-Sep-2021 5093.53 3741.05 79.38 5.00 242.86 2594.99
   05:07:15.919.17-Sep-2021 5093.53 3741.11 79.38 5.00 243.06 2594.99
   05:07:16.119.17-Sep-2021 5093.53 3741.14 79.38 5.00 243.26 2594.99
   05:07:16.319.17-Sep-2021 5093.53 3741.14 79.38 5.00 243.46 2594.99
   05:07:16.520.17-Sep-2021 5093.53 3741.18 79.38 5.00 243.66 2594.99
   05:07:16.720.17-Sep-2021 5093.53 3741.18 79.38 5.00 243.86 2594.99
   05:07:16.920.17-Sep-2021 5093.53 3741.21 79.38 5.00 244.06 2594.99
   05:07:17.120.17-Sep-2021 5093.53 3741.23 79.38 5.00 244.26 2594.99
   05:07:17.320.17-Sep-2021 5093.53 3741.23 79.38 5.00 244.46 2594.99
   05:07:17.521.17-Sep-2021 5093.53 3741.33 79.38 5.00 244.66 2594.99
   05:07:17.721.17-Sep-2021 5093.53 3741.36 79.38 5.00 244.86 2594.99
   05:07:17.921.17-Sep-2021 5093.53 3741.36 79.38 5.00 245.06 2594.99
   05:07:18.121.17-Sep-2021 5093.53 3741.33 79.38 5.00 245.26 2594.99
   05:07:18.322.17-Sep-2021 5093.53 3741.33 79.38 5.00 245.46 2594.99
   05:07:18.522.17-Sep-2021 5093.53 3741.31 79.38 5.00 245.66 2594.99
   05:07:18.722.17-Sep-2021 5093.53 3741.32 79.38 5.00 245.86 2594.99
   05:07:18.922.17-Sep-2021 5093.53 3741.34 79.38 5.00 246.07 2594.99
   05:07:19.122.17-Sep-2021 5093.53 3741.40 79.38 5.00 246.27 2594.99
   05:07:19.323.17-Sep-2021 5093.53 3741.40 79.38 5.00 246.47 2594.99
   05:07:19.523.17-Sep-2021 5093.53 3741.43 79.38 5.00 246.67 2594.99
   05:07:19.723.17-Sep-2021 5093.53 3741.51 79.38 5.00 246.87 2594.99
   05:07:19.923.17-Sep-2021 5093.53 3741.51 79.38 5.00 247.07 2594.99
   05:07:20.123.17-Sep-2021 5093.53 3741.54 79.38 5.00 247.27 2594.99
   05:07:20.324.17-Sep-2021 5093.53 3741.54 79.38 5.00 247.47 2594.99
   05:07:20.524.17-Sep-2021 5093.53 3741.63 79.38 5.00 247.67 2594.99
   05:07:20.724.17-Sep-2021 5093.53 3741.65 79.38 5.00 247.87 2594.99
   05:07:20.924.17-Sep-2021 5093.53 3741.64 79.38 5.00 248.07 2594.99
   05:07:21.125.17-Sep-2021 5093.53 3741.73 79.38 5.00 248.27 2594.99
   05:07:21.325.17-Sep-2021 5093.53 3741.73 79.38 5.00 248.47 2594.99
   05:07:21.525.17-Sep-2021 5093.53 3741.74 79.38 5.00 248.67 2594.99
   05:07:21.725.17-Sep-2021 5093.53 3741.72 79.38 5.00 248.87 2594.99
   05:07:21.925.17-Sep-2021 5093.53 3741.71 79.38 5.00 249.07 2594.99
   05:07:22.126.17-Sep-2021 5093.53 3741.65 79.38 5.00 249.27 2594.99
   05:07:22.326.17-Sep-2021 5093.53 3741.65 79.38 5.00 249.47 2594.99
   05:07:22.526.17-Sep-2021 5093.53 3741.58 79.38 5.00 249.67 2594.99
   05:07:22.726.17-Sep-2021 5093.53 3741.54 79.38 5.00 249.87 2594.99
   05:07:22.927.17-Sep-2021 5093.53 3741.52 79.38 5.00 250.07 2594.99
   05:07:23.127.17-Sep-2021 5093.53 3741.49 79.38 5.00 250.27 2594.99
   05:07:23.327.17-Sep-2021 5093.53 3741.49 79.38 5.00 250.47 2594.99
   05:07:23.527.17-Sep-2021 5093.53 3741.33 79.38 5.00 250.67 2594.99
   05:07:23.727.17-Sep-2021 5093.53 3741.42 79.38 5.00 250.87 2594.99
   05:07:23.928.17-Sep-2021 5093.53 3741.38 79.38 5.00 251.07 2594.99
   05:07:24.128.17-Sep-2021 5093.53 3741.39 79.38 5.00 251.27 2594.99
   05:07:24.328.17-Sep-2021 5093.53 3741.39 79.38 5.00 251.47 2594.99
   05:07:24.528.17-Sep-2021 5093.53 3741.43 79.38 5.00 251.67 2594.99
   05:07:24.728.17-Sep-2021 5093.53 3741.30 79.38 5.00 251.87 2594.99
   05:07:24.929.17-Sep-2021 5093.53 3741.45 79.38 5.00 252.07 2594.99
   05:07:25.129.17-Sep-2021 5093.53 3741.47 79.38 5.00 252.27 2594.99
   05:07:25.329.17-Sep-2021 5093.53 3741.47 79.38 5.00 252.47 2594.99
   05:07:25.529.17-Sep-2021 5093.53 3741.43 79.38 5.00 252.67 2594.99
   05:07:25.730.17-Sep-2021 5093.53 3741.39 79.38 5.00 252.87 2594.99
   05:07:25.930.17-Sep-2021 5093.53 3741.41 79.38 5.00 253.07 2594.99
