~Version Information
 VERS.                  2.0:   CWLS log ASCII Standard -VERSION 2.0
 WRAP.                   NO:   One line per depth step
~Well Information Block
#MNEM.UNIT     VALUE/NAME     DESCRIPTION
#---------     -----------    ---------------------------
 STRT.S             01:51:55 17-Sep-21: START TIME 01:51:55 17-Sep-21
 STOP.S             02:00:37 17-Sep-21: STOP TIME  02:00:37 17-Sep-21
 STEP.S                   0.00: STEP TIME
 NULL.                 -999.25: NULL VALUE
 DFWT.                        :  DIST FWL TEXT
 DFST.                        :  DIST FSL TEXT
 DMF .             Drill Floor:  DRILL MEAS FROM
 STIM.      10.59.12 05-Jul-21:  START TIME
 DATE.      10.59.12 10-Sep-21:  END TIME
 SPUD.               05-Jul-21:  SPUD DATE
 NREF.                    Grid:  NORTH REFERENCE
 HPTY.       Minimum Curvature:  HOLE POS TYPE
 DMOD.             Drill Model:  DRILL MOD DESC
 SVYD.                  Survey:  SURVEY DESC
 ILTD.               Lithology:  INTERP LTH DESC
 FTOP.          Formation Tops:  FORM TOPS DESC
 RIG .                     DWG:  RIG NAME
 PDAT.          Mean Sea Level:  PERMANENT DATUM
 FLD .                     ACG:  FIELD NAME
 SON .        AZ-XX-0907115008:  JOB NUMBER
 CTRY.              Azerbaijan:  COUNTRY NAME
 WELL.                    E35A:  WELL NAME
 SRVC.          TURAN DRILLING:  CONTRACTOR
 COMP.     BP Exploration (Caspian Sea LTD):  COMPANY
 UWI .                     N/A:  UNIQUE WELL IDENTIFIER
 API .                     N/A:  API NUMBER
 MDS .        Operator Entered:  MAG DATA SOURCE
 BASE.              Azerbaijan:  LOGGING EQUIPMENT BASE LOCATION
 REGN.                   EESSA:  REGION
 PROV.                    Baku:  PROVINCE
 STAT.                    Baku:  STATE NAME
 MWDS.                    Baku:  MWD SHOP
 JOBN.        AZ-XX-0907115008:  JOB TICKET NUMB
 DOE .                     N/A:  DOE NUMBER
 DCON.         Sperry Drilling:  DIRECTNL CONTR
 UNIT.                     N/A:  LOGGING EQUIPMENT ID
 WTYP.                Deviated:  WELL TYPE
 CNTY.                        :  COUNTY
 LOC .                        :  LOCATION
 LMF .             Drill Floor:  LOG MEASURED FROM
 TVDS.m                  43.16:  TVDSS CORRECTN
 LATI.deg                40.17:  LATITUDE
 LONG.deg                51.17:  LONGITUDE
 WHNS.m                  10.51:  WELL HEAD N/S
 WHEW.m                 -14.82:  WELL HEAD E/W
 UTMX.m              514336.92:  UTM X
 UTMY.m             4448618.56:  UTM Y
 DFWL.m                   0.00:  DISTANCE FWL
 DFSL.m                   0.00:  DISTANCE FSL
 SDEP.m                 849.00:  START DEPTH
 TDD .m                2862.00:  TOTAL DEPTH (DRILLER)
 VSDR.deg               292.10:  VERT SEC DIRECT
 GVFD.g                   1.00:  GRAVITY FIELD
 MFLD.nT              50382.00:  MAGNETIC FIELD
 MDIP.deg                59.68:  MAGNETIC DIP
 MDEC.deg                 6.66:  MAGNETIC DECL
 GRDC.deg                 0.09:  GRID CORRECTION
 AZTC.deg                 6.57:  AZM TOTAL CORR
 EPD .m                   0.00:  ELEVATION
 EGL .m                   0.00:  GROUND ELEVATION
 WDMS.m                 176.20:  WD ELEV
 APD .m                  43.16:  DEPTH ABOVE PD
 DEP .m                 363.42:  DEPTH
 AGAP.m                  43.16:  AIR GAP
 VSEW.m                 -14.82:  VERT SEC E/W
 VSNS.m                  10.51:  VERT SEC N/S
 EKB .m                  43.16:  KB ELEVATION
 EDF .m                  43.16:  DF ELEVATION
 TDL .m                1390.00:  TOTAL DEPTH (LOGGER)
 VSC .                       0:  VS TO CLOSURE
 MAGU.                 1855871:  MAGUTM CHECKSUM
~Parameter Information Block
#MNEM.UNIT       Value        Description
#---------     -----------    ---------------------------
 AV  .mps                 2.28:  Ann Velocity 
 AVMX.mps                 2.67:  Max Ann Veloc 
 AZIF.deg               305.00:  Azm, Final 
 BHAT.        Rotary Steerable:  BHA Type 
 BROT.°/30m               0.45:  Build Rotating 
 BS  .in                 12.25:  Bit Size 
 BSZ .in                 12.25:  Bit Size 
 BTPL.psig              600.00:  Bit Press Loss 
 CABU.                     Yes:  Customer Abuse 
 COMM.                     ü¢v:  Run Comments 1 
 TCS .hr                150.00:  Time Ciculation Ended 
 CV  .mps                 1.24:  Crit Velocity 
 CVMX.mps                 1.66:  Max Crit Veloc 
 DD1 .         Intigam Rahimov:  Direct Drillr 1 
 DD2 .            Azer Ravavov:  Direct Drillr 2 
 DD3 .              Samir Abas:  Direct Drillr 3 
 DDSV.               Geo-Pilot:  DD Service 
 DEFF.%                 100.00:  % Det Eff 
 DLRX.°/30m               1.57:  Dogleg Rot Max 
 DLSO.°/30m               0.00:  Dogleg Oriented 
 DLSX.°/30m               0.00:  Dogleg Str Max 
 DRET.      20.28.06 17-Sep-21:  Drill End Time 
 DRST.      20.27.35 10-Sep-21:  Drill Start Tim 
 DTIM.hr                 54.00:  Time Drilling 
 EDEP.m                5260.00:  End Depth 
 ENG1.      Bakhtiyar Jabbarli:  Engineer 1 
 ENG2.      Natik Hasanaghayev:  Engineer 2 
 ENG3.           Royal Nasirov:  Engineer 3 
 ETIM.      20.27.55 18-Sep-21:  End Time 
 FLOI.gpm              1100.00:  Flow In 
 FLON.gpm               800.00:  Flow In Min 
 FLOS.cptm                0.00:  Fluid Loss 
 FLOX.gpm              1200.00:  Flow In Max 
 DFT .        Mineral Oil Base:  Mud Type 
 HPRE.                      No:  High Pressure 
 HTEM.                      No:  High Temp 
 HYDO.m                   1.80:  Hydro Offset 
 IFIN.deg                72.31:  Inc, Final 
 IMAX.deg                72.36:  Inc Max 
 IMIN.deg                69.36:  Inc Min 
 IMND.m                4192.96:  Inc Min Depth 
 IMXD.m                5128.36:  Inc Max Depth 
 JARR.                      No:  Jarring 
 LETM.      20.29.00 17-Sep-21:  Log End Time 
 LOST.hr                     0:  Lost Rig Time 
 LSTM.      20.27.00 10-Sep-21:  Log Start Time 
 MDCL.ppm            227000.00:  Mud Chlorides 
 MDES.     Inversion Oil/Synthetic:  Mud Desc 
 DFD .sg                  1.45:  Mud Density 
 MDMN.sg                  1.45:  Dens Mud Min 
 MDMX.sg                  1.45:  Dens Mud Max 
 MOIL.                    70.5:  Run Mud Oil % 
 MOWR.                   71:29:  Run Mud OWR 
 MSND.                     0.3:  Run Mud Sand % 
 MSOL.                    19.8:  Run Mud Solids% 
 DFV .spqt               80.00:  Mud Viscosity 
 MWOD.in                  8.00:  MWD Tool OD 
 MWSI.                     Yes:  Serv Intrp, MWD 
 OTIM.hr                180.00:  Time Operating 
 PCON.           Look Like New:  Pad Condition 
 PMAX.psia             9910.94:  Press Op, Max 
 PV  .cP                 35.00:  Mud PV 
 RUN .                    1000:  Run Number 
 ROPA.m/hr               18.00:  ROP Avg 
 ROPN.m/hr                8.00:  ROP Min 
 ROPX.m/hr               23.00:  ROP Max 
 RPMA.rpm               150.00:  RPM Surface Avg 
 RPMN.rpm               120.00:  RPM Surface Min 
 RPMX.rpm               160.00:  RPM Surface Max 
 RRUN.                    L503:  Rig Run Number 
 RTIM.hr                  5.00:  Time Reaming 
 SAZI.deg               298.42:  Azm, Start 
 SDEP.m                3870.00:  Start Depth 
 SIDD.                      No:  Serv Intrp, DD 
 SINC.deg                69.57:  Inc, Start 
 SPPA.psig             5500.00:  SPP Avg 
 SPPN.psig             4400.00:  SPP Min 
 SPPX.psig             5800.00:  SPP Max 
 STIM.      15.29.39 09-Sep-21:  Start Time 
 SVCS.                 DD, MWD:  Services 
 SVER.                    9.20:  Sperry Version 
 TDAT.m                5260.00:  Tot Depth Attmp 
 TDDF.                      No:  Trip for DD 
 TDLG.m                1390.00:  Tot Depth Loggd 
 TFF .                      No:  Trip for Fail 
 TQAA.f-kp               22.00:  Torque Abs Avg 
 TQAN.f-kp               13.00:  Torque Abs Min 
 TQAX.f-kp               27.00:  Torque Abs Max 
 TRRT.°/30m               1.60:  Turn Rotating 
 MRT .                  EWR-M5:  Maximum Recorded Temperature 
 TTMX.degC               92.00:  Max Tool Temp 
 VS01.                12330975:  Virtual Str1 SN 
 VS02.                90658671:  Virtual Str2 SN 
 VS03.                90658508:  Virtual Str3 SN 
 VS04.                90660974:  Virtual Str4 SN 
 VS05.                90654675:  Virtual Str5 SN 
 WBMN.klb                15.00:  WOB Min 
 WITN.     Alexander Yadullayev:  Customer Rep 
 WITN.           Adil Mammadov:  Customer Rep 2 
 WOBA.klb                17.00:  WOB Avg 
 WOBX.klb                18.00:  WOB Max 
 YP  .lhf2               31.00:  Yield Point 
~Curve Information Block
#MNEM.UNIT                 API CODE     Curve Description
#---------               -----------    ---------------------------
 TIME.HHMMSS            00 000 000 000:  GT Time & Date
 GTDEPTH.m              00 000 000 000:  GT Depth
 GTPQH.psia             00 000 000 000:  GT HR Quartz Pressure
 GTTQ.degC              00 000 000 000:  GT Quartz Temperature
 GTTN.NONE              00 000 000 000:  GT Test Number
 GTET.sec               00 000 000 000:  GT Elapsed Test Time
 GTTVD.m                00 000 000 000:  GT True Vertical Depth
#Other Information
#
#WARRANTY: Halliburton will use its best efforts to furnish customers with 
#accurate information and interpretations that are part of, and incident to, the services 
#provided.  However, Halliburton cannot and does not warrant the accuracy 
#or correctness of such information and interpretations.  Under no circumstances should any 
#such information or interpretation be relied upon as the sole basis for any drilling, 
#completion, production, or financial decision or any procedure involving any risk to the 
#safety of any drilling venture, drilling rig or its crew or any other third party.  The 
#Customer has full responsibility for all drilling, completion and production operation.  
#Halliburton makes no representations or warranties, either expressed or 
#implied, including, but not limited to, the implied warranties of merchantability or fitness 
#for a particular purpose, with respect to the services rendered.  In no event will 
#Halliburton be liable for failure to obtain any particular results or for 
#any damages, including, but not limited to, indirect, special or consequential damages, 
#resulting from the use of any information or interpretation provided by Halliburton.
#
~A           TIME           GTDEPTH  GTPQH  GTTQ  GTTN  GTET   GTTVD  
# ...
   01:59:12.000.17-Sep-2021 5127.00 5567.34 79.83 1.00 437.00 2605.20
   01:59:12.200.17-Sep-2021 5127.00 5567.34 79.83 1.00 437.20 2605.20
   01:59:12.400.17-Sep-2021 5127.00 5567.13 79.83 1.00 437.40 2605.20
   01:59:12.600.17-Sep-2021 5127.00 5568.10 79.83 1.00 437.60 2605.20
   01:59:12.800.17-Sep-2021 5127.00 5567.54 79.83 1.00 437.80 2605.20
   01:59:13.000.17-Sep-2021 5127.00 5567.50 79.83 1.00 438.00 2605.20
   01:59:13.200.17-Sep-2021 5127.00 5567.50 79.83 1.00 438.20 2605.20
   01:59:13.400.17-Sep-2021 5127.00 5568.67 79.83 1.00 438.40 2605.20
   01:59:13.600.17-Sep-2021 5127.00 5567.42 79.83 1.00 438.60 2605.20
   01:59:13.800.17-Sep-2021 5127.00 5567.00 79.83 1.00 438.80 2605.20
   01:59:14.000.17-Sep-2021 5127.00 5567.44 79.83 1.00 439.00 2605.20
   01:59:14.200.17-Sep-2021 5127.00 5567.44 79.83 1.00 439.20 2605.20
   01:59:14.400.17-Sep-2021 5127.00 5567.22 79.83 1.00 439.40 2605.20
   01:59:14.600.17-Sep-2021 5127.00 5567.25 79.83 1.00 439.60 2605.20
   01:59:14.800.17-Sep-2021 5127.00 5567.17 79.83 1.00 439.80 2605.20
   01:59:15.000.17-Sep-2021 5127.00 5567.18 79.83 1.00 440.00 2605.20
   01:59:15.200.17-Sep-2021 5127.00 5567.18 79.83 1.00 440.20 2605.20
   01:59:15.400.17-Sep-2021 5127.00 5567.51 79.83 1.00 440.40 2605.20
   01:59:15.600.17-Sep-2021 5127.00 5567.58 79.83 1.00 440.60 2605.20
   01:59:15.800.17-Sep-2021 5127.00 5567.57 79.83 1.00 440.80 2605.20
   01:59:16.000.17-Sep-2021 5127.00 5567.56 79.83 1.00 441.00 2605.20
   01:59:16.200.17-Sep-2021 5127.00 5567.56 79.83 1.00 441.20 2605.20
   01:59:16.400.17-Sep-2021 5127.00 5567.03 79.83 1.00 441.40 2605.20
   01:59:16.600.17-Sep-2021 5127.00 5568.63 79.83 1.00 441.60 2605.20
   01:59:16.800.17-Sep-2021 5127.00 5568.29 79.83 1.00 441.80 2605.20
   01:59:17.000.17-Sep-2021 5127.00 5567.78 79.83 1.00 442.00 2605.20
   01:59:17.200.17-Sep-2021 5127.00 5567.78 79.83 1.00 442.20 2605.20
   01:59:17.400.17-Sep-2021 5127.00 5567.55 79.83 1.00 442.40 2605.20
   01:59:17.600.17-Sep-2021 5127.00 5567.26 79.83 1.00 442.60 2605.20
   01:59:17.800.17-Sep-2021 5127.00 5567.14 79.83 1.00 442.80 2605.20
   01:59:18.000.17-Sep-2021 5127.00 5567.16 79.83 1.00 443.00 2605.20
   01:59:18.200.17-Sep-2021 5127.00 5567.16 79.83 1.00 443.20 2605.20
   01:59:18.400.17-Sep-2021 5127.00 5567.22 79.83 1.00 443.40 2605.20
   01:59:18.600.17-Sep-2021 5127.00 5567.24 79.83 1.00 443.60 2605.20
   01:59:18.800.17-Sep-2021 5127.00 5567.31 79.83 1.00 443.80 2605.20
   01:59:19.000.17-Sep-2021 5127.00 5567.37 79.83 1.00 444.00 2605.20
   01:59:19.200.17-Sep-2021 5127.00 5567.37 79.83 1.00 444.20 2605.20
   01:59:19.400.17-Sep-2021 5127.00 5567.70 79.83 1.00 444.40 2605.20
   01:59:19.600.17-Sep-2021 5127.00 5568.48 79.83 1.00 444.60 2605.20
   01:59:19.800.17-Sep-2021 5127.00 5567.74 79.83 1.00 444.80 2605.20
   01:59:20.000.17-Sep-2021 5127.00 5568.70 79.83 1.00 445.00 2605.20
   01:59:20.200.17-Sep-2021 5127.00 5568.70 79.83 1.00 445.20 2605.20
   01:59:20.400.17-Sep-2021 5127.00 5567.63 79.83 1.00 445.40 2605.20
   01:59:20.600.17-Sep-2021 5127.00 5567.72 79.83 1.00 445.60 2605.20
   01:59:20.800.17-Sep-2021 5127.00 5567.48 79.83 1.00 445.80 2605.20
   01:59:21.000.17-Sep-2021 5127.00 5567.16 79.83 1.00 446.00 2605.20
   01:59:21.200.17-Sep-2021 5127.00 5567.16 79.83 1.00 446.20 2605.20
   01:59:21.400.17-Sep-2021 5127.00 5567.68 79.83 1.00 446.40 2605.20
   01:59:21.600.17-Sep-2021 5127.00 5566.95 79.83 1.00 446.60 2605.20
   01:59:21.800.17-Sep-2021 5127.00 5566.89 79.83 1.00 446.80 2605.20
   01:59:22.000.17-Sep-2021 5127.00 5567.26 79.83 1.00 447.00 2605.20
   01:59:22.200.17-Sep-2021 5127.00 5567.26 79.83 1.00 447.20 2605.20
   01:59:22.400.17-Sep-2021 5127.00 5566.61 79.83 1.00 447.40 2605.20
   01:59:22.600.17-Sep-2021 5127.00 5567.45 79.83 1.00 447.60 2605.20
   01:59:22.800.17-Sep-2021 5127.00 5567.27 79.83 1.00 447.80 2605.20
   01:59:23.000.17-Sep-2021 5127.00 5569.19 79.83 1.00 448.00 2605.20
   01:59:23.200.17-Sep-2021 5127.00 5569.19 79.83 1.00 448.20 2605.20
   01:59:23.400.17-Sep-2021 5127.00 5567.99 79.83 1.00 448.40 2605.20
   01:59:23.600.17-Sep-2021 5127.00 5567.27 79.83 1.00 448.60 2605.20
   01:59:23.800.17-Sep-2021 5127.00 5566.79 79.83 1.00 448.80 2605.20
   01:59:24.000.17-Sep-2021 5127.00 5566.92 79.83 1.00 449.00 2605.20
   01:59:24.200.17-Sep-2021 5127.00 5566.92 79.83 1.00 449.20 2605.20
   01:59:24.400.17-Sep-2021 5127.00 5567.00 79.83 1.00 449.40 2605.20
   01:59:24.600.17-Sep-2021 5127.00 5566.81 79.83 1.00 449.60 2605.20
   01:59:24.800.17-Sep-2021 5127.00 5566.82 79.83 1.00 449.80 2605.20
   01:59:25.000.17-Sep-2021 5127.00 5566.86 79.83 1.00 450.00 2605.20
   01:59:25.200.17-Sep-2021 5127.00 5566.86 79.83 1.00 450.20 2605.20
   01:59:25.400.17-Sep-2021 5127.00 5567.29 79.83 1.00 450.40 2605.20
   01:59:25.600.17-Sep-2021 5127.00 5567.28 79.83 1.00 450.60 2605.20
   01:59:25.800.17-Sep-2021 5127.00 5567.28 79.83 1.00 450.80 2605.20
   01:59:26.000.17-Sep-2021 5127.00 5567.29 79.83 1.00 451.00 2605.20
   01:59:26.200.17-Sep-2021 5127.00 5567.29 79.83 1.00 451.20 2605.20
   01:59:26.400.17-Sep-2021 5127.00 5568.69 79.83 1.00 451.40 2605.20
   01:59:26.600.17-Sep-2021 5127.00 5567.89 79.83 1.00 451.60 2605.20
   01:59:26.800.17-Sep-2021 5127.00 5567.69 79.83 1.00 451.80 2605.20
   01:59:27.000.17-Sep-2021 5127.00 5567.65 79.83 1.00 452.00 2605.20
   01:59:27.200.17-Sep-2021 5127.00 5567.65 79.83 1.00 452.20 2605.20
   01:59:27.400.17-Sep-2021 5127.00 5567.05 79.83 1.00 452.40 2605.20
   01:59:27.600.17-Sep-2021 5127.00 5567.04 79.83 1.00 452.60 2605.20
   01:59:27.800.17-Sep-2021 5127.00 5566.98 79.83 1.00 452.80 2605.20
   01:59:28.000.17-Sep-2021 5127.00 5566.97 79.83 1.00 453.00 2605.20
   01:59:28.200.17-Sep-2021 5127.00 5566.97 79.83 1.00 453.20 2605.20
   01:59:28.400.17-Sep-2021 5127.00 5567.07 79.83 1.00 453.40 2605.20
   01:59:28.600.17-Sep-2021 5127.00 5567.14 79.83 1.00 453.60 2605.20
   01:59:28.800.17-Sep-2021 5127.00 5567.15 79.83 1.00 453.80 2605.20
   01:59:29.000.17-Sep-2021 5127.00 5567.21 79.83 1.00 454.00 2605.20
   01:59:29.200.17-Sep-2021 5127.00 5567.21 79.83 1.00 454.20 2605.20
   01:59:29.400.17-Sep-2021 5127.00 5567.57 79.83 1.00 454.40 2605.20
   01:59:29.600.17-Sep-2021 5127.00 5568.71 79.83 1.00 454.60 2605.20
   01:59:29.800.17-Sep-2021 5127.00 5567.63 79.83 1.00 454.80 2605.20
   01:59:30.000.17-Sep-2021 5127.00 5568.05 79.83 1.00 455.00 2605.20
   01:59:30.200.17-Sep-2021 5127.00 5568.05 79.83 1.00 455.20 2605.20
   01:59:30.400.17-Sep-2021 5127.00 5567.75 79.83 1.00 455.40 2605.20
   01:59:30.600.17-Sep-2021 5127.00 5567.39 79.83 1.00 455.60 2605.20
   01:59:30.800.17-Sep-2021 5127.00 5567.05 79.83 1.00 455.80 2605.20
   01:59:31.000.17-Sep-2021 5127.00 5568.69 79.83 1.00 456.00 2605.20
   01:59:31.200.17-Sep-2021 5127.00 5568.69 79.83 1.00 456.20 2605.20
   01:59:31.400.17-Sep-2021 5127.00 5567.39 79.83 1.00 456.40 2605.20
   01:59:31.600.17-Sep-2021 5127.00 5567.10 79.83 1.00 456.60 2605.20
   01:59:31.800.17-Sep-2021 5127.00 5567.04 79.83 1.00 456.80 2605.20
   01:59:32.000.17-Sep-2021 5127.00 5567.72 79.83 1.00 457.00 2605.20
   01:59:32.200.17-Sep-2021 5127.00 5567.72 79.83 1.00 457.20 2605.20
   01:59:32.400.17-Sep-2021 5127.00 5567.69 79.83 1.00 457.40 2605.20
   01:59:32.600.17-Sep-2021 5127.00 5567.05 79.83 1.00 457.60 2605.20
   01:59:32.800.17-Sep-2021 5127.00 5567.10 79.83 1.00 457.80 2605.20
   01:59:33.000.17-Sep-2021 5127.00 5567.85 79.83 1.00 458.00 2605.20
   01:59:33.200.17-Sep-2021 5127.00 5567.85 79.83 1.00 458.20 2605.20
   01:59:33.400.17-Sep-2021 5127.00 5567.00 79.83 1.00 458.40 2605.20
   01:59:33.600.17-Sep-2021 5127.00 5566.60 79.83 1.00 458.60 2605.20
   01:59:33.800.17-Sep-2021 5127.00 5566.96 79.83 1.00 458.80 2605.20
   01:59:34.000.17-Sep-2021 5127.00 5566.87 79.83 1.00 459.00 2605.20
   01:59:34.200.17-Sep-2021 5127.00 5566.87 79.83 1.00 459.20 2605.20
   01:59:34.400.17-Sep-2021 5127.00 5566.79 79.83 1.00 459.40 2605.20
   01:59:34.600.17-Sep-2021 5127.00 5566.69 79.83 1.00 459.60 2605.20
   01:59:34.800.17-Sep-2021 5127.00 5566.72 79.83 1.00 459.80 2605.20
