~Version Information
 VERS.                  2.0:   CWLS log ASCII Standard -VERSION 2.0
 WRAP.                   NO:   One line per depth step
~Well Information Block
#MNEM.UNIT     VALUE/NAME     DESCRIPTION
#---------     -----------    ---------------------------
 STRT.S             04:34:50 17-Sep-21: START TIME 04:34:50 17-Sep-21
 STOP.S             04:43:20 17-Sep-21: STOP TIME  04:43:20 17-Sep-21
 STEP.S                   0.00: STEP TIME
 NULL.                 -999.25: NULL VALUE
 DFWT.                        :  DIST FWL TEXT
 DFST.                        :  DIST FSL TEXT
 DMF .             Drill Floor:  DRILL MEAS FROM
 STIM.      10.59.12 05-Jul-21:  START TIME
 DATE.      10.59.12 10-Sep-21:  END TIME
 SPUD.               05-Jul-21:  SPUD DATE
 NREF.                    Grid:  NORTH REFERENCE
 HPTY.       Minimum Curvature:  HOLE POS TYPE
 DMOD.             Drill Model:  DRILL MOD DESC
 SVYD.                  Survey:  SURVEY DESC
 ILTD.               Lithology:  INTERP LTH DESC
 FTOP.          Formation Tops:  FORM TOPS DESC
 RIG .                     DWG:  RIG NAME
 PDAT.          Mean Sea Level:  PERMANENT DATUM
 FLD .                     ACG:  FIELD NAME
 SON .        AZ-XX-0907115008:  JOB NUMBER
 CTRY.              Azerbaijan:  COUNTRY NAME
 WELL.                    E35A:  WELL NAME
 SRVC.          TURAN DRILLING:  CONTRACTOR
 COMP.     BP Exploration (Caspian Sea LTD):  COMPANY
 UWI .                     N/A:  UNIQUE WELL IDENTIFIER
 API .                     N/A:  API NUMBER
 MDS .        Operator Entered:  MAG DATA SOURCE
 BASE.              Azerbaijan:  LOGGING EQUIPMENT BASE LOCATION
 REGN.                   EESSA:  REGION
 PROV.                    Baku:  PROVINCE
 STAT.                    Baku:  STATE NAME
 MWDS.                    Baku:  MWD SHOP
 JOBN.        AZ-XX-0907115008:  JOB TICKET NUMB
 DOE .                     N/A:  DOE NUMBER
 DCON.         Sperry Drilling:  DIRECTNL CONTR
 UNIT.                     N/A:  LOGGING EQUIPMENT ID
 WTYP.                Deviated:  WELL TYPE
 CNTY.                        :  COUNTY
 LOC .                        :  LOCATION
 LMF .             Drill Floor:  LOG MEASURED FROM
 TVDS.m                  43.16:  TVDSS CORRECTN
 LATI.deg                40.17:  LATITUDE
 LONG.deg                51.17:  LONGITUDE
 WHNS.m                  10.51:  WELL HEAD N/S
 WHEW.m                 -14.82:  WELL HEAD E/W
 UTMX.m              514336.92:  UTM X
 UTMY.m             4448618.56:  UTM Y
 DFWL.m                   0.00:  DISTANCE FWL
 DFSL.m                   0.00:  DISTANCE FSL
 SDEP.m                 849.00:  START DEPTH
 TDD .m                2862.00:  TOTAL DEPTH (DRILLER)
 VSDR.deg               292.10:  VERT SEC DIRECT
 GVFD.g                   1.00:  GRAVITY FIELD
 MFLD.nT              50382.00:  MAGNETIC FIELD
 MDIP.deg                59.68:  MAGNETIC DIP
 MDEC.deg                 6.66:  MAGNETIC DECL
 GRDC.deg                 0.09:  GRID CORRECTION
 AZTC.deg                 6.57:  AZM TOTAL CORR
 EPD .m                   0.00:  ELEVATION
 EGL .m                   0.00:  GROUND ELEVATION
 WDMS.m                 176.20:  WD ELEV
 APD .m                  43.16:  DEPTH ABOVE PD
 DEP .m                 363.42:  DEPTH
 AGAP.m                  43.16:  AIR GAP
 VSEW.m                 -14.82:  VERT SEC E/W
 VSNS.m                  10.51:  VERT SEC N/S
 EKB .m                  43.16:  KB ELEVATION
 EDF .m                  43.16:  DF ELEVATION
 TDL .m                1390.00:  TOTAL DEPTH (LOGGER)
 VSC .                       0:  VS TO CLOSURE
 MAGU.                 1855871:  MAGUTM CHECKSUM
~Parameter Information Block
#MNEM.UNIT       Value        Description
#---------     -----------    ---------------------------
 AV  .mps                 2.28:  Ann Velocity 
 AVMX.mps                 2.67:  Max Ann Veloc 
 AZIF.deg               305.00:  Azm, Final 
 BHAT.        Rotary Steerable:  BHA Type 
 BROT.°/30m               0.45:  Build Rotating 
 BS  .in                 12.25:  Bit Size 
 BSZ .in                 12.25:  Bit Size 
 BTPL.psig              600.00:  Bit Press Loss 
 CABU.                     Yes:  Customer Abuse 
 COMM.                     ÌN:  Run Comments 1 
 TCS .hr                150.00:  Time Ciculation Ended 
 CV  .mps                 1.24:  Crit Velocity 
 CVMX.mps                 1.66:  Max Crit Veloc 
 DD1 .         Intigam Rahimov:  Direct Drillr 1 
 DD2 .            Azer Ravavov:  Direct Drillr 2 
 DD3 .              Samir Abas:  Direct Drillr 3 
 DDSV.               Geo-Pilot:  DD Service 
 DEFF.%                 100.00:  % Det Eff 
 DLRX.°/30m               1.57:  Dogleg Rot Max 
 DLSO.°/30m               0.00:  Dogleg Oriented 
 DLSX.°/30m               0.00:  Dogleg Str Max 
 DRET.      20.28.06 17-Sep-21:  Drill End Time 
 DRST.      20.27.35 10-Sep-21:  Drill Start Tim 
 DTIM.hr                 54.00:  Time Drilling 
 EDEP.m                5260.00:  End Depth 
 ENG1.      Bakhtiyar Jabbarli:  Engineer 1 
 ENG2.      Natik Hasanaghayev:  Engineer 2 
 ENG3.           Royal Nasirov:  Engineer 3 
 ETIM.      20.27.55 18-Sep-21:  End Time 
 FLOI.gpm              1100.00:  Flow In 
 FLON.gpm               800.00:  Flow In Min 
 FLOS.cptm                0.00:  Fluid Loss 
 FLOX.gpm              1200.00:  Flow In Max 
 DFT .        Mineral Oil Base:  Mud Type 
 HPRE.                      No:  High Pressure 
 HTEM.                      No:  High Temp 
 HYDO.m                   1.80:  Hydro Offset 
 IFIN.deg                72.31:  Inc, Final 
 IMAX.deg                72.36:  Inc Max 
 IMIN.deg                69.36:  Inc Min 
 IMND.m                4192.96:  Inc Min Depth 
 IMXD.m                5128.36:  Inc Max Depth 
 JARR.                      No:  Jarring 
 LETM.      20.29.00 17-Sep-21:  Log End Time 
 LOST.hr                     0:  Lost Rig Time 
 LSTM.      20.27.00 10-Sep-21:  Log Start Time 
 MDCL.ppm            227000.00:  Mud Chlorides 
 MDES.     Inversion Oil/Synthetic:  Mud Desc 
 DFD .sg                  1.45:  Mud Density 
 MDMN.sg                  1.45:  Dens Mud Min 
 MDMX.sg                  1.45:  Dens Mud Max 
 MOIL.                    70.5:  Run Mud Oil % 
 MOWR.                   71:29:  Run Mud OWR 
 MSND.                     0.3:  Run Mud Sand % 
 MSOL.                    19.8:  Run Mud Solids% 
 DFV .spqt               80.00:  Mud Viscosity 
 MWOD.in                  8.00:  MWD Tool OD 
 MWSI.                     Yes:  Serv Intrp, MWD 
 OTIM.hr                180.00:  Time Operating 
 PCON.           Look Like New:  Pad Condition 
 PMAX.psia             9910.94:  Press Op, Max 
 PV  .cP                 35.00:  Mud PV 
 RUN .                    1000:  Run Number 
 ROPA.m/hr               18.00:  ROP Avg 
 ROPN.m/hr                8.00:  ROP Min 
 ROPX.m/hr               23.00:  ROP Max 
 RPMA.rpm               150.00:  RPM Surface Avg 
 RPMN.rpm               120.00:  RPM Surface Min 
 RPMX.rpm               160.00:  RPM Surface Max 
 RRUN.                    L503:  Rig Run Number 
 RTIM.hr                  5.00:  Time Reaming 
 SAZI.deg               298.42:  Azm, Start 
 SDEP.m                3870.00:  Start Depth 
 SIDD.                      No:  Serv Intrp, DD 
 SINC.deg                69.57:  Inc, Start 
 SPPA.psig             5500.00:  SPP Avg 
 SPPN.psig             4400.00:  SPP Min 
 SPPX.psig             5800.00:  SPP Max 
 STIM.      15.29.39 09-Sep-21:  Start Time 
 SVCS.                 DD, MWD:  Services 
 SVER.                    9.20:  Sperry Version 
 TDAT.m                5260.00:  Tot Depth Attmp 
 TDDF.                      No:  Trip for DD 
 TDLG.m                1390.00:  Tot Depth Loggd 
 TFF .                      No:  Trip for Fail 
 TQAA.f-kp               22.00:  Torque Abs Avg 
 TQAN.f-kp               13.00:  Torque Abs Min 
 TQAX.f-kp               27.00:  Torque Abs Max 
 TRRT.°/30m               1.60:  Turn Rotating 
 MRT .                  EWR-M5:  Maximum Recorded Temperature 
 TTMX.degC               92.00:  Max Tool Temp 
 VS01.                12330975:  Virtual Str1 SN 
 VS02.                90658671:  Virtual Str2 SN 
 VS03.                90658508:  Virtual Str3 SN 
 VS04.                90660974:  Virtual Str4 SN 
 VS05.                90654675:  Virtual Str5 SN 
 WBMN.klb                15.00:  WOB Min 
 WITN.     Alexander Yadullayev:  Customer Rep 
 WITN.           Adil Mammadov:  Customer Rep 2 
 WOBA.klb                17.00:  WOB Avg 
 WOBX.klb                18.00:  WOB Max 
 YP  .lhf2               31.00:  Yield Point 
~Curve Information Block
#MNEM.UNIT                 API CODE     Curve Description
#---------               -----------    ---------------------------
 TIME.HHMMSS            00 000 000 000:  GT Time & Date
 GTDEPTH.m              00 000 000 000:  GT Depth
 GTPQH.psia             00 000 000 000:  GT HR Quartz Pressure
 GTTQ.degC              00 000 000 000:  GT Quartz Temperature
 GTTN.NONE              00 000 000 000:  GT Test Number
 GTET.sec               00 000 000 000:  GT Elapsed Test Time
 GTTVD.m                00 000 000 000:  GT True Vertical Depth
#Other Information
#
#WARRANTY: Halliburton will use its best efforts to furnish customers with 
#accurate information and interpretations that are part of, and incident to, the services 
#provided.  However, Halliburton cannot and does not warrant the accuracy 
#or correctness of such information and interpretations.  Under no circumstances should any 
#such information or interpretation be relied upon as the sole basis for any drilling, 
#completion, production, or financial decision or any procedure involving any risk to the 
#safety of any drilling venture, drilling rig or its crew or any other third party.  The 
#Customer has full responsibility for all drilling, completion and production operation.  
#Halliburton makes no representations or warranties, either expressed or 
#implied, including, but not limited to, the implied warranties of merchantability or fitness 
#for a particular purpose, with respect to the services rendered.  In no event will 
#Halliburton be liable for failure to obtain any particular results or for 
#any damages, including, but not limited to, indirect, special or consequential damages, 
#resulting from the use of any information or interpretation provided by Halliburton.
#
~A           TIME           GTDEPTH  GTPQH  GTTQ  GTTN  GTET   GTTVD  
   04:34:50.023.17-Sep-2021 5094.00 5581.77 80.81 4.00   0.00 2595.14
   04:34:50.223.17-Sep-2021 5094.00 5581.77 80.81 4.00   0.20 2595.14
   04:34:50.424.17-Sep-2021 5094.00 5581.77 80.81 4.00   0.40 2595.14
   04:34:50.624.17-Sep-2021 5094.00 5581.26 80.81 4.00   0.60 2595.14
   04:34:50.824.17-Sep-2021 5094.00 5576.02 80.81 4.00   0.80 2595.14
   04:34:51.024.17-Sep-2021 5094.00 5577.50 80.81 4.00   1.00 2595.14
   04:34:51.225.17-Sep-2021 5094.00 5577.50 80.81 4.00   1.20 2595.14
   04:34:51.425.17-Sep-2021 5094.00 5577.80 80.81 4.00   1.40 2595.14
   04:34:51.625.17-Sep-2021 5094.00 5577.51 80.81 4.00   1.60 2595.14
   04:34:51.825.17-Sep-2021 5094.00 5578.14 80.81 4.00   1.80 2595.14
   04:34:52.025.17-Sep-2021 5094.00 5578.40 80.81 4.00   2.00 2595.14
   04:34:52.226.17-Sep-2021 5094.00 5578.40 80.81 4.00   2.20 2595.14
   04:34:52.426.17-Sep-2021 5094.00 5580.21 80.81 4.00   2.40 2595.14
   04:34:52.626.17-Sep-2021 5094.00 5584.51 80.81 4.00   2.60 2595.14
   04:34:52.826.17-Sep-2021 5094.00 5579.98 80.81 4.00   2.80 2595.14
   04:34:53.026.17-Sep-2021 5094.00 5582.91 80.81 4.00   3.00 2595.14
   04:34:53.227.17-Sep-2021 5094.00 5582.91 80.81 4.00   3.20 2595.14
   04:34:53.427.17-Sep-2021 5094.00 5582.31 80.81 4.00   3.40 2595.14
   04:34:53.627.17-Sep-2021 5094.00 5585.82 80.80 4.00   3.60 2595.14
   04:34:53.827.17-Sep-2021 5094.00 5581.48 80.80 4.00   3.80 2595.14
   04:34:54.028.17-Sep-2021 5094.00 5583.42 80.80 4.00   4.00 2595.14
   04:34:54.228.17-Sep-2021 5094.00 5583.42 80.80 4.00   4.20 2595.14
   04:34:54.428.17-Sep-2021 5094.00 5583.46 80.80 4.00   4.40 2595.14
   04:34:54.628.17-Sep-2021 5094.00 5582.83 80.80 4.00   4.60 2595.14
   04:34:54.828.17-Sep-2021 5094.00 5583.33 80.80 4.00   4.81 2595.14
   04:34:55.029.17-Sep-2021 5094.00 5582.58 80.80 4.00   5.01 2595.14
   04:34:55.229.17-Sep-2021 5094.00 5582.58 80.80 4.00   5.21 2595.14
   04:34:55.429.17-Sep-2021 5094.00 5582.30 80.80 4.00   5.41 2595.14
   04:34:55.629.17-Sep-2021 5094.00 5582.25 80.80 4.00   5.61 2595.14
   04:34:55.829.17-Sep-2021 5094.00 5582.54 80.80 4.00   5.81 2595.14
   04:34:56.030.17-Sep-2021 5094.00 5582.42 80.80 4.00   6.01 2595.14
   04:34:56.230.17-Sep-2021 5094.00 5582.42 80.80 4.00   6.21 2595.14
   04:34:56.430.17-Sep-2021 5094.00 5583.05 80.80 4.00   6.41 2595.14
   04:34:56.630.17-Sep-2021 5094.00 5584.56 80.80 4.00   6.61 2595.14
   04:34:56.831.17-Sep-2021 5094.00 5584.47 80.80 4.00   6.81 2595.14
   04:34:57.031.17-Sep-2021 5094.00 5584.86 80.80 4.00   7.01 2595.14
   04:34:57.231.17-Sep-2021 5094.00 5584.86 80.80 4.00   7.21 2595.14
   04:34:57.431.17-Sep-2021 5094.00 5584.26 80.80 4.00   7.41 2595.14
   04:34:57.631.17-Sep-2021 5094.00 5587.60 80.80 4.00   7.61 2595.14
   04:34:57.832.17-Sep-2021 5094.00 5583.38 80.80 4.00   7.81 2595.14
   04:34:58.032.17-Sep-2021 5094.00 5585.13 80.79 4.00   8.01 2595.14
   04:34:58.232.17-Sep-2021 5094.00 5585.13 80.79 4.00   8.21 2595.14
   04:34:58.432.17-Sep-2021 5094.00 5583.60 80.79 4.00   8.41 2595.14
   04:34:58.632.17-Sep-2021 5094.00 5583.42 80.79 4.00   8.61 2595.14
   04:34:58.833.17-Sep-2021 5094.00 5582.92 80.79 4.00   8.81 2595.14
   04:34:59.033.17-Sep-2021 5094.00 5582.32 80.79 4.00   9.01 2595.14
   04:34:59.233.17-Sep-2021 5094.00 5582.32 80.79 4.00   9.21 2595.14
   04:34:59.433.17-Sep-2021 5094.00 5580.92 80.79 4.00   9.41 2595.14
   04:34:59.634.17-Sep-2021 5094.00 5580.69 80.79 4.00   9.61 2595.14
   04:34:59.834.17-Sep-2021 5094.00 5580.43 80.79 4.00   9.81 2595.14
   04:35:00.034.17-Sep-2021 5094.00 5580.04 80.79 4.00  10.01 2595.14
   04:35:00.234.17-Sep-2021 5094.00 5580.04 80.79 4.00  10.21 2595.14
   04:35:00.434.17-Sep-2021 5094.00 5579.35 80.79 4.00  10.41 2595.14
   04:35:00.635.17-Sep-2021 5094.00 5578.94 80.79 4.00  10.61 2595.14
   04:35:00.835.17-Sep-2021 5094.00 5578.83 80.79 4.00  10.81 2595.14
   04:35:01.035.17-Sep-2021 5094.00 5578.44 80.79 4.00  11.01 2595.14
   04:35:01.235.17-Sep-2021 5094.00 5578.44 80.79 4.00  11.21 2595.14
   04:35:01.436.17-Sep-2021 5094.00 5578.24 80.79 4.00  11.41 2595.14
   04:35:01.636.17-Sep-2021 5094.00 5578.80 80.79 4.00  11.61 2595.14
   04:35:01.836.17-Sep-2021 5094.00 5578.12 80.79 4.00  11.81 2595.14
   04:35:02.036.17-Sep-2021 5094.00 5577.84 80.79 4.00  12.01 2595.14
   04:35:02.236.17-Sep-2021 5094.00 5577.84 80.79 4.00  12.21 2595.14
   04:35:02.437.17-Sep-2021 5094.00 5578.01 80.79 4.00  12.41 2595.14
   04:35:02.637.17-Sep-2021 5094.00 5577.99 80.78 4.00  12.61 2595.14
   04:35:02.837.17-Sep-2021 5094.00 5578.20 80.78 4.00  12.81 2595.14
   04:35:03.037.17-Sep-2021 5094.00 5578.31 80.78 4.00  13.01 2595.14
   04:35:03.237.17-Sep-2021 5094.00 5578.31 80.78 4.00  13.21 2595.14
   04:35:03.438.17-Sep-2021 5094.00 5577.87 80.78 4.00  13.41 2595.14
   04:35:03.638.17-Sep-2021 5094.00 5577.51 80.78 4.00  13.61 2595.14
   04:35:03.838.17-Sep-2021 5094.00 5577.10 80.78 4.00  13.81 2595.14
   04:35:04.038.17-Sep-2021 5094.00 5577.09 80.78 4.00  14.02 2595.14
   04:35:04.239.17-Sep-2021 5094.00 5577.09 80.78 4.00  14.22 2595.14
   04:35:04.439.17-Sep-2021 5094.00 5576.63 80.78 4.00  14.42 2595.14
   04:35:04.639.17-Sep-2021 5094.00 5579.56 80.78 4.00  14.62 2595.14
   04:35:04.839.17-Sep-2021 5094.00 5574.51 80.78 4.00  14.82 2595.14
   04:35:05.039.17-Sep-2021 5094.00 5577.20 80.78 4.00  15.02 2595.14
   04:35:05.240.17-Sep-2021 5094.00 5577.20 80.78 4.00  15.22 2595.14
   04:35:05.440.17-Sep-2021 5094.00 5575.24 80.78 4.00  15.42 2595.14
   04:35:05.640.17-Sep-2021 5094.00 5575.20 80.78 4.00  15.62 2595.14
   04:35:05.840.17-Sep-2021 5094.00 5578.53 80.78 4.00  15.82 2595.14
   04:35:06.040.17-Sep-2021 5094.00 5574.21 80.78 4.00  16.02 2595.14
   04:35:06.241.17-Sep-2021 5094.00 5574.21 80.78 4.00  16.22 2595.14
   04:35:06.441.17-Sep-2021 5094.00 5576.19 80.78 4.00  16.42 2595.14
   04:35:06.641.17-Sep-2021 5094.00 5575.32 80.78 4.00  16.62 2595.14
   04:35:06.841.17-Sep-2021 5094.00 5575.67 80.77 4.00  16.82 2595.14
   04:35:07.042.17-Sep-2021 5094.00 5577.35 80.77 4.00  17.02 2595.14
   04:35:07.242.17-Sep-2021 5094.00 5577.35 80.77 4.00  17.22 2595.14
   04:35:07.442.17-Sep-2021 5094.00 5576.19 80.77 4.00  17.42 2595.14
   04:35:07.642.17-Sep-2021 5094.00 5575.20 80.77 4.00  17.62 2595.14
   04:35:07.842.17-Sep-2021 5094.00 5574.49 80.77 4.00  17.82 2595.14
   04:35:08.043.17-Sep-2021 5094.00 5577.61 80.77 4.00  18.02 2595.14
   04:35:08.243.17-Sep-2021 5094.00 5577.61 80.77 4.00  18.22 2595.14
   04:35:08.443.17-Sep-2021 5094.00 5574.85 80.77 4.00  18.42 2595.14
   04:35:08.643.17-Sep-2021 5094.00 5572.96 80.77 4.00  18.62 2595.14
   04:35:08.843.17-Sep-2021 5094.00 5576.19 80.77 4.00  18.82 2595.14
   04:35:09.044.17-Sep-2021 5094.00 5572.17 80.77 4.00  19.02 2595.14
   04:35:09.244.17-Sep-2021 5094.00 5572.17 80.77 4.00  19.22 2595.14
   04:35:09.444.17-Sep-2021 5094.00 5573.32 80.77 4.00  19.42 2595.14
   04:35:09.644.17-Sep-2021 5094.00 5573.85 80.77 4.00  19.62 2595.14
   04:35:09.845.17-Sep-2021 5094.00 5574.48 80.77 4.00  19.82 2595.14
   04:35:10.045.17-Sep-2021 5094.00 5574.38 80.77 4.00  20.02 2595.14
   04:35:10.245.17-Sep-2021 5094.00 5574.38 80.77 4.00  20.22 2595.14
   04:35:10.445.17-Sep-2021 5094.00 5574.38 80.77 4.00  20.42 2595.14
   04:35:10.645.17-Sep-2021 5094.00 5573.87 80.77 4.00  20.62 2595.14
   04:35:10.846.17-Sep-2021 5094.00 5574.18 80.77 4.00  20.82 2595.14
   04:35:11.046.17-Sep-2021 5094.00 5574.29 80.76 4.00  21.02 2595.14
   04:35:11.246.17-Sep-2021 5094.00 5574.29 80.76 4.00  21.22 2595.14
   04:35:11.446.17-Sep-2021 5094.00 5574.80 80.76 4.00  21.42 2595.14
   04:35:11.647.17-Sep-2021 5094.00 5574.92 80.76 4.00  21.62 2595.14
   04:35:11.847.17-Sep-2021 5094.00 5574.82 80.76 4.00  21.82 2595.14
   04:35:12.047.17-Sep-2021 5094.00 5575.00 80.76 4.00  22.02 2595.14
   04:35:12.247.17-Sep-2021 5094.00 5575.00 80.76 4.00  22.22 2595.14
   04:35:12.447.17-Sep-2021 5094.00 5574.54 80.76 4.00  22.42 2595.14
   04:35:12.648.17-Sep-2021 5094.00 5574.80 80.76 4.00  22.62 2595.14
   04:35:12.848.17-Sep-2021 5094.00 5578.41 80.76 4.00  22.82 2595.14
