~Version Information
 VERS.                  2.0:   CWLS log ASCII Standard -VERSION 2.0
 WRAP.                   NO:   One line per depth step
~Well Information Block
#MNEM.UNIT     VALUE/NAME     DESCRIPTION
#---------     -----------    ---------------------------
 STRT.S             05:03:12 17-Sep-21: START TIME 05:03:12 17-Sep-21
 STOP.S             05:12:54 17-Sep-21: STOP TIME  05:12:54 17-Sep-21
 STEP.S                   0.00: STEP TIME
 NULL.                 -999.25: NULL VALUE
 DFWT.                        :  DIST FWL TEXT
 DFST.                        :  DIST FSL TEXT
 DMF .             Drill Floor:  DRILL MEAS FROM
 STIM.      10.59.12 05-Jul-21:  START TIME
 DATE.      10.59.12 10-Sep-21:  END TIME
 SPUD.               05-Jul-21:  SPUD DATE
 NREF.                    Grid:  NORTH REFERENCE
 HPTY.       Minimum Curvature:  HOLE POS TYPE
 DMOD.             Drill Model:  DRILL MOD DESC
 SVYD.                  Survey:  SURVEY DESC
 ILTD.               Lithology:  INTERP LTH DESC
 FTOP.          Formation Tops:  FORM TOPS DESC
 RIG .                     DWG:  RIG NAME
 PDAT.          Mean Sea Level:  PERMANENT DATUM
 FLD .                     ACG:  FIELD NAME
 SON .        AZ-XX-0907115008:  JOB NUMBER
 CTRY.              Azerbaijan:  COUNTRY NAME
 WELL.                    E35A:  WELL NAME
 SRVC.          TURAN DRILLING:  CONTRACTOR
 COMP.     BP Exploration (Caspian Sea LTD):  COMPANY
 UWI .                     N/A:  UNIQUE WELL IDENTIFIER
 API .                     N/A:  API NUMBER
 MDS .        Operator Entered:  MAG DATA SOURCE
 BASE.              Azerbaijan:  LOGGING EQUIPMENT BASE LOCATION
 REGN.                   EESSA:  REGION
 PROV.                    Baku:  PROVINCE
 STAT.                    Baku:  STATE NAME
 MWDS.                    Baku:  MWD SHOP
 JOBN.        AZ-XX-0907115008:  JOB TICKET NUMB
 DOE .                     N/A:  DOE NUMBER
 DCON.         Sperry Drilling:  DIRECTNL CONTR
 UNIT.                     N/A:  LOGGING EQUIPMENT ID
 WTYP.                Deviated:  WELL TYPE
 CNTY.                        :  COUNTY
 LOC .                        :  LOCATION
 LMF .             Drill Floor:  LOG MEASURED FROM
 TVDS.m                  43.16:  TVDSS CORRECTN
 LATI.deg                40.17:  LATITUDE
 LONG.deg                51.17:  LONGITUDE
 WHNS.m                  10.51:  WELL HEAD N/S
 WHEW.m                 -14.82:  WELL HEAD E/W
 UTMX.m              514336.92:  UTM X
 UTMY.m             4448618.56:  UTM Y
 DFWL.m                   0.00:  DISTANCE FWL
 DFSL.m                   0.00:  DISTANCE FSL
 SDEP.m                 849.00:  START DEPTH
 TDD .m                2862.00:  TOTAL DEPTH (DRILLER)
 VSDR.deg               292.10:  VERT SEC DIRECT
 GVFD.g                   1.00:  GRAVITY FIELD
 MFLD.nT              50382.00:  MAGNETIC FIELD
 MDIP.deg                59.68:  MAGNETIC DIP
 MDEC.deg                 6.66:  MAGNETIC DECL
 GRDC.deg                 0.09:  GRID CORRECTION
 AZTC.deg                 6.57:  AZM TOTAL CORR
 EPD .m                   0.00:  ELEVATION
 EGL .m                   0.00:  GROUND ELEVATION
 WDMS.m                 176.20:  WD ELEV
 APD .m                  43.16:  DEPTH ABOVE PD
 DEP .m                 363.42:  DEPTH
 AGAP.m                  43.16:  AIR GAP
 VSEW.m                 -14.82:  VERT SEC E/W
 VSNS.m                  10.51:  VERT SEC N/S
 EKB .m                  43.16:  KB ELEVATION
 EDF .m                  43.16:  DF ELEVATION
 TDL .m                1390.00:  TOTAL DEPTH (LOGGER)
 VSC .                       0:  VS TO CLOSURE
 MAGU.                 1855871:  MAGUTM CHECKSUM
~Parameter Information Block
#MNEM.UNIT       Value        Description
#---------     -----------    ---------------------------
 AV  .mps                 2.28:  Ann Velocity 
 AVMX.mps                 2.67:  Max Ann Veloc 
 AZIF.deg               305.00:  Azm, Final 
 BHAT.        Rotary Steerable:  BHA Type 
 BROT.°/30m               0.45:  Build Rotating 
 BS  .in                 12.25:  Bit Size 
 BSZ .in                 12.25:  Bit Size 
 BTPL.psig              600.00:  Bit Press Loss 
 CABU.                     Yes:  Customer Abuse 
 COMM.                     äÏF:  Run Comments 1 
 TCS .hr                150.00:  Time Ciculation Ended 
 CV  .mps                 1.24:  Crit Velocity 
 CVMX.mps                 1.66:  Max Crit Veloc 
 DD1 .         Intigam Rahimov:  Direct Drillr 1 
 DD2 .            Azer Ravavov:  Direct Drillr 2 
 DD3 .              Samir Abas:  Direct Drillr 3 
 DDSV.               Geo-Pilot:  DD Service 
 DEFF.%                 100.00:  % Det Eff 
 DLRX.°/30m               1.57:  Dogleg Rot Max 
 DLSO.°/30m               0.00:  Dogleg Oriented 
 DLSX.°/30m               0.00:  Dogleg Str Max 
 DRET.      20.28.06 17-Sep-21:  Drill End Time 
 DRST.      20.27.35 10-Sep-21:  Drill Start Tim 
 DTIM.hr                 54.00:  Time Drilling 
 EDEP.m                5260.00:  End Depth 
 ENG1.      Bakhtiyar Jabbarli:  Engineer 1 
 ENG2.      Natik Hasanaghayev:  Engineer 2 
 ENG3.           Royal Nasirov:  Engineer 3 
 ETIM.      20.27.55 18-Sep-21:  End Time 
 FLOI.gpm              1100.00:  Flow In 
 FLON.gpm               800.00:  Flow In Min 
 FLOS.cptm                0.00:  Fluid Loss 
 FLOX.gpm              1200.00:  Flow In Max 
 DFT .        Mineral Oil Base:  Mud Type 
 HPRE.                      No:  High Pressure 
 HTEM.                      No:  High Temp 
 HYDO.m                   1.80:  Hydro Offset 
 IFIN.deg                72.31:  Inc, Final 
 IMAX.deg                72.36:  Inc Max 
 IMIN.deg                69.36:  Inc Min 
 IMND.m                4192.96:  Inc Min Depth 
 IMXD.m                5128.36:  Inc Max Depth 
 JARR.                      No:  Jarring 
 LETM.      20.29.00 17-Sep-21:  Log End Time 
 LOST.hr                     0:  Lost Rig Time 
 LSTM.      20.27.00 10-Sep-21:  Log Start Time 
 MDCL.ppm            227000.00:  Mud Chlorides 
 MDES.     Inversion Oil/Synthetic:  Mud Desc 
 DFD .sg                  1.45:  Mud Density 
 MDMN.sg                  1.45:  Dens Mud Min 
 MDMX.sg                  1.45:  Dens Mud Max 
 MOIL.                    70.5:  Run Mud Oil % 
 MOWR.                   71:29:  Run Mud OWR 
 MSND.                     0.3:  Run Mud Sand % 
 MSOL.                    19.8:  Run Mud Solids% 
 DFV .spqt               80.00:  Mud Viscosity 
 MWOD.in                  8.00:  MWD Tool OD 
 MWSI.                     Yes:  Serv Intrp, MWD 
 OTIM.hr                180.00:  Time Operating 
 PCON.           Look Like New:  Pad Condition 
 PMAX.psia             9910.94:  Press Op, Max 
 PV  .cP                 35.00:  Mud PV 
 RUN .                    1000:  Run Number 
 ROPA.m/hr               18.00:  ROP Avg 
 ROPN.m/hr                8.00:  ROP Min 
 ROPX.m/hr               23.00:  ROP Max 
 RPMA.rpm               150.00:  RPM Surface Avg 
 RPMN.rpm               120.00:  RPM Surface Min 
 RPMX.rpm               160.00:  RPM Surface Max 
 RRUN.                    L503:  Rig Run Number 
 RTIM.hr                  5.00:  Time Reaming 
 SAZI.deg               298.42:  Azm, Start 
 SDEP.m                3870.00:  Start Depth 
 SIDD.                      No:  Serv Intrp, DD 
 SINC.deg                69.57:  Inc, Start 
 SPPA.psig             5500.00:  SPP Avg 
 SPPN.psig             4400.00:  SPP Min 
 SPPX.psig             5800.00:  SPP Max 
 STIM.      15.29.39 09-Sep-21:  Start Time 
 SVCS.                 DD, MWD:  Services 
 SVER.                    9.20:  Sperry Version 
 TDAT.m                5260.00:  Tot Depth Attmp 
 TDDF.                      No:  Trip for DD 
 TDLG.m                1390.00:  Tot Depth Loggd 
 TFF .                      No:  Trip for Fail 
 TQAA.f-kp               22.00:  Torque Abs Avg 
 TQAN.f-kp               13.00:  Torque Abs Min 
 TQAX.f-kp               27.00:  Torque Abs Max 
 TRRT.°/30m               1.60:  Turn Rotating 
 MRT .                  EWR-M5:  Maximum Recorded Temperature 
 TTMX.degC               92.00:  Max Tool Temp 
 VS01.                12330975:  Virtual Str1 SN 
 VS02.                90658671:  Virtual Str2 SN 
 VS03.                90658508:  Virtual Str3 SN 
 VS04.                90660974:  Virtual Str4 SN 
 VS05.                90654675:  Virtual Str5 SN 
 WBMN.klb                15.00:  WOB Min 
 WITN.     Alexander Yadullayev:  Customer Rep 
 WITN.           Adil Mammadov:  Customer Rep 2 
 WOBA.klb                17.00:  WOB Avg 
 WOBX.klb                18.00:  WOB Max 
 YP  .lhf2               31.00:  Yield Point 
~Curve Information Block
#MNEM.UNIT                 API CODE     Curve Description
#---------               -----------    ---------------------------
 TIME.HHMMSS            00 000 000 000:  GT Time & Date
 GTDEPTH.m              00 000 000 000:  GT Depth
 GTPQH.psia             00 000 000 000:  GT HR Quartz Pressure
 GTTQ.degC              00 000 000 000:  GT Quartz Temperature
 GTTN.NONE              00 000 000 000:  GT Test Number
 GTET.sec               00 000 000 000:  GT Elapsed Test Time
 GTTVD.m                00 000 000 000:  GT True Vertical Depth
#Other Information
#
#WARRANTY: Halliburton will use its best efforts to furnish customers with 
#accurate information and interpretations that are part of, and incident to, the services 
#provided.  However, Halliburton cannot and does not warrant the accuracy 
#or correctness of such information and interpretations.  Under no circumstances should any 
#such information or interpretation be relied upon as the sole basis for any drilling, 
#completion, production, or financial decision or any procedure involving any risk to the 
#safety of any drilling venture, drilling rig or its crew or any other third party.  The 
#Customer has full responsibility for all drilling, completion and production operation.  
#Halliburton makes no representations or warranties, either expressed or 
#implied, including, but not limited to, the implied warranties of merchantability or fitness 
#for a particular purpose, with respect to the services rendered.  In no event will 
#Halliburton be liable for failure to obtain any particular results or for 
#any damages, including, but not limited to, indirect, special or consequential damages, 
#resulting from the use of any information or interpretation provided by Halliburton.
#
~A           TIME           GTDEPTH  GTPQH  GTTQ  GTTN  GTET   GTTVD  
# ...
   05:05:07.981.17-Sep-2021 5093.53 3731.59 79.32 5.00 115.12 2594.99
   05:05:08.181.17-Sep-2021 5093.53 3731.59 79.32 5.00 115.32 2594.99
   05:05:08.382.17-Sep-2021 5093.53 3731.91 79.32 5.00 115.52 2594.99
   05:05:08.582.17-Sep-2021 5093.53 3732.07 79.32 5.00 115.72 2594.99
   05:05:08.782.17-Sep-2021 5093.53 3732.25 79.32 5.00 115.92 2594.99
   05:05:08.982.17-Sep-2021 5093.53 3732.42 79.32 5.00 116.13 2594.99
   05:05:09.182.17-Sep-2021 5093.53 3732.42 79.32 5.00 116.33 2594.99
   05:05:09.383.17-Sep-2021 5093.53 3732.74 79.32 5.00 116.53 2594.99
   05:05:09.583.17-Sep-2021 5093.53 3732.90 79.32 5.00 116.73 2594.99
   05:05:09.783.17-Sep-2021 5093.53 3733.06 79.32 5.00 116.93 2594.99
   05:05:09.983.17-Sep-2021 5093.53 3733.20 79.32 5.00 117.13 2594.99
   05:05:10.184.17-Sep-2021 5093.53 3733.20 79.32 5.00 117.33 2594.99
   05:05:10.384.17-Sep-2021 5093.53 3733.41 79.32 5.00 117.53 2594.99
   05:05:10.584.17-Sep-2021 5093.53 3733.50 79.32 5.00 117.73 2594.99
   05:05:10.784.17-Sep-2021 5093.53 3733.59 79.32 5.00 117.93 2594.99
   05:05:10.984.17-Sep-2021 5093.53 3733.65 79.32 5.00 118.13 2594.99
   05:05:11.185.17-Sep-2021 5093.53 3733.65 79.32 5.00 118.33 2594.99
   05:05:11.385.17-Sep-2021 5093.53 3733.79 79.32 5.00 118.53 2594.99
   05:05:11.585.17-Sep-2021 5093.53 3733.88 79.32 5.00 118.73 2594.99
   05:05:11.785.17-Sep-2021 5093.53 3733.96 79.32 5.00 118.93 2594.99
   05:05:11.985.17-Sep-2021 5093.53 3734.06 79.32 5.00 119.13 2594.99
   05:05:12.186.17-Sep-2021 5093.53 3734.06 79.32 5.00 119.33 2594.99
   05:05:12.386.17-Sep-2021 5093.53 3734.06 79.32 5.00 119.53 2594.99
   05:05:12.586.17-Sep-2021 5093.53 3734.38 79.33 5.00 119.73 2594.99
   05:05:12.786.17-Sep-2021 5093.53 3734.49 79.33 5.00 119.93 2594.99
   05:05:12.987.17-Sep-2021 5093.53 3734.62 79.33 5.00 120.13 2594.99
   05:05:13.187.17-Sep-2021 5093.53 3734.62 79.33 5.00 120.33 2594.99
   05:05:13.387.17-Sep-2021 5093.53 3734.84 79.33 5.00 120.53 2594.99
   05:05:13.587.17-Sep-2021 5093.53 3734.95 79.33 5.00 120.73 2594.99
   05:05:13.787.17-Sep-2021 5093.53 3735.02 79.33 5.00 120.93 2594.99
   05:05:13.988.17-Sep-2021 5093.53 3735.10 79.33 5.00 121.13 2594.99
   05:05:14.188.17-Sep-2021 5093.53 3735.10 79.33 5.00 121.33 2594.99
   05:05:14.388.17-Sep-2021 5093.53 3735.22 79.33 5.00 121.53 2594.99
   05:05:14.588.17-Sep-2021 5093.53 3735.27 79.33 5.00 121.73 2594.99
   05:05:14.789.17-Sep-2021 5093.53 3735.38 79.33 5.00 121.93 2594.99
   05:05:14.989.17-Sep-2021 5093.53 3735.44 79.33 5.00 122.13 2594.99
   05:05:15.189.17-Sep-2021 5093.53 3735.44 79.33 5.00 122.33 2594.99
   05:05:15.389.17-Sep-2021 5093.53 3735.53 79.33 5.00 122.53 2594.99
   05:05:15.589.17-Sep-2021 5093.53 3735.66 79.33 5.00 122.73 2594.99
   05:05:15.790.17-Sep-2021 5093.53 3735.70 79.33 5.00 122.93 2594.99
   05:05:15.990.17-Sep-2021 5093.53 3735.78 79.33 5.00 123.13 2594.99
   05:05:16.190.17-Sep-2021 5093.53 3735.78 79.33 5.00 123.33 2594.99
   05:05:16.390.17-Sep-2021 5093.53 3735.90 79.33 5.00 123.53 2594.99
   05:05:16.590.17-Sep-2021 5093.53 3735.95 79.33 5.00 123.73 2594.99
   05:05:16.791.17-Sep-2021 5093.53 3736.01 79.33 5.00 123.93 2594.99
   05:05:16.991.17-Sep-2021 5093.53 3736.07 79.33 5.00 124.13 2594.99
   05:05:17.191.17-Sep-2021 5093.53 3736.07 79.33 5.00 124.33 2594.99
   05:05:17.391.17-Sep-2021 5093.53 3736.17 79.33 5.00 124.53 2594.99
   05:05:17.592.17-Sep-2021 5093.53 3736.23 79.33 5.00 124.73 2594.99
   05:05:17.792.17-Sep-2021 5093.53 3736.30 79.33 5.00 124.93 2594.99
   05:05:17.992.17-Sep-2021 5093.53 3736.37 79.33 5.00 125.13 2594.99
   05:05:18.192.17-Sep-2021 5093.53 3736.37 79.33 5.00 125.33 2594.99
   05:05:18.392.17-Sep-2021 5093.53 3736.52 79.33 5.00 125.54 2594.99
   05:05:18.593.17-Sep-2021 5093.53 3736.59 79.33 5.00 125.74 2594.99
   05:05:18.793.17-Sep-2021 5093.53 3736.68 79.33 5.00 125.94 2594.99
   05:05:18.993.17-Sep-2021 5093.53 3736.76 79.33 5.00 126.14 2594.99
   05:05:19.193.17-Sep-2021 5093.53 3736.76 79.33 5.00 126.34 2594.99
   05:05:19.393.17-Sep-2021 5093.53 3736.95 79.33 5.00 126.54 2594.99
   05:05:19.594.17-Sep-2021 5093.53 3737.04 79.33 5.00 126.74 2594.99
   05:05:19.794.17-Sep-2021 5093.53 3737.16 79.33 5.00 126.94 2594.99
   05:05:19.994.17-Sep-2021 5093.53 3737.23 79.33 5.00 127.14 2594.99
   05:05:20.194.17-Sep-2021 5093.53 3737.23 79.33 5.00 127.34 2594.99
   05:05:20.395.17-Sep-2021 5093.53 3737.36 79.33 5.00 127.54 2594.99
   05:05:20.595.17-Sep-2021 5093.53 3737.40 79.33 5.00 127.74 2594.99
   05:05:20.795.17-Sep-2021 5093.53 3737.48 79.33 5.00 127.94 2594.99
   05:05:20.995.17-Sep-2021 5093.53 3737.52 79.33 5.00 128.14 2594.99
   05:05:21.195.17-Sep-2021 5093.53 3737.52 79.33 5.00 128.34 2594.99
   05:05:21.396.17-Sep-2021 5093.53 3737.67 79.33 5.00 128.54 2594.99
   05:05:21.596.17-Sep-2021 5093.53 3737.74 79.33 5.00 128.74 2594.99
   05:05:21.796.17-Sep-2021 5093.53 3737.80 79.33 5.00 128.94 2594.99
   05:05:21.996.17-Sep-2021 5093.53 3737.88 79.33 5.00 129.14 2594.99
   05:05:22.196.17-Sep-2021 5093.53 3737.88 79.33 5.00 129.34 2594.99
   05:05:22.397.17-Sep-2021 5093.53 3738.03 79.33 5.00 129.54 2594.99
   05:05:22.597.17-Sep-2021 5093.53 3738.11 79.33 5.00 129.74 2594.99
   05:05:22.797.17-Sep-2021 5093.53 3738.19 79.33 5.00 129.94 2594.99
   05:05:22.997.17-Sep-2021 5093.53 3738.28 79.33 5.00 130.14 2594.99
   05:05:23.198.17-Sep-2021 5093.53 3738.28 79.33 5.00 130.34 2594.99
   05:05:23.398.17-Sep-2021 5093.53 3738.39 79.33 5.00 130.54 2594.99
   05:05:23.598.17-Sep-2021 5093.53 3738.44 79.33 5.00 130.74 2594.99
   05:05:23.798.17-Sep-2021 5093.53 3738.44 79.33 5.00 130.94 2594.99
   05:05:23.998.17-Sep-2021 5093.53 3738.51 79.33 5.00 131.14 2594.99
   05:05:24.199.17-Sep-2021 5093.53 3738.51 79.33 5.00 131.34 2594.99
   05:05:24.399.17-Sep-2021 5093.53 3738.58 79.33 5.00 131.54 2594.99
   05:05:24.599.17-Sep-2021 5093.53 3738.63 79.33 5.00 131.74 2594.99
   05:05:24.799.17-Sep-2021 5093.53 3738.65 79.33 5.00 131.94 2594.99
   05:05:25.000.17-Sep-2021 5093.53 3738.71 79.33 5.00 132.14 2594.99
   05:05:25.200.17-Sep-2021 5093.53 3738.71 79.33 5.00 132.34 2594.99
   05:05:25.400.17-Sep-2021 5093.53 3738.77 79.33 5.00 132.54 2594.99
   05:05:25.600.17-Sep-2021 5093.53 3738.78 79.33 5.00 132.74 2594.99
   05:05:25.800.17-Sep-2021 5093.53 3738.83 79.33 5.00 132.94 2594.99
   05:05:26.001.17-Sep-2021 5093.53 3738.87 79.33 5.00 133.14 2594.99
   05:05:26.201.17-Sep-2021 5093.53 3738.87 79.33 5.00 133.34 2594.99
   05:05:26.401.17-Sep-2021 5093.53 3738.95 79.33 5.00 133.54 2594.99
   05:05:26.601.17-Sep-2021 5093.53 3739.00 79.33 5.00 133.74 2594.99
   05:05:26.801.17-Sep-2021 5093.53 3739.03 79.33 5.00 133.94 2594.99
   05:05:27.002.17-Sep-2021 5093.53 3739.07 79.33 5.00 134.14 2594.99
   05:05:27.202.17-Sep-2021 5093.53 3739.07 79.33 5.00 134.34 2594.99
   05:05:27.402.17-Sep-2021 5093.53 3739.15 79.33 5.00 134.54 2594.99
   05:05:27.602.17-Sep-2021 5093.53 3739.21 79.33 5.00 134.75 2594.99
   05:05:27.803.17-Sep-2021 5093.53 3739.25 79.33 5.00 134.95 2594.99
   05:05:28.003.17-Sep-2021 5093.53 3739.30 79.33 5.00 135.15 2594.99
   05:05:28.203.17-Sep-2021 5093.53 3739.30 79.33 5.00 135.35 2594.99
   05:05:28.403.17-Sep-2021 5093.53 3739.39 79.33 5.00 135.55 2594.99
   05:05:28.603.17-Sep-2021 5093.53 3739.46 79.33 5.00 135.75 2594.99
   05:05:28.804.17-Sep-2021 5093.53 3739.47 79.33 5.00 135.95 2594.99
   05:05:29.004.17-Sep-2021 5093.53 3739.57 79.33 5.00 136.15 2594.99
   05:05:29.204.17-Sep-2021 5093.53 3739.57 79.33 5.00 136.35 2594.99
   05:05:29.404.17-Sep-2021 5093.53 3739.67 79.33 5.00 136.55 2594.99
   05:05:29.604.17-Sep-2021 5093.53 3739.72 79.33 5.00 136.75 2594.99
   05:05:29.805.17-Sep-2021 5093.53 3739.74 79.33 5.00 136.95 2594.99
   05:05:30.005.17-Sep-2021 5093.53 3739.78 79.33 5.00 137.15 2594.99
   05:05:30.205.17-Sep-2021 5093.53 3739.78 79.33 5.00 137.35 2594.99
   05:05:30.405.17-Sep-2021 5093.53 3739.84 79.33 5.00 137.55 2594.99
   05:05:30.606.17-Sep-2021 5093.53 3739.89 79.33 5.00 137.75 2594.99
   05:05:30.806.17-Sep-2021 5093.53 3739.94 79.33 5.00 137.95 2594.99
