~Version Information
 VERS.                  2.0:   CWLS log ASCII Standard -VERSION 2.0
 WRAP.                   NO:   One line per depth step
~Well Information Block
#MNEM.UNIT     VALUE/NAME     DESCRIPTION
#---------     -----------    ---------------------------
 STRT.S             05:03:12 17-Sep-21: START TIME 05:03:12 17-Sep-21
 STOP.S             05:12:54 17-Sep-21: STOP TIME  05:12:54 17-Sep-21
 STEP.S                   0.00: STEP TIME
 NULL.                 -999.25: NULL VALUE
 DFWT.                        :  DIST FWL TEXT
 DFST.                        :  DIST FSL TEXT
 DMF .             Drill Floor:  DRILL MEAS FROM
 STIM.      10.59.12 05-Jul-21:  START TIME
 DATE.      10.59.12 10-Sep-21:  END TIME
 SPUD.               05-Jul-21:  SPUD DATE
 NREF.                    Grid:  NORTH REFERENCE
 HPTY.       Minimum Curvature:  HOLE POS TYPE
 DMOD.             Drill Model:  DRILL MOD DESC
 SVYD.                  Survey:  SURVEY DESC
 ILTD.               Lithology:  INTERP LTH DESC
 FTOP.          Formation Tops:  FORM TOPS DESC
 RIG .                     DWG:  RIG NAME
 PDAT.          Mean Sea Level:  PERMANENT DATUM
 FLD .                     ACG:  FIELD NAME
 SON .        AZ-XX-0907115008:  JOB NUMBER
 CTRY.              Azerbaijan:  COUNTRY NAME
 WELL.                    E35A:  WELL NAME
 SRVC.          TURAN DRILLING:  CONTRACTOR
 COMP.     BP Exploration (Caspian Sea LTD):  COMPANY
 UWI .                     N/A:  UNIQUE WELL IDENTIFIER
 API .                     N/A:  API NUMBER
 MDS .        Operator Entered:  MAG DATA SOURCE
 BASE.              Azerbaijan:  LOGGING EQUIPMENT BASE LOCATION
 REGN.                   EESSA:  REGION
 PROV.                    Baku:  PROVINCE
 STAT.                    Baku:  STATE NAME
 MWDS.                    Baku:  MWD SHOP
 JOBN.        AZ-XX-0907115008:  JOB TICKET NUMB
 DOE .                     N/A:  DOE NUMBER
 DCON.         Sperry Drilling:  DIRECTNL CONTR
 UNIT.                     N/A:  LOGGING EQUIPMENT ID
 WTYP.                Deviated:  WELL TYPE
 CNTY.                        :  COUNTY
 LOC .                        :  LOCATION
 LMF .             Drill Floor:  LOG MEASURED FROM
 TVDS.m                  43.16:  TVDSS CORRECTN
 LATI.deg                40.17:  LATITUDE
 LONG.deg                51.17:  LONGITUDE
 WHNS.m                  10.51:  WELL HEAD N/S
 WHEW.m                 -14.82:  WELL HEAD E/W
 UTMX.m              514336.92:  UTM X
 UTMY.m             4448618.56:  UTM Y
 DFWL.m                   0.00:  DISTANCE FWL
 DFSL.m                   0.00:  DISTANCE FSL
 SDEP.m                 849.00:  START DEPTH
 TDD .m                2862.00:  TOTAL DEPTH (DRILLER)
 VSDR.deg               292.10:  VERT SEC DIRECT
 GVFD.g                   1.00:  GRAVITY FIELD
 MFLD.nT              50382.00:  MAGNETIC FIELD
 MDIP.deg                59.68:  MAGNETIC DIP
 MDEC.deg                 6.66:  MAGNETIC DECL
 GRDC.deg                 0.09:  GRID CORRECTION
 AZTC.deg                 6.57:  AZM TOTAL CORR
 EPD .m                   0.00:  ELEVATION
 EGL .m                   0.00:  GROUND ELEVATION
 WDMS.m                 176.20:  WD ELEV
 APD .m                  43.16:  DEPTH ABOVE PD
 DEP .m                 363.42:  DEPTH
 AGAP.m                  43.16:  AIR GAP
 VSEW.m                 -14.82:  VERT SEC E/W
 VSNS.m                  10.51:  VERT SEC N/S
 EKB .m                  43.16:  KB ELEVATION
 EDF .m                  43.16:  DF ELEVATION
 TDL .m                1390.00:  TOTAL DEPTH (LOGGER)
 VSC .                       0:  VS TO CLOSURE
 MAGU.                 1855871:  MAGUTM CHECKSUM
~Parameter Information Block
#MNEM.UNIT       Value        Description
#---------     -----------    ---------------------------
 AV  .mps                 2.28:  Ann Velocity 
 AVMX.mps                 2.67:  Max Ann Veloc 
 AZIF.deg               305.00:  Azm, Final 
 BHAT.        Rotary Steerable:  BHA Type 
 BROT.°/30m               0.45:  Build Rotating 
 BS  .in                 12.25:  Bit Size 
 BSZ .in                 12.25:  Bit Size 
 BTPL.psig              600.00:  Bit Press Loss 
 CABU.                     Yes:  Customer Abuse 
 COMM.                     äÏF:  Run Comments 1 
 TCS .hr                150.00:  Time Ciculation Ended 
 CV  .mps                 1.24:  Crit Velocity 
 CVMX.mps                 1.66:  Max Crit Veloc 
 DD1 .         Intigam Rahimov:  Direct Drillr 1 
 DD2 .            Azer Ravavov:  Direct Drillr 2 
 DD3 .              Samir Abas:  Direct Drillr 3 
 DDSV.               Geo-Pilot:  DD Service 
 DEFF.%                 100.00:  % Det Eff 
 DLRX.°/30m               1.57:  Dogleg Rot Max 
 DLSO.°/30m               0.00:  Dogleg Oriented 
 DLSX.°/30m               0.00:  Dogleg Str Max 
 DRET.      20.28.06 17-Sep-21:  Drill End Time 
 DRST.      20.27.35 10-Sep-21:  Drill Start Tim 
 DTIM.hr                 54.00:  Time Drilling 
 EDEP.m                5260.00:  End Depth 
 ENG1.      Bakhtiyar Jabbarli:  Engineer 1 
 ENG2.      Natik Hasanaghayev:  Engineer 2 
 ENG3.           Royal Nasirov:  Engineer 3 
 ETIM.      20.27.55 18-Sep-21:  End Time 
 FLOI.gpm              1100.00:  Flow In 
 FLON.gpm               800.00:  Flow In Min 
 FLOS.cptm                0.00:  Fluid Loss 
 FLOX.gpm              1200.00:  Flow In Max 
 DFT .        Mineral Oil Base:  Mud Type 
 HPRE.                      No:  High Pressure 
 HTEM.                      No:  High Temp 
 HYDO.m                   1.80:  Hydro Offset 
 IFIN.deg                72.31:  Inc, Final 
 IMAX.deg                72.36:  Inc Max 
 IMIN.deg                69.36:  Inc Min 
 IMND.m                4192.96:  Inc Min Depth 
 IMXD.m                5128.36:  Inc Max Depth 
 JARR.                      No:  Jarring 
 LETM.      20.29.00 17-Sep-21:  Log End Time 
 LOST.hr                     0:  Lost Rig Time 
 LSTM.      20.27.00 10-Sep-21:  Log Start Time 
 MDCL.ppm            227000.00:  Mud Chlorides 
 MDES.     Inversion Oil/Synthetic:  Mud Desc 
 DFD .sg                  1.45:  Mud Density 
 MDMN.sg                  1.45:  Dens Mud Min 
 MDMX.sg                  1.45:  Dens Mud Max 
 MOIL.                    70.5:  Run Mud Oil % 
 MOWR.                   71:29:  Run Mud OWR 
 MSND.                     0.3:  Run Mud Sand % 
 MSOL.                    19.8:  Run Mud Solids% 
 DFV .spqt               80.00:  Mud Viscosity 
 MWOD.in                  8.00:  MWD Tool OD 
 MWSI.                     Yes:  Serv Intrp, MWD 
 OTIM.hr                180.00:  Time Operating 
 PCON.           Look Like New:  Pad Condition 
 PMAX.psia             9910.94:  Press Op, Max 
 PV  .cP                 35.00:  Mud PV 
 RUN .                    1000:  Run Number 
 ROPA.m/hr               18.00:  ROP Avg 
 ROPN.m/hr                8.00:  ROP Min 
 ROPX.m/hr               23.00:  ROP Max 
 RPMA.rpm               150.00:  RPM Surface Avg 
 RPMN.rpm               120.00:  RPM Surface Min 
 RPMX.rpm               160.00:  RPM Surface Max 
 RRUN.                    L503:  Rig Run Number 
 RTIM.hr                  5.00:  Time Reaming 
 SAZI.deg               298.42:  Azm, Start 
 SDEP.m                3870.00:  Start Depth 
 SIDD.                      No:  Serv Intrp, DD 
 SINC.deg                69.57:  Inc, Start 
 SPPA.psig             5500.00:  SPP Avg 
 SPPN.psig             4400.00:  SPP Min 
 SPPX.psig             5800.00:  SPP Max 
 STIM.      15.29.39 09-Sep-21:  Start Time 
 SVCS.                 DD, MWD:  Services 
 SVER.                    9.20:  Sperry Version 
 TDAT.m                5260.00:  Tot Depth Attmp 
 TDDF.                      No:  Trip for DD 
 TDLG.m                1390.00:  Tot Depth Loggd 
 TFF .                      No:  Trip for Fail 
 TQAA.f-kp               22.00:  Torque Abs Avg 
 TQAN.f-kp               13.00:  Torque Abs Min 
 TQAX.f-kp               27.00:  Torque Abs Max 
 TRRT.°/30m               1.60:  Turn Rotating 
 MRT .                  EWR-M5:  Maximum Recorded Temperature 
 TTMX.degC               92.00:  Max Tool Temp 
 VS01.                12330975:  Virtual Str1 SN 
 VS02.                90658671:  Virtual Str2 SN 
 VS03.                90658508:  Virtual Str3 SN 
 VS04.                90660974:  Virtual Str4 SN 
 VS05.                90654675:  Virtual Str5 SN 
 WBMN.klb                15.00:  WOB Min 
 WITN.     Alexander Yadullayev:  Customer Rep 
 WITN.           Adil Mammadov:  Customer Rep 2 
 WOBA.klb                17.00:  WOB Avg 
 WOBX.klb                18.00:  WOB Max 
 YP  .lhf2               31.00:  Yield Point 
~Curve Information Block
#MNEM.UNIT                 API CODE     Curve Description
#---------               -----------    ---------------------------
 TIME.HHMMSS            00 000 000 000:  GT Time & Date
 GTDEPTH.m              00 000 000 000:  GT Depth
 GTPQH.psia             00 000 000 000:  GT HR Quartz Pressure
 GTTQ.degC              00 000 000 000:  GT Quartz Temperature
 GTTN.NONE              00 000 000 000:  GT Test Number
 GTET.sec               00 000 000 000:  GT Elapsed Test Time
 GTTVD.m                00 000 000 000:  GT True Vertical Depth
#Other Information
#
#WARRANTY: Halliburton will use its best efforts to furnish customers with 
#accurate information and interpretations that are part of, and incident to, the services 
#provided.  However, Halliburton cannot and does not warrant the accuracy 
#or correctness of such information and interpretations.  Under no circumstances should any 
#such information or interpretation be relied upon as the sole basis for any drilling, 
#completion, production, or financial decision or any procedure involving any risk to the 
#safety of any drilling venture, drilling rig or its crew or any other third party.  The 
#Customer has full responsibility for all drilling, completion and production operation.  
#Halliburton makes no representations or warranties, either expressed or 
#implied, including, but not limited to, the implied warranties of merchantability or fitness 
#for a particular purpose, with respect to the services rendered.  In no event will 
#Halliburton be liable for failure to obtain any particular results or for 
#any damages, including, but not limited to, indirect, special or consequential damages, 
#resulting from the use of any information or interpretation provided by Halliburton.
#
~A           TIME           GTDEPTH  GTPQH  GTTQ  GTTN  GTET   GTTVD  
# ...
   05:11:39.403.17-Sep-2021 5093.53 5792.35 79.54 5.00 506.55 2594.99
   05:11:39.603.17-Sep-2021 5093.53 5792.35 79.54 5.00 506.75 2594.99
   05:11:39.803.17-Sep-2021 5093.53 5803.88 79.54 5.00 506.95 2594.99
   05:11:40.003.17-Sep-2021 5093.53 5806.32 79.54 5.00 507.15 2594.99
   05:11:40.204.17-Sep-2021 5093.53 5810.18 79.54 5.00 507.35 2594.99
   05:11:40.404.17-Sep-2021 5093.53 5802.56 79.54 5.00 507.55 2594.99
   05:11:40.604.17-Sep-2021 5093.53 5802.56 79.54 5.00 507.75 2594.99
   05:11:40.804.17-Sep-2021 5093.53 5807.98 79.55 5.00 507.95 2594.99
   05:11:41.004.17-Sep-2021 5093.53 5787.51 79.55 5.00 508.15 2594.99
   05:11:41.205.17-Sep-2021 5093.53 5810.32 79.55 5.00 508.35 2594.99
   05:11:41.405.17-Sep-2021 5093.53 5830.57 79.55 5.00 508.55 2594.99
   05:11:41.605.17-Sep-2021 5093.53 5830.57 79.55 5.00 508.75 2594.99
   05:11:41.805.17-Sep-2021 5093.53 5805.84 79.55 5.00 508.95 2594.99
   05:11:42.006.17-Sep-2021 5093.53 5794.54 79.55 5.00 509.15 2594.99
   05:11:42.206.17-Sep-2021 5093.53 5791.63 79.55 5.00 509.35 2594.99
   05:11:42.406.17-Sep-2021 5093.53 5789.61 79.55 5.00 509.55 2594.99
   05:11:42.606.17-Sep-2021 5093.53 5789.61 79.55 5.00 509.75 2594.99
   05:11:42.806.17-Sep-2021 5093.53 5789.22 79.55 5.00 509.95 2594.99
   05:11:43.007.17-Sep-2021 5093.53 5788.25 79.55 5.00 510.15 2594.99
   05:11:43.207.17-Sep-2021 5093.53 5786.78 79.55 5.00 510.35 2594.99
   05:11:43.407.17-Sep-2021 5093.53 5826.29 79.55 5.00 510.55 2594.99
   05:11:43.607.17-Sep-2021 5093.53 5826.29 79.55 5.00 510.75 2594.99
   05:11:43.807.17-Sep-2021 5093.53 5858.34 79.55 5.00 510.95 2594.99
   05:11:44.008.17-Sep-2021 5093.53 5769.87 79.55 5.00 511.15 2594.99
   05:11:44.208.17-Sep-2021 5093.53 5730.49 79.55 5.00 511.35 2594.99
   05:11:44.408.17-Sep-2021 5093.53 5788.60 79.55 5.00 511.55 2594.99
   05:11:44.608.17-Sep-2021 5093.53 5788.60 79.55 5.00 511.75 2594.99
   05:11:44.809.17-Sep-2021 5093.53 5818.10 79.55 5.00 511.95 2594.99
   05:11:45.009.17-Sep-2021 5093.53 5846.18 79.55 5.00 512.15 2594.99
   05:11:45.209.17-Sep-2021 5093.53 5614.98 79.56 5.00 512.35 2594.99
   05:11:45.409.17-Sep-2021 5093.53 5564.99 79.56 5.00 512.55 2594.99
   05:11:45.609.17-Sep-2021 5093.53 5564.99 79.56 5.00 512.75 2594.99
   05:11:45.810.17-Sep-2021 5093.53 5563.79 79.56 5.00 512.95 2594.99
   05:11:46.010.17-Sep-2021 5093.53 5563.84 79.56 5.00 513.15 2594.99
   05:11:46.210.17-Sep-2021 5093.53 5563.67 79.56 5.00 513.35 2594.99
   05:11:46.410.17-Sep-2021 5093.53 5563.71 79.56 5.00 513.55 2594.99
   05:11:46.610.17-Sep-2021 5093.53 5563.71 79.56 5.00 513.75 2594.99
   05:11:46.811.17-Sep-2021 5093.53 5563.60 79.56 5.00 513.95 2594.99
   05:11:47.011.17-Sep-2021 5093.53 5563.68 79.56 5.00 514.15 2594.99
   05:11:47.211.17-Sep-2021 5093.53 5563.67 79.56 5.00 514.35 2594.99
   05:11:47.411.17-Sep-2021 5093.53 5563.55 79.56 5.00 514.55 2594.99
   05:11:47.612.17-Sep-2021 5093.53 5563.55 79.56 5.00 514.75 2594.99
   05:11:47.812.17-Sep-2021 5093.53 5566.76 79.56 5.00 514.95 2594.99
   05:11:48.012.17-Sep-2021 5093.53 5564.44 79.56 5.00 515.15 2594.99
   05:11:48.212.17-Sep-2021 5093.53 5563.72 79.56 5.00 515.36 2594.99
   05:11:48.412.17-Sep-2021 5093.53 5562.75 79.56 5.00 515.56 2594.99
   05:11:48.613.17-Sep-2021 5093.53 5562.75 79.56 5.00 515.76 2594.99
   05:11:48.813.17-Sep-2021 5093.53 5562.30 79.55 5.00 515.96 2594.99
   05:11:49.013.17-Sep-2021 5093.53 5565.45 79.55 5.00 516.16 2594.99
   05:11:49.213.17-Sep-2021 5093.53 5561.22 79.55 5.00 516.36 2594.99
   05:11:49.414.17-Sep-2021 5093.53 5563.28 79.55 5.00 516.56 2594.99
   05:11:49.614.17-Sep-2021 5093.53 5563.28 79.55 5.00 516.76 2594.99
   05:11:49.814.17-Sep-2021 5093.53 5562.30 79.55 5.00 516.96 2594.99
   05:11:50.014.17-Sep-2021 5093.53 5562.36 79.55 5.00 517.16 2594.99
   05:11:50.214.17-Sep-2021 5093.53 5562.25 79.55 5.00 517.36 2594.99
   05:11:50.415.17-Sep-2021 5093.53 5564.58 79.55 5.00 517.56 2594.99
   05:11:50.615.17-Sep-2021 5093.53 5564.58 79.55 5.00 517.76 2594.99
   05:11:50.815.17-Sep-2021 5093.53 5563.43 79.55 5.00 517.96 2594.99
   05:11:51.015.17-Sep-2021 5093.53 5562.71 79.55 5.00 518.16 2594.99
   05:11:51.215.17-Sep-2021 5093.53 5564.74 79.55 5.00 518.36 2594.99
   05:11:51.416.17-Sep-2021 5093.53 5562.96 79.55 5.00 518.56 2594.99
   05:11:51.616.17-Sep-2021 5093.53 5562.96 79.55 5.00 518.76 2594.99
   05:11:51.816.17-Sep-2021 5093.53 5563.35 79.55 5.00 518.96 2594.99
   05:11:52.016.17-Sep-2021 5093.53 5562.24 79.55 5.00 519.16 2594.99
   05:11:52.217.17-Sep-2021 5093.53 5562.45 79.55 5.00 519.36 2594.99
   05:11:52.417.17-Sep-2021 5093.53 5562.21 79.55 5.00 519.56 2594.99
   05:11:52.617.17-Sep-2021 5093.53 5562.21 79.55 5.00 519.76 2594.99
   05:11:52.817.17-Sep-2021 5093.53 5562.15 79.55 5.00 519.96 2594.99
   05:11:53.017.17-Sep-2021 5093.53 5562.24 79.55 5.00 520.16 2594.99
   05:11:53.218.17-Sep-2021 5093.53 5562.55 79.55 5.00 520.36 2594.99
   05:11:53.418.17-Sep-2021 5093.53 5562.46 79.55 5.00 520.56 2594.99
   05:11:53.618.17-Sep-2021 5093.53 5562.46 79.55 5.00 520.76 2594.99
   05:11:53.818.17-Sep-2021 5093.53 5562.63 79.55 5.00 520.96 2594.99
   05:11:54.018.17-Sep-2021 5093.53 5562.85 79.55 5.00 521.16 2594.99
   05:11:54.219.17-Sep-2021 5093.53 5566.54 79.55 5.00 521.36 2594.99
   05:11:54.419.17-Sep-2021 5093.53 5561.36 79.55 5.00 521.56 2594.99
   05:11:54.619.17-Sep-2021 5093.53 5561.36 79.55 5.00 521.76 2594.99
   05:11:54.819.17-Sep-2021 5093.53 5562.76 79.55 5.00 521.96 2594.99
   05:11:55.020.17-Sep-2021 5093.53 5562.53 79.55 5.00 522.16 2594.99
   05:11:55.220.17-Sep-2021 5093.53 5562.53 79.55 5.00 522.36 2594.99
   05:11:55.420.17-Sep-2021 5093.53 5562.00 79.55 5.00 522.56 2594.99
   05:11:55.620.17-Sep-2021 5093.53 5562.00 79.55 5.00 522.76 2594.99
   05:11:55.820.17-Sep-2021 5093.53 5561.69 79.55 5.00 522.96 2594.99
   05:11:56.021.17-Sep-2021 5093.53 5562.05 79.55 5.00 523.16 2594.99
   05:11:56.221.17-Sep-2021 5093.53 5561.94 79.55 5.00 523.36 2594.99
   05:11:56.421.17-Sep-2021 5093.53 5562.10 79.55 5.00 523.56 2594.99
   05:11:56.621.17-Sep-2021 5093.53 5562.10 79.55 5.00 523.76 2594.99
   05:11:56.821.17-Sep-2021 5093.53 5562.29 79.55 5.00 523.96 2594.99
   05:11:57.022.17-Sep-2021 5093.53 5562.56 79.55 5.00 524.16 2594.99
   05:11:57.222.17-Sep-2021 5093.53 5562.67 79.55 5.00 524.36 2594.99
   05:11:57.422.17-Sep-2021 5093.53 5562.98 79.55 5.00 524.56 2594.99
   05:11:57.622.17-Sep-2021 5093.53 5562.98 79.55 5.00 524.77 2594.99
   05:11:57.823.17-Sep-2021 5093.53 5563.47 79.55 5.00 524.97 2594.99
   05:11:58.023.17-Sep-2021 5093.53 5564.22 79.55 5.00 525.17 2594.99
   05:11:58.223.17-Sep-2021 5093.53 5562.94 79.55 5.00 525.37 2594.99
   05:11:58.423.17-Sep-2021 5093.53 5562.46 79.55 5.00 525.57 2594.99
   05:11:58.623.17-Sep-2021 5093.53 5562.46 79.55 5.00 525.77 2594.99
   05:11:58.824.17-Sep-2021 5093.53 5561.97 79.55 5.00 525.97 2594.99
   05:11:59.024.17-Sep-2021 5093.53 5561.74 79.55 5.00 526.17 2594.99
   05:11:59.224.17-Sep-2021 5093.53 5563.98 79.55 5.00 526.37 2594.99
   05:11:59.424.17-Sep-2021 5093.53 5562.27 79.55 5.00 526.57 2594.99
   05:11:59.625.17-Sep-2021 5093.53 5562.27 79.55 5.00 526.77 2594.99
   05:11:59.825.17-Sep-2021 5093.53 5562.77 79.55 5.00 526.97 2594.99
   05:12:00.025.17-Sep-2021 5093.53 5561.70 79.55 5.00 527.17 2594.99
   05:12:00.225.17-Sep-2021 5093.53 5564.04 79.55 5.00 527.37 2594.99
   05:12:00.425.17-Sep-2021 5093.53 5562.31 79.55 5.00 527.57 2594.99
   05:12:00.626.17-Sep-2021 5093.53 5562.31 79.55 5.00 527.77 2594.99
   05:12:00.826.17-Sep-2021 5093.53 5564.82 79.55 5.00 527.97 2594.99
   05:12:01.026.17-Sep-2021 5093.53 5562.78 79.55 5.00 528.17 2594.99
   05:12:01.226.17-Sep-2021 5093.53 5563.83 79.55 5.00 528.37 2594.99
   05:12:01.426.17-Sep-2021 5093.53 5562.19 79.55 5.00 528.57 2594.99
   05:12:01.627.17-Sep-2021 5093.53 5562.19 79.55 5.00 528.77 2594.99
   05:12:01.827.17-Sep-2021 5093.53 5561.87 79.55 5.00 528.97 2594.99
   05:12:02.027.17-Sep-2021 5093.53 5561.78 79.55 5.00 529.17 2594.99
   05:12:02.227.17-Sep-2021 5093.53 5561.75 79.55 5.00 529.37 2594.99
