~Version Information
 VERS.                  2.0:   CWLS log ASCII Standard -VERSION 2.0
 WRAP.                   NO:   One line per depth step
~Well Information Block
#MNEM.UNIT     VALUE/NAME     DESCRIPTION
#---------     -----------    ---------------------------
 STRT.S             03:33:12 17-Sep-21: START TIME 03:33:12 17-Sep-21
 STOP.S             03:41:33 17-Sep-21: STOP TIME  03:41:33 17-Sep-21
 STEP.S                   0.00: STEP TIME
 NULL.                 -999.25: NULL VALUE
 DFWT.                        :  DIST FWL TEXT
 DFST.                        :  DIST FSL TEXT
 DMF .             Drill Floor:  DRILL MEAS FROM
 STIM.      10.59.12 05-Jul-21:  START TIME
 DATE.      10.59.12 10-Sep-21:  END TIME
 SPUD.               05-Jul-21:  SPUD DATE
 NREF.                    Grid:  NORTH REFERENCE
 HPTY.       Minimum Curvature:  HOLE POS TYPE
 DMOD.             Drill Model:  DRILL MOD DESC
 SVYD.                  Survey:  SURVEY DESC
 ILTD.               Lithology:  INTERP LTH DESC
 FTOP.          Formation Tops:  FORM TOPS DESC
 RIG .                     DWG:  RIG NAME
 PDAT.          Mean Sea Level:  PERMANENT DATUM
 FLD .                     ACG:  FIELD NAME
 SON .        AZ-XX-0907115008:  JOB NUMBER
 CTRY.              Azerbaijan:  COUNTRY NAME
 WELL.                    E35A:  WELL NAME
 SRVC.          TURAN DRILLING:  CONTRACTOR
 COMP.     BP Exploration (Caspian Sea LTD):  COMPANY
 UWI .                     N/A:  UNIQUE WELL IDENTIFIER
 API .                     N/A:  API NUMBER
 MDS .        Operator Entered:  MAG DATA SOURCE
 BASE.              Azerbaijan:  LOGGING EQUIPMENT BASE LOCATION
 REGN.                   EESSA:  REGION
 PROV.                    Baku:  PROVINCE
 STAT.                    Baku:  STATE NAME
 MWDS.                    Baku:  MWD SHOP
 JOBN.        AZ-XX-0907115008:  JOB TICKET NUMB
 DOE .                     N/A:  DOE NUMBER
 DCON.         Sperry Drilling:  DIRECTNL CONTR
 UNIT.                     N/A:  LOGGING EQUIPMENT ID
 WTYP.                Deviated:  WELL TYPE
 CNTY.                        :  COUNTY
 LOC .                        :  LOCATION
 LMF .             Drill Floor:  LOG MEASURED FROM
 TVDS.m                  43.16:  TVDSS CORRECTN
 LATI.deg                40.17:  LATITUDE
 LONG.deg                51.17:  LONGITUDE
 WHNS.m                  10.51:  WELL HEAD N/S
 WHEW.m                 -14.82:  WELL HEAD E/W
 UTMX.m              514336.92:  UTM X
 UTMY.m             4448618.56:  UTM Y
 DFWL.m                   0.00:  DISTANCE FWL
 DFSL.m                   0.00:  DISTANCE FSL
 SDEP.m                 849.00:  START DEPTH
 TDD .m                2862.00:  TOTAL DEPTH (DRILLER)
 VSDR.deg               292.10:  VERT SEC DIRECT
 GVFD.g                   1.00:  GRAVITY FIELD
 MFLD.nT              50382.00:  MAGNETIC FIELD
 MDIP.deg                59.68:  MAGNETIC DIP
 MDEC.deg                 6.66:  MAGNETIC DECL
 GRDC.deg                 0.09:  GRID CORRECTION
 AZTC.deg                 6.57:  AZM TOTAL CORR
 EPD .m                   0.00:  ELEVATION
 EGL .m                   0.00:  GROUND ELEVATION
 WDMS.m                 176.20:  WD ELEV
 APD .m                  43.16:  DEPTH ABOVE PD
 DEP .m                 363.42:  DEPTH
 AGAP.m                  43.16:  AIR GAP
 VSEW.m                 -14.82:  VERT SEC E/W
 VSNS.m                  10.51:  VERT SEC N/S
 EKB .m                  43.16:  KB ELEVATION
 EDF .m                  43.16:  DF ELEVATION
 TDL .m                1390.00:  TOTAL DEPTH (LOGGER)
 VSC .                       0:  VS TO CLOSURE
 MAGU.                 1855871:  MAGUTM CHECKSUM
~Parameter Information Block
#MNEM.UNIT       Value        Description
#---------     -----------    ---------------------------
 AV  .mps                 2.28:  Ann Velocity 
 AVMX.mps                 2.67:  Max Ann Veloc 
 AZIF.deg               305.00:  Azm, Final 
 BHAT.        Rotary Steerable:  BHA Type 
 BROT.°/30m               0.45:  Build Rotating 
 BS  .in                 12.25:  Bit Size 
 BSZ .in                 12.25:  Bit Size 
 BTPL.psig              600.00:  Bit Press Loss 
 CABU.                     Yes:  Customer Abuse 
 COMM.                     ÔNy:  Run Comments 1 
 TCS .hr                150.00:  Time Ciculation Ended 
 CV  .mps                 1.24:  Crit Velocity 
 CVMX.mps                 1.66:  Max Crit Veloc 
 DD1 .         Intigam Rahimov:  Direct Drillr 1 
 DD2 .            Azer Ravavov:  Direct Drillr 2 
 DD3 .              Samir Abas:  Direct Drillr 3 
 DDSV.               Geo-Pilot:  DD Service 
 DEFF.%                 100.00:  % Det Eff 
 DLRX.°/30m               1.57:  Dogleg Rot Max 
 DLSO.°/30m               0.00:  Dogleg Oriented 
 DLSX.°/30m               0.00:  Dogleg Str Max 
 DRET.      20.28.06 17-Sep-21:  Drill End Time 
 DRST.      20.27.35 10-Sep-21:  Drill Start Tim 
 DTIM.hr                 54.00:  Time Drilling 
 EDEP.m                5260.00:  End Depth 
 ENG1.      Bakhtiyar Jabbarli:  Engineer 1 
 ENG2.      Natik Hasanaghayev:  Engineer 2 
 ENG3.           Royal Nasirov:  Engineer 3 
 ETIM.      20.27.55 18-Sep-21:  End Time 
 FLOI.gpm              1100.00:  Flow In 
 FLON.gpm               800.00:  Flow In Min 
 FLOS.cptm                0.00:  Fluid Loss 
 FLOX.gpm              1200.00:  Flow In Max 
 DFT .        Mineral Oil Base:  Mud Type 
 HPRE.                      No:  High Pressure 
 HTEM.                      No:  High Temp 
 HYDO.m                   1.80:  Hydro Offset 
 IFIN.deg                72.31:  Inc, Final 
 IMAX.deg                72.36:  Inc Max 
 IMIN.deg                69.36:  Inc Min 
 IMND.m                4192.96:  Inc Min Depth 
 IMXD.m                5128.36:  Inc Max Depth 
 JARR.                      No:  Jarring 
 LETM.      20.29.00 17-Sep-21:  Log End Time 
 LOST.hr                     0:  Lost Rig Time 
 LSTM.      20.27.00 10-Sep-21:  Log Start Time 
 MDCL.ppm            227000.00:  Mud Chlorides 
 MDES.     Inversion Oil/Synthetic:  Mud Desc 
 DFD .sg                  1.45:  Mud Density 
 MDMN.sg                  1.45:  Dens Mud Min 
 MDMX.sg                  1.45:  Dens Mud Max 
 MOIL.                    70.5:  Run Mud Oil % 
 MOWR.                   71:29:  Run Mud OWR 
 MSND.                     0.3:  Run Mud Sand % 
 MSOL.                    19.8:  Run Mud Solids% 
 DFV .spqt               80.00:  Mud Viscosity 
 MWOD.in                  8.00:  MWD Tool OD 
 MWSI.                     Yes:  Serv Intrp, MWD 
 OTIM.hr                180.00:  Time Operating 
 PCON.           Look Like New:  Pad Condition 
 PMAX.psia             9910.94:  Press Op, Max 
 PV  .cP                 35.00:  Mud PV 
 RUN .                    1000:  Run Number 
 ROPA.m/hr               18.00:  ROP Avg 
 ROPN.m/hr                8.00:  ROP Min 
 ROPX.m/hr               23.00:  ROP Max 
 RPMA.rpm               150.00:  RPM Surface Avg 
 RPMN.rpm               120.00:  RPM Surface Min 
 RPMX.rpm               160.00:  RPM Surface Max 
 RRUN.                    L503:  Rig Run Number 
 RTIM.hr                  5.00:  Time Reaming 
 SAZI.deg               298.42:  Azm, Start 
 SDEP.m                3870.00:  Start Depth 
 SIDD.                      No:  Serv Intrp, DD 
 SINC.deg                69.57:  Inc, Start 
 SPPA.psig             5500.00:  SPP Avg 
 SPPN.psig             4400.00:  SPP Min 
 SPPX.psig             5800.00:  SPP Max 
 STIM.      15.29.39 09-Sep-21:  Start Time 
 SVCS.                 DD, MWD:  Services 
 SVER.                    9.20:  Sperry Version 
 TDAT.m                5260.00:  Tot Depth Attmp 
 TDDF.                      No:  Trip for DD 
 TDLG.m                1390.00:  Tot Depth Loggd 
 TFF .                      No:  Trip for Fail 
 TQAA.f-kp               22.00:  Torque Abs Avg 
 TQAN.f-kp               13.00:  Torque Abs Min 
 TQAX.f-kp               27.00:  Torque Abs Max 
 TRRT.°/30m               1.60:  Turn Rotating 
 MRT .                  EWR-M5:  Maximum Recorded Temperature 
 TTMX.degC               92.00:  Max Tool Temp 
 VS01.                12330975:  Virtual Str1 SN 
 VS02.                90658671:  Virtual Str2 SN 
 VS03.                90658508:  Virtual Str3 SN 
 VS04.                90660974:  Virtual Str4 SN 
 VS05.                90654675:  Virtual Str5 SN 
 WBMN.klb                15.00:  WOB Min 
 WITN.     Alexander Yadullayev:  Customer Rep 
 WITN.           Adil Mammadov:  Customer Rep 2 
 WOBA.klb                17.00:  WOB Avg 
 WOBX.klb                18.00:  WOB Max 
 YP  .lhf2               31.00:  Yield Point 
~Curve Information Block
#MNEM.UNIT                 API CODE     Curve Description
#---------               -----------    ---------------------------
 TIME.HHMMSS            00 000 000 000:  GT Time & Date
 GTDEPTH.m              00 000 000 000:  GT Depth
 GTPQH.psia             00 000 000 000:  GT HR Quartz Pressure
 GTTQ.degC              00 000 000 000:  GT Quartz Temperature
 GTTN.NONE              00 000 000 000:  GT Test Number
 GTET.sec               00 000 000 000:  GT Elapsed Test Time
 GTTVD.m                00 000 000 000:  GT True Vertical Depth
#Other Information
#
#WARRANTY: Halliburton will use its best efforts to furnish customers with 
#accurate information and interpretations that are part of, and incident to, the services 
#provided.  However, Halliburton cannot and does not warrant the accuracy 
#or correctness of such information and interpretations.  Under no circumstances should any 
#such information or interpretation be relied upon as the sole basis for any drilling, 
#completion, production, or financial decision or any procedure involving any risk to the 
#safety of any drilling venture, drilling rig or its crew or any other third party.  The 
#Customer has full responsibility for all drilling, completion and production operation.  
#Halliburton makes no representations or warranties, either expressed or 
#implied, including, but not limited to, the implied warranties of merchantability or fitness 
#for a particular purpose, with respect to the services rendered.  In no event will 
#Halliburton be liable for failure to obtain any particular results or for 
#any damages, including, but not limited to, indirect, special or consequential damages, 
#resulting from the use of any information or interpretation provided by Halliburton.
#
~A           TIME           GTDEPTH  GTPQH  GTTQ  GTTN  GTET   GTTVD  
# ...
   03:35:30.000.17-Sep-2021 5127.00 5564.53 80.27 3.00 138.00 2605.20
   03:35:30.200.17-Sep-2021 5127.00 5564.53 80.27 3.00 138.20 2605.20
   03:35:30.400.17-Sep-2021 5127.00 5564.54 80.27 3.00 138.40 2605.20
   03:35:30.600.17-Sep-2021 5127.00 5565.33 80.27 3.00 138.60 2605.20
   03:35:30.800.17-Sep-2021 5127.00 5565.36 80.27 3.00 138.80 2605.20
   03:35:31.000.17-Sep-2021 5127.00 5565.28 80.27 3.00 139.00 2605.20
   03:35:31.200.17-Sep-2021 5127.00 5565.28 80.27 3.00 139.20 2605.20
   03:35:31.400.17-Sep-2021 5127.00 5565.53 80.27 3.00 139.40 2605.20
   03:35:31.600.17-Sep-2021 5127.00 5567.42 80.27 3.00 139.60 2605.20
   03:35:31.800.17-Sep-2021 5127.00 5567.30 80.27 3.00 139.80 2605.20
   03:35:32.000.17-Sep-2021 5127.00 5565.67 80.27 3.00 140.00 2605.20
   03:35:32.200.17-Sep-2021 5127.00 5565.67 80.27 3.00 140.20 2605.20
   03:35:32.400.17-Sep-2021 5127.00 5565.35 80.27 3.00 140.40 2605.20
   03:35:32.600.17-Sep-2021 5127.00 5564.91 80.27 3.00 140.60 2605.20
   03:35:32.800.17-Sep-2021 5127.00 5564.56 80.27 3.00 140.80 2605.20
   03:35:33.000.17-Sep-2021 5127.00 5564.39 80.26 3.00 141.00 2605.20
   03:35:33.200.17-Sep-2021 5127.00 5564.39 80.26 3.00 141.20 2605.20
   03:35:33.400.17-Sep-2021 5127.00 5564.40 80.26 3.00 141.40 2605.20
   03:35:33.600.17-Sep-2021 5127.00 5564.59 80.26 3.00 141.60 2605.20
   03:35:33.800.17-Sep-2021 5127.00 5564.82 80.26 3.00 141.80 2605.20
   03:35:34.000.17-Sep-2021 5127.00 5564.98 80.26 3.00 142.00 2605.20
   03:35:34.200.17-Sep-2021 5127.00 5564.98 80.26 3.00 142.20 2605.20
   03:35:34.400.17-Sep-2021 5127.00 5565.20 80.26 3.00 142.40 2605.20
   03:35:34.600.17-Sep-2021 5127.00 5565.32 80.26 3.00 142.60 2605.20
   03:35:34.800.17-Sep-2021 5127.00 5565.66 80.26 3.00 142.80 2605.20
   03:35:35.000.17-Sep-2021 5127.00 5568.50 80.26 3.00 143.00 2605.20
   03:35:35.200.17-Sep-2021 5127.00 5568.50 80.26 3.00 143.20 2605.20
   03:35:35.400.17-Sep-2021 5127.00 5566.21 80.26 3.00 143.40 2605.20
   03:35:35.600.17-Sep-2021 5127.00 5565.52 80.26 3.00 143.60 2605.20
   03:35:35.800.17-Sep-2021 5127.00 5565.26 80.26 3.00 143.80 2605.20
   03:35:36.000.17-Sep-2021 5127.00 5564.96 80.26 3.00 144.00 2605.20
   03:35:36.200.17-Sep-2021 5127.00 5564.96 80.26 3.00 144.20 2605.20
   03:35:36.400.17-Sep-2021 5127.00 5567.15 80.26 3.00 144.40 2605.20
   03:35:36.600.17-Sep-2021 5127.00 5563.64 80.26 3.00 144.60 2605.20
   03:35:36.800.17-Sep-2021 5127.00 5564.94 80.26 3.00 144.80 2605.20
   03:35:37.000.17-Sep-2021 5127.00 5564.50 80.26 3.00 145.00 2605.20
   03:35:37.200.17-Sep-2021 5127.00 5564.50 80.26 3.00 145.20 2605.20
   03:35:37.400.17-Sep-2021 5127.00 5567.38 80.26 3.00 145.40 2605.20
   03:35:37.600.17-Sep-2021 5127.00 5563.48 80.26 3.00 145.60 2605.20
   03:35:37.800.17-Sep-2021 5127.00 5565.49 80.26 3.00 145.80 2605.20
   03:35:38.000.17-Sep-2021 5127.00 5565.07 80.26 3.00 146.00 2605.20
   03:35:38.200.17-Sep-2021 5127.00 5565.07 80.26 3.00 146.20 2605.20
   03:35:38.400.17-Sep-2021 5127.00 5565.88 80.26 3.00 146.40 2605.20
   03:35:38.600.17-Sep-2021 5127.00 5565.92 80.26 3.00 146.60 2605.20
   03:35:38.800.17-Sep-2021 5127.00 5566.31 80.26 3.00 146.80 2605.20
   03:35:39.000.17-Sep-2021 5127.00 5564.47 80.26 3.00 147.00 2605.20
   03:35:39.200.17-Sep-2021 5127.00 5564.47 80.26 3.00 147.20 2605.20
   03:35:39.400.17-Sep-2021 5127.00 5564.94 80.26 3.00 147.40 2605.20
   03:35:39.600.17-Sep-2021 5127.00 5564.93 80.26 3.00 147.60 2605.20
   03:35:39.800.17-Sep-2021 5127.00 5564.56 80.26 3.00 147.80 2605.20
   03:35:40.000.17-Sep-2021 5127.00 5564.29 80.26 3.00 148.00 2605.20
   03:35:40.200.17-Sep-2021 5127.00 5564.29 80.26 3.00 148.20 2605.20
   03:35:40.400.17-Sep-2021 5127.00 5564.72 80.26 3.00 148.40 2605.20
   03:35:40.600.17-Sep-2021 5127.00 5565.05 80.26 3.00 148.60 2605.20
   03:35:40.800.17-Sep-2021 5127.00 5565.21 80.26 3.00 148.80 2605.20
   03:35:41.000.17-Sep-2021 5127.00 5565.16 80.26 3.00 149.00 2605.20
   03:35:41.200.17-Sep-2021 5127.00 5565.16 80.26 3.00 149.20 2605.20
   03:35:41.400.17-Sep-2021 5127.00 5565.19 80.26 3.00 149.40 2605.20
   03:35:41.600.17-Sep-2021 5127.00 5568.23 80.26 3.00 149.60 2605.20
   03:35:41.800.17-Sep-2021 5127.00 5565.12 80.26 3.00 149.80 2605.20
   03:35:42.000.17-Sep-2021 5127.00 5566.15 80.26 3.00 150.00 2605.20
   03:35:42.200.17-Sep-2021 5127.00 5566.15 80.26 3.00 150.20 2605.20
   03:35:42.400.17-Sep-2021 5127.00 5565.31 80.26 3.00 150.40 2605.20
   03:35:42.600.17-Sep-2021 5127.00 5564.80 80.26 3.00 150.60 2605.20
   03:35:42.800.17-Sep-2021 5127.00 5564.57 80.26 3.00 150.80 2605.20
   03:35:43.000.17-Sep-2021 5127.00 5564.39 80.26 3.00 151.00 2605.20
   03:35:43.200.17-Sep-2021 5127.00 5564.39 80.26 3.00 151.20 2605.20
   03:35:43.400.17-Sep-2021 5127.00 5564.22 80.26 3.00 151.40 2605.20
   03:35:43.600.17-Sep-2021 5127.00 5564.44 80.26 3.00 151.60 2605.20
   03:35:43.800.17-Sep-2021 5127.00 5564.74 80.26 3.00 151.80 2605.20
   03:35:44.000.17-Sep-2021 5127.00 5564.76 80.26 3.00 152.00 2605.20
   03:35:44.200.17-Sep-2021 5127.00 5564.76 80.26 3.00 152.20 2605.20
   03:35:44.400.17-Sep-2021 5127.00 5564.88 80.26 3.00 152.40 2605.20
   03:35:44.600.17-Sep-2021 5127.00 5565.17 80.26 3.00 152.60 2605.20
   03:35:44.800.17-Sep-2021 5127.00 5565.43 80.26 3.00 152.80 2605.20
   03:35:45.000.17-Sep-2021 5127.00 5568.13 80.26 3.00 153.00 2605.20
   03:35:45.200.17-Sep-2021 5127.00 5568.13 80.26 3.00 153.20 2605.20
   03:35:45.400.17-Sep-2021 5127.00 5566.47 80.26 3.00 153.40 2605.20
   03:35:45.600.17-Sep-2021 5127.00 5565.64 80.26 3.00 153.60 2605.20
   03:35:45.800.17-Sep-2021 5127.00 5564.84 80.26 3.00 153.80 2605.20
   03:35:46.000.17-Sep-2021 5127.00 5564.71 80.26 3.00 154.00 2605.20
   03:35:46.200.17-Sep-2021 5127.00 5564.71 80.26 3.00 154.20 2605.20
   03:35:46.400.17-Sep-2021 5127.00 5564.63 80.26 3.00 154.40 2605.20
   03:35:46.600.17-Sep-2021 5127.00 5563.17 80.25 3.00 154.60 2605.20
   03:35:46.800.17-Sep-2021 5127.00 5565.30 80.25 3.00 154.80 2605.20
   03:35:47.000.17-Sep-2021 5127.00 5564.57 80.25 3.00 155.00 2605.20
   03:35:47.200.17-Sep-2021 5127.00 5564.57 80.25 3.00 155.20 2605.20
   03:35:47.400.17-Sep-2021 5127.00 5567.15 80.25 3.00 155.40 2605.20
   03:35:47.600.17-Sep-2021 5127.00 5563.54 80.25 3.00 155.60 2605.20
   03:35:47.800.17-Sep-2021 5127.00 5565.36 80.25 3.00 155.80 2605.20
   03:35:48.000.17-Sep-2021 5127.00 5564.79 80.25 3.00 156.00 2605.20
   03:35:48.200.17-Sep-2021 5127.00 5564.79 80.25 3.00 156.20 2605.20
   03:35:48.400.17-Sep-2021 5127.00 5567.77 80.25 3.00 156.40 2605.20
   03:35:48.600.17-Sep-2021 5127.00 5564.35 80.25 3.00 156.60 2605.20
   03:35:48.800.17-Sep-2021 5127.00 5565.40 80.25 3.00 156.80 2605.20
   03:35:49.000.17-Sep-2021 5127.00 5564.27 80.25 3.00 157.00 2605.20
   03:35:49.200.17-Sep-2021 5127.00 5564.27 80.25 3.00 157.20 2605.20
   03:35:49.400.17-Sep-2021 5127.00 5564.52 80.25 3.00 157.40 2605.20
   03:35:49.600.17-Sep-2021 5127.00 5564.54 80.25 3.00 157.60 2605.20
   03:35:49.800.17-Sep-2021 5127.00 5564.38 80.25 3.00 157.80 2605.20
   03:35:50.000.17-Sep-2021 5127.00 5564.08 80.25 3.00 158.00 2605.20
   03:35:50.200.17-Sep-2021 5127.00 5564.08 80.25 3.00 158.20 2605.20
   03:35:50.400.17-Sep-2021 5127.00 5564.43 80.25 3.00 158.40 2605.20
   03:35:50.600.17-Sep-2021 5127.00 5564.71 80.25 3.00 158.60 2605.20
   03:35:50.800.17-Sep-2021 5127.00 5564.95 80.25 3.00 158.80 2605.20
   03:35:51.000.17-Sep-2021 5127.00 5564.80 80.25 3.00 159.00 2605.20
   03:35:51.200.17-Sep-2021 5127.00 5564.80 80.25 3.00 159.20 2605.20
   03:35:51.400.17-Sep-2021 5127.00 5565.86 80.25 3.00 159.40 2605.20
   03:35:51.600.17-Sep-2021 5127.00 5566.17 80.25 3.00 159.60 2605.20
   03:35:51.800.17-Sep-2021 5127.00 5567.00 80.25 3.00 159.80 2605.20
   03:35:52.000.17-Sep-2021 5127.00 5565.31 80.25 3.00 160.00 2605.20
   03:35:52.200.17-Sep-2021 5127.00 5565.31 80.25 3.00 160.20 2605.20
   03:35:52.400.17-Sep-2021 5127.00 5565.10 80.25 3.00 160.40 2605.20
   03:35:52.600.17-Sep-2021 5127.00 5564.73 80.25 3.00 160.60 2605.20
   03:35:52.800.17-Sep-2021 5127.00 5564.45 80.25 3.00 160.80 2605.20
