~Version Information
 VERS.                  2.0:   CWLS log ASCII Standard -VERSION 2.0
 WRAP.                   NO:   One line per depth step
~Well Information Block
#MNEM.UNIT     VALUE/NAME     DESCRIPTION
#---------     -----------    ---------------------------
 STRT.S             03:33:12 17-Sep-21: START TIME 03:33:12 17-Sep-21
 STOP.S             03:41:33 17-Sep-21: STOP TIME  03:41:33 17-Sep-21
 STEP.S                   0.00: STEP TIME
 NULL.                 -999.25: NULL VALUE
 DFWT.                        :  DIST FWL TEXT
 DFST.                        :  DIST FSL TEXT
 DMF .             Drill Floor:  DRILL MEAS FROM
 STIM.      10.59.12 05-Jul-21:  START TIME
 DATE.      10.59.12 10-Sep-21:  END TIME
 SPUD.               05-Jul-21:  SPUD DATE
 NREF.                    Grid:  NORTH REFERENCE
 HPTY.       Minimum Curvature:  HOLE POS TYPE
 DMOD.             Drill Model:  DRILL MOD DESC
 SVYD.                  Survey:  SURVEY DESC
 ILTD.               Lithology:  INTERP LTH DESC
 FTOP.          Formation Tops:  FORM TOPS DESC
 RIG .                     DWG:  RIG NAME
 PDAT.          Mean Sea Level:  PERMANENT DATUM
 FLD .                     ACG:  FIELD NAME
 SON .        AZ-XX-0907115008:  JOB NUMBER
 CTRY.              Azerbaijan:  COUNTRY NAME
 WELL.                    E35A:  WELL NAME
 SRVC.          TURAN DRILLING:  CONTRACTOR
 COMP.     BP Exploration (Caspian Sea LTD):  COMPANY
 UWI .                     N/A:  UNIQUE WELL IDENTIFIER
 API .                     N/A:  API NUMBER
 MDS .        Operator Entered:  MAG DATA SOURCE
 BASE.              Azerbaijan:  LOGGING EQUIPMENT BASE LOCATION
 REGN.                   EESSA:  REGION
 PROV.                    Baku:  PROVINCE
 STAT.                    Baku:  STATE NAME
 MWDS.                    Baku:  MWD SHOP
 JOBN.        AZ-XX-0907115008:  JOB TICKET NUMB
 DOE .                     N/A:  DOE NUMBER
 DCON.         Sperry Drilling:  DIRECTNL CONTR
 UNIT.                     N/A:  LOGGING EQUIPMENT ID
 WTYP.                Deviated:  WELL TYPE
 CNTY.                        :  COUNTY
 LOC .                        :  LOCATION
 LMF .             Drill Floor:  LOG MEASURED FROM
 TVDS.m                  43.16:  TVDSS CORRECTN
 LATI.deg                40.17:  LATITUDE
 LONG.deg                51.17:  LONGITUDE
 WHNS.m                  10.51:  WELL HEAD N/S
 WHEW.m                 -14.82:  WELL HEAD E/W
 UTMX.m              514336.92:  UTM X
 UTMY.m             4448618.56:  UTM Y
 DFWL.m                   0.00:  DISTANCE FWL
 DFSL.m                   0.00:  DISTANCE FSL
 SDEP.m                 849.00:  START DEPTH
 TDD .m                2862.00:  TOTAL DEPTH (DRILLER)
 VSDR.deg               292.10:  VERT SEC DIRECT
 GVFD.g                   1.00:  GRAVITY FIELD
 MFLD.nT              50382.00:  MAGNETIC FIELD
 MDIP.deg                59.68:  MAGNETIC DIP
 MDEC.deg                 6.66:  MAGNETIC DECL
 GRDC.deg                 0.09:  GRID CORRECTION
 AZTC.deg                 6.57:  AZM TOTAL CORR
 EPD .m                   0.00:  ELEVATION
 EGL .m                   0.00:  GROUND ELEVATION
 WDMS.m                 176.20:  WD ELEV
 APD .m                  43.16:  DEPTH ABOVE PD
 DEP .m                 363.42:  DEPTH
 AGAP.m                  43.16:  AIR GAP
 VSEW.m                 -14.82:  VERT SEC E/W
 VSNS.m                  10.51:  VERT SEC N/S
 EKB .m                  43.16:  KB ELEVATION
 EDF .m                  43.16:  DF ELEVATION
 TDL .m                1390.00:  TOTAL DEPTH (LOGGER)
 VSC .                       0:  VS TO CLOSURE
 MAGU.                 1855871:  MAGUTM CHECKSUM
~Parameter Information Block
#MNEM.UNIT       Value        Description
#---------     -----------    ---------------------------
 AV  .mps                 2.28:  Ann Velocity 
 AVMX.mps                 2.67:  Max Ann Veloc 
 AZIF.deg               305.00:  Azm, Final 
 BHAT.        Rotary Steerable:  BHA Type 
 BROT.°/30m               0.45:  Build Rotating 
 BS  .in                 12.25:  Bit Size 
 BSZ .in                 12.25:  Bit Size 
 BTPL.psig              600.00:  Bit Press Loss 
 CABU.                     Yes:  Customer Abuse 
 COMM.                     ÔNy:  Run Comments 1 
 TCS .hr                150.00:  Time Ciculation Ended 
 CV  .mps                 1.24:  Crit Velocity 
 CVMX.mps                 1.66:  Max Crit Veloc 
 DD1 .         Intigam Rahimov:  Direct Drillr 1 
 DD2 .            Azer Ravavov:  Direct Drillr 2 
 DD3 .              Samir Abas:  Direct Drillr 3 
 DDSV.               Geo-Pilot:  DD Service 
 DEFF.%                 100.00:  % Det Eff 
 DLRX.°/30m               1.57:  Dogleg Rot Max 
 DLSO.°/30m               0.00:  Dogleg Oriented 
 DLSX.°/30m               0.00:  Dogleg Str Max 
 DRET.      20.28.06 17-Sep-21:  Drill End Time 
 DRST.      20.27.35 10-Sep-21:  Drill Start Tim 
 DTIM.hr                 54.00:  Time Drilling 
 EDEP.m                5260.00:  End Depth 
 ENG1.      Bakhtiyar Jabbarli:  Engineer 1 
 ENG2.      Natik Hasanaghayev:  Engineer 2 
 ENG3.           Royal Nasirov:  Engineer 3 
 ETIM.      20.27.55 18-Sep-21:  End Time 
 FLOI.gpm              1100.00:  Flow In 
 FLON.gpm               800.00:  Flow In Min 
 FLOS.cptm                0.00:  Fluid Loss 
 FLOX.gpm              1200.00:  Flow In Max 
 DFT .        Mineral Oil Base:  Mud Type 
 HPRE.                      No:  High Pressure 
 HTEM.                      No:  High Temp 
 HYDO.m                   1.80:  Hydro Offset 
 IFIN.deg                72.31:  Inc, Final 
 IMAX.deg                72.36:  Inc Max 
 IMIN.deg                69.36:  Inc Min 
 IMND.m                4192.96:  Inc Min Depth 
 IMXD.m                5128.36:  Inc Max Depth 
 JARR.                      No:  Jarring 
 LETM.      20.29.00 17-Sep-21:  Log End Time 
 LOST.hr                     0:  Lost Rig Time 
 LSTM.      20.27.00 10-Sep-21:  Log Start Time 
 MDCL.ppm            227000.00:  Mud Chlorides 
 MDES.     Inversion Oil/Synthetic:  Mud Desc 
 DFD .sg                  1.45:  Mud Density 
 MDMN.sg                  1.45:  Dens Mud Min 
 MDMX.sg                  1.45:  Dens Mud Max 
 MOIL.                    70.5:  Run Mud Oil % 
 MOWR.                   71:29:  Run Mud OWR 
 MSND.                     0.3:  Run Mud Sand % 
 MSOL.                    19.8:  Run Mud Solids% 
 DFV .spqt               80.00:  Mud Viscosity 
 MWOD.in                  8.00:  MWD Tool OD 
 MWSI.                     Yes:  Serv Intrp, MWD 
 OTIM.hr                180.00:  Time Operating 
 PCON.           Look Like New:  Pad Condition 
 PMAX.psia             9910.94:  Press Op, Max 
 PV  .cP                 35.00:  Mud PV 
 RUN .                    1000:  Run Number 
 ROPA.m/hr               18.00:  ROP Avg 
 ROPN.m/hr                8.00:  ROP Min 
 ROPX.m/hr               23.00:  ROP Max 
 RPMA.rpm               150.00:  RPM Surface Avg 
 RPMN.rpm               120.00:  RPM Surface Min 
 RPMX.rpm               160.00:  RPM Surface Max 
 RRUN.                    L503:  Rig Run Number 
 RTIM.hr                  5.00:  Time Reaming 
 SAZI.deg               298.42:  Azm, Start 
 SDEP.m                3870.00:  Start Depth 
 SIDD.                      No:  Serv Intrp, DD 
 SINC.deg                69.57:  Inc, Start 
 SPPA.psig             5500.00:  SPP Avg 
 SPPN.psig             4400.00:  SPP Min 
 SPPX.psig             5800.00:  SPP Max 
 STIM.      15.29.39 09-Sep-21:  Start Time 
 SVCS.                 DD, MWD:  Services 
 SVER.                    9.20:  Sperry Version 
 TDAT.m                5260.00:  Tot Depth Attmp 
 TDDF.                      No:  Trip for DD 
 TDLG.m                1390.00:  Tot Depth Loggd 
 TFF .                      No:  Trip for Fail 
 TQAA.f-kp               22.00:  Torque Abs Avg 
 TQAN.f-kp               13.00:  Torque Abs Min 
 TQAX.f-kp               27.00:  Torque Abs Max 
 TRRT.°/30m               1.60:  Turn Rotating 
 MRT .                  EWR-M5:  Maximum Recorded Temperature 
 TTMX.degC               92.00:  Max Tool Temp 
 VS01.                12330975:  Virtual Str1 SN 
 VS02.                90658671:  Virtual Str2 SN 
 VS03.                90658508:  Virtual Str3 SN 
 VS04.                90660974:  Virtual Str4 SN 
 VS05.                90654675:  Virtual Str5 SN 
 WBMN.klb                15.00:  WOB Min 
 WITN.     Alexander Yadullayev:  Customer Rep 
 WITN.           Adil Mammadov:  Customer Rep 2 
 WOBA.klb                17.00:  WOB Avg 
 WOBX.klb                18.00:  WOB Max 
 YP  .lhf2               31.00:  Yield Point 
~Curve Information Block
#MNEM.UNIT                 API CODE     Curve Description
#---------               -----------    ---------------------------
 TIME.HHMMSS            00 000 000 000:  GT Time & Date
 GTDEPTH.m              00 000 000 000:  GT Depth
 GTPQH.psia             00 000 000 000:  GT HR Quartz Pressure
 GTTQ.degC              00 000 000 000:  GT Quartz Temperature
 GTTN.NONE              00 000 000 000:  GT Test Number
 GTET.sec               00 000 000 000:  GT Elapsed Test Time
 GTTVD.m                00 000 000 000:  GT True Vertical Depth
#Other Information
#
#WARRANTY: Halliburton will use its best efforts to furnish customers with 
#accurate information and interpretations that are part of, and incident to, the services 
#provided.  However, Halliburton cannot and does not warrant the accuracy 
#or correctness of such information and interpretations.  Under no circumstances should any 
#such information or interpretation be relied upon as the sole basis for any drilling, 
#completion, production, or financial decision or any procedure involving any risk to the 
#safety of any drilling venture, drilling rig or its crew or any other third party.  The 
#Customer has full responsibility for all drilling, completion and production operation.  
#Halliburton makes no representations or warranties, either expressed or 
#implied, including, but not limited to, the implied warranties of merchantability or fitness 
#for a particular purpose, with respect to the services rendered.  In no event will 
#Halliburton be liable for failure to obtain any particular results or for 
#any damages, including, but not limited to, indirect, special or consequential damages, 
#resulting from the use of any information or interpretation provided by Halliburton.
#
~A           TIME           GTDEPTH  GTPQH  GTTQ  GTTN  GTET   GTTVD  
# ...
   03:34:21.000.17-Sep-2021 5127.00 5565.93 80.33 3.00  69.00 2605.20
   03:34:21.200.17-Sep-2021 5127.00 5565.93 80.33 3.00  69.20 2605.20
   03:34:21.400.17-Sep-2021 5127.00 5566.58 80.33 3.00  69.40 2605.20
   03:34:21.600.17-Sep-2021 5127.00 5566.79 80.33 3.00  69.60 2605.20
   03:34:21.800.17-Sep-2021 5127.00 5566.56 80.33 3.00  69.80 2605.20
   03:34:22.000.17-Sep-2021 5127.00 5566.52 80.33 3.00  70.00 2605.20
   03:34:22.200.17-Sep-2021 5127.00 5566.52 80.33 3.00  70.20 2605.20
   03:34:22.400.17-Sep-2021 5127.00 5569.44 80.33 3.00  70.40 2605.20
   03:34:22.600.17-Sep-2021 5127.00 5566.97 80.33 3.00  70.60 2605.20
   03:34:22.800.17-Sep-2021 5127.00 5567.36 80.33 3.00  70.80 2605.20
   03:34:23.000.17-Sep-2021 5127.00 5566.64 80.33 3.00  71.00 2605.20
   03:34:23.200.17-Sep-2021 5127.00 5566.64 80.33 3.00  71.20 2605.20
   03:34:23.400.17-Sep-2021 5127.00 5566.24 80.33 3.00  71.40 2605.20
   03:34:23.600.17-Sep-2021 5127.00 5565.83 80.33 3.00  71.60 2605.20
   03:34:23.800.17-Sep-2021 5127.00 5565.71 80.33 3.00  71.80 2605.20
   03:34:24.000.17-Sep-2021 5127.00 5565.65 80.33 3.00  72.00 2605.20
   03:34:24.200.17-Sep-2021 5127.00 5565.65 80.33 3.00  72.20 2605.20
   03:34:24.400.17-Sep-2021 5127.00 5565.78 80.33 3.00  72.40 2605.20
   03:34:24.600.17-Sep-2021 5127.00 5566.10 80.33 3.00  72.60 2605.20
   03:34:24.800.17-Sep-2021 5127.00 5566.16 80.33 3.00  72.80 2605.20
   03:34:25.000.17-Sep-2021 5127.00 5566.15 80.33 3.00  73.00 2605.20
   03:34:25.200.17-Sep-2021 5127.00 5566.15 80.33 3.00  73.20 2605.20
   03:34:25.400.17-Sep-2021 5127.00 5566.51 80.33 3.00  73.40 2605.20
   03:34:25.600.17-Sep-2021 5127.00 5566.71 80.33 3.00  73.60 2605.20
   03:34:25.800.17-Sep-2021 5127.00 5569.65 80.33 3.00  73.80 2605.20
   03:34:26.000.17-Sep-2021 5127.00 5565.56 80.33 3.00  74.00 2605.20
   03:34:26.200.17-Sep-2021 5127.00 5565.56 80.33 3.00  74.20 2605.20
   03:34:26.400.17-Sep-2021 5127.00 5567.89 80.33 3.00  74.40 2605.20
   03:34:26.600.17-Sep-2021 5127.00 5566.18 80.32 3.00  74.60 2605.20
   03:34:26.800.17-Sep-2021 5127.00 5565.97 80.32 3.00  74.80 2605.20
   03:34:27.000.17-Sep-2021 5127.00 5565.96 80.32 3.00  75.00 2605.20
   03:34:27.200.17-Sep-2021 5127.00 5565.96 80.32 3.00  75.20 2605.20
   03:34:27.400.17-Sep-2021 5127.00 5565.71 80.32 3.00  75.40 2605.20
   03:34:27.600.17-Sep-2021 5127.00 5566.85 80.32 3.00  75.60 2605.20
   03:34:27.800.17-Sep-2021 5127.00 5565.84 80.32 3.00  75.80 2605.20
   03:34:28.000.17-Sep-2021 5127.00 5565.46 80.32 3.00  76.00 2605.20
   03:34:28.200.17-Sep-2021 5127.00 5565.46 80.32 3.00  76.20 2605.20
   03:34:28.400.17-Sep-2021 5127.00 5566.21 80.32 3.00  76.40 2605.20
   03:34:28.600.17-Sep-2021 5127.00 5566.86 80.32 3.00  76.60 2605.20
   03:34:28.800.17-Sep-2021 5127.00 5565.57 80.32 3.00  76.80 2605.20
   03:34:29.000.17-Sep-2021 5127.00 5568.67 80.32 3.00  77.00 2605.20
   03:34:29.200.17-Sep-2021 5127.00 5568.67 80.32 3.00  77.20 2605.20
   03:34:29.400.17-Sep-2021 5127.00 5566.83 80.32 3.00  77.40 2605.20
   03:34:29.600.17-Sep-2021 5127.00 5565.79 80.32 3.00  77.60 2605.20
   03:34:29.800.17-Sep-2021 5127.00 5565.08 80.32 3.00  77.80 2605.20
   03:34:30.000.17-Sep-2021 5127.00 5565.27 80.32 3.00  78.00 2605.20
   03:34:30.200.17-Sep-2021 5127.00 5565.27 80.32 3.00  78.20 2605.20
   03:34:30.400.17-Sep-2021 5127.00 5565.61 80.32 3.00  78.40 2605.20
   03:34:30.600.17-Sep-2021 5127.00 5565.41 80.32 3.00  78.60 2605.20
   03:34:30.800.17-Sep-2021 5127.00 5565.30 80.32 3.00  78.80 2605.20
   03:34:31.000.17-Sep-2021 5127.00 5565.33 80.32 3.00  79.00 2605.20
   03:34:31.200.17-Sep-2021 5127.00 5565.33 80.32 3.00  79.20 2605.20
   03:34:31.400.17-Sep-2021 5127.00 5565.97 80.32 3.00  79.40 2605.20
   03:34:31.600.17-Sep-2021 5127.00 5566.20 80.32 3.00  79.60 2605.20
   03:34:31.800.17-Sep-2021 5127.00 5566.01 80.32 3.00  79.80 2605.20
   03:34:32.000.17-Sep-2021 5127.00 5566.23 80.32 3.00  80.00 2605.20
   03:34:32.200.17-Sep-2021 5127.00 5566.23 80.32 3.00  80.20 2605.20
   03:34:32.400.17-Sep-2021 5127.00 5568.11 80.32 3.00  80.40 2605.20
   03:34:32.600.17-Sep-2021 5127.00 5566.52 80.32 3.00  80.60 2605.20
   03:34:32.800.17-Sep-2021 5127.00 5565.96 80.32 3.00  80.80 2605.20
   03:34:33.000.17-Sep-2021 5127.00 5566.54 80.32 3.00  81.00 2605.20
   03:34:33.200.17-Sep-2021 5127.00 5566.54 80.32 3.00  81.20 2605.20
   03:34:33.400.17-Sep-2021 5127.00 5565.45 80.32 3.00  81.40 2605.20
   03:34:33.600.17-Sep-2021 5127.00 5565.57 80.32 3.00  81.60 2605.20
   03:34:33.800.17-Sep-2021 5127.00 5565.21 80.32 3.00  81.80 2605.20
   03:34:34.000.17-Sep-2021 5127.00 5565.11 80.32 3.00  82.00 2605.20
   03:34:34.200.17-Sep-2021 5127.00 5565.11 80.32 3.00  82.20 2605.20
   03:34:34.400.17-Sep-2021 5127.00 5565.48 80.32 3.00  82.40 2605.20
   03:34:34.600.17-Sep-2021 5127.00 5565.65 80.32 3.00  82.60 2605.20
   03:34:34.800.17-Sep-2021 5127.00 5565.62 80.32 3.00  82.80 2605.20
   03:34:35.000.17-Sep-2021 5127.00 5565.85 80.32 3.00  83.00 2605.20
   03:34:35.200.17-Sep-2021 5127.00 5565.85 80.32 3.00  83.20 2605.20
   03:34:35.400.17-Sep-2021 5127.00 5566.46 80.32 3.00  83.40 2605.20
   03:34:35.600.17-Sep-2021 5127.00 5569.05 80.32 3.00  83.60 2605.20
   03:34:35.800.17-Sep-2021 5127.00 5566.21 80.32 3.00  83.80 2605.20
   03:34:36.000.17-Sep-2021 5127.00 5567.03 80.32 3.00  84.00 2605.20
   03:34:36.200.17-Sep-2021 5127.00 5567.03 80.32 3.00  84.20 2605.20
   03:34:36.400.17-Sep-2021 5127.00 5566.47 80.31 3.00  84.40 2605.20
   03:34:36.600.17-Sep-2021 5127.00 5566.31 80.31 3.00  84.60 2605.20
   03:34:36.800.17-Sep-2021 5127.00 5565.80 80.31 3.00  84.80 2605.20
   03:34:37.000.17-Sep-2021 5127.00 5568.57 80.31 3.00  85.00 2605.20
   03:34:37.200.17-Sep-2021 5127.00 5568.57 80.31 3.00  85.20 2605.20
   03:34:37.400.17-Sep-2021 5127.00 5566.34 80.31 3.00  85.40 2605.20
   03:34:37.600.17-Sep-2021 5127.00 5565.43 80.31 3.00  85.60 2605.20
   03:34:37.800.17-Sep-2021 5127.00 5565.38 80.31 3.00  85.80 2605.20
   03:34:38.000.17-Sep-2021 5127.00 5568.47 80.31 3.00  86.00 2605.20
   03:34:38.200.17-Sep-2021 5127.00 5568.47 80.31 3.00  86.20 2605.20
   03:34:38.400.17-Sep-2021 5127.00 5564.35 80.31 3.00  86.40 2605.20
   03:34:38.600.17-Sep-2021 5127.00 5565.88 80.31 3.00  86.60 2605.20
   03:34:38.800.17-Sep-2021 5127.00 5568.48 80.31 3.00  86.80 2605.20
   03:34:39.000.17-Sep-2021 5127.00 5565.67 80.31 3.00  87.00 2605.20
   03:34:39.200.17-Sep-2021 5127.00 5565.67 80.31 3.00  87.20 2605.20
   03:34:39.400.17-Sep-2021 5127.00 5565.83 80.31 3.00  87.40 2605.20
   03:34:39.600.17-Sep-2021 5127.00 5565.47 80.31 3.00  87.60 2605.20
   03:34:39.800.17-Sep-2021 5127.00 5565.36 80.31 3.00  87.80 2605.20
   03:34:40.000.17-Sep-2021 5127.00 5565.42 80.31 3.00  88.00 2605.20
   03:34:40.200.17-Sep-2021 5127.00 5565.42 80.31 3.00  88.20 2605.20
   03:34:40.400.17-Sep-2021 5127.00 5565.38 80.31 3.00  88.40 2605.20
   03:34:40.600.17-Sep-2021 5127.00 5565.28 80.31 3.00  88.60 2605.20
   03:34:40.800.17-Sep-2021 5127.00 5565.38 80.31 3.00  88.80 2605.20
   03:34:41.000.17-Sep-2021 5127.00 5565.88 80.31 3.00  89.00 2605.20
   03:34:41.200.17-Sep-2021 5127.00 5565.88 80.31 3.00  89.20 2605.20
   03:34:41.400.17-Sep-2021 5127.00 5566.16 80.31 3.00  89.40 2605.20
   03:34:41.600.17-Sep-2021 5127.00 5566.19 80.31 3.00  89.60 2605.20
   03:34:41.800.17-Sep-2021 5127.00 5567.49 80.31 3.00  89.80 2605.20
   03:34:42.000.17-Sep-2021 5127.00 5567.21 80.31 3.00  90.00 2605.20
   03:34:42.200.17-Sep-2021 5127.00 5567.21 80.31 3.00  90.20 2605.20
   03:34:42.400.17-Sep-2021 5127.00 5566.89 80.31 3.00  90.40 2605.20
   03:34:42.600.17-Sep-2021 5127.00 5566.08 80.31 3.00  90.60 2605.20
   03:34:42.800.17-Sep-2021 5127.00 5566.35 80.31 3.00  90.80 2605.20
   03:34:43.000.17-Sep-2021 5127.00 5566.38 80.31 3.00  91.00 2605.20
   03:34:43.200.17-Sep-2021 5127.00 5566.38 80.31 3.00  91.20 2605.20
   03:34:43.400.17-Sep-2021 5127.00 5565.38 80.31 3.00  91.40 2605.20
   03:34:43.600.17-Sep-2021 5127.00 5565.30 80.31 3.00  91.60 2605.20
   03:34:43.800.17-Sep-2021 5127.00 5565.26 80.31 3.00  91.80 2605.20
