~Version Information
 VERS.                  2.0:   CWLS log ASCII Standard -VERSION 2.0
 WRAP.                   NO:   One line per depth step
~Well Information Block
#MNEM.UNIT     VALUE/NAME     DESCRIPTION
#---------     -----------    ---------------------------
 STRT.S             06:03:21 17-Sep-21: START TIME 06:03:21 17-Sep-21
 STOP.S             06:11:58 17-Sep-21: STOP TIME  06:11:58 17-Sep-21
 STEP.S                   0.00: STEP TIME
 NULL.                 -999.25: NULL VALUE
 DFWT.                        :  DIST FWL TEXT
 DFST.                        :  DIST FSL TEXT
 DMF .             Drill Floor:  DRILL MEAS FROM
 STIM.      10.59.12 05-Jul-21:  START TIME
 DATE.      10.59.12 10-Sep-21:  END TIME
 SPUD.               05-Jul-21:  SPUD DATE
 NREF.                    Grid:  NORTH REFERENCE
 HPTY.       Minimum Curvature:  HOLE POS TYPE
 DMOD.             Drill Model:  DRILL MOD DESC
 SVYD.                  Survey:  SURVEY DESC
 ILTD.               Lithology:  INTERP LTH DESC
 FTOP.          Formation Tops:  FORM TOPS DESC
 RIG .                     DWG:  RIG NAME
 PDAT.          Mean Sea Level:  PERMANENT DATUM
 FLD .                     ACG:  FIELD NAME
 SON .        AZ-XX-0907115008:  JOB NUMBER
 CTRY.              Azerbaijan:  COUNTRY NAME
 WELL.                    E35A:  WELL NAME
 SRVC.          TURAN DRILLING:  CONTRACTOR
 COMP.     BP Exploration (Caspian Sea LTD):  COMPANY
 UWI .                     N/A:  UNIQUE WELL IDENTIFIER
 API .                     N/A:  API NUMBER
 MDS .        Operator Entered:  MAG DATA SOURCE
 BASE.              Azerbaijan:  LOGGING EQUIPMENT BASE LOCATION
 REGN.                   EESSA:  REGION
 PROV.                    Baku:  PROVINCE
 STAT.                    Baku:  STATE NAME
 MWDS.                    Baku:  MWD SHOP
 JOBN.        AZ-XX-0907115008:  JOB TICKET NUMB
 DOE .                     N/A:  DOE NUMBER
 DCON.         Sperry Drilling:  DIRECTNL CONTR
 UNIT.                     N/A:  LOGGING EQUIPMENT ID
 WTYP.                Deviated:  WELL TYPE
 CNTY.                        :  COUNTY
 LOC .                        :  LOCATION
 LMF .             Drill Floor:  LOG MEASURED FROM
 TVDS.m                  43.16:  TVDSS CORRECTN
 LATI.deg                40.17:  LATITUDE
 LONG.deg                51.17:  LONGITUDE
 WHNS.m                  10.51:  WELL HEAD N/S
 WHEW.m                 -14.82:  WELL HEAD E/W
 UTMX.m              514336.92:  UTM X
 UTMY.m             4448618.56:  UTM Y
 DFWL.m                   0.00:  DISTANCE FWL
 DFSL.m                   0.00:  DISTANCE FSL
 SDEP.m                 849.00:  START DEPTH
 TDD .m                2862.00:  TOTAL DEPTH (DRILLER)
 VSDR.deg               292.10:  VERT SEC DIRECT
 GVFD.g                   1.00:  GRAVITY FIELD
 MFLD.nT              50382.00:  MAGNETIC FIELD
 MDIP.deg                59.68:  MAGNETIC DIP
 MDEC.deg                 6.66:  MAGNETIC DECL
 GRDC.deg                 0.09:  GRID CORRECTION
 AZTC.deg                 6.57:  AZM TOTAL CORR
 EPD .m                   0.00:  ELEVATION
 EGL .m                   0.00:  GROUND ELEVATION
 WDMS.m                 176.20:  WD ELEV
 APD .m                  43.16:  DEPTH ABOVE PD
 DEP .m                 363.42:  DEPTH
 AGAP.m                  43.16:  AIR GAP
 VSEW.m                 -14.82:  VERT SEC E/W
 VSNS.m                  10.51:  VERT SEC N/S
 EKB .m                  43.16:  KB ELEVATION
 EDF .m                  43.16:  DF ELEVATION
 TDL .m                1390.00:  TOTAL DEPTH (LOGGER)
 VSC .                       0:  VS TO CLOSURE
 MAGU.                 1855871:  MAGUTM CHECKSUM
~Parameter Information Block
#MNEM.UNIT       Value        Description
#---------     -----------    ---------------------------
 AV  .mps                 2.28:  Ann Velocity 
 AVMX.mps                 2.67:  Max Ann Veloc 
 AZIF.deg               305.00:  Azm, Final 
 BHAT.        Rotary Steerable:  BHA Type 
 BROT.°/30m               0.45:  Build Rotating 
 BS  .in                 12.25:  Bit Size 
 BSZ .in                 12.25:  Bit Size 
 BTPL.psig              600.00:  Bit Press Loss 
 CABU.                     Yes:  Customer Abuse 
 COMM.                     $t:  Run Comments 1 
 TCS .hr                150.00:  Time Ciculation Ended 
 CV  .mps                 1.24:  Crit Velocity 
 CVMX.mps                 1.66:  Max Crit Veloc 
 DD1 .         Intigam Rahimov:  Direct Drillr 1 
 DD2 .            Azer Ravavov:  Direct Drillr 2 
 DD3 .              Samir Abas:  Direct Drillr 3 
 DDSV.               Geo-Pilot:  DD Service 
 DEFF.%                 100.00:  % Det Eff 
 DLRX.°/30m               1.57:  Dogleg Rot Max 
 DLSO.°/30m               0.00:  Dogleg Oriented 
 DLSX.°/30m               0.00:  Dogleg Str Max 
 DRET.      20.28.06 17-Sep-21:  Drill End Time 
 DRST.      20.27.35 10-Sep-21:  Drill Start Tim 
 DTIM.hr                 54.00:  Time Drilling 
 EDEP.m                5260.00:  End Depth 
 ENG1.      Bakhtiyar Jabbarli:  Engineer 1 
 ENG2.      Natik Hasanaghayev:  Engineer 2 
 ENG3.           Royal Nasirov:  Engineer 3 
 ETIM.      20.27.55 18-Sep-21:  End Time 
 FLOI.gpm              1100.00:  Flow In 
 FLON.gpm               800.00:  Flow In Min 
 FLOS.cptm                0.00:  Fluid Loss 
 FLOX.gpm              1200.00:  Flow In Max 
 DFT .        Mineral Oil Base:  Mud Type 
 HPRE.                      No:  High Pressure 
 HTEM.                      No:  High Temp 
 HYDO.m                   1.80:  Hydro Offset 
 IFIN.deg                72.31:  Inc, Final 
 IMAX.deg                72.36:  Inc Max 
 IMIN.deg                69.36:  Inc Min 
 IMND.m                4192.96:  Inc Min Depth 
 IMXD.m                5128.36:  Inc Max Depth 
 JARR.                      No:  Jarring 
 LETM.      20.29.00 17-Sep-21:  Log End Time 
 LOST.hr                     0:  Lost Rig Time 
 LSTM.      20.27.00 10-Sep-21:  Log Start Time 
 MDCL.ppm            227000.00:  Mud Chlorides 
 MDES.     Inversion Oil/Synthetic:  Mud Desc 
 DFD .sg                  1.45:  Mud Density 
 MDMN.sg                  1.45:  Dens Mud Min 
 MDMX.sg                  1.45:  Dens Mud Max 
 MOIL.                    70.5:  Run Mud Oil % 
 MOWR.                   71:29:  Run Mud OWR 
 MSND.                     0.3:  Run Mud Sand % 
 MSOL.                    19.8:  Run Mud Solids% 
 DFV .spqt               80.00:  Mud Viscosity 
 MWOD.in                  8.00:  MWD Tool OD 
 MWSI.                     Yes:  Serv Intrp, MWD 
 OTIM.hr                180.00:  Time Operating 
 PCON.           Look Like New:  Pad Condition 
 PMAX.psia             9910.94:  Press Op, Max 
 PV  .cP                 35.00:  Mud PV 
 RUN .                    1000:  Run Number 
 ROPA.m/hr               18.00:  ROP Avg 
 ROPN.m/hr                8.00:  ROP Min 
 ROPX.m/hr               23.00:  ROP Max 
 RPMA.rpm               150.00:  RPM Surface Avg 
 RPMN.rpm               120.00:  RPM Surface Min 
 RPMX.rpm               160.00:  RPM Surface Max 
 RRUN.                    L503:  Rig Run Number 
 RTIM.hr                  5.00:  Time Reaming 
 SAZI.deg               298.42:  Azm, Start 
 SDEP.m                3870.00:  Start Depth 
 SIDD.                      No:  Serv Intrp, DD 
 SINC.deg                69.57:  Inc, Start 
 SPPA.psig             5500.00:  SPP Avg 
 SPPN.psig             4400.00:  SPP Min 
 SPPX.psig             5800.00:  SPP Max 
 STIM.      15.29.39 09-Sep-21:  Start Time 
 SVCS.                 DD, MWD:  Services 
 SVER.                    9.20:  Sperry Version 
 TDAT.m                5260.00:  Tot Depth Attmp 
 TDDF.                      No:  Trip for DD 
 TDLG.m                1390.00:  Tot Depth Loggd 
 TFF .                      No:  Trip for Fail 
 TQAA.f-kp               22.00:  Torque Abs Avg 
 TQAN.f-kp               13.00:  Torque Abs Min 
 TQAX.f-kp               27.00:  Torque Abs Max 
 TRRT.°/30m               1.60:  Turn Rotating 
 MRT .                  EWR-M5:  Maximum Recorded Temperature 
 TTMX.degC               92.00:  Max Tool Temp 
 VS01.                12330975:  Virtual Str1 SN 
 VS02.                90658671:  Virtual Str2 SN 
 VS03.                90658508:  Virtual Str3 SN 
 VS04.                90660974:  Virtual Str4 SN 
 VS05.                90654675:  Virtual Str5 SN 
 WBMN.klb                15.00:  WOB Min 
 WITN.     Alexander Yadullayev:  Customer Rep 
 WITN.           Adil Mammadov:  Customer Rep 2 
 WOBA.klb                17.00:  WOB Avg 
 WOBX.klb                18.00:  WOB Max 
 YP  .lhf2               31.00:  Yield Point 
~Curve Information Block
#MNEM.UNIT                 API CODE     Curve Description
#---------               -----------    ---------------------------
 TIME.HHMMSS            00 000 000 000:  GT Time & Date
 GTDEPTH.m              00 000 000 000:  GT Depth
 GTPQH.psia             00 000 000 000:  GT HR Quartz Pressure
 GTTQ.degC              00 000 000 000:  GT Quartz Temperature
 GTTN.NONE              00 000 000 000:  GT Test Number
 GTET.sec               00 000 000 000:  GT Elapsed Test Time
 GTTVD.m                00 000 000 000:  GT True Vertical Depth
#Other Information
#
#WARRANTY: Halliburton will use its best efforts to furnish customers with 
#accurate information and interpretations that are part of, and incident to, the services 
#provided.  However, Halliburton cannot and does not warrant the accuracy 
#or correctness of such information and interpretations.  Under no circumstances should any 
#such information or interpretation be relied upon as the sole basis for any drilling, 
#completion, production, or financial decision or any procedure involving any risk to the 
#safety of any drilling venture, drilling rig or its crew or any other third party.  The 
#Customer has full responsibility for all drilling, completion and production operation.  
#Halliburton makes no representations or warranties, either expressed or 
#implied, including, but not limited to, the implied warranties of merchantability or fitness 
#for a particular purpose, with respect to the services rendered.  In no event will 
#Halliburton be liable for failure to obtain any particular results or for 
#any damages, including, but not limited to, indirect, special or consequential damages, 
#resulting from the use of any information or interpretation provided by Halliburton.
#
~A           TIME           GTDEPTH  GTPQH  GTTQ  GTTN  GTET   GTTVD  
# ...
   06:10:15.566.17-Sep-2021 5057.50 5540.09 79.44 6.00 413.91 2583.80
   06:10:15.766.17-Sep-2021 5057.50 5540.09 79.44 6.00 414.11 2583.80
   06:10:15.966.17-Sep-2021 5057.50 5541.42 79.44 6.00 414.31 2583.80
   06:10:16.166.17-Sep-2021 5057.50 5541.03 79.44 6.00 414.51 2583.80
   06:10:16.366.17-Sep-2021 5057.50 5540.23 79.44 6.00 414.71 2583.80
   06:10:16.566.17-Sep-2021 5057.50 5540.27 79.44 6.00 414.91 2583.80
   06:10:16.766.17-Sep-2021 5057.50 5540.27 79.44 6.00 415.11 2583.80
   06:10:16.966.17-Sep-2021 5057.50 5537.45 79.44 6.00 415.31 2583.80
   06:10:17.166.17-Sep-2021 5057.50 5541.01 79.44 6.00 415.51 2583.80
   06:10:17.366.17-Sep-2021 5057.50 5539.54 79.44 6.00 415.71 2583.80
   06:10:17.566.17-Sep-2021 5057.50 5542.64 79.44 6.00 415.91 2583.80
   06:10:17.766.17-Sep-2021 5057.50 5542.64 79.44 6.00 416.11 2583.80
   06:10:17.965.17-Sep-2021 5057.50 5541.04 79.44 6.00 416.31 2583.80
   06:10:18.165.17-Sep-2021 5057.50 5539.59 79.44 6.00 416.51 2583.80
   06:10:18.365.17-Sep-2021 5057.50 5539.10 79.44 6.00 416.71 2583.80
   06:10:18.565.17-Sep-2021 5057.50 5544.02 79.43 6.00 416.91 2583.80
   06:10:18.765.17-Sep-2021 5057.50 5544.02 79.43 6.00 417.11 2583.80
   06:10:18.965.17-Sep-2021 5057.50 5540.97 79.43 6.00 417.31 2583.80
   06:10:19.165.17-Sep-2021 5057.50 5539.68 79.43 6.00 417.51 2583.80
   06:10:19.365.17-Sep-2021 5057.50 5539.69 79.43 6.00 417.71 2583.80
   06:10:19.565.17-Sep-2021 5057.50 5540.11 79.43 6.00 417.91 2583.80
   06:10:19.765.17-Sep-2021 5057.50 5540.11 79.43 6.00 418.11 2583.80
   06:10:19.965.17-Sep-2021 5057.50 5539.63 79.43 6.00 418.31 2583.80
   06:10:20.165.17-Sep-2021 5057.50 5539.54 79.43 6.00 418.51 2583.80
   06:10:20.365.17-Sep-2021 5057.50 5539.89 79.43 6.00 418.71 2583.80
   06:10:20.565.17-Sep-2021 5057.50 5539.63 79.43 6.00 418.91 2583.80
   06:10:20.765.17-Sep-2021 5057.50 5539.63 79.43 6.00 419.11 2583.80
   06:10:20.965.17-Sep-2021 5057.50 5540.07 79.43 6.00 419.31 2583.80
   06:10:21.165.17-Sep-2021 5057.50 5540.16 79.43 6.00 419.51 2583.80
   06:10:21.365.17-Sep-2021 5057.50 5540.33 79.43 6.00 419.71 2583.80
   06:10:21.565.17-Sep-2021 5057.50 5540.42 79.43 6.00 419.91 2583.80
   06:10:21.765.17-Sep-2021 5057.50 5540.42 79.43 6.00 420.11 2583.80
   06:10:21.965.17-Sep-2021 5057.50 5540.15 79.43 6.00 420.31 2583.80
   06:10:22.165.17-Sep-2021 5057.50 5541.55 79.43 6.00 420.51 2583.80
   06:10:22.365.17-Sep-2021 5057.50 5540.85 79.43 6.00 420.71 2583.80
   06:10:22.565.17-Sep-2021 5057.50 5540.07 79.43 6.00 420.91 2583.80
   06:10:22.764.17-Sep-2021 5057.50 5540.07 79.43 6.00 421.11 2583.80
   06:10:22.964.17-Sep-2021 5057.50 5540.31 79.43 6.00 421.31 2583.80
   06:10:23.164.17-Sep-2021 5057.50 5539.43 79.43 6.00 421.51 2583.80
   06:10:23.364.17-Sep-2021 5057.50 5539.51 79.43 6.00 421.71 2583.80
   06:10:23.564.17-Sep-2021 5057.50 5539.46 79.43 6.00 421.91 2583.80
   06:10:23.764.17-Sep-2021 5057.50 5539.46 79.43 6.00 422.11 2583.80
   06:10:23.964.17-Sep-2021 5057.50 5539.68 79.43 6.00 422.31 2583.80
   06:10:24.164.17-Sep-2021 5057.50 5539.77 79.43 6.00 422.51 2583.80
   06:10:24.364.17-Sep-2021 5057.50 5539.96 79.43 6.00 422.71 2583.80
   06:10:24.564.17-Sep-2021 5057.50 5540.15 79.42 6.00 422.91 2583.80
   06:10:24.764.17-Sep-2021 5057.50 5540.15 79.42 6.00 423.11 2583.80
   06:10:24.964.17-Sep-2021 5057.50 5540.54 79.42 6.00 423.31 2583.80
   06:10:25.164.17-Sep-2021 5057.50 5543.10 79.42 6.00 423.51 2583.80
   06:10:25.364.17-Sep-2021 5057.50 5539.47 79.42 6.00 423.71 2583.80
   06:10:25.564.17-Sep-2021 5057.50 5542.41 79.42 6.00 423.91 2583.80
   06:10:25.764.17-Sep-2021 5057.50 5542.41 79.42 6.00 424.11 2583.80
   06:10:25.964.17-Sep-2021 5057.50 5540.37 79.42 6.00 424.31 2583.80
   06:10:26.164.17-Sep-2021 5057.50 5540.62 79.42 6.00 424.51 2583.80
   06:10:26.364.17-Sep-2021 5057.50 5539.79 79.42 6.00 424.71 2583.80
   06:10:26.564.17-Sep-2021 5057.50 5541.59 79.42 6.00 424.91 2583.80
   06:10:26.764.17-Sep-2021 5057.50 5541.59 79.42 6.00 425.11 2583.80
   06:10:26.964.17-Sep-2021 5057.50 5540.57 79.42 6.00 425.31 2583.80
   06:10:27.164.17-Sep-2021 5057.50 5542.39 79.42 6.00 425.51 2583.80
   06:10:27.363.17-Sep-2021 5057.50 5538.96 79.42 6.00 425.71 2583.80
   06:10:27.563.17-Sep-2021 5057.50 5539.89 79.42 6.00 425.91 2583.80
   06:10:27.763.17-Sep-2021 5057.50 5539.89 79.42 6.00 426.11 2583.80
   06:10:27.963.17-Sep-2021 5057.50 5540.01 79.42 6.00 426.31 2583.80
   06:10:28.163.17-Sep-2021 5057.50 5539.53 79.42 6.00 426.51 2583.80
   06:10:28.363.17-Sep-2021 5057.50 5541.46 79.42 6.00 426.71 2583.80
   06:10:28.563.17-Sep-2021 5057.50 5539.33 79.42 6.00 426.91 2583.80
   06:10:28.763.17-Sep-2021 5057.50 5539.33 79.42 6.00 427.11 2583.80
   06:10:28.963.17-Sep-2021 5057.50 5540.17 79.42 6.00 427.31 2583.80
   06:10:29.163.17-Sep-2021 5057.50 5539.40 79.42 6.00 427.51 2583.80
   06:10:29.363.17-Sep-2021 5057.50 5539.93 79.42 6.00 427.71 2583.80
   06:10:29.563.17-Sep-2021 5057.50 5539.40 79.42 6.00 427.91 2583.80
   06:10:29.763.17-Sep-2021 5057.50 5539.40 79.42 6.00 428.11 2583.80
   06:10:29.963.17-Sep-2021 5057.50 5539.52 79.42 6.00 428.31 2583.80
   06:10:30.163.17-Sep-2021 5057.50 5539.69 79.42 6.00 428.51 2583.80
   06:10:30.363.17-Sep-2021 5057.50 5540.02 79.42 6.00 428.71 2583.80
   06:10:30.563.17-Sep-2021 5057.50 5539.93 79.41 6.00 428.91 2583.80
   06:10:30.763.17-Sep-2021 5057.50 5539.93 79.41 6.00 429.11 2583.80
   06:10:30.963.17-Sep-2021 5057.50 5540.09 79.41 6.00 429.31 2583.80
   06:10:31.163.17-Sep-2021 5057.50 5540.15 79.41 6.00 429.51 2583.80
   06:10:31.363.17-Sep-2021 5057.50 5544.10 79.41 6.00 429.71 2583.80
   06:10:31.563.17-Sep-2021 5057.50 5538.30 79.41 6.00 429.91 2583.80
   06:10:31.763.17-Sep-2021 5057.50 5538.30 79.41 6.00 430.11 2583.80
   06:10:31.963.17-Sep-2021 5057.50 5540.54 79.41 6.00 430.31 2583.80
   06:10:32.162.17-Sep-2021 5057.50 5540.35 79.41 6.00 430.51 2583.80
   06:10:32.362.17-Sep-2021 5057.50 5540.08 79.41 6.00 430.71 2583.80
   06:10:32.562.17-Sep-2021 5057.50 5539.68 79.41 6.00 430.91 2583.80
   06:10:32.762.17-Sep-2021 5057.50 5539.68 79.41 6.00 431.11 2583.80
   06:10:32.962.17-Sep-2021 5057.50 5539.33 79.41 6.00 431.31 2583.80
   06:10:33.162.17-Sep-2021 5057.50 5539.57 79.41 6.00 431.51 2583.80
   06:10:33.362.17-Sep-2021 5057.50 5539.33 79.41 6.00 431.71 2583.80
   06:10:33.562.17-Sep-2021 5057.50 5539.48 79.41 6.00 431.91 2583.80
   06:10:33.762.17-Sep-2021 5057.50 5539.48 79.41 6.00 432.11 2583.80
   06:10:33.962.17-Sep-2021 5057.50 5539.69 79.41 6.00 432.31 2583.80
   06:10:34.162.17-Sep-2021 5057.50 5540.02 79.41 6.00 432.51 2583.80
   06:10:34.362.17-Sep-2021 5057.50 5539.92 79.41 6.00 432.71 2583.80
   06:10:34.562.17-Sep-2021 5057.50 5540.24 79.41 6.00 432.91 2583.80
   06:10:34.762.17-Sep-2021 5057.50 5540.24 79.41 6.00 433.11 2583.80
   06:10:34.962.17-Sep-2021 5057.50 5539.99 79.41 6.00 433.31 2583.80
   06:10:35.162.17-Sep-2021 5057.50 5540.47 79.41 6.00 433.51 2583.80
   06:10:35.362.17-Sep-2021 5057.50 5541.22 79.41 6.00 433.71 2583.80
   06:10:35.562.17-Sep-2021 5057.50 5540.83 79.41 6.00 433.91 2583.80
   06:10:35.762.17-Sep-2021 5057.50 5540.83 79.41 6.00 434.11 2583.80
   06:10:35.962.17-Sep-2021 5057.50 5539.85 79.41 6.00 434.31 2583.80
   06:10:36.162.17-Sep-2021 5057.50 5543.51 79.41 6.00 434.51 2583.80
   06:10:36.362.17-Sep-2021 5057.50 5537.09 79.41 6.00 434.71 2583.80
   06:10:36.562.17-Sep-2021 5057.50 5540.81 79.40 6.00 434.91 2583.80
   06:10:36.761.17-Sep-2021 5057.50 5540.81 79.40 6.00 435.11 2583.80
   06:10:36.961.17-Sep-2021 5057.50 5542.50 79.40 6.00 435.31 2583.80
   06:10:37.161.17-Sep-2021 5057.50 5538.22 79.40 6.00 435.51 2583.80
   06:10:37.361.17-Sep-2021 5057.50 5540.88 79.40 6.00 435.71 2583.80
   06:10:37.561.17-Sep-2021 5057.50 5539.11 79.40 6.00 435.91 2583.80
   06:10:37.761.17-Sep-2021 5057.50 5539.11 79.40 6.00 436.11 2583.80
   06:10:37.961.17-Sep-2021 5057.50 5538.99 79.40 6.00 436.31 2583.80
   06:10:38.161.17-Sep-2021 5057.50 5536.90 79.40 6.00 436.51 2583.80
   06:10:38.361.17-Sep-2021 5057.50 5540.61 79.40 6.00 436.71 2583.80
