~Version Information
 VERS.                  2.0:   CWLS log ASCII Standard -VERSION 2.0
 WRAP.                   NO:   One line per depth step
~Well Information Block
#MNEM.UNIT     VALUE/NAME     DESCRIPTION
#---------     -----------    ---------------------------
 STRT.S             06:03:21 17-Sep-21: START TIME 06:03:21 17-Sep-21
 STOP.S             06:11:58 17-Sep-21: STOP TIME  06:11:58 17-Sep-21
 STEP.S                   0.00: STEP TIME
 NULL.                 -999.25: NULL VALUE
 DFWT.                        :  DIST FWL TEXT
 DFST.                        :  DIST FSL TEXT
 DMF .             Drill Floor:  DRILL MEAS FROM
 STIM.      10.59.12 05-Jul-21:  START TIME
 DATE.      10.59.12 10-Sep-21:  END TIME
 SPUD.               05-Jul-21:  SPUD DATE
 NREF.                    Grid:  NORTH REFERENCE
 HPTY.       Minimum Curvature:  HOLE POS TYPE
 DMOD.             Drill Model:  DRILL MOD DESC
 SVYD.                  Survey:  SURVEY DESC
 ILTD.               Lithology:  INTERP LTH DESC
 FTOP.          Formation Tops:  FORM TOPS DESC
 RIG .                     DWG:  RIG NAME
 PDAT.          Mean Sea Level:  PERMANENT DATUM
 FLD .                     ACG:  FIELD NAME
 SON .        AZ-XX-0907115008:  JOB NUMBER
 CTRY.              Azerbaijan:  COUNTRY NAME
 WELL.                    E35A:  WELL NAME
 SRVC.          TURAN DRILLING:  CONTRACTOR
 COMP.     BP Exploration (Caspian Sea LTD):  COMPANY
 UWI .                     N/A:  UNIQUE WELL IDENTIFIER
 API .                     N/A:  API NUMBER
 MDS .        Operator Entered:  MAG DATA SOURCE
 BASE.              Azerbaijan:  LOGGING EQUIPMENT BASE LOCATION
 REGN.                   EESSA:  REGION
 PROV.                    Baku:  PROVINCE
 STAT.                    Baku:  STATE NAME
 MWDS.                    Baku:  MWD SHOP
 JOBN.        AZ-XX-0907115008:  JOB TICKET NUMB
 DOE .                     N/A:  DOE NUMBER
 DCON.         Sperry Drilling:  DIRECTNL CONTR
 UNIT.                     N/A:  LOGGING EQUIPMENT ID
 WTYP.                Deviated:  WELL TYPE
 CNTY.                        :  COUNTY
 LOC .                        :  LOCATION
 LMF .             Drill Floor:  LOG MEASURED FROM
 TVDS.m                  43.16:  TVDSS CORRECTN
 LATI.deg                40.17:  LATITUDE
 LONG.deg                51.17:  LONGITUDE
 WHNS.m                  10.51:  WELL HEAD N/S
 WHEW.m                 -14.82:  WELL HEAD E/W
 UTMX.m              514336.92:  UTM X
 UTMY.m             4448618.56:  UTM Y
 DFWL.m                   0.00:  DISTANCE FWL
 DFSL.m                   0.00:  DISTANCE FSL
 SDEP.m                 849.00:  START DEPTH
 TDD .m                2862.00:  TOTAL DEPTH (DRILLER)
 VSDR.deg               292.10:  VERT SEC DIRECT
 GVFD.g                   1.00:  GRAVITY FIELD
 MFLD.nT              50382.00:  MAGNETIC FIELD
 MDIP.deg                59.68:  MAGNETIC DIP
 MDEC.deg                 6.66:  MAGNETIC DECL
 GRDC.deg                 0.09:  GRID CORRECTION
 AZTC.deg                 6.57:  AZM TOTAL CORR
 EPD .m                   0.00:  ELEVATION
 EGL .m                   0.00:  GROUND ELEVATION
 WDMS.m                 176.20:  WD ELEV
 APD .m                  43.16:  DEPTH ABOVE PD
 DEP .m                 363.42:  DEPTH
 AGAP.m                  43.16:  AIR GAP
 VSEW.m                 -14.82:  VERT SEC E/W
 VSNS.m                  10.51:  VERT SEC N/S
 EKB .m                  43.16:  KB ELEVATION
 EDF .m                  43.16:  DF ELEVATION
 TDL .m                1390.00:  TOTAL DEPTH (LOGGER)
 VSC .                       0:  VS TO CLOSURE
 MAGU.                 1855871:  MAGUTM CHECKSUM
~Parameter Information Block
#MNEM.UNIT       Value        Description
#---------     -----------    ---------------------------
 AV  .mps                 2.28:  Ann Velocity 
 AVMX.mps                 2.67:  Max Ann Veloc 
 AZIF.deg               305.00:  Azm, Final 
 BHAT.        Rotary Steerable:  BHA Type 
 BROT.°/30m               0.45:  Build Rotating 
 BS  .in                 12.25:  Bit Size 
 BSZ .in                 12.25:  Bit Size 
 BTPL.psig              600.00:  Bit Press Loss 
 CABU.                     Yes:  Customer Abuse 
 COMM.                     $t:  Run Comments 1 
 TCS .hr                150.00:  Time Ciculation Ended 
 CV  .mps                 1.24:  Crit Velocity 
 CVMX.mps                 1.66:  Max Crit Veloc 
 DD1 .         Intigam Rahimov:  Direct Drillr 1 
 DD2 .            Azer Ravavov:  Direct Drillr 2 
 DD3 .              Samir Abas:  Direct Drillr 3 
 DDSV.               Geo-Pilot:  DD Service 
 DEFF.%                 100.00:  % Det Eff 
 DLRX.°/30m               1.57:  Dogleg Rot Max 
 DLSO.°/30m               0.00:  Dogleg Oriented 
 DLSX.°/30m               0.00:  Dogleg Str Max 
 DRET.      20.28.06 17-Sep-21:  Drill End Time 
 DRST.      20.27.35 10-Sep-21:  Drill Start Tim 
 DTIM.hr                 54.00:  Time Drilling 
 EDEP.m                5260.00:  End Depth 
 ENG1.      Bakhtiyar Jabbarli:  Engineer 1 
 ENG2.      Natik Hasanaghayev:  Engineer 2 
 ENG3.           Royal Nasirov:  Engineer 3 
 ETIM.      20.27.55 18-Sep-21:  End Time 
 FLOI.gpm              1100.00:  Flow In 
 FLON.gpm               800.00:  Flow In Min 
 FLOS.cptm                0.00:  Fluid Loss 
 FLOX.gpm              1200.00:  Flow In Max 
 DFT .        Mineral Oil Base:  Mud Type 
 HPRE.                      No:  High Pressure 
 HTEM.                      No:  High Temp 
 HYDO.m                   1.80:  Hydro Offset 
 IFIN.deg                72.31:  Inc, Final 
 IMAX.deg                72.36:  Inc Max 
 IMIN.deg                69.36:  Inc Min 
 IMND.m                4192.96:  Inc Min Depth 
 IMXD.m                5128.36:  Inc Max Depth 
 JARR.                      No:  Jarring 
 LETM.      20.29.00 17-Sep-21:  Log End Time 
 LOST.hr                     0:  Lost Rig Time 
 LSTM.      20.27.00 10-Sep-21:  Log Start Time 
 MDCL.ppm            227000.00:  Mud Chlorides 
 MDES.     Inversion Oil/Synthetic:  Mud Desc 
 DFD .sg                  1.45:  Mud Density 
 MDMN.sg                  1.45:  Dens Mud Min 
 MDMX.sg                  1.45:  Dens Mud Max 
 MOIL.                    70.5:  Run Mud Oil % 
 MOWR.                   71:29:  Run Mud OWR 
 MSND.                     0.3:  Run Mud Sand % 
 MSOL.                    19.8:  Run Mud Solids% 
 DFV .spqt               80.00:  Mud Viscosity 
 MWOD.in                  8.00:  MWD Tool OD 
 MWSI.                     Yes:  Serv Intrp, MWD 
 OTIM.hr                180.00:  Time Operating 
 PCON.           Look Like New:  Pad Condition 
 PMAX.psia             9910.94:  Press Op, Max 
 PV  .cP                 35.00:  Mud PV 
 RUN .                    1000:  Run Number 
 ROPA.m/hr               18.00:  ROP Avg 
 ROPN.m/hr                8.00:  ROP Min 
 ROPX.m/hr               23.00:  ROP Max 
 RPMA.rpm               150.00:  RPM Surface Avg 
 RPMN.rpm               120.00:  RPM Surface Min 
 RPMX.rpm               160.00:  RPM Surface Max 
 RRUN.                    L503:  Rig Run Number 
 RTIM.hr                  5.00:  Time Reaming 
 SAZI.deg               298.42:  Azm, Start 
 SDEP.m                3870.00:  Start Depth 
 SIDD.                      No:  Serv Intrp, DD 
 SINC.deg                69.57:  Inc, Start 
 SPPA.psig             5500.00:  SPP Avg 
 SPPN.psig             4400.00:  SPP Min 
 SPPX.psig             5800.00:  SPP Max 
 STIM.      15.29.39 09-Sep-21:  Start Time 
 SVCS.                 DD, MWD:  Services 
 SVER.                    9.20:  Sperry Version 
 TDAT.m                5260.00:  Tot Depth Attmp 
 TDDF.                      No:  Trip for DD 
 TDLG.m                1390.00:  Tot Depth Loggd 
 TFF .                      No:  Trip for Fail 
 TQAA.f-kp               22.00:  Torque Abs Avg 
 TQAN.f-kp               13.00:  Torque Abs Min 
 TQAX.f-kp               27.00:  Torque Abs Max 
 TRRT.°/30m               1.60:  Turn Rotating 
 MRT .                  EWR-M5:  Maximum Recorded Temperature 
 TTMX.degC               92.00:  Max Tool Temp 
 VS01.                12330975:  Virtual Str1 SN 
 VS02.                90658671:  Virtual Str2 SN 
 VS03.                90658508:  Virtual Str3 SN 
 VS04.                90660974:  Virtual Str4 SN 
 VS05.                90654675:  Virtual Str5 SN 
 WBMN.klb                15.00:  WOB Min 
 WITN.     Alexander Yadullayev:  Customer Rep 
 WITN.           Adil Mammadov:  Customer Rep 2 
 WOBA.klb                17.00:  WOB Avg 
 WOBX.klb                18.00:  WOB Max 
 YP  .lhf2               31.00:  Yield Point 
~Curve Information Block
#MNEM.UNIT                 API CODE     Curve Description
#---------               -----------    ---------------------------
 TIME.HHMMSS            00 000 000 000:  GT Time & Date
 GTDEPTH.m              00 000 000 000:  GT Depth
 GTPQH.psia             00 000 000 000:  GT HR Quartz Pressure
 GTTQ.degC              00 000 000 000:  GT Quartz Temperature
 GTTN.NONE              00 000 000 000:  GT Test Number
 GTET.sec               00 000 000 000:  GT Elapsed Test Time
 GTTVD.m                00 000 000 000:  GT True Vertical Depth
#Other Information
#
#WARRANTY: Halliburton will use its best efforts to furnish customers with 
#accurate information and interpretations that are part of, and incident to, the services 
#provided.  However, Halliburton cannot and does not warrant the accuracy 
#or correctness of such information and interpretations.  Under no circumstances should any 
#such information or interpretation be relied upon as the sole basis for any drilling, 
#completion, production, or financial decision or any procedure involving any risk to the 
#safety of any drilling venture, drilling rig or its crew or any other third party.  The 
#Customer has full responsibility for all drilling, completion and production operation.  
#Halliburton makes no representations or warranties, either expressed or 
#implied, including, but not limited to, the implied warranties of merchantability or fitness 
#for a particular purpose, with respect to the services rendered.  In no event will 
#Halliburton be liable for failure to obtain any particular results or for 
#any damages, including, but not limited to, indirect, special or consequential damages, 
#resulting from the use of any information or interpretation provided by Halliburton.
#
~A           TIME           GTDEPTH  GTPQH  GTTQ  GTTN  GTET   GTTVD  
# ...
   06:03:44.649.17-Sep-2021 5057.50 5545.30 80.13 6.00  23.00 2583.80
   06:03:44.849.17-Sep-2021 5057.50 5545.30 80.13 6.00  23.20 2583.80
   06:03:45.049.17-Sep-2021 5057.50 5544.38 80.13 6.00  23.40 2583.80
   06:03:45.249.17-Sep-2021 5057.50 5544.68 80.13 6.00  23.59 2583.80
   06:03:45.449.17-Sep-2021 5057.50 5544.72 80.13 6.00  23.79 2583.80
   06:03:45.649.17-Sep-2021 5057.50 5544.61 80.13 6.00  23.99 2583.80
   06:03:45.849.17-Sep-2021 5057.50 5544.61 80.13 6.00  24.19 2583.80
   06:03:46.049.17-Sep-2021 5057.50 5544.63 80.13 6.00  24.39 2583.80
   06:03:46.249.17-Sep-2021 5057.50 5544.84 80.13 6.00  24.59 2583.80
   06:03:46.449.17-Sep-2021 5057.50 5544.64 80.13 6.00  24.79 2583.80
   06:03:46.649.17-Sep-2021 5057.50 5544.56 80.13 6.00  24.99 2583.80
   06:03:46.849.17-Sep-2021 5057.50 5544.56 80.13 6.00  25.19 2583.80
   06:03:47.049.17-Sep-2021 5057.50 5544.44 80.13 6.00  25.39 2583.80
   06:03:47.249.17-Sep-2021 5057.50 5544.71 80.13 6.00  25.59 2583.80
   06:03:47.449.17-Sep-2021 5057.50 5545.01 80.13 6.00  25.79 2583.80
   06:03:47.649.17-Sep-2021 5057.50 5546.90 80.13 6.00  25.99 2583.80
   06:03:47.849.17-Sep-2021 5057.50 5546.90 80.13 6.00  26.19 2583.80
   06:03:48.049.17-Sep-2021 5057.50 5544.67 80.13 6.00  26.39 2583.80
   06:03:48.249.17-Sep-2021 5057.50 5545.38 80.13 6.00  26.59 2583.80
   06:03:48.449.17-Sep-2021 5057.50 5544.91 80.13 6.00  26.79 2583.80
   06:03:48.648.17-Sep-2021 5057.50 5545.34 80.13 6.00  26.99 2583.80
   06:03:48.848.17-Sep-2021 5057.50 5545.34 80.13 6.00  27.19 2583.80
   06:03:49.048.17-Sep-2021 5057.50 5546.92 80.12 6.00  27.39 2583.80
   06:03:49.248.17-Sep-2021 5057.50 5544.79 80.12 6.00  27.59 2583.80
   06:03:49.448.17-Sep-2021 5057.50 5545.95 80.12 6.00  27.79 2583.80
   06:03:49.648.17-Sep-2021 5057.50 5548.11 80.12 6.00  27.99 2583.80
   06:03:49.848.17-Sep-2021 5057.50 5548.11 80.12 6.00  28.19 2583.80
   06:03:50.048.17-Sep-2021 5057.50 5545.65 80.12 6.00  28.39 2583.80
   06:03:50.248.17-Sep-2021 5057.50 5546.11 80.12 6.00  28.59 2583.80
   06:03:50.448.17-Sep-2021 5057.50 5545.59 80.12 6.00  28.79 2583.80
   06:03:50.648.17-Sep-2021 5057.50 5545.24 80.12 6.00  28.99 2583.80
   06:03:50.848.17-Sep-2021 5057.50 5545.24 80.12 6.00  29.19 2583.80
   06:03:51.048.17-Sep-2021 5057.50 5547.65 80.12 6.00  29.39 2583.80
   06:03:51.248.17-Sep-2021 5057.50 5545.06 80.12 6.00  29.59 2583.80
   06:03:51.448.17-Sep-2021 5057.50 5546.89 80.12 6.00  29.79 2583.80
   06:03:51.648.17-Sep-2021 5057.50 5546.09 80.12 6.00  29.99 2583.80
   06:03:51.848.17-Sep-2021 5057.50 5546.09 80.12 6.00  30.19 2583.80
   06:03:52.048.17-Sep-2021 5057.50 5546.12 80.12 6.00  30.39 2583.80
   06:03:52.248.17-Sep-2021 5057.50 5546.10 80.12 6.00  30.59 2583.80
   06:03:52.448.17-Sep-2021 5057.50 5546.30 80.12 6.00  30.79 2583.80
   06:03:52.648.17-Sep-2021 5057.50 5546.53 80.12 6.00  30.99 2583.80
   06:03:52.848.17-Sep-2021 5057.50 5546.53 80.12 6.00  31.19 2583.80
   06:03:53.048.17-Sep-2021 5057.50 5546.90 80.12 6.00  31.39 2583.80
   06:03:53.247.17-Sep-2021 5057.50 5546.92 80.12 6.00  31.59 2583.80
   06:03:53.447.17-Sep-2021 5057.50 5546.90 80.12 6.00  31.79 2583.80
   06:03:53.647.17-Sep-2021 5057.50 5547.17 80.11 6.00  31.99 2583.80
   06:03:53.847.17-Sep-2021 5057.50 5547.17 80.11 6.00  32.19 2583.80
   06:03:54.047.17-Sep-2021 5057.50 5547.29 80.11 6.00  32.39 2583.80
   06:03:54.247.17-Sep-2021 5057.50 5547.49 80.11 6.00  32.59 2583.80
   06:03:54.447.17-Sep-2021 5057.50 5549.76 80.11 6.00  32.79 2583.80
   06:03:54.647.17-Sep-2021 5057.50 5546.77 80.11 6.00  32.99 2583.80
   06:03:54.847.17-Sep-2021 5057.50 5546.77 80.11 6.00  33.19 2583.80
   06:03:55.047.17-Sep-2021 5057.50 5547.71 80.11 6.00  33.39 2583.80
   06:03:55.247.17-Sep-2021 5057.50 5547.17 80.11 6.00  33.59 2583.80
   06:03:55.447.17-Sep-2021 5057.50 5546.27 80.11 6.00  33.79 2583.80
   06:03:55.647.17-Sep-2021 5057.50 5546.65 80.11 6.00  33.99 2583.80
   06:03:55.847.17-Sep-2021 5057.50 5546.65 80.11 6.00  34.19 2583.80
   06:03:56.047.17-Sep-2021 5057.50 5546.30 80.11 6.00  34.39 2583.80
   06:03:56.247.17-Sep-2021 5057.50 5546.65 80.11 6.00  34.59 2583.80
   06:03:56.447.17-Sep-2021 5057.50 5546.44 80.11 6.00  34.79 2583.80
   06:03:56.647.17-Sep-2021 5057.50 5546.64 80.11 6.00  34.99 2583.80
   06:03:56.847.17-Sep-2021 5057.50 5546.64 80.11 6.00  35.19 2583.80
   06:03:57.047.17-Sep-2021 5057.50 5546.46 80.11 6.00  35.39 2583.80
   06:03:57.247.17-Sep-2021 5057.50 5546.71 80.11 6.00  35.59 2583.80
   06:03:57.447.17-Sep-2021 5057.50 5546.30 80.11 6.00  35.79 2583.80
   06:03:57.647.17-Sep-2021 5057.50 5546.30 80.11 6.00  35.99 2583.80
   06:03:57.847.17-Sep-2021 5057.50 5546.30 80.11 6.00  36.19 2583.80
   06:03:58.046.17-Sep-2021 5057.50 5549.24 80.11 6.00  36.39 2583.80
   06:03:58.246.17-Sep-2021 5057.50 5544.91 80.11 6.00  36.59 2583.80
   06:03:58.446.17-Sep-2021 5057.50 5547.60 80.10 6.00  36.79 2583.80
   06:03:58.646.17-Sep-2021 5057.50 5545.40 80.10 6.00  36.99 2583.80
   06:03:58.846.17-Sep-2021 5057.50 5545.40 80.10 6.00  37.19 2583.80
   06:03:59.046.17-Sep-2021 5057.50 5545.45 80.10 6.00  37.39 2583.80
   06:03:59.246.17-Sep-2021 5057.50 5547.27 80.10 6.00  37.59 2583.80
   06:03:59.446.17-Sep-2021 5057.50 5545.00 80.10 6.00  37.79 2583.80
   06:03:59.646.17-Sep-2021 5057.50 5546.37 80.10 6.00  37.99 2583.80
   06:03:59.846.17-Sep-2021 5057.50 5546.37 80.10 6.00  38.19 2583.80
   06:04:00.046.17-Sep-2021 5057.50 5544.63 80.10 6.00  38.39 2583.80
   06:04:00.246.17-Sep-2021 5057.50 5547.00 80.10 6.00  38.59 2583.80
   06:04:00.446.17-Sep-2021 5057.50 5544.37 80.10 6.00  38.79 2583.80
   06:04:00.646.17-Sep-2021 5057.50 5544.36 80.10 6.00  38.99 2583.80
   06:04:00.846.17-Sep-2021 5057.50 5544.36 80.10 6.00  39.19 2583.80
   06:04:01.046.17-Sep-2021 5057.50 5543.99 80.10 6.00  39.39 2583.80
   06:04:01.246.17-Sep-2021 5057.50 5541.38 80.10 6.00  39.59 2583.80
   06:04:01.446.17-Sep-2021 5057.50 5543.46 80.10 6.00  39.79 2583.80
   06:04:01.646.17-Sep-2021 5057.50 5542.68 80.10 6.00  39.99 2583.80
   06:04:01.846.17-Sep-2021 5057.50 5542.68 80.10 6.00  40.19 2583.80
   06:04:02.046.17-Sep-2021 5057.50 5540.50 80.10 6.00  40.39 2583.80
   06:04:02.246.17-Sep-2021 5057.50 5545.04 80.10 6.00  40.59 2583.80
   06:04:02.446.17-Sep-2021 5057.50 5544.36 80.10 6.00  40.79 2583.80
   06:04:02.645.17-Sep-2021 5057.50 5544.47 80.10 6.00  40.99 2583.80
   06:04:02.845.17-Sep-2021 5057.50 5544.47 80.10 6.00  41.19 2583.80
   06:04:03.045.17-Sep-2021 5057.50 5545.39 80.10 6.00  41.39 2583.80
   06:04:03.245.17-Sep-2021 5057.50 5541.42 80.10 6.00  41.59 2583.80
   06:04:03.445.17-Sep-2021 5057.50 5541.35 80.09 6.00  41.79 2583.80
   06:04:03.645.17-Sep-2021 5057.50 5539.30 80.09 6.00  41.99 2583.80
   06:04:03.845.17-Sep-2021 5057.50 5539.30 80.09 6.00  42.19 2583.80
   06:04:04.045.17-Sep-2021 5057.50 5530.55 80.09 6.00  42.39 2583.80
   06:04:04.245.17-Sep-2021 5057.50 5522.45 80.09 6.00  42.59 2583.80
   06:04:04.445.17-Sep-2021 5057.50 5511.10 80.09 6.00  42.79 2583.80
   06:04:04.645.17-Sep-2021 5057.50 5499.34 80.09 6.00  42.99 2583.80
   06:04:04.845.17-Sep-2021 5057.50 5499.34 80.09 6.00  43.19 2583.80
   06:04:05.045.17-Sep-2021 5057.50 5474.91 80.09 6.00  43.39 2583.80
   06:04:05.245.17-Sep-2021 5057.50 5456.70 80.09 6.00  43.59 2583.80
   06:04:05.445.17-Sep-2021 5057.50 5485.19 80.09 6.00  43.79 2583.80
   06:04:05.645.17-Sep-2021 5057.50 5536.80 80.09 6.00  43.99 2583.80
   06:04:05.845.17-Sep-2021 5057.50 5536.80 80.09 6.00  44.19 2583.80
   06:04:06.045.17-Sep-2021 5057.50 5538.19 80.09 6.00  44.39 2583.80
   06:04:06.245.17-Sep-2021 5057.50 5540.41 80.09 6.00  44.59 2583.80
   06:04:06.445.17-Sep-2021 5057.50 5537.12 80.09 6.00  44.79 2583.80
   06:04:06.645.17-Sep-2021 5057.50 5520.51 80.09 6.00  44.99 2583.80
   06:04:06.845.17-Sep-2021 5057.50 5520.51 80.09 6.00  45.19 2583.80
   06:04:07.045.17-Sep-2021 5057.50 5462.37 80.09 6.00  45.39 2583.80
   06:04:07.245.17-Sep-2021 5057.50 5484.58 80.09 6.00  45.59 2583.80
   06:04:07.444.17-Sep-2021 5057.50 5538.87 80.09 6.00  45.79 2583.80
