~Version Information
 VERS.                  2.0:   CWLS log ASCII Standard -VERSION 2.0
 WRAP.                   NO:   One line per depth step
~Well Information Block
#MNEM.UNIT     VALUE/NAME     DESCRIPTION
#---------     -----------    ---------------------------
 STRT.S             04:34:50 17-Sep-21: START TIME 04:34:50 17-Sep-21
 STOP.S             04:43:20 17-Sep-21: STOP TIME  04:43:20 17-Sep-21
 STEP.S                   0.00: STEP TIME
 NULL.                 -999.25: NULL VALUE
 DFWT.                        :  DIST FWL TEXT
 DFST.                        :  DIST FSL TEXT
 DMF .             Drill Floor:  DRILL MEAS FROM
 STIM.      10.59.12 05-Jul-21:  START TIME
 DATE.      10.59.12 10-Sep-21:  END TIME
 SPUD.               05-Jul-21:  SPUD DATE
 NREF.                    Grid:  NORTH REFERENCE
 HPTY.       Minimum Curvature:  HOLE POS TYPE
 DMOD.             Drill Model:  DRILL MOD DESC
 SVYD.                  Survey:  SURVEY DESC
 ILTD.               Lithology:  INTERP LTH DESC
 FTOP.          Formation Tops:  FORM TOPS DESC
 RIG .                     DWG:  RIG NAME
 PDAT.          Mean Sea Level:  PERMANENT DATUM
 FLD .                     ACG:  FIELD NAME
 SON .        AZ-XX-0907115008:  JOB NUMBER
 CTRY.              Azerbaijan:  COUNTRY NAME
 WELL.                    E35A:  WELL NAME
 SRVC.          TURAN DRILLING:  CONTRACTOR
 COMP.     BP Exploration (Caspian Sea LTD):  COMPANY
 UWI .                     N/A:  UNIQUE WELL IDENTIFIER
 API .                     N/A:  API NUMBER
 MDS .        Operator Entered:  MAG DATA SOURCE
 BASE.              Azerbaijan:  LOGGING EQUIPMENT BASE LOCATION
 REGN.                   EESSA:  REGION
 PROV.                    Baku:  PROVINCE
 STAT.                    Baku:  STATE NAME
 MWDS.                    Baku:  MWD SHOP
 JOBN.        AZ-XX-0907115008:  JOB TICKET NUMB
 DOE .                     N/A:  DOE NUMBER
 DCON.         Sperry Drilling:  DIRECTNL CONTR
 UNIT.                     N/A:  LOGGING EQUIPMENT ID
 WTYP.                Deviated:  WELL TYPE
 CNTY.                        :  COUNTY
 LOC .                        :  LOCATION
 LMF .             Drill Floor:  LOG MEASURED FROM
 TVDS.m                  43.16:  TVDSS CORRECTN
 LATI.deg                40.17:  LATITUDE
 LONG.deg                51.17:  LONGITUDE
 WHNS.m                  10.51:  WELL HEAD N/S
 WHEW.m                 -14.82:  WELL HEAD E/W
 UTMX.m              514336.92:  UTM X
 UTMY.m             4448618.56:  UTM Y
 DFWL.m                   0.00:  DISTANCE FWL
 DFSL.m                   0.00:  DISTANCE FSL
 SDEP.m                 849.00:  START DEPTH
 TDD .m                2862.00:  TOTAL DEPTH (DRILLER)
 VSDR.deg               292.10:  VERT SEC DIRECT
 GVFD.g                   1.00:  GRAVITY FIELD
 MFLD.nT              50382.00:  MAGNETIC FIELD
 MDIP.deg                59.68:  MAGNETIC DIP
 MDEC.deg                 6.66:  MAGNETIC DECL
 GRDC.deg                 0.09:  GRID CORRECTION
 AZTC.deg                 6.57:  AZM TOTAL CORR
 EPD .m                   0.00:  ELEVATION
 EGL .m                   0.00:  GROUND ELEVATION
 WDMS.m                 176.20:  WD ELEV
 APD .m                  43.16:  DEPTH ABOVE PD
 DEP .m                 363.42:  DEPTH
 AGAP.m                  43.16:  AIR GAP
 VSEW.m                 -14.82:  VERT SEC E/W
 VSNS.m                  10.51:  VERT SEC N/S
 EKB .m                  43.16:  KB ELEVATION
 EDF .m                  43.16:  DF ELEVATION
 TDL .m                1390.00:  TOTAL DEPTH (LOGGER)
 VSC .                       0:  VS TO CLOSURE
 MAGU.                 1855871:  MAGUTM CHECKSUM
~Parameter Information Block
#MNEM.UNIT       Value        Description
#---------     -----------    ---------------------------
 AV  .mps                 2.28:  Ann Velocity 
 AVMX.mps                 2.67:  Max Ann Veloc 
 AZIF.deg               305.00:  Azm, Final 
 BHAT.        Rotary Steerable:  BHA Type 
 BROT.°/30m               0.45:  Build Rotating 
 BS  .in                 12.25:  Bit Size 
 BSZ .in                 12.25:  Bit Size 
 BTPL.psig              600.00:  Bit Press Loss 
 CABU.                     Yes:  Customer Abuse 
 COMM.                     ÌN:  Run Comments 1 
 TCS .hr                150.00:  Time Ciculation Ended 
 CV  .mps                 1.24:  Crit Velocity 
 CVMX.mps                 1.66:  Max Crit Veloc 
 DD1 .         Intigam Rahimov:  Direct Drillr 1 
 DD2 .            Azer Ravavov:  Direct Drillr 2 
 DD3 .              Samir Abas:  Direct Drillr 3 
 DDSV.               Geo-Pilot:  DD Service 
 DEFF.%                 100.00:  % Det Eff 
 DLRX.°/30m               1.57:  Dogleg Rot Max 
 DLSO.°/30m               0.00:  Dogleg Oriented 
 DLSX.°/30m               0.00:  Dogleg Str Max 
 DRET.      20.28.06 17-Sep-21:  Drill End Time 
 DRST.      20.27.35 10-Sep-21:  Drill Start Tim 
 DTIM.hr                 54.00:  Time Drilling 
 EDEP.m                5260.00:  End Depth 
 ENG1.      Bakhtiyar Jabbarli:  Engineer 1 
 ENG2.      Natik Hasanaghayev:  Engineer 2 
 ENG3.           Royal Nasirov:  Engineer 3 
 ETIM.      20.27.55 18-Sep-21:  End Time 
 FLOI.gpm              1100.00:  Flow In 
 FLON.gpm               800.00:  Flow In Min 
 FLOS.cptm                0.00:  Fluid Loss 
 FLOX.gpm              1200.00:  Flow In Max 
 DFT .        Mineral Oil Base:  Mud Type 
 HPRE.                      No:  High Pressure 
 HTEM.                      No:  High Temp 
 HYDO.m                   1.80:  Hydro Offset 
 IFIN.deg                72.31:  Inc, Final 
 IMAX.deg                72.36:  Inc Max 
 IMIN.deg                69.36:  Inc Min 
 IMND.m                4192.96:  Inc Min Depth 
 IMXD.m                5128.36:  Inc Max Depth 
 JARR.                      No:  Jarring 
 LETM.      20.29.00 17-Sep-21:  Log End Time 
 LOST.hr                     0:  Lost Rig Time 
 LSTM.      20.27.00 10-Sep-21:  Log Start Time 
 MDCL.ppm            227000.00:  Mud Chlorides 
 MDES.     Inversion Oil/Synthetic:  Mud Desc 
 DFD .sg                  1.45:  Mud Density 
 MDMN.sg                  1.45:  Dens Mud Min 
 MDMX.sg                  1.45:  Dens Mud Max 
 MOIL.                    70.5:  Run Mud Oil % 
 MOWR.                   71:29:  Run Mud OWR 
 MSND.                     0.3:  Run Mud Sand % 
 MSOL.                    19.8:  Run Mud Solids% 
 DFV .spqt               80.00:  Mud Viscosity 
 MWOD.in                  8.00:  MWD Tool OD 
 MWSI.                     Yes:  Serv Intrp, MWD 
 OTIM.hr                180.00:  Time Operating 
 PCON.           Look Like New:  Pad Condition 
 PMAX.psia             9910.94:  Press Op, Max 
 PV  .cP                 35.00:  Mud PV 
 RUN .                    1000:  Run Number 
 ROPA.m/hr               18.00:  ROP Avg 
 ROPN.m/hr                8.00:  ROP Min 
 ROPX.m/hr               23.00:  ROP Max 
 RPMA.rpm               150.00:  RPM Surface Avg 
 RPMN.rpm               120.00:  RPM Surface Min 
 RPMX.rpm               160.00:  RPM Surface Max 
 RRUN.                    L503:  Rig Run Number 
 RTIM.hr                  5.00:  Time Reaming 
 SAZI.deg               298.42:  Azm, Start 
 SDEP.m                3870.00:  Start Depth 
 SIDD.                      No:  Serv Intrp, DD 
 SINC.deg                69.57:  Inc, Start 
 SPPA.psig             5500.00:  SPP Avg 
 SPPN.psig             4400.00:  SPP Min 
 SPPX.psig             5800.00:  SPP Max 
 STIM.      15.29.39 09-Sep-21:  Start Time 
 SVCS.                 DD, MWD:  Services 
 SVER.                    9.20:  Sperry Version 
 TDAT.m                5260.00:  Tot Depth Attmp 
 TDDF.                      No:  Trip for DD 
 TDLG.m                1390.00:  Tot Depth Loggd 
 TFF .                      No:  Trip for Fail 
 TQAA.f-kp               22.00:  Torque Abs Avg 
 TQAN.f-kp               13.00:  Torque Abs Min 
 TQAX.f-kp               27.00:  Torque Abs Max 
 TRRT.°/30m               1.60:  Turn Rotating 
 MRT .                  EWR-M5:  Maximum Recorded Temperature 
 TTMX.degC               92.00:  Max Tool Temp 
 VS01.                12330975:  Virtual Str1 SN 
 VS02.                90658671:  Virtual Str2 SN 
 VS03.                90658508:  Virtual Str3 SN 
 VS04.                90660974:  Virtual Str4 SN 
 VS05.                90654675:  Virtual Str5 SN 
 WBMN.klb                15.00:  WOB Min 
 WITN.     Alexander Yadullayev:  Customer Rep 
 WITN.           Adil Mammadov:  Customer Rep 2 
 WOBA.klb                17.00:  WOB Avg 
 WOBX.klb                18.00:  WOB Max 
 YP  .lhf2               31.00:  Yield Point 
~Curve Information Block
#MNEM.UNIT                 API CODE     Curve Description
#---------               -----------    ---------------------------
 TIME.HHMMSS            00 000 000 000:  GT Time & Date
 GTDEPTH.m              00 000 000 000:  GT Depth
 GTPQH.psia             00 000 000 000:  GT HR Quartz Pressure
 GTTQ.degC              00 000 000 000:  GT Quartz Temperature
 GTTN.NONE              00 000 000 000:  GT Test Number
 GTET.sec               00 000 000 000:  GT Elapsed Test Time
 GTTVD.m                00 000 000 000:  GT True Vertical Depth
#Other Information
#
#WARRANTY: Halliburton will use its best efforts to furnish customers with 
#accurate information and interpretations that are part of, and incident to, the services 
#provided.  However, Halliburton cannot and does not warrant the accuracy 
#or correctness of such information and interpretations.  Under no circumstances should any 
#such information or interpretation be relied upon as the sole basis for any drilling, 
#completion, production, or financial decision or any procedure involving any risk to the 
#safety of any drilling venture, drilling rig or its crew or any other third party.  The 
#Customer has full responsibility for all drilling, completion and production operation.  
#Halliburton makes no representations or warranties, either expressed or 
#implied, including, but not limited to, the implied warranties of merchantability or fitness 
#for a particular purpose, with respect to the services rendered.  In no event will 
#Halliburton be liable for failure to obtain any particular results or for 
#any damages, including, but not limited to, indirect, special or consequential damages, 
#resulting from the use of any information or interpretation provided by Halliburton.
#
~A           TIME           GTDEPTH  GTPQH  GTTQ  GTTN  GTET   GTTVD  
# ...
   04:41:44.470.17-Sep-2021 5094.00 5444.01 80.03 4.00 414.45 2595.14
   04:41:44.670.17-Sep-2021 5094.00 5444.01 80.03 4.00 414.65 2595.14
   04:41:44.870.17-Sep-2021 5094.00 5443.72 80.03 4.00 414.85 2595.14
   04:41:45.070.17-Sep-2021 5094.00 5443.94 80.03 4.00 415.05 2595.14
   04:41:45.270.17-Sep-2021 5094.00 5443.19 80.02 4.00 415.25 2595.14
   04:41:45.471.17-Sep-2021 5094.00 5443.43 80.02 4.00 415.45 2595.14
   04:41:45.671.17-Sep-2021 5094.00 5443.43 80.02 4.00 415.65 2595.14
   04:41:45.871.17-Sep-2021 5094.00 5443.18 80.02 4.00 415.85 2595.14
   04:41:46.071.17-Sep-2021 5094.00 5443.15 80.02 4.00 416.05 2595.14
   04:41:46.272.17-Sep-2021 5094.00 5443.18 80.02 4.00 416.25 2595.14
   04:41:46.472.17-Sep-2021 5094.00 5443.22 80.02 4.00 416.45 2595.14
   04:41:46.672.17-Sep-2021 5094.00 5443.22 80.02 4.00 416.65 2595.14
   04:41:46.872.17-Sep-2021 5094.00 5443.12 80.02 4.00 416.85 2595.14
   04:41:47.072.17-Sep-2021 5094.00 5443.10 80.02 4.00 417.05 2595.14
   04:41:47.273.17-Sep-2021 5094.00 5443.11 80.02 4.00 417.25 2595.14
   04:41:47.473.17-Sep-2021 5094.00 5443.09 80.02 4.00 417.45 2595.14
   04:41:47.673.17-Sep-2021 5094.00 5443.09 80.02 4.00 417.65 2595.14
   04:41:47.873.17-Sep-2021 5094.00 5443.12 80.02 4.00 417.85 2595.14
   04:41:48.073.17-Sep-2021 5094.00 5443.61 80.02 4.00 418.05 2595.14
   04:41:48.274.17-Sep-2021 5094.00 5442.90 80.02 4.00 418.25 2595.14
   04:41:48.474.17-Sep-2021 5094.00 5443.11 80.02 4.00 418.45 2595.14
   04:41:48.674.17-Sep-2021 5094.00 5443.11 80.02 4.00 418.65 2595.14
   04:41:48.874.17-Sep-2021 5094.00 5447.58 80.02 4.00 418.85 2595.14
   04:41:49.075.17-Sep-2021 5094.00 5447.79 80.02 4.00 419.05 2595.14
   04:41:49.275.17-Sep-2021 5094.00 5447.69 80.02 4.00 419.25 2595.14
   04:41:49.475.17-Sep-2021 5094.00 5447.66 80.02 4.00 419.45 2595.14
   04:41:49.675.17-Sep-2021 5094.00 5447.66 80.02 4.00 419.65 2595.14
   04:41:49.875.17-Sep-2021 5094.00 5447.55 80.02 4.00 419.85 2595.14
   04:41:50.076.17-Sep-2021 5094.00 5447.47 80.02 4.00 420.05 2595.14
   04:41:50.276.17-Sep-2021 5094.00 5447.40 80.02 4.00 420.25 2595.14
   04:41:50.476.17-Sep-2021 5094.00 5447.33 80.02 4.00 420.45 2595.14
   04:41:50.676.17-Sep-2021 5094.00 5447.33 80.02 4.00 420.65 2595.14
   04:41:50.876.17-Sep-2021 5094.00 5447.26 80.02 4.00 420.85 2595.14
   04:41:51.077.17-Sep-2021 5094.00 5447.25 80.02 4.00 421.05 2595.14
   04:41:51.277.17-Sep-2021 5094.00 5447.25 80.01 4.00 421.25 2595.14
   04:41:51.477.17-Sep-2021 5094.00 5447.27 80.01 4.00 421.45 2595.14
   04:41:51.677.17-Sep-2021 5094.00 5447.27 80.01 4.00 421.65 2595.14
   04:41:51.878.17-Sep-2021 5094.00 5446.65 80.01 4.00 421.85 2595.14
   04:41:52.078.17-Sep-2021 5094.00 5446.59 80.01 4.00 422.05 2595.14
   04:41:52.278.17-Sep-2021 5094.00 5447.20 80.01 4.00 422.25 2595.14
   04:41:52.478.17-Sep-2021 5094.00 5448.58 80.01 4.00 422.45 2595.14
   04:41:52.678.17-Sep-2021 5094.00 5448.58 80.01 4.00 422.66 2595.14
   04:41:52.879.17-Sep-2021 5094.00 5448.27 80.01 4.00 422.86 2595.14
   04:41:53.079.17-Sep-2021 5094.00 5448.28 80.01 4.00 423.06 2595.14
   04:41:53.279.17-Sep-2021 5094.00 5448.21 80.01 4.00 423.26 2595.14
   04:41:53.479.17-Sep-2021 5094.00 5448.39 80.01 4.00 423.46 2595.14
   04:41:53.680.17-Sep-2021 5094.00 5448.39 80.01 4.00 423.66 2595.14
   04:41:53.880.17-Sep-2021 5094.00 5446.62 80.01 4.00 423.86 2595.14
   04:41:54.080.17-Sep-2021 5094.00 5446.26 80.01 4.00 424.06 2595.14
   04:41:54.280.17-Sep-2021 5094.00 5446.39 80.01 4.00 424.26 2595.14
   04:41:54.480.17-Sep-2021 5094.00 5446.17 80.01 4.00 424.46 2595.14
   04:41:54.681.17-Sep-2021 5094.00 5446.17 80.01 4.00 424.66 2595.14
   04:41:54.881.17-Sep-2021 5094.00 5445.69 80.01 4.00 424.86 2595.14
   04:41:55.081.17-Sep-2021 5094.00 5445.55 80.01 4.00 425.06 2595.14
   04:41:55.281.17-Sep-2021 5094.00 5445.55 80.01 4.00 425.26 2595.14
   04:41:55.481.17-Sep-2021 5094.00 5445.52 80.01 4.00 425.46 2595.14
   04:41:55.682.17-Sep-2021 5094.00 5445.52 80.01 4.00 425.66 2595.14
   04:41:55.882.17-Sep-2021 5094.00 5445.37 80.01 4.00 425.86 2595.14
   04:41:56.082.17-Sep-2021 5094.00 5445.37 80.01 4.00 426.06 2595.14
   04:41:56.282.17-Sep-2021 5094.00 5445.37 80.01 4.00 426.26 2595.14
   04:41:56.483.17-Sep-2021 5094.00 5445.40 80.01 4.00 426.46 2595.14
   04:41:56.683.17-Sep-2021 5094.00 5445.40 80.01 4.00 426.66 2595.14
   04:41:56.883.17-Sep-2021 5094.00 5445.43 80.01 4.00 426.86 2595.14
   04:41:57.083.17-Sep-2021 5094.00 5445.41 80.00 4.00 427.06 2595.14
   04:41:57.283.17-Sep-2021 5094.00 5445.42 80.00 4.00 427.26 2595.14
   04:41:57.484.17-Sep-2021 5094.00 5446.00 80.00 4.00 427.46 2595.14
   04:41:57.684.17-Sep-2021 5094.00 5446.00 80.00 4.00 427.66 2595.14
   04:41:57.884.17-Sep-2021 5094.00 5445.16 80.00 4.00 427.86 2595.14
   04:41:58.084.17-Sep-2021 5094.00 5445.11 80.00 4.00 428.06 2595.14
   04:41:58.284.17-Sep-2021 5094.00 5445.02 80.00 4.00 428.26 2595.14
   04:41:58.485.17-Sep-2021 5094.00 5445.01 80.00 4.00 428.46 2595.14
   04:41:58.685.17-Sep-2021 5094.00 5445.01 80.00 4.00 428.66 2595.14
   04:41:58.885.17-Sep-2021 5094.00 5444.91 80.00 4.00 428.86 2595.14
   04:41:59.085.17-Sep-2021 5094.00 5444.83 80.00 4.00 429.06 2595.14
   04:41:59.286.17-Sep-2021 5094.00 5444.78 80.00 4.00 429.26 2595.14
   04:41:59.486.17-Sep-2021 5094.00 5444.72 80.00 4.00 429.46 2595.14
   04:41:59.686.17-Sep-2021 5094.00 5444.72 80.00 4.00 429.66 2595.14
   04:41:59.886.17-Sep-2021 5094.00 5444.67 80.00 4.00 429.86 2595.14
   04:42:00.086.17-Sep-2021 5094.00 5444.68 80.00 4.00 430.06 2595.14
   04:42:00.287.17-Sep-2021 5094.00 5444.74 80.00 4.00 430.26 2595.14
   04:42:00.487.17-Sep-2021 5094.00 5444.74 80.00 4.00 430.46 2595.14
   04:42:00.687.17-Sep-2021 5094.00 5444.74 80.00 4.00 430.66 2595.14
   04:42:00.887.17-Sep-2021 5094.00 5445.14 80.00 4.00 430.86 2595.14
   04:42:01.087.17-Sep-2021 5094.00 5444.30 80.00 4.00 431.06 2595.14
   04:42:01.288.17-Sep-2021 5094.00 5444.47 80.00 4.00 431.26 2595.14
   04:42:01.488.17-Sep-2021 5094.00 5444.17 80.00 4.00 431.46 2595.14
   04:42:01.688.17-Sep-2021 5094.00 5444.17 80.00 4.00 431.66 2595.14
   04:42:01.888.17-Sep-2021 5094.00 5443.93 80.00 4.00 431.87 2595.14
   04:42:02.089.17-Sep-2021 5094.00 5444.47 80.00 4.00 432.07 2595.14
   04:42:02.289.17-Sep-2021 5094.00 5444.41 80.00 4.00 432.27 2595.14
   04:42:02.489.17-Sep-2021 5094.00 5444.19 80.00 4.00 432.47 2595.14
   04:42:02.689.17-Sep-2021 5094.00 5444.19 80.00 4.00 432.67 2595.14
   04:42:02.889.17-Sep-2021 5094.00 5444.38 79.99 4.00 432.87 2595.14
   04:42:03.090.17-Sep-2021 5094.00 5443.33 79.99 4.00 433.07 2595.14
   04:42:03.290.17-Sep-2021 5094.00 5443.47 79.99 4.00 433.27 2595.14
   04:42:03.490.17-Sep-2021 5094.00 5443.17 79.99 4.00 433.47 2595.14
   04:42:03.690.17-Sep-2021 5094.00 5443.17 79.99 4.00 433.67 2595.14
   04:42:03.890.17-Sep-2021 5094.00 5442.97 79.99 4.00 433.87 2595.14
   04:42:04.091.17-Sep-2021 5094.00 5443.45 79.99 4.00 434.07 2595.14
   04:42:04.291.17-Sep-2021 5094.00 5443.38 79.99 4.00 434.27 2595.14
   04:42:04.491.17-Sep-2021 5094.00 5443.23 79.99 4.00 434.47 2595.14
   04:42:04.691.17-Sep-2021 5094.00 5443.23 79.99 4.00 434.67 2595.14
   04:42:04.892.17-Sep-2021 5094.00 5443.06 79.99 4.00 434.87 2595.14
   04:42:05.092.17-Sep-2021 5094.00 5443.02 79.99 4.00 435.07 2595.14
   04:42:05.292.17-Sep-2021 5094.00 5442.98 79.99 4.00 435.27 2595.14
   04:42:05.492.17-Sep-2021 5094.00 5442.99 79.99 4.00 435.47 2595.14
   04:42:05.692.17-Sep-2021 5094.00 5442.99 79.99 4.00 435.67 2595.14
   04:42:05.893.17-Sep-2021 5094.00 5443.01 79.99 4.00 435.87 2595.14
   04:42:06.093.17-Sep-2021 5094.00 5443.07 79.99 4.00 436.07 2595.14
   04:42:06.293.17-Sep-2021 5094.00 5443.08 79.99 4.00 436.27 2595.14
   04:42:06.493.17-Sep-2021 5094.00 5443.09 79.99 4.00 436.47 2595.14
   04:42:06.694.17-Sep-2021 5094.00 5443.09 79.99 4.00 436.67 2595.14
   04:42:06.894.17-Sep-2021 5094.00 5443.15 79.99 4.00 436.87 2595.14
   04:42:07.094.17-Sep-2021 5094.00 5442.78 79.99 4.00 437.07 2595.14
   04:42:07.294.17-Sep-2021 5094.00 5442.76 79.99 4.00 437.27 2595.14
