~Version Information
 VERS.                  2.0:   CWLS log ASCII Standard -VERSION 2.0
 WRAP.                   NO:   One line per depth step
~Well Information Block
#MNEM.UNIT     VALUE/NAME     DESCRIPTION
#---------     -----------    ---------------------------
 STRT.S             06:03:21 17-Sep-21: START TIME 06:03:21 17-Sep-21
 STOP.S             06:11:58 17-Sep-21: STOP TIME  06:11:58 17-Sep-21
 STEP.S                   0.00: STEP TIME
 NULL.                 -999.25: NULL VALUE
 DFWT.                        :  DIST FWL TEXT
 DFST.                        :  DIST FSL TEXT
 DMF .             Drill Floor:  DRILL MEAS FROM
 STIM.      10.59.12 05-Jul-21:  START TIME
 DATE.      10.59.12 10-Sep-21:  END TIME
 SPUD.               05-Jul-21:  SPUD DATE
 NREF.                    Grid:  NORTH REFERENCE
 HPTY.       Minimum Curvature:  HOLE POS TYPE
 DMOD.             Drill Model:  DRILL MOD DESC
 SVYD.                  Survey:  SURVEY DESC
 ILTD.               Lithology:  INTERP LTH DESC
 FTOP.          Formation Tops:  FORM TOPS DESC
 RIG .                     DWG:  RIG NAME
 PDAT.          Mean Sea Level:  PERMANENT DATUM
 FLD .                     ACG:  FIELD NAME
 SON .        AZ-XX-0907115008:  JOB NUMBER
 CTRY.              Azerbaijan:  COUNTRY NAME
 WELL.                    E35A:  WELL NAME
 SRVC.          TURAN DRILLING:  CONTRACTOR
 COMP.     BP Exploration (Caspian Sea LTD):  COMPANY
 UWI .                     N/A:  UNIQUE WELL IDENTIFIER
 API .                     N/A:  API NUMBER
 MDS .        Operator Entered:  MAG DATA SOURCE
 BASE.              Azerbaijan:  LOGGING EQUIPMENT BASE LOCATION
 REGN.                   EESSA:  REGION
 PROV.                    Baku:  PROVINCE
 STAT.                    Baku:  STATE NAME
 MWDS.                    Baku:  MWD SHOP
 JOBN.        AZ-XX-0907115008:  JOB TICKET NUMB
 DOE .                     N/A:  DOE NUMBER
 DCON.         Sperry Drilling:  DIRECTNL CONTR
 UNIT.                     N/A:  LOGGING EQUIPMENT ID
 WTYP.                Deviated:  WELL TYPE
 CNTY.                        :  COUNTY
 LOC .                        :  LOCATION
 LMF .             Drill Floor:  LOG MEASURED FROM
 TVDS.m                  43.16:  TVDSS CORRECTN
 LATI.deg                40.17:  LATITUDE
 LONG.deg                51.17:  LONGITUDE
 WHNS.m                  10.51:  WELL HEAD N/S
 WHEW.m                 -14.82:  WELL HEAD E/W
 UTMX.m              514336.92:  UTM X
 UTMY.m             4448618.56:  UTM Y
 DFWL.m                   0.00:  DISTANCE FWL
 DFSL.m                   0.00:  DISTANCE FSL
 SDEP.m                 849.00:  START DEPTH
 TDD .m                2862.00:  TOTAL DEPTH (DRILLER)
 VSDR.deg               292.10:  VERT SEC DIRECT
 GVFD.g                   1.00:  GRAVITY FIELD
 MFLD.nT              50382.00:  MAGNETIC FIELD
 MDIP.deg                59.68:  MAGNETIC DIP
 MDEC.deg                 6.66:  MAGNETIC DECL
 GRDC.deg                 0.09:  GRID CORRECTION
 AZTC.deg                 6.57:  AZM TOTAL CORR
 EPD .m                   0.00:  ELEVATION
 EGL .m                   0.00:  GROUND ELEVATION
 WDMS.m                 176.20:  WD ELEV
 APD .m                  43.16:  DEPTH ABOVE PD
 DEP .m                 363.42:  DEPTH
 AGAP.m                  43.16:  AIR GAP
 VSEW.m                 -14.82:  VERT SEC E/W
 VSNS.m                  10.51:  VERT SEC N/S
 EKB .m                  43.16:  KB ELEVATION
 EDF .m                  43.16:  DF ELEVATION
 TDL .m                1390.00:  TOTAL DEPTH (LOGGER)
 VSC .                       0:  VS TO CLOSURE
 MAGU.                 1855871:  MAGUTM CHECKSUM
~Parameter Information Block
#MNEM.UNIT       Value        Description
#---------     -----------    ---------------------------
 AV  .mps                 2.28:  Ann Velocity 
 AVMX.mps                 2.67:  Max Ann Veloc 
 AZIF.deg               305.00:  Azm, Final 
 BHAT.        Rotary Steerable:  BHA Type 
 BROT.°/30m               0.45:  Build Rotating 
 BS  .in                 12.25:  Bit Size 
 BSZ .in                 12.25:  Bit Size 
 BTPL.psig              600.00:  Bit Press Loss 
 CABU.                     Yes:  Customer Abuse 
 COMM.                     $t:  Run Comments 1 
 TCS .hr                150.00:  Time Ciculation Ended 
 CV  .mps                 1.24:  Crit Velocity 
 CVMX.mps                 1.66:  Max Crit Veloc 
 DD1 .         Intigam Rahimov:  Direct Drillr 1 
 DD2 .            Azer Ravavov:  Direct Drillr 2 
 DD3 .              Samir Abas:  Direct Drillr 3 
 DDSV.               Geo-Pilot:  DD Service 
 DEFF.%                 100.00:  % Det Eff 
 DLRX.°/30m               1.57:  Dogleg Rot Max 
 DLSO.°/30m               0.00:  Dogleg Oriented 
 DLSX.°/30m               0.00:  Dogleg Str Max 
 DRET.      20.28.06 17-Sep-21:  Drill End Time 
 DRST.      20.27.35 10-Sep-21:  Drill Start Tim 
 DTIM.hr                 54.00:  Time Drilling 
 EDEP.m                5260.00:  End Depth 
 ENG1.      Bakhtiyar Jabbarli:  Engineer 1 
 ENG2.      Natik Hasanaghayev:  Engineer 2 
 ENG3.           Royal Nasirov:  Engineer 3 
 ETIM.      20.27.55 18-Sep-21:  End Time 
 FLOI.gpm              1100.00:  Flow In 
 FLON.gpm               800.00:  Flow In Min 
 FLOS.cptm                0.00:  Fluid Loss 
 FLOX.gpm              1200.00:  Flow In Max 
 DFT .        Mineral Oil Base:  Mud Type 
 HPRE.                      No:  High Pressure 
 HTEM.                      No:  High Temp 
 HYDO.m                   1.80:  Hydro Offset 
 IFIN.deg                72.31:  Inc, Final 
 IMAX.deg                72.36:  Inc Max 
 IMIN.deg                69.36:  Inc Min 
 IMND.m                4192.96:  Inc Min Depth 
 IMXD.m                5128.36:  Inc Max Depth 
 JARR.                      No:  Jarring 
 LETM.      20.29.00 17-Sep-21:  Log End Time 
 LOST.hr                     0:  Lost Rig Time 
 LSTM.      20.27.00 10-Sep-21:  Log Start Time 
 MDCL.ppm            227000.00:  Mud Chlorides 
 MDES.     Inversion Oil/Synthetic:  Mud Desc 
 DFD .sg                  1.45:  Mud Density 
 MDMN.sg                  1.45:  Dens Mud Min 
 MDMX.sg                  1.45:  Dens Mud Max 
 MOIL.                    70.5:  Run Mud Oil % 
 MOWR.                   71:29:  Run Mud OWR 
 MSND.                     0.3:  Run Mud Sand % 
 MSOL.                    19.8:  Run Mud Solids% 
 DFV .spqt               80.00:  Mud Viscosity 
 MWOD.in                  8.00:  MWD Tool OD 
 MWSI.                     Yes:  Serv Intrp, MWD 
 OTIM.hr                180.00:  Time Operating 
 PCON.           Look Like New:  Pad Condition 
 PMAX.psia             9910.94:  Press Op, Max 
 PV  .cP                 35.00:  Mud PV 
 RUN .                    1000:  Run Number 
 ROPA.m/hr               18.00:  ROP Avg 
 ROPN.m/hr                8.00:  ROP Min 
 ROPX.m/hr               23.00:  ROP Max 
 RPMA.rpm               150.00:  RPM Surface Avg 
 RPMN.rpm               120.00:  RPM Surface Min 
 RPMX.rpm               160.00:  RPM Surface Max 
 RRUN.                    L503:  Rig Run Number 
 RTIM.hr                  5.00:  Time Reaming 
 SAZI.deg               298.42:  Azm, Start 
 SDEP.m                3870.00:  Start Depth 
 SIDD.                      No:  Serv Intrp, DD 
 SINC.deg                69.57:  Inc, Start 
 SPPA.psig             5500.00:  SPP Avg 
 SPPN.psig             4400.00:  SPP Min 
 SPPX.psig             5800.00:  SPP Max 
 STIM.      15.29.39 09-Sep-21:  Start Time 
 SVCS.                 DD, MWD:  Services 
 SVER.                    9.20:  Sperry Version 
 TDAT.m                5260.00:  Tot Depth Attmp 
 TDDF.                      No:  Trip for DD 
 TDLG.m                1390.00:  Tot Depth Loggd 
 TFF .                      No:  Trip for Fail 
 TQAA.f-kp               22.00:  Torque Abs Avg 
 TQAN.f-kp               13.00:  Torque Abs Min 
 TQAX.f-kp               27.00:  Torque Abs Max 
 TRRT.°/30m               1.60:  Turn Rotating 
 MRT .                  EWR-M5:  Maximum Recorded Temperature 
 TTMX.degC               92.00:  Max Tool Temp 
 VS01.                12330975:  Virtual Str1 SN 
 VS02.                90658671:  Virtual Str2 SN 
 VS03.                90658508:  Virtual Str3 SN 
 VS04.                90660974:  Virtual Str4 SN 
 VS05.                90654675:  Virtual Str5 SN 
 WBMN.klb                15.00:  WOB Min 
 WITN.     Alexander Yadullayev:  Customer Rep 
 WITN.           Adil Mammadov:  Customer Rep 2 
 WOBA.klb                17.00:  WOB Avg 
 WOBX.klb                18.00:  WOB Max 
 YP  .lhf2               31.00:  Yield Point 
~Curve Information Block
#MNEM.UNIT                 API CODE     Curve Description
#---------               -----------    ---------------------------
 TIME.HHMMSS            00 000 000 000:  GT Time & Date
 GTDEPTH.m              00 000 000 000:  GT Depth
 GTPQH.psia             00 000 000 000:  GT HR Quartz Pressure
 GTTQ.degC              00 000 000 000:  GT Quartz Temperature
 GTTN.NONE              00 000 000 000:  GT Test Number
 GTET.sec               00 000 000 000:  GT Elapsed Test Time
 GTTVD.m                00 000 000 000:  GT True Vertical Depth
#Other Information
#
#WARRANTY: Halliburton will use its best efforts to furnish customers with 
#accurate information and interpretations that are part of, and incident to, the services 
#provided.  However, Halliburton cannot and does not warrant the accuracy 
#or correctness of such information and interpretations.  Under no circumstances should any 
#such information or interpretation be relied upon as the sole basis for any drilling, 
#completion, production, or financial decision or any procedure involving any risk to the 
#safety of any drilling venture, drilling rig or its crew or any other third party.  The 
#Customer has full responsibility for all drilling, completion and production operation.  
#Halliburton makes no representations or warranties, either expressed or 
#implied, including, but not limited to, the implied warranties of merchantability or fitness 
#for a particular purpose, with respect to the services rendered.  In no event will 
#Halliburton be liable for failure to obtain any particular results or for 
#any damages, including, but not limited to, indirect, special or consequential damages, 
#resulting from the use of any information or interpretation provided by Halliburton.
#
~A           TIME           GTDEPTH  GTPQH  GTTQ  GTTN  GTET   GTTVD  
# ...
   06:06:02.620.17-Sep-2021 5057.50 5545.65 79.87 6.00 160.97 2583.80
   06:06:02.820.17-Sep-2021 5057.50 5545.65 79.87 6.00 161.17 2583.80
   06:06:03.020.17-Sep-2021 5057.50 5543.67 79.87 6.00 161.37 2583.80
   06:06:03.220.17-Sep-2021 5057.50 5543.91 79.87 6.00 161.57 2583.80
   06:06:03.420.17-Sep-2021 5057.50 5543.02 79.87 6.00 161.77 2583.80
   06:06:03.620.17-Sep-2021 5057.50 5543.01 79.87 6.00 161.97 2583.80
   06:06:03.820.17-Sep-2021 5057.50 5543.01 79.87 6.00 162.17 2583.80
   06:06:04.020.17-Sep-2021 5057.50 5542.97 79.87 6.00 162.37 2583.80
   06:06:04.220.17-Sep-2021 5057.50 5542.90 79.87 6.00 162.57 2583.80
   06:06:04.420.17-Sep-2021 5057.50 5542.97 79.87 6.00 162.77 2583.80
   06:06:04.619.17-Sep-2021 5057.50 5543.01 79.87 6.00 162.97 2583.80
   06:06:04.819.17-Sep-2021 5057.50 5543.01 79.87 6.00 163.17 2583.80
   06:06:05.019.17-Sep-2021 5057.50 5543.53 79.87 6.00 163.37 2583.80
   06:06:05.219.17-Sep-2021 5057.50 5543.38 79.87 6.00 163.57 2583.80
   06:06:05.419.17-Sep-2021 5057.50 5543.78 79.87 6.00 163.77 2583.80
   06:06:05.619.17-Sep-2021 5057.50 5547.31 79.87 6.00 163.97 2583.80
   06:06:05.819.17-Sep-2021 5057.50 5547.31 79.87 6.00 164.17 2583.80
   06:06:06.019.17-Sep-2021 5057.50 5544.76 79.86 6.00 164.36 2583.80
   06:06:06.219.17-Sep-2021 5057.50 5544.24 79.86 6.00 164.56 2583.80
   06:06:06.419.17-Sep-2021 5057.50 5544.17 79.86 6.00 164.76 2583.80
   06:06:06.619.17-Sep-2021 5057.50 5543.61 79.86 6.00 164.96 2583.80
   06:06:06.819.17-Sep-2021 5057.50 5543.61 79.86 6.00 165.16 2583.80
   06:06:07.019.17-Sep-2021 5057.50 5546.28 79.86 6.00 165.36 2583.80
   06:06:07.219.17-Sep-2021 5057.50 5541.29 79.86 6.00 165.56 2583.80
   06:06:07.419.17-Sep-2021 5057.50 5544.74 79.86 6.00 165.76 2583.80
   06:06:07.619.17-Sep-2021 5057.50 5542.49 79.86 6.00 165.96 2583.80
   06:06:07.819.17-Sep-2021 5057.50 5542.49 79.86 6.00 166.16 2583.80
   06:06:08.019.17-Sep-2021 5057.50 5541.61 79.86 6.00 166.36 2583.80
   06:06:08.219.17-Sep-2021 5057.50 5544.38 79.86 6.00 166.56 2583.80
   06:06:08.419.17-Sep-2021 5057.50 5542.70 79.86 6.00 166.76 2583.80
   06:06:08.619.17-Sep-2021 5057.50 5544.82 79.86 6.00 166.96 2583.80
   06:06:08.819.17-Sep-2021 5057.50 5544.82 79.86 6.00 167.16 2583.80
   06:06:09.019.17-Sep-2021 5057.50 5543.89 79.86 6.00 167.36 2583.80
   06:06:09.219.17-Sep-2021 5057.50 5543.17 79.86 6.00 167.56 2583.80
   06:06:09.418.17-Sep-2021 5057.50 5542.60 79.86 6.00 167.76 2583.80
   06:06:09.618.17-Sep-2021 5057.50 5543.23 79.86 6.00 167.96 2583.80
   06:06:09.818.17-Sep-2021 5057.50 5543.23 79.86 6.00 168.16 2583.80
   06:06:10.018.17-Sep-2021 5057.50 5542.59 79.86 6.00 168.36 2583.80
   06:06:10.218.17-Sep-2021 5057.50 5542.98 79.86 6.00 168.56 2583.80
   06:06:10.418.17-Sep-2021 5057.50 5542.70 79.86 6.00 168.76 2583.80
   06:06:10.618.17-Sep-2021 5057.50 5543.20 79.86 6.00 168.96 2583.80
   06:06:10.818.17-Sep-2021 5057.50 5543.20 79.86 6.00 169.16 2583.80
   06:06:11.018.17-Sep-2021 5057.50 5543.27 79.86 6.00 169.36 2583.80
   06:06:11.218.17-Sep-2021 5057.50 5543.32 79.86 6.00 169.56 2583.80
   06:06:11.418.17-Sep-2021 5057.50 5543.50 79.86 6.00 169.76 2583.80
   06:06:11.618.17-Sep-2021 5057.50 5547.04 79.85 6.00 169.96 2583.80
   06:06:11.818.17-Sep-2021 5057.50 5547.04 79.85 6.00 170.16 2583.80
   06:06:12.018.17-Sep-2021 5057.50 5544.67 79.85 6.00 170.36 2583.80
   06:06:12.218.17-Sep-2021 5057.50 5544.08 79.85 6.00 170.56 2583.80
   06:06:12.418.17-Sep-2021 5057.50 5544.08 79.85 6.00 170.76 2583.80
   06:06:12.618.17-Sep-2021 5057.50 5543.51 79.85 6.00 170.96 2583.80
   06:06:12.818.17-Sep-2021 5057.50 5543.51 79.85 6.00 171.16 2583.80
   06:06:13.018.17-Sep-2021 5057.50 5543.07 79.85 6.00 171.36 2583.80
   06:06:13.218.17-Sep-2021 5057.50 5542.77 79.85 6.00 171.56 2583.80
   06:06:13.418.17-Sep-2021 5057.50 5542.87 79.85 6.00 171.76 2583.80
   06:06:13.618.17-Sep-2021 5057.50 5542.61 79.85 6.00 171.96 2583.80
   06:06:13.818.17-Sep-2021 5057.50 5542.61 79.85 6.00 172.16 2583.80
   06:06:14.017.17-Sep-2021 5057.50 5542.67 79.85 6.00 172.36 2583.80
   06:06:14.217.17-Sep-2021 5057.50 5542.80 79.85 6.00 172.56 2583.80
   06:06:14.417.17-Sep-2021 5057.50 5543.15 79.85 6.00 172.76 2583.80
   06:06:14.617.17-Sep-2021 5057.50 5543.11 79.85 6.00 172.96 2583.80
   06:06:14.817.17-Sep-2021 5057.50 5543.11 79.85 6.00 173.16 2583.80
   06:06:15.017.17-Sep-2021 5057.50 5544.95 79.85 6.00 173.36 2583.80
   06:06:15.217.17-Sep-2021 5057.50 5543.89 79.85 6.00 173.56 2583.80
   06:06:15.417.17-Sep-2021 5057.50 5543.56 79.85 6.00 173.76 2583.80
   06:06:15.617.17-Sep-2021 5057.50 5544.65 79.85 6.00 173.96 2583.80
   06:06:15.817.17-Sep-2021 5057.50 5544.65 79.85 6.00 174.16 2583.80
   06:06:16.017.17-Sep-2021 5057.50 5543.55 79.85 6.00 174.36 2583.80
   06:06:16.217.17-Sep-2021 5057.50 5543.62 79.85 6.00 174.56 2583.80
   06:06:16.417.17-Sep-2021 5057.50 5546.81 79.85 6.00 174.76 2583.80
   06:06:16.617.17-Sep-2021 5057.50 5541.01 79.85 6.00 174.96 2583.80
   06:06:16.817.17-Sep-2021 5057.50 5541.01 79.85 6.00 175.16 2583.80
   06:06:17.017.17-Sep-2021 5057.50 5542.83 79.85 6.00 175.36 2583.80
   06:06:17.217.17-Sep-2021 5057.50 5544.69 79.85 6.00 175.56 2583.80
   06:06:17.417.17-Sep-2021 5057.50 5542.94 79.84 6.00 175.76 2583.80
   06:06:17.617.17-Sep-2021 5057.50 5542.65 79.84 6.00 175.96 2583.80
   06:06:17.817.17-Sep-2021 5057.50 5542.65 79.84 6.00 176.16 2583.80
   06:06:18.017.17-Sep-2021 5057.50 5543.72 79.84 6.00 176.36 2583.80
   06:06:18.217.17-Sep-2021 5057.50 5545.13 79.84 6.00 176.56 2583.80
   06:06:18.417.17-Sep-2021 5057.50 5542.40 79.84 6.00 176.76 2583.80
   06:06:18.617.17-Sep-2021 5057.50 5544.27 79.84 6.00 176.96 2583.80
   06:06:18.816.17-Sep-2021 5057.50 5544.27 79.84 6.00 177.16 2583.80
   06:06:19.016.17-Sep-2021 5057.50 5542.57 79.84 6.00 177.36 2583.80
   06:06:19.216.17-Sep-2021 5057.50 5542.90 79.84 6.00 177.56 2583.80
   06:06:19.416.17-Sep-2021 5057.50 5542.37 79.84 6.00 177.76 2583.80
   06:06:19.616.17-Sep-2021 5057.50 5542.47 79.84 6.00 177.96 2583.80
   06:06:19.816.17-Sep-2021 5057.50 5542.47 79.84 6.00 178.16 2583.80
   06:06:20.016.17-Sep-2021 5057.50 5542.82 79.84 6.00 178.36 2583.80
   06:06:20.216.17-Sep-2021 5057.50 5542.85 79.84 6.00 178.56 2583.80
   06:06:20.416.17-Sep-2021 5057.50 5542.98 79.84 6.00 178.76 2583.80
   06:06:20.616.17-Sep-2021 5057.50 5543.12 79.84 6.00 178.96 2583.80
   06:06:20.816.17-Sep-2021 5057.50 5543.12 79.84 6.00 179.16 2583.80
   06:06:21.016.17-Sep-2021 5057.50 5543.33 79.84 6.00 179.36 2583.80
   06:06:21.216.17-Sep-2021 5057.50 5546.77 79.84 6.00 179.56 2583.80
   06:06:21.416.17-Sep-2021 5057.50 5541.89 79.84 6.00 179.76 2583.80
   06:06:21.616.17-Sep-2021 5057.50 5544.49 79.84 6.00 179.96 2583.80
   06:06:21.816.17-Sep-2021 5057.50 5544.49 79.84 6.00 180.16 2583.80
   06:06:22.016.17-Sep-2021 5057.50 5544.03 79.84 6.00 180.36 2583.80
   06:06:22.216.17-Sep-2021 5057.50 5543.34 79.84 6.00 180.56 2583.80
   06:06:22.416.17-Sep-2021 5057.50 5543.01 79.84 6.00 180.76 2583.80
   06:06:22.616.17-Sep-2021 5057.50 5542.74 79.84 6.00 180.96 2583.80
   06:06:22.816.17-Sep-2021 5057.50 5542.74 79.84 6.00 181.16 2583.80
   06:06:23.016.17-Sep-2021 5057.50 5542.64 79.84 6.00 181.36 2583.80
   06:06:23.216.17-Sep-2021 5057.50 5542.51 79.83 6.00 181.56 2583.80
   06:06:23.415.17-Sep-2021 5057.50 5542.75 79.83 6.00 181.76 2583.80
   06:06:23.615.17-Sep-2021 5057.50 5542.65 79.83 6.00 181.96 2583.80
   06:06:23.815.17-Sep-2021 5057.50 5542.65 79.83 6.00 182.16 2583.80
   06:06:24.015.17-Sep-2021 5057.50 5542.97 79.83 6.00 182.36 2583.80
   06:06:24.215.17-Sep-2021 5057.50 5542.91 79.83 6.00 182.56 2583.80
   06:06:24.415.17-Sep-2021 5057.50 5543.29 79.83 6.00 182.76 2583.80
   06:06:24.615.17-Sep-2021 5057.50 5544.74 79.83 6.00 182.96 2583.80
   06:06:24.815.17-Sep-2021 5057.50 5544.74 79.83 6.00 183.16 2583.80
   06:06:25.015.17-Sep-2021 5057.50 5543.35 79.83 6.00 183.36 2583.80
   06:06:25.215.17-Sep-2021 5057.50 5544.56 79.83 6.00 183.56 2583.80
   06:06:25.415.17-Sep-2021 5057.50 5544.00 79.83 6.00 183.76 2583.80
