~Version Information
 VERS.                  2.0:   CWLS log ASCII Standard -VERSION 2.0
 WRAP.                   NO:   One line per depth step
~Well Information Block
#MNEM.UNIT     VALUE/NAME     DESCRIPTION
#---------     -----------    ---------------------------
 STRT.S             10:29:45 17-Sep-21: START TIME 10:29:45 17-Sep-21
 STOP.S             10:36:56 17-Sep-21: STOP TIME  10:36:56 17-Sep-21
 STEP.S                   0.00: STEP TIME
 NULL.                 -999.25: NULL VALUE
 DFWT.                        :  DIST FWL TEXT
 DFST.                        :  DIST FSL TEXT
 DMF .             Drill Floor:  DRILL MEAS FROM
 STIM.      10.59.12 05-Jul-21:  START TIME
 DATE.      10.59.12 10-Sep-21:  END TIME
 SPUD.               05-Jul-21:  SPUD DATE
 NREF.                    Grid:  NORTH REFERENCE
 HPTY.       Minimum Curvature:  HOLE POS TYPE
 DMOD.             Drill Model:  DRILL MOD DESC
 SVYD.                  Survey:  SURVEY DESC
 ILTD.               Lithology:  INTERP LTH DESC
 FTOP.          Formation Tops:  FORM TOPS DESC
 RIG .                     DWG:  RIG NAME
 PDAT.          Mean Sea Level:  PERMANENT DATUM
 FLD .                     ACG:  FIELD NAME
 SON .        AZ-XX-0907115008:  JOB NUMBER
 CTRY.              Azerbaijan:  COUNTRY NAME
 WELL.                    E35A:  WELL NAME
 SRVC.          TURAN DRILLING:  CONTRACTOR
 COMP.     BP Exploration (Caspian Sea LTD):  COMPANY
 UWI .                     N/A:  UNIQUE WELL IDENTIFIER
 API .                     N/A:  API NUMBER
 MDS .        Operator Entered:  MAG DATA SOURCE
 BASE.              Azerbaijan:  LOGGING EQUIPMENT BASE LOCATION
 REGN.                   EESSA:  REGION
 PROV.                    Baku:  PROVINCE
 STAT.                    Baku:  STATE NAME
 MWDS.                    Baku:  MWD SHOP
 JOBN.        AZ-XX-0907115008:  JOB TICKET NUMB
 DOE .                     N/A:  DOE NUMBER
 DCON.         Sperry Drilling:  DIRECTNL CONTR
 UNIT.                     N/A:  LOGGING EQUIPMENT ID
 WTYP.                Deviated:  WELL TYPE
 CNTY.                        :  COUNTY
 LOC .                        :  LOCATION
 LMF .             Drill Floor:  LOG MEASURED FROM
 TVDS.m                  43.16:  TVDSS CORRECTN
 LATI.deg                40.17:  LATITUDE
 LONG.deg                51.17:  LONGITUDE
 WHNS.m                  10.51:  WELL HEAD N/S
 WHEW.m                 -14.82:  WELL HEAD E/W
 UTMX.m              514336.92:  UTM X
 UTMY.m             4448618.56:  UTM Y
 DFWL.m                   0.00:  DISTANCE FWL
 DFSL.m                   0.00:  DISTANCE FSL
 SDEP.m                 849.00:  START DEPTH
 TDD .m                2862.00:  TOTAL DEPTH (DRILLER)
 VSDR.deg               292.10:  VERT SEC DIRECT
 GVFD.g                   1.00:  GRAVITY FIELD
 MFLD.nT              50382.00:  MAGNETIC FIELD
 MDIP.deg                59.68:  MAGNETIC DIP
 MDEC.deg                 6.66:  MAGNETIC DECL
 GRDC.deg                 0.09:  GRID CORRECTION
 AZTC.deg                 6.57:  AZM TOTAL CORR
 EPD .m                   0.00:  ELEVATION
 EGL .m                   0.00:  GROUND ELEVATION
 WDMS.m                 176.20:  WD ELEV
 APD .m                  43.16:  DEPTH ABOVE PD
 DEP .m                 363.42:  DEPTH
 AGAP.m                  43.16:  AIR GAP
 VSEW.m                 -14.82:  VERT SEC E/W
 VSNS.m                  10.51:  VERT SEC N/S
 EKB .m                  43.16:  KB ELEVATION
 EDF .m                  43.16:  DF ELEVATION
 TDL .m                1390.00:  TOTAL DEPTH (LOGGER)
 VSC .                       0:  VS TO CLOSURE
 MAGU.                 1855871:  MAGUTM CHECKSUM
~Parameter Information Block
#MNEM.UNIT       Value        Description
#---------     -----------    ---------------------------
 AV  .mps                 2.28:  Ann Velocity 
 AVMX.mps                 2.67:  Max Ann Veloc 
 AZIF.deg               305.00:  Azm, Final 
 BHAT.        Rotary Steerable:  BHA Type 
 BROT.°/30m               0.45:  Build Rotating 
 BS  .in                 12.25:  Bit Size 
 BSZ .in                 12.25:  Bit Size 
 BTPL.psig              600.00:  Bit Press Loss 
 CABU.                     Yes:  Customer Abuse 
 COMM.                     ,)z:  Run Comments 1 
 TCS .hr                150.00:  Time Ciculation Ended 
 CV  .mps                 1.24:  Crit Velocity 
 CVMX.mps                 1.66:  Max Crit Veloc 
 DD1 .         Intigam Rahimov:  Direct Drillr 1 
 DD2 .            Azer Ravavov:  Direct Drillr 2 
 DD3 .              Samir Abas:  Direct Drillr 3 
 DDSV.               Geo-Pilot:  DD Service 
 DEFF.%                 100.00:  % Det Eff 
 DLRX.°/30m               1.57:  Dogleg Rot Max 
 DLSO.°/30m               0.00:  Dogleg Oriented 
 DLSX.°/30m               0.00:  Dogleg Str Max 
 DRET.      20.28.06 17-Sep-21:  Drill End Time 
 DRST.      20.27.35 10-Sep-21:  Drill Start Tim 
 DTIM.hr                 54.00:  Time Drilling 
 EDEP.m                5260.00:  End Depth 
 ENG1.      Bakhtiyar Jabbarli:  Engineer 1 
 ENG2.      Natik Hasanaghayev:  Engineer 2 
 ENG3.           Royal Nasirov:  Engineer 3 
 ETIM.      20.27.55 18-Sep-21:  End Time 
 FLOI.gpm              1100.00:  Flow In 
 FLON.gpm               800.00:  Flow In Min 
 FLOS.cptm                0.00:  Fluid Loss 
 FLOX.gpm              1200.00:  Flow In Max 
 DFT .        Mineral Oil Base:  Mud Type 
 HPRE.                      No:  High Pressure 
 HTEM.                      No:  High Temp 
 HYDO.m                   1.80:  Hydro Offset 
 IFIN.deg                72.31:  Inc, Final 
 IMAX.deg                72.36:  Inc Max 
 IMIN.deg                69.36:  Inc Min 
 IMND.m                4192.96:  Inc Min Depth 
 IMXD.m                5128.36:  Inc Max Depth 
 JARR.                      No:  Jarring 
 LETM.      20.29.00 17-Sep-21:  Log End Time 
 LOST.hr                     0:  Lost Rig Time 
 LSTM.      20.27.00 10-Sep-21:  Log Start Time 
 MDCL.ppm            227000.00:  Mud Chlorides 
 MDES.     Inversion Oil/Synthetic:  Mud Desc 
 DFD .sg                  1.45:  Mud Density 
 MDMN.sg                  1.45:  Dens Mud Min 
 MDMX.sg                  1.45:  Dens Mud Max 
 MOIL.                    70.5:  Run Mud Oil % 
 MOWR.                   71:29:  Run Mud OWR 
 MSND.                     0.3:  Run Mud Sand % 
 MSOL.                    19.8:  Run Mud Solids% 
 DFV .spqt               80.00:  Mud Viscosity 
 MWOD.in                  8.00:  MWD Tool OD 
 MWSI.                     Yes:  Serv Intrp, MWD 
 OTIM.hr                180.00:  Time Operating 
 PCON.           Look Like New:  Pad Condition 
 PMAX.psia             9910.94:  Press Op, Max 
 PV  .cP                 35.00:  Mud PV 
 RUN .                    1000:  Run Number 
 ROPA.m/hr               18.00:  ROP Avg 
 ROPN.m/hr                8.00:  ROP Min 
 ROPX.m/hr               23.00:  ROP Max 
 RPMA.rpm               150.00:  RPM Surface Avg 
 RPMN.rpm               120.00:  RPM Surface Min 
 RPMX.rpm               160.00:  RPM Surface Max 
 RRUN.                    L503:  Rig Run Number 
 RTIM.hr                  5.00:  Time Reaming 
 SAZI.deg               298.42:  Azm, Start 
 SDEP.m                3870.00:  Start Depth 
 SIDD.                      No:  Serv Intrp, DD 
 SINC.deg                69.57:  Inc, Start 
 SPPA.psig             5500.00:  SPP Avg 
 SPPN.psig             4400.00:  SPP Min 
 SPPX.psig             5800.00:  SPP Max 
 STIM.      15.29.39 09-Sep-21:  Start Time 
 SVCS.                 DD, MWD:  Services 
 SVER.                    9.20:  Sperry Version 
 TDAT.m                5260.00:  Tot Depth Attmp 
 TDDF.                      No:  Trip for DD 
 TDLG.m                1390.00:  Tot Depth Loggd 
 TFF .                      No:  Trip for Fail 
 TQAA.f-kp               22.00:  Torque Abs Avg 
 TQAN.f-kp               13.00:  Torque Abs Min 
 TQAX.f-kp               27.00:  Torque Abs Max 
 TRRT.°/30m               1.60:  Turn Rotating 
 MRT .                  EWR-M5:  Maximum Recorded Temperature 
 TTMX.degC               92.00:  Max Tool Temp 
 VS01.                12330975:  Virtual Str1 SN 
 VS02.                90658671:  Virtual Str2 SN 
 VS03.                90658508:  Virtual Str3 SN 
 VS04.                90660974:  Virtual Str4 SN 
 VS05.                90654675:  Virtual Str5 SN 
 WBMN.klb                15.00:  WOB Min 
 WITN.     Alexander Yadullayev:  Customer Rep 
 WITN.           Adil Mammadov:  Customer Rep 2 
 WOBA.klb                17.00:  WOB Avg 
 WOBX.klb                18.00:  WOB Max 
 YP  .lhf2               31.00:  Yield Point 
~Curve Information Block
#MNEM.UNIT                 API CODE     Curve Description
#---------               -----------    ---------------------------
 TIME.HHMMSS            00 000 000 000:  GT Time & Date
 GTDEPTH.m              00 000 000 000:  GT Depth
 GTPQH.psia             00 000 000 000:  GT HR Quartz Pressure
 GTTQ.degC              00 000 000 000:  GT Quartz Temperature
 GTTN.NONE              00 000 000 000:  GT Test Number
 GTET.sec               00 000 000 000:  GT Elapsed Test Time
 GTTVD.m                00 000 000 000:  GT True Vertical Depth
#Other Information
#
#WARRANTY: Halliburton will use its best efforts to furnish customers with 
#accurate information and interpretations that are part of, and incident to, the services 
#provided.  However, Halliburton cannot and does not warrant the accuracy 
#or correctness of such information and interpretations.  Under no circumstances should any 
#such information or interpretation be relied upon as the sole basis for any drilling, 
#completion, production, or financial decision or any procedure involving any risk to the 
#safety of any drilling venture, drilling rig or its crew or any other third party.  The 
#Customer has full responsibility for all drilling, completion and production operation.  
#Halliburton makes no representations or warranties, either expressed or 
#implied, including, but not limited to, the implied warranties of merchantability or fitness 
#for a particular purpose, with respect to the services rendered.  In no event will 
#Halliburton be liable for failure to obtain any particular results or for 
#any damages, including, but not limited to, indirect, special or consequential damages, 
#resulting from the use of any information or interpretation provided by Halliburton.
#
~A           TIME           GTDEPTH  GTPQH  GTTQ  GTTN  GTET   GTTVD  
# ...
   10:33:58.352.17-Sep-2021 4888.00 5435.19 75.87 8.00 253.03 2528.99
   10:33:58.552.17-Sep-2021 4888.00 5435.19 75.87 8.00 253.23 2528.99
   10:33:58.752.17-Sep-2021 4888.00 5436.57 75.87 8.00 253.43 2528.99
   10:33:58.952.17-Sep-2021 4888.00 5435.29 75.87 8.00 253.63 2528.99
   10:33:59.152.17-Sep-2021 4888.00 5434.94 75.87 8.00 253.83 2528.99
   10:33:59.352.17-Sep-2021 4888.00 5435.38 75.87 8.00 254.03 2528.99
   10:33:59.552.17-Sep-2021 4888.00 5435.38 75.87 8.00 254.23 2528.99
   10:33:59.752.17-Sep-2021 4888.00 5437.60 75.87 8.00 254.43 2528.99
   10:33:59.952.17-Sep-2021 4888.00 5434.43 75.87 8.00 254.63 2528.99
   10:34:00.152.17-Sep-2021 4888.00 5434.37 75.87 8.00 254.83 2528.99
   10:34:00.352.17-Sep-2021 4888.00 5434.57 75.87 8.00 255.03 2528.99
   10:34:00.552.17-Sep-2021 4888.00 5434.57 75.87 8.00 255.23 2528.99
   10:34:00.752.17-Sep-2021 4888.00 5433.30 75.87 8.00 255.43 2528.99
   10:34:00.952.17-Sep-2021 4888.00 5434.44 75.87 8.00 255.63 2528.99
   10:34:01.152.17-Sep-2021 4888.00 5434.53 75.87 8.00 255.83 2528.99
   10:34:01.352.17-Sep-2021 4888.00 5435.21 75.87 8.00 256.03 2528.99
   10:34:01.552.17-Sep-2021 4888.00 5435.21 75.87 8.00 256.23 2528.99
   10:34:01.752.17-Sep-2021 4888.00 5435.36 75.87 8.00 256.43 2528.99
   10:34:01.952.17-Sep-2021 4888.00 5435.13 75.87 8.00 256.63 2528.99
   10:34:02.152.17-Sep-2021 4888.00 5434.41 75.87 8.00 256.83 2528.99
   10:34:02.352.17-Sep-2021 4888.00 5434.48 75.87 8.00 257.03 2528.99
   10:34:02.552.17-Sep-2021 4888.00 5434.48 75.87 8.00 257.23 2528.99
   10:34:02.752.17-Sep-2021 4888.00 5434.77 75.87 8.00 257.43 2528.99
   10:34:02.953.17-Sep-2021 4888.00 5435.03 75.87 8.00 257.63 2528.99
   10:34:03.153.17-Sep-2021 4888.00 5434.67 75.87 8.00 257.83 2528.99
   10:34:03.353.17-Sep-2021 4888.00 5434.52 75.87 8.00 258.03 2528.99
   10:34:03.553.17-Sep-2021 4888.00 5434.52 75.87 8.00 258.23 2528.99
   10:34:03.753.17-Sep-2021 4888.00 5434.79 75.87 8.00 258.43 2528.99
   10:34:03.953.17-Sep-2021 4888.00 5435.00 75.87 8.00 258.63 2528.99
   10:34:04.153.17-Sep-2021 4888.00 5435.02 75.87 8.00 258.83 2528.99
   10:34:04.353.17-Sep-2021 4888.00 5434.80 75.87 8.00 259.03 2528.99
   10:34:04.553.17-Sep-2021 4888.00 5434.80 75.87 8.00 259.23 2528.99
   10:34:04.753.17-Sep-2021 4888.00 5438.94 75.87 8.00 259.43 2528.99
   10:34:04.953.17-Sep-2021 4888.00 5433.77 75.87 8.00 259.63 2528.99
   10:34:05.153.17-Sep-2021 4888.00 5435.03 75.87 8.00 259.83 2528.99
   10:34:05.353.17-Sep-2021 4888.00 5434.72 75.87 8.00 260.03 2528.99
   10:34:05.553.17-Sep-2021 4888.00 5434.72 75.87 8.00 260.23 2528.99
   10:34:05.753.17-Sep-2021 4888.00 5434.63 75.87 8.00 260.43 2528.99
   10:34:05.953.17-Sep-2021 4888.00 5434.55 75.87 8.00 260.63 2528.99
   10:34:06.153.17-Sep-2021 4888.00 5434.93 75.87 8.00 260.83 2528.99
   10:34:06.353.17-Sep-2021 4888.00 5434.38 75.87 8.00 261.03 2528.99
   10:34:06.553.17-Sep-2021 4888.00 5434.38 75.87 8.00 261.23 2528.99
   10:34:06.753.17-Sep-2021 4888.00 5434.14 75.87 8.00 261.43 2528.99
   10:34:06.953.17-Sep-2021 4888.00 5434.54 75.87 8.00 261.63 2528.99
   10:34:07.153.17-Sep-2021 4888.00 5434.91 75.87 8.00 261.83 2528.99
   10:34:07.353.17-Sep-2021 4888.00 5434.66 75.87 8.00 262.03 2528.99
   10:34:07.553.17-Sep-2021 4888.00 5434.66 75.87 8.00 262.23 2528.99
   10:34:07.753.17-Sep-2021 4888.00 5434.82 75.87 8.00 262.43 2528.99
   10:34:07.953.17-Sep-2021 4888.00 5435.26 75.87 8.00 262.63 2528.99
   10:34:08.153.17-Sep-2021 4888.00 5438.20 75.87 8.00 262.83 2528.99
   10:34:08.353.17-Sep-2021 4888.00 5433.92 75.87 8.00 263.03 2528.99
   10:34:08.553.17-Sep-2021 4888.00 5433.92 75.87 8.00 263.23 2528.99
   10:34:08.753.17-Sep-2021 4888.00 5434.73 75.87 8.00 263.43 2528.99
   10:34:08.953.17-Sep-2021 4888.00 5435.72 75.87 8.00 263.63 2528.99
   10:34:09.153.17-Sep-2021 4888.00 5435.71 75.87 8.00 263.83 2528.99
   10:34:09.353.17-Sep-2021 4888.00 5435.87 75.87 8.00 264.03 2528.99
   10:34:09.553.17-Sep-2021 4888.00 5435.87 75.87 8.00 264.23 2528.99
   10:34:09.753.17-Sep-2021 4888.00 5434.22 75.87 8.00 264.43 2528.99
   10:34:09.953.17-Sep-2021 4888.00 5434.77 75.87 8.00 264.63 2528.99
   10:34:10.153.17-Sep-2021 4888.00 5438.56 75.87 8.00 264.83 2528.99
   10:34:10.353.17-Sep-2021 4888.00 5433.16 75.87 8.00 265.03 2528.99
   10:34:10.553.17-Sep-2021 4888.00 5433.16 75.87 8.00 265.23 2528.99
   10:34:10.753.17-Sep-2021 4888.00 5434.05 75.87 8.00 265.43 2528.99
   10:34:10.953.17-Sep-2021 4888.00 5435.48 75.87 8.00 265.63 2528.99
   10:34:11.153.17-Sep-2021 4888.00 5436.64 75.87 8.00 265.83 2528.99
   10:34:11.353.17-Sep-2021 4888.00 5432.97 75.87 8.00 266.03 2528.99
   10:34:11.553.17-Sep-2021 4888.00 5432.97 75.87 8.00 266.23 2528.99
   10:34:11.753.17-Sep-2021 4888.00 5434.27 75.87 8.00 266.43 2528.99
   10:34:11.954.17-Sep-2021 4888.00 5435.01 75.87 8.00 266.63 2528.99
   10:34:12.154.17-Sep-2021 4888.00 5434.05 75.87 8.00 266.83 2528.99
   10:34:12.354.17-Sep-2021 4888.00 5434.58 75.87 8.00 267.03 2528.99
   10:34:12.554.17-Sep-2021 4888.00 5434.58 75.87 8.00 267.23 2528.99
   10:34:12.754.17-Sep-2021 4888.00 5434.33 75.87 8.00 267.43 2528.99
   10:34:12.954.17-Sep-2021 4888.00 5434.26 75.87 8.00 267.63 2528.99
   10:34:13.154.17-Sep-2021 4888.00 5434.39 75.87 8.00 267.83 2528.99
   10:34:13.354.17-Sep-2021 4888.00 5434.89 75.87 8.00 268.03 2528.99
   10:34:13.554.17-Sep-2021 4888.00 5434.89 75.87 8.00 268.23 2528.99
   10:34:13.754.17-Sep-2021 4888.00 5434.65 75.87 8.00 268.43 2528.99
   10:34:13.954.17-Sep-2021 4888.00 5434.68 75.87 8.00 268.63 2528.99
   10:34:14.154.17-Sep-2021 4888.00 5434.67 75.87 8.00 268.83 2528.99
   10:34:14.354.17-Sep-2021 4888.00 5437.57 75.87 8.00 269.03 2528.99
   10:34:14.554.17-Sep-2021 4888.00 5437.57 75.87 8.00 269.23 2528.99
   10:34:14.754.17-Sep-2021 4888.00 5434.69 75.87 8.00 269.43 2528.99
   10:34:14.954.17-Sep-2021 4888.00 5434.83 75.87 8.00 269.63 2528.99
   10:34:15.154.17-Sep-2021 4888.00 5435.76 75.87 8.00 269.83 2528.99
   10:34:15.354.17-Sep-2021 4888.00 5434.58 75.87 8.00 270.03 2528.99
   10:34:15.554.17-Sep-2021 4888.00 5434.58 75.87 8.00 270.23 2528.99
   10:34:15.754.17-Sep-2021 4888.00 5434.62 75.87 8.00 270.43 2528.99
   10:34:15.954.17-Sep-2021 4888.00 5434.39 75.87 8.00 270.63 2528.99
   10:34:16.154.17-Sep-2021 4888.00 5434.12 75.87 8.00 270.83 2528.99
   10:34:16.354.17-Sep-2021 4888.00 5434.14 75.87 8.00 271.03 2528.99
   10:34:16.554.17-Sep-2021 4888.00 5434.14 75.87 8.00 271.23 2528.99
   10:34:16.754.17-Sep-2021 4888.00 5434.75 75.87 8.00 271.43 2528.99
   10:34:16.954.17-Sep-2021 4888.00 5434.52 75.87 8.00 271.63 2528.99
   10:34:17.154.17-Sep-2021 4888.00 5434.45 75.87 8.00 271.83 2528.99
   10:34:17.354.17-Sep-2021 4888.00 5434.77 75.87 8.00 272.03 2528.99
   10:34:17.554.17-Sep-2021 4888.00 5434.77 75.87 8.00 272.23 2528.99
   10:34:17.754.17-Sep-2021 4888.00 5438.60 75.87 8.00 272.43 2528.99
   10:34:17.954.17-Sep-2021 4888.00 5433.39 75.87 8.00 272.63 2528.99
   10:34:18.154.17-Sep-2021 4888.00 5434.71 75.87 8.00 272.83 2528.99
   10:34:18.354.17-Sep-2021 4888.00 5434.66 75.87 8.00 273.03 2528.99
   10:34:18.554.17-Sep-2021 4888.00 5434.66 75.87 8.00 273.23 2528.99
   10:34:18.754.17-Sep-2021 4888.00 5437.63 75.87 8.00 273.43 2528.99
   10:34:18.954.17-Sep-2021 4888.00 5433.17 75.87 8.00 273.63 2528.99
   10:34:19.154.17-Sep-2021 4888.00 5435.06 75.87 8.00 273.83 2528.99
   10:34:19.354.17-Sep-2021 4888.00 5434.06 75.87 8.00 274.03 2528.99
   10:34:19.554.17-Sep-2021 4888.00 5434.06 75.87 8.00 274.23 2528.99
   10:34:19.754.17-Sep-2021 4888.00 5436.52 75.87 8.00 274.43 2528.99
   10:34:19.954.17-Sep-2021 4888.00 5433.86 75.87 8.00 274.63 2528.99
   10:34:20.154.17-Sep-2021 4888.00 5434.42 75.87 8.00 274.83 2528.99
   10:34:20.354.17-Sep-2021 4888.00 5433.93 75.87 8.00 275.03 2528.99
   10:34:20.554.17-Sep-2021 4888.00 5433.93 75.87 8.00 275.23 2528.99
   10:34:20.754.17-Sep-2021 4888.00 5437.56 75.87 8.00 275.43 2528.99
   10:34:20.954.17-Sep-2021 4888.00 5432.63 75.87 8.00 275.63 2528.99
   10:34:21.155.17-Sep-2021 4888.00 5434.71 75.87 8.00 275.83 2528.99
