~Version Information
 VERS.                  2.0:   CWLS log ASCII Standard -VERSION 2.0
 WRAP.                   NO:   One line per depth step
~Well Information Block
#MNEM.UNIT     VALUE/NAME     DESCRIPTION
#---------     -----------    ---------------------------
 STRT.S             11:33:10 17-Sep-21: START TIME 11:33:10 17-Sep-21
 STOP.S             11:40:20 17-Sep-21: STOP TIME  11:40:20 17-Sep-21
 STEP.S                   0.00: STEP TIME
 NULL.                 -999.25: NULL VALUE
 DFWT.                        :  DIST FWL TEXT
 DFST.                        :  DIST FSL TEXT
 DMF .             Drill Floor:  DRILL MEAS FROM
 STIM.      10.59.12 05-Jul-21:  START TIME
 DATE.      10.59.12 10-Sep-21:  END TIME
 SPUD.               05-Jul-21:  SPUD DATE
 NREF.                    Grid:  NORTH REFERENCE
 HPTY.       Minimum Curvature:  HOLE POS TYPE
 DMOD.             Drill Model:  DRILL MOD DESC
 SVYD.                  Survey:  SURVEY DESC
 ILTD.               Lithology:  INTERP LTH DESC
 FTOP.          Formation Tops:  FORM TOPS DESC
 RIG .                     DWG:  RIG NAME
 PDAT.          Mean Sea Level:  PERMANENT DATUM
 FLD .                     ACG:  FIELD NAME
 SON .        AZ-XX-0907115008:  JOB NUMBER
 CTRY.              Azerbaijan:  COUNTRY NAME
 WELL.                    E35A:  WELL NAME
 SRVC.          TURAN DRILLING:  CONTRACTOR
 COMP.     BP Exploration (Caspian Sea LTD):  COMPANY
 UWI .                     N/A:  UNIQUE WELL IDENTIFIER
 API .                     N/A:  API NUMBER
 MDS .        Operator Entered:  MAG DATA SOURCE
 BASE.              Azerbaijan:  LOGGING EQUIPMENT BASE LOCATION
 REGN.                   EESSA:  REGION
 PROV.                    Baku:  PROVINCE
 STAT.                    Baku:  STATE NAME
 MWDS.                    Baku:  MWD SHOP
 JOBN.        AZ-XX-0907115008:  JOB TICKET NUMB
 DOE .                     N/A:  DOE NUMBER
 DCON.         Sperry Drilling:  DIRECTNL CONTR
 UNIT.                     N/A:  LOGGING EQUIPMENT ID
 WTYP.                Deviated:  WELL TYPE
 CNTY.                        :  COUNTY
 LOC .                        :  LOCATION
 LMF .             Drill Floor:  LOG MEASURED FROM
 TVDS.m                  43.16:  TVDSS CORRECTN
 LATI.deg                40.17:  LATITUDE
 LONG.deg                51.17:  LONGITUDE
 WHNS.m                  10.51:  WELL HEAD N/S
 WHEW.m                 -14.82:  WELL HEAD E/W
 UTMX.m              514336.92:  UTM X
 UTMY.m             4448618.56:  UTM Y
 DFWL.m                   0.00:  DISTANCE FWL
 DFSL.m                   0.00:  DISTANCE FSL
 SDEP.m                 849.00:  START DEPTH
 TDD .m                2862.00:  TOTAL DEPTH (DRILLER)
 VSDR.deg               292.10:  VERT SEC DIRECT
 GVFD.g                   1.00:  GRAVITY FIELD
 MFLD.nT              50382.00:  MAGNETIC FIELD
 MDIP.deg                59.68:  MAGNETIC DIP
 MDEC.deg                 6.66:  MAGNETIC DECL
 GRDC.deg                 0.09:  GRID CORRECTION
 AZTC.deg                 6.57:  AZM TOTAL CORR
 EPD .m                   0.00:  ELEVATION
 EGL .m                   0.00:  GROUND ELEVATION
 WDMS.m                 176.20:  WD ELEV
 APD .m                  43.16:  DEPTH ABOVE PD
 DEP .m                 363.42:  DEPTH
 AGAP.m                  43.16:  AIR GAP
 VSEW.m                 -14.82:  VERT SEC E/W
 VSNS.m                  10.51:  VERT SEC N/S
 EKB .m                  43.16:  KB ELEVATION
 EDF .m                  43.16:  DF ELEVATION
 TDL .m                1390.00:  TOTAL DEPTH (LOGGER)
 VSC .                       0:  VS TO CLOSURE
 MAGU.                 1855871:  MAGUTM CHECKSUM
~Parameter Information Block
#MNEM.UNIT       Value        Description
#---------     -----------    ---------------------------
 AV  .mps                 2.28:  Ann Velocity 
 AVMX.mps                 2.67:  Max Ann Veloc 
 AZIF.deg               305.00:  Azm, Final 
 BHAT.        Rotary Steerable:  BHA Type 
 BROT.°/30m               0.45:  Build Rotating 
 BS  .in                 12.25:  Bit Size 
 BSZ .in                 12.25:  Bit Size 
 BTPL.psig              600.00:  Bit Press Loss 
 CABU.                     Yes:  Customer Abuse 
 COMM.                     Á~:  Run Comments 1 
 TCS .hr                150.00:  Time Ciculation Ended 
 CV  .mps                 1.24:  Crit Velocity 
 CVMX.mps                 1.66:  Max Crit Veloc 
 DD1 .         Intigam Rahimov:  Direct Drillr 1 
 DD2 .            Azer Ravavov:  Direct Drillr 2 
 DD3 .              Samir Abas:  Direct Drillr 3 
 DDSV.               Geo-Pilot:  DD Service 
 DEFF.%                 100.00:  % Det Eff 
 DLRX.°/30m               1.57:  Dogleg Rot Max 
 DLSO.°/30m               0.00:  Dogleg Oriented 
 DLSX.°/30m               0.00:  Dogleg Str Max 
 DRET.      20.28.06 17-Sep-21:  Drill End Time 
 DRST.      20.27.35 10-Sep-21:  Drill Start Tim 
 DTIM.hr                 54.00:  Time Drilling 
 EDEP.m                5260.00:  End Depth 
 ENG1.      Bakhtiyar Jabbarli:  Engineer 1 
 ENG2.      Natik Hasanaghayev:  Engineer 2 
 ENG3.           Royal Nasirov:  Engineer 3 
 ETIM.      20.27.55 18-Sep-21:  End Time 
 FLOI.gpm              1100.00:  Flow In 
 FLON.gpm               800.00:  Flow In Min 
 FLOS.cptm                0.00:  Fluid Loss 
 FLOX.gpm              1200.00:  Flow In Max 
 DFT .        Mineral Oil Base:  Mud Type 
 HPRE.                      No:  High Pressure 
 HTEM.                      No:  High Temp 
 HYDO.m                   1.80:  Hydro Offset 
 IFIN.deg                72.31:  Inc, Final 
 IMAX.deg                72.36:  Inc Max 
 IMIN.deg                69.36:  Inc Min 
 IMND.m                4192.96:  Inc Min Depth 
 IMXD.m                5128.36:  Inc Max Depth 
 JARR.                      No:  Jarring 
 LETM.      20.29.00 17-Sep-21:  Log End Time 
 LOST.hr                     0:  Lost Rig Time 
 LSTM.      20.27.00 10-Sep-21:  Log Start Time 
 MDCL.ppm            227000.00:  Mud Chlorides 
 MDES.     Inversion Oil/Synthetic:  Mud Desc 
 DFD .sg                  1.45:  Mud Density 
 MDMN.sg                  1.45:  Dens Mud Min 
 MDMX.sg                  1.45:  Dens Mud Max 
 MOIL.                    70.5:  Run Mud Oil % 
 MOWR.                   71:29:  Run Mud OWR 
 MSND.                     0.3:  Run Mud Sand % 
 MSOL.                    19.8:  Run Mud Solids% 
 DFV .spqt               80.00:  Mud Viscosity 
 MWOD.in                  8.00:  MWD Tool OD 
 MWSI.                     Yes:  Serv Intrp, MWD 
 OTIM.hr                180.00:  Time Operating 
 PCON.           Look Like New:  Pad Condition 
 PMAX.psia             9910.94:  Press Op, Max 
 PV  .cP                 35.00:  Mud PV 
 RUN .                    1000:  Run Number 
 ROPA.m/hr               18.00:  ROP Avg 
 ROPN.m/hr                8.00:  ROP Min 
 ROPX.m/hr               23.00:  ROP Max 
 RPMA.rpm               150.00:  RPM Surface Avg 
 RPMN.rpm               120.00:  RPM Surface Min 
 RPMX.rpm               160.00:  RPM Surface Max 
 RRUN.                    L503:  Rig Run Number 
 RTIM.hr                  5.00:  Time Reaming 
 SAZI.deg               298.42:  Azm, Start 
 SDEP.m                3870.00:  Start Depth 
 SIDD.                      No:  Serv Intrp, DD 
 SINC.deg                69.57:  Inc, Start 
 SPPA.psig             5500.00:  SPP Avg 
 SPPN.psig             4400.00:  SPP Min 
 SPPX.psig             5800.00:  SPP Max 
 STIM.      15.29.39 09-Sep-21:  Start Time 
 SVCS.                 DD, MWD:  Services 
 SVER.                    9.20:  Sperry Version 
 TDAT.m                5260.00:  Tot Depth Attmp 
 TDDF.                      No:  Trip for DD 
 TDLG.m                1390.00:  Tot Depth Loggd 
 TFF .                      No:  Trip for Fail 
 TQAA.f-kp               22.00:  Torque Abs Avg 
 TQAN.f-kp               13.00:  Torque Abs Min 
 TQAX.f-kp               27.00:  Torque Abs Max 
 TRRT.°/30m               1.60:  Turn Rotating 
 MRT .                  EWR-M5:  Maximum Recorded Temperature 
 TTMX.degC               92.00:  Max Tool Temp 
 VS01.                12330975:  Virtual Str1 SN 
 VS02.                90658671:  Virtual Str2 SN 
 VS03.                90658508:  Virtual Str3 SN 
 VS04.                90660974:  Virtual Str4 SN 
 VS05.                90654675:  Virtual Str5 SN 
 WBMN.klb                15.00:  WOB Min 
 WITN.     Alexander Yadullayev:  Customer Rep 
 WITN.           Adil Mammadov:  Customer Rep 2 
 WOBA.klb                17.00:  WOB Avg 
 WOBX.klb                18.00:  WOB Max 
 YP  .lhf2               31.00:  Yield Point 
~Curve Information Block
#MNEM.UNIT                 API CODE     Curve Description
#---------               -----------    ---------------------------
 TIME.HHMMSS            00 000 000 000:  GT Time & Date
 GTDEPTH.m              00 000 000 000:  GT Depth
 GTPQH.psia             00 000 000 000:  GT HR Quartz Pressure
 GTTQ.degC              00 000 000 000:  GT Quartz Temperature
 GTTN.NONE              00 000 000 000:  GT Test Number
 GTET.sec               00 000 000 000:  GT Elapsed Test Time
 GTTVD.m                00 000 000 000:  GT True Vertical Depth
#Other Information
#
#WARRANTY: Halliburton will use its best efforts to furnish customers with 
#accurate information and interpretations that are part of, and incident to, the services 
#provided.  However, Halliburton cannot and does not warrant the accuracy 
#or correctness of such information and interpretations.  Under no circumstances should any 
#such information or interpretation be relied upon as the sole basis for any drilling, 
#completion, production, or financial decision or any procedure involving any risk to the 
#safety of any drilling venture, drilling rig or its crew or any other third party.  The 
#Customer has full responsibility for all drilling, completion and production operation.  
#Halliburton makes no representations or warranties, either expressed or 
#implied, including, but not limited to, the implied warranties of merchantability or fitness 
#for a particular purpose, with respect to the services rendered.  In no event will 
#Halliburton be liable for failure to obtain any particular results or for 
#any damages, including, but not limited to, indirect, special or consequential damages, 
#resulting from the use of any information or interpretation provided by Halliburton.
#
~A           TIME           GTDEPTH  GTPQH  GTTQ  GTTN  GTET   GTTVD  
# ...
   11:35:05.758.17-Sep-2021 4887.00 5435.94 77.27 9.00 115.01 2528.65
   11:35:05.958.17-Sep-2021 4887.00 5435.94 77.27 9.00 115.21 2528.65
   11:35:06.158.17-Sep-2021 4887.00 5436.85 77.27 9.00 115.41 2528.65
   11:35:06.358.17-Sep-2021 4887.00 5436.36 77.27 9.00 115.61 2528.65
   11:35:06.558.17-Sep-2021 4887.00 5436.33 77.27 9.00 115.81 2528.65
   11:35:06.758.17-Sep-2021 4887.00 5436.65 77.27 9.00 116.01 2528.65
   11:35:06.958.17-Sep-2021 4887.00 5436.65 77.27 9.00 116.21 2528.65
   11:35:07.158.17-Sep-2021 4887.00 5437.00 77.27 9.00 116.41 2528.65
   11:35:07.358.17-Sep-2021 4887.00 5436.79 77.27 9.00 116.61 2528.65
   11:35:07.558.17-Sep-2021 4887.00 5437.85 77.27 9.00 116.81 2528.65
   11:35:07.758.17-Sep-2021 4887.00 5438.14 77.27 9.00 117.01 2528.65
   11:35:07.958.17-Sep-2021 4887.00 5438.14 77.27 9.00 117.21 2528.65
   11:35:08.158.17-Sep-2021 4887.00 5436.77 77.27 9.00 117.41 2528.65
   11:35:08.358.17-Sep-2021 4887.00 5437.30 77.27 9.00 117.61 2528.65
   11:35:08.558.17-Sep-2021 4887.00 5437.67 77.27 9.00 117.81 2528.65
   11:35:08.758.17-Sep-2021 4887.00 5436.81 77.27 9.00 118.01 2528.65
   11:35:08.958.17-Sep-2021 4887.00 5436.81 77.27 9.00 118.21 2528.65
   11:35:09.158.17-Sep-2021 4887.00 5436.75 77.27 9.00 118.41 2528.65
   11:35:09.358.17-Sep-2021 4887.00 5436.62 77.27 9.00 118.61 2528.65
   11:35:09.558.17-Sep-2021 4887.00 5436.33 77.27 9.00 118.81 2528.65
   11:35:09.758.17-Sep-2021 4887.00 5436.41 77.27 9.00 119.01 2528.65
   11:35:09.958.17-Sep-2021 4887.00 5436.41 77.27 9.00 119.21 2528.65
   11:35:10.158.17-Sep-2021 4887.00 5436.75 77.27 9.00 119.41 2528.65
   11:35:10.358.17-Sep-2021 4887.00 5436.56 77.27 9.00 119.61 2528.65
   11:35:10.558.17-Sep-2021 4887.00 5436.50 77.27 9.00 119.81 2528.65
   11:35:10.759.17-Sep-2021 4887.00 5436.70 77.27 9.00 120.01 2528.65
   11:35:10.959.17-Sep-2021 4887.00 5436.70 77.27 9.00 120.21 2528.65
   11:35:11.159.17-Sep-2021 4887.00 5439.28 77.27 9.00 120.41 2528.65
   11:35:11.359.17-Sep-2021 4887.00 5436.78 77.27 9.00 120.61 2528.65
   11:35:11.559.17-Sep-2021 4887.00 5436.70 77.27 9.00 120.81 2528.65
   11:35:11.759.17-Sep-2021 4887.00 5436.94 77.27 9.00 121.01 2528.65
   11:35:11.959.17-Sep-2021 4887.00 5436.94 77.27 9.00 121.21 2528.65
   11:35:12.159.17-Sep-2021 4887.00 5439.23 77.27 9.00 121.41 2528.65
   11:35:12.359.17-Sep-2021 4887.00 5436.21 77.27 9.00 121.61 2528.65
   11:35:12.559.17-Sep-2021 4887.00 5436.49 77.27 9.00 121.81 2528.65
   11:35:12.759.17-Sep-2021 4887.00 5436.68 77.27 9.00 122.01 2528.65
   11:35:12.959.17-Sep-2021 4887.00 5436.68 77.27 9.00 122.21 2528.65
   11:35:13.159.17-Sep-2021 4887.00 5438.58 77.27 9.00 122.41 2528.65
   11:35:13.359.17-Sep-2021 4887.00 5435.67 77.27 9.00 122.61 2528.65
   11:35:13.559.17-Sep-2021 4887.00 5436.31 77.27 9.00 122.81 2528.65
   11:35:13.759.17-Sep-2021 4887.00 5436.23 77.27 9.00 123.01 2528.65
   11:35:13.959.17-Sep-2021 4887.00 5436.23 77.27 9.00 123.21 2528.65
   11:35:14.159.17-Sep-2021 4887.00 5439.55 77.27 9.00 123.41 2528.65
   11:35:14.359.17-Sep-2021 4887.00 5434.83 77.27 9.00 123.61 2528.65
   11:35:14.559.17-Sep-2021 4887.00 5436.59 77.27 9.00 123.81 2528.65
   11:35:14.759.17-Sep-2021 4887.00 5436.04 77.27 9.00 124.01 2528.65
   11:35:14.959.17-Sep-2021 4887.00 5436.04 77.27 9.00 124.21 2528.65
   11:35:15.159.17-Sep-2021 4887.00 5435.95 77.27 9.00 124.41 2528.65
   11:35:15.359.17-Sep-2021 4887.00 5436.25 77.27 9.00 124.61 2528.65
   11:35:15.559.17-Sep-2021 4887.00 5436.86 77.27 9.00 124.81 2528.65
   11:35:15.759.17-Sep-2021 4887.00 5436.34 77.27 9.00 125.01 2528.65
   11:35:15.959.17-Sep-2021 4887.00 5436.34 77.27 9.00 125.21 2528.65
   11:35:16.159.17-Sep-2021 4887.00 5436.39 77.27 9.00 125.41 2528.65
   11:35:16.359.17-Sep-2021 4887.00 5436.80 77.27 9.00 125.61 2528.65
   11:35:16.559.17-Sep-2021 4887.00 5436.85 77.27 9.00 125.81 2528.65
   11:35:16.759.17-Sep-2021 4887.00 5436.69 77.27 9.00 126.01 2528.65
   11:35:16.959.17-Sep-2021 4887.00 5436.69 77.27 9.00 126.21 2528.65
   11:35:17.159.17-Sep-2021 4887.00 5437.79 77.27 9.00 126.41 2528.65
   11:35:17.359.17-Sep-2021 4887.00 5438.30 77.27 9.00 126.61 2528.65
   11:35:17.559.17-Sep-2021 4887.00 5437.09 77.27 9.00 126.81 2528.65
   11:35:17.759.17-Sep-2021 4887.00 5436.71 77.27 9.00 127.01 2528.65
   11:35:17.959.17-Sep-2021 4887.00 5436.71 77.27 9.00 127.21 2528.65
   11:35:18.159.17-Sep-2021 4887.00 5437.44 77.27 9.00 127.41 2528.65
   11:35:18.359.17-Sep-2021 4887.00 5436.85 77.27 9.00 127.61 2528.65
   11:35:18.559.17-Sep-2021 4887.00 5436.52 77.27 9.00 127.81 2528.65
   11:35:18.759.17-Sep-2021 4887.00 5436.60 77.27 9.00 128.01 2528.65
   11:35:18.959.17-Sep-2021 4887.00 5436.60 77.27 9.00 128.21 2528.65
   11:35:19.159.17-Sep-2021 4887.00 5436.13 77.27 9.00 128.41 2528.65
   11:35:19.359.17-Sep-2021 4887.00 5436.24 77.27 9.00 128.61 2528.65
   11:35:19.559.17-Sep-2021 4887.00 5436.54 77.27 9.00 128.81 2528.65
   11:35:19.760.17-Sep-2021 4887.00 5436.71 77.27 9.00 129.01 2528.65
   11:35:19.960.17-Sep-2021 4887.00 5436.71 77.27 9.00 129.21 2528.65
   11:35:20.160.17-Sep-2021 4887.00 5436.51 77.27 9.00 129.41 2528.65
   11:35:20.360.17-Sep-2021 4887.00 5436.68 77.27 9.00 129.61 2528.65
   11:35:20.560.17-Sep-2021 4887.00 5436.94 77.27 9.00 129.81 2528.65
   11:35:20.760.17-Sep-2021 4887.00 5439.23 77.27 9.00 130.01 2528.65
   11:35:20.960.17-Sep-2021 4887.00 5439.23 77.27 9.00 130.21 2528.65
   11:35:21.160.17-Sep-2021 4887.00 5436.60 77.27 9.00 130.41 2528.65
   11:35:21.360.17-Sep-2021 4887.00 5436.72 77.27 9.00 130.61 2528.65
   11:35:21.560.17-Sep-2021 4887.00 5437.71 77.27 9.00 130.81 2528.65
   11:35:21.760.17-Sep-2021 4887.00 5439.14 77.27 9.00 131.01 2528.65
   11:35:21.960.17-Sep-2021 4887.00 5439.14 77.27 9.00 131.21 2528.65
   11:35:22.160.17-Sep-2021 4887.00 5436.44 77.27 9.00 131.41 2528.65
   11:35:22.360.17-Sep-2021 4887.00 5436.38 77.27 9.00 131.61 2528.65
   11:35:22.560.17-Sep-2021 4887.00 5437.15 77.27 9.00 131.81 2528.65
   11:35:22.760.17-Sep-2021 4887.00 5438.61 77.27 9.00 132.01 2528.65
   11:35:22.960.17-Sep-2021 4887.00 5438.61 77.27 9.00 132.21 2528.65
   11:35:23.160.17-Sep-2021 4887.00 5436.36 77.27 9.00 132.41 2528.65
   11:35:23.360.17-Sep-2021 4887.00 5436.01 77.27 9.00 132.61 2528.65
   11:35:23.560.17-Sep-2021 4887.00 5436.75 77.27 9.00 132.81 2528.65
   11:35:23.760.17-Sep-2021 4887.00 5439.59 77.27 9.00 133.01 2528.65
   11:35:23.960.17-Sep-2021 4887.00 5439.59 77.27 9.00 133.21 2528.65
   11:35:24.160.17-Sep-2021 4887.00 5436.55 77.27 9.00 133.41 2528.65
   11:35:24.360.17-Sep-2021 4887.00 5435.89 77.27 9.00 133.61 2528.65
   11:35:24.560.17-Sep-2021 4887.00 5437.02 77.27 9.00 133.81 2528.65
   11:35:24.760.17-Sep-2021 4887.00 5435.96 77.27 9.00 134.01 2528.65
   11:35:24.960.17-Sep-2021 4887.00 5435.96 77.27 9.00 134.21 2528.65
   11:35:25.160.17-Sep-2021 4887.00 5436.85 77.27 9.00 134.41 2528.65
   11:35:25.360.17-Sep-2021 4887.00 5436.14 77.27 9.00 134.61 2528.65
   11:35:25.560.17-Sep-2021 4887.00 5436.05 77.27 9.00 134.81 2528.65
   11:35:25.760.17-Sep-2021 4887.00 5436.20 77.27 9.00 135.01 2528.65
   11:35:25.960.17-Sep-2021 4887.00 5436.20 77.27 9.00 135.21 2528.65
   11:35:26.160.17-Sep-2021 4887.00 5436.81 77.27 9.00 135.41 2528.65
   11:35:26.360.17-Sep-2021 4887.00 5436.60 77.27 9.00 135.62 2528.65
   11:35:26.560.17-Sep-2021 4887.00 5436.52 77.27 9.00 135.82 2528.65
   11:35:26.760.17-Sep-2021 4887.00 5437.53 77.27 9.00 136.02 2528.65
   11:35:26.960.17-Sep-2021 4887.00 5437.53 77.27 9.00 136.22 2528.65
   11:35:27.160.17-Sep-2021 4887.00 5436.93 77.26 9.00 136.42 2528.65
   11:35:27.360.17-Sep-2021 4887.00 5436.58 77.26 9.00 136.62 2528.65
   11:35:27.560.17-Sep-2021 4887.00 5436.93 77.26 9.00 136.82 2528.65
   11:35:27.760.17-Sep-2021 4887.00 5437.15 77.26 9.00 137.02 2528.65
   11:35:27.960.17-Sep-2021 4887.00 5437.15 77.26 9.00 137.22 2528.65
   11:35:28.160.17-Sep-2021 4887.00 5436.28 77.26 9.00 137.42 2528.65
   11:35:28.360.17-Sep-2021 4887.00 5436.45 77.26 9.00 137.62 2528.65
   11:35:28.560.17-Sep-2021 4887.00 5436.20 77.26 9.00 137.82 2528.65
