~Version Information
 VERS.                  2.0:   CWLS log ASCII Standard -VERSION 2.0
 WRAP.                   NO:   One line per depth step
~Well Information Block
#MNEM.UNIT     VALUE/NAME     DESCRIPTION
#---------     -----------    ---------------------------
 STRT.S             06:03:21 17-Sep-21: START TIME 06:03:21 17-Sep-21
 STOP.S             06:11:58 17-Sep-21: STOP TIME  06:11:58 17-Sep-21
 STEP.S                   0.00: STEP TIME
 NULL.                 -999.25: NULL VALUE
 DFWT.                        :  DIST FWL TEXT
 DFST.                        :  DIST FSL TEXT
 DMF .             Drill Floor:  DRILL MEAS FROM
 STIM.      10.59.12 05-Jul-21:  START TIME
 DATE.      10.59.12 10-Sep-21:  END TIME
 SPUD.               05-Jul-21:  SPUD DATE
 NREF.                    Grid:  NORTH REFERENCE
 HPTY.       Minimum Curvature:  HOLE POS TYPE
 DMOD.             Drill Model:  DRILL MOD DESC
 SVYD.                  Survey:  SURVEY DESC
 ILTD.               Lithology:  INTERP LTH DESC
 FTOP.          Formation Tops:  FORM TOPS DESC
 RIG .                     DWG:  RIG NAME
 PDAT.          Mean Sea Level:  PERMANENT DATUM
 FLD .                     ACG:  FIELD NAME
 SON .        AZ-XX-0907115008:  JOB NUMBER
 CTRY.              Azerbaijan:  COUNTRY NAME
 WELL.                    E35A:  WELL NAME
 SRVC.          TURAN DRILLING:  CONTRACTOR
 COMP.     BP Exploration (Caspian Sea LTD):  COMPANY
 UWI .                     N/A:  UNIQUE WELL IDENTIFIER
 API .                     N/A:  API NUMBER
 MDS .        Operator Entered:  MAG DATA SOURCE
 BASE.              Azerbaijan:  LOGGING EQUIPMENT BASE LOCATION
 REGN.                   EESSA:  REGION
 PROV.                    Baku:  PROVINCE
 STAT.                    Baku:  STATE NAME
 MWDS.                    Baku:  MWD SHOP
 JOBN.        AZ-XX-0907115008:  JOB TICKET NUMB
 DOE .                     N/A:  DOE NUMBER
 DCON.         Sperry Drilling:  DIRECTNL CONTR
 UNIT.                     N/A:  LOGGING EQUIPMENT ID
 WTYP.                Deviated:  WELL TYPE
 CNTY.                        :  COUNTY
 LOC .                        :  LOCATION
 LMF .             Drill Floor:  LOG MEASURED FROM
 TVDS.m                  43.16:  TVDSS CORRECTN
 LATI.deg                40.17:  LATITUDE
 LONG.deg                51.17:  LONGITUDE
 WHNS.m                  10.51:  WELL HEAD N/S
 WHEW.m                 -14.82:  WELL HEAD E/W
 UTMX.m              514336.92:  UTM X
 UTMY.m             4448618.56:  UTM Y
 DFWL.m                   0.00:  DISTANCE FWL
 DFSL.m                   0.00:  DISTANCE FSL
 SDEP.m                 849.00:  START DEPTH
 TDD .m                2862.00:  TOTAL DEPTH (DRILLER)
 VSDR.deg               292.10:  VERT SEC DIRECT
 GVFD.g                   1.00:  GRAVITY FIELD
 MFLD.nT              50382.00:  MAGNETIC FIELD
 MDIP.deg                59.68:  MAGNETIC DIP
 MDEC.deg                 6.66:  MAGNETIC DECL
 GRDC.deg                 0.09:  GRID CORRECTION
 AZTC.deg                 6.57:  AZM TOTAL CORR
 EPD .m                   0.00:  ELEVATION
 EGL .m                   0.00:  GROUND ELEVATION
 WDMS.m                 176.20:  WD ELEV
 APD .m                  43.16:  DEPTH ABOVE PD
 DEP .m                 363.42:  DEPTH
 AGAP.m                  43.16:  AIR GAP
 VSEW.m                 -14.82:  VERT SEC E/W
 VSNS.m                  10.51:  VERT SEC N/S
 EKB .m                  43.16:  KB ELEVATION
 EDF .m                  43.16:  DF ELEVATION
 TDL .m                1390.00:  TOTAL DEPTH (LOGGER)
 VSC .                       0:  VS TO CLOSURE
 MAGU.                 1855871:  MAGUTM CHECKSUM
~Parameter Information Block
#MNEM.UNIT       Value        Description
#---------     -----------    ---------------------------
 AV  .mps                 2.28:  Ann Velocity 
 AVMX.mps                 2.67:  Max Ann Veloc 
 AZIF.deg               305.00:  Azm, Final 
 BHAT.        Rotary Steerable:  BHA Type 
 BROT.°/30m               0.45:  Build Rotating 
 BS  .in                 12.25:  Bit Size 
 BSZ .in                 12.25:  Bit Size 
 BTPL.psig              600.00:  Bit Press Loss 
 CABU.                     Yes:  Customer Abuse 
 COMM.                     $t:  Run Comments 1 
 TCS .hr                150.00:  Time Ciculation Ended 
 CV  .mps                 1.24:  Crit Velocity 
 CVMX.mps                 1.66:  Max Crit Veloc 
 DD1 .         Intigam Rahimov:  Direct Drillr 1 
 DD2 .            Azer Ravavov:  Direct Drillr 2 
 DD3 .              Samir Abas:  Direct Drillr 3 
 DDSV.               Geo-Pilot:  DD Service 
 DEFF.%                 100.00:  % Det Eff 
 DLRX.°/30m               1.57:  Dogleg Rot Max 
 DLSO.°/30m               0.00:  Dogleg Oriented 
 DLSX.°/30m               0.00:  Dogleg Str Max 
 DRET.      20.28.06 17-Sep-21:  Drill End Time 
 DRST.      20.27.35 10-Sep-21:  Drill Start Tim 
 DTIM.hr                 54.00:  Time Drilling 
 EDEP.m                5260.00:  End Depth 
 ENG1.      Bakhtiyar Jabbarli:  Engineer 1 
 ENG2.      Natik Hasanaghayev:  Engineer 2 
 ENG3.           Royal Nasirov:  Engineer 3 
 ETIM.      20.27.55 18-Sep-21:  End Time 
 FLOI.gpm              1100.00:  Flow In 
 FLON.gpm               800.00:  Flow In Min 
 FLOS.cptm                0.00:  Fluid Loss 
 FLOX.gpm              1200.00:  Flow In Max 
 DFT .        Mineral Oil Base:  Mud Type 
 HPRE.                      No:  High Pressure 
 HTEM.                      No:  High Temp 
 HYDO.m                   1.80:  Hydro Offset 
 IFIN.deg                72.31:  Inc, Final 
 IMAX.deg                72.36:  Inc Max 
 IMIN.deg                69.36:  Inc Min 
 IMND.m                4192.96:  Inc Min Depth 
 IMXD.m                5128.36:  Inc Max Depth 
 JARR.                      No:  Jarring 
 LETM.      20.29.00 17-Sep-21:  Log End Time 
 LOST.hr                     0:  Lost Rig Time 
 LSTM.      20.27.00 10-Sep-21:  Log Start Time 
 MDCL.ppm            227000.00:  Mud Chlorides 
 MDES.     Inversion Oil/Synthetic:  Mud Desc 
 DFD .sg                  1.45:  Mud Density 
 MDMN.sg                  1.45:  Dens Mud Min 
 MDMX.sg                  1.45:  Dens Mud Max 
 MOIL.                    70.5:  Run Mud Oil % 
 MOWR.                   71:29:  Run Mud OWR 
 MSND.                     0.3:  Run Mud Sand % 
 MSOL.                    19.8:  Run Mud Solids% 
 DFV .spqt               80.00:  Mud Viscosity 
 MWOD.in                  8.00:  MWD Tool OD 
 MWSI.                     Yes:  Serv Intrp, MWD 
 OTIM.hr                180.00:  Time Operating 
 PCON.           Look Like New:  Pad Condition 
 PMAX.psia             9910.94:  Press Op, Max 
 PV  .cP                 35.00:  Mud PV 
 RUN .                    1000:  Run Number 
 ROPA.m/hr               18.00:  ROP Avg 
 ROPN.m/hr                8.00:  ROP Min 
 ROPX.m/hr               23.00:  ROP Max 
 RPMA.rpm               150.00:  RPM Surface Avg 
 RPMN.rpm               120.00:  RPM Surface Min 
 RPMX.rpm               160.00:  RPM Surface Max 
 RRUN.                    L503:  Rig Run Number 
 RTIM.hr                  5.00:  Time Reaming 
 SAZI.deg               298.42:  Azm, Start 
 SDEP.m                3870.00:  Start Depth 
 SIDD.                      No:  Serv Intrp, DD 
 SINC.deg                69.57:  Inc, Start 
 SPPA.psig             5500.00:  SPP Avg 
 SPPN.psig             4400.00:  SPP Min 
 SPPX.psig             5800.00:  SPP Max 
 STIM.      15.29.39 09-Sep-21:  Start Time 
 SVCS.                 DD, MWD:  Services 
 SVER.                    9.20:  Sperry Version 
 TDAT.m                5260.00:  Tot Depth Attmp 
 TDDF.                      No:  Trip for DD 
 TDLG.m                1390.00:  Tot Depth Loggd 
 TFF .                      No:  Trip for Fail 
 TQAA.f-kp               22.00:  Torque Abs Avg 
 TQAN.f-kp               13.00:  Torque Abs Min 
 TQAX.f-kp               27.00:  Torque Abs Max 
 TRRT.°/30m               1.60:  Turn Rotating 
 MRT .                  EWR-M5:  Maximum Recorded Temperature 
 TTMX.degC               92.00:  Max Tool Temp 
 VS01.                12330975:  Virtual Str1 SN 
 VS02.                90658671:  Virtual Str2 SN 
 VS03.                90658508:  Virtual Str3 SN 
 VS04.                90660974:  Virtual Str4 SN 
 VS05.                90654675:  Virtual Str5 SN 
 WBMN.klb                15.00:  WOB Min 
 WITN.     Alexander Yadullayev:  Customer Rep 
 WITN.           Adil Mammadov:  Customer Rep 2 
 WOBA.klb                17.00:  WOB Avg 
 WOBX.klb                18.00:  WOB Max 
 YP  .lhf2               31.00:  Yield Point 
~Curve Information Block
#MNEM.UNIT                 API CODE     Curve Description
#---------               -----------    ---------------------------
 TIME.HHMMSS            00 000 000 000:  GT Time & Date
 GTDEPTH.m              00 000 000 000:  GT Depth
 GTPQH.psia             00 000 000 000:  GT HR Quartz Pressure
 GTTQ.degC              00 000 000 000:  GT Quartz Temperature
 GTTN.NONE              00 000 000 000:  GT Test Number
 GTET.sec               00 000 000 000:  GT Elapsed Test Time
 GTTVD.m                00 000 000 000:  GT True Vertical Depth
#Other Information
#
#WARRANTY: Halliburton will use its best efforts to furnish customers with 
#accurate information and interpretations that are part of, and incident to, the services 
#provided.  However, Halliburton cannot and does not warrant the accuracy 
#or correctness of such information and interpretations.  Under no circumstances should any 
#such information or interpretation be relied upon as the sole basis for any drilling, 
#completion, production, or financial decision or any procedure involving any risk to the 
#safety of any drilling venture, drilling rig or its crew or any other third party.  The 
#Customer has full responsibility for all drilling, completion and production operation.  
#Halliburton makes no representations or warranties, either expressed or 
#implied, including, but not limited to, the implied warranties of merchantability or fitness 
#for a particular purpose, with respect to the services rendered.  In no event will 
#Halliburton be liable for failure to obtain any particular results or for 
#any damages, including, but not limited to, indirect, special or consequential damages, 
#resulting from the use of any information or interpretation provided by Halliburton.
#
~A           TIME           GTDEPTH  GTPQH  GTTQ  GTTN  GTET   GTTVD  
# ...
   06:04:30.640.17-Sep-2021 5057.50 5545.35 80.04 6.00  68.99 2583.80
   06:04:30.839.17-Sep-2021 5057.50 5545.35 80.04 6.00  69.19 2583.80
   06:04:31.039.17-Sep-2021 5057.50 5540.71 80.04 6.00  69.39 2583.80
   06:04:31.239.17-Sep-2021 5057.50 5543.75 80.04 6.00  69.59 2583.80
   06:04:31.439.17-Sep-2021 5057.50 5543.47 80.04 6.00  69.79 2583.80
   06:04:31.639.17-Sep-2021 5057.50 5545.67 80.04 6.00  69.99 2583.80
   06:04:31.839.17-Sep-2021 5057.50 5545.67 80.04 6.00  70.19 2583.80
   06:04:32.039.17-Sep-2021 5057.50 5543.34 80.04 6.00  70.38 2583.80
   06:04:32.239.17-Sep-2021 5057.50 5544.12 80.04 6.00  70.58 2583.80
   06:04:32.439.17-Sep-2021 5057.50 5544.01 80.04 6.00  70.78 2583.80
   06:04:32.639.17-Sep-2021 5057.50 5543.24 80.04 6.00  70.98 2583.80
   06:04:32.839.17-Sep-2021 5057.50 5543.24 80.04 6.00  71.18 2583.80
   06:04:33.039.17-Sep-2021 5057.50 5543.47 80.03 6.00  71.38 2583.80
   06:04:33.239.17-Sep-2021 5057.50 5543.19 80.03 6.00  71.58 2583.80
   06:04:33.439.17-Sep-2021 5057.50 5543.43 80.03 6.00  71.78 2583.80
   06:04:33.639.17-Sep-2021 5057.50 5543.37 80.03 6.00  71.98 2583.80
   06:04:33.839.17-Sep-2021 5057.50 5543.37 80.03 6.00  72.18 2583.80
   06:04:34.039.17-Sep-2021 5057.50 5543.87 80.03 6.00  72.38 2583.80
   06:04:34.239.17-Sep-2021 5057.50 5543.75 80.03 6.00  72.58 2583.80
   06:04:34.439.17-Sep-2021 5057.50 5544.05 80.03 6.00  72.78 2583.80
   06:04:34.639.17-Sep-2021 5057.50 5544.13 80.03 6.00  72.98 2583.80
   06:04:34.839.17-Sep-2021 5057.50 5544.13 80.03 6.00  73.18 2583.80
   06:04:35.039.17-Sep-2021 5057.50 5543.04 80.03 6.00  73.38 2583.80
   06:04:35.239.17-Sep-2021 5057.50 5546.33 80.03 6.00  73.58 2583.80
   06:04:35.439.17-Sep-2021 5057.50 5544.09 80.03 6.00  73.78 2583.80
   06:04:35.638.17-Sep-2021 5057.50 5544.14 80.03 6.00  73.98 2583.80
   06:04:35.838.17-Sep-2021 5057.50 5544.14 80.03 6.00  74.18 2583.80
   06:04:36.038.17-Sep-2021 5057.50 5543.74 80.03 6.00  74.38 2583.80
   06:04:36.238.17-Sep-2021 5057.50 5543.70 80.03 6.00  74.58 2583.80
   06:04:36.438.17-Sep-2021 5057.50 5543.43 80.03 6.00  74.78 2583.80
   06:04:36.638.17-Sep-2021 5057.50 5543.34 80.03 6.00  74.98 2583.80
   06:04:36.838.17-Sep-2021 5057.50 5543.34 80.03 6.00  75.18 2583.80
   06:04:37.038.17-Sep-2021 5057.50 5543.19 80.03 6.00  75.38 2583.80
   06:04:37.238.17-Sep-2021 5057.50 5543.29 80.03 6.00  75.58 2583.80
   06:04:37.438.17-Sep-2021 5057.50 5543.42 80.03 6.00  75.78 2583.80
   06:04:37.638.17-Sep-2021 5057.50 5543.75 80.03 6.00  75.98 2583.80
   06:04:37.838.17-Sep-2021 5057.50 5543.75 80.03 6.00  76.18 2583.80
   06:04:38.038.17-Sep-2021 5057.50 5544.04 80.03 6.00  76.38 2583.80
   06:04:38.238.17-Sep-2021 5057.50 5547.95 80.03 6.00  76.58 2583.80
   06:04:38.438.17-Sep-2021 5057.50 5541.66 80.03 6.00  76.78 2583.80
   06:04:38.638.17-Sep-2021 5057.50 5545.52 80.02 6.00  76.98 2583.80
   06:04:38.838.17-Sep-2021 5057.50 5545.52 80.02 6.00  77.18 2583.80
   06:04:39.038.17-Sep-2021 5057.50 5544.45 80.02 6.00  77.38 2583.80
   06:04:39.238.17-Sep-2021 5057.50 5544.30 80.02 6.00  77.58 2583.80
   06:04:39.438.17-Sep-2021 5057.50 5543.96 80.02 6.00  77.78 2583.80
   06:04:39.638.17-Sep-2021 5057.50 5547.92 80.02 6.00  77.98 2583.80
   06:04:39.838.17-Sep-2021 5057.50 5547.92 80.02 6.00  78.18 2583.80
   06:04:40.038.17-Sep-2021 5057.50 5544.73 80.02 6.00  78.38 2583.80
   06:04:40.237.17-Sep-2021 5057.50 5543.34 80.02 6.00  78.58 2583.80
   06:04:40.437.17-Sep-2021 5057.50 5546.27 80.02 6.00  78.78 2583.80
   06:04:40.637.17-Sep-2021 5057.50 5543.49 80.02 6.00  78.98 2583.80
   06:04:40.837.17-Sep-2021 5057.50 5543.49 80.02 6.00  79.18 2583.80
   06:04:41.037.17-Sep-2021 5057.50 5544.55 80.02 6.00  79.38 2583.80
   06:04:41.237.17-Sep-2021 5057.50 5543.77 80.02 6.00  79.58 2583.80
   06:04:41.437.17-Sep-2021 5057.50 5547.15 80.02 6.00  79.78 2583.80
   06:04:41.637.17-Sep-2021 5057.50 5543.61 80.02 6.00  79.98 2583.80
   06:04:41.837.17-Sep-2021 5057.50 5543.61 80.02 6.00  80.18 2583.80
   06:04:42.037.17-Sep-2021 5057.50 5544.19 80.02 6.00  80.38 2583.80
   06:04:42.237.17-Sep-2021 5057.50 5544.60 80.02 6.00  80.58 2583.80
   06:04:42.437.17-Sep-2021 5057.50 5544.34 80.02 6.00  80.78 2583.80
   06:04:42.637.17-Sep-2021 5057.50 5544.33 80.02 6.00  80.98 2583.80
   06:04:42.837.17-Sep-2021 5057.50 5544.33 80.02 6.00  81.18 2583.80
   06:04:43.037.17-Sep-2021 5057.50 5544.39 80.02 6.00  81.38 2583.80
   06:04:43.237.17-Sep-2021 5057.50 5544.94 80.02 6.00  81.58 2583.80
   06:04:43.437.17-Sep-2021 5057.50 5544.62 80.02 6.00  81.78 2583.80
   06:04:43.637.17-Sep-2021 5057.50 5545.07 80.02 6.00  81.98 2583.80
   06:04:43.837.17-Sep-2021 5057.50 5545.07 80.02 6.00  82.18 2583.80
   06:04:44.037.17-Sep-2021 5057.50 5544.84 80.01 6.00  82.38 2583.80
   06:04:44.237.17-Sep-2021 5057.50 5545.09 80.01 6.00  82.58 2583.80
   06:04:44.437.17-Sep-2021 5057.50 5545.01 80.01 6.00  82.78 2583.80
   06:04:44.637.17-Sep-2021 5057.50 5548.12 80.01 6.00  82.98 2583.80
   06:04:44.836.17-Sep-2021 5057.50 5548.12 80.01 6.00  83.18 2583.80
   06:04:45.036.17-Sep-2021 5057.50 5547.01 80.01 6.00  83.38 2583.80
   06:04:45.236.17-Sep-2021 5057.50 5544.89 80.01 6.00  83.58 2583.80
   06:04:45.436.17-Sep-2021 5057.50 5544.84 80.01 6.00  83.78 2583.80
   06:04:45.636.17-Sep-2021 5057.50 5545.16 80.01 6.00  83.98 2583.80
   06:04:45.836.17-Sep-2021 5057.50 5545.16 80.01 6.00  84.18 2583.80
   06:04:46.036.17-Sep-2021 5057.50 5544.30 80.01 6.00  84.38 2583.80
   06:04:46.236.17-Sep-2021 5057.50 5544.32 80.01 6.00  84.58 2583.80
   06:04:46.436.17-Sep-2021 5057.50 5544.39 80.01 6.00  84.78 2583.80
   06:04:46.636.17-Sep-2021 5057.50 5544.37 80.01 6.00  84.98 2583.80
   06:04:46.836.17-Sep-2021 5057.50 5544.37 80.01 6.00  85.18 2583.80
   06:04:47.036.17-Sep-2021 5057.50 5544.56 80.01 6.00  85.38 2583.80
   06:04:47.236.17-Sep-2021 5057.50 5544.71 80.01 6.00  85.58 2583.80
   06:04:47.436.17-Sep-2021 5057.50 5544.98 80.01 6.00  85.78 2583.80
   06:04:47.636.17-Sep-2021 5057.50 5544.91 80.01 6.00  85.98 2583.80
   06:04:47.836.17-Sep-2021 5057.50 5544.91 80.01 6.00  86.18 2583.80
   06:04:48.036.17-Sep-2021 5057.50 5549.12 80.01 6.00  86.38 2583.80
   06:04:48.236.17-Sep-2021 5057.50 5542.97 80.01 6.00  86.58 2583.80
   06:04:48.436.17-Sep-2021 5057.50 5546.48 80.01 6.00  86.78 2583.80
   06:04:48.636.17-Sep-2021 5057.50 5545.48 80.01 6.00  86.98 2583.80
   06:04:48.836.17-Sep-2021 5057.50 5545.48 80.01 6.00  87.18 2583.80
   06:04:49.036.17-Sep-2021 5057.50 5544.84 80.00 6.00  87.38 2583.80
   06:04:49.236.17-Sep-2021 5057.50 5544.58 80.00 6.00  87.58 2583.80
   06:04:49.436.17-Sep-2021 5057.50 5547.43 80.00 6.00  87.78 2583.80
   06:04:49.635.17-Sep-2021 5057.50 5542.99 80.00 6.00  87.98 2583.80
   06:04:49.835.17-Sep-2021 5057.50 5542.99 80.00 6.00  88.18 2583.80
   06:04:50.035.17-Sep-2021 5057.50 5544.11 80.00 6.00  88.38 2583.80
   06:04:50.235.17-Sep-2021 5057.50 5548.32 80.00 6.00  88.58 2583.80
   06:04:50.435.17-Sep-2021 5057.50 5542.40 80.00 6.00  88.78 2583.80
   06:04:50.635.17-Sep-2021 5057.50 5545.18 80.00 6.00  88.98 2583.80
   06:04:50.835.17-Sep-2021 5057.50 5545.18 80.00 6.00  89.18 2583.80
   06:04:51.035.17-Sep-2021 5057.50 5546.39 80.00 6.00  89.38 2583.80
   06:04:51.235.17-Sep-2021 5057.50 5544.29 80.00 6.00  89.58 2583.80
   06:04:51.435.17-Sep-2021 5057.50 5544.15 80.00 6.00  89.78 2583.80
   06:04:51.635.17-Sep-2021 5057.50 5545.15 80.00 6.00  89.98 2583.80
   06:04:51.835.17-Sep-2021 5057.50 5545.15 80.00 6.00  90.18 2583.80
   06:04:52.035.17-Sep-2021 5057.50 5544.35 80.00 6.00  90.38 2583.80
   06:04:52.235.17-Sep-2021 5057.50 5544.59 80.00 6.00  90.58 2583.80
   06:04:52.435.17-Sep-2021 5057.50 5544.56 80.00 6.00  90.78 2583.80
   06:04:52.635.17-Sep-2021 5057.50 5544.42 80.00 6.00  90.98 2583.80
   06:04:52.835.17-Sep-2021 5057.50 5544.42 80.00 6.00  91.18 2583.80
   06:04:53.035.17-Sep-2021 5057.50 5544.64 80.00 6.00  91.38 2583.80
   06:04:53.235.17-Sep-2021 5057.50 5544.77 80.00 6.00  91.58 2583.80
   06:04:53.435.17-Sep-2021 5057.50 5544.98 80.00 6.00  91.78 2583.80
