~Version Information
 VERS.                  2.0:   CWLS log ASCII Standard -VERSION 2.0
 WRAP.                   NO:   One line per depth step
~Well Information Block
#MNEM.UNIT     VALUE/NAME     DESCRIPTION
#---------     -----------    ---------------------------
 STRT.S             03:33:12 17-Sep-21: START TIME 03:33:12 17-Sep-21
 STOP.S             03:41:33 17-Sep-21: STOP TIME  03:41:33 17-Sep-21
 STEP.S                   0.00: STEP TIME
 NULL.                 -999.25: NULL VALUE
 DFWT.                        :  DIST FWL TEXT
 DFST.                        :  DIST FSL TEXT
 DMF .             Drill Floor:  DRILL MEAS FROM
 STIM.      10.59.12 05-Jul-21:  START TIME
 DATE.      10.59.12 10-Sep-21:  END TIME
 SPUD.               05-Jul-21:  SPUD DATE
 NREF.                    Grid:  NORTH REFERENCE
 HPTY.       Minimum Curvature:  HOLE POS TYPE
 DMOD.             Drill Model:  DRILL MOD DESC
 SVYD.                  Survey:  SURVEY DESC
 ILTD.               Lithology:  INTERP LTH DESC
 FTOP.          Formation Tops:  FORM TOPS DESC
 RIG .                     DWG:  RIG NAME
 PDAT.          Mean Sea Level:  PERMANENT DATUM
 FLD .                     ACG:  FIELD NAME
 SON .        AZ-XX-0907115008:  JOB NUMBER
 CTRY.              Azerbaijan:  COUNTRY NAME
 WELL.                    E35A:  WELL NAME
 SRVC.          TURAN DRILLING:  CONTRACTOR
 COMP.     BP Exploration (Caspian Sea LTD):  COMPANY
 UWI .                     N/A:  UNIQUE WELL IDENTIFIER
 API .                     N/A:  API NUMBER
 MDS .        Operator Entered:  MAG DATA SOURCE
 BASE.              Azerbaijan:  LOGGING EQUIPMENT BASE LOCATION
 REGN.                   EESSA:  REGION
 PROV.                    Baku:  PROVINCE
 STAT.                    Baku:  STATE NAME
 MWDS.                    Baku:  MWD SHOP
 JOBN.        AZ-XX-0907115008:  JOB TICKET NUMB
 DOE .                     N/A:  DOE NUMBER
 DCON.         Sperry Drilling:  DIRECTNL CONTR
 UNIT.                     N/A:  LOGGING EQUIPMENT ID
 WTYP.                Deviated:  WELL TYPE
 CNTY.                        :  COUNTY
 LOC .                        :  LOCATION
 LMF .             Drill Floor:  LOG MEASURED FROM
 TVDS.m                  43.16:  TVDSS CORRECTN
 LATI.deg                40.17:  LATITUDE
 LONG.deg                51.17:  LONGITUDE
 WHNS.m                  10.51:  WELL HEAD N/S
 WHEW.m                 -14.82:  WELL HEAD E/W
 UTMX.m              514336.92:  UTM X
 UTMY.m             4448618.56:  UTM Y
 DFWL.m                   0.00:  DISTANCE FWL
 DFSL.m                   0.00:  DISTANCE FSL
 SDEP.m                 849.00:  START DEPTH
 TDD .m                2862.00:  TOTAL DEPTH (DRILLER)
 VSDR.deg               292.10:  VERT SEC DIRECT
 GVFD.g                   1.00:  GRAVITY FIELD
 MFLD.nT              50382.00:  MAGNETIC FIELD
 MDIP.deg                59.68:  MAGNETIC DIP
 MDEC.deg                 6.66:  MAGNETIC DECL
 GRDC.deg                 0.09:  GRID CORRECTION
 AZTC.deg                 6.57:  AZM TOTAL CORR
 EPD .m                   0.00:  ELEVATION
 EGL .m                   0.00:  GROUND ELEVATION
 WDMS.m                 176.20:  WD ELEV
 APD .m                  43.16:  DEPTH ABOVE PD
 DEP .m                 363.42:  DEPTH
 AGAP.m                  43.16:  AIR GAP
 VSEW.m                 -14.82:  VERT SEC E/W
 VSNS.m                  10.51:  VERT SEC N/S
 EKB .m                  43.16:  KB ELEVATION
 EDF .m                  43.16:  DF ELEVATION
 TDL .m                1390.00:  TOTAL DEPTH (LOGGER)
 VSC .                       0:  VS TO CLOSURE
 MAGU.                 1855871:  MAGUTM CHECKSUM
~Parameter Information Block
#MNEM.UNIT       Value        Description
#---------     -----------    ---------------------------
 AV  .mps                 2.28:  Ann Velocity 
 AVMX.mps                 2.67:  Max Ann Veloc 
 AZIF.deg               305.00:  Azm, Final 
 BHAT.        Rotary Steerable:  BHA Type 
 BROT.°/30m               0.45:  Build Rotating 
 BS  .in                 12.25:  Bit Size 
 BSZ .in                 12.25:  Bit Size 
 BTPL.psig              600.00:  Bit Press Loss 
 CABU.                     Yes:  Customer Abuse 
 COMM.                     ÔNy:  Run Comments 1 
 TCS .hr                150.00:  Time Ciculation Ended 
 CV  .mps                 1.24:  Crit Velocity 
 CVMX.mps                 1.66:  Max Crit Veloc 
 DD1 .         Intigam Rahimov:  Direct Drillr 1 
 DD2 .            Azer Ravavov:  Direct Drillr 2 
 DD3 .              Samir Abas:  Direct Drillr 3 
 DDSV.               Geo-Pilot:  DD Service 
 DEFF.%                 100.00:  % Det Eff 
 DLRX.°/30m               1.57:  Dogleg Rot Max 
 DLSO.°/30m               0.00:  Dogleg Oriented 
 DLSX.°/30m               0.00:  Dogleg Str Max 
 DRET.      20.28.06 17-Sep-21:  Drill End Time 
 DRST.      20.27.35 10-Sep-21:  Drill Start Tim 
 DTIM.hr                 54.00:  Time Drilling 
 EDEP.m                5260.00:  End Depth 
 ENG1.      Bakhtiyar Jabbarli:  Engineer 1 
 ENG2.      Natik Hasanaghayev:  Engineer 2 
 ENG3.           Royal Nasirov:  Engineer 3 
 ETIM.      20.27.55 18-Sep-21:  End Time 
 FLOI.gpm              1100.00:  Flow In 
 FLON.gpm               800.00:  Flow In Min 
 FLOS.cptm                0.00:  Fluid Loss 
 FLOX.gpm              1200.00:  Flow In Max 
 DFT .        Mineral Oil Base:  Mud Type 
 HPRE.                      No:  High Pressure 
 HTEM.                      No:  High Temp 
 HYDO.m                   1.80:  Hydro Offset 
 IFIN.deg                72.31:  Inc, Final 
 IMAX.deg                72.36:  Inc Max 
 IMIN.deg                69.36:  Inc Min 
 IMND.m                4192.96:  Inc Min Depth 
 IMXD.m                5128.36:  Inc Max Depth 
 JARR.                      No:  Jarring 
 LETM.      20.29.00 17-Sep-21:  Log End Time 
 LOST.hr                     0:  Lost Rig Time 
 LSTM.      20.27.00 10-Sep-21:  Log Start Time 
 MDCL.ppm            227000.00:  Mud Chlorides 
 MDES.     Inversion Oil/Synthetic:  Mud Desc 
 DFD .sg                  1.45:  Mud Density 
 MDMN.sg                  1.45:  Dens Mud Min 
 MDMX.sg                  1.45:  Dens Mud Max 
 MOIL.                    70.5:  Run Mud Oil % 
 MOWR.                   71:29:  Run Mud OWR 
 MSND.                     0.3:  Run Mud Sand % 
 MSOL.                    19.8:  Run Mud Solids% 
 DFV .spqt               80.00:  Mud Viscosity 
 MWOD.in                  8.00:  MWD Tool OD 
 MWSI.                     Yes:  Serv Intrp, MWD 
 OTIM.hr                180.00:  Time Operating 
 PCON.           Look Like New:  Pad Condition 
 PMAX.psia             9910.94:  Press Op, Max 
 PV  .cP                 35.00:  Mud PV 
 RUN .                    1000:  Run Number 
 ROPA.m/hr               18.00:  ROP Avg 
 ROPN.m/hr                8.00:  ROP Min 
 ROPX.m/hr               23.00:  ROP Max 
 RPMA.rpm               150.00:  RPM Surface Avg 
 RPMN.rpm               120.00:  RPM Surface Min 
 RPMX.rpm               160.00:  RPM Surface Max 
 RRUN.                    L503:  Rig Run Number 
 RTIM.hr                  5.00:  Time Reaming 
 SAZI.deg               298.42:  Azm, Start 
 SDEP.m                3870.00:  Start Depth 
 SIDD.                      No:  Serv Intrp, DD 
 SINC.deg                69.57:  Inc, Start 
 SPPA.psig             5500.00:  SPP Avg 
 SPPN.psig             4400.00:  SPP Min 
 SPPX.psig             5800.00:  SPP Max 
 STIM.      15.29.39 09-Sep-21:  Start Time 
 SVCS.                 DD, MWD:  Services 
 SVER.                    9.20:  Sperry Version 
 TDAT.m                5260.00:  Tot Depth Attmp 
 TDDF.                      No:  Trip for DD 
 TDLG.m                1390.00:  Tot Depth Loggd 
 TFF .                      No:  Trip for Fail 
 TQAA.f-kp               22.00:  Torque Abs Avg 
 TQAN.f-kp               13.00:  Torque Abs Min 
 TQAX.f-kp               27.00:  Torque Abs Max 
 TRRT.°/30m               1.60:  Turn Rotating 
 MRT .                  EWR-M5:  Maximum Recorded Temperature 
 TTMX.degC               92.00:  Max Tool Temp 
 VS01.                12330975:  Virtual Str1 SN 
 VS02.                90658671:  Virtual Str2 SN 
 VS03.                90658508:  Virtual Str3 SN 
 VS04.                90660974:  Virtual Str4 SN 
 VS05.                90654675:  Virtual Str5 SN 
 WBMN.klb                15.00:  WOB Min 
 WITN.     Alexander Yadullayev:  Customer Rep 
 WITN.           Adil Mammadov:  Customer Rep 2 
 WOBA.klb                17.00:  WOB Avg 
 WOBX.klb                18.00:  WOB Max 
 YP  .lhf2               31.00:  Yield Point 
~Curve Information Block
#MNEM.UNIT                 API CODE     Curve Description
#---------               -----------    ---------------------------
 TIME.HHMMSS            00 000 000 000:  GT Time & Date
 GTDEPTH.m              00 000 000 000:  GT Depth
 GTPQH.psia             00 000 000 000:  GT HR Quartz Pressure
 GTTQ.degC              00 000 000 000:  GT Quartz Temperature
 GTTN.NONE              00 000 000 000:  GT Test Number
 GTET.sec               00 000 000 000:  GT Elapsed Test Time
 GTTVD.m                00 000 000 000:  GT True Vertical Depth
#Other Information
#
#WARRANTY: Halliburton will use its best efforts to furnish customers with 
#accurate information and interpretations that are part of, and incident to, the services 
#provided.  However, Halliburton cannot and does not warrant the accuracy 
#or correctness of such information and interpretations.  Under no circumstances should any 
#such information or interpretation be relied upon as the sole basis for any drilling, 
#completion, production, or financial decision or any procedure involving any risk to the 
#safety of any drilling venture, drilling rig or its crew or any other third party.  The 
#Customer has full responsibility for all drilling, completion and production operation.  
#Halliburton makes no representations or warranties, either expressed or 
#implied, including, but not limited to, the implied warranties of merchantability or fitness 
#for a particular purpose, with respect to the services rendered.  In no event will 
#Halliburton be liable for failure to obtain any particular results or for 
#any damages, including, but not limited to, indirect, special or consequential damages, 
#resulting from the use of any information or interpretation provided by Halliburton.
#
~A           TIME           GTDEPTH  GTPQH  GTTQ  GTTN  GTET   GTTVD  
# ...
   03:39:43.000.17-Sep-2021 5127.00 5562.18 80.12 3.00 391.00 2605.20
   03:39:43.200.17-Sep-2021 5127.00 5562.18 80.12 3.00 391.20 2605.20
   03:39:43.400.17-Sep-2021 5127.00 5561.62 80.12 3.00 391.40 2605.20
   03:39:43.600.17-Sep-2021 5127.00 5561.55 80.12 3.00 391.60 2605.20
   03:39:43.800.17-Sep-2021 5127.00 5564.36 80.12 3.00 391.80 2605.20
   03:39:44.000.17-Sep-2021 5127.00 5559.40 80.12 3.00 392.00 2605.20
   03:39:44.200.17-Sep-2021 5127.00 5559.40 80.12 3.00 392.20 2605.20
   03:39:44.400.17-Sep-2021 5127.00 5561.02 80.12 3.00 392.40 2605.20
   03:39:44.600.17-Sep-2021 5127.00 5560.63 80.12 3.00 392.60 2605.20
   03:39:44.800.17-Sep-2021 5127.00 5563.27 80.12 3.00 392.80 2605.20
   03:39:45.000.17-Sep-2021 5127.00 5560.97 80.12 3.00 393.00 2605.20
   03:39:45.200.17-Sep-2021 5127.00 5560.97 80.12 3.00 393.20 2605.20
   03:39:45.400.17-Sep-2021 5127.00 5560.62 80.12 3.00 393.40 2605.20
   03:39:45.600.17-Sep-2021 5127.00 5564.40 80.12 3.00 393.60 2605.20
   03:39:45.800.17-Sep-2021 5127.00 5559.98 80.12 3.00 393.80 2605.20
   03:39:46.000.17-Sep-2021 5127.00 5562.00 80.12 3.00 394.00 2605.20
   03:39:46.200.17-Sep-2021 5127.00 5562.00 80.12 3.00 394.20 2605.20
   03:39:46.400.17-Sep-2021 5127.00 5560.59 80.12 3.00 394.40 2605.20
   03:39:46.600.17-Sep-2021 5127.00 5560.64 80.12 3.00 394.60 2605.20
   03:39:46.800.17-Sep-2021 5127.00 5560.83 80.12 3.00 394.80 2605.20
   03:39:47.000.17-Sep-2021 5127.00 5560.94 80.12 3.00 395.00 2605.20
   03:39:47.200.17-Sep-2021 5127.00 5560.94 80.12 3.00 395.20 2605.20
   03:39:47.400.17-Sep-2021 5127.00 5560.54 80.12 3.00 395.40 2605.20
   03:39:47.600.17-Sep-2021 5127.00 5560.59 80.12 3.00 395.60 2605.20
   03:39:47.800.17-Sep-2021 5127.00 5560.99 80.12 3.00 395.80 2605.20
   03:39:48.000.17-Sep-2021 5127.00 5561.28 80.12 3.00 396.00 2605.20
   03:39:48.200.17-Sep-2021 5127.00 5561.28 80.12 3.00 396.20 2605.20
   03:39:48.400.17-Sep-2021 5127.00 5561.23 80.12 3.00 396.40 2605.20
   03:39:48.600.17-Sep-2021 5127.00 5561.33 80.12 3.00 396.60 2605.20
   03:39:48.800.17-Sep-2021 5127.00 5563.14 80.12 3.00 396.80 2605.20
   03:39:49.000.17-Sep-2021 5127.00 5563.34 80.12 3.00 397.00 2605.20
   03:39:49.200.17-Sep-2021 5127.00 5563.34 80.12 3.00 397.20 2605.20
   03:39:49.400.17-Sep-2021 5127.00 5561.39 80.12 3.00 397.40 2605.20
   03:39:49.600.17-Sep-2021 5127.00 5561.64 80.12 3.00 397.60 2605.20
   03:39:49.800.17-Sep-2021 5127.00 5561.27 80.12 3.00 397.80 2605.20
   03:39:50.000.17-Sep-2021 5127.00 5560.94 80.12 3.00 398.00 2605.20
   03:39:50.200.17-Sep-2021 5127.00 5560.94 80.12 3.00 398.20 2605.20
   03:39:50.400.17-Sep-2021 5127.00 5560.55 80.12 3.00 398.40 2605.20
   03:39:50.600.17-Sep-2021 5127.00 5560.39 80.12 3.00 398.60 2605.20
   03:39:50.800.17-Sep-2021 5127.00 5560.44 80.12 3.00 398.80 2605.20
   03:39:51.000.17-Sep-2021 5127.00 5560.55 80.12 3.00 399.00 2605.20
   03:39:51.200.17-Sep-2021 5127.00 5560.55 80.12 3.00 399.20 2605.20
   03:39:51.400.17-Sep-2021 5127.00 5560.68 80.12 3.00 399.40 2605.20
   03:39:51.600.17-Sep-2021 5127.00 5561.00 80.12 3.00 399.60 2605.20
   03:39:51.800.17-Sep-2021 5127.00 5561.05 80.12 3.00 399.80 2605.20
   03:39:52.000.17-Sep-2021 5127.00 5561.33 80.12 3.00 400.00 2605.20
   03:39:52.200.17-Sep-2021 5127.00 5561.33 80.12 3.00 400.20 2605.20
   03:39:52.400.17-Sep-2021 5127.00 5561.59 80.12 3.00 400.40 2605.20
   03:39:52.600.17-Sep-2021 5127.00 5561.88 80.12 3.00 400.60 2605.20
   03:39:52.800.17-Sep-2021 5127.00 5561.36 80.12 3.00 400.80 2605.20
   03:39:53.000.17-Sep-2021 5127.00 5561.72 80.12 3.00 401.00 2605.20
   03:39:53.200.17-Sep-2021 5127.00 5561.72 80.12 3.00 401.20 2605.20
   03:39:53.400.17-Sep-2021 5127.00 5560.95 80.12 3.00 401.40 2605.20
   03:39:53.600.17-Sep-2021 5127.00 5563.09 80.12 3.00 401.60 2605.20
   03:39:53.800.17-Sep-2021 5127.00 5560.51 80.12 3.00 401.80 2605.20
   03:39:54.000.17-Sep-2021 5127.00 5560.68 80.11 3.00 402.00 2605.20
   03:39:54.200.17-Sep-2021 5127.00 5560.68 80.11 3.00 402.20 2605.20
   03:39:54.400.17-Sep-2021 5127.00 5560.88 80.11 3.00 402.40 2605.20
   03:39:54.600.17-Sep-2021 5127.00 5562.35 80.11 3.00 402.60 2605.20
   03:39:54.800.17-Sep-2021 5127.00 5561.91 80.11 3.00 402.80 2605.20
   03:39:55.000.17-Sep-2021 5127.00 5560.28 80.11 3.00 403.00 2605.20
   03:39:55.200.17-Sep-2021 5127.00 5560.28 80.11 3.00 403.20 2605.20
   03:39:55.400.17-Sep-2021 5127.00 5563.36 80.11 3.00 403.40 2605.20
   03:39:55.600.17-Sep-2021 5127.00 5560.98 80.11 3.00 403.60 2605.20
   03:39:55.800.17-Sep-2021 5127.00 5561.11 80.11 3.00 403.80 2605.20
   03:39:56.000.17-Sep-2021 5127.00 5560.61 80.11 3.00 404.00 2605.20
   03:39:56.200.17-Sep-2021 5127.00 5560.61 80.11 3.00 404.20 2605.20
   03:39:56.400.17-Sep-2021 5127.00 5560.46 80.11 3.00 404.40 2605.20
   03:39:56.600.17-Sep-2021 5127.00 5560.43 80.11 3.00 404.60 2605.20
   03:39:56.800.17-Sep-2021 5127.00 5560.61 80.11 3.00 404.80 2605.20
   03:39:57.000.17-Sep-2021 5127.00 5560.50 80.11 3.00 405.00 2605.20
   03:39:57.200.17-Sep-2021 5127.00 5560.50 80.11 3.00 405.20 2605.20
   03:39:57.400.17-Sep-2021 5127.00 5560.53 80.11 3.00 405.40 2605.20
   03:39:57.600.17-Sep-2021 5127.00 5560.77 80.11 3.00 405.60 2605.20
   03:39:57.800.17-Sep-2021 5127.00 5560.98 80.11 3.00 405.80 2605.20
   03:39:58.000.17-Sep-2021 5127.00 5561.04 80.11 3.00 406.00 2605.20
   03:39:58.200.17-Sep-2021 5127.00 5561.04 80.11 3.00 406.20 2605.20
   03:39:58.400.17-Sep-2021 5127.00 5562.56 80.11 3.00 406.40 2605.20
   03:39:58.600.17-Sep-2021 5127.00 5561.77 80.11 3.00 406.60 2605.20
   03:39:58.800.17-Sep-2021 5127.00 5562.76 80.11 3.00 406.80 2605.20
   03:39:59.000.17-Sep-2021 5127.00 5561.78 80.11 3.00 407.00 2605.20
   03:39:59.200.17-Sep-2021 5127.00 5561.78 80.11 3.00 407.20 2605.20
   03:39:59.400.17-Sep-2021 5127.00 5561.33 80.11 3.00 407.40 2605.20
   03:39:59.600.17-Sep-2021 5127.00 5561.24 80.11 3.00 407.60 2605.20
   03:39:59.800.17-Sep-2021 5127.00 5560.86 80.11 3.00 407.80 2605.20
   03:40:00.000.17-Sep-2021 5127.00 5560.47 80.11 3.00 408.00 2605.20
   03:40:00.200.17-Sep-2021 5127.00 5560.47 80.11 3.00 408.20 2605.20
   03:40:00.400.17-Sep-2021 5127.00 5560.29 80.11 3.00 408.40 2605.20
   03:40:00.600.17-Sep-2021 5127.00 5560.37 80.11 3.00 408.60 2605.20
   03:40:00.800.17-Sep-2021 5127.00 5560.48 80.11 3.00 408.80 2605.20
   03:40:01.000.17-Sep-2021 5127.00 5560.56 80.11 3.00 409.00 2605.20
   03:40:01.200.17-Sep-2021 5127.00 5560.56 80.11 3.00 409.20 2605.20
   03:40:01.400.17-Sep-2021 5127.00 5560.95 80.11 3.00 409.40 2605.20
   03:40:01.600.17-Sep-2021 5127.00 5561.12 80.11 3.00 409.60 2605.20
   03:40:01.800.17-Sep-2021 5127.00 5561.34 80.11 3.00 409.80 2605.20
   03:40:02.000.17-Sep-2021 5127.00 5562.92 80.11 3.00 410.00 2605.20
   03:40:02.200.17-Sep-2021 5127.00 5562.92 80.11 3.00 410.20 2605.20
   03:40:02.400.17-Sep-2021 5127.00 5561.33 80.11 3.00 410.40 2605.20
   03:40:02.600.17-Sep-2021 5127.00 5561.18 80.11 3.00 410.60 2605.20
   03:40:02.800.17-Sep-2021 5127.00 5561.67 80.11 3.00 410.80 2605.20
   03:40:03.000.17-Sep-2021 5127.00 5561.15 80.11 3.00 411.00 2605.20
   03:40:03.200.17-Sep-2021 5127.00 5561.15 80.11 3.00 411.20 2605.20
   03:40:03.400.17-Sep-2021 5127.00 5562.16 80.11 3.00 411.40 2605.20
   03:40:03.600.17-Sep-2021 5127.00 5562.05 80.11 3.00 411.60 2605.20
   03:40:03.800.17-Sep-2021 5127.00 5560.13 80.11 3.00 411.80 2605.20
   03:40:04.000.17-Sep-2021 5127.00 5560.21 80.11 3.00 412.00 2605.20
   03:40:04.200.17-Sep-2021 5127.00 5560.21 80.11 3.00 412.20 2605.20
   03:40:04.400.17-Sep-2021 5127.00 5559.32 80.11 3.00 412.40 2605.20
   03:40:04.600.17-Sep-2021 5127.00 5561.32 80.11 3.00 412.60 2605.20
   03:40:04.800.17-Sep-2021 5127.00 5560.70 80.11 3.00 412.80 2605.20
   03:40:05.000.17-Sep-2021 5127.00 5562.92 80.11 3.00 413.00 2605.20
   03:40:05.200.17-Sep-2021 5127.00 5562.92 80.11 3.00 413.20 2605.20
   03:40:05.400.17-Sep-2021 5127.00 5561.30 80.11 3.00 413.40 2605.20
   03:40:05.600.17-Sep-2021 5127.00 5560.79 80.11 3.00 413.60 2605.20
   03:40:05.800.17-Sep-2021 5127.00 5560.74 80.11 3.00 413.80 2605.20
