~Version Information
 VERS.                  2.0:   CWLS log ASCII Standard -VERSION 2.0
 WRAP.                   NO:   One line per depth step
~Well Information Block
#MNEM.UNIT     VALUE/NAME     DESCRIPTION
#---------     -----------    ---------------------------
 STRT.S             05:03:12 17-Sep-21: START TIME 05:03:12 17-Sep-21
 STOP.S             05:12:54 17-Sep-21: STOP TIME  05:12:54 17-Sep-21
 STEP.S                   0.00: STEP TIME
 NULL.                 -999.25: NULL VALUE
 DFWT.                        :  DIST FWL TEXT
 DFST.                        :  DIST FSL TEXT
 DMF .             Drill Floor:  DRILL MEAS FROM
 STIM.      10.59.12 05-Jul-21:  START TIME
 DATE.      10.59.12 10-Sep-21:  END TIME
 SPUD.               05-Jul-21:  SPUD DATE
 NREF.                    Grid:  NORTH REFERENCE
 HPTY.       Minimum Curvature:  HOLE POS TYPE
 DMOD.             Drill Model:  DRILL MOD DESC
 SVYD.                  Survey:  SURVEY DESC
 ILTD.               Lithology:  INTERP LTH DESC
 FTOP.          Formation Tops:  FORM TOPS DESC
 RIG .                     DWG:  RIG NAME
 PDAT.          Mean Sea Level:  PERMANENT DATUM
 FLD .                     ACG:  FIELD NAME
 SON .        AZ-XX-0907115008:  JOB NUMBER
 CTRY.              Azerbaijan:  COUNTRY NAME
 WELL.                    E35A:  WELL NAME
 SRVC.          TURAN DRILLING:  CONTRACTOR
 COMP.     BP Exploration (Caspian Sea LTD):  COMPANY
 UWI .                     N/A:  UNIQUE WELL IDENTIFIER
 API .                     N/A:  API NUMBER
 MDS .        Operator Entered:  MAG DATA SOURCE
 BASE.              Azerbaijan:  LOGGING EQUIPMENT BASE LOCATION
 REGN.                   EESSA:  REGION
 PROV.                    Baku:  PROVINCE
 STAT.                    Baku:  STATE NAME
 MWDS.                    Baku:  MWD SHOP
 JOBN.        AZ-XX-0907115008:  JOB TICKET NUMB
 DOE .                     N/A:  DOE NUMBER
 DCON.         Sperry Drilling:  DIRECTNL CONTR
 UNIT.                     N/A:  LOGGING EQUIPMENT ID
 WTYP.                Deviated:  WELL TYPE
 CNTY.                        :  COUNTY
 LOC .                        :  LOCATION
 LMF .             Drill Floor:  LOG MEASURED FROM
 TVDS.m                  43.16:  TVDSS CORRECTN
 LATI.deg                40.17:  LATITUDE
 LONG.deg                51.17:  LONGITUDE
 WHNS.m                  10.51:  WELL HEAD N/S
 WHEW.m                 -14.82:  WELL HEAD E/W
 UTMX.m              514336.92:  UTM X
 UTMY.m             4448618.56:  UTM Y
 DFWL.m                   0.00:  DISTANCE FWL
 DFSL.m                   0.00:  DISTANCE FSL
 SDEP.m                 849.00:  START DEPTH
 TDD .m                2862.00:  TOTAL DEPTH (DRILLER)
 VSDR.deg               292.10:  VERT SEC DIRECT
 GVFD.g                   1.00:  GRAVITY FIELD
 MFLD.nT              50382.00:  MAGNETIC FIELD
 MDIP.deg                59.68:  MAGNETIC DIP
 MDEC.deg                 6.66:  MAGNETIC DECL
 GRDC.deg                 0.09:  GRID CORRECTION
 AZTC.deg                 6.57:  AZM TOTAL CORR
 EPD .m                   0.00:  ELEVATION
 EGL .m                   0.00:  GROUND ELEVATION
 WDMS.m                 176.20:  WD ELEV
 APD .m                  43.16:  DEPTH ABOVE PD
 DEP .m                 363.42:  DEPTH
 AGAP.m                  43.16:  AIR GAP
 VSEW.m                 -14.82:  VERT SEC E/W
 VSNS.m                  10.51:  VERT SEC N/S
 EKB .m                  43.16:  KB ELEVATION
 EDF .m                  43.16:  DF ELEVATION
 TDL .m                1390.00:  TOTAL DEPTH (LOGGER)
 VSC .                       0:  VS TO CLOSURE
 MAGU.                 1855871:  MAGUTM CHECKSUM
~Parameter Information Block
#MNEM.UNIT       Value        Description
#---------     -----------    ---------------------------
 AV  .mps                 2.28:  Ann Velocity 
 AVMX.mps                 2.67:  Max Ann Veloc 
 AZIF.deg               305.00:  Azm, Final 
 BHAT.        Rotary Steerable:  BHA Type 
 BROT.°/30m               0.45:  Build Rotating 
 BS  .in                 12.25:  Bit Size 
 BSZ .in                 12.25:  Bit Size 
 BTPL.psig              600.00:  Bit Press Loss 
 CABU.                     Yes:  Customer Abuse 
 COMM.                     äÏF:  Run Comments 1 
 TCS .hr                150.00:  Time Ciculation Ended 
 CV  .mps                 1.24:  Crit Velocity 
 CVMX.mps                 1.66:  Max Crit Veloc 
 DD1 .         Intigam Rahimov:  Direct Drillr 1 
 DD2 .            Azer Ravavov:  Direct Drillr 2 
 DD3 .              Samir Abas:  Direct Drillr 3 
 DDSV.               Geo-Pilot:  DD Service 
 DEFF.%                 100.00:  % Det Eff 
 DLRX.°/30m               1.57:  Dogleg Rot Max 
 DLSO.°/30m               0.00:  Dogleg Oriented 
 DLSX.°/30m               0.00:  Dogleg Str Max 
 DRET.      20.28.06 17-Sep-21:  Drill End Time 
 DRST.      20.27.35 10-Sep-21:  Drill Start Tim 
 DTIM.hr                 54.00:  Time Drilling 
 EDEP.m                5260.00:  End Depth 
 ENG1.      Bakhtiyar Jabbarli:  Engineer 1 
 ENG2.      Natik Hasanaghayev:  Engineer 2 
 ENG3.           Royal Nasirov:  Engineer 3 
 ETIM.      20.27.55 18-Sep-21:  End Time 
 FLOI.gpm              1100.00:  Flow In 
 FLON.gpm               800.00:  Flow In Min 
 FLOS.cptm                0.00:  Fluid Loss 
 FLOX.gpm              1200.00:  Flow In Max 
 DFT .        Mineral Oil Base:  Mud Type 
 HPRE.                      No:  High Pressure 
 HTEM.                      No:  High Temp 
 HYDO.m                   1.80:  Hydro Offset 
 IFIN.deg                72.31:  Inc, Final 
 IMAX.deg                72.36:  Inc Max 
 IMIN.deg                69.36:  Inc Min 
 IMND.m                4192.96:  Inc Min Depth 
 IMXD.m                5128.36:  Inc Max Depth 
 JARR.                      No:  Jarring 
 LETM.      20.29.00 17-Sep-21:  Log End Time 
 LOST.hr                     0:  Lost Rig Time 
 LSTM.      20.27.00 10-Sep-21:  Log Start Time 
 MDCL.ppm            227000.00:  Mud Chlorides 
 MDES.     Inversion Oil/Synthetic:  Mud Desc 
 DFD .sg                  1.45:  Mud Density 
 MDMN.sg                  1.45:  Dens Mud Min 
 MDMX.sg                  1.45:  Dens Mud Max 
 MOIL.                    70.5:  Run Mud Oil % 
 MOWR.                   71:29:  Run Mud OWR 
 MSND.                     0.3:  Run Mud Sand % 
 MSOL.                    19.8:  Run Mud Solids% 
 DFV .spqt               80.00:  Mud Viscosity 
 MWOD.in                  8.00:  MWD Tool OD 
 MWSI.                     Yes:  Serv Intrp, MWD 
 OTIM.hr                180.00:  Time Operating 
 PCON.           Look Like New:  Pad Condition 
 PMAX.psia             9910.94:  Press Op, Max 
 PV  .cP                 35.00:  Mud PV 
 RUN .                    1000:  Run Number 
 ROPA.m/hr               18.00:  ROP Avg 
 ROPN.m/hr                8.00:  ROP Min 
 ROPX.m/hr               23.00:  ROP Max 
 RPMA.rpm               150.00:  RPM Surface Avg 
 RPMN.rpm               120.00:  RPM Surface Min 
 RPMX.rpm               160.00:  RPM Surface Max 
 RRUN.                    L503:  Rig Run Number 
 RTIM.hr                  5.00:  Time Reaming 
 SAZI.deg               298.42:  Azm, Start 
 SDEP.m                3870.00:  Start Depth 
 SIDD.                      No:  Serv Intrp, DD 
 SINC.deg                69.57:  Inc, Start 
 SPPA.psig             5500.00:  SPP Avg 
 SPPN.psig             4400.00:  SPP Min 
 SPPX.psig             5800.00:  SPP Max 
 STIM.      15.29.39 09-Sep-21:  Start Time 
 SVCS.                 DD, MWD:  Services 
 SVER.                    9.20:  Sperry Version 
 TDAT.m                5260.00:  Tot Depth Attmp 
 TDDF.                      No:  Trip for DD 
 TDLG.m                1390.00:  Tot Depth Loggd 
 TFF .                      No:  Trip for Fail 
 TQAA.f-kp               22.00:  Torque Abs Avg 
 TQAN.f-kp               13.00:  Torque Abs Min 
 TQAX.f-kp               27.00:  Torque Abs Max 
 TRRT.°/30m               1.60:  Turn Rotating 
 MRT .                  EWR-M5:  Maximum Recorded Temperature 
 TTMX.degC               92.00:  Max Tool Temp 
 VS01.                12330975:  Virtual Str1 SN 
 VS02.                90658671:  Virtual Str2 SN 
 VS03.                90658508:  Virtual Str3 SN 
 VS04.                90660974:  Virtual Str4 SN 
 VS05.                90654675:  Virtual Str5 SN 
 WBMN.klb                15.00:  WOB Min 
 WITN.     Alexander Yadullayev:  Customer Rep 
 WITN.           Adil Mammadov:  Customer Rep 2 
 WOBA.klb                17.00:  WOB Avg 
 WOBX.klb                18.00:  WOB Max 
 YP  .lhf2               31.00:  Yield Point 
~Curve Information Block
#MNEM.UNIT                 API CODE     Curve Description
#---------               -----------    ---------------------------
 TIME.HHMMSS            00 000 000 000:  GT Time & Date
 GTDEPTH.m              00 000 000 000:  GT Depth
 GTPQH.psia             00 000 000 000:  GT HR Quartz Pressure
 GTTQ.degC              00 000 000 000:  GT Quartz Temperature
 GTTN.NONE              00 000 000 000:  GT Test Number
 GTET.sec               00 000 000 000:  GT Elapsed Test Time
 GTTVD.m                00 000 000 000:  GT True Vertical Depth
#Other Information
#
#WARRANTY: Halliburton will use its best efforts to furnish customers with 
#accurate information and interpretations that are part of, and incident to, the services 
#provided.  However, Halliburton cannot and does not warrant the accuracy 
#or correctness of such information and interpretations.  Under no circumstances should any 
#such information or interpretation be relied upon as the sole basis for any drilling, 
#completion, production, or financial decision or any procedure involving any risk to the 
#safety of any drilling venture, drilling rig or its crew or any other third party.  The 
#Customer has full responsibility for all drilling, completion and production operation.  
#Halliburton makes no representations or warranties, either expressed or 
#implied, including, but not limited to, the implied warranties of merchantability or fitness 
#for a particular purpose, with respect to the services rendered.  In no event will 
#Halliburton be liable for failure to obtain any particular results or for 
#any damages, including, but not limited to, indirect, special or consequential damages, 
#resulting from the use of any information or interpretation provided by Halliburton.
#
~A           TIME           GTDEPTH  GTPQH  GTTQ  GTTN  GTET   GTTVD  
# ...
   05:10:07.304.17-Sep-2021 5093.53 3746.53 79.46 5.00 414.45 2594.99
   05:10:07.504.17-Sep-2021 5093.53 3746.53 79.46 5.00 414.65 2594.99
   05:10:07.704.17-Sep-2021 5093.53 3746.55 79.46 5.00 414.85 2594.99
   05:10:07.904.17-Sep-2021 5093.53 3746.56 79.46 5.00 415.05 2594.99
   05:10:08.104.17-Sep-2021 5093.53 3746.57 79.46 5.00 415.25 2594.99
   05:10:08.305.17-Sep-2021 5093.53 3746.59 79.46 5.00 415.45 2594.99
   05:10:08.505.17-Sep-2021 5093.53 3746.59 79.46 5.00 415.65 2594.99
   05:10:08.705.17-Sep-2021 5093.53 3746.70 79.46 5.00 415.85 2594.99
   05:10:08.905.17-Sep-2021 5093.53 3746.75 79.46 5.00 416.05 2594.99
   05:10:09.105.17-Sep-2021 5093.53 3746.74 79.46 5.00 416.25 2594.99
   05:10:09.306.17-Sep-2021 5093.53 3746.74 79.46 5.00 416.45 2594.99
   05:10:09.506.17-Sep-2021 5093.53 3746.74 79.46 5.00 416.65 2594.99
   05:10:09.706.17-Sep-2021 5093.53 3746.68 79.46 5.00 416.85 2594.99
   05:10:09.906.17-Sep-2021 5093.53 3746.56 79.46 5.00 417.05 2594.99
   05:10:10.107.17-Sep-2021 5093.53 3746.52 79.46 5.00 417.25 2594.99
   05:10:10.307.17-Sep-2021 5093.53 3746.40 79.46 5.00 417.45 2594.99
   05:10:10.507.17-Sep-2021 5093.53 3746.40 79.46 5.00 417.65 2594.99
   05:10:10.707.17-Sep-2021 5093.53 3746.37 79.46 5.00 417.85 2594.99
   05:10:10.907.17-Sep-2021 5093.53 3746.48 79.46 5.00 418.05 2594.99
   05:10:11.108.17-Sep-2021 5093.53 3746.46 79.46 5.00 418.25 2594.99
   05:10:11.308.17-Sep-2021 5093.53 3746.40 79.46 5.00 418.45 2594.99
   05:10:11.508.17-Sep-2021 5093.53 3746.40 79.46 5.00 418.65 2594.99
   05:10:11.708.17-Sep-2021 5093.53 3746.44 79.46 5.00 418.85 2594.99
   05:10:11.909.17-Sep-2021 5093.53 3746.44 79.46 5.00 419.05 2594.99
   05:10:12.109.17-Sep-2021 5093.53 3746.51 79.46 5.00 419.25 2594.99
   05:10:12.309.17-Sep-2021 5093.53 3746.42 79.46 5.00 419.45 2594.99
   05:10:12.509.17-Sep-2021 5093.53 3746.42 79.46 5.00 419.65 2594.99
   05:10:12.709.17-Sep-2021 5093.53 3746.47 79.46 5.00 419.85 2594.99
   05:10:12.910.17-Sep-2021 5093.53 3746.50 79.46 5.00 420.05 2594.99
   05:10:13.110.17-Sep-2021 5093.53 3746.51 79.46 5.00 420.25 2594.99
   05:10:13.310.17-Sep-2021 5093.53 3746.52 79.46 5.00 420.45 2594.99
   05:10:13.510.17-Sep-2021 5093.53 3746.52 79.46 5.00 420.65 2594.99
   05:10:13.710.17-Sep-2021 5093.53 3746.60 79.46 5.00 420.85 2594.99
   05:10:13.911.17-Sep-2021 5093.53 3746.59 79.46 5.00 421.05 2594.99
   05:10:14.111.17-Sep-2021 5093.53 3746.59 79.46 5.00 421.25 2594.99
   05:10:14.311.17-Sep-2021 5093.53 3746.61 79.46 5.00 421.45 2594.99
   05:10:14.511.17-Sep-2021 5093.53 3746.61 79.46 5.00 421.65 2594.99
   05:10:14.712.17-Sep-2021 5093.53 3746.64 79.46 5.00 421.85 2594.99
   05:10:14.912.17-Sep-2021 5093.53 3746.65 79.46 5.00 422.05 2594.99
   05:10:15.112.17-Sep-2021 5093.53 3746.63 79.46 5.00 422.25 2594.99
   05:10:15.312.17-Sep-2021 5093.53 3746.67 79.46 5.00 422.45 2594.99
   05:10:15.512.17-Sep-2021 5093.53 3746.67 79.46 5.00 422.66 2594.99
   05:10:15.713.17-Sep-2021 5093.53 3746.72 79.46 5.00 422.86 2594.99
   05:10:15.913.17-Sep-2021 5093.53 3746.71 79.46 5.00 423.06 2594.99
   05:10:16.113.17-Sep-2021 5093.53 3746.74 79.46 5.00 423.26 2594.99
   05:10:16.313.17-Sep-2021 5093.53 3746.72 79.46 5.00 423.46 2594.99
   05:10:16.513.17-Sep-2021 5093.53 3746.72 79.46 5.00 423.66 2594.99
   05:10:16.714.17-Sep-2021 5093.53 3746.73 79.46 5.00 423.86 2594.99
   05:10:16.914.17-Sep-2021 5093.53 3746.73 79.46 5.00 424.06 2594.99
   05:10:17.114.17-Sep-2021 5093.53 3746.74 79.46 5.00 424.26 2594.99
   05:10:17.314.17-Sep-2021 5093.53 3746.75 79.46 5.00 424.46 2594.99
   05:10:17.515.17-Sep-2021 5093.53 3746.75 79.46 5.00 424.66 2594.99
   05:10:17.715.17-Sep-2021 5093.53 3746.82 79.46 5.00 424.86 2594.99
   05:10:17.915.17-Sep-2021 5093.53 3746.87 79.46 5.00 425.06 2594.99
   05:10:18.115.17-Sep-2021 5093.53 3746.87 79.46 5.00 425.26 2594.99
   05:10:18.315.17-Sep-2021 5093.53 3746.84 79.46 5.00 425.46 2594.99
   05:10:18.516.17-Sep-2021 5093.53 3746.84 79.46 5.00 425.66 2594.99
   05:10:18.716.17-Sep-2021 5093.53 3746.95 79.46 5.00 425.86 2594.99
   05:10:18.916.17-Sep-2021 5093.53 3746.93 79.46 5.00 426.06 2594.99
   05:10:19.116.17-Sep-2021 5093.53 3746.91 79.46 5.00 426.26 2594.99
   05:10:19.316.17-Sep-2021 5093.53 3746.90 79.46 5.00 426.46 2594.99
   05:10:19.517.17-Sep-2021 5093.53 3746.90 79.46 5.00 426.66 2594.99
   05:10:19.717.17-Sep-2021 5093.53 3746.89 79.46 5.00 426.86 2594.99
   05:10:19.917.17-Sep-2021 5093.53 3746.88 79.46 5.00 427.06 2594.99
   05:10:20.117.17-Sep-2021 5093.53 3746.79 79.46 5.00 427.26 2594.99
   05:10:20.318.17-Sep-2021 5093.53 3746.78 79.46 5.00 427.46 2594.99
   05:10:20.518.17-Sep-2021 5093.53 3746.78 79.46 5.00 427.66 2594.99
   05:10:20.718.17-Sep-2021 5093.53 3746.69 79.46 5.00 427.86 2594.99
   05:10:20.918.17-Sep-2021 5093.53 3746.65 79.46 5.00 428.06 2594.99
   05:10:21.118.17-Sep-2021 5093.53 3746.64 79.46 5.00 428.26 2594.99
   05:10:21.319.17-Sep-2021 5093.53 3746.64 79.46 5.00 428.46 2594.99
   05:10:21.519.17-Sep-2021 5093.53 3746.64 79.46 5.00 428.66 2594.99
   05:10:21.719.17-Sep-2021 5093.53 3746.66 79.46 5.00 428.86 2594.99
   05:10:21.919.17-Sep-2021 5093.53 3746.70 79.47 5.00 429.06 2594.99
   05:10:22.120.17-Sep-2021 5093.53 3746.65 79.46 5.00 429.26 2594.99
   05:10:22.320.17-Sep-2021 5093.53 3746.69 79.47 5.00 429.46 2594.99
   05:10:22.520.17-Sep-2021 5093.53 3746.69 79.47 5.00 429.66 2594.99
   05:10:22.720.17-Sep-2021 5093.53 3746.75 79.47 5.00 429.86 2594.99
   05:10:22.920.17-Sep-2021 5093.53 3746.75 79.47 5.00 430.06 2594.99
   05:10:23.121.17-Sep-2021 5093.53 3746.77 79.47 5.00 430.26 2594.99
   05:10:23.321.17-Sep-2021 5093.53 3746.77 79.47 5.00 430.46 2594.99
   05:10:23.521.17-Sep-2021 5093.53 3746.77 79.47 5.00 430.66 2594.99
   05:10:23.721.17-Sep-2021 5093.53 3746.75 79.47 5.00 430.86 2594.99
   05:10:23.921.17-Sep-2021 5093.53 3746.74 79.47 5.00 431.06 2594.99
   05:10:24.122.17-Sep-2021 5093.53 3746.75 79.47 5.00 431.26 2594.99
   05:10:24.322.17-Sep-2021 5093.53 3746.76 79.47 5.00 431.46 2594.99
   05:10:24.522.17-Sep-2021 5093.53 3746.76 79.47 5.00 431.66 2594.99
   05:10:24.722.17-Sep-2021 5093.53 3746.81 79.47 5.00 431.87 2594.99
   05:10:24.923.17-Sep-2021 5093.53 3746.83 79.47 5.00 432.07 2594.99
   05:10:25.123.17-Sep-2021 5093.53 3746.90 79.47 5.00 432.27 2594.99
   05:10:25.323.17-Sep-2021 5093.53 3746.93 79.47 5.00 432.47 2594.99
   05:10:25.523.17-Sep-2021 5093.53 3746.93 79.47 5.00 432.67 2594.99
   05:10:25.723.17-Sep-2021 5093.53 3746.82 79.47 5.00 432.87 2594.99
   05:10:25.924.17-Sep-2021 5093.53 3746.79 79.47 5.00 433.07 2594.99
   05:10:26.124.17-Sep-2021 5093.53 3746.80 79.47 5.00 433.27 2594.99
   05:10:26.324.17-Sep-2021 5093.53 3746.81 79.47 5.00 433.47 2594.99
   05:10:26.524.17-Sep-2021 5093.53 3746.81 79.47 5.00 433.67 2594.99
   05:10:26.724.17-Sep-2021 5093.53 3746.89 79.47 5.00 433.87 2594.99
   05:10:26.925.17-Sep-2021 5093.53 3746.91 79.47 5.00 434.07 2594.99
   05:10:27.125.17-Sep-2021 5093.53 3746.90 79.47 5.00 434.27 2594.99
   05:10:27.325.17-Sep-2021 5093.53 3746.89 79.47 5.00 434.47 2594.99
   05:10:27.525.17-Sep-2021 5093.53 3746.89 79.47 5.00 434.67 2594.99
   05:10:27.726.17-Sep-2021 5093.53 3747.03 79.47 5.00 434.87 2594.99
   05:10:27.926.17-Sep-2021 5093.53 3747.08 79.47 5.00 435.07 2594.99
   05:10:28.126.17-Sep-2021 5093.53 3747.08 79.47 5.00 435.27 2594.99
   05:10:28.326.17-Sep-2021 5093.53 3747.12 79.47 5.00 435.47 2594.99
   05:10:28.526.17-Sep-2021 5093.53 3747.12 79.47 5.00 435.67 2594.99
   05:10:28.727.17-Sep-2021 5093.53 3747.08 79.47 5.00 435.87 2594.99
   05:10:28.927.17-Sep-2021 5093.53 3747.08 79.47 5.00 436.07 2594.99
   05:10:29.127.17-Sep-2021 5093.53 3747.10 79.47 5.00 436.27 2594.99
   05:10:29.327.17-Sep-2021 5093.53 3747.11 79.47 5.00 436.47 2594.99
   05:10:29.527.17-Sep-2021 5093.53 3747.11 79.47 5.00 436.67 2594.99
   05:10:29.728.17-Sep-2021 5093.53 3747.24 79.47 5.00 436.87 2594.99
   05:10:29.928.17-Sep-2021 5093.53 3747.10 79.47 5.00 437.07 2594.99
   05:10:30.128.17-Sep-2021 5093.53 3747.14 79.47 5.00 437.27 2594.99
