~Version Information
 VERS.                  2.0:   CWLS log ASCII Standard -VERSION 2.0
 WRAP.                   NO:   One line per depth step
~Well Information Block
#MNEM.UNIT     VALUE/NAME     DESCRIPTION
#---------     -----------    ---------------------------
 STRT.S             04:34:50 17-Sep-21: START TIME 04:34:50 17-Sep-21
 STOP.S             04:43:20 17-Sep-21: STOP TIME  04:43:20 17-Sep-21
 STEP.S                   0.00: STEP TIME
 NULL.                 -999.25: NULL VALUE
 DFWT.                        :  DIST FWL TEXT
 DFST.                        :  DIST FSL TEXT
 DMF .             Drill Floor:  DRILL MEAS FROM
 STIM.      10.59.12 05-Jul-21:  START TIME
 DATE.      10.59.12 10-Sep-21:  END TIME
 SPUD.               05-Jul-21:  SPUD DATE
 NREF.                    Grid:  NORTH REFERENCE
 HPTY.       Minimum Curvature:  HOLE POS TYPE
 DMOD.             Drill Model:  DRILL MOD DESC
 SVYD.                  Survey:  SURVEY DESC
 ILTD.               Lithology:  INTERP LTH DESC
 FTOP.          Formation Tops:  FORM TOPS DESC
 RIG .                     DWG:  RIG NAME
 PDAT.          Mean Sea Level:  PERMANENT DATUM
 FLD .                     ACG:  FIELD NAME
 SON .        AZ-XX-0907115008:  JOB NUMBER
 CTRY.              Azerbaijan:  COUNTRY NAME
 WELL.                    E35A:  WELL NAME
 SRVC.          TURAN DRILLING:  CONTRACTOR
 COMP.     BP Exploration (Caspian Sea LTD):  COMPANY
 UWI .                     N/A:  UNIQUE WELL IDENTIFIER
 API .                     N/A:  API NUMBER
 MDS .        Operator Entered:  MAG DATA SOURCE
 BASE.              Azerbaijan:  LOGGING EQUIPMENT BASE LOCATION
 REGN.                   EESSA:  REGION
 PROV.                    Baku:  PROVINCE
 STAT.                    Baku:  STATE NAME
 MWDS.                    Baku:  MWD SHOP
 JOBN.        AZ-XX-0907115008:  JOB TICKET NUMB
 DOE .                     N/A:  DOE NUMBER
 DCON.         Sperry Drilling:  DIRECTNL CONTR
 UNIT.                     N/A:  LOGGING EQUIPMENT ID
 WTYP.                Deviated:  WELL TYPE
 CNTY.                        :  COUNTY
 LOC .                        :  LOCATION
 LMF .             Drill Floor:  LOG MEASURED FROM
 TVDS.m                  43.16:  TVDSS CORRECTN
 LATI.deg                40.17:  LATITUDE
 LONG.deg                51.17:  LONGITUDE
 WHNS.m                  10.51:  WELL HEAD N/S
 WHEW.m                 -14.82:  WELL HEAD E/W
 UTMX.m              514336.92:  UTM X
 UTMY.m             4448618.56:  UTM Y
 DFWL.m                   0.00:  DISTANCE FWL
 DFSL.m                   0.00:  DISTANCE FSL
 SDEP.m                 849.00:  START DEPTH
 TDD .m                2862.00:  TOTAL DEPTH (DRILLER)
 VSDR.deg               292.10:  VERT SEC DIRECT
 GVFD.g                   1.00:  GRAVITY FIELD
 MFLD.nT              50382.00:  MAGNETIC FIELD
 MDIP.deg                59.68:  MAGNETIC DIP
 MDEC.deg                 6.66:  MAGNETIC DECL
 GRDC.deg                 0.09:  GRID CORRECTION
 AZTC.deg                 6.57:  AZM TOTAL CORR
 EPD .m                   0.00:  ELEVATION
 EGL .m                   0.00:  GROUND ELEVATION
 WDMS.m                 176.20:  WD ELEV
 APD .m                  43.16:  DEPTH ABOVE PD
 DEP .m                 363.42:  DEPTH
 AGAP.m                  43.16:  AIR GAP
 VSEW.m                 -14.82:  VERT SEC E/W
 VSNS.m                  10.51:  VERT SEC N/S
 EKB .m                  43.16:  KB ELEVATION
 EDF .m                  43.16:  DF ELEVATION
 TDL .m                1390.00:  TOTAL DEPTH (LOGGER)
 VSC .                       0:  VS TO CLOSURE
 MAGU.                 1855871:  MAGUTM CHECKSUM
~Parameter Information Block
#MNEM.UNIT       Value        Description
#---------     -----------    ---------------------------
 AV  .mps                 2.28:  Ann Velocity 
 AVMX.mps                 2.67:  Max Ann Veloc 
 AZIF.deg               305.00:  Azm, Final 
 BHAT.        Rotary Steerable:  BHA Type 
 BROT.°/30m               0.45:  Build Rotating 
 BS  .in                 12.25:  Bit Size 
 BSZ .in                 12.25:  Bit Size 
 BTPL.psig              600.00:  Bit Press Loss 
 CABU.                     Yes:  Customer Abuse 
 COMM.                     ÌN:  Run Comments 1 
 TCS .hr                150.00:  Time Ciculation Ended 
 CV  .mps                 1.24:  Crit Velocity 
 CVMX.mps                 1.66:  Max Crit Veloc 
 DD1 .         Intigam Rahimov:  Direct Drillr 1 
 DD2 .            Azer Ravavov:  Direct Drillr 2 
 DD3 .              Samir Abas:  Direct Drillr 3 
 DDSV.               Geo-Pilot:  DD Service 
 DEFF.%                 100.00:  % Det Eff 
 DLRX.°/30m               1.57:  Dogleg Rot Max 
 DLSO.°/30m               0.00:  Dogleg Oriented 
 DLSX.°/30m               0.00:  Dogleg Str Max 
 DRET.      20.28.06 17-Sep-21:  Drill End Time 
 DRST.      20.27.35 10-Sep-21:  Drill Start Tim 
 DTIM.hr                 54.00:  Time Drilling 
 EDEP.m                5260.00:  End Depth 
 ENG1.      Bakhtiyar Jabbarli:  Engineer 1 
 ENG2.      Natik Hasanaghayev:  Engineer 2 
 ENG3.           Royal Nasirov:  Engineer 3 
 ETIM.      20.27.55 18-Sep-21:  End Time 
 FLOI.gpm              1100.00:  Flow In 
 FLON.gpm               800.00:  Flow In Min 
 FLOS.cptm                0.00:  Fluid Loss 
 FLOX.gpm              1200.00:  Flow In Max 
 DFT .        Mineral Oil Base:  Mud Type 
 HPRE.                      No:  High Pressure 
 HTEM.                      No:  High Temp 
 HYDO.m                   1.80:  Hydro Offset 
 IFIN.deg                72.31:  Inc, Final 
 IMAX.deg                72.36:  Inc Max 
 IMIN.deg                69.36:  Inc Min 
 IMND.m                4192.96:  Inc Min Depth 
 IMXD.m                5128.36:  Inc Max Depth 
 JARR.                      No:  Jarring 
 LETM.      20.29.00 17-Sep-21:  Log End Time 
 LOST.hr                     0:  Lost Rig Time 
 LSTM.      20.27.00 10-Sep-21:  Log Start Time 
 MDCL.ppm            227000.00:  Mud Chlorides 
 MDES.     Inversion Oil/Synthetic:  Mud Desc 
 DFD .sg                  1.45:  Mud Density 
 MDMN.sg                  1.45:  Dens Mud Min 
 MDMX.sg                  1.45:  Dens Mud Max 
 MOIL.                    70.5:  Run Mud Oil % 
 MOWR.                   71:29:  Run Mud OWR 
 MSND.                     0.3:  Run Mud Sand % 
 MSOL.                    19.8:  Run Mud Solids% 
 DFV .spqt               80.00:  Mud Viscosity 
 MWOD.in                  8.00:  MWD Tool OD 
 MWSI.                     Yes:  Serv Intrp, MWD 
 OTIM.hr                180.00:  Time Operating 
 PCON.           Look Like New:  Pad Condition 
 PMAX.psia             9910.94:  Press Op, Max 
 PV  .cP                 35.00:  Mud PV 
 RUN .                    1000:  Run Number 
 ROPA.m/hr               18.00:  ROP Avg 
 ROPN.m/hr                8.00:  ROP Min 
 ROPX.m/hr               23.00:  ROP Max 
 RPMA.rpm               150.00:  RPM Surface Avg 
 RPMN.rpm               120.00:  RPM Surface Min 
 RPMX.rpm               160.00:  RPM Surface Max 
 RRUN.                    L503:  Rig Run Number 
 RTIM.hr                  5.00:  Time Reaming 
 SAZI.deg               298.42:  Azm, Start 
 SDEP.m                3870.00:  Start Depth 
 SIDD.                      No:  Serv Intrp, DD 
 SINC.deg                69.57:  Inc, Start 
 SPPA.psig             5500.00:  SPP Avg 
 SPPN.psig             4400.00:  SPP Min 
 SPPX.psig             5800.00:  SPP Max 
 STIM.      15.29.39 09-Sep-21:  Start Time 
 SVCS.                 DD, MWD:  Services 
 SVER.                    9.20:  Sperry Version 
 TDAT.m                5260.00:  Tot Depth Attmp 
 TDDF.                      No:  Trip for DD 
 TDLG.m                1390.00:  Tot Depth Loggd 
 TFF .                      No:  Trip for Fail 
 TQAA.f-kp               22.00:  Torque Abs Avg 
 TQAN.f-kp               13.00:  Torque Abs Min 
 TQAX.f-kp               27.00:  Torque Abs Max 
 TRRT.°/30m               1.60:  Turn Rotating 
 MRT .                  EWR-M5:  Maximum Recorded Temperature 
 TTMX.degC               92.00:  Max Tool Temp 
 VS01.                12330975:  Virtual Str1 SN 
 VS02.                90658671:  Virtual Str2 SN 
 VS03.                90658508:  Virtual Str3 SN 
 VS04.                90660974:  Virtual Str4 SN 
 VS05.                90654675:  Virtual Str5 SN 
 WBMN.klb                15.00:  WOB Min 
 WITN.     Alexander Yadullayev:  Customer Rep 
 WITN.           Adil Mammadov:  Customer Rep 2 
 WOBA.klb                17.00:  WOB Avg 
 WOBX.klb                18.00:  WOB Max 
 YP  .lhf2               31.00:  Yield Point 
~Curve Information Block
#MNEM.UNIT                 API CODE     Curve Description
#---------               -----------    ---------------------------
 TIME.HHMMSS            00 000 000 000:  GT Time & Date
 GTDEPTH.m              00 000 000 000:  GT Depth
 GTPQH.psia             00 000 000 000:  GT HR Quartz Pressure
 GTTQ.degC              00 000 000 000:  GT Quartz Temperature
 GTTN.NONE              00 000 000 000:  GT Test Number
 GTET.sec               00 000 000 000:  GT Elapsed Test Time
 GTTVD.m                00 000 000 000:  GT True Vertical Depth
#Other Information
#
#WARRANTY: Halliburton will use its best efforts to furnish customers with 
#accurate information and interpretations that are part of, and incident to, the services 
#provided.  However, Halliburton cannot and does not warrant the accuracy 
#or correctness of such information and interpretations.  Under no circumstances should any 
#such information or interpretation be relied upon as the sole basis for any drilling, 
#completion, production, or financial decision or any procedure involving any risk to the 
#safety of any drilling venture, drilling rig or its crew or any other third party.  The 
#Customer has full responsibility for all drilling, completion and production operation.  
#Halliburton makes no representations or warranties, either expressed or 
#implied, including, but not limited to, the implied warranties of merchantability or fitness 
#for a particular purpose, with respect to the services rendered.  In no event will 
#Halliburton be liable for failure to obtain any particular results or for 
#any damages, including, but not limited to, indirect, special or consequential damages, 
#resulting from the use of any information or interpretation provided by Halliburton.
#
~A           TIME           GTDEPTH  GTPQH  GTTQ  GTTN  GTET   GTTVD  
# ...
   04:37:08.172.17-Sep-2021 5094.00 5576.32 80.52 4.00 138.15 2595.14
   04:37:08.372.17-Sep-2021 5094.00 5576.32 80.52 4.00 138.35 2595.14
   04:37:08.572.17-Sep-2021 5094.00 5575.07 80.52 4.00 138.55 2595.14
   04:37:08.773.17-Sep-2021 5094.00 5575.41 80.52 4.00 138.75 2595.14
   04:37:08.973.17-Sep-2021 5094.00 5576.00 80.52 4.00 138.95 2595.14
   04:37:09.173.17-Sep-2021 5094.00 5575.44 80.52 4.00 139.15 2595.14
   04:37:09.373.17-Sep-2021 5094.00 5575.44 80.52 4.00 139.35 2595.14
   04:37:09.574.17-Sep-2021 5094.00 5574.80 80.52 4.00 139.55 2595.14
   04:37:09.774.17-Sep-2021 5094.00 5574.77 80.52 4.00 139.75 2595.14
   04:37:09.974.17-Sep-2021 5094.00 5578.04 80.52 4.00 139.95 2595.14
   04:37:10.174.17-Sep-2021 5094.00 5573.00 80.52 4.00 140.15 2595.14
   04:37:10.374.17-Sep-2021 5094.00 5573.00 80.52 4.00 140.35 2595.14
   04:37:10.575.17-Sep-2021 5094.00 5575.60 80.52 4.00 140.55 2595.14
   04:37:10.775.17-Sep-2021 5094.00 5575.02 80.52 4.00 140.75 2595.14
   04:37:10.975.17-Sep-2021 5094.00 5575.41 80.52 4.00 140.95 2595.14
   04:37:11.175.17-Sep-2021 5094.00 5577.02 80.51 4.00 141.15 2595.14
   04:37:11.375.17-Sep-2021 5094.00 5577.02 80.51 4.00 141.35 2595.14
   04:37:11.576.17-Sep-2021 5094.00 5575.97 80.51 4.00 141.55 2595.14
   04:37:11.776.17-Sep-2021 5094.00 5575.81 80.51 4.00 141.75 2595.14
   04:37:11.976.17-Sep-2021 5094.00 5574.98 80.51 4.00 141.95 2595.14
   04:37:12.176.17-Sep-2021 5094.00 5575.11 80.51 4.00 142.15 2595.14
   04:37:12.377.17-Sep-2021 5094.00 5575.11 80.51 4.00 142.35 2595.14
   04:37:12.577.17-Sep-2021 5094.00 5574.56 80.51 4.00 142.55 2595.14
   04:37:12.777.17-Sep-2021 5094.00 5574.96 80.51 4.00 142.75 2595.14
   04:37:12.977.17-Sep-2021 5094.00 5574.94 80.51 4.00 142.95 2595.14
   04:37:13.177.17-Sep-2021 5094.00 5575.29 80.51 4.00 143.15 2595.14
   04:37:13.378.17-Sep-2021 5094.00 5575.29 80.51 4.00 143.35 2595.14
   04:37:13.578.17-Sep-2021 5094.00 5575.17 80.51 4.00 143.55 2595.14
   04:37:13.778.17-Sep-2021 5094.00 5575.18 80.51 4.00 143.75 2595.14
   04:37:13.978.17-Sep-2021 5094.00 5575.59 80.51 4.00 143.96 2595.14
   04:37:14.178.17-Sep-2021 5094.00 5577.83 80.51 4.00 144.16 2595.14
   04:37:14.379.17-Sep-2021 5094.00 5577.83 80.51 4.00 144.36 2595.14
   04:37:14.579.17-Sep-2021 5094.00 5577.18 80.51 4.00 144.56 2595.14
   04:37:14.779.17-Sep-2021 5094.00 5575.47 80.51 4.00 144.76 2595.14
   04:37:14.979.17-Sep-2021 5094.00 5575.37 80.51 4.00 144.96 2595.14
   04:37:15.180.17-Sep-2021 5094.00 5575.20 80.51 4.00 145.16 2595.14
   04:37:15.380.17-Sep-2021 5094.00 5575.20 80.51 4.00 145.36 2595.14
   04:37:15.580.17-Sep-2021 5094.00 5574.83 80.51 4.00 145.56 2595.14
   04:37:15.780.17-Sep-2021 5094.00 5574.43 80.51 4.00 145.76 2595.14
   04:37:15.980.17-Sep-2021 5094.00 5574.79 80.51 4.00 145.96 2595.14
   04:37:16.181.17-Sep-2021 5094.00 5574.75 80.51 4.00 146.16 2595.14
   04:37:16.381.17-Sep-2021 5094.00 5574.75 80.51 4.00 146.36 2595.14
   04:37:16.581.17-Sep-2021 5094.00 5575.04 80.50 4.00 146.56 2595.14
   04:37:16.781.17-Sep-2021 5094.00 5575.19 80.50 4.00 146.76 2595.14
   04:37:16.981.17-Sep-2021 5094.00 5575.26 80.50 4.00 146.96 2595.14
   04:37:17.182.17-Sep-2021 5094.00 5575.58 80.50 4.00 147.16 2595.14
   04:37:17.382.17-Sep-2021 5094.00 5575.58 80.50 4.00 147.36 2595.14
   04:37:17.582.17-Sep-2021 5094.00 5576.05 80.50 4.00 147.56 2595.14
   04:37:17.782.17-Sep-2021 5094.00 5576.82 80.50 4.00 147.76 2595.14
   04:37:17.983.17-Sep-2021 5094.00 5576.35 80.50 4.00 147.96 2595.14
   04:37:18.183.17-Sep-2021 5094.00 5576.29 80.50 4.00 148.16 2595.14
   04:37:18.383.17-Sep-2021 5094.00 5576.29 80.50 4.00 148.36 2595.14
   04:37:18.583.17-Sep-2021 5094.00 5574.93 80.50 4.00 148.56 2595.14
   04:37:18.783.17-Sep-2021 5094.00 5575.31 80.50 4.00 148.76 2595.14
   04:37:18.984.17-Sep-2021 5094.00 5575.62 80.50 4.00 148.96 2595.14
   04:37:19.184.17-Sep-2021 5094.00 5575.19 80.50 4.00 149.16 2595.14
   04:37:19.384.17-Sep-2021 5094.00 5575.19 80.50 4.00 149.36 2595.14
   04:37:19.584.17-Sep-2021 5094.00 5574.67 80.50 4.00 149.56 2595.14
   04:37:19.785.17-Sep-2021 5094.00 5574.62 80.50 4.00 149.76 2595.14
   04:37:19.985.17-Sep-2021 5094.00 5577.98 80.50 4.00 149.96 2595.14
   04:37:20.185.17-Sep-2021 5094.00 5572.91 80.50 4.00 150.16 2595.14
   04:37:20.385.17-Sep-2021 5094.00 5572.91 80.50 4.00 150.36 2595.14
   04:37:20.585.17-Sep-2021 5094.00 5575.29 80.50 4.00 150.56 2595.14
   04:37:20.786.17-Sep-2021 5094.00 5574.83 80.50 4.00 150.76 2595.14
   04:37:20.986.17-Sep-2021 5094.00 5575.37 80.50 4.00 150.96 2595.14
   04:37:21.186.17-Sep-2021 5094.00 5576.80 80.50 4.00 151.16 2595.14
   04:37:21.386.17-Sep-2021 5094.00 5576.80 80.50 4.00 151.36 2595.14
   04:37:21.586.17-Sep-2021 5094.00 5575.94 80.50 4.00 151.56 2595.14
   04:37:21.787.17-Sep-2021 5094.00 5575.63 80.49 4.00 151.76 2595.14
   04:37:21.987.17-Sep-2021 5094.00 5574.87 80.49 4.00 151.96 2595.14
   04:37:22.187.17-Sep-2021 5094.00 5574.97 80.49 4.00 152.16 2595.14
   04:37:22.387.17-Sep-2021 5094.00 5574.97 80.49 4.00 152.36 2595.14
   04:37:22.588.17-Sep-2021 5094.00 5574.47 80.49 4.00 152.56 2595.14
   04:37:22.788.17-Sep-2021 5094.00 5574.78 80.49 4.00 152.76 2595.14
   04:37:22.988.17-Sep-2021 5094.00 5574.74 80.49 4.00 152.96 2595.14
   04:37:23.188.17-Sep-2021 5094.00 5575.16 80.49 4.00 153.16 2595.14
   04:37:23.388.17-Sep-2021 5094.00 5575.16 80.49 4.00 153.37 2595.14
   04:37:23.589.17-Sep-2021 5094.00 5575.06 80.49 4.00 153.57 2595.14
   04:37:23.789.17-Sep-2021 5094.00 5575.05 80.49 4.00 153.77 2595.14
   04:37:23.989.17-Sep-2021 5094.00 5575.41 80.49 4.00 153.97 2595.14
   04:37:24.189.17-Sep-2021 5094.00 5577.52 80.49 4.00 154.17 2595.14
   04:37:24.389.17-Sep-2021 5094.00 5577.52 80.49 4.00 154.37 2595.14
   04:37:24.590.17-Sep-2021 5094.00 5577.02 80.49 4.00 154.57 2595.14
   04:37:24.790.17-Sep-2021 5094.00 5575.01 80.49 4.00 154.77 2595.14
   04:37:24.990.17-Sep-2021 5094.00 5574.97 80.49 4.00 154.97 2595.14
   04:37:25.190.17-Sep-2021 5094.00 5574.96 80.49 4.00 155.17 2595.14
   04:37:25.391.17-Sep-2021 5094.00 5574.96 80.49 4.00 155.37 2595.14
   04:37:25.591.17-Sep-2021 5094.00 5574.53 80.49 4.00 155.57 2595.14
   04:37:25.791.17-Sep-2021 5094.00 5574.22 80.49 4.00 155.77 2595.14
   04:37:25.991.17-Sep-2021 5094.00 5574.55 80.49 4.00 155.97 2595.14
   04:37:26.191.17-Sep-2021 5094.00 5574.54 80.49 4.00 156.17 2595.14
   04:37:26.392.17-Sep-2021 5094.00 5574.54 80.49 4.00 156.37 2595.14
   04:37:26.592.17-Sep-2021 5094.00 5574.79 80.49 4.00 156.57 2595.14
   04:37:26.792.17-Sep-2021 5094.00 5574.98 80.49 4.00 156.77 2595.14
   04:37:26.992.17-Sep-2021 5094.00 5575.06 80.49 4.00 156.97 2595.14
   04:37:27.192.17-Sep-2021 5094.00 5575.40 80.48 4.00 157.17 2595.14
   04:37:27.393.17-Sep-2021 5094.00 5575.40 80.48 4.00 157.37 2595.14
   04:37:27.593.17-Sep-2021 5094.00 5575.91 80.48 4.00 157.57 2595.14
   04:37:27.793.17-Sep-2021 5094.00 5576.63 80.48 4.00 157.77 2595.14
   04:37:27.993.17-Sep-2021 5094.00 5576.01 80.48 4.00 157.97 2595.14
   04:37:28.194.17-Sep-2021 5094.00 5575.87 80.48 4.00 158.17 2595.14
   04:37:28.394.17-Sep-2021 5094.00 5575.87 80.48 4.00 158.37 2595.14
   04:37:28.594.17-Sep-2021 5094.00 5574.70 80.48 4.00 158.57 2595.14
   04:37:28.794.17-Sep-2021 5094.00 5575.00 80.48 4.00 158.77 2595.14
   04:37:28.994.17-Sep-2021 5094.00 5575.49 80.48 4.00 158.97 2595.14
   04:37:29.195.17-Sep-2021 5094.00 5574.89 80.48 4.00 159.17 2595.14
   04:37:29.395.17-Sep-2021 5094.00 5574.89 80.48 4.00 159.37 2595.14
   04:37:29.595.17-Sep-2021 5094.00 5574.43 80.48 4.00 159.57 2595.14
   04:37:29.795.17-Sep-2021 5094.00 5574.22 80.48 4.00 159.77 2595.14
   04:37:29.996.17-Sep-2021 5094.00 5577.88 80.48 4.00 159.97 2595.14
   04:37:30.196.17-Sep-2021 5094.00 5572.41 80.48 4.00 160.17 2595.14
   04:37:30.396.17-Sep-2021 5094.00 5572.41 80.48 4.00 160.37 2595.14
   04:37:30.596.17-Sep-2021 5094.00 5574.99 80.48 4.00 160.57 2595.14
   04:37:30.796.17-Sep-2021 5094.00 5574.66 80.48 4.00 160.77 2595.14
   04:37:30.997.17-Sep-2021 5094.00 5575.17 80.48 4.00 160.97 2595.14
