~Version Information
 VERS.                  2.0:   CWLS log ASCII Standard -VERSION 2.0
 WRAP.                   NO:   One line per depth step
~Well Information Block
#MNEM.UNIT     VALUE/NAME     DESCRIPTION
#---------     -----------    ---------------------------
 STRT.S             05:03:12 17-Sep-21: START TIME 05:03:12 17-Sep-21
 STOP.S             05:12:54 17-Sep-21: STOP TIME  05:12:54 17-Sep-21
 STEP.S                   0.00: STEP TIME
 NULL.                 -999.25: NULL VALUE
 DFWT.                        :  DIST FWL TEXT
 DFST.                        :  DIST FSL TEXT
 DMF .             Drill Floor:  DRILL MEAS FROM
 STIM.      10.59.12 05-Jul-21:  START TIME
 DATE.      10.59.12 10-Sep-21:  END TIME
 SPUD.               05-Jul-21:  SPUD DATE
 NREF.                    Grid:  NORTH REFERENCE
 HPTY.       Minimum Curvature:  HOLE POS TYPE
 DMOD.             Drill Model:  DRILL MOD DESC
 SVYD.                  Survey:  SURVEY DESC
 ILTD.               Lithology:  INTERP LTH DESC
 FTOP.          Formation Tops:  FORM TOPS DESC
 RIG .                     DWG:  RIG NAME
 PDAT.          Mean Sea Level:  PERMANENT DATUM
 FLD .                     ACG:  FIELD NAME
 SON .        AZ-XX-0907115008:  JOB NUMBER
 CTRY.              Azerbaijan:  COUNTRY NAME
 WELL.                    E35A:  WELL NAME
 SRVC.          TURAN DRILLING:  CONTRACTOR
 COMP.     BP Exploration (Caspian Sea LTD):  COMPANY
 UWI .                     N/A:  UNIQUE WELL IDENTIFIER
 API .                     N/A:  API NUMBER
 MDS .        Operator Entered:  MAG DATA SOURCE
 BASE.              Azerbaijan:  LOGGING EQUIPMENT BASE LOCATION
 REGN.                   EESSA:  REGION
 PROV.                    Baku:  PROVINCE
 STAT.                    Baku:  STATE NAME
 MWDS.                    Baku:  MWD SHOP
 JOBN.        AZ-XX-0907115008:  JOB TICKET NUMB
 DOE .                     N/A:  DOE NUMBER
 DCON.         Sperry Drilling:  DIRECTNL CONTR
 UNIT.                     N/A:  LOGGING EQUIPMENT ID
 WTYP.                Deviated:  WELL TYPE
 CNTY.                        :  COUNTY
 LOC .                        :  LOCATION
 LMF .             Drill Floor:  LOG MEASURED FROM
 TVDS.m                  43.16:  TVDSS CORRECTN
 LATI.deg                40.17:  LATITUDE
 LONG.deg                51.17:  LONGITUDE
 WHNS.m                  10.51:  WELL HEAD N/S
 WHEW.m                 -14.82:  WELL HEAD E/W
 UTMX.m              514336.92:  UTM X
 UTMY.m             4448618.56:  UTM Y
 DFWL.m                   0.00:  DISTANCE FWL
 DFSL.m                   0.00:  DISTANCE FSL
 SDEP.m                 849.00:  START DEPTH
 TDD .m                2862.00:  TOTAL DEPTH (DRILLER)
 VSDR.deg               292.10:  VERT SEC DIRECT
 GVFD.g                   1.00:  GRAVITY FIELD
 MFLD.nT              50382.00:  MAGNETIC FIELD
 MDIP.deg                59.68:  MAGNETIC DIP
 MDEC.deg                 6.66:  MAGNETIC DECL
 GRDC.deg                 0.09:  GRID CORRECTION
 AZTC.deg                 6.57:  AZM TOTAL CORR
 EPD .m                   0.00:  ELEVATION
 EGL .m                   0.00:  GROUND ELEVATION
 WDMS.m                 176.20:  WD ELEV
 APD .m                  43.16:  DEPTH ABOVE PD
 DEP .m                 363.42:  DEPTH
 AGAP.m                  43.16:  AIR GAP
 VSEW.m                 -14.82:  VERT SEC E/W
 VSNS.m                  10.51:  VERT SEC N/S
 EKB .m                  43.16:  KB ELEVATION
 EDF .m                  43.16:  DF ELEVATION
 TDL .m                1390.00:  TOTAL DEPTH (LOGGER)
 VSC .                       0:  VS TO CLOSURE
 MAGU.                 1855871:  MAGUTM CHECKSUM
~Parameter Information Block
#MNEM.UNIT       Value        Description
#---------     -----------    ---------------------------
 AV  .mps                 2.28:  Ann Velocity 
 AVMX.mps                 2.67:  Max Ann Veloc 
 AZIF.deg               305.00:  Azm, Final 
 BHAT.        Rotary Steerable:  BHA Type 
 BROT.°/30m               0.45:  Build Rotating 
 BS  .in                 12.25:  Bit Size 
 BSZ .in                 12.25:  Bit Size 
 BTPL.psig              600.00:  Bit Press Loss 
 CABU.                     Yes:  Customer Abuse 
 COMM.                     äÏF:  Run Comments 1 
 TCS .hr                150.00:  Time Ciculation Ended 
 CV  .mps                 1.24:  Crit Velocity 
 CVMX.mps                 1.66:  Max Crit Veloc 
 DD1 .         Intigam Rahimov:  Direct Drillr 1 
 DD2 .            Azer Ravavov:  Direct Drillr 2 
 DD3 .              Samir Abas:  Direct Drillr 3 
 DDSV.               Geo-Pilot:  DD Service 
 DEFF.%                 100.00:  % Det Eff 
 DLRX.°/30m               1.57:  Dogleg Rot Max 
 DLSO.°/30m               0.00:  Dogleg Oriented 
 DLSX.°/30m               0.00:  Dogleg Str Max 
 DRET.      20.28.06 17-Sep-21:  Drill End Time 
 DRST.      20.27.35 10-Sep-21:  Drill Start Tim 
 DTIM.hr                 54.00:  Time Drilling 
 EDEP.m                5260.00:  End Depth 
 ENG1.      Bakhtiyar Jabbarli:  Engineer 1 
 ENG2.      Natik Hasanaghayev:  Engineer 2 
 ENG3.           Royal Nasirov:  Engineer 3 
 ETIM.      20.27.55 18-Sep-21:  End Time 
 FLOI.gpm              1100.00:  Flow In 
 FLON.gpm               800.00:  Flow In Min 
 FLOS.cptm                0.00:  Fluid Loss 
 FLOX.gpm              1200.00:  Flow In Max 
 DFT .        Mineral Oil Base:  Mud Type 
 HPRE.                      No:  High Pressure 
 HTEM.                      No:  High Temp 
 HYDO.m                   1.80:  Hydro Offset 
 IFIN.deg                72.31:  Inc, Final 
 IMAX.deg                72.36:  Inc Max 
 IMIN.deg                69.36:  Inc Min 
 IMND.m                4192.96:  Inc Min Depth 
 IMXD.m                5128.36:  Inc Max Depth 
 JARR.                      No:  Jarring 
 LETM.      20.29.00 17-Sep-21:  Log End Time 
 LOST.hr                     0:  Lost Rig Time 
 LSTM.      20.27.00 10-Sep-21:  Log Start Time 
 MDCL.ppm            227000.00:  Mud Chlorides 
 MDES.     Inversion Oil/Synthetic:  Mud Desc 
 DFD .sg                  1.45:  Mud Density 
 MDMN.sg                  1.45:  Dens Mud Min 
 MDMX.sg                  1.45:  Dens Mud Max 
 MOIL.                    70.5:  Run Mud Oil % 
 MOWR.                   71:29:  Run Mud OWR 
 MSND.                     0.3:  Run Mud Sand % 
 MSOL.                    19.8:  Run Mud Solids% 
 DFV .spqt               80.00:  Mud Viscosity 
 MWOD.in                  8.00:  MWD Tool OD 
 MWSI.                     Yes:  Serv Intrp, MWD 
 OTIM.hr                180.00:  Time Operating 
 PCON.           Look Like New:  Pad Condition 
 PMAX.psia             9910.94:  Press Op, Max 
 PV  .cP                 35.00:  Mud PV 
 RUN .                    1000:  Run Number 
 ROPA.m/hr               18.00:  ROP Avg 
 ROPN.m/hr                8.00:  ROP Min 
 ROPX.m/hr               23.00:  ROP Max 
 RPMA.rpm               150.00:  RPM Surface Avg 
 RPMN.rpm               120.00:  RPM Surface Min 
 RPMX.rpm               160.00:  RPM Surface Max 
 RRUN.                    L503:  Rig Run Number 
 RTIM.hr                  5.00:  Time Reaming 
 SAZI.deg               298.42:  Azm, Start 
 SDEP.m                3870.00:  Start Depth 
 SIDD.                      No:  Serv Intrp, DD 
 SINC.deg                69.57:  Inc, Start 
 SPPA.psig             5500.00:  SPP Avg 
 SPPN.psig             4400.00:  SPP Min 
 SPPX.psig             5800.00:  SPP Max 
 STIM.      15.29.39 09-Sep-21:  Start Time 
 SVCS.                 DD, MWD:  Services 
 SVER.                    9.20:  Sperry Version 
 TDAT.m                5260.00:  Tot Depth Attmp 
 TDDF.                      No:  Trip for DD 
 TDLG.m                1390.00:  Tot Depth Loggd 
 TFF .                      No:  Trip for Fail 
 TQAA.f-kp               22.00:  Torque Abs Avg 
 TQAN.f-kp               13.00:  Torque Abs Min 
 TQAX.f-kp               27.00:  Torque Abs Max 
 TRRT.°/30m               1.60:  Turn Rotating 
 MRT .                  EWR-M5:  Maximum Recorded Temperature 
 TTMX.degC               92.00:  Max Tool Temp 
 VS01.                12330975:  Virtual Str1 SN 
 VS02.                90658671:  Virtual Str2 SN 
 VS03.                90658508:  Virtual Str3 SN 
 VS04.                90660974:  Virtual Str4 SN 
 VS05.                90654675:  Virtual Str5 SN 
 WBMN.klb                15.00:  WOB Min 
 WITN.     Alexander Yadullayev:  Customer Rep 
 WITN.           Adil Mammadov:  Customer Rep 2 
 WOBA.klb                17.00:  WOB Avg 
 WOBX.klb                18.00:  WOB Max 
 YP  .lhf2               31.00:  Yield Point 
~Curve Information Block
#MNEM.UNIT                 API CODE     Curve Description
#---------               -----------    ---------------------------
 TIME.HHMMSS            00 000 000 000:  GT Time & Date
 GTDEPTH.m              00 000 000 000:  GT Depth
 GTPQH.psia             00 000 000 000:  GT HR Quartz Pressure
 GTTQ.degC              00 000 000 000:  GT Quartz Temperature
 GTTN.NONE              00 000 000 000:  GT Test Number
 GTET.sec               00 000 000 000:  GT Elapsed Test Time
 GTTVD.m                00 000 000 000:  GT True Vertical Depth
#Other Information
#
#WARRANTY: Halliburton will use its best efforts to furnish customers with 
#accurate information and interpretations that are part of, and incident to, the services 
#provided.  However, Halliburton cannot and does not warrant the accuracy 
#or correctness of such information and interpretations.  Under no circumstances should any 
#such information or interpretation be relied upon as the sole basis for any drilling, 
#completion, production, or financial decision or any procedure involving any risk to the 
#safety of any drilling venture, drilling rig or its crew or any other third party.  The 
#Customer has full responsibility for all drilling, completion and production operation.  
#Halliburton makes no representations or warranties, either expressed or 
#implied, including, but not limited to, the implied warranties of merchantability or fitness 
#for a particular purpose, with respect to the services rendered.  In no event will 
#Halliburton be liable for failure to obtain any particular results or for 
#any damages, including, but not limited to, indirect, special or consequential damages, 
#resulting from the use of any information or interpretation provided by Halliburton.
#
~A           TIME           GTDEPTH  GTPQH  GTTQ  GTTN  GTET   GTTVD  
# ...
   05:05:31.006.17-Sep-2021 5093.53 3739.96 79.33 5.00 138.15 2594.99
   05:05:31.206.17-Sep-2021 5093.53 3739.96 79.33 5.00 138.35 2594.99
   05:05:31.406.17-Sep-2021 5093.53 3740.05 79.33 5.00 138.55 2594.99
   05:05:31.607.17-Sep-2021 5093.53 3740.10 79.33 5.00 138.75 2594.99
   05:05:31.807.17-Sep-2021 5093.53 3740.14 79.33 5.00 138.95 2594.99
   05:05:32.007.17-Sep-2021 5093.53 3740.17 79.33 5.00 139.15 2594.99
   05:05:32.207.17-Sep-2021 5093.53 3740.17 79.33 5.00 139.35 2594.99
   05:05:32.407.17-Sep-2021 5093.53 3740.34 79.33 5.00 139.55 2594.99
   05:05:32.608.17-Sep-2021 5093.53 3740.39 79.33 5.00 139.75 2594.99
   05:05:32.808.17-Sep-2021 5093.53 3740.43 79.33 5.00 139.95 2594.99
   05:05:33.008.17-Sep-2021 5093.53 3740.46 79.33 5.00 140.15 2594.99
   05:05:33.208.17-Sep-2021 5093.53 3740.46 79.33 5.00 140.35 2594.99
   05:05:33.409.17-Sep-2021 5093.53 3740.56 79.33 5.00 140.55 2594.99
   05:05:33.609.17-Sep-2021 5093.53 3740.59 79.33 5.00 140.75 2594.99
   05:05:33.809.17-Sep-2021 5093.53 3740.61 79.33 5.00 140.95 2594.99
   05:05:34.009.17-Sep-2021 5093.53 3740.65 79.33 5.00 141.15 2594.99
   05:05:34.209.17-Sep-2021 5093.53 3740.65 79.33 5.00 141.35 2594.99
   05:05:34.410.17-Sep-2021 5093.53 3740.65 79.33 5.00 141.55 2594.99
   05:05:34.610.17-Sep-2021 5093.53 3740.59 79.33 5.00 141.75 2594.99
   05:05:34.810.17-Sep-2021 5093.53 3740.60 79.33 5.00 141.95 2594.99
   05:05:35.010.17-Sep-2021 5093.53 3740.65 79.33 5.00 142.15 2594.99
   05:05:35.210.17-Sep-2021 5093.53 3740.65 79.33 5.00 142.35 2594.99
   05:05:35.411.17-Sep-2021 5093.53 3740.68 79.34 5.00 142.55 2594.99
   05:05:35.611.17-Sep-2021 5093.53 3740.59 79.34 5.00 142.75 2594.99
   05:05:35.811.17-Sep-2021 5093.53 3740.37 79.34 5.00 142.95 2594.99
   05:05:36.011.17-Sep-2021 5093.53 3740.36 79.34 5.00 143.15 2594.99
   05:05:36.212.17-Sep-2021 5093.53 3740.36 79.34 5.00 143.35 2594.99
   05:05:36.412.17-Sep-2021 5093.53 3740.40 79.34 5.00 143.55 2594.99
   05:05:36.612.17-Sep-2021 5093.53 3740.43 79.34 5.00 143.75 2594.99
   05:05:36.812.17-Sep-2021 5093.53 3740.47 79.34 5.00 143.96 2594.99
   05:05:37.012.17-Sep-2021 5093.53 3740.53 79.34 5.00 144.16 2594.99
   05:05:37.213.17-Sep-2021 5093.53 3740.53 79.34 5.00 144.36 2594.99
   05:05:37.413.17-Sep-2021 5093.53 3740.61 79.34 5.00 144.56 2594.99
   05:05:37.613.17-Sep-2021 5093.53 3740.65 79.34 5.00 144.76 2594.99
   05:05:37.813.17-Sep-2021 5093.53 3740.69 79.34 5.00 144.96 2594.99
   05:05:38.014.17-Sep-2021 5093.53 3740.75 79.34 5.00 145.16 2594.99
   05:05:38.214.17-Sep-2021 5093.53 3740.75 79.34 5.00 145.36 2594.99
   05:05:38.414.17-Sep-2021 5093.53 3740.86 79.34 5.00 145.56 2594.99
   05:05:38.614.17-Sep-2021 5093.53 3740.93 79.34 5.00 145.76 2594.99
   05:05:38.814.17-Sep-2021 5093.53 3740.95 79.34 5.00 145.96 2594.99
   05:05:39.015.17-Sep-2021 5093.53 3740.99 79.34 5.00 146.16 2594.99
   05:05:39.215.17-Sep-2021 5093.53 3740.99 79.34 5.00 146.36 2594.99
   05:05:39.415.17-Sep-2021 5093.53 3741.15 79.34 5.00 146.56 2594.99
   05:05:39.615.17-Sep-2021 5093.53 3741.17 79.34 5.00 146.76 2594.99
   05:05:39.815.17-Sep-2021 5093.53 3741.21 79.34 5.00 146.96 2594.99
   05:05:40.016.17-Sep-2021 5093.53 3741.24 79.34 5.00 147.16 2594.99
   05:05:40.216.17-Sep-2021 5093.53 3741.24 79.34 5.00 147.36 2594.99
   05:05:40.416.17-Sep-2021 5093.53 3741.32 79.34 5.00 147.56 2594.99
   05:05:40.616.17-Sep-2021 5093.53 3741.36 79.34 5.00 147.76 2594.99
   05:05:40.817.17-Sep-2021 5093.53 3741.41 79.34 5.00 147.96 2594.99
   05:05:41.017.17-Sep-2021 5093.53 3741.45 79.34 5.00 148.16 2594.99
   05:05:41.217.17-Sep-2021 5093.53 3741.45 79.34 5.00 148.36 2594.99
   05:05:41.417.17-Sep-2021 5093.53 3741.56 79.34 5.00 148.56 2594.99
   05:05:41.617.17-Sep-2021 5093.53 3741.62 79.34 5.00 148.76 2594.99
   05:05:41.818.17-Sep-2021 5093.53 3741.67 79.34 5.00 148.96 2594.99
   05:05:42.018.17-Sep-2021 5093.53 3741.64 79.34 5.00 149.16 2594.99
   05:05:42.218.17-Sep-2021 5093.53 3741.64 79.34 5.00 149.36 2594.99
   05:05:42.418.17-Sep-2021 5093.53 3741.62 79.34 5.00 149.56 2594.99
   05:05:42.618.17-Sep-2021 5093.53 3741.64 79.34 5.00 149.76 2594.99
   05:05:42.819.17-Sep-2021 5093.53 3741.65 79.34 5.00 149.96 2594.99
   05:05:43.019.17-Sep-2021 5093.53 3741.67 79.34 5.00 150.16 2594.99
   05:05:43.219.17-Sep-2021 5093.53 3741.67 79.34 5.00 150.36 2594.99
   05:05:43.419.17-Sep-2021 5093.53 3741.63 79.34 5.00 150.56 2594.99
   05:05:43.620.17-Sep-2021 5093.53 3741.71 79.34 5.00 150.76 2594.99
   05:05:43.820.17-Sep-2021 5093.53 3741.75 79.34 5.00 150.96 2594.99
   05:05:44.020.17-Sep-2021 5093.53 3741.76 79.34 5.00 151.16 2594.99
   05:05:44.220.17-Sep-2021 5093.53 3741.76 79.34 5.00 151.36 2594.99
   05:05:44.420.17-Sep-2021 5093.53 3741.60 79.34 5.00 151.56 2594.99
   05:05:44.621.17-Sep-2021 5093.53 3741.62 79.34 5.00 151.76 2594.99
   05:05:44.821.17-Sep-2021 5093.53 3741.64 79.34 5.00 151.96 2594.99
   05:05:45.021.17-Sep-2021 5093.53 3741.65 79.34 5.00 152.16 2594.99
   05:05:45.221.17-Sep-2021 5093.53 3741.65 79.34 5.00 152.36 2594.99
   05:05:45.421.17-Sep-2021 5093.53 3741.68 79.34 5.00 152.56 2594.99
   05:05:45.622.17-Sep-2021 5093.53 3741.71 79.34 5.00 152.76 2594.99
   05:05:45.822.17-Sep-2021 5093.53 3741.70 79.34 5.00 152.96 2594.99
   05:05:46.022.17-Sep-2021 5093.53 3741.73 79.34 5.00 153.16 2594.99
   05:05:46.222.17-Sep-2021 5093.53 3741.73 79.34 5.00 153.37 2594.99
   05:05:46.423.17-Sep-2021 5093.53 3741.80 79.34 5.00 153.57 2594.99
   05:05:46.623.17-Sep-2021 5093.53 3741.82 79.34 5.00 153.77 2594.99
   05:05:46.823.17-Sep-2021 5093.53 3741.85 79.34 5.00 153.97 2594.99
   05:05:47.023.17-Sep-2021 5093.53 3741.88 79.34 5.00 154.17 2594.99
   05:05:47.223.17-Sep-2021 5093.53 3741.88 79.34 5.00 154.37 2594.99
   05:05:47.424.17-Sep-2021 5093.53 3741.96 79.34 5.00 154.57 2594.99
   05:05:47.624.17-Sep-2021 5093.53 3741.99 79.34 5.00 154.77 2594.99
   05:05:47.824.17-Sep-2021 5093.53 3742.03 79.34 5.00 154.97 2594.99
   05:05:48.024.17-Sep-2021 5093.53 3742.06 79.34 5.00 155.17 2594.99
   05:05:48.225.17-Sep-2021 5093.53 3742.06 79.34 5.00 155.37 2594.99
   05:05:48.425.17-Sep-2021 5093.53 3742.16 79.34 5.00 155.57 2594.99
   05:05:48.625.17-Sep-2021 5093.53 3742.20 79.34 5.00 155.77 2594.99
   05:05:48.825.17-Sep-2021 5093.53 3742.25 79.34 5.00 155.97 2594.99
   05:05:49.025.17-Sep-2021 5093.53 3742.33 79.34 5.00 156.17 2594.99
   05:05:49.226.17-Sep-2021 5093.53 3742.33 79.34 5.00 156.37 2594.99
   05:05:49.426.17-Sep-2021 5093.53 3742.44 79.34 5.00 156.57 2594.99
   05:05:49.626.17-Sep-2021 5093.53 3742.48 79.34 5.00 156.77 2594.99
   05:05:49.826.17-Sep-2021 5093.53 3742.49 79.34 5.00 156.97 2594.99
   05:05:50.026.17-Sep-2021 5093.53 3742.51 79.34 5.00 157.17 2594.99
   05:05:50.227.17-Sep-2021 5093.53 3742.51 79.34 5.00 157.37 2594.99
   05:05:50.427.17-Sep-2021 5093.53 3742.55 79.34 5.00 157.57 2594.99
   05:05:50.627.17-Sep-2021 5093.53 3742.58 79.34 5.00 157.77 2594.99
   05:05:50.827.17-Sep-2021 5093.53 3742.60 79.34 5.00 157.97 2594.99
   05:05:51.028.17-Sep-2021 5093.53 3742.64 79.34 5.00 158.17 2594.99
   05:05:51.228.17-Sep-2021 5093.53 3742.64 79.34 5.00 158.37 2594.99
   05:05:51.428.17-Sep-2021 5093.53 3742.66 79.34 5.00 158.57 2594.99
   05:05:51.628.17-Sep-2021 5093.53 3742.73 79.34 5.00 158.77 2594.99
   05:05:51.828.17-Sep-2021 5093.53 3742.78 79.34 5.00 158.97 2594.99
   05:05:52.029.17-Sep-2021 5093.53 3742.76 79.34 5.00 159.17 2594.99
   05:05:52.229.17-Sep-2021 5093.53 3742.76 79.34 5.00 159.37 2594.99
   05:05:52.429.17-Sep-2021 5093.53 3742.75 79.34 5.00 159.57 2594.99
   05:05:52.629.17-Sep-2021 5093.53 3742.77 79.34 5.00 159.77 2594.99
   05:05:52.829.17-Sep-2021 5093.53 3742.77 79.34 5.00 159.97 2594.99
   05:05:53.030.17-Sep-2021 5093.53 3742.79 79.34 5.00 160.17 2594.99
   05:05:53.230.17-Sep-2021 5093.53 3742.79 79.34 5.00 160.37 2594.99
   05:05:53.430.17-Sep-2021 5093.53 3742.74 79.34 5.00 160.57 2594.99
   05:05:53.630.17-Sep-2021 5093.53 3742.79 79.34 5.00 160.77 2594.99
   05:05:53.831.17-Sep-2021 5093.53 3742.82 79.34 5.00 160.97 2594.99
