~Version Information
 VERS.                  2.0:   CWLS log ASCII Standard -VERSION 2.0
 WRAP.                   NO:   One line per depth step
~Well Information Block
#MNEM.UNIT     VALUE/NAME     DESCRIPTION
#---------     -----------    ---------------------------
 STRT.S             06:03:21 17-Sep-21: START TIME 06:03:21 17-Sep-21
 STOP.S             06:11:58 17-Sep-21: STOP TIME  06:11:58 17-Sep-21
 STEP.S                   0.00: STEP TIME
 NULL.                 -999.25: NULL VALUE
 DFWT.                        :  DIST FWL TEXT
 DFST.                        :  DIST FSL TEXT
 DMF .             Drill Floor:  DRILL MEAS FROM
 STIM.      10.59.12 05-Jul-21:  START TIME
 DATE.      10.59.12 10-Sep-21:  END TIME
 SPUD.               05-Jul-21:  SPUD DATE
 NREF.                    Grid:  NORTH REFERENCE
 HPTY.       Minimum Curvature:  HOLE POS TYPE
 DMOD.             Drill Model:  DRILL MOD DESC
 SVYD.                  Survey:  SURVEY DESC
 ILTD.               Lithology:  INTERP LTH DESC
 FTOP.          Formation Tops:  FORM TOPS DESC
 RIG .                     DWG:  RIG NAME
 PDAT.          Mean Sea Level:  PERMANENT DATUM
 FLD .                     ACG:  FIELD NAME
 SON .        AZ-XX-0907115008:  JOB NUMBER
 CTRY.              Azerbaijan:  COUNTRY NAME
 WELL.                    E35A:  WELL NAME
 SRVC.          TURAN DRILLING:  CONTRACTOR
 COMP.     BP Exploration (Caspian Sea LTD):  COMPANY
 UWI .                     N/A:  UNIQUE WELL IDENTIFIER
 API .                     N/A:  API NUMBER
 MDS .        Operator Entered:  MAG DATA SOURCE
 BASE.              Azerbaijan:  LOGGING EQUIPMENT BASE LOCATION
 REGN.                   EESSA:  REGION
 PROV.                    Baku:  PROVINCE
 STAT.                    Baku:  STATE NAME
 MWDS.                    Baku:  MWD SHOP
 JOBN.        AZ-XX-0907115008:  JOB TICKET NUMB
 DOE .                     N/A:  DOE NUMBER
 DCON.         Sperry Drilling:  DIRECTNL CONTR
 UNIT.                     N/A:  LOGGING EQUIPMENT ID
 WTYP.                Deviated:  WELL TYPE
 CNTY.                        :  COUNTY
 LOC .                        :  LOCATION
 LMF .             Drill Floor:  LOG MEASURED FROM
 TVDS.m                  43.16:  TVDSS CORRECTN
 LATI.deg                40.17:  LATITUDE
 LONG.deg                51.17:  LONGITUDE
 WHNS.m                  10.51:  WELL HEAD N/S
 WHEW.m                 -14.82:  WELL HEAD E/W
 UTMX.m              514336.92:  UTM X
 UTMY.m             4448618.56:  UTM Y
 DFWL.m                   0.00:  DISTANCE FWL
 DFSL.m                   0.00:  DISTANCE FSL
 SDEP.m                 849.00:  START DEPTH
 TDD .m                2862.00:  TOTAL DEPTH (DRILLER)
 VSDR.deg               292.10:  VERT SEC DIRECT
 GVFD.g                   1.00:  GRAVITY FIELD
 MFLD.nT              50382.00:  MAGNETIC FIELD
 MDIP.deg                59.68:  MAGNETIC DIP
 MDEC.deg                 6.66:  MAGNETIC DECL
 GRDC.deg                 0.09:  GRID CORRECTION
 AZTC.deg                 6.57:  AZM TOTAL CORR
 EPD .m                   0.00:  ELEVATION
 EGL .m                   0.00:  GROUND ELEVATION
 WDMS.m                 176.20:  WD ELEV
 APD .m                  43.16:  DEPTH ABOVE PD
 DEP .m                 363.42:  DEPTH
 AGAP.m                  43.16:  AIR GAP
 VSEW.m                 -14.82:  VERT SEC E/W
 VSNS.m                  10.51:  VERT SEC N/S
 EKB .m                  43.16:  KB ELEVATION
 EDF .m                  43.16:  DF ELEVATION
 TDL .m                1390.00:  TOTAL DEPTH (LOGGER)
 VSC .                       0:  VS TO CLOSURE
 MAGU.                 1855871:  MAGUTM CHECKSUM
~Parameter Information Block
#MNEM.UNIT       Value        Description
#---------     -----------    ---------------------------
 AV  .mps                 2.28:  Ann Velocity 
 AVMX.mps                 2.67:  Max Ann Veloc 
 AZIF.deg               305.00:  Azm, Final 
 BHAT.        Rotary Steerable:  BHA Type 
 BROT.°/30m               0.45:  Build Rotating 
 BS  .in                 12.25:  Bit Size 
 BSZ .in                 12.25:  Bit Size 
 BTPL.psig              600.00:  Bit Press Loss 
 CABU.                     Yes:  Customer Abuse 
 COMM.                     $t:  Run Comments 1 
 TCS .hr                150.00:  Time Ciculation Ended 
 CV  .mps                 1.24:  Crit Velocity 
 CVMX.mps                 1.66:  Max Crit Veloc 
 DD1 .         Intigam Rahimov:  Direct Drillr 1 
 DD2 .            Azer Ravavov:  Direct Drillr 2 
 DD3 .              Samir Abas:  Direct Drillr 3 
 DDSV.               Geo-Pilot:  DD Service 
 DEFF.%                 100.00:  % Det Eff 
 DLRX.°/30m               1.57:  Dogleg Rot Max 
 DLSO.°/30m               0.00:  Dogleg Oriented 
 DLSX.°/30m               0.00:  Dogleg Str Max 
 DRET.      20.28.06 17-Sep-21:  Drill End Time 
 DRST.      20.27.35 10-Sep-21:  Drill Start Tim 
 DTIM.hr                 54.00:  Time Drilling 
 EDEP.m                5260.00:  End Depth 
 ENG1.      Bakhtiyar Jabbarli:  Engineer 1 
 ENG2.      Natik Hasanaghayev:  Engineer 2 
 ENG3.           Royal Nasirov:  Engineer 3 
 ETIM.      20.27.55 18-Sep-21:  End Time 
 FLOI.gpm              1100.00:  Flow In 
 FLON.gpm               800.00:  Flow In Min 
 FLOS.cptm                0.00:  Fluid Loss 
 FLOX.gpm              1200.00:  Flow In Max 
 DFT .        Mineral Oil Base:  Mud Type 
 HPRE.                      No:  High Pressure 
 HTEM.                      No:  High Temp 
 HYDO.m                   1.80:  Hydro Offset 
 IFIN.deg                72.31:  Inc, Final 
 IMAX.deg                72.36:  Inc Max 
 IMIN.deg                69.36:  Inc Min 
 IMND.m                4192.96:  Inc Min Depth 
 IMXD.m                5128.36:  Inc Max Depth 
 JARR.                      No:  Jarring 
 LETM.      20.29.00 17-Sep-21:  Log End Time 
 LOST.hr                     0:  Lost Rig Time 
 LSTM.      20.27.00 10-Sep-21:  Log Start Time 
 MDCL.ppm            227000.00:  Mud Chlorides 
 MDES.     Inversion Oil/Synthetic:  Mud Desc 
 DFD .sg                  1.45:  Mud Density 
 MDMN.sg                  1.45:  Dens Mud Min 
 MDMX.sg                  1.45:  Dens Mud Max 
 MOIL.                    70.5:  Run Mud Oil % 
 MOWR.                   71:29:  Run Mud OWR 
 MSND.                     0.3:  Run Mud Sand % 
 MSOL.                    19.8:  Run Mud Solids% 
 DFV .spqt               80.00:  Mud Viscosity 
 MWOD.in                  8.00:  MWD Tool OD 
 MWSI.                     Yes:  Serv Intrp, MWD 
 OTIM.hr                180.00:  Time Operating 
 PCON.           Look Like New:  Pad Condition 
 PMAX.psia             9910.94:  Press Op, Max 
 PV  .cP                 35.00:  Mud PV 
 RUN .                    1000:  Run Number 
 ROPA.m/hr               18.00:  ROP Avg 
 ROPN.m/hr                8.00:  ROP Min 
 ROPX.m/hr               23.00:  ROP Max 
 RPMA.rpm               150.00:  RPM Surface Avg 
 RPMN.rpm               120.00:  RPM Surface Min 
 RPMX.rpm               160.00:  RPM Surface Max 
 RRUN.                    L503:  Rig Run Number 
 RTIM.hr                  5.00:  Time Reaming 
 SAZI.deg               298.42:  Azm, Start 
 SDEP.m                3870.00:  Start Depth 
 SIDD.                      No:  Serv Intrp, DD 
 SINC.deg                69.57:  Inc, Start 
 SPPA.psig             5500.00:  SPP Avg 
 SPPN.psig             4400.00:  SPP Min 
 SPPX.psig             5800.00:  SPP Max 
 STIM.      15.29.39 09-Sep-21:  Start Time 
 SVCS.                 DD, MWD:  Services 
 SVER.                    9.20:  Sperry Version 
 TDAT.m                5260.00:  Tot Depth Attmp 
 TDDF.                      No:  Trip for DD 
 TDLG.m                1390.00:  Tot Depth Loggd 
 TFF .                      No:  Trip for Fail 
 TQAA.f-kp               22.00:  Torque Abs Avg 
 TQAN.f-kp               13.00:  Torque Abs Min 
 TQAX.f-kp               27.00:  Torque Abs Max 
 TRRT.°/30m               1.60:  Turn Rotating 
 MRT .                  EWR-M5:  Maximum Recorded Temperature 
 TTMX.degC               92.00:  Max Tool Temp 
 VS01.                12330975:  Virtual Str1 SN 
 VS02.                90658671:  Virtual Str2 SN 
 VS03.                90658508:  Virtual Str3 SN 
 VS04.                90660974:  Virtual Str4 SN 
 VS05.                90654675:  Virtual Str5 SN 
 WBMN.klb                15.00:  WOB Min 
 WITN.     Alexander Yadullayev:  Customer Rep 
 WITN.           Adil Mammadov:  Customer Rep 2 
 WOBA.klb                17.00:  WOB Avg 
 WOBX.klb                18.00:  WOB Max 
 YP  .lhf2               31.00:  Yield Point 
~Curve Information Block
#MNEM.UNIT                 API CODE     Curve Description
#---------               -----------    ---------------------------
 TIME.HHMMSS            00 000 000 000:  GT Time & Date
 GTDEPTH.m              00 000 000 000:  GT Depth
 GTPQH.psia             00 000 000 000:  GT HR Quartz Pressure
 GTTQ.degC              00 000 000 000:  GT Quartz Temperature
 GTTN.NONE              00 000 000 000:  GT Test Number
 GTET.sec               00 000 000 000:  GT Elapsed Test Time
 GTTVD.m                00 000 000 000:  GT True Vertical Depth
#Other Information
#
#WARRANTY: Halliburton will use its best efforts to furnish customers with 
#accurate information and interpretations that are part of, and incident to, the services 
#provided.  However, Halliburton cannot and does not warrant the accuracy 
#or correctness of such information and interpretations.  Under no circumstances should any 
#such information or interpretation be relied upon as the sole basis for any drilling, 
#completion, production, or financial decision or any procedure involving any risk to the 
#safety of any drilling venture, drilling rig or its crew or any other third party.  The 
#Customer has full responsibility for all drilling, completion and production operation.  
#Halliburton makes no representations or warranties, either expressed or 
#implied, including, but not limited to, the implied warranties of merchantability or fitness 
#for a particular purpose, with respect to the services rendered.  In no event will 
#Halliburton be liable for failure to obtain any particular results or for 
#any damages, including, but not limited to, indirect, special or consequential damages, 
#resulting from the use of any information or interpretation provided by Halliburton.
#
~A           TIME           GTDEPTH  GTPQH  GTTQ  GTTN  GTET   GTTVD  
# ...
   06:08:43.586.17-Sep-2021 5057.50 5540.76 79.59 6.00 321.93 2583.80
   06:08:43.786.17-Sep-2021 5057.50 5540.76 79.59 6.00 322.13 2583.80
   06:08:43.986.17-Sep-2021 5057.50 5540.83 79.59 6.00 322.33 2583.80
   06:08:44.185.17-Sep-2021 5057.50 5541.08 79.59 6.00 322.53 2583.80
   06:08:44.385.17-Sep-2021 5057.50 5541.14 79.59 6.00 322.73 2583.80
   06:08:44.585.17-Sep-2021 5057.50 5541.08 79.59 6.00 322.93 2583.80
   06:08:44.785.17-Sep-2021 5057.50 5541.08 79.59 6.00 323.13 2583.80
   06:08:44.985.17-Sep-2021 5057.50 5541.33 79.59 6.00 323.33 2583.80
   06:08:45.185.17-Sep-2021 5057.50 5544.17 79.59 6.00 323.53 2583.80
   06:08:45.385.17-Sep-2021 5057.50 5540.59 79.59 6.00 323.73 2583.80
   06:08:45.585.17-Sep-2021 5057.50 5542.07 79.59 6.00 323.93 2583.80
   06:08:45.785.17-Sep-2021 5057.50 5542.07 79.59 6.00 324.13 2583.80
   06:08:45.985.17-Sep-2021 5057.50 5542.10 79.59 6.00 324.33 2583.80
   06:08:46.185.17-Sep-2021 5057.50 5541.06 79.59 6.00 324.53 2583.80
   06:08:46.385.17-Sep-2021 5057.50 5540.95 79.59 6.00 324.73 2583.80
   06:08:46.585.17-Sep-2021 5057.50 5540.78 79.59 6.00 324.93 2583.80
   06:08:46.785.17-Sep-2021 5057.50 5540.78 79.59 6.00 325.13 2583.80
   06:08:46.985.17-Sep-2021 5057.50 5540.75 79.59 6.00 325.33 2583.80
   06:08:47.185.17-Sep-2021 5057.50 5540.45 79.59 6.00 325.53 2583.80
   06:08:47.385.17-Sep-2021 5057.50 5540.78 79.59 6.00 325.73 2583.80
   06:08:47.585.17-Sep-2021 5057.50 5540.78 79.59 6.00 325.93 2583.80
   06:08:47.785.17-Sep-2021 5057.50 5540.78 79.59 6.00 326.13 2583.80
   06:08:47.985.17-Sep-2021 5057.50 5541.12 79.59 6.00 326.33 2583.80
   06:08:48.185.17-Sep-2021 5057.50 5541.12 79.59 6.00 326.53 2583.80
   06:08:48.385.17-Sep-2021 5057.50 5541.40 79.59 6.00 326.73 2583.80
   06:08:48.585.17-Sep-2021 5057.50 5542.17 79.59 6.00 326.93 2583.80
   06:08:48.784.17-Sep-2021 5057.50 5542.17 79.59 6.00 327.13 2583.80
   06:08:48.984.17-Sep-2021 5057.50 5541.49 79.59 6.00 327.33 2583.80
   06:08:49.184.17-Sep-2021 5057.50 5542.64 79.59 6.00 327.53 2583.80
   06:08:49.384.17-Sep-2021 5057.50 5541.92 79.59 6.00 327.73 2583.80
   06:08:49.584.17-Sep-2021 5057.50 5541.17 79.58 6.00 327.93 2583.80
   06:08:49.784.17-Sep-2021 5057.50 5541.17 79.58 6.00 328.13 2583.80
   06:08:49.984.17-Sep-2021 5057.50 5541.30 79.58 6.00 328.33 2583.80
   06:08:50.184.17-Sep-2021 5057.50 5538.49 79.58 6.00 328.53 2583.80
   06:08:50.384.17-Sep-2021 5057.50 5542.18 79.58 6.00 328.73 2583.80
   06:08:50.584.17-Sep-2021 5057.50 5540.40 79.58 6.00 328.93 2583.80
   06:08:50.784.17-Sep-2021 5057.50 5540.40 79.58 6.00 329.13 2583.80
   06:08:50.984.17-Sep-2021 5057.50 5538.75 79.58 6.00 329.33 2583.80
   06:08:51.184.17-Sep-2021 5057.50 5541.97 79.58 6.00 329.53 2583.80
   06:08:51.384.17-Sep-2021 5057.50 5540.46 79.58 6.00 329.73 2583.80
   06:08:51.584.17-Sep-2021 5057.50 5540.43 79.58 6.00 329.93 2583.80
   06:08:51.784.17-Sep-2021 5057.50 5540.43 79.58 6.00 330.13 2583.80
   06:08:51.984.17-Sep-2021 5057.50 5539.75 79.58 6.00 330.33 2583.80
   06:08:52.184.17-Sep-2021 5057.50 5542.29 79.58 6.00 330.53 2583.80
   06:08:52.384.17-Sep-2021 5057.50 5540.57 79.58 6.00 330.73 2583.80
   06:08:52.584.17-Sep-2021 5057.50 5540.63 79.58 6.00 330.93 2583.80
   06:08:52.784.17-Sep-2021 5057.50 5540.63 79.58 6.00 331.13 2583.80
   06:08:52.984.17-Sep-2021 5057.50 5540.50 79.58 6.00 331.33 2583.80
   06:08:53.184.17-Sep-2021 5057.50 5540.69 79.58 6.00 331.53 2583.80
   06:08:53.384.17-Sep-2021 5057.50 5540.60 79.58 6.00 331.73 2583.80
   06:08:53.583.17-Sep-2021 5057.50 5540.88 79.58 6.00 331.93 2583.80
   06:08:53.783.17-Sep-2021 5057.50 5540.88 79.58 6.00 332.13 2583.80
   06:08:53.983.17-Sep-2021 5057.50 5540.69 79.58 6.00 332.33 2583.80
   06:08:54.183.17-Sep-2021 5057.50 5541.05 79.58 6.00 332.53 2583.80
   06:08:54.383.17-Sep-2021 5057.50 5541.11 79.58 6.00 332.73 2583.80
   06:08:54.583.17-Sep-2021 5057.50 5541.27 79.58 6.00 332.93 2583.80
   06:08:54.783.17-Sep-2021 5057.50 5541.27 79.58 6.00 333.13 2583.80
   06:08:54.983.17-Sep-2021 5057.50 5540.75 79.58 6.00 333.33 2583.80
   06:08:55.183.17-Sep-2021 5057.50 5541.71 79.58 6.00 333.53 2583.80
   06:08:55.383.17-Sep-2021 5057.50 5542.06 79.57 6.00 333.73 2583.80
   06:08:55.583.17-Sep-2021 5057.50 5541.88 79.57 6.00 333.93 2583.80
   06:08:55.783.17-Sep-2021 5057.50 5541.88 79.57 6.00 334.13 2583.80
   06:08:55.983.17-Sep-2021 5057.50 5541.10 79.57 6.00 334.33 2583.80
   06:08:56.183.17-Sep-2021 5057.50 5540.82 79.57 6.00 334.53 2583.80
   06:08:56.383.17-Sep-2021 5057.50 5540.46 79.57 6.00 334.73 2583.80
   06:08:56.583.17-Sep-2021 5057.50 5540.59 79.57 6.00 334.93 2583.80
   06:08:56.783.17-Sep-2021 5057.50 5540.59 79.57 6.00 335.13 2583.80
   06:08:56.983.17-Sep-2021 5057.50 5540.60 79.57 6.00 335.33 2583.80
   06:08:57.183.17-Sep-2021 5057.50 5540.54 79.57 6.00 335.53 2583.80
   06:08:57.383.17-Sep-2021 5057.50 5540.70 79.57 6.00 335.73 2583.80
   06:08:57.583.17-Sep-2021 5057.50 5540.92 79.57 6.00 335.93 2583.80
   06:08:57.783.17-Sep-2021 5057.50 5540.92 79.57 6.00 336.13 2583.80
   06:08:57.983.17-Sep-2021 5057.50 5540.96 79.57 6.00 336.33 2583.80
   06:08:58.182.17-Sep-2021 5057.50 5541.94 79.57 6.00 336.53 2583.80
   06:08:58.382.17-Sep-2021 5057.50 5542.89 79.57 6.00 336.73 2583.80
   06:08:58.582.17-Sep-2021 5057.50 5541.27 79.57 6.00 336.93 2583.80
   06:08:58.782.17-Sep-2021 5057.50 5541.27 79.57 6.00 337.13 2583.80
   06:08:58.982.17-Sep-2021 5057.50 5541.90 79.57 6.00 337.33 2583.80
   06:08:59.182.17-Sep-2021 5057.50 5541.25 79.57 6.00 337.53 2583.80
   06:08:59.382.17-Sep-2021 5057.50 5541.36 79.57 6.00 337.73 2583.80
   06:08:59.582.17-Sep-2021 5057.50 5544.45 79.57 6.00 337.93 2583.80
   06:08:59.782.17-Sep-2021 5057.50 5544.45 79.57 6.00 338.13 2583.80
   06:08:59.982.17-Sep-2021 5057.50 5542.16 79.57 6.00 338.33 2583.80
   06:09:00.182.17-Sep-2021 5057.50 5540.43 79.57 6.00 338.53 2583.80
   06:09:00.382.17-Sep-2021 5057.50 5543.47 79.57 6.00 338.73 2583.80
   06:09:00.582.17-Sep-2021 5057.50 5539.83 79.57 6.00 338.93 2583.80
   06:09:00.782.17-Sep-2021 5057.50 5539.83 79.57 6.00 339.13 2583.80
   06:09:00.982.17-Sep-2021 5057.50 5541.23 79.57 6.00 339.33 2583.80
   06:09:01.182.17-Sep-2021 5057.50 5540.80 79.57 6.00 339.53 2583.80
   06:09:01.382.17-Sep-2021 5057.50 5541.08 79.56 6.00 339.73 2583.80
   06:09:01.582.17-Sep-2021 5057.50 5541.90 79.56 6.00 339.93 2583.80
   06:09:01.782.17-Sep-2021 5057.50 5541.90 79.56 6.00 340.13 2583.80
   06:09:01.982.17-Sep-2021 5057.50 5541.30 79.56 6.00 340.33 2583.80
   06:09:02.182.17-Sep-2021 5057.50 5541.22 79.56 6.00 340.53 2583.80
   06:09:02.382.17-Sep-2021 5057.50 5540.38 79.56 6.00 340.73 2583.80
   06:09:02.582.17-Sep-2021 5057.50 5540.82 79.56 6.00 340.93 2583.80
   06:09:02.782.17-Sep-2021 5057.50 5540.82 79.56 6.00 341.13 2583.80
   06:09:02.981.17-Sep-2021 5057.50 5540.41 79.56 6.00 341.33 2583.80
   06:09:03.181.17-Sep-2021 5057.50 5540.97 79.56 6.00 341.53 2583.80
   06:09:03.381.17-Sep-2021 5057.50 5540.60 79.56 6.00 341.73 2583.80
   06:09:03.581.17-Sep-2021 5057.50 5541.05 79.56 6.00 341.93 2583.80
   06:09:03.781.17-Sep-2021 5057.50 5541.05 79.56 6.00 342.13 2583.80
   06:09:03.981.17-Sep-2021 5057.50 5541.00 79.56 6.00 342.33 2583.80
   06:09:04.181.17-Sep-2021 5057.50 5541.17 79.56 6.00 342.53 2583.80
   06:09:04.381.17-Sep-2021 5057.50 5541.11 79.56 6.00 342.73 2583.80
   06:09:04.581.17-Sep-2021 5057.50 5544.80 79.56 6.00 342.93 2583.80
   06:09:04.781.17-Sep-2021 5057.50 5544.80 79.56 6.00 343.13 2583.80
   06:09:04.981.17-Sep-2021 5057.50 5542.77 79.56 6.00 343.33 2583.80
   06:09:05.181.17-Sep-2021 5057.50 5541.27 79.56 6.00 343.53 2583.80
   06:09:05.381.17-Sep-2021 5057.50 5541.16 79.56 6.00 343.73 2583.80
   06:09:05.581.17-Sep-2021 5057.50 5541.17 79.56 6.00 343.93 2583.80
   06:09:05.781.17-Sep-2021 5057.50 5541.17 79.56 6.00 344.13 2583.80
   06:09:05.981.17-Sep-2021 5057.50 5540.53 79.56 6.00 344.33 2583.80
   06:09:06.181.17-Sep-2021 5057.50 5540.34 79.56 6.00 344.53 2583.80
   06:09:06.381.17-Sep-2021 5057.50 5539.73 79.56 6.00 344.73 2583.80
