~Version Information
 VERS.                  2.0:   CWLS log ASCII Standard -VERSION 2.0
 WRAP.                   NO:   One line per depth step
~Well Information Block
#MNEM.UNIT     VALUE/NAME     DESCRIPTION
#---------     -----------    ---------------------------
 STRT.S             06:03:21 17-Sep-21: START TIME 06:03:21 17-Sep-21
 STOP.S             06:11:58 17-Sep-21: STOP TIME  06:11:58 17-Sep-21
 STEP.S                   0.00: STEP TIME
 NULL.                 -999.25: NULL VALUE
 DFWT.                        :  DIST FWL TEXT
 DFST.                        :  DIST FSL TEXT
 DMF .             Drill Floor:  DRILL MEAS FROM
 STIM.      10.59.12 05-Jul-21:  START TIME
 DATE.      10.59.12 10-Sep-21:  END TIME
 SPUD.               05-Jul-21:  SPUD DATE
 NREF.                    Grid:  NORTH REFERENCE
 HPTY.       Minimum Curvature:  HOLE POS TYPE
 DMOD.             Drill Model:  DRILL MOD DESC
 SVYD.                  Survey:  SURVEY DESC
 ILTD.               Lithology:  INTERP LTH DESC
 FTOP.          Formation Tops:  FORM TOPS DESC
 RIG .                     DWG:  RIG NAME
 PDAT.          Mean Sea Level:  PERMANENT DATUM
 FLD .                     ACG:  FIELD NAME
 SON .        AZ-XX-0907115008:  JOB NUMBER
 CTRY.              Azerbaijan:  COUNTRY NAME
 WELL.                    E35A:  WELL NAME
 SRVC.          TURAN DRILLING:  CONTRACTOR
 COMP.     BP Exploration (Caspian Sea LTD):  COMPANY
 UWI .                     N/A:  UNIQUE WELL IDENTIFIER
 API .                     N/A:  API NUMBER
 MDS .        Operator Entered:  MAG DATA SOURCE
 BASE.              Azerbaijan:  LOGGING EQUIPMENT BASE LOCATION
 REGN.                   EESSA:  REGION
 PROV.                    Baku:  PROVINCE
 STAT.                    Baku:  STATE NAME
 MWDS.                    Baku:  MWD SHOP
 JOBN.        AZ-XX-0907115008:  JOB TICKET NUMB
 DOE .                     N/A:  DOE NUMBER
 DCON.         Sperry Drilling:  DIRECTNL CONTR
 UNIT.                     N/A:  LOGGING EQUIPMENT ID
 WTYP.                Deviated:  WELL TYPE
 CNTY.                        :  COUNTY
 LOC .                        :  LOCATION
 LMF .             Drill Floor:  LOG MEASURED FROM
 TVDS.m                  43.16:  TVDSS CORRECTN
 LATI.deg                40.17:  LATITUDE
 LONG.deg                51.17:  LONGITUDE
 WHNS.m                  10.51:  WELL HEAD N/S
 WHEW.m                 -14.82:  WELL HEAD E/W
 UTMX.m              514336.92:  UTM X
 UTMY.m             4448618.56:  UTM Y
 DFWL.m                   0.00:  DISTANCE FWL
 DFSL.m                   0.00:  DISTANCE FSL
 SDEP.m                 849.00:  START DEPTH
 TDD .m                2862.00:  TOTAL DEPTH (DRILLER)
 VSDR.deg               292.10:  VERT SEC DIRECT
 GVFD.g                   1.00:  GRAVITY FIELD
 MFLD.nT              50382.00:  MAGNETIC FIELD
 MDIP.deg                59.68:  MAGNETIC DIP
 MDEC.deg                 6.66:  MAGNETIC DECL
 GRDC.deg                 0.09:  GRID CORRECTION
 AZTC.deg                 6.57:  AZM TOTAL CORR
 EPD .m                   0.00:  ELEVATION
 EGL .m                   0.00:  GROUND ELEVATION
 WDMS.m                 176.20:  WD ELEV
 APD .m                  43.16:  DEPTH ABOVE PD
 DEP .m                 363.42:  DEPTH
 AGAP.m                  43.16:  AIR GAP
 VSEW.m                 -14.82:  VERT SEC E/W
 VSNS.m                  10.51:  VERT SEC N/S
 EKB .m                  43.16:  KB ELEVATION
 EDF .m                  43.16:  DF ELEVATION
 TDL .m                1390.00:  TOTAL DEPTH (LOGGER)
 VSC .                       0:  VS TO CLOSURE
 MAGU.                 1855871:  MAGUTM CHECKSUM
~Parameter Information Block
#MNEM.UNIT       Value        Description
#---------     -----------    ---------------------------
 AV  .mps                 2.28:  Ann Velocity 
 AVMX.mps                 2.67:  Max Ann Veloc 
 AZIF.deg               305.00:  Azm, Final 
 BHAT.        Rotary Steerable:  BHA Type 
 BROT.°/30m               0.45:  Build Rotating 
 BS  .in                 12.25:  Bit Size 
 BSZ .in                 12.25:  Bit Size 
 BTPL.psig              600.00:  Bit Press Loss 
 CABU.                     Yes:  Customer Abuse 
 COMM.                     $t:  Run Comments 1 
 TCS .hr                150.00:  Time Ciculation Ended 
 CV  .mps                 1.24:  Crit Velocity 
 CVMX.mps                 1.66:  Max Crit Veloc 
 DD1 .         Intigam Rahimov:  Direct Drillr 1 
 DD2 .            Azer Ravavov:  Direct Drillr 2 
 DD3 .              Samir Abas:  Direct Drillr 3 
 DDSV.               Geo-Pilot:  DD Service 
 DEFF.%                 100.00:  % Det Eff 
 DLRX.°/30m               1.57:  Dogleg Rot Max 
 DLSO.°/30m               0.00:  Dogleg Oriented 
 DLSX.°/30m               0.00:  Dogleg Str Max 
 DRET.      20.28.06 17-Sep-21:  Drill End Time 
 DRST.      20.27.35 10-Sep-21:  Drill Start Tim 
 DTIM.hr                 54.00:  Time Drilling 
 EDEP.m                5260.00:  End Depth 
 ENG1.      Bakhtiyar Jabbarli:  Engineer 1 
 ENG2.      Natik Hasanaghayev:  Engineer 2 
 ENG3.           Royal Nasirov:  Engineer 3 
 ETIM.      20.27.55 18-Sep-21:  End Time 
 FLOI.gpm              1100.00:  Flow In 
 FLON.gpm               800.00:  Flow In Min 
 FLOS.cptm                0.00:  Fluid Loss 
 FLOX.gpm              1200.00:  Flow In Max 
 DFT .        Mineral Oil Base:  Mud Type 
 HPRE.                      No:  High Pressure 
 HTEM.                      No:  High Temp 
 HYDO.m                   1.80:  Hydro Offset 
 IFIN.deg                72.31:  Inc, Final 
 IMAX.deg                72.36:  Inc Max 
 IMIN.deg                69.36:  Inc Min 
 IMND.m                4192.96:  Inc Min Depth 
 IMXD.m                5128.36:  Inc Max Depth 
 JARR.                      No:  Jarring 
 LETM.      20.29.00 17-Sep-21:  Log End Time 
 LOST.hr                     0:  Lost Rig Time 
 LSTM.      20.27.00 10-Sep-21:  Log Start Time 
 MDCL.ppm            227000.00:  Mud Chlorides 
 MDES.     Inversion Oil/Synthetic:  Mud Desc 
 DFD .sg                  1.45:  Mud Density 
 MDMN.sg                  1.45:  Dens Mud Min 
 MDMX.sg                  1.45:  Dens Mud Max 
 MOIL.                    70.5:  Run Mud Oil % 
 MOWR.                   71:29:  Run Mud OWR 
 MSND.                     0.3:  Run Mud Sand % 
 MSOL.                    19.8:  Run Mud Solids% 
 DFV .spqt               80.00:  Mud Viscosity 
 MWOD.in                  8.00:  MWD Tool OD 
 MWSI.                     Yes:  Serv Intrp, MWD 
 OTIM.hr                180.00:  Time Operating 
 PCON.           Look Like New:  Pad Condition 
 PMAX.psia             9910.94:  Press Op, Max 
 PV  .cP                 35.00:  Mud PV 
 RUN .                    1000:  Run Number 
 ROPA.m/hr               18.00:  ROP Avg 
 ROPN.m/hr                8.00:  ROP Min 
 ROPX.m/hr               23.00:  ROP Max 
 RPMA.rpm               150.00:  RPM Surface Avg 
 RPMN.rpm               120.00:  RPM Surface Min 
 RPMX.rpm               160.00:  RPM Surface Max 
 RRUN.                    L503:  Rig Run Number 
 RTIM.hr                  5.00:  Time Reaming 
 SAZI.deg               298.42:  Azm, Start 
 SDEP.m                3870.00:  Start Depth 
 SIDD.                      No:  Serv Intrp, DD 
 SINC.deg                69.57:  Inc, Start 
 SPPA.psig             5500.00:  SPP Avg 
 SPPN.psig             4400.00:  SPP Min 
 SPPX.psig             5800.00:  SPP Max 
 STIM.      15.29.39 09-Sep-21:  Start Time 
 SVCS.                 DD, MWD:  Services 
 SVER.                    9.20:  Sperry Version 
 TDAT.m                5260.00:  Tot Depth Attmp 
 TDDF.                      No:  Trip for DD 
 TDLG.m                1390.00:  Tot Depth Loggd 
 TFF .                      No:  Trip for Fail 
 TQAA.f-kp               22.00:  Torque Abs Avg 
 TQAN.f-kp               13.00:  Torque Abs Min 
 TQAX.f-kp               27.00:  Torque Abs Max 
 TRRT.°/30m               1.60:  Turn Rotating 
 MRT .                  EWR-M5:  Maximum Recorded Temperature 
 TTMX.degC               92.00:  Max Tool Temp 
 VS01.                12330975:  Virtual Str1 SN 
 VS02.                90658671:  Virtual Str2 SN 
 VS03.                90658508:  Virtual Str3 SN 
 VS04.                90660974:  Virtual Str4 SN 
 VS05.                90654675:  Virtual Str5 SN 
 WBMN.klb                15.00:  WOB Min 
 WITN.     Alexander Yadullayev:  Customer Rep 
 WITN.           Adil Mammadov:  Customer Rep 2 
 WOBA.klb                17.00:  WOB Avg 
 WOBX.klb                18.00:  WOB Max 
 YP  .lhf2               31.00:  Yield Point 
~Curve Information Block
#MNEM.UNIT                 API CODE     Curve Description
#---------               -----------    ---------------------------
 TIME.HHMMSS            00 000 000 000:  GT Time & Date
 GTDEPTH.m              00 000 000 000:  GT Depth
 GTPQH.psia             00 000 000 000:  GT HR Quartz Pressure
 GTTQ.degC              00 000 000 000:  GT Quartz Temperature
 GTTN.NONE              00 000 000 000:  GT Test Number
 GTET.sec               00 000 000 000:  GT Elapsed Test Time
 GTTVD.m                00 000 000 000:  GT True Vertical Depth
#Other Information
#
#WARRANTY: Halliburton will use its best efforts to furnish customers with 
#accurate information and interpretations that are part of, and incident to, the services 
#provided.  However, Halliburton cannot and does not warrant the accuracy 
#or correctness of such information and interpretations.  Under no circumstances should any 
#such information or interpretation be relied upon as the sole basis for any drilling, 
#completion, production, or financial decision or any procedure involving any risk to the 
#safety of any drilling venture, drilling rig or its crew or any other third party.  The 
#Customer has full responsibility for all drilling, completion and production operation.  
#Halliburton makes no representations or warranties, either expressed or 
#implied, including, but not limited to, the implied warranties of merchantability or fitness 
#for a particular purpose, with respect to the services rendered.  In no event will 
#Halliburton be liable for failure to obtain any particular results or for 
#any damages, including, but not limited to, indirect, special or consequential damages, 
#resulting from the use of any information or interpretation provided by Halliburton.
#
~A           TIME           GTDEPTH  GTPQH  GTTQ  GTTN  GTET   GTTVD  
# ...
   06:08:20.591.17-Sep-2021 5057.50 5541.38 79.63 6.00 298.94 2583.80
   06:08:20.790.17-Sep-2021 5057.50 5541.38 79.63 6.00 299.14 2583.80
   06:08:20.990.17-Sep-2021 5057.50 5540.25 79.63 6.00 299.34 2583.80
   06:08:21.190.17-Sep-2021 5057.50 5542.71 79.63 6.00 299.54 2583.80
   06:08:21.390.17-Sep-2021 5057.50 5540.91 79.63 6.00 299.74 2583.80
   06:08:21.590.17-Sep-2021 5057.50 5544.70 79.63 6.00 299.94 2583.80
   06:08:21.790.17-Sep-2021 5057.50 5544.70 79.63 6.00 300.14 2583.80
   06:08:21.990.17-Sep-2021 5057.50 5539.26 79.63 6.00 300.34 2583.80
   06:08:22.190.17-Sep-2021 5057.50 5540.86 79.63 6.00 300.54 2583.80
   06:08:22.390.17-Sep-2021 5057.50 5540.94 79.63 6.00 300.74 2583.80
   06:08:22.590.17-Sep-2021 5057.50 5544.53 79.63 6.00 300.94 2583.80
   06:08:22.790.17-Sep-2021 5057.50 5544.53 79.63 6.00 301.14 2583.80
   06:08:22.990.17-Sep-2021 5057.50 5541.63 79.63 6.00 301.34 2583.80
   06:08:23.190.17-Sep-2021 5057.50 5541.64 79.63 6.00 301.54 2583.80
   06:08:23.390.17-Sep-2021 5057.50 5541.69 79.63 6.00 301.74 2583.80
   06:08:23.590.17-Sep-2021 5057.50 5541.00 79.63 6.00 301.94 2583.80
   06:08:23.790.17-Sep-2021 5057.50 5541.00 79.63 6.00 302.14 2583.80
   06:08:23.990.17-Sep-2021 5057.50 5541.36 79.63 6.00 302.34 2583.80
   06:08:24.190.17-Sep-2021 5057.50 5540.94 79.63 6.00 302.54 2583.80
   06:08:24.390.17-Sep-2021 5057.50 5541.51 79.63 6.00 302.74 2583.80
   06:08:24.590.17-Sep-2021 5057.50 5541.15 79.63 6.00 302.94 2583.80
   06:08:24.790.17-Sep-2021 5057.50 5541.15 79.63 6.00 303.14 2583.80
   06:08:24.990.17-Sep-2021 5057.50 5541.43 79.63 6.00 303.34 2583.80
   06:08:25.190.17-Sep-2021 5057.50 5541.56 79.63 6.00 303.54 2583.80
   06:08:25.389.17-Sep-2021 5057.50 5541.79 79.63 6.00 303.74 2583.80
   06:08:25.589.17-Sep-2021 5057.50 5541.60 79.63 6.00 303.94 2583.80
   06:08:25.789.17-Sep-2021 5057.50 5541.60 79.63 6.00 304.14 2583.80
   06:08:25.989.17-Sep-2021 5057.50 5544.32 79.63 6.00 304.34 2583.80
   06:08:26.189.17-Sep-2021 5057.50 5543.42 79.62 6.00 304.54 2583.80
   06:08:26.389.17-Sep-2021 5057.50 5541.90 79.62 6.00 304.74 2583.80
   06:08:26.589.17-Sep-2021 5057.50 5541.55 79.62 6.00 304.93 2583.80
   06:08:26.789.17-Sep-2021 5057.50 5541.55 79.62 6.00 305.13 2583.80
   06:08:26.989.17-Sep-2021 5057.50 5541.10 79.62 6.00 305.33 2583.80
   06:08:27.189.17-Sep-2021 5057.50 5541.04 79.62 6.00 305.53 2583.80
   06:08:27.389.17-Sep-2021 5057.50 5540.92 79.62 6.00 305.73 2583.80
   06:08:27.589.17-Sep-2021 5057.50 5540.85 79.62 6.00 305.93 2583.80
   06:08:27.789.17-Sep-2021 5057.50 5540.85 79.62 6.00 306.13 2583.80
   06:08:27.989.17-Sep-2021 5057.50 5541.03 79.62 6.00 306.33 2583.80
   06:08:28.189.17-Sep-2021 5057.50 5541.17 79.62 6.00 306.53 2583.80
   06:08:28.389.17-Sep-2021 5057.50 5541.29 79.62 6.00 306.73 2583.80
   06:08:28.589.17-Sep-2021 5057.50 5541.54 79.62 6.00 306.93 2583.80
   06:08:28.789.17-Sep-2021 5057.50 5541.54 79.62 6.00 307.13 2583.80
   06:08:28.989.17-Sep-2021 5057.50 5541.81 79.62 6.00 307.33 2583.80
   06:08:29.189.17-Sep-2021 5057.50 5545.52 79.62 6.00 307.53 2583.80
   06:08:29.389.17-Sep-2021 5057.50 5540.03 79.62 6.00 307.73 2583.80
   06:08:29.589.17-Sep-2021 5057.50 5543.51 79.62 6.00 307.93 2583.80
   06:08:29.789.17-Sep-2021 5057.50 5543.51 79.62 6.00 308.13 2583.80
   06:08:29.989.17-Sep-2021 5057.50 5541.72 79.62 6.00 308.33 2583.80
   06:08:30.188.17-Sep-2021 5057.50 5541.61 79.62 6.00 308.53 2583.80
   06:08:30.388.17-Sep-2021 5057.50 5541.88 79.62 6.00 308.73 2583.80
   06:08:30.588.17-Sep-2021 5057.50 5542.20 79.62 6.00 308.93 2583.80
   06:08:30.788.17-Sep-2021 5057.50 5542.20 79.62 6.00 309.13 2583.80
   06:08:30.988.17-Sep-2021 5057.50 5542.00 79.62 6.00 309.33 2583.80
   06:08:31.188.17-Sep-2021 5057.50 5541.33 79.62 6.00 309.53 2583.80
   06:08:31.388.17-Sep-2021 5057.50 5543.25 79.62 6.00 309.73 2583.80
   06:08:31.588.17-Sep-2021 5057.50 5540.39 79.62 6.00 309.93 2583.80
   06:08:31.788.17-Sep-2021 5057.50 5540.39 79.62 6.00 310.13 2583.80
   06:08:31.988.17-Sep-2021 5057.50 5540.92 79.61 6.00 310.33 2583.80
   06:08:32.188.17-Sep-2021 5057.50 5540.93 79.61 6.00 310.53 2583.80
   06:08:32.388.17-Sep-2021 5057.50 5544.92 79.61 6.00 310.73 2583.80
   06:08:32.588.17-Sep-2021 5057.50 5539.02 79.61 6.00 310.93 2583.80
   06:08:32.788.17-Sep-2021 5057.50 5539.02 79.61 6.00 311.13 2583.80
   06:08:32.988.17-Sep-2021 5057.50 5540.80 79.61 6.00 311.33 2583.80
   06:08:33.188.17-Sep-2021 5057.50 5541.09 79.61 6.00 311.53 2583.80
   06:08:33.388.17-Sep-2021 5057.50 5541.37 79.61 6.00 311.73 2583.80
   06:08:33.588.17-Sep-2021 5057.50 5540.78 79.61 6.00 311.93 2583.80
   06:08:33.788.17-Sep-2021 5057.50 5540.78 79.61 6.00 312.13 2583.80
   06:08:33.988.17-Sep-2021 5057.50 5540.91 79.61 6.00 312.33 2583.80
   06:08:34.188.17-Sep-2021 5057.50 5541.17 79.61 6.00 312.53 2583.80
   06:08:34.388.17-Sep-2021 5057.50 5541.05 79.61 6.00 312.73 2583.80
   06:08:34.588.17-Sep-2021 5057.50 5541.42 79.61 6.00 312.93 2583.80
   06:08:34.787.17-Sep-2021 5057.50 5541.42 79.61 6.00 313.13 2583.80
   06:08:34.987.17-Sep-2021 5057.50 5541.41 79.61 6.00 313.33 2583.80
   06:08:35.187.17-Sep-2021 5057.50 5541.53 79.61 6.00 313.53 2583.80
   06:08:35.387.17-Sep-2021 5057.50 5542.12 79.61 6.00 313.73 2583.80
   06:08:35.587.17-Sep-2021 5057.50 5543.11 79.61 6.00 313.93 2583.80
   06:08:35.787.17-Sep-2021 5057.50 5543.11 79.61 6.00 314.13 2583.80
   06:08:35.987.17-Sep-2021 5057.50 5542.82 79.61 6.00 314.33 2583.80
   06:08:36.187.17-Sep-2021 5057.50 5542.02 79.61 6.00 314.53 2583.80
   06:08:36.387.17-Sep-2021 5057.50 5541.23 79.61 6.00 314.73 2583.80
   06:08:36.587.17-Sep-2021 5057.50 5541.30 79.61 6.00 314.93 2583.80
   06:08:36.787.17-Sep-2021 5057.50 5541.30 79.61 6.00 315.13 2583.80
   06:08:36.987.17-Sep-2021 5057.50 5540.78 79.61 6.00 315.33 2583.80
   06:08:37.187.17-Sep-2021 5057.50 5540.74 79.61 6.00 315.53 2583.80
   06:08:37.387.17-Sep-2021 5057.50 5540.61 79.61 6.00 315.73 2583.80
   06:08:37.587.17-Sep-2021 5057.50 5540.86 79.61 6.00 315.93 2583.80
   06:08:37.787.17-Sep-2021 5057.50 5540.86 79.61 6.00 316.13 2583.80
   06:08:37.987.17-Sep-2021 5057.50 5540.99 79.60 6.00 316.33 2583.80
   06:08:38.187.17-Sep-2021 5057.50 5541.22 79.60 6.00 316.53 2583.80
   06:08:38.387.17-Sep-2021 5057.50 5541.25 79.60 6.00 316.73 2583.80
   06:08:38.587.17-Sep-2021 5057.50 5541.50 79.60 6.00 316.93 2583.80
   06:08:38.787.17-Sep-2021 5057.50 5541.50 79.60 6.00 317.13 2583.80
   06:08:38.987.17-Sep-2021 5057.50 5544.07 79.60 6.00 317.33 2583.80
   06:08:39.187.17-Sep-2021 5057.50 5541.09 79.60 6.00 317.53 2583.80
   06:08:39.386.17-Sep-2021 5057.50 5543.34 79.60 6.00 317.73 2583.80
   06:08:39.586.17-Sep-2021 5057.50 5541.71 79.60 6.00 317.93 2583.80
   06:08:39.786.17-Sep-2021 5057.50 5541.71 79.60 6.00 318.13 2583.80
   06:08:39.986.17-Sep-2021 5057.50 5541.56 79.60 6.00 318.33 2583.80
   06:08:40.186.17-Sep-2021 5057.50 5543.77 79.60 6.00 318.53 2583.80
   06:08:40.386.17-Sep-2021 5057.50 5539.51 79.60 6.00 318.73 2583.80
   06:08:40.586.17-Sep-2021 5057.50 5541.18 79.60 6.00 318.93 2583.80
   06:08:40.786.17-Sep-2021 5057.50 5541.18 79.60 6.00 319.13 2583.80
   06:08:40.986.17-Sep-2021 5057.50 5542.02 79.60 6.00 319.33 2583.80
   06:08:41.186.17-Sep-2021 5057.50 5542.03 79.60 6.00 319.53 2583.80
   06:08:41.386.17-Sep-2021 5057.50 5540.46 79.60 6.00 319.73 2583.80
   06:08:41.586.17-Sep-2021 5057.50 5541.67 79.60 6.00 319.93 2583.80
   06:08:41.786.17-Sep-2021 5057.50 5541.67 79.60 6.00 320.13 2583.80
   06:08:41.986.17-Sep-2021 5057.50 5540.61 79.60 6.00 320.33 2583.80
   06:08:42.186.17-Sep-2021 5057.50 5543.42 79.60 6.00 320.53 2583.80
   06:08:42.386.17-Sep-2021 5057.50 5540.25 79.60 6.00 320.73 2583.80
   06:08:42.586.17-Sep-2021 5057.50 5542.17 79.60 6.00 320.93 2583.80
   06:08:42.786.17-Sep-2021 5057.50 5542.17 79.60 6.00 321.13 2583.80
   06:08:42.986.17-Sep-2021 5057.50 5540.68 79.60 6.00 321.33 2583.80
   06:08:43.186.17-Sep-2021 5057.50 5541.21 79.60 6.00 321.53 2583.80
   06:08:43.386.17-Sep-2021 5057.50 5540.54 79.60 6.00 321.73 2583.80
