~Version Information
 VERS.                  2.0:   CWLS log ASCII Standard -VERSION 2.0
 WRAP.                   NO:   One line per depth step
~Well Information Block
#MNEM.UNIT     VALUE/NAME     DESCRIPTION
#---------     -----------    ---------------------------
 STRT.S             06:26:37 17-Sep-21: START TIME 06:26:37 17-Sep-21
 STOP.S             06:35:42 17-Sep-21: STOP TIME  06:35:42 17-Sep-21
 STEP.S                   0.00: STEP TIME
 NULL.                 -999.25: NULL VALUE
 DFWT.                        :  DIST FWL TEXT
 DFST.                        :  DIST FSL TEXT
 DMF .             Drill Floor:  DRILL MEAS FROM
 STIM.      10.59.12 05-Jul-21:  START TIME
 DATE.      10.59.12 10-Sep-21:  END TIME
 SPUD.               05-Jul-21:  SPUD DATE
 NREF.                    Grid:  NORTH REFERENCE
 HPTY.       Minimum Curvature:  HOLE POS TYPE
 DMOD.             Drill Model:  DRILL MOD DESC
 SVYD.                  Survey:  SURVEY DESC
 ILTD.               Lithology:  INTERP LTH DESC
 FTOP.          Formation Tops:  FORM TOPS DESC
 RIG .                     DWG:  RIG NAME
 PDAT.          Mean Sea Level:  PERMANENT DATUM
 FLD .                     ACG:  FIELD NAME
 SON .        AZ-XX-0907115008:  JOB NUMBER
 CTRY.              Azerbaijan:  COUNTRY NAME
 WELL.                    E35A:  WELL NAME
 SRVC.          TURAN DRILLING:  CONTRACTOR
 COMP.     BP Exploration (Caspian Sea LTD):  COMPANY
 UWI .                     N/A:  UNIQUE WELL IDENTIFIER
 API .                     N/A:  API NUMBER
 MDS .        Operator Entered:  MAG DATA SOURCE
 BASE.              Azerbaijan:  LOGGING EQUIPMENT BASE LOCATION
 REGN.                   EESSA:  REGION
 PROV.                    Baku:  PROVINCE
 STAT.                    Baku:  STATE NAME
 MWDS.                    Baku:  MWD SHOP
 JOBN.        AZ-XX-0907115008:  JOB TICKET NUMB
 DOE .                     N/A:  DOE NUMBER
 DCON.         Sperry Drilling:  DIRECTNL CONTR
 UNIT.                     N/A:  LOGGING EQUIPMENT ID
 WTYP.                Deviated:  WELL TYPE
 CNTY.                        :  COUNTY
 LOC .                        :  LOCATION
 LMF .             Drill Floor:  LOG MEASURED FROM
 TVDS.m                  43.16:  TVDSS CORRECTN
 LATI.deg                40.17:  LATITUDE
 LONG.deg                51.17:  LONGITUDE
 WHNS.m                  10.51:  WELL HEAD N/S
 WHEW.m                 -14.82:  WELL HEAD E/W
 UTMX.m              514336.92:  UTM X
 UTMY.m             4448618.56:  UTM Y
 DFWL.m                   0.00:  DISTANCE FWL
 DFSL.m                   0.00:  DISTANCE FSL
 SDEP.m                 849.00:  START DEPTH
 TDD .m                2862.00:  TOTAL DEPTH (DRILLER)
 VSDR.deg               292.10:  VERT SEC DIRECT
 GVFD.g                   1.00:  GRAVITY FIELD
 MFLD.nT              50382.00:  MAGNETIC FIELD
 MDIP.deg                59.68:  MAGNETIC DIP
 MDEC.deg                 6.66:  MAGNETIC DECL
 GRDC.deg                 0.09:  GRID CORRECTION
 AZTC.deg                 6.57:  AZM TOTAL CORR
 EPD .m                   0.00:  ELEVATION
 EGL .m                   0.00:  GROUND ELEVATION
 WDMS.m                 176.20:  WD ELEV
 APD .m                  43.16:  DEPTH ABOVE PD
 DEP .m                 363.42:  DEPTH
 AGAP.m                  43.16:  AIR GAP
 VSEW.m                 -14.82:  VERT SEC E/W
 VSNS.m                  10.51:  VERT SEC N/S
 EKB .m                  43.16:  KB ELEVATION
 EDF .m                  43.16:  DF ELEVATION
 TDL .m                1390.00:  TOTAL DEPTH (LOGGER)
 VSC .                       0:  VS TO CLOSURE
 MAGU.                 1855871:  MAGUTM CHECKSUM
~Parameter Information Block
#MNEM.UNIT       Value        Description
#---------     -----------    ---------------------------
 AV  .mps                 2.28:  Ann Velocity 
 AVMX.mps                 2.67:  Max Ann Veloc 
 AZIF.deg               305.00:  Azm, Final 
 BHAT.        Rotary Steerable:  BHA Type 
 BROT.°/30m               0.45:  Build Rotating 
 BS  .in                 12.25:  Bit Size 
 BSZ .in                 12.25:  Bit Size 
 BTPL.psig              600.00:  Bit Press Loss 
 CABU.                     Yes:  Customer Abuse 
 COMM.                     D5N:  Run Comments 1 
 TCS .hr                150.00:  Time Ciculation Ended 
 CV  .mps                 1.24:  Crit Velocity 
 CVMX.mps                 1.66:  Max Crit Veloc 
 DD1 .         Intigam Rahimov:  Direct Drillr 1 
 DD2 .            Azer Ravavov:  Direct Drillr 2 
 DD3 .              Samir Abas:  Direct Drillr 3 
 DDSV.               Geo-Pilot:  DD Service 
 DEFF.%                 100.00:  % Det Eff 
 DLRX.°/30m               1.57:  Dogleg Rot Max 
 DLSO.°/30m               0.00:  Dogleg Oriented 
 DLSX.°/30m               0.00:  Dogleg Str Max 
 DRET.      20.28.06 17-Sep-21:  Drill End Time 
 DRST.      20.27.35 10-Sep-21:  Drill Start Tim 
 DTIM.hr                 54.00:  Time Drilling 
 EDEP.m                5260.00:  End Depth 
 ENG1.      Bakhtiyar Jabbarli:  Engineer 1 
 ENG2.      Natik Hasanaghayev:  Engineer 2 
 ENG3.           Royal Nasirov:  Engineer 3 
 ETIM.      20.27.55 18-Sep-21:  End Time 
 FLOI.gpm              1100.00:  Flow In 
 FLON.gpm               800.00:  Flow In Min 
 FLOS.cptm                0.00:  Fluid Loss 
 FLOX.gpm              1200.00:  Flow In Max 
 DFT .        Mineral Oil Base:  Mud Type 
 HPRE.                      No:  High Pressure 
 HTEM.                      No:  High Temp 
 HYDO.m                   1.80:  Hydro Offset 
 IFIN.deg                72.31:  Inc, Final 
 IMAX.deg                72.36:  Inc Max 
 IMIN.deg                69.36:  Inc Min 
 IMND.m                4192.96:  Inc Min Depth 
 IMXD.m                5128.36:  Inc Max Depth 
 JARR.                      No:  Jarring 
 LETM.      20.29.00 17-Sep-21:  Log End Time 
 LOST.hr                     0:  Lost Rig Time 
 LSTM.      20.27.00 10-Sep-21:  Log Start Time 
 MDCL.ppm            227000.00:  Mud Chlorides 
 MDES.     Inversion Oil/Synthetic:  Mud Desc 
 DFD .sg                  1.45:  Mud Density 
 MDMN.sg                  1.45:  Dens Mud Min 
 MDMX.sg                  1.45:  Dens Mud Max 
 MOIL.                    70.5:  Run Mud Oil % 
 MOWR.                   71:29:  Run Mud OWR 
 MSND.                     0.3:  Run Mud Sand % 
 MSOL.                    19.8:  Run Mud Solids% 
 DFV .spqt               80.00:  Mud Viscosity 
 MWOD.in                  8.00:  MWD Tool OD 
 MWSI.                     Yes:  Serv Intrp, MWD 
 OTIM.hr                180.00:  Time Operating 
 PCON.           Look Like New:  Pad Condition 
 PMAX.psia             9910.94:  Press Op, Max 
 PV  .cP                 35.00:  Mud PV 
 RUN .                    1000:  Run Number 
 ROPA.m/hr               18.00:  ROP Avg 
 ROPN.m/hr                8.00:  ROP Min 
 ROPX.m/hr               23.00:  ROP Max 
 RPMA.rpm               150.00:  RPM Surface Avg 
 RPMN.rpm               120.00:  RPM Surface Min 
 RPMX.rpm               160.00:  RPM Surface Max 
 RRUN.                    L503:  Rig Run Number 
 RTIM.hr                  5.00:  Time Reaming 
 SAZI.deg               298.42:  Azm, Start 
 SDEP.m                3870.00:  Start Depth 
 SIDD.                      No:  Serv Intrp, DD 
 SINC.deg                69.57:  Inc, Start 
 SPPA.psig             5500.00:  SPP Avg 
 SPPN.psig             4400.00:  SPP Min 
 SPPX.psig             5800.00:  SPP Max 
 STIM.      15.29.39 09-Sep-21:  Start Time 
 SVCS.                 DD, MWD:  Services 
 SVER.                    9.20:  Sperry Version 
 TDAT.m                5260.00:  Tot Depth Attmp 
 TDDF.                      No:  Trip for DD 
 TDLG.m                1390.00:  Tot Depth Loggd 
 TFF .                      No:  Trip for Fail 
 TQAA.f-kp               22.00:  Torque Abs Avg 
 TQAN.f-kp               13.00:  Torque Abs Min 
 TQAX.f-kp               27.00:  Torque Abs Max 
 TRRT.°/30m               1.60:  Turn Rotating 
 MRT .                  EWR-M5:  Maximum Recorded Temperature 
 TTMX.degC               92.00:  Max Tool Temp 
 VS01.                12330975:  Virtual Str1 SN 
 VS02.                90658671:  Virtual Str2 SN 
 VS03.                90658508:  Virtual Str3 SN 
 VS04.                90660974:  Virtual Str4 SN 
 VS05.                90654675:  Virtual Str5 SN 
 WBMN.klb                15.00:  WOB Min 
 WITN.     Alexander Yadullayev:  Customer Rep 
 WITN.           Adil Mammadov:  Customer Rep 2 
 WOBA.klb                17.00:  WOB Avg 
 WOBX.klb                18.00:  WOB Max 
 YP  .lhf2               31.00:  Yield Point 
~Curve Information Block
#MNEM.UNIT                 API CODE     Curve Description
#---------               -----------    ---------------------------
 TIME.HHMMSS            00 000 000 000:  GT Time & Date
 GTDEPTH.m              00 000 000 000:  GT Depth
 GTPQH.psia             00 000 000 000:  GT HR Quartz Pressure
 GTTQ.degC              00 000 000 000:  GT Quartz Temperature
 GTTN.NONE              00 000 000 000:  GT Test Number
 GTET.sec               00 000 000 000:  GT Elapsed Test Time
 GTTVD.m                00 000 000 000:  GT True Vertical Depth
#Other Information
#
#WARRANTY: Halliburton will use its best efforts to furnish customers with 
#accurate information and interpretations that are part of, and incident to, the services 
#provided.  However, Halliburton cannot and does not warrant the accuracy 
#or correctness of such information and interpretations.  Under no circumstances should any 
#such information or interpretation be relied upon as the sole basis for any drilling, 
#completion, production, or financial decision or any procedure involving any risk to the 
#safety of any drilling venture, drilling rig or its crew or any other third party.  The 
#Customer has full responsibility for all drilling, completion and production operation.  
#Halliburton makes no representations or warranties, either expressed or 
#implied, including, but not limited to, the implied warranties of merchantability or fitness 
#for a particular purpose, with respect to the services rendered.  In no event will 
#Halliburton be liable for failure to obtain any particular results or for 
#any damages, including, but not limited to, indirect, special or consequential damages, 
#resulting from the use of any information or interpretation provided by Halliburton.
#
~A           TIME           GTDEPTH  GTPQH  GTTQ  GTTN  GTET   GTTVD  
# ...
   06:27:46.342.17-Sep-2021 5057.00 1521.56 78.63 7.00  68.99 2583.65
   06:27:46.542.17-Sep-2021 5057.00 1521.56 78.63 7.00  69.19 2583.65
   06:27:46.742.17-Sep-2021 5057.00 1466.96 78.62 7.00  69.39 2583.65
   06:27:46.942.17-Sep-2021 5057.00 1443.10 78.62 7.00  69.59 2583.65
   06:27:47.142.17-Sep-2021 5057.00 1444.93 78.62 7.00  69.79 2583.65
   06:27:47.342.17-Sep-2021 5057.00 1461.82 78.61 7.00  69.99 2583.65
   06:27:47.542.17-Sep-2021 5057.00 1461.82 78.61 7.00  70.19 2583.65
   06:27:47.742.17-Sep-2021 5057.00 1398.07 78.61 7.00  70.38 2583.65
   06:27:47.942.17-Sep-2021 5057.00 1380.25 78.61 7.00  70.58 2583.65
   06:27:48.142.17-Sep-2021 5057.00 1372.02 78.61 7.00  70.78 2583.65
   06:27:48.342.17-Sep-2021 5057.00 1366.03 78.60 7.00  70.98 2583.65
   06:27:48.542.17-Sep-2021 5057.00 1366.03 78.60 7.00  71.18 2583.65
   06:27:48.741.17-Sep-2021 5057.00 1363.78 78.60 7.00  71.38 2583.65
   06:27:48.941.17-Sep-2021 5057.00 1368.06 78.60 7.00  71.58 2583.65
   06:27:49.141.17-Sep-2021 5057.00 1375.76 78.60 7.00  71.78 2583.65
   06:27:49.341.17-Sep-2021 5057.00 1326.42 78.60 7.00  71.98 2583.65
   06:27:49.541.17-Sep-2021 5057.00 1326.42 78.60 7.00  72.18 2583.65
   06:27:49.741.17-Sep-2021 5057.00 1278.62 78.59 7.00  72.38 2583.65
   06:27:49.941.17-Sep-2021 5057.00 1299.30 78.59 7.00  72.58 2583.65
   06:27:50.141.17-Sep-2021 5057.00 1321.29 78.59 7.00  72.78 2583.65
   06:27:50.341.17-Sep-2021 5057.00 1341.90 78.59 7.00  72.98 2583.65
   06:27:50.541.17-Sep-2021 5057.00 1341.90 78.59 7.00  73.18 2583.65
   06:27:50.741.17-Sep-2021 5057.00 1378.98 78.59 7.00  73.38 2583.65
   06:27:50.941.17-Sep-2021 5057.00 1395.59 78.58 7.00  73.58 2583.65
   06:27:51.141.17-Sep-2021 5057.00 1413.31 78.58 7.00  73.78 2583.65
   06:27:51.341.17-Sep-2021 5057.00 1430.65 78.58 7.00  73.98 2583.65
   06:27:51.541.17-Sep-2021 5057.00 1430.65 78.58 7.00  74.18 2583.65
   06:27:51.741.17-Sep-2021 5057.00 1461.39 78.58 7.00  74.38 2583.65
   06:27:51.941.17-Sep-2021 5057.00 1476.16 78.58 7.00  74.58 2583.65
   06:27:52.141.17-Sep-2021 5057.00 1490.99 78.58 7.00  74.78 2583.65
   06:27:52.341.17-Sep-2021 5057.00 1504.86 78.58 7.00  74.98 2583.65
   06:27:52.541.17-Sep-2021 5057.00 1504.86 78.58 7.00  75.18 2583.65
   06:27:52.741.17-Sep-2021 5057.00 1531.92 78.57 7.00  75.38 2583.65
   06:27:52.941.17-Sep-2021 5057.00 1544.79 78.57 7.00  75.58 2583.65
   06:27:53.141.17-Sep-2021 5057.00 1557.28 78.57 7.00  75.78 2583.65
   06:27:53.341.17-Sep-2021 5057.00 1569.61 78.57 7.00  75.98 2583.65
   06:27:53.540.17-Sep-2021 5057.00 1569.61 78.57 7.00  76.18 2583.65
   06:27:53.740.17-Sep-2021 5057.00 1593.58 78.57 7.00  76.38 2583.65
   06:27:53.940.17-Sep-2021 5057.00 1605.42 78.57 7.00  76.58 2583.65
   06:27:54.140.17-Sep-2021 5057.00 1617.59 78.57 7.00  76.78 2583.65
   06:27:54.340.17-Sep-2021 5057.00 1630.23 78.57 7.00  76.98 2583.65
   06:27:54.540.17-Sep-2021 5057.00 1630.23 78.57 7.00  77.18 2583.65
   06:27:54.740.17-Sep-2021 5057.00 1653.80 78.57 7.00  77.38 2583.65
   06:27:54.940.17-Sep-2021 5057.00 1665.58 78.57 7.00  77.58 2583.65
   06:27:55.140.17-Sep-2021 5057.00 1676.65 78.57 7.00  77.78 2583.65
   06:27:55.340.17-Sep-2021 5057.00 1687.42 78.57 7.00  77.98 2583.65
   06:27:55.540.17-Sep-2021 5057.00 1687.42 78.57 7.00  78.18 2583.65
   06:27:55.740.17-Sep-2021 5057.00 1708.53 78.57 7.00  78.38 2583.65
   06:27:55.940.17-Sep-2021 5057.00 1718.80 78.57 7.00  78.58 2583.65
   06:27:56.140.17-Sep-2021 5057.00 1728.81 78.57 7.00  78.78 2583.65
   06:27:56.340.17-Sep-2021 5057.00 1738.60 78.57 7.00  78.98 2583.65
   06:27:56.540.17-Sep-2021 5057.00 1738.60 78.57 7.00  79.18 2583.65
   06:27:56.740.17-Sep-2021 5057.00 1757.68 78.57 7.00  79.38 2583.65
   06:27:56.940.17-Sep-2021 5057.00 1767.08 78.57 7.00  79.58 2583.65
   06:27:57.140.17-Sep-2021 5057.00 1776.22 78.57 7.00  79.78 2583.65
   06:27:57.340.17-Sep-2021 5057.00 1785.43 78.57 7.00  79.98 2583.65
   06:27:57.540.17-Sep-2021 5057.00 1785.43 78.57 7.00  80.18 2583.65
   06:27:57.740.17-Sep-2021 5057.00 1805.11 78.57 7.00  80.38 2583.65
   06:27:57.940.17-Sep-2021 5057.00 1813.89 78.57 7.00  80.58 2583.65
   06:27:58.139.17-Sep-2021 5057.00 1822.66 78.57 7.00  80.78 2583.65
   06:27:58.339.17-Sep-2021 5057.00 1831.85 78.57 7.00  80.98 2583.65
   06:27:58.539.17-Sep-2021 5057.00 1831.85 78.57 7.00  81.18 2583.65
   06:27:58.739.17-Sep-2021 5057.00 1848.91 78.57 7.00  81.38 2583.65
   06:27:58.939.17-Sep-2021 5057.00 1857.29 78.57 7.00  81.58 2583.65
   06:27:59.139.17-Sep-2021 5057.00 1865.48 78.57 7.00  81.78 2583.65
   06:27:59.339.17-Sep-2021 5057.00 1873.93 78.57 7.00  81.98 2583.65
   06:27:59.539.17-Sep-2021 5057.00 1873.93 78.57 7.00  82.18 2583.65
   06:27:59.739.17-Sep-2021 5057.00 1889.79 78.57 7.00  82.38 2583.65
   06:27:59.939.17-Sep-2021 5057.00 1898.93 78.57 7.00  82.58 2583.65
   06:28:00.139.17-Sep-2021 5057.00 1906.26 78.57 7.00  82.78 2583.65
   06:28:00.339.17-Sep-2021 5057.00 1913.80 78.57 7.00  82.98 2583.65
   06:28:00.539.17-Sep-2021 5057.00 1913.80 78.57 7.00  83.18 2583.65
   06:28:00.739.17-Sep-2021 5057.00 1929.55 78.57 7.00  83.38 2583.65
   06:28:00.939.17-Sep-2021 5057.00 1936.74 78.58 7.00  83.58 2583.65
   06:28:01.139.17-Sep-2021 5057.00 1944.82 78.58 7.00  83.78 2583.65
   06:28:01.339.17-Sep-2021 5057.00 1952.25 78.58 7.00  83.98 2583.65
   06:28:01.539.17-Sep-2021 5057.00 1952.25 78.58 7.00  84.18 2583.65
   06:28:01.739.17-Sep-2021 5057.00 1966.30 78.58 7.00  84.38 2583.65
   06:28:01.939.17-Sep-2021 5057.00 1973.78 78.58 7.00  84.58 2583.65
   06:28:02.139.17-Sep-2021 5057.00 1980.75 78.58 7.00  84.78 2583.65
   06:28:02.339.17-Sep-2021 5057.00 1987.82 78.58 7.00  84.98 2583.65
   06:28:02.539.17-Sep-2021 5057.00 1987.82 78.58 7.00  85.18 2583.65
   06:28:02.739.17-Sep-2021 5057.00 2002.83 78.58 7.00  85.38 2583.65
   06:28:02.938.17-Sep-2021 5057.00 2009.93 78.58 7.00  85.58 2583.65
   06:28:03.138.17-Sep-2021 5057.00 2016.80 78.58 7.00  85.78 2583.65
   06:28:03.338.17-Sep-2021 5057.00 2023.55 78.58 7.00  85.98 2583.65
   06:28:03.538.17-Sep-2021 5057.00 2023.55 78.58 7.00  86.18 2583.65
   06:28:03.738.17-Sep-2021 5057.00 2030.36 78.58 7.00  86.38 2583.65
   06:28:03.938.17-Sep-2021 5057.00 2043.38 78.58 7.00  86.58 2583.65
   06:28:04.138.17-Sep-2021 5057.00 2050.39 78.58 7.00  86.78 2583.65
   06:28:04.338.17-Sep-2021 5057.00 2058.84 78.58 7.00  86.98 2583.65
   06:28:04.538.17-Sep-2021 5057.00 2058.84 78.58 7.00  87.18 2583.65
   06:28:04.738.17-Sep-2021 5057.00 2070.19 78.58 7.00  87.38 2583.65
   06:28:04.938.17-Sep-2021 5057.00 2076.31 78.58 7.00  87.58 2583.65
   06:28:05.138.17-Sep-2021 5057.00 2082.48 78.58 7.00  87.78 2583.65
   06:28:05.338.17-Sep-2021 5057.00 2088.82 78.59 7.00  87.98 2583.65
   06:28:05.538.17-Sep-2021 5057.00 2088.82 78.59 7.00  88.18 2583.65
   06:28:05.738.17-Sep-2021 5057.00 2101.03 78.59 7.00  88.38 2583.65
   06:28:05.938.17-Sep-2021 5057.00 2106.86 78.59 7.00  88.58 2583.65
   06:28:06.138.17-Sep-2021 5057.00 2112.95 78.59 7.00  88.78 2583.65
   06:28:06.338.17-Sep-2021 5057.00 2118.99 78.59 7.00  88.98 2583.65
   06:28:06.538.17-Sep-2021 5057.00 2118.99 78.59 7.00  89.18 2583.65
   06:28:06.738.17-Sep-2021 5057.00 2131.15 78.59 7.00  89.38 2583.65
   06:28:06.938.17-Sep-2021 5057.00 2136.84 78.59 7.00  89.58 2583.65
   06:28:07.138.17-Sep-2021 5057.00 2142.32 78.59 7.00  89.78 2583.65
   06:28:07.338.17-Sep-2021 5057.00 2148.13 78.59 7.00  89.98 2583.65
   06:28:07.537.17-Sep-2021 5057.00 2148.13 78.59 7.00  90.18 2583.65
   06:28:07.737.17-Sep-2021 5057.00 2160.53 78.59 7.00  90.38 2583.65
   06:28:07.937.17-Sep-2021 5057.00 2165.76 78.59 7.00  90.58 2583.65
   06:28:08.137.17-Sep-2021 5057.00 2171.57 78.59 7.00  90.78 2583.65
   06:28:08.337.17-Sep-2021 5057.00 2177.41 78.59 7.00  90.98 2583.65
   06:28:08.537.17-Sep-2021 5057.00 2177.41 78.59 7.00  91.18 2583.65
   06:28:08.737.17-Sep-2021 5057.00 2187.17 78.59 7.00  91.38 2583.65
   06:28:08.937.17-Sep-2021 5057.00 2192.91 78.59 7.00  91.58 2583.65
   06:28:09.137.17-Sep-2021 5057.00 2198.26 78.59 7.00  91.78 2583.65
