~Version Information
 VERS.                  2.0:   CWLS log ASCII Standard -VERSION 2.0
 WRAP.                   NO:   One line per depth step
~Well Information Block
#MNEM.UNIT     VALUE/NAME     DESCRIPTION
#---------     -----------    ---------------------------
 STRT.S             11:33:10 17-Sep-21: START TIME 11:33:10 17-Sep-21
 STOP.S             11:40:20 17-Sep-21: STOP TIME  11:40:20 17-Sep-21
 STEP.S                   0.00: STEP TIME
 NULL.                 -999.25: NULL VALUE
 DFWT.                        :  DIST FWL TEXT
 DFST.                        :  DIST FSL TEXT
 DMF .             Drill Floor:  DRILL MEAS FROM
 STIM.      10.59.12 05-Jul-21:  START TIME
 DATE.      10.59.12 10-Sep-21:  END TIME
 SPUD.               05-Jul-21:  SPUD DATE
 NREF.                    Grid:  NORTH REFERENCE
 HPTY.       Minimum Curvature:  HOLE POS TYPE
 DMOD.             Drill Model:  DRILL MOD DESC
 SVYD.                  Survey:  SURVEY DESC
 ILTD.               Lithology:  INTERP LTH DESC
 FTOP.          Formation Tops:  FORM TOPS DESC
 RIG .                     DWG:  RIG NAME
 PDAT.          Mean Sea Level:  PERMANENT DATUM
 FLD .                     ACG:  FIELD NAME
 SON .        AZ-XX-0907115008:  JOB NUMBER
 CTRY.              Azerbaijan:  COUNTRY NAME
 WELL.                    E35A:  WELL NAME
 SRVC.          TURAN DRILLING:  CONTRACTOR
 COMP.     BP Exploration (Caspian Sea LTD):  COMPANY
 UWI .                     N/A:  UNIQUE WELL IDENTIFIER
 API .                     N/A:  API NUMBER
 MDS .        Operator Entered:  MAG DATA SOURCE
 BASE.              Azerbaijan:  LOGGING EQUIPMENT BASE LOCATION
 REGN.                   EESSA:  REGION
 PROV.                    Baku:  PROVINCE
 STAT.                    Baku:  STATE NAME
 MWDS.                    Baku:  MWD SHOP
 JOBN.        AZ-XX-0907115008:  JOB TICKET NUMB
 DOE .                     N/A:  DOE NUMBER
 DCON.         Sperry Drilling:  DIRECTNL CONTR
 UNIT.                     N/A:  LOGGING EQUIPMENT ID
 WTYP.                Deviated:  WELL TYPE
 CNTY.                        :  COUNTY
 LOC .                        :  LOCATION
 LMF .             Drill Floor:  LOG MEASURED FROM
 TVDS.m                  43.16:  TVDSS CORRECTN
 LATI.deg                40.17:  LATITUDE
 LONG.deg                51.17:  LONGITUDE
 WHNS.m                  10.51:  WELL HEAD N/S
 WHEW.m                 -14.82:  WELL HEAD E/W
 UTMX.m              514336.92:  UTM X
 UTMY.m             4448618.56:  UTM Y
 DFWL.m                   0.00:  DISTANCE FWL
 DFSL.m                   0.00:  DISTANCE FSL
 SDEP.m                 849.00:  START DEPTH
 TDD .m                2862.00:  TOTAL DEPTH (DRILLER)
 VSDR.deg               292.10:  VERT SEC DIRECT
 GVFD.g                   1.00:  GRAVITY FIELD
 MFLD.nT              50382.00:  MAGNETIC FIELD
 MDIP.deg                59.68:  MAGNETIC DIP
 MDEC.deg                 6.66:  MAGNETIC DECL
 GRDC.deg                 0.09:  GRID CORRECTION
 AZTC.deg                 6.57:  AZM TOTAL CORR
 EPD .m                   0.00:  ELEVATION
 EGL .m                   0.00:  GROUND ELEVATION
 WDMS.m                 176.20:  WD ELEV
 APD .m                  43.16:  DEPTH ABOVE PD
 DEP .m                 363.42:  DEPTH
 AGAP.m                  43.16:  AIR GAP
 VSEW.m                 -14.82:  VERT SEC E/W
 VSNS.m                  10.51:  VERT SEC N/S
 EKB .m                  43.16:  KB ELEVATION
 EDF .m                  43.16:  DF ELEVATION
 TDL .m                1390.00:  TOTAL DEPTH (LOGGER)
 VSC .                       0:  VS TO CLOSURE
 MAGU.                 1855871:  MAGUTM CHECKSUM
~Parameter Information Block
#MNEM.UNIT       Value        Description
#---------     -----------    ---------------------------
 AV  .mps                 2.28:  Ann Velocity 
 AVMX.mps                 2.67:  Max Ann Veloc 
 AZIF.deg               305.00:  Azm, Final 
 BHAT.        Rotary Steerable:  BHA Type 
 BROT.°/30m               0.45:  Build Rotating 
 BS  .in                 12.25:  Bit Size 
 BSZ .in                 12.25:  Bit Size 
 BTPL.psig              600.00:  Bit Press Loss 
 CABU.                     Yes:  Customer Abuse 
 COMM.                     Á~:  Run Comments 1 
 TCS .hr                150.00:  Time Ciculation Ended 
 CV  .mps                 1.24:  Crit Velocity 
 CVMX.mps                 1.66:  Max Crit Veloc 
 DD1 .         Intigam Rahimov:  Direct Drillr 1 
 DD2 .            Azer Ravavov:  Direct Drillr 2 
 DD3 .              Samir Abas:  Direct Drillr 3 
 DDSV.               Geo-Pilot:  DD Service 
 DEFF.%                 100.00:  % Det Eff 
 DLRX.°/30m               1.57:  Dogleg Rot Max 
 DLSO.°/30m               0.00:  Dogleg Oriented 
 DLSX.°/30m               0.00:  Dogleg Str Max 
 DRET.      20.28.06 17-Sep-21:  Drill End Time 
 DRST.      20.27.35 10-Sep-21:  Drill Start Tim 
 DTIM.hr                 54.00:  Time Drilling 
 EDEP.m                5260.00:  End Depth 
 ENG1.      Bakhtiyar Jabbarli:  Engineer 1 
 ENG2.      Natik Hasanaghayev:  Engineer 2 
 ENG3.           Royal Nasirov:  Engineer 3 
 ETIM.      20.27.55 18-Sep-21:  End Time 
 FLOI.gpm              1100.00:  Flow In 
 FLON.gpm               800.00:  Flow In Min 
 FLOS.cptm                0.00:  Fluid Loss 
 FLOX.gpm              1200.00:  Flow In Max 
 DFT .        Mineral Oil Base:  Mud Type 
 HPRE.                      No:  High Pressure 
 HTEM.                      No:  High Temp 
 HYDO.m                   1.80:  Hydro Offset 
 IFIN.deg                72.31:  Inc, Final 
 IMAX.deg                72.36:  Inc Max 
 IMIN.deg                69.36:  Inc Min 
 IMND.m                4192.96:  Inc Min Depth 
 IMXD.m                5128.36:  Inc Max Depth 
 JARR.                      No:  Jarring 
 LETM.      20.29.00 17-Sep-21:  Log End Time 
 LOST.hr                     0:  Lost Rig Time 
 LSTM.      20.27.00 10-Sep-21:  Log Start Time 
 MDCL.ppm            227000.00:  Mud Chlorides 
 MDES.     Inversion Oil/Synthetic:  Mud Desc 
 DFD .sg                  1.45:  Mud Density 
 MDMN.sg                  1.45:  Dens Mud Min 
 MDMX.sg                  1.45:  Dens Mud Max 
 MOIL.                    70.5:  Run Mud Oil % 
 MOWR.                   71:29:  Run Mud OWR 
 MSND.                     0.3:  Run Mud Sand % 
 MSOL.                    19.8:  Run Mud Solids% 
 DFV .spqt               80.00:  Mud Viscosity 
 MWOD.in                  8.00:  MWD Tool OD 
 MWSI.                     Yes:  Serv Intrp, MWD 
 OTIM.hr                180.00:  Time Operating 
 PCON.           Look Like New:  Pad Condition 
 PMAX.psia             9910.94:  Press Op, Max 
 PV  .cP                 35.00:  Mud PV 
 RUN .                    1000:  Run Number 
 ROPA.m/hr               18.00:  ROP Avg 
 ROPN.m/hr                8.00:  ROP Min 
 ROPX.m/hr               23.00:  ROP Max 
 RPMA.rpm               150.00:  RPM Surface Avg 
 RPMN.rpm               120.00:  RPM Surface Min 
 RPMX.rpm               160.00:  RPM Surface Max 
 RRUN.                    L503:  Rig Run Number 
 RTIM.hr                  5.00:  Time Reaming 
 SAZI.deg               298.42:  Azm, Start 
 SDEP.m                3870.00:  Start Depth 
 SIDD.                      No:  Serv Intrp, DD 
 SINC.deg                69.57:  Inc, Start 
 SPPA.psig             5500.00:  SPP Avg 
 SPPN.psig             4400.00:  SPP Min 
 SPPX.psig             5800.00:  SPP Max 
 STIM.      15.29.39 09-Sep-21:  Start Time 
 SVCS.                 DD, MWD:  Services 
 SVER.                    9.20:  Sperry Version 
 TDAT.m                5260.00:  Tot Depth Attmp 
 TDDF.                      No:  Trip for DD 
 TDLG.m                1390.00:  Tot Depth Loggd 
 TFF .                      No:  Trip for Fail 
 TQAA.f-kp               22.00:  Torque Abs Avg 
 TQAN.f-kp               13.00:  Torque Abs Min 
 TQAX.f-kp               27.00:  Torque Abs Max 
 TRRT.°/30m               1.60:  Turn Rotating 
 MRT .                  EWR-M5:  Maximum Recorded Temperature 
 TTMX.degC               92.00:  Max Tool Temp 
 VS01.                12330975:  Virtual Str1 SN 
 VS02.                90658671:  Virtual Str2 SN 
 VS03.                90658508:  Virtual Str3 SN 
 VS04.                90660974:  Virtual Str4 SN 
 VS05.                90654675:  Virtual Str5 SN 
 WBMN.klb                15.00:  WOB Min 
 WITN.     Alexander Yadullayev:  Customer Rep 
 WITN.           Adil Mammadov:  Customer Rep 2 
 WOBA.klb                17.00:  WOB Avg 
 WOBX.klb                18.00:  WOB Max 
 YP  .lhf2               31.00:  Yield Point 
~Curve Information Block
#MNEM.UNIT                 API CODE     Curve Description
#---------               -----------    ---------------------------
 TIME.HHMMSS            00 000 000 000:  GT Time & Date
 GTDEPTH.m              00 000 000 000:  GT Depth
 GTPQH.psia             00 000 000 000:  GT HR Quartz Pressure
 GTTQ.degC              00 000 000 000:  GT Quartz Temperature
 GTTN.NONE              00 000 000 000:  GT Test Number
 GTET.sec               00 000 000 000:  GT Elapsed Test Time
 GTTVD.m                00 000 000 000:  GT True Vertical Depth
#Other Information
#
#WARRANTY: Halliburton will use its best efforts to furnish customers with 
#accurate information and interpretations that are part of, and incident to, the services 
#provided.  However, Halliburton cannot and does not warrant the accuracy 
#or correctness of such information and interpretations.  Under no circumstances should any 
#such information or interpretation be relied upon as the sole basis for any drilling, 
#completion, production, or financial decision or any procedure involving any risk to the 
#safety of any drilling venture, drilling rig or its crew or any other third party.  The 
#Customer has full responsibility for all drilling, completion and production operation.  
#Halliburton makes no representations or warranties, either expressed or 
#implied, including, but not limited to, the implied warranties of merchantability or fitness 
#for a particular purpose, with respect to the services rendered.  In no event will 
#Halliburton be liable for failure to obtain any particular results or for 
#any damages, including, but not limited to, indirect, special or consequential damages, 
#resulting from the use of any information or interpretation provided by Halliburton.
#
~A           TIME           GTDEPTH  GTPQH  GTTQ  GTTN  GTET   GTTVD  
# ...
   11:35:51.763.17-Sep-2021 4887.00 5435.39 77.26 9.00 161.02 2528.65
   11:35:51.963.17-Sep-2021 4887.00 5435.39 77.26 9.00 161.22 2528.65
   11:35:52.163.17-Sep-2021 4887.00 5435.72 77.26 9.00 161.42 2528.65
   11:35:52.363.17-Sep-2021 4887.00 5436.50 77.26 9.00 161.62 2528.65
   11:35:52.563.17-Sep-2021 4887.00 5439.35 77.26 9.00 161.82 2528.65
   11:35:52.763.17-Sep-2021 4887.00 5434.40 77.26 9.00 162.02 2528.65
   11:35:52.963.17-Sep-2021 4887.00 5434.40 77.26 9.00 162.22 2528.65
   11:35:53.163.17-Sep-2021 4887.00 5435.51 77.26 9.00 162.42 2528.65
   11:35:53.363.17-Sep-2021 4887.00 5436.98 77.26 9.00 162.62 2528.65
   11:35:53.563.17-Sep-2021 4887.00 5435.75 77.26 9.00 162.82 2528.65
   11:35:53.763.17-Sep-2021 4887.00 5436.02 77.26 9.00 163.02 2528.65
   11:35:53.963.17-Sep-2021 4887.00 5436.02 77.26 9.00 163.22 2528.65
   11:35:54.163.17-Sep-2021 4887.00 5435.89 77.26 9.00 163.42 2528.65
   11:35:54.363.17-Sep-2021 4887.00 5435.68 77.26 9.00 163.62 2528.65
   11:35:54.563.17-Sep-2021 4887.00 5435.78 77.26 9.00 163.82 2528.65
   11:35:54.763.17-Sep-2021 4887.00 5436.20 77.26 9.00 164.02 2528.65
   11:35:54.963.17-Sep-2021 4887.00 5436.20 77.26 9.00 164.22 2528.65
   11:35:55.163.17-Sep-2021 4887.00 5436.20 77.26 9.00 164.42 2528.65
   11:35:55.363.17-Sep-2021 4887.00 5436.20 77.26 9.00 164.62 2528.65
   11:35:55.563.17-Sep-2021 4887.00 5437.05 77.26 9.00 164.82 2528.65
   11:35:55.763.17-Sep-2021 4887.00 5437.98 77.26 9.00 165.02 2528.65
   11:35:55.964.17-Sep-2021 4887.00 5437.98 77.26 9.00 165.22 2528.65
   11:35:56.164.17-Sep-2021 4887.00 5436.09 77.26 9.00 165.42 2528.65
   11:35:56.364.17-Sep-2021 4887.00 5436.46 77.26 9.00 165.62 2528.65
   11:35:56.564.17-Sep-2021 4887.00 5436.86 77.26 9.00 165.82 2528.65
   11:35:56.764.17-Sep-2021 4887.00 5436.24 77.26 9.00 166.02 2528.65
   11:35:56.964.17-Sep-2021 4887.00 5436.24 77.26 9.00 166.22 2528.65
   11:35:57.164.17-Sep-2021 4887.00 5436.08 77.26 9.00 166.42 2528.65
   11:35:57.364.17-Sep-2021 4887.00 5435.85 77.26 9.00 166.62 2528.65
   11:35:57.564.17-Sep-2021 4887.00 5435.72 77.26 9.00 166.82 2528.65
   11:35:57.764.17-Sep-2021 4887.00 5435.79 77.26 9.00 167.02 2528.65
   11:35:57.964.17-Sep-2021 4887.00 5435.79 77.26 9.00 167.22 2528.65
   11:35:58.164.17-Sep-2021 4887.00 5436.06 77.26 9.00 167.42 2528.65
   11:35:58.364.17-Sep-2021 4887.00 5435.99 77.26 9.00 167.62 2528.65
   11:35:58.564.17-Sep-2021 4887.00 5435.94 77.26 9.00 167.82 2528.65
   11:35:58.764.17-Sep-2021 4887.00 5436.16 77.26 9.00 168.02 2528.65
   11:35:58.964.17-Sep-2021 4887.00 5436.16 77.26 9.00 168.22 2528.65
   11:35:59.164.17-Sep-2021 4887.00 5438.73 77.26 9.00 168.42 2528.65
   11:35:59.364.17-Sep-2021 4887.00 5436.16 77.26 9.00 168.62 2528.65
   11:35:59.564.17-Sep-2021 4887.00 5436.14 77.26 9.00 168.82 2528.65
   11:35:59.764.17-Sep-2021 4887.00 5436.32 77.26 9.00 169.02 2528.65
   11:35:59.964.17-Sep-2021 4887.00 5436.32 77.26 9.00 169.22 2528.65
   11:36:00.164.17-Sep-2021 4887.00 5438.80 77.26 9.00 169.42 2528.65
   11:36:00.364.17-Sep-2021 4887.00 5435.93 77.26 9.00 169.62 2528.65
   11:36:00.564.17-Sep-2021 4887.00 5436.01 77.26 9.00 169.82 2528.65
   11:36:00.764.17-Sep-2021 4887.00 5435.96 77.26 9.00 170.02 2528.65
   11:36:00.964.17-Sep-2021 4887.00 5435.96 77.26 9.00 170.22 2528.65
   11:36:01.164.17-Sep-2021 4887.00 5438.11 77.26 9.00 170.42 2528.65
   11:36:01.364.17-Sep-2021 4887.00 5435.20 77.26 9.00 170.62 2528.65
   11:36:01.564.17-Sep-2021 4887.00 5435.82 77.26 9.00 170.82 2528.65
   11:36:01.764.17-Sep-2021 4887.00 5435.45 77.26 9.00 171.02 2528.65
   11:36:01.964.17-Sep-2021 4887.00 5435.45 77.26 9.00 171.22 2528.65
   11:36:02.164.17-Sep-2021 4887.00 5439.17 77.26 9.00 171.42 2528.65
   11:36:02.364.17-Sep-2021 4887.00 5434.27 77.26 9.00 171.62 2528.65
   11:36:02.564.17-Sep-2021 4887.00 5436.06 77.26 9.00 171.82 2528.65
   11:36:02.764.17-Sep-2021 4887.00 5435.48 77.26 9.00 172.02 2528.65
   11:36:02.964.17-Sep-2021 4887.00 5435.48 77.26 9.00 172.22 2528.65
   11:36:03.164.17-Sep-2021 4887.00 5435.47 77.26 9.00 172.42 2528.65
   11:36:03.364.17-Sep-2021 4887.00 5435.87 77.26 9.00 172.62 2528.65
   11:36:03.564.17-Sep-2021 4887.00 5436.54 77.26 9.00 172.82 2528.65
   11:36:03.764.17-Sep-2021 4887.00 5435.85 77.26 9.00 173.02 2528.65
   11:36:03.964.17-Sep-2021 4887.00 5435.85 77.26 9.00 173.22 2528.65
   11:36:04.164.17-Sep-2021 4887.00 5435.76 77.26 9.00 173.42 2528.65
   11:36:04.364.17-Sep-2021 4887.00 5436.19 77.26 9.00 173.62 2528.65
   11:36:04.564.17-Sep-2021 4887.00 5436.27 77.26 9.00 173.82 2528.65
   11:36:04.764.17-Sep-2021 4887.00 5436.16 77.26 9.00 174.02 2528.65
   11:36:04.965.17-Sep-2021 4887.00 5436.16 77.26 9.00 174.22 2528.65
   11:36:05.165.17-Sep-2021 4887.00 5437.01 77.26 9.00 174.42 2528.65
   11:36:05.365.17-Sep-2021 4887.00 5437.97 77.26 9.00 174.62 2528.65
   11:36:05.565.17-Sep-2021 4887.00 5436.39 77.26 9.00 174.82 2528.65
   11:36:05.765.17-Sep-2021 4887.00 5436.07 77.26 9.00 175.02 2528.65
   11:36:05.965.17-Sep-2021 4887.00 5436.07 77.26 9.00 175.22 2528.65
   11:36:06.165.17-Sep-2021 4887.00 5437.01 77.26 9.00 175.42 2528.65
   11:36:06.365.17-Sep-2021 4887.00 5436.21 77.26 9.00 175.62 2528.65
   11:36:06.565.17-Sep-2021 4887.00 5436.04 77.26 9.00 175.82 2528.65
   11:36:06.765.17-Sep-2021 4887.00 5436.09 77.26 9.00 176.02 2528.65
   11:36:06.965.17-Sep-2021 4887.00 5436.09 77.26 9.00 176.22 2528.65
   11:36:07.165.17-Sep-2021 4887.00 5435.70 77.26 9.00 176.42 2528.65
   11:36:07.365.17-Sep-2021 4887.00 5435.72 77.26 9.00 176.62 2528.65
   11:36:07.565.17-Sep-2021 4887.00 5436.02 77.26 9.00 176.82 2528.65
   11:36:07.765.17-Sep-2021 4887.00 5436.19 77.26 9.00 177.02 2528.65
   11:36:07.965.17-Sep-2021 4887.00 5436.19 77.26 9.00 177.22 2528.65
   11:36:08.165.17-Sep-2021 4887.00 5435.99 77.26 9.00 177.42 2528.65
   11:36:08.365.17-Sep-2021 4887.00 5436.26 77.26 9.00 177.62 2528.65
   11:36:08.565.17-Sep-2021 4887.00 5436.48 77.26 9.00 177.82 2528.65
   11:36:08.765.17-Sep-2021 4887.00 5438.76 77.26 9.00 178.02 2528.65
   11:36:08.965.17-Sep-2021 4887.00 5438.76 77.26 9.00 178.22 2528.65
   11:36:09.165.17-Sep-2021 4887.00 5436.08 77.26 9.00 178.42 2528.65
   11:36:09.365.17-Sep-2021 4887.00 5436.38 77.26 9.00 178.62 2528.65
   11:36:09.565.17-Sep-2021 4887.00 5437.25 77.26 9.00 178.82 2528.65
   11:36:09.765.17-Sep-2021 4887.00 5440.00 77.26 9.00 179.02 2528.65
   11:36:09.965.17-Sep-2021 4887.00 5440.00 77.26 9.00 179.22 2528.65
   11:36:10.165.17-Sep-2021 4887.00 5436.08 77.26 9.00 179.42 2528.65
   11:36:10.365.17-Sep-2021 4887.00 5435.54 77.26 9.00 179.62 2528.65
   11:36:10.565.17-Sep-2021 4887.00 5436.67 77.26 9.00 179.82 2528.65
   11:36:10.765.17-Sep-2021 4887.00 5439.19 77.26 9.00 180.02 2528.65
   11:36:10.965.17-Sep-2021 4887.00 5439.19 77.26 9.00 180.22 2528.65
   11:36:11.165.17-Sep-2021 4887.00 5436.00 77.26 9.00 180.42 2528.65
   11:36:11.365.17-Sep-2021 4887.00 5435.02 77.26 9.00 180.62 2528.65
   11:36:11.565.17-Sep-2021 4887.00 5439.62 77.26 9.00 180.82 2528.65
   11:36:11.765.17-Sep-2021 4887.00 5434.33 77.26 9.00 181.02 2528.65
   11:36:11.965.17-Sep-2021 4887.00 5434.33 77.26 9.00 181.22 2528.65
   11:36:12.165.17-Sep-2021 4887.00 5436.09 77.26 9.00 181.42 2528.65
   11:36:12.365.17-Sep-2021 4887.00 5436.46 77.26 9.00 181.62 2528.65
   11:36:12.565.17-Sep-2021 4887.00 5435.48 77.26 9.00 181.82 2528.65
   11:36:12.765.17-Sep-2021 4887.00 5435.33 77.26 9.00 182.02 2528.65
   11:36:12.965.17-Sep-2021 4887.00 5435.33 77.26 9.00 182.22 2528.65
   11:36:13.165.17-Sep-2021 4887.00 5436.12 77.26 9.00 182.42 2528.65
   11:36:13.365.17-Sep-2021 4887.00 5435.79 77.26 9.00 182.62 2528.65
   11:36:13.565.17-Sep-2021 4887.00 5435.44 77.26 9.00 182.82 2528.65
   11:36:13.765.17-Sep-2021 4887.00 5435.74 77.26 9.00 183.02 2528.65
   11:36:13.966.17-Sep-2021 4887.00 5435.74 77.26 9.00 183.22 2528.65
   11:36:14.166.17-Sep-2021 4887.00 5436.19 77.26 9.00 183.42 2528.65
   11:36:14.366.17-Sep-2021 4887.00 5436.07 77.26 9.00 183.62 2528.65
   11:36:14.566.17-Sep-2021 4887.00 5436.04 77.26 9.00 183.82 2528.65
