~Version Information
 VERS.                  2.0:   CWLS log ASCII Standard -VERSION 2.0
 WRAP.                   NO:   One line per depth step
~Well Information Block
#MNEM.UNIT     VALUE/NAME     DESCRIPTION
#---------     -----------    ---------------------------
 STRT.S             05:03:12 17-Sep-21: START TIME 05:03:12 17-Sep-21
 STOP.S             05:12:54 17-Sep-21: STOP TIME  05:12:54 17-Sep-21
 STEP.S                   0.00: STEP TIME
 NULL.                 -999.25: NULL VALUE
 DFWT.                        :  DIST FWL TEXT
 DFST.                        :  DIST FSL TEXT
 DMF .             Drill Floor:  DRILL MEAS FROM
 STIM.      10.59.12 05-Jul-21:  START TIME
 DATE.      10.59.12 10-Sep-21:  END TIME
 SPUD.               05-Jul-21:  SPUD DATE
 NREF.                    Grid:  NORTH REFERENCE
 HPTY.       Minimum Curvature:  HOLE POS TYPE
 DMOD.             Drill Model:  DRILL MOD DESC
 SVYD.                  Survey:  SURVEY DESC
 ILTD.               Lithology:  INTERP LTH DESC
 FTOP.          Formation Tops:  FORM TOPS DESC
 RIG .                     DWG:  RIG NAME
 PDAT.          Mean Sea Level:  PERMANENT DATUM
 FLD .                     ACG:  FIELD NAME
 SON .        AZ-XX-0907115008:  JOB NUMBER
 CTRY.              Azerbaijan:  COUNTRY NAME
 WELL.                    E35A:  WELL NAME
 SRVC.          TURAN DRILLING:  CONTRACTOR
 COMP.     BP Exploration (Caspian Sea LTD):  COMPANY
 UWI .                     N/A:  UNIQUE WELL IDENTIFIER
 API .                     N/A:  API NUMBER
 MDS .        Operator Entered:  MAG DATA SOURCE
 BASE.              Azerbaijan:  LOGGING EQUIPMENT BASE LOCATION
 REGN.                   EESSA:  REGION
 PROV.                    Baku:  PROVINCE
 STAT.                    Baku:  STATE NAME
 MWDS.                    Baku:  MWD SHOP
 JOBN.        AZ-XX-0907115008:  JOB TICKET NUMB
 DOE .                     N/A:  DOE NUMBER
 DCON.         Sperry Drilling:  DIRECTNL CONTR
 UNIT.                     N/A:  LOGGING EQUIPMENT ID
 WTYP.                Deviated:  WELL TYPE
 CNTY.                        :  COUNTY
 LOC .                        :  LOCATION
 LMF .             Drill Floor:  LOG MEASURED FROM
 TVDS.m                  43.16:  TVDSS CORRECTN
 LATI.deg                40.17:  LATITUDE
 LONG.deg                51.17:  LONGITUDE
 WHNS.m                  10.51:  WELL HEAD N/S
 WHEW.m                 -14.82:  WELL HEAD E/W
 UTMX.m              514336.92:  UTM X
 UTMY.m             4448618.56:  UTM Y
 DFWL.m                   0.00:  DISTANCE FWL
 DFSL.m                   0.00:  DISTANCE FSL
 SDEP.m                 849.00:  START DEPTH
 TDD .m                2862.00:  TOTAL DEPTH (DRILLER)
 VSDR.deg               292.10:  VERT SEC DIRECT
 GVFD.g                   1.00:  GRAVITY FIELD
 MFLD.nT              50382.00:  MAGNETIC FIELD
 MDIP.deg                59.68:  MAGNETIC DIP
 MDEC.deg                 6.66:  MAGNETIC DECL
 GRDC.deg                 0.09:  GRID CORRECTION
 AZTC.deg                 6.57:  AZM TOTAL CORR
 EPD .m                   0.00:  ELEVATION
 EGL .m                   0.00:  GROUND ELEVATION
 WDMS.m                 176.20:  WD ELEV
 APD .m                  43.16:  DEPTH ABOVE PD
 DEP .m                 363.42:  DEPTH
 AGAP.m                  43.16:  AIR GAP
 VSEW.m                 -14.82:  VERT SEC E/W
 VSNS.m                  10.51:  VERT SEC N/S
 EKB .m                  43.16:  KB ELEVATION
 EDF .m                  43.16:  DF ELEVATION
 TDL .m                1390.00:  TOTAL DEPTH (LOGGER)
 VSC .                       0:  VS TO CLOSURE
 MAGU.                 1855871:  MAGUTM CHECKSUM
~Parameter Information Block
#MNEM.UNIT       Value        Description
#---------     -----------    ---------------------------
 AV  .mps                 2.28:  Ann Velocity 
 AVMX.mps                 2.67:  Max Ann Veloc 
 AZIF.deg               305.00:  Azm, Final 
 BHAT.        Rotary Steerable:  BHA Type 
 BROT.°/30m               0.45:  Build Rotating 
 BS  .in                 12.25:  Bit Size 
 BSZ .in                 12.25:  Bit Size 
 BTPL.psig              600.00:  Bit Press Loss 
 CABU.                     Yes:  Customer Abuse 
 COMM.                     äÏF:  Run Comments 1 
 TCS .hr                150.00:  Time Ciculation Ended 
 CV  .mps                 1.24:  Crit Velocity 
 CVMX.mps                 1.66:  Max Crit Veloc 
 DD1 .         Intigam Rahimov:  Direct Drillr 1 
 DD2 .            Azer Ravavov:  Direct Drillr 2 
 DD3 .              Samir Abas:  Direct Drillr 3 
 DDSV.               Geo-Pilot:  DD Service 
 DEFF.%                 100.00:  % Det Eff 
 DLRX.°/30m               1.57:  Dogleg Rot Max 
 DLSO.°/30m               0.00:  Dogleg Oriented 
 DLSX.°/30m               0.00:  Dogleg Str Max 
 DRET.      20.28.06 17-Sep-21:  Drill End Time 
 DRST.      20.27.35 10-Sep-21:  Drill Start Tim 
 DTIM.hr                 54.00:  Time Drilling 
 EDEP.m                5260.00:  End Depth 
 ENG1.      Bakhtiyar Jabbarli:  Engineer 1 
 ENG2.      Natik Hasanaghayev:  Engineer 2 
 ENG3.           Royal Nasirov:  Engineer 3 
 ETIM.      20.27.55 18-Sep-21:  End Time 
 FLOI.gpm              1100.00:  Flow In 
 FLON.gpm               800.00:  Flow In Min 
 FLOS.cptm                0.00:  Fluid Loss 
 FLOX.gpm              1200.00:  Flow In Max 
 DFT .        Mineral Oil Base:  Mud Type 
 HPRE.                      No:  High Pressure 
 HTEM.                      No:  High Temp 
 HYDO.m                   1.80:  Hydro Offset 
 IFIN.deg                72.31:  Inc, Final 
 IMAX.deg                72.36:  Inc Max 
 IMIN.deg                69.36:  Inc Min 
 IMND.m                4192.96:  Inc Min Depth 
 IMXD.m                5128.36:  Inc Max Depth 
 JARR.                      No:  Jarring 
 LETM.      20.29.00 17-Sep-21:  Log End Time 
 LOST.hr                     0:  Lost Rig Time 
 LSTM.      20.27.00 10-Sep-21:  Log Start Time 
 MDCL.ppm            227000.00:  Mud Chlorides 
 MDES.     Inversion Oil/Synthetic:  Mud Desc 
 DFD .sg                  1.45:  Mud Density 
 MDMN.sg                  1.45:  Dens Mud Min 
 MDMX.sg                  1.45:  Dens Mud Max 
 MOIL.                    70.5:  Run Mud Oil % 
 MOWR.                   71:29:  Run Mud OWR 
 MSND.                     0.3:  Run Mud Sand % 
 MSOL.                    19.8:  Run Mud Solids% 
 DFV .spqt               80.00:  Mud Viscosity 
 MWOD.in                  8.00:  MWD Tool OD 
 MWSI.                     Yes:  Serv Intrp, MWD 
 OTIM.hr                180.00:  Time Operating 
 PCON.           Look Like New:  Pad Condition 
 PMAX.psia             9910.94:  Press Op, Max 
 PV  .cP                 35.00:  Mud PV 
 RUN .                    1000:  Run Number 
 ROPA.m/hr               18.00:  ROP Avg 
 ROPN.m/hr                8.00:  ROP Min 
 ROPX.m/hr               23.00:  ROP Max 
 RPMA.rpm               150.00:  RPM Surface Avg 
 RPMN.rpm               120.00:  RPM Surface Min 
 RPMX.rpm               160.00:  RPM Surface Max 
 RRUN.                    L503:  Rig Run Number 
 RTIM.hr                  5.00:  Time Reaming 
 SAZI.deg               298.42:  Azm, Start 
 SDEP.m                3870.00:  Start Depth 
 SIDD.                      No:  Serv Intrp, DD 
 SINC.deg                69.57:  Inc, Start 
 SPPA.psig             5500.00:  SPP Avg 
 SPPN.psig             4400.00:  SPP Min 
 SPPX.psig             5800.00:  SPP Max 
 STIM.      15.29.39 09-Sep-21:  Start Time 
 SVCS.                 DD, MWD:  Services 
 SVER.                    9.20:  Sperry Version 
 TDAT.m                5260.00:  Tot Depth Attmp 
 TDDF.                      No:  Trip for DD 
 TDLG.m                1390.00:  Tot Depth Loggd 
 TFF .                      No:  Trip for Fail 
 TQAA.f-kp               22.00:  Torque Abs Avg 
 TQAN.f-kp               13.00:  Torque Abs Min 
 TQAX.f-kp               27.00:  Torque Abs Max 
 TRRT.°/30m               1.60:  Turn Rotating 
 MRT .                  EWR-M5:  Maximum Recorded Temperature 
 TTMX.degC               92.00:  Max Tool Temp 
 VS01.                12330975:  Virtual Str1 SN 
 VS02.                90658671:  Virtual Str2 SN 
 VS03.                90658508:  Virtual Str3 SN 
 VS04.                90660974:  Virtual Str4 SN 
 VS05.                90654675:  Virtual Str5 SN 
 WBMN.klb                15.00:  WOB Min 
 WITN.     Alexander Yadullayev:  Customer Rep 
 WITN.           Adil Mammadov:  Customer Rep 2 
 WOBA.klb                17.00:  WOB Avg 
 WOBX.klb                18.00:  WOB Max 
 YP  .lhf2               31.00:  Yield Point 
~Curve Information Block
#MNEM.UNIT                 API CODE     Curve Description
#---------               -----------    ---------------------------
 TIME.HHMMSS            00 000 000 000:  GT Time & Date
 GTDEPTH.m              00 000 000 000:  GT Depth
 GTPQH.psia             00 000 000 000:  GT HR Quartz Pressure
 GTTQ.degC              00 000 000 000:  GT Quartz Temperature
 GTTN.NONE              00 000 000 000:  GT Test Number
 GTET.sec               00 000 000 000:  GT Elapsed Test Time
 GTTVD.m                00 000 000 000:  GT True Vertical Depth
#Other Information
#
#WARRANTY: Halliburton will use its best efforts to furnish customers with 
#accurate information and interpretations that are part of, and incident to, the services 
#provided.  However, Halliburton cannot and does not warrant the accuracy 
#or correctness of such information and interpretations.  Under no circumstances should any 
#such information or interpretation be relied upon as the sole basis for any drilling, 
#completion, production, or financial decision or any procedure involving any risk to the 
#safety of any drilling venture, drilling rig or its crew or any other third party.  The 
#Customer has full responsibility for all drilling, completion and production operation.  
#Halliburton makes no representations or warranties, either expressed or 
#implied, including, but not limited to, the implied warranties of merchantability or fitness 
#for a particular purpose, with respect to the services rendered.  In no event will 
#Halliburton be liable for failure to obtain any particular results or for 
#any damages, including, but not limited to, indirect, special or consequential damages, 
#resulting from the use of any information or interpretation provided by Halliburton.
#
~A           TIME           GTDEPTH  GTPQH  GTTQ  GTTN  GTET   GTTVD  
# ...
   05:12:25.452.17-Sep-2021 5093.53 5561.02 79.55 5.00 552.60 2594.99
   05:12:25.653.17-Sep-2021 5093.53 5561.02 79.55 5.00 552.80 2594.99
   05:12:25.853.17-Sep-2021 5093.53 5561.30 79.55 5.00 553.00 2594.99
   05:12:26.053.17-Sep-2021 5093.53 5561.28 79.55 5.00 553.20 2594.99
   05:12:26.253.17-Sep-2021 5093.53 5561.45 79.55 5.00 553.40 2594.99
   05:12:26.453.17-Sep-2021 5093.53 5561.81 79.55 5.00 553.60 2594.99
   05:12:26.654.17-Sep-2021 5093.53 5561.81 79.55 5.00 553.80 2594.99
   05:12:26.854.17-Sep-2021 5093.53 5562.13 79.55 5.00 554.00 2594.99
   05:12:27.054.17-Sep-2021 5093.53 5565.70 79.55 5.00 554.20 2594.99
   05:12:27.254.17-Sep-2021 5093.53 5560.46 79.55 5.00 554.40 2594.99
   05:12:27.454.17-Sep-2021 5093.53 5563.80 79.55 5.00 554.60 2594.99
   05:12:27.655.17-Sep-2021 5093.53 5563.80 79.55 5.00 554.80 2594.99
   05:12:27.855.17-Sep-2021 5093.53 5561.96 79.55 5.00 555.00 2594.99
   05:12:28.055.17-Sep-2021 5093.53 5562.15 79.55 5.00 555.20 2594.99
   05:12:28.255.17-Sep-2021 5093.53 5561.50 79.55 5.00 555.40 2594.99
   05:12:28.456.17-Sep-2021 5093.53 5564.93 79.55 5.00 555.60 2594.99
   05:12:28.656.17-Sep-2021 5093.53 5564.93 79.55 5.00 555.80 2594.99
   05:12:28.856.17-Sep-2021 5093.53 5562.67 79.55 5.00 556.00 2594.99
   05:12:29.056.17-Sep-2021 5093.53 5560.68 79.55 5.00 556.20 2594.99
   05:12:29.256.17-Sep-2021 5093.53 5561.16 79.55 5.00 556.40 2594.99
   05:12:29.457.17-Sep-2021 5093.53 5564.61 79.55 5.00 556.60 2594.99
   05:12:29.657.17-Sep-2021 5093.53 5564.61 79.55 5.00 556.80 2594.99
   05:12:29.857.17-Sep-2021 5093.53 5562.45 79.55 5.00 557.00 2594.99
   05:12:30.057.17-Sep-2021 5093.53 5561.57 79.55 5.00 557.20 2594.99
   05:12:30.258.17-Sep-2021 5093.53 5565.37 79.55 5.00 557.40 2594.99
   05:12:30.458.17-Sep-2021 5093.53 5559.92 79.55 5.00 557.60 2594.99
   05:12:30.658.17-Sep-2021 5093.53 5559.92 79.55 5.00 557.80 2594.99
   05:12:30.858.17-Sep-2021 5093.53 5561.07 79.55 5.00 558.00 2594.99
   05:12:31.058.17-Sep-2021 5093.53 5561.01 79.55 5.00 558.20 2594.99
   05:12:31.259.17-Sep-2021 5093.53 5561.47 79.55 5.00 558.40 2594.99
   05:12:31.459.17-Sep-2021 5093.53 5561.03 79.55 5.00 558.60 2594.99
   05:12:31.659.17-Sep-2021 5093.53 5561.03 79.55 5.00 558.80 2594.99
   05:12:31.859.17-Sep-2021 5093.53 5561.37 79.55 5.00 559.00 2594.99
   05:12:32.059.17-Sep-2021 5093.53 5561.05 79.55 5.00 559.20 2594.99
   05:12:32.260.17-Sep-2021 5093.53 5561.29 79.55 5.00 559.40 2594.99
   05:12:32.460.17-Sep-2021 5093.53 5561.40 79.55 5.00 559.60 2594.99
   05:12:32.660.17-Sep-2021 5093.53 5561.40 79.55 5.00 559.80 2594.99
   05:12:32.860.17-Sep-2021 5093.53 5561.63 79.55 5.00 560.00 2594.99
   05:12:33.061.17-Sep-2021 5093.53 5561.82 79.55 5.00 560.20 2594.99
   05:12:33.261.17-Sep-2021 5093.53 5561.83 79.55 5.00 560.40 2594.99
   05:12:33.461.17-Sep-2021 5093.53 5564.20 79.55 5.00 560.60 2594.99
   05:12:33.661.17-Sep-2021 5093.53 5564.20 79.55 5.00 560.80 2594.99
   05:12:33.861.17-Sep-2021 5093.53 5563.13 79.55 5.00 561.00 2594.99
   05:12:34.062.17-Sep-2021 5093.53 5562.49 79.55 5.00 561.20 2594.99
   05:12:34.262.17-Sep-2021 5093.53 5561.81 79.55 5.00 561.40 2594.99
   05:12:34.462.17-Sep-2021 5093.53 5561.71 79.55 5.00 561.60 2594.99
   05:12:34.662.17-Sep-2021 5093.53 5561.71 79.55 5.00 561.81 2594.99
   05:12:34.862.17-Sep-2021 5093.53 5561.71 79.55 5.00 562.01 2594.99
   05:12:35.063.17-Sep-2021 5093.53 5560.85 79.55 5.00 562.21 2594.99
   05:12:35.263.17-Sep-2021 5093.53 5560.72 79.55 5.00 562.41 2594.99
   05:12:35.463.17-Sep-2021 5093.53 5560.98 79.55 5.00 562.61 2594.99
   05:12:35.663.17-Sep-2021 5093.53 5560.98 79.55 5.00 562.81 2594.99
   05:12:35.864.17-Sep-2021 5093.53 5561.00 79.55 5.00 563.01 2594.99
   05:12:36.064.17-Sep-2021 5093.53 5561.32 79.55 5.00 563.21 2594.99
   05:12:36.264.17-Sep-2021 5093.53 5561.68 79.55 5.00 563.41 2594.99
   05:12:36.464.17-Sep-2021 5093.53 5561.71 79.55 5.00 563.61 2594.99
   05:12:36.664.17-Sep-2021 5093.53 5561.71 79.55 5.00 563.81 2594.99
   05:12:36.865.17-Sep-2021 5093.53 5565.22 79.55 5.00 564.01 2594.99
   05:12:37.065.17-Sep-2021 5093.53 5561.00 79.55 5.00 564.21 2594.99
   05:12:37.265.17-Sep-2021 5093.53 5563.03 79.55 5.00 564.41 2594.99
   05:12:37.465.17-Sep-2021 5093.53 5562.49 79.55 5.00 564.61 2594.99
   05:12:37.665.17-Sep-2021 5093.53 5562.49 79.55 5.00 564.81 2594.99
   05:12:37.866.17-Sep-2021 5093.53 5561.75 79.55 5.00 565.01 2594.99
   05:12:38.066.17-Sep-2021 5093.53 5561.05 79.55 5.00 565.21 2594.99
   05:12:38.266.17-Sep-2021 5093.53 5564.61 79.55 5.00 565.41 2594.99
   05:12:38.466.17-Sep-2021 5093.53 5559.03 79.55 5.00 565.61 2594.99
   05:12:38.667.17-Sep-2021 5093.53 5559.03 79.55 5.00 565.81 2594.99
   05:12:38.867.17-Sep-2021 5093.53 5560.47 79.55 5.00 566.01 2594.99
   05:12:39.067.17-Sep-2021 5093.53 5561.01 79.55 5.00 566.21 2594.99
   05:12:39.267.17-Sep-2021 5093.53 5563.28 79.55 5.00 566.41 2594.99
   05:12:39.467.17-Sep-2021 5093.53 5561.11 79.55 5.00 566.61 2594.99
   05:12:39.668.17-Sep-2021 5093.53 5561.11 79.55 5.00 566.81 2594.99
   05:12:39.868.17-Sep-2021 5093.53 5561.35 79.55 5.00 567.01 2594.99
   05:12:40.068.17-Sep-2021 5093.53 5562.87 79.55 5.00 567.21 2594.99
   05:12:40.268.17-Sep-2021 5093.53 5561.78 79.55 5.00 567.41 2594.99
   05:12:40.469.17-Sep-2021 5093.53 5562.40 79.55 5.00 567.61 2594.99
   05:12:40.669.17-Sep-2021 5093.53 5562.40 79.55 5.00 567.81 2594.99
   05:12:40.869.17-Sep-2021 5093.53 5561.01 79.55 5.00 568.01 2594.99
   05:12:41.069.17-Sep-2021 5093.53 5561.14 79.55 5.00 568.21 2594.99
   05:12:41.269.17-Sep-2021 5093.53 5560.98 79.55 5.00 568.41 2594.99
   05:12:41.470.17-Sep-2021 5093.53 5560.99 79.55 5.00 568.61 2594.99
   05:12:41.670.17-Sep-2021 5093.53 5560.99 79.55 5.00 568.81 2594.99
   05:12:41.870.17-Sep-2021 5093.53 5560.89 79.55 5.00 569.01 2594.99
   05:12:42.070.17-Sep-2021 5093.53 5561.14 79.55 5.00 569.21 2594.99
   05:12:42.270.17-Sep-2021 5093.53 5561.30 79.55 5.00 569.41 2594.99
   05:12:42.471.17-Sep-2021 5093.53 5561.45 79.55 5.00 569.61 2594.99
   05:12:42.671.17-Sep-2021 5093.53 5561.45 79.55 5.00 569.81 2594.99
   05:12:42.871.17-Sep-2021 5093.53 5561.45 79.55 5.00 570.01 2594.99
   05:12:43.071.17-Sep-2021 5093.53 5561.45 79.55 5.00 570.21 2594.99
   05:12:43.272.17-Sep-2021 5093.53 5561.45 79.55 5.00 570.41 2594.99
   05:12:43.472.17-Sep-2021 5093.54 5561.40 79.55 5.00 570.61 2595.00
   05:12:43.672.17-Sep-2021 5093.56 5561.40 79.55 5.00 570.81 2595.00
   05:12:43.872.17-Sep-2021 5093.58 5562.13 79.55 5.00 571.01 2595.01
   05:12:44.072.17-Sep-2021 5093.60 5561.51 79.55 5.00 571.22 2595.01
   05:12:44.273.17-Sep-2021 5093.62 5561.52 79.55 5.00 571.42 2595.02
   05:12:44.473.17-Sep-2021 5093.64 5560.98 79.55 5.00 571.62 2595.03
   05:12:44.673.17-Sep-2021 5093.66 5560.98 79.55 5.00 571.82 2595.03
   05:12:44.873.17-Sep-2021 5093.68 5560.66 79.55 5.00 572.02 2595.04
   05:12:45.073.17-Sep-2021 5093.69 5560.68 79.55 5.00 572.22 2595.04
   05:12:45.274.17-Sep-2021 5093.71 5560.77 79.55 5.00 572.42 2595.05
   05:12:45.474.17-Sep-2021 5093.73 5561.01 79.55 5.00 572.62 2595.05
   05:12:45.674.17-Sep-2021 5093.75 5561.01 79.55 5.00 572.82 2595.06
   05:12:45.874.17-Sep-2021 5093.77 5561.10 79.55 5.00 573.02 2595.07
   05:12:46.075.17-Sep-2021 5093.79 5561.54 79.55 5.00 573.22 2595.07
   05:12:46.275.17-Sep-2021 5093.81 5562.20 79.55 5.00 573.42 2595.08
   05:12:46.475.17-Sep-2021 5093.83 5563.14 79.55 5.00 573.62 2595.08
   05:12:46.675.17-Sep-2021 5093.85 5563.14 79.55 5.00 573.82 2595.09
   05:12:46.875.17-Sep-2021 5093.86 5562.71 79.55 5.00 574.02 2595.10
   05:12:47.076.17-Sep-2021 5093.88 5565.78 79.55 5.00 574.22 2595.10
   05:12:47.276.17-Sep-2021 5093.90 5563.97 79.55 5.00 574.42 2595.11
   05:12:47.476.17-Sep-2021 5093.92 5563.86 79.55 5.00 574.62 2595.11
   05:12:47.676.17-Sep-2021 5093.94 5563.86 79.55 5.00 574.82 2595.12
   05:12:47.876.17-Sep-2021 5093.96 5562.57 79.55 5.00 575.02 2595.12
   05:12:48.077.17-Sep-2021 5093.98 5565.87 79.55 5.00 575.22 2595.13
   05:12:48.277.17-Sep-2021 5093.99 5560.05 79.55 5.00 575.42 2595.14
