~Version Information
 VERS.                  2.0:   CWLS log ASCII Standard -VERSION 2.0
 WRAP.                   NO:   One line per depth step
~Well Information Block
#MNEM.UNIT     VALUE/NAME     DESCRIPTION
#---------     -----------    ---------------------------
 STRT.S             06:26:37 17-Sep-21: START TIME 06:26:37 17-Sep-21
 STOP.S             06:35:42 17-Sep-21: STOP TIME  06:35:42 17-Sep-21
 STEP.S                   0.00: STEP TIME
 NULL.                 -999.25: NULL VALUE
 DFWT.                        :  DIST FWL TEXT
 DFST.                        :  DIST FSL TEXT
 DMF .             Drill Floor:  DRILL MEAS FROM
 STIM.      10.59.12 05-Jul-21:  START TIME
 DATE.      10.59.12 10-Sep-21:  END TIME
 SPUD.               05-Jul-21:  SPUD DATE
 NREF.                    Grid:  NORTH REFERENCE
 HPTY.       Minimum Curvature:  HOLE POS TYPE
 DMOD.             Drill Model:  DRILL MOD DESC
 SVYD.                  Survey:  SURVEY DESC
 ILTD.               Lithology:  INTERP LTH DESC
 FTOP.          Formation Tops:  FORM TOPS DESC
 RIG .                     DWG:  RIG NAME
 PDAT.          Mean Sea Level:  PERMANENT DATUM
 FLD .                     ACG:  FIELD NAME
 SON .        AZ-XX-0907115008:  JOB NUMBER
 CTRY.              Azerbaijan:  COUNTRY NAME
 WELL.                    E35A:  WELL NAME
 SRVC.          TURAN DRILLING:  CONTRACTOR
 COMP.     BP Exploration (Caspian Sea LTD):  COMPANY
 UWI .                     N/A:  UNIQUE WELL IDENTIFIER
 API .                     N/A:  API NUMBER
 MDS .        Operator Entered:  MAG DATA SOURCE
 BASE.              Azerbaijan:  LOGGING EQUIPMENT BASE LOCATION
 REGN.                   EESSA:  REGION
 PROV.                    Baku:  PROVINCE
 STAT.                    Baku:  STATE NAME
 MWDS.                    Baku:  MWD SHOP
 JOBN.        AZ-XX-0907115008:  JOB TICKET NUMB
 DOE .                     N/A:  DOE NUMBER
 DCON.         Sperry Drilling:  DIRECTNL CONTR
 UNIT.                     N/A:  LOGGING EQUIPMENT ID
 WTYP.                Deviated:  WELL TYPE
 CNTY.                        :  COUNTY
 LOC .                        :  LOCATION
 LMF .             Drill Floor:  LOG MEASURED FROM
 TVDS.m                  43.16:  TVDSS CORRECTN
 LATI.deg                40.17:  LATITUDE
 LONG.deg                51.17:  LONGITUDE
 WHNS.m                  10.51:  WELL HEAD N/S
 WHEW.m                 -14.82:  WELL HEAD E/W
 UTMX.m              514336.92:  UTM X
 UTMY.m             4448618.56:  UTM Y
 DFWL.m                   0.00:  DISTANCE FWL
 DFSL.m                   0.00:  DISTANCE FSL
 SDEP.m                 849.00:  START DEPTH
 TDD .m                2862.00:  TOTAL DEPTH (DRILLER)
 VSDR.deg               292.10:  VERT SEC DIRECT
 GVFD.g                   1.00:  GRAVITY FIELD
 MFLD.nT              50382.00:  MAGNETIC FIELD
 MDIP.deg                59.68:  MAGNETIC DIP
 MDEC.deg                 6.66:  MAGNETIC DECL
 GRDC.deg                 0.09:  GRID CORRECTION
 AZTC.deg                 6.57:  AZM TOTAL CORR
 EPD .m                   0.00:  ELEVATION
 EGL .m                   0.00:  GROUND ELEVATION
 WDMS.m                 176.20:  WD ELEV
 APD .m                  43.16:  DEPTH ABOVE PD
 DEP .m                 363.42:  DEPTH
 AGAP.m                  43.16:  AIR GAP
 VSEW.m                 -14.82:  VERT SEC E/W
 VSNS.m                  10.51:  VERT SEC N/S
 EKB .m                  43.16:  KB ELEVATION
 EDF .m                  43.16:  DF ELEVATION
 TDL .m                1390.00:  TOTAL DEPTH (LOGGER)
 VSC .                       0:  VS TO CLOSURE
 MAGU.                 1855871:  MAGUTM CHECKSUM
~Parameter Information Block
#MNEM.UNIT       Value        Description
#---------     -----------    ---------------------------
 AV  .mps                 2.28:  Ann Velocity 
 AVMX.mps                 2.67:  Max Ann Veloc 
 AZIF.deg               305.00:  Azm, Final 
 BHAT.        Rotary Steerable:  BHA Type 
 BROT.°/30m               0.45:  Build Rotating 
 BS  .in                 12.25:  Bit Size 
 BSZ .in                 12.25:  Bit Size 
 BTPL.psig              600.00:  Bit Press Loss 
 CABU.                     Yes:  Customer Abuse 
 COMM.                     D5N:  Run Comments 1 
 TCS .hr                150.00:  Time Ciculation Ended 
 CV  .mps                 1.24:  Crit Velocity 
 CVMX.mps                 1.66:  Max Crit Veloc 
 DD1 .         Intigam Rahimov:  Direct Drillr 1 
 DD2 .            Azer Ravavov:  Direct Drillr 2 
 DD3 .              Samir Abas:  Direct Drillr 3 
 DDSV.               Geo-Pilot:  DD Service 
 DEFF.%                 100.00:  % Det Eff 
 DLRX.°/30m               1.57:  Dogleg Rot Max 
 DLSO.°/30m               0.00:  Dogleg Oriented 
 DLSX.°/30m               0.00:  Dogleg Str Max 
 DRET.      20.28.06 17-Sep-21:  Drill End Time 
 DRST.      20.27.35 10-Sep-21:  Drill Start Tim 
 DTIM.hr                 54.00:  Time Drilling 
 EDEP.m                5260.00:  End Depth 
 ENG1.      Bakhtiyar Jabbarli:  Engineer 1 
 ENG2.      Natik Hasanaghayev:  Engineer 2 
 ENG3.           Royal Nasirov:  Engineer 3 
 ETIM.      20.27.55 18-Sep-21:  End Time 
 FLOI.gpm              1100.00:  Flow In 
 FLON.gpm               800.00:  Flow In Min 
 FLOS.cptm                0.00:  Fluid Loss 
 FLOX.gpm              1200.00:  Flow In Max 
 DFT .        Mineral Oil Base:  Mud Type 
 HPRE.                      No:  High Pressure 
 HTEM.                      No:  High Temp 
 HYDO.m                   1.80:  Hydro Offset 
 IFIN.deg                72.31:  Inc, Final 
 IMAX.deg                72.36:  Inc Max 
 IMIN.deg                69.36:  Inc Min 
 IMND.m                4192.96:  Inc Min Depth 
 IMXD.m                5128.36:  Inc Max Depth 
 JARR.                      No:  Jarring 
 LETM.      20.29.00 17-Sep-21:  Log End Time 
 LOST.hr                     0:  Lost Rig Time 
 LSTM.      20.27.00 10-Sep-21:  Log Start Time 
 MDCL.ppm            227000.00:  Mud Chlorides 
 MDES.     Inversion Oil/Synthetic:  Mud Desc 
 DFD .sg                  1.45:  Mud Density 
 MDMN.sg                  1.45:  Dens Mud Min 
 MDMX.sg                  1.45:  Dens Mud Max 
 MOIL.                    70.5:  Run Mud Oil % 
 MOWR.                   71:29:  Run Mud OWR 
 MSND.                     0.3:  Run Mud Sand % 
 MSOL.                    19.8:  Run Mud Solids% 
 DFV .spqt               80.00:  Mud Viscosity 
 MWOD.in                  8.00:  MWD Tool OD 
 MWSI.                     Yes:  Serv Intrp, MWD 
 OTIM.hr                180.00:  Time Operating 
 PCON.           Look Like New:  Pad Condition 
 PMAX.psia             9910.94:  Press Op, Max 
 PV  .cP                 35.00:  Mud PV 
 RUN .                    1000:  Run Number 
 ROPA.m/hr               18.00:  ROP Avg 
 ROPN.m/hr                8.00:  ROP Min 
 ROPX.m/hr               23.00:  ROP Max 
 RPMA.rpm               150.00:  RPM Surface Avg 
 RPMN.rpm               120.00:  RPM Surface Min 
 RPMX.rpm               160.00:  RPM Surface Max 
 RRUN.                    L503:  Rig Run Number 
 RTIM.hr                  5.00:  Time Reaming 
 SAZI.deg               298.42:  Azm, Start 
 SDEP.m                3870.00:  Start Depth 
 SIDD.                      No:  Serv Intrp, DD 
 SINC.deg                69.57:  Inc, Start 
 SPPA.psig             5500.00:  SPP Avg 
 SPPN.psig             4400.00:  SPP Min 
 SPPX.psig             5800.00:  SPP Max 
 STIM.      15.29.39 09-Sep-21:  Start Time 
 SVCS.                 DD, MWD:  Services 
 SVER.                    9.20:  Sperry Version 
 TDAT.m                5260.00:  Tot Depth Attmp 
 TDDF.                      No:  Trip for DD 
 TDLG.m                1390.00:  Tot Depth Loggd 
 TFF .                      No:  Trip for Fail 
 TQAA.f-kp               22.00:  Torque Abs Avg 
 TQAN.f-kp               13.00:  Torque Abs Min 
 TQAX.f-kp               27.00:  Torque Abs Max 
 TRRT.°/30m               1.60:  Turn Rotating 
 MRT .                  EWR-M5:  Maximum Recorded Temperature 
 TTMX.degC               92.00:  Max Tool Temp 
 VS01.                12330975:  Virtual Str1 SN 
 VS02.                90658671:  Virtual Str2 SN 
 VS03.                90658508:  Virtual Str3 SN 
 VS04.                90660974:  Virtual Str4 SN 
 VS05.                90654675:  Virtual Str5 SN 
 WBMN.klb                15.00:  WOB Min 
 WITN.     Alexander Yadullayev:  Customer Rep 
 WITN.           Adil Mammadov:  Customer Rep 2 
 WOBA.klb                17.00:  WOB Avg 
 WOBX.klb                18.00:  WOB Max 
 YP  .lhf2               31.00:  Yield Point 
~Curve Information Block
#MNEM.UNIT                 API CODE     Curve Description
#---------               -----------    ---------------------------
 TIME.HHMMSS            00 000 000 000:  GT Time & Date
 GTDEPTH.m              00 000 000 000:  GT Depth
 GTPQH.psia             00 000 000 000:  GT HR Quartz Pressure
 GTTQ.degC              00 000 000 000:  GT Quartz Temperature
 GTTN.NONE              00 000 000 000:  GT Test Number
 GTET.sec               00 000 000 000:  GT Elapsed Test Time
 GTTVD.m                00 000 000 000:  GT True Vertical Depth
#Other Information
#
#WARRANTY: Halliburton will use its best efforts to furnish customers with 
#accurate information and interpretations that are part of, and incident to, the services 
#provided.  However, Halliburton cannot and does not warrant the accuracy 
#or correctness of such information and interpretations.  Under no circumstances should any 
#such information or interpretation be relied upon as the sole basis for any drilling, 
#completion, production, or financial decision or any procedure involving any risk to the 
#safety of any drilling venture, drilling rig or its crew or any other third party.  The 
#Customer has full responsibility for all drilling, completion and production operation.  
#Halliburton makes no representations or warranties, either expressed or 
#implied, including, but not limited to, the implied warranties of merchantability or fitness 
#for a particular purpose, with respect to the services rendered.  In no event will 
#Halliburton be liable for failure to obtain any particular results or for 
#any damages, including, but not limited to, indirect, special or consequential damages, 
#resulting from the use of any information or interpretation provided by Halliburton.
#
~A           TIME           GTDEPTH  GTPQH  GTTQ  GTTN  GTET   GTTVD  
# ...
   06:27:23.347.17-Sep-2021 5057.00 5371.36 78.69 7.00  45.99 2583.65
   06:27:23.547.17-Sep-2021 5057.00 5371.36 78.69 7.00  46.19 2583.65
   06:27:23.747.17-Sep-2021 5057.00 5214.48 78.69 7.00  46.39 2583.65
   06:27:23.947.17-Sep-2021 5057.00 5198.65 78.69 7.00  46.59 2583.65
   06:27:24.147.17-Sep-2021 5057.00 5162.74 78.69 7.00  46.79 2583.65
   06:27:24.347.17-Sep-2021 5057.00 5184.75 78.69 7.00  46.99 2583.65
   06:27:24.547.17-Sep-2021 5057.00 5184.75 78.69 7.00  47.19 2583.65
   06:27:24.747.17-Sep-2021 5057.00 5198.90 78.69 7.00  47.39 2583.65
   06:27:24.947.17-Sep-2021 5057.00 5210.95 78.69 7.00  47.59 2583.65
   06:27:25.147.17-Sep-2021 5057.00 5308.20 78.69 7.00  47.79 2583.65
   06:27:25.346.17-Sep-2021 5057.00 5256.89 78.69 7.00  47.99 2583.65
   06:27:25.546.17-Sep-2021 5057.00 5256.89 78.69 7.00  48.19 2583.65
   06:27:25.746.17-Sep-2021 5057.00 5261.17 78.69 7.00  48.39 2583.65
   06:27:25.946.17-Sep-2021 5057.00 5286.10 78.69 7.00  48.59 2583.65
   06:27:26.146.17-Sep-2021 5057.00 5292.06 78.69 7.00  48.79 2583.65
   06:27:26.346.17-Sep-2021 5057.00 5297.74 78.69 7.00  48.99 2583.65
   06:27:26.546.17-Sep-2021 5057.00 5297.74 78.69 7.00  49.19 2583.65
   06:27:26.746.17-Sep-2021 5057.00 5313.57 78.69 7.00  49.39 2583.65
   06:27:26.946.17-Sep-2021 5057.00 5328.17 78.69 7.00  49.59 2583.65
   06:27:27.146.17-Sep-2021 5057.00 5346.05 78.69 7.00  49.79 2583.65
   06:27:27.346.17-Sep-2021 5057.00 5347.84 78.69 7.00  49.99 2583.65
   06:27:27.546.17-Sep-2021 5057.00 5347.84 78.69 7.00  50.19 2583.65
   06:27:27.746.17-Sep-2021 5057.00 5368.19 78.69 7.00  50.39 2583.65
   06:27:27.946.17-Sep-2021 5057.00 5382.17 78.69 7.00  50.59 2583.65
   06:27:28.146.17-Sep-2021 5057.00 5389.99 78.69 7.00  50.79 2583.65
   06:27:28.346.17-Sep-2021 5057.00 5387.47 78.69 7.00  50.99 2583.65
   06:27:28.546.17-Sep-2021 5057.00 5387.47 78.69 7.00  51.19 2583.65
   06:27:28.746.17-Sep-2021 5057.00 5391.15 78.69 7.00  51.39 2583.65
   06:27:28.946.17-Sep-2021 5057.00 5401.39 78.69 7.00  51.59 2583.65
   06:27:29.146.17-Sep-2021 5057.00 5416.42 78.69 7.00  51.79 2583.65
   06:27:29.346.17-Sep-2021 5057.00 5431.05 78.69 7.00  51.99 2583.65
   06:27:29.546.17-Sep-2021 5057.00 5431.05 78.69 7.00  52.19 2583.65
   06:27:29.746.17-Sep-2021 5057.00 5482.71 78.69 7.00  52.39 2583.65
   06:27:29.945.17-Sep-2021 5057.00 5502.57 78.69 7.00  52.59 2583.65
   06:27:30.145.17-Sep-2021 5057.00 5491.28 78.69 7.00  52.79 2583.65
   06:27:30.345.17-Sep-2021 5057.00 5498.68 78.69 7.00  52.99 2583.65
   06:27:30.545.17-Sep-2021 5057.00 5498.68 78.69 7.00  53.19 2583.65
   06:27:30.745.17-Sep-2021 5057.00 5549.46 78.69 7.00  53.39 2583.65
   06:27:30.945.17-Sep-2021 5057.00 5556.09 78.69 7.00  53.59 2583.65
   06:27:31.145.17-Sep-2021 5057.00 5575.03 78.69 7.00  53.79 2583.65
   06:27:31.345.17-Sep-2021 5057.00 5587.06 78.69 7.00  53.99 2583.65
   06:27:31.545.17-Sep-2021 5057.00 5587.06 78.69 7.00  54.19 2583.65
   06:27:31.745.17-Sep-2021 5057.00 5600.93 78.69 7.00  54.39 2583.65
   06:27:31.945.17-Sep-2021 5057.00 5603.02 78.69 7.00  54.59 2583.65
   06:27:32.145.17-Sep-2021 5057.00 5605.15 78.69 7.00  54.79 2583.65
   06:27:32.345.17-Sep-2021 5057.00 5606.35 78.69 7.00  54.99 2583.65
   06:27:32.545.17-Sep-2021 5057.00 5606.35 78.69 7.00  55.19 2583.65
   06:27:32.745.17-Sep-2021 5057.00 5615.04 78.69 7.00  55.39 2583.65
   06:27:32.945.17-Sep-2021 5057.00 5617.24 78.69 7.00  55.59 2583.65
   06:27:33.145.17-Sep-2021 5057.00 5620.11 78.69 7.00  55.79 2583.65
   06:27:33.345.17-Sep-2021 5057.00 5622.43 78.69 7.00  55.99 2583.65
   06:27:33.545.17-Sep-2021 5057.00 5622.43 78.69 7.00  56.19 2583.65
   06:27:33.745.17-Sep-2021 5057.00 5627.04 78.69 7.00  56.39 2583.65
   06:27:33.945.17-Sep-2021 5057.00 5628.96 78.69 7.00  56.59 2583.65
   06:27:34.145.17-Sep-2021 5057.00 5630.62 78.69 7.00  56.79 2583.65
   06:27:34.345.17-Sep-2021 5057.00 5631.82 78.69 7.00  56.99 2583.65
   06:27:34.545.17-Sep-2021 5057.00 5631.82 78.69 7.00  57.19 2583.65
   06:27:34.744.17-Sep-2021 5057.00 5633.74 78.69 7.00  57.39 2583.65
   06:27:34.944.17-Sep-2021 5057.00 5634.61 78.69 7.00  57.59 2583.65
   06:27:35.144.17-Sep-2021 5057.00 5394.73 78.69 7.00  57.79 2583.65
   06:27:35.344.17-Sep-2021 5057.00 5279.29 78.69 7.00  57.99 2583.65
   06:27:35.544.17-Sep-2021 5057.00 5279.29 78.69 7.00  58.19 2583.65
   06:27:35.744.17-Sep-2021 5057.00 5198.53 78.69 7.00  58.39 2583.65
   06:27:35.944.17-Sep-2021 5057.00 5147.21 78.69 7.00  58.59 2583.65
   06:27:36.144.17-Sep-2021 5057.00 5080.14 78.69 7.00  58.79 2583.65
   06:27:36.344.17-Sep-2021 5057.00 4974.10 78.69 7.00  58.99 2583.65
   06:27:36.544.17-Sep-2021 5057.00 4974.10 78.69 7.00  59.19 2583.65
   06:27:36.744.17-Sep-2021 5057.00 4777.48 78.69 7.00  59.39 2583.65
   06:27:36.944.17-Sep-2021 5057.00 4709.34 78.69 7.00  59.59 2583.65
   06:27:37.144.17-Sep-2021 5057.00 4806.98 78.69 7.00  59.79 2583.65
   06:27:37.344.17-Sep-2021 5057.00 4756.38 78.69 7.00  59.99 2583.65
   06:27:37.544.17-Sep-2021 5057.00 4756.38 78.69 7.00  60.19 2583.65
   06:27:37.744.17-Sep-2021 5057.00 4543.54 78.69 7.00  60.39 2583.65
   06:27:37.944.17-Sep-2021 5057.00 4513.28 78.69 7.00  60.59 2583.65
   06:27:38.144.17-Sep-2021 5057.00 4491.42 78.68 7.00  60.79 2583.65
   06:27:38.344.17-Sep-2021 5057.00 4410.39 78.68 7.00  60.99 2583.65
   06:27:38.544.17-Sep-2021 5057.00 4410.39 78.68 7.00  61.19 2583.65
   06:27:38.744.17-Sep-2021 5057.00 4246.19 78.68 7.00  61.39 2583.65
   06:27:38.944.17-Sep-2021 5057.00 4154.23 78.68 7.00  61.59 2583.65
   06:27:39.144.17-Sep-2021 5057.00 4069.53 78.68 7.00  61.79 2583.65
   06:27:39.343.17-Sep-2021 5057.00 3979.73 78.68 7.00  61.99 2583.65
   06:27:39.543.17-Sep-2021 5057.00 3979.73 78.68 7.00  62.19 2583.65
   06:27:39.743.17-Sep-2021 5057.00 3852.53 78.68 7.00  62.39 2583.65
   06:27:39.943.17-Sep-2021 5057.00 3849.35 78.68 7.00  62.59 2583.65
   06:27:40.143.17-Sep-2021 5057.00 3909.23 78.68 7.00  62.79 2583.65
   06:27:40.343.17-Sep-2021 5057.00 3843.81 78.68 7.00  62.99 2583.65
   06:27:40.543.17-Sep-2021 5057.00 3843.81 78.68 7.00  63.19 2583.65
   06:27:40.743.17-Sep-2021 5057.00 3514.57 78.67 7.00  63.39 2583.65
   06:27:40.943.17-Sep-2021 5057.00 3410.75 78.67 7.00  63.59 2583.65
   06:27:41.143.17-Sep-2021 5057.00 3373.85 78.67 7.00  63.79 2583.65
   06:27:41.343.17-Sep-2021 5057.00 3240.62 78.67 7.00  63.99 2583.65
   06:27:41.543.17-Sep-2021 5057.00 3240.62 78.67 7.00  64.19 2583.65
   06:27:41.743.17-Sep-2021 5057.00 2919.96 78.67 7.00  64.39 2583.65
   06:27:41.943.17-Sep-2021 5057.00 2839.15 78.67 7.00  64.59 2583.65
   06:27:42.143.17-Sep-2021 5057.00 2833.15 78.66 7.00  64.79 2583.65
   06:27:42.343.17-Sep-2021 5057.00 2848.43 78.66 7.00  64.99 2583.65
   06:27:42.543.17-Sep-2021 5057.00 2848.43 78.66 7.00  65.19 2583.65
   06:27:42.743.17-Sep-2021 5057.00 2801.80 78.66 7.00  65.39 2583.65
   06:27:42.943.17-Sep-2021 5057.00 2640.50 78.66 7.00  65.59 2583.65
   06:27:43.143.17-Sep-2021 5057.00 2522.82 78.66 7.00  65.79 2583.65
   06:27:43.343.17-Sep-2021 5057.00 2425.41 78.65 7.00  65.99 2583.65
   06:27:43.543.17-Sep-2021 5057.00 2425.41 78.65 7.00  66.19 2583.65
   06:27:43.743.17-Sep-2021 5057.00 2396.41 78.65 7.00  66.39 2583.65
   06:27:43.943.17-Sep-2021 5057.00 2422.65 78.65 7.00  66.59 2583.65
   06:27:44.142.17-Sep-2021 5057.00 2348.97 78.65 7.00  66.79 2583.65
   06:27:44.342.17-Sep-2021 5057.00 2250.54 78.64 7.00  66.99 2583.65
   06:27:44.542.17-Sep-2021 5057.00 2250.54 78.64 7.00  67.19 2583.65
   06:27:44.742.17-Sep-2021 5057.00 1979.71 78.64 7.00  67.39 2583.65
   06:27:44.942.17-Sep-2021 5057.00 1870.25 78.64 7.00  67.59 2583.65
   06:27:45.142.17-Sep-2021 5057.00 1773.05 78.64 7.00  67.79 2583.65
   06:27:45.342.17-Sep-2021 5057.00 1711.15 78.64 7.00  67.99 2583.65
   06:27:45.542.17-Sep-2021 5057.00 1711.15 78.64 7.00  68.19 2583.65
   06:27:45.742.17-Sep-2021 5057.00 1570.55 78.63 7.00  68.39 2583.65
   06:27:45.942.17-Sep-2021 5057.00 1510.58 78.63 7.00  68.59 2583.65
   06:27:46.142.17-Sep-2021 5057.00 1495.69 78.63 7.00  68.79 2583.65
