~Version Information
 VERS.                  2.0:   CWLS log ASCII Standard -VERSION 2.0
 WRAP.                   NO:   One line per depth step
~Well Information Block
#MNEM.UNIT     VALUE/NAME     DESCRIPTION
#---------     -----------    ---------------------------
 STRT.S             04:34:50 17-Sep-21: START TIME 04:34:50 17-Sep-21
 STOP.S             04:43:20 17-Sep-21: STOP TIME  04:43:20 17-Sep-21
 STEP.S                   0.00: STEP TIME
 NULL.                 -999.25: NULL VALUE
 DFWT.                        :  DIST FWL TEXT
 DFST.                        :  DIST FSL TEXT
 DMF .             Drill Floor:  DRILL MEAS FROM
 STIM.      10.59.12 05-Jul-21:  START TIME
 DATE.      10.59.12 10-Sep-21:  END TIME
 SPUD.               05-Jul-21:  SPUD DATE
 NREF.                    Grid:  NORTH REFERENCE
 HPTY.       Minimum Curvature:  HOLE POS TYPE
 DMOD.             Drill Model:  DRILL MOD DESC
 SVYD.                  Survey:  SURVEY DESC
 ILTD.               Lithology:  INTERP LTH DESC
 FTOP.          Formation Tops:  FORM TOPS DESC
 RIG .                     DWG:  RIG NAME
 PDAT.          Mean Sea Level:  PERMANENT DATUM
 FLD .                     ACG:  FIELD NAME
 SON .        AZ-XX-0907115008:  JOB NUMBER
 CTRY.              Azerbaijan:  COUNTRY NAME
 WELL.                    E35A:  WELL NAME
 SRVC.          TURAN DRILLING:  CONTRACTOR
 COMP.     BP Exploration (Caspian Sea LTD):  COMPANY
 UWI .                     N/A:  UNIQUE WELL IDENTIFIER
 API .                     N/A:  API NUMBER
 MDS .        Operator Entered:  MAG DATA SOURCE
 BASE.              Azerbaijan:  LOGGING EQUIPMENT BASE LOCATION
 REGN.                   EESSA:  REGION
 PROV.                    Baku:  PROVINCE
 STAT.                    Baku:  STATE NAME
 MWDS.                    Baku:  MWD SHOP
 JOBN.        AZ-XX-0907115008:  JOB TICKET NUMB
 DOE .                     N/A:  DOE NUMBER
 DCON.         Sperry Drilling:  DIRECTNL CONTR
 UNIT.                     N/A:  LOGGING EQUIPMENT ID
 WTYP.                Deviated:  WELL TYPE
 CNTY.                        :  COUNTY
 LOC .                        :  LOCATION
 LMF .             Drill Floor:  LOG MEASURED FROM
 TVDS.m                  43.16:  TVDSS CORRECTN
 LATI.deg                40.17:  LATITUDE
 LONG.deg                51.17:  LONGITUDE
 WHNS.m                  10.51:  WELL HEAD N/S
 WHEW.m                 -14.82:  WELL HEAD E/W
 UTMX.m              514336.92:  UTM X
 UTMY.m             4448618.56:  UTM Y
 DFWL.m                   0.00:  DISTANCE FWL
 DFSL.m                   0.00:  DISTANCE FSL
 SDEP.m                 849.00:  START DEPTH
 TDD .m                2862.00:  TOTAL DEPTH (DRILLER)
 VSDR.deg               292.10:  VERT SEC DIRECT
 GVFD.g                   1.00:  GRAVITY FIELD
 MFLD.nT              50382.00:  MAGNETIC FIELD
 MDIP.deg                59.68:  MAGNETIC DIP
 MDEC.deg                 6.66:  MAGNETIC DECL
 GRDC.deg                 0.09:  GRID CORRECTION
 AZTC.deg                 6.57:  AZM TOTAL CORR
 EPD .m                   0.00:  ELEVATION
 EGL .m                   0.00:  GROUND ELEVATION
 WDMS.m                 176.20:  WD ELEV
 APD .m                  43.16:  DEPTH ABOVE PD
 DEP .m                 363.42:  DEPTH
 AGAP.m                  43.16:  AIR GAP
 VSEW.m                 -14.82:  VERT SEC E/W
 VSNS.m                  10.51:  VERT SEC N/S
 EKB .m                  43.16:  KB ELEVATION
 EDF .m                  43.16:  DF ELEVATION
 TDL .m                1390.00:  TOTAL DEPTH (LOGGER)
 VSC .                       0:  VS TO CLOSURE
 MAGU.                 1855871:  MAGUTM CHECKSUM
~Parameter Information Block
#MNEM.UNIT       Value        Description
#---------     -----------    ---------------------------
 AV  .mps                 2.28:  Ann Velocity 
 AVMX.mps                 2.67:  Max Ann Veloc 
 AZIF.deg               305.00:  Azm, Final 
 BHAT.        Rotary Steerable:  BHA Type 
 BROT.°/30m               0.45:  Build Rotating 
 BS  .in                 12.25:  Bit Size 
 BSZ .in                 12.25:  Bit Size 
 BTPL.psig              600.00:  Bit Press Loss 
 CABU.                     Yes:  Customer Abuse 
 COMM.                     ÌN:  Run Comments 1 
 TCS .hr                150.00:  Time Ciculation Ended 
 CV  .mps                 1.24:  Crit Velocity 
 CVMX.mps                 1.66:  Max Crit Veloc 
 DD1 .         Intigam Rahimov:  Direct Drillr 1 
 DD2 .            Azer Ravavov:  Direct Drillr 2 
 DD3 .              Samir Abas:  Direct Drillr 3 
 DDSV.               Geo-Pilot:  DD Service 
 DEFF.%                 100.00:  % Det Eff 
 DLRX.°/30m               1.57:  Dogleg Rot Max 
 DLSO.°/30m               0.00:  Dogleg Oriented 
 DLSX.°/30m               0.00:  Dogleg Str Max 
 DRET.      20.28.06 17-Sep-21:  Drill End Time 
 DRST.      20.27.35 10-Sep-21:  Drill Start Tim 
 DTIM.hr                 54.00:  Time Drilling 
 EDEP.m                5260.00:  End Depth 
 ENG1.      Bakhtiyar Jabbarli:  Engineer 1 
 ENG2.      Natik Hasanaghayev:  Engineer 2 
 ENG3.           Royal Nasirov:  Engineer 3 
 ETIM.      20.27.55 18-Sep-21:  End Time 
 FLOI.gpm              1100.00:  Flow In 
 FLON.gpm               800.00:  Flow In Min 
 FLOS.cptm                0.00:  Fluid Loss 
 FLOX.gpm              1200.00:  Flow In Max 
 DFT .        Mineral Oil Base:  Mud Type 
 HPRE.                      No:  High Pressure 
 HTEM.                      No:  High Temp 
 HYDO.m                   1.80:  Hydro Offset 
 IFIN.deg                72.31:  Inc, Final 
 IMAX.deg                72.36:  Inc Max 
 IMIN.deg                69.36:  Inc Min 
 IMND.m                4192.96:  Inc Min Depth 
 IMXD.m                5128.36:  Inc Max Depth 
 JARR.                      No:  Jarring 
 LETM.      20.29.00 17-Sep-21:  Log End Time 
 LOST.hr                     0:  Lost Rig Time 
 LSTM.      20.27.00 10-Sep-21:  Log Start Time 
 MDCL.ppm            227000.00:  Mud Chlorides 
 MDES.     Inversion Oil/Synthetic:  Mud Desc 
 DFD .sg                  1.45:  Mud Density 
 MDMN.sg                  1.45:  Dens Mud Min 
 MDMX.sg                  1.45:  Dens Mud Max 
 MOIL.                    70.5:  Run Mud Oil % 
 MOWR.                   71:29:  Run Mud OWR 
 MSND.                     0.3:  Run Mud Sand % 
 MSOL.                    19.8:  Run Mud Solids% 
 DFV .spqt               80.00:  Mud Viscosity 
 MWOD.in                  8.00:  MWD Tool OD 
 MWSI.                     Yes:  Serv Intrp, MWD 
 OTIM.hr                180.00:  Time Operating 
 PCON.           Look Like New:  Pad Condition 
 PMAX.psia             9910.94:  Press Op, Max 
 PV  .cP                 35.00:  Mud PV 
 RUN .                    1000:  Run Number 
 ROPA.m/hr               18.00:  ROP Avg 
 ROPN.m/hr                8.00:  ROP Min 
 ROPX.m/hr               23.00:  ROP Max 
 RPMA.rpm               150.00:  RPM Surface Avg 
 RPMN.rpm               120.00:  RPM Surface Min 
 RPMX.rpm               160.00:  RPM Surface Max 
 RRUN.                    L503:  Rig Run Number 
 RTIM.hr                  5.00:  Time Reaming 
 SAZI.deg               298.42:  Azm, Start 
 SDEP.m                3870.00:  Start Depth 
 SIDD.                      No:  Serv Intrp, DD 
 SINC.deg                69.57:  Inc, Start 
 SPPA.psig             5500.00:  SPP Avg 
 SPPN.psig             4400.00:  SPP Min 
 SPPX.psig             5800.00:  SPP Max 
 STIM.      15.29.39 09-Sep-21:  Start Time 
 SVCS.                 DD, MWD:  Services 
 SVER.                    9.20:  Sperry Version 
 TDAT.m                5260.00:  Tot Depth Attmp 
 TDDF.                      No:  Trip for DD 
 TDLG.m                1390.00:  Tot Depth Loggd 
 TFF .                      No:  Trip for Fail 
 TQAA.f-kp               22.00:  Torque Abs Avg 
 TQAN.f-kp               13.00:  Torque Abs Min 
 TQAX.f-kp               27.00:  Torque Abs Max 
 TRRT.°/30m               1.60:  Turn Rotating 
 MRT .                  EWR-M5:  Maximum Recorded Temperature 
 TTMX.degC               92.00:  Max Tool Temp 
 VS01.                12330975:  Virtual Str1 SN 
 VS02.                90658671:  Virtual Str2 SN 
 VS03.                90658508:  Virtual Str3 SN 
 VS04.                90660974:  Virtual Str4 SN 
 VS05.                90654675:  Virtual Str5 SN 
 WBMN.klb                15.00:  WOB Min 
 WITN.     Alexander Yadullayev:  Customer Rep 
 WITN.           Adil Mammadov:  Customer Rep 2 
 WOBA.klb                17.00:  WOB Avg 
 WOBX.klb                18.00:  WOB Max 
 YP  .lhf2               31.00:  Yield Point 
~Curve Information Block
#MNEM.UNIT                 API CODE     Curve Description
#---------               -----------    ---------------------------
 TIME.HHMMSS            00 000 000 000:  GT Time & Date
 GTDEPTH.m              00 000 000 000:  GT Depth
 GTPQH.psia             00 000 000 000:  GT HR Quartz Pressure
 GTTQ.degC              00 000 000 000:  GT Quartz Temperature
 GTTN.NONE              00 000 000 000:  GT Test Number
 GTET.sec               00 000 000 000:  GT Elapsed Test Time
 GTTVD.m                00 000 000 000:  GT True Vertical Depth
#Other Information
#
#WARRANTY: Halliburton will use its best efforts to furnish customers with 
#accurate information and interpretations that are part of, and incident to, the services 
#provided.  However, Halliburton cannot and does not warrant the accuracy 
#or correctness of such information and interpretations.  Under no circumstances should any 
#such information or interpretation be relied upon as the sole basis for any drilling, 
#completion, production, or financial decision or any procedure involving any risk to the 
#safety of any drilling venture, drilling rig or its crew or any other third party.  The 
#Customer has full responsibility for all drilling, completion and production operation.  
#Halliburton makes no representations or warranties, either expressed or 
#implied, including, but not limited to, the implied warranties of merchantability or fitness 
#for a particular purpose, with respect to the services rendered.  In no event will 
#Halliburton be liable for failure to obtain any particular results or for 
#any damages, including, but not limited to, indirect, special or consequential damages, 
#resulting from the use of any information or interpretation provided by Halliburton.
#
~A           TIME           GTDEPTH  GTPQH  GTTQ  GTTN  GTET   GTTVD  
# ...
   04:42:30.519.17-Sep-2021 5094.00 5455.74 79.95 4.00 460.50 2595.14
   04:42:30.719.17-Sep-2021 5094.00 5455.74 79.95 4.00 460.70 2595.14
   04:42:30.920.17-Sep-2021 5094.00 5455.56 79.95 4.00 460.90 2595.14
   04:42:31.120.17-Sep-2021 5094.00 5455.39 79.95 4.00 461.10 2595.14
   04:42:31.320.17-Sep-2021 5094.00 5454.93 79.95 4.00 461.30 2595.14
   04:42:31.520.17-Sep-2021 5094.00 5454.79 79.95 4.00 461.50 2595.14
   04:42:31.720.17-Sep-2021 5094.00 5454.79 79.95 4.00 461.70 2595.14
   04:42:31.921.17-Sep-2021 5094.00 5454.92 79.95 4.00 461.90 2595.14
   04:42:32.121.17-Sep-2021 5094.00 5453.79 79.95 4.00 462.10 2595.14
   04:42:32.321.17-Sep-2021 5094.00 5453.98 79.94 4.00 462.30 2595.14
   04:42:32.521.17-Sep-2021 5094.00 5454.09 79.94 4.00 462.50 2595.14
   04:42:32.722.17-Sep-2021 5094.00 5454.09 79.94 4.00 462.70 2595.14
   04:42:32.922.17-Sep-2021 5094.00 5453.87 79.94 4.00 462.90 2595.14
   04:42:33.122.17-Sep-2021 5094.00 5453.75 79.94 4.00 463.10 2595.14
   04:42:33.322.17-Sep-2021 5094.00 5453.76 79.94 4.00 463.30 2595.14
   04:42:33.522.17-Sep-2021 5094.00 5453.69 79.94 4.00 463.50 2595.14
   04:42:33.723.17-Sep-2021 5094.00 5453.69 79.94 4.00 463.70 2595.14
   04:42:33.923.17-Sep-2021 5094.00 5453.66 79.94 4.00 463.90 2595.14
   04:42:34.123.17-Sep-2021 5094.00 5453.67 79.94 4.00 464.10 2595.14
   04:42:34.323.17-Sep-2021 5094.00 5453.70 79.94 4.00 464.30 2595.14
   04:42:34.523.17-Sep-2021 5094.00 5453.67 79.94 4.00 464.50 2595.14
   04:42:34.724.17-Sep-2021 5094.00 5453.67 79.94 4.00 464.70 2595.14
   04:42:34.924.17-Sep-2021 5094.00 5454.11 79.94 4.00 464.90 2595.14
   04:42:35.124.17-Sep-2021 5094.00 5453.44 79.94 4.00 465.10 2595.14
   04:42:35.324.17-Sep-2021 5094.00 5453.53 79.94 4.00 465.30 2595.14
   04:42:35.525.17-Sep-2021 5094.00 5453.23 79.94 4.00 465.50 2595.14
   04:42:35.725.17-Sep-2021 5094.00 5453.23 79.94 4.00 465.70 2595.14
   04:42:35.925.17-Sep-2021 5094.00 5453.34 79.94 4.00 465.90 2595.14
   04:42:36.125.17-Sep-2021 5094.00 5453.29 79.94 4.00 466.10 2595.14
   04:42:36.325.17-Sep-2021 5094.00 5453.26 79.94 4.00 466.30 2595.14
   04:42:36.526.17-Sep-2021 5094.00 5453.13 79.94 4.00 466.50 2595.14
   04:42:36.726.17-Sep-2021 5094.00 5453.13 79.94 4.00 466.70 2595.14
   04:42:36.926.17-Sep-2021 5094.00 5452.99 79.94 4.00 466.90 2595.14
   04:42:37.126.17-Sep-2021 5094.00 5452.98 79.94 4.00 467.10 2595.14
   04:42:37.327.17-Sep-2021 5094.00 5452.93 79.94 4.00 467.30 2595.14
   04:42:37.527.17-Sep-2021 5094.00 5452.92 79.94 4.00 467.50 2595.14
   04:42:37.727.17-Sep-2021 5094.00 5452.92 79.94 4.00 467.70 2595.14
   04:42:37.927.17-Sep-2021 5094.00 5453.00 79.94 4.00 467.90 2595.14
   04:42:38.127.17-Sep-2021 5094.00 5453.01 79.94 4.00 468.10 2595.14
   04:42:38.328.17-Sep-2021 5094.00 5453.07 79.93 4.00 468.30 2595.14
   04:42:38.528.17-Sep-2021 5094.00 5453.08 79.93 4.00 468.50 2595.14
   04:42:38.728.17-Sep-2021 5094.00 5453.08 79.93 4.00 468.70 2595.14
   04:42:38.928.17-Sep-2021 5094.00 5452.57 79.93 4.00 468.91 2595.14
   04:42:39.128.17-Sep-2021 5094.00 5453.29 79.93 4.00 469.11 2595.14
   04:42:39.329.17-Sep-2021 5094.00 5451.44 79.93 4.00 469.31 2595.14
   04:42:39.529.17-Sep-2021 5094.00 5451.94 79.93 4.00 469.51 2595.14
   04:42:39.729.17-Sep-2021 5094.00 5451.94 79.93 4.00 469.71 2595.14
   04:42:39.929.17-Sep-2021 5094.00 5451.67 79.93 4.00 469.91 2595.14
   04:42:40.130.17-Sep-2021 5094.00 5451.61 79.93 4.00 470.11 2595.14
   04:42:40.330.17-Sep-2021 5094.00 5451.53 79.93 4.00 470.31 2595.14
   04:42:40.530.17-Sep-2021 5094.00 5451.73 79.93 4.00 470.51 2595.14
   04:42:40.730.17-Sep-2021 5094.00 5451.73 79.93 4.00 470.71 2595.14
   04:42:40.930.17-Sep-2021 5094.00 5450.82 79.93 4.00 470.91 2595.14
   04:42:41.131.17-Sep-2021 5094.00 5450.85 79.93 4.00 471.11 2595.14
   04:42:41.331.17-Sep-2021 5094.00 5450.59 79.93 4.00 471.31 2595.14
   04:42:41.531.17-Sep-2021 5094.00 5450.70 79.93 4.00 471.51 2595.14
   04:42:41.731.17-Sep-2021 5094.00 5450.70 79.93 4.00 471.71 2595.14
   04:42:41.931.17-Sep-2021 5094.00 5450.62 79.93 4.00 471.91 2595.14
   04:42:42.132.17-Sep-2021 5094.00 5450.49 79.93 4.00 472.11 2595.14
   04:42:42.332.17-Sep-2021 5094.00 5450.45 79.93 4.00 472.31 2595.14
   04:42:42.532.17-Sep-2021 5094.00 5450.27 79.93 4.00 472.51 2595.14
   04:42:42.732.17-Sep-2021 5094.00 5450.27 79.93 4.00 472.71 2595.14
   04:42:42.933.17-Sep-2021 5094.00 5450.22 79.93 4.00 472.91 2595.14
   04:42:43.133.17-Sep-2021 5094.00 5450.16 79.93 4.00 473.11 2595.14
   04:42:43.333.17-Sep-2021 5094.00 5450.21 79.93 4.00 473.31 2595.14
   04:42:43.533.17-Sep-2021 5094.00 5450.20 79.93 4.00 473.51 2595.14
   04:42:43.733.17-Sep-2021 5094.00 5450.20 79.93 4.00 473.71 2595.14
   04:42:43.934.17-Sep-2021 5094.00 5450.23 79.93 4.00 473.91 2595.14
   04:42:44.134.17-Sep-2021 5094.00 5450.18 79.92 4.00 474.11 2595.14
   04:42:44.334.17-Sep-2021 5094.00 5450.15 79.92 4.00 474.31 2595.14
   04:42:44.534.17-Sep-2021 5094.00 5450.13 79.92 4.00 474.51 2595.14
   04:42:44.734.17-Sep-2021 5094.00 5450.13 79.92 4.00 474.71 2595.14
   04:42:44.935.17-Sep-2021 5094.00 5398.28 79.92 4.00 474.91 2595.14
   04:42:45.135.17-Sep-2021 5094.00 5566.34 79.92 4.00 475.11 2595.14
   04:42:45.335.17-Sep-2021 5094.00 5567.75 79.92 4.00 475.31 2595.14
   04:42:45.535.17-Sep-2021 5094.00 5570.17 79.92 4.00 475.51 2595.14
   04:42:45.736.17-Sep-2021 5094.00 5570.17 79.92 4.00 475.71 2595.14
   04:42:45.936.17-Sep-2021 5094.00 5607.14 79.92 4.00 475.91 2595.14
   04:42:46.136.17-Sep-2021 5094.00 5628.61 79.92 4.00 476.11 2595.14
   04:42:46.336.17-Sep-2021 5094.00 5654.31 79.92 4.00 476.31 2595.14
   04:42:46.536.17-Sep-2021 5094.00 5695.62 79.92 4.00 476.51 2595.14
   04:42:46.737.17-Sep-2021 5094.00 5695.62 79.92 4.00 476.71 2595.14
   04:42:46.937.17-Sep-2021 5094.00 5783.65 79.92 4.00 476.91 2595.14
   04:42:47.137.17-Sep-2021 5094.00 5824.03 79.92 4.00 477.11 2595.14
   04:42:47.337.17-Sep-2021 5094.00 5823.64 79.92 4.00 477.31 2595.14
   04:42:47.538.17-Sep-2021 5094.00 5654.93 79.92 4.00 477.51 2595.14
   04:42:47.738.17-Sep-2021 5094.00 5654.93 79.92 4.00 477.71 2595.14
   04:42:47.938.17-Sep-2021 5094.00 5570.52 79.92 4.00 477.91 2595.14
   04:42:48.138.17-Sep-2021 5094.00 5574.02 79.92 4.00 478.11 2595.14
   04:42:48.338.17-Sep-2021 5094.00 5569.33 79.92 4.00 478.32 2595.14
   04:42:48.539.17-Sep-2021 5094.00 5572.03 79.92 4.00 478.52 2595.14
   04:42:48.739.17-Sep-2021 5094.00 5572.03 79.92 4.00 478.72 2595.14
   04:42:48.939.17-Sep-2021 5094.00 5573.36 79.92 4.00 478.92 2595.14
   04:42:49.139.17-Sep-2021 5094.00 5568.68 79.92 4.00 479.12 2595.14
   04:42:49.339.17-Sep-2021 5094.00 5570.89 79.92 4.00 479.32 2595.14
   04:42:49.540.17-Sep-2021 5094.00 5568.90 79.92 4.00 479.52 2595.14
   04:42:49.740.17-Sep-2021 5094.00 5568.90 79.92 4.00 479.72 2595.14
   04:42:49.940.17-Sep-2021 5094.00 5568.72 79.92 4.00 479.92 2595.14
   04:42:50.140.17-Sep-2021 5094.00 5569.14 79.92 4.00 480.12 2595.14
   04:42:50.341.17-Sep-2021 5094.00 5569.69 79.92 4.00 480.32 2595.14
   04:42:50.541.17-Sep-2021 5094.00 5569.01 79.92 4.00 480.52 2595.14
   04:42:50.741.17-Sep-2021 5094.00 5569.01 79.92 4.00 480.72 2595.14
   04:42:50.941.17-Sep-2021 5094.00 5569.01 79.92 4.00 480.92 2595.14
   04:42:51.141.17-Sep-2021 5094.00 5568.77 79.92 4.00 481.12 2595.14
   04:42:51.342.17-Sep-2021 5094.00 5568.79 79.92 4.00 481.32 2595.14
   04:42:51.542.17-Sep-2021 5094.00 5571.99 79.92 4.00 481.52 2595.14
   04:42:51.742.17-Sep-2021 5094.00 5571.99 79.92 4.00 481.72 2595.14
   04:42:51.942.17-Sep-2021 5094.00 5570.72 79.91 4.00 481.92 2595.14
   04:42:52.142.17-Sep-2021 5094.00 5568.79 79.91 4.00 482.12 2595.14
   04:42:52.343.17-Sep-2021 5094.00 5568.97 79.91 4.00 482.32 2595.14
   04:42:52.543.17-Sep-2021 5094.00 5568.81 79.91 4.00 482.52 2595.14
   04:42:52.743.17-Sep-2021 5094.00 5568.81 79.91 4.00 482.72 2595.14
   04:42:52.943.17-Sep-2021 5094.00 5568.27 79.91 4.00 482.92 2595.14
   04:42:53.144.17-Sep-2021 5094.00 5568.26 79.91 4.00 483.12 2595.14
   04:42:53.344.17-Sep-2021 5094.00 5568.69 79.91 4.00 483.32 2595.14
