~Version Information
 VERS.                  2.0:   CWLS log ASCII Standard -VERSION 2.0
 WRAP.                   NO:   One line per depth step
~Well Information Block
#MNEM.UNIT     VALUE/NAME     DESCRIPTION
#---------     -----------    ---------------------------
 STRT.S             04:34:50 17-Sep-21: START TIME 04:34:50 17-Sep-21
 STOP.S             04:43:20 17-Sep-21: STOP TIME  04:43:20 17-Sep-21
 STEP.S                   0.00: STEP TIME
 NULL.                 -999.25: NULL VALUE
 DFWT.                        :  DIST FWL TEXT
 DFST.                        :  DIST FSL TEXT
 DMF .             Drill Floor:  DRILL MEAS FROM
 STIM.      10.59.12 05-Jul-21:  START TIME
 DATE.      10.59.12 10-Sep-21:  END TIME
 SPUD.               05-Jul-21:  SPUD DATE
 NREF.                    Grid:  NORTH REFERENCE
 HPTY.       Minimum Curvature:  HOLE POS TYPE
 DMOD.             Drill Model:  DRILL MOD DESC
 SVYD.                  Survey:  SURVEY DESC
 ILTD.               Lithology:  INTERP LTH DESC
 FTOP.          Formation Tops:  FORM TOPS DESC
 RIG .                     DWG:  RIG NAME
 PDAT.          Mean Sea Level:  PERMANENT DATUM
 FLD .                     ACG:  FIELD NAME
 SON .        AZ-XX-0907115008:  JOB NUMBER
 CTRY.              Azerbaijan:  COUNTRY NAME
 WELL.                    E35A:  WELL NAME
 SRVC.          TURAN DRILLING:  CONTRACTOR
 COMP.     BP Exploration (Caspian Sea LTD):  COMPANY
 UWI .                     N/A:  UNIQUE WELL IDENTIFIER
 API .                     N/A:  API NUMBER
 MDS .        Operator Entered:  MAG DATA SOURCE
 BASE.              Azerbaijan:  LOGGING EQUIPMENT BASE LOCATION
 REGN.                   EESSA:  REGION
 PROV.                    Baku:  PROVINCE
 STAT.                    Baku:  STATE NAME
 MWDS.                    Baku:  MWD SHOP
 JOBN.        AZ-XX-0907115008:  JOB TICKET NUMB
 DOE .                     N/A:  DOE NUMBER
 DCON.         Sperry Drilling:  DIRECTNL CONTR
 UNIT.                     N/A:  LOGGING EQUIPMENT ID
 WTYP.                Deviated:  WELL TYPE
 CNTY.                        :  COUNTY
 LOC .                        :  LOCATION
 LMF .             Drill Floor:  LOG MEASURED FROM
 TVDS.m                  43.16:  TVDSS CORRECTN
 LATI.deg                40.17:  LATITUDE
 LONG.deg                51.17:  LONGITUDE
 WHNS.m                  10.51:  WELL HEAD N/S
 WHEW.m                 -14.82:  WELL HEAD E/W
 UTMX.m              514336.92:  UTM X
 UTMY.m             4448618.56:  UTM Y
 DFWL.m                   0.00:  DISTANCE FWL
 DFSL.m                   0.00:  DISTANCE FSL
 SDEP.m                 849.00:  START DEPTH
 TDD .m                2862.00:  TOTAL DEPTH (DRILLER)
 VSDR.deg               292.10:  VERT SEC DIRECT
 GVFD.g                   1.00:  GRAVITY FIELD
 MFLD.nT              50382.00:  MAGNETIC FIELD
 MDIP.deg                59.68:  MAGNETIC DIP
 MDEC.deg                 6.66:  MAGNETIC DECL
 GRDC.deg                 0.09:  GRID CORRECTION
 AZTC.deg                 6.57:  AZM TOTAL CORR
 EPD .m                   0.00:  ELEVATION
 EGL .m                   0.00:  GROUND ELEVATION
 WDMS.m                 176.20:  WD ELEV
 APD .m                  43.16:  DEPTH ABOVE PD
 DEP .m                 363.42:  DEPTH
 AGAP.m                  43.16:  AIR GAP
 VSEW.m                 -14.82:  VERT SEC E/W
 VSNS.m                  10.51:  VERT SEC N/S
 EKB .m                  43.16:  KB ELEVATION
 EDF .m                  43.16:  DF ELEVATION
 TDL .m                1390.00:  TOTAL DEPTH (LOGGER)
 VSC .                       0:  VS TO CLOSURE
 MAGU.                 1855871:  MAGUTM CHECKSUM
~Parameter Information Block
#MNEM.UNIT       Value        Description
#---------     -----------    ---------------------------
 AV  .mps                 2.28:  Ann Velocity 
 AVMX.mps                 2.67:  Max Ann Veloc 
 AZIF.deg               305.00:  Azm, Final 
 BHAT.        Rotary Steerable:  BHA Type 
 BROT.°/30m               0.45:  Build Rotating 
 BS  .in                 12.25:  Bit Size 
 BSZ .in                 12.25:  Bit Size 
 BTPL.psig              600.00:  Bit Press Loss 
 CABU.                     Yes:  Customer Abuse 
 COMM.                     ÌN:  Run Comments 1 
 TCS .hr                150.00:  Time Ciculation Ended 
 CV  .mps                 1.24:  Crit Velocity 
 CVMX.mps                 1.66:  Max Crit Veloc 
 DD1 .         Intigam Rahimov:  Direct Drillr 1 
 DD2 .            Azer Ravavov:  Direct Drillr 2 
 DD3 .              Samir Abas:  Direct Drillr 3 
 DDSV.               Geo-Pilot:  DD Service 
 DEFF.%                 100.00:  % Det Eff 
 DLRX.°/30m               1.57:  Dogleg Rot Max 
 DLSO.°/30m               0.00:  Dogleg Oriented 
 DLSX.°/30m               0.00:  Dogleg Str Max 
 DRET.      20.28.06 17-Sep-21:  Drill End Time 
 DRST.      20.27.35 10-Sep-21:  Drill Start Tim 
 DTIM.hr                 54.00:  Time Drilling 
 EDEP.m                5260.00:  End Depth 
 ENG1.      Bakhtiyar Jabbarli:  Engineer 1 
 ENG2.      Natik Hasanaghayev:  Engineer 2 
 ENG3.           Royal Nasirov:  Engineer 3 
 ETIM.      20.27.55 18-Sep-21:  End Time 
 FLOI.gpm              1100.00:  Flow In 
 FLON.gpm               800.00:  Flow In Min 
 FLOS.cptm                0.00:  Fluid Loss 
 FLOX.gpm              1200.00:  Flow In Max 
 DFT .        Mineral Oil Base:  Mud Type 
 HPRE.                      No:  High Pressure 
 HTEM.                      No:  High Temp 
 HYDO.m                   1.80:  Hydro Offset 
 IFIN.deg                72.31:  Inc, Final 
 IMAX.deg                72.36:  Inc Max 
 IMIN.deg                69.36:  Inc Min 
 IMND.m                4192.96:  Inc Min Depth 
 IMXD.m                5128.36:  Inc Max Depth 
 JARR.                      No:  Jarring 
 LETM.      20.29.00 17-Sep-21:  Log End Time 
 LOST.hr                     0:  Lost Rig Time 
 LSTM.      20.27.00 10-Sep-21:  Log Start Time 
 MDCL.ppm            227000.00:  Mud Chlorides 
 MDES.     Inversion Oil/Synthetic:  Mud Desc 
 DFD .sg                  1.45:  Mud Density 
 MDMN.sg                  1.45:  Dens Mud Min 
 MDMX.sg                  1.45:  Dens Mud Max 
 MOIL.                    70.5:  Run Mud Oil % 
 MOWR.                   71:29:  Run Mud OWR 
 MSND.                     0.3:  Run Mud Sand % 
 MSOL.                    19.8:  Run Mud Solids% 
 DFV .spqt               80.00:  Mud Viscosity 
 MWOD.in                  8.00:  MWD Tool OD 
 MWSI.                     Yes:  Serv Intrp, MWD 
 OTIM.hr                180.00:  Time Operating 
 PCON.           Look Like New:  Pad Condition 
 PMAX.psia             9910.94:  Press Op, Max 
 PV  .cP                 35.00:  Mud PV 
 RUN .                    1000:  Run Number 
 ROPA.m/hr               18.00:  ROP Avg 
 ROPN.m/hr                8.00:  ROP Min 
 ROPX.m/hr               23.00:  ROP Max 
 RPMA.rpm               150.00:  RPM Surface Avg 
 RPMN.rpm               120.00:  RPM Surface Min 
 RPMX.rpm               160.00:  RPM Surface Max 
 RRUN.                    L503:  Rig Run Number 
 RTIM.hr                  5.00:  Time Reaming 
 SAZI.deg               298.42:  Azm, Start 
 SDEP.m                3870.00:  Start Depth 
 SIDD.                      No:  Serv Intrp, DD 
 SINC.deg                69.57:  Inc, Start 
 SPPA.psig             5500.00:  SPP Avg 
 SPPN.psig             4400.00:  SPP Min 
 SPPX.psig             5800.00:  SPP Max 
 STIM.      15.29.39 09-Sep-21:  Start Time 
 SVCS.                 DD, MWD:  Services 
 SVER.                    9.20:  Sperry Version 
 TDAT.m                5260.00:  Tot Depth Attmp 
 TDDF.                      No:  Trip for DD 
 TDLG.m                1390.00:  Tot Depth Loggd 
 TFF .                      No:  Trip for Fail 
 TQAA.f-kp               22.00:  Torque Abs Avg 
 TQAN.f-kp               13.00:  Torque Abs Min 
 TQAX.f-kp               27.00:  Torque Abs Max 
 TRRT.°/30m               1.60:  Turn Rotating 
 MRT .                  EWR-M5:  Maximum Recorded Temperature 
 TTMX.degC               92.00:  Max Tool Temp 
 VS01.                12330975:  Virtual Str1 SN 
 VS02.                90658671:  Virtual Str2 SN 
 VS03.                90658508:  Virtual Str3 SN 
 VS04.                90660974:  Virtual Str4 SN 
 VS05.                90654675:  Virtual Str5 SN 
 WBMN.klb                15.00:  WOB Min 
 WITN.     Alexander Yadullayev:  Customer Rep 
 WITN.           Adil Mammadov:  Customer Rep 2 
 WOBA.klb                17.00:  WOB Avg 
 WOBX.klb                18.00:  WOB Max 
 YP  .lhf2               31.00:  Yield Point 
~Curve Information Block
#MNEM.UNIT                 API CODE     Curve Description
#---------               -----------    ---------------------------
 TIME.HHMMSS            00 000 000 000:  GT Time & Date
 GTDEPTH.m              00 000 000 000:  GT Depth
 GTPQH.psia             00 000 000 000:  GT HR Quartz Pressure
 GTTQ.degC              00 000 000 000:  GT Quartz Temperature
 GTTN.NONE              00 000 000 000:  GT Test Number
 GTET.sec               00 000 000 000:  GT Elapsed Test Time
 GTTVD.m                00 000 000 000:  GT True Vertical Depth
#Other Information
#
#WARRANTY: Halliburton will use its best efforts to furnish customers with 
#accurate information and interpretations that are part of, and incident to, the services 
#provided.  However, Halliburton cannot and does not warrant the accuracy 
#or correctness of such information and interpretations.  Under no circumstances should any 
#such information or interpretation be relied upon as the sole basis for any drilling, 
#completion, production, or financial decision or any procedure involving any risk to the 
#safety of any drilling venture, drilling rig or its crew or any other third party.  The 
#Customer has full responsibility for all drilling, completion and production operation.  
#Halliburton makes no representations or warranties, either expressed or 
#implied, including, but not limited to, the implied warranties of merchantability or fitness 
#for a particular purpose, with respect to the services rendered.  In no event will 
#Halliburton be liable for failure to obtain any particular results or for 
#any damages, including, but not limited to, indirect, special or consequential damages, 
#resulting from the use of any information or interpretation provided by Halliburton.
#
~A           TIME           GTDEPTH  GTPQH  GTTQ  GTTN  GTET   GTTVD  
# ...
   04:36:22.122.17-Sep-2021 5094.00 5576.11 80.61 4.00  92.10 2595.14
   04:36:22.323.17-Sep-2021 5094.00 5576.11 80.61 4.00  92.30 2595.14
   04:36:22.523.17-Sep-2021 5094.00 5576.05 80.61 4.00  92.50 2595.14
   04:36:22.723.17-Sep-2021 5094.00 5576.36 80.61 4.00  92.70 2595.14
   04:36:22.923.17-Sep-2021 5094.00 5576.66 80.61 4.00  92.90 2595.14
   04:36:23.123.17-Sep-2021 5094.00 5576.63 80.61 4.00  93.10 2595.14
   04:36:23.324.17-Sep-2021 5094.00 5576.63 80.61 4.00  93.30 2595.14
   04:36:23.524.17-Sep-2021 5094.00 5576.39 80.61 4.00  93.50 2595.14
   04:36:23.724.17-Sep-2021 5094.00 5576.61 80.61 4.00  93.70 2595.14
   04:36:23.924.17-Sep-2021 5094.00 5576.76 80.61 4.00  93.90 2595.14
   04:36:24.125.17-Sep-2021 5094.00 5580.09 80.61 4.00  94.10 2595.14
   04:36:24.325.17-Sep-2021 5094.00 5580.09 80.61 4.00  94.30 2595.14
   04:36:24.525.17-Sep-2021 5094.00 5577.85 80.61 4.00  94.50 2595.14
   04:36:24.725.17-Sep-2021 5094.00 5576.78 80.61 4.00  94.70 2595.14
   04:36:24.925.17-Sep-2021 5094.00 5576.17 80.61 4.00  94.90 2595.14
   04:36:25.126.17-Sep-2021 5094.00 5576.18 80.60 4.00  95.10 2595.14
   04:36:25.326.17-Sep-2021 5094.00 5576.18 80.60 4.00  95.30 2595.14
   04:36:25.526.17-Sep-2021 5094.00 5575.71 80.60 4.00  95.50 2595.14
   04:36:25.726.17-Sep-2021 5094.00 5575.73 80.60 4.00  95.70 2595.14
   04:36:25.927.17-Sep-2021 5094.00 5575.85 80.60 4.00  95.90 2595.14
   04:36:26.127.17-Sep-2021 5094.00 5576.01 80.60 4.00  96.10 2595.14
   04:36:26.327.17-Sep-2021 5094.00 5576.01 80.60 4.00  96.30 2595.14
   04:36:26.527.17-Sep-2021 5094.00 5576.18 80.60 4.00  96.50 2595.14
   04:36:26.727.17-Sep-2021 5094.00 5576.18 80.60 4.00  96.70 2595.14
   04:36:26.928.17-Sep-2021 5094.00 5576.64 80.60 4.00  96.90 2595.14
   04:36:27.128.17-Sep-2021 5094.00 5576.59 80.60 4.00  97.10 2595.14
   04:36:27.328.17-Sep-2021 5094.00 5576.59 80.60 4.00  97.30 2595.14
   04:36:27.528.17-Sep-2021 5094.00 5579.46 80.60 4.00  97.51 2595.14
   04:36:27.728.17-Sep-2021 5094.00 5575.87 80.60 4.00  97.71 2595.14
   04:36:27.929.17-Sep-2021 5094.00 5578.10 80.60 4.00  97.91 2595.14
   04:36:28.129.17-Sep-2021 5094.00 5576.18 80.60 4.00  98.11 2595.14
   04:36:28.329.17-Sep-2021 5094.00 5576.18 80.60 4.00  98.31 2595.14
   04:36:28.529.17-Sep-2021 5094.00 5575.89 80.60 4.00  98.51 2595.14
   04:36:28.730.17-Sep-2021 5094.00 5578.48 80.60 4.00  98.71 2595.14
   04:36:28.930.17-Sep-2021 5094.00 5574.65 80.60 4.00  98.91 2595.14
   04:36:29.130.17-Sep-2021 5094.00 5576.91 80.60 4.00  99.11 2595.14
   04:36:29.330.17-Sep-2021 5094.00 5576.91 80.60 4.00  99.31 2595.14
   04:36:29.530.17-Sep-2021 5094.00 5575.39 80.60 4.00  99.51 2595.14
   04:36:29.731.17-Sep-2021 5094.00 5575.66 80.60 4.00  99.71 2595.14
   04:36:29.931.17-Sep-2021 5094.00 5577.20 80.60 4.00  99.91 2595.14
   04:36:30.131.17-Sep-2021 5094.00 5575.61 80.59 4.00 100.11 2595.14
   04:36:30.331.17-Sep-2021 5094.00 5575.61 80.59 4.00 100.31 2595.14
   04:36:30.531.17-Sep-2021 5094.00 5575.61 80.59 4.00 100.51 2595.14
   04:36:30.732.17-Sep-2021 5094.00 5575.99 80.59 4.00 100.71 2595.14
   04:36:30.932.17-Sep-2021 5094.00 5576.69 80.59 4.00 100.91 2595.14
   04:36:31.132.17-Sep-2021 5094.00 5576.77 80.59 4.00 101.11 2595.14
   04:36:31.332.17-Sep-2021 5094.00 5576.77 80.59 4.00 101.31 2595.14
   04:36:31.533.17-Sep-2021 5094.00 5576.61 80.59 4.00 101.51 2595.14
   04:36:31.733.17-Sep-2021 5094.00 5576.10 80.59 4.00 101.71 2595.14
   04:36:31.933.17-Sep-2021 5094.00 5575.96 80.59 4.00 101.91 2595.14
   04:36:32.133.17-Sep-2021 5094.00 5575.86 80.59 4.00 102.11 2595.14
   04:36:32.333.17-Sep-2021 5094.00 5575.86 80.59 4.00 102.31 2595.14
   04:36:32.534.17-Sep-2021 5094.00 5575.44 80.59 4.00 102.51 2595.14
   04:36:32.734.17-Sep-2021 5094.00 5575.84 80.59 4.00 102.71 2595.14
   04:36:32.934.17-Sep-2021 5094.00 5575.67 80.59 4.00 102.91 2595.14
   04:36:33.134.17-Sep-2021 5094.00 5576.03 80.59 4.00 103.11 2595.14
   04:36:33.334.17-Sep-2021 5094.00 5576.03 80.59 4.00 103.31 2595.14
   04:36:33.535.17-Sep-2021 5094.00 5576.04 80.59 4.00 103.51 2595.14
   04:36:33.735.17-Sep-2021 5094.00 5576.06 80.59 4.00 103.71 2595.14
   04:36:33.935.17-Sep-2021 5094.00 5576.33 80.59 4.00 103.91 2595.14
   04:36:34.135.17-Sep-2021 5094.00 5579.53 80.59 4.00 104.11 2595.14
   04:36:34.336.17-Sep-2021 5094.00 5579.53 80.59 4.00 104.31 2595.14
   04:36:34.536.17-Sep-2021 5094.00 5577.47 80.59 4.00 104.51 2595.14
   04:36:34.736.17-Sep-2021 5094.00 5576.64 80.59 4.00 104.71 2595.14
   04:36:34.936.17-Sep-2021 5094.00 5575.68 80.59 4.00 104.91 2595.14
   04:36:35.136.17-Sep-2021 5094.00 5575.86 80.58 4.00 105.11 2595.14
   04:36:35.337.17-Sep-2021 5094.00 5575.86 80.58 4.00 105.31 2595.14
   04:36:35.537.17-Sep-2021 5094.00 5575.35 80.58 4.00 105.51 2595.14
   04:36:35.737.17-Sep-2021 5094.00 5575.10 80.58 4.00 105.71 2595.14
   04:36:35.937.17-Sep-2021 5094.00 5575.38 80.58 4.00 105.91 2595.14
   04:36:36.138.17-Sep-2021 5094.00 5575.45 80.58 4.00 106.11 2595.14
   04:36:36.338.17-Sep-2021 5094.00 5575.45 80.58 4.00 106.31 2595.14
   04:36:36.538.17-Sep-2021 5094.00 5575.80 80.58 4.00 106.51 2595.14
   04:36:36.738.17-Sep-2021 5094.00 5575.86 80.58 4.00 106.71 2595.14
   04:36:36.938.17-Sep-2021 5094.00 5576.13 80.58 4.00 106.92 2595.14
   04:36:37.139.17-Sep-2021 5094.00 5576.19 80.58 4.00 107.12 2595.14
   04:36:37.339.17-Sep-2021 5094.00 5576.19 80.58 4.00 107.32 2595.14
   04:36:37.539.17-Sep-2021 5094.00 5578.85 80.58 4.00 107.52 2595.14
   04:36:37.739.17-Sep-2021 5094.00 5575.42 80.58 4.00 107.72 2595.14
   04:36:37.939.17-Sep-2021 5094.00 5577.74 80.58 4.00 107.92 2595.14
   04:36:38.140.17-Sep-2021 5094.00 5575.97 80.58 4.00 108.12 2595.14
   04:36:38.340.17-Sep-2021 5094.00 5575.97 80.58 4.00 108.32 2595.14
   04:36:38.540.17-Sep-2021 5094.00 5575.77 80.58 4.00 108.52 2595.14
   04:36:38.740.17-Sep-2021 5094.00 5576.12 80.58 4.00 108.72 2595.14
   04:36:38.941.17-Sep-2021 5094.00 5576.46 80.58 4.00 108.92 2595.14
   04:36:39.141.17-Sep-2021 5094.00 5575.81 80.58 4.00 109.12 2595.14
   04:36:39.341.17-Sep-2021 5094.00 5575.81 80.58 4.00 109.32 2595.14
   04:36:39.541.17-Sep-2021 5094.00 5575.37 80.58 4.00 109.52 2595.14
   04:36:39.741.17-Sep-2021 5094.00 5575.53 80.58 4.00 109.72 2595.14
   04:36:39.942.17-Sep-2021 5094.00 5578.59 80.58 4.00 109.92 2595.14
   04:36:40.142.17-Sep-2021 5094.00 5573.89 80.57 4.00 110.12 2595.14
   04:36:40.342.17-Sep-2021 5094.00 5573.89 80.57 4.00 110.32 2595.14
   04:36:40.542.17-Sep-2021 5094.00 5576.17 80.57 4.00 110.52 2595.14
   04:36:40.742.17-Sep-2021 5094.00 5575.78 80.57 4.00 110.72 2595.14
   04:36:40.943.17-Sep-2021 5094.00 5576.05 80.57 4.00 110.92 2595.14
   04:36:41.143.17-Sep-2021 5094.00 5575.74 80.57 4.00 111.12 2595.14
   04:36:41.343.17-Sep-2021 5094.00 5575.74 80.57 4.00 111.32 2595.14
   04:36:41.543.17-Sep-2021 5094.00 5575.51 80.57 4.00 111.52 2595.14
   04:36:41.744.17-Sep-2021 5094.00 5576.68 80.57 4.00 111.72 2595.14
   04:36:41.944.17-Sep-2021 5094.00 5576.05 80.57 4.00 111.92 2595.14
   04:36:42.144.17-Sep-2021 5094.00 5575.67 80.57 4.00 112.12 2595.14
   04:36:42.344.17-Sep-2021 5094.00 5575.67 80.57 4.00 112.32 2595.14
   04:36:42.544.17-Sep-2021 5094.00 5575.42 80.57 4.00 112.52 2595.14
   04:36:42.745.17-Sep-2021 5094.00 5575.63 80.57 4.00 112.72 2595.14
   04:36:42.945.17-Sep-2021 5094.00 5575.73 80.57 4.00 112.92 2595.14
   04:36:43.145.17-Sep-2021 5094.00 5575.87 80.57 4.00 113.12 2595.14
   04:36:43.345.17-Sep-2021 5094.00 5575.87 80.57 4.00 113.32 2595.14
   04:36:43.545.17-Sep-2021 5094.00 5575.93 80.57 4.00 113.52 2595.14
   04:36:43.746.17-Sep-2021 5094.00 5575.84 80.57 4.00 113.72 2595.14
   04:36:43.946.17-Sep-2021 5094.00 5576.02 80.57 4.00 113.92 2595.14
   04:36:44.146.17-Sep-2021 5094.00 5576.23 80.57 4.00 114.12 2595.14
   04:36:44.346.17-Sep-2021 5094.00 5576.23 80.57 4.00 114.32 2595.14
   04:36:44.547.17-Sep-2021 5094.00 5575.51 80.57 4.00 114.52 2595.14
   04:36:44.747.17-Sep-2021 5094.00 5577.67 80.57 4.00 114.72 2595.14
   04:36:44.947.17-Sep-2021 5094.00 5575.76 80.57 4.00 114.92 2595.14
