~Version Information
 VERS.                  2.0:   CWLS log ASCII Standard -VERSION 2.0
 WRAP.                   NO:   One line per depth step
~Well Information Block
#MNEM.UNIT     VALUE/NAME     DESCRIPTION
#---------     -----------    ---------------------------
 STRT.S             10:29:45 17-Sep-21: START TIME 10:29:45 17-Sep-21
 STOP.S             10:36:56 17-Sep-21: STOP TIME  10:36:56 17-Sep-21
 STEP.S                   0.00: STEP TIME
 NULL.                 -999.25: NULL VALUE
 DFWT.                        :  DIST FWL TEXT
 DFST.                        :  DIST FSL TEXT
 DMF .             Drill Floor:  DRILL MEAS FROM
 STIM.      10.59.12 05-Jul-21:  START TIME
 DATE.      10.59.12 10-Sep-21:  END TIME
 SPUD.               05-Jul-21:  SPUD DATE
 NREF.                    Grid:  NORTH REFERENCE
 HPTY.       Minimum Curvature:  HOLE POS TYPE
 DMOD.             Drill Model:  DRILL MOD DESC
 SVYD.                  Survey:  SURVEY DESC
 ILTD.               Lithology:  INTERP LTH DESC
 FTOP.          Formation Tops:  FORM TOPS DESC
 RIG .                     DWG:  RIG NAME
 PDAT.          Mean Sea Level:  PERMANENT DATUM
 FLD .                     ACG:  FIELD NAME
 SON .        AZ-XX-0907115008:  JOB NUMBER
 CTRY.              Azerbaijan:  COUNTRY NAME
 WELL.                    E35A:  WELL NAME
 SRVC.          TURAN DRILLING:  CONTRACTOR
 COMP.     BP Exploration (Caspian Sea LTD):  COMPANY
 UWI .                     N/A:  UNIQUE WELL IDENTIFIER
 API .                     N/A:  API NUMBER
 MDS .        Operator Entered:  MAG DATA SOURCE
 BASE.              Azerbaijan:  LOGGING EQUIPMENT BASE LOCATION
 REGN.                   EESSA:  REGION
 PROV.                    Baku:  PROVINCE
 STAT.                    Baku:  STATE NAME
 MWDS.                    Baku:  MWD SHOP
 JOBN.        AZ-XX-0907115008:  JOB TICKET NUMB
 DOE .                     N/A:  DOE NUMBER
 DCON.         Sperry Drilling:  DIRECTNL CONTR
 UNIT.                     N/A:  LOGGING EQUIPMENT ID
 WTYP.                Deviated:  WELL TYPE
 CNTY.                        :  COUNTY
 LOC .                        :  LOCATION
 LMF .             Drill Floor:  LOG MEASURED FROM
 TVDS.m                  43.16:  TVDSS CORRECTN
 LATI.deg                40.17:  LATITUDE
 LONG.deg                51.17:  LONGITUDE
 WHNS.m                  10.51:  WELL HEAD N/S
 WHEW.m                 -14.82:  WELL HEAD E/W
 UTMX.m              514336.92:  UTM X
 UTMY.m             4448618.56:  UTM Y
 DFWL.m                   0.00:  DISTANCE FWL
 DFSL.m                   0.00:  DISTANCE FSL
 SDEP.m                 849.00:  START DEPTH
 TDD .m                2862.00:  TOTAL DEPTH (DRILLER)
 VSDR.deg               292.10:  VERT SEC DIRECT
 GVFD.g                   1.00:  GRAVITY FIELD
 MFLD.nT              50382.00:  MAGNETIC FIELD
 MDIP.deg                59.68:  MAGNETIC DIP
 MDEC.deg                 6.66:  MAGNETIC DECL
 GRDC.deg                 0.09:  GRID CORRECTION
 AZTC.deg                 6.57:  AZM TOTAL CORR
 EPD .m                   0.00:  ELEVATION
 EGL .m                   0.00:  GROUND ELEVATION
 WDMS.m                 176.20:  WD ELEV
 APD .m                  43.16:  DEPTH ABOVE PD
 DEP .m                 363.42:  DEPTH
 AGAP.m                  43.16:  AIR GAP
 VSEW.m                 -14.82:  VERT SEC E/W
 VSNS.m                  10.51:  VERT SEC N/S
 EKB .m                  43.16:  KB ELEVATION
 EDF .m                  43.16:  DF ELEVATION
 TDL .m                1390.00:  TOTAL DEPTH (LOGGER)
 VSC .                       0:  VS TO CLOSURE
 MAGU.                 1855871:  MAGUTM CHECKSUM
~Parameter Information Block
#MNEM.UNIT       Value        Description
#---------     -----------    ---------------------------
 AV  .mps                 2.28:  Ann Velocity 
 AVMX.mps                 2.67:  Max Ann Veloc 
 AZIF.deg               305.00:  Azm, Final 
 BHAT.        Rotary Steerable:  BHA Type 
 BROT.°/30m               0.45:  Build Rotating 
 BS  .in                 12.25:  Bit Size 
 BSZ .in                 12.25:  Bit Size 
 BTPL.psig              600.00:  Bit Press Loss 
 CABU.                     Yes:  Customer Abuse 
 COMM.                     ,)z:  Run Comments 1 
 TCS .hr                150.00:  Time Ciculation Ended 
 CV  .mps                 1.24:  Crit Velocity 
 CVMX.mps                 1.66:  Max Crit Veloc 
 DD1 .         Intigam Rahimov:  Direct Drillr 1 
 DD2 .            Azer Ravavov:  Direct Drillr 2 
 DD3 .              Samir Abas:  Direct Drillr 3 
 DDSV.               Geo-Pilot:  DD Service 
 DEFF.%                 100.00:  % Det Eff 
 DLRX.°/30m               1.57:  Dogleg Rot Max 
 DLSO.°/30m               0.00:  Dogleg Oriented 
 DLSX.°/30m               0.00:  Dogleg Str Max 
 DRET.      20.28.06 17-Sep-21:  Drill End Time 
 DRST.      20.27.35 10-Sep-21:  Drill Start Tim 
 DTIM.hr                 54.00:  Time Drilling 
 EDEP.m                5260.00:  End Depth 
 ENG1.      Bakhtiyar Jabbarli:  Engineer 1 
 ENG2.      Natik Hasanaghayev:  Engineer 2 
 ENG3.           Royal Nasirov:  Engineer 3 
 ETIM.      20.27.55 18-Sep-21:  End Time 
 FLOI.gpm              1100.00:  Flow In 
 FLON.gpm               800.00:  Flow In Min 
 FLOS.cptm                0.00:  Fluid Loss 
 FLOX.gpm              1200.00:  Flow In Max 
 DFT .        Mineral Oil Base:  Mud Type 
 HPRE.                      No:  High Pressure 
 HTEM.                      No:  High Temp 
 HYDO.m                   1.80:  Hydro Offset 
 IFIN.deg                72.31:  Inc, Final 
 IMAX.deg                72.36:  Inc Max 
 IMIN.deg                69.36:  Inc Min 
 IMND.m                4192.96:  Inc Min Depth 
 IMXD.m                5128.36:  Inc Max Depth 
 JARR.                      No:  Jarring 
 LETM.      20.29.00 17-Sep-21:  Log End Time 
 LOST.hr                     0:  Lost Rig Time 
 LSTM.      20.27.00 10-Sep-21:  Log Start Time 
 MDCL.ppm            227000.00:  Mud Chlorides 
 MDES.     Inversion Oil/Synthetic:  Mud Desc 
 DFD .sg                  1.45:  Mud Density 
 MDMN.sg                  1.45:  Dens Mud Min 
 MDMX.sg                  1.45:  Dens Mud Max 
 MOIL.                    70.5:  Run Mud Oil % 
 MOWR.                   71:29:  Run Mud OWR 
 MSND.                     0.3:  Run Mud Sand % 
 MSOL.                    19.8:  Run Mud Solids% 
 DFV .spqt               80.00:  Mud Viscosity 
 MWOD.in                  8.00:  MWD Tool OD 
 MWSI.                     Yes:  Serv Intrp, MWD 
 OTIM.hr                180.00:  Time Operating 
 PCON.           Look Like New:  Pad Condition 
 PMAX.psia             9910.94:  Press Op, Max 
 PV  .cP                 35.00:  Mud PV 
 RUN .                    1000:  Run Number 
 ROPA.m/hr               18.00:  ROP Avg 
 ROPN.m/hr                8.00:  ROP Min 
 ROPX.m/hr               23.00:  ROP Max 
 RPMA.rpm               150.00:  RPM Surface Avg 
 RPMN.rpm               120.00:  RPM Surface Min 
 RPMX.rpm               160.00:  RPM Surface Max 
 RRUN.                    L503:  Rig Run Number 
 RTIM.hr                  5.00:  Time Reaming 
 SAZI.deg               298.42:  Azm, Start 
 SDEP.m                3870.00:  Start Depth 
 SIDD.                      No:  Serv Intrp, DD 
 SINC.deg                69.57:  Inc, Start 
 SPPA.psig             5500.00:  SPP Avg 
 SPPN.psig             4400.00:  SPP Min 
 SPPX.psig             5800.00:  SPP Max 
 STIM.      15.29.39 09-Sep-21:  Start Time 
 SVCS.                 DD, MWD:  Services 
 SVER.                    9.20:  Sperry Version 
 TDAT.m                5260.00:  Tot Depth Attmp 
 TDDF.                      No:  Trip for DD 
 TDLG.m                1390.00:  Tot Depth Loggd 
 TFF .                      No:  Trip for Fail 
 TQAA.f-kp               22.00:  Torque Abs Avg 
 TQAN.f-kp               13.00:  Torque Abs Min 
 TQAX.f-kp               27.00:  Torque Abs Max 
 TRRT.°/30m               1.60:  Turn Rotating 
 MRT .                  EWR-M5:  Maximum Recorded Temperature 
 TTMX.degC               92.00:  Max Tool Temp 
 VS01.                12330975:  Virtual Str1 SN 
 VS02.                90658671:  Virtual Str2 SN 
 VS03.                90658508:  Virtual Str3 SN 
 VS04.                90660974:  Virtual Str4 SN 
 VS05.                90654675:  Virtual Str5 SN 
 WBMN.klb                15.00:  WOB Min 
 WITN.     Alexander Yadullayev:  Customer Rep 
 WITN.           Adil Mammadov:  Customer Rep 2 
 WOBA.klb                17.00:  WOB Avg 
 WOBX.klb                18.00:  WOB Max 
 YP  .lhf2               31.00:  Yield Point 
~Curve Information Block
#MNEM.UNIT                 API CODE     Curve Description
#---------               -----------    ---------------------------
 TIME.HHMMSS            00 000 000 000:  GT Time & Date
 GTDEPTH.m              00 000 000 000:  GT Depth
 GTPQH.psia             00 000 000 000:  GT HR Quartz Pressure
 GTTQ.degC              00 000 000 000:  GT Quartz Temperature
 GTTN.NONE              00 000 000 000:  GT Test Number
 GTET.sec               00 000 000 000:  GT Elapsed Test Time
 GTTVD.m                00 000 000 000:  GT True Vertical Depth
#Other Information
#
#WARRANTY: Halliburton will use its best efforts to furnish customers with 
#accurate information and interpretations that are part of, and incident to, the services 
#provided.  However, Halliburton cannot and does not warrant the accuracy 
#or correctness of such information and interpretations.  Under no circumstances should any 
#such information or interpretation be relied upon as the sole basis for any drilling, 
#completion, production, or financial decision or any procedure involving any risk to the 
#safety of any drilling venture, drilling rig or its crew or any other third party.  The 
#Customer has full responsibility for all drilling, completion and production operation.  
#Halliburton makes no representations or warranties, either expressed or 
#implied, including, but not limited to, the implied warranties of merchantability or fitness 
#for a particular purpose, with respect to the services rendered.  In no event will 
#Halliburton be liable for failure to obtain any particular results or for 
#any damages, including, but not limited to, indirect, special or consequential damages, 
#resulting from the use of any information or interpretation provided by Halliburton.
#
~A           TIME           GTDEPTH  GTPQH  GTTQ  GTTN  GTET   GTTVD  
# ...
   10:30:31.329.17-Sep-2021 4888.00 5437.13 75.93 8.00  46.01 2528.99
   10:30:31.529.17-Sep-2021 4888.00 5437.13 75.93 8.00  46.21 2528.99
   10:30:31.729.17-Sep-2021 4888.00 5436.44 75.93 8.00  46.41 2528.99
   10:30:31.929.17-Sep-2021 4888.00 5436.79 75.93 8.00  46.61 2528.99
   10:30:32.129.17-Sep-2021 4888.00 5437.13 75.93 8.00  46.81 2528.99
   10:30:32.329.17-Sep-2021 4888.00 5438.18 75.93 8.00  47.01 2528.99
   10:30:32.529.17-Sep-2021 4888.00 5438.18 75.93 8.00  47.21 2528.99
   10:30:32.729.17-Sep-2021 4888.00 5436.93 75.93 8.00  47.41 2528.99
   10:30:32.929.17-Sep-2021 4888.00 5437.24 75.93 8.00  47.61 2528.99
   10:30:33.129.17-Sep-2021 4888.00 5437.58 75.93 8.00  47.81 2528.99
   10:30:33.329.17-Sep-2021 4888.00 5436.89 75.93 8.00  48.01 2528.99
   10:30:33.529.17-Sep-2021 4888.00 5436.89 75.93 8.00  48.21 2528.99
   10:30:33.729.17-Sep-2021 4888.00 5436.58 75.93 8.00  48.41 2528.99
   10:30:33.929.17-Sep-2021 4888.00 5436.97 75.93 8.00  48.61 2528.99
   10:30:34.129.17-Sep-2021 4888.00 5436.65 75.93 8.00  48.81 2528.99
   10:30:34.329.17-Sep-2021 4888.00 5436.27 75.93 8.00  49.01 2528.99
   10:30:34.529.17-Sep-2021 4888.00 5436.27 75.93 8.00  49.21 2528.99
   10:30:34.729.17-Sep-2021 4888.00 5436.32 75.93 8.00  49.41 2528.99
   10:30:34.929.17-Sep-2021 4888.00 5435.98 75.93 8.00  49.61 2528.99
   10:30:35.129.17-Sep-2021 4888.00 5436.36 75.93 8.00  49.81 2528.99
   10:30:35.330.17-Sep-2021 4888.00 5436.71 75.93 8.00  50.01 2528.99
   10:30:35.530.17-Sep-2021 4888.00 5436.71 75.93 8.00  50.21 2528.99
   10:30:35.730.17-Sep-2021 4888.00 5436.88 75.93 8.00  50.41 2528.99
   10:30:35.930.17-Sep-2021 4888.00 5436.52 75.93 8.00  50.61 2528.99
   10:30:36.130.17-Sep-2021 4888.00 5437.05 75.93 8.00  50.81 2528.99
   10:30:36.330.17-Sep-2021 4888.00 5436.98 75.93 8.00  51.01 2528.99
   10:30:36.530.17-Sep-2021 4888.00 5436.98 75.93 8.00  51.21 2528.99
   10:30:36.730.17-Sep-2021 4888.00 5436.67 75.93 8.00  51.41 2528.99
   10:30:36.930.17-Sep-2021 4888.00 5436.67 75.93 8.00  51.61 2528.99
   10:30:37.130.17-Sep-2021 4888.00 5436.83 75.93 8.00  51.81 2528.99
   10:30:37.330.17-Sep-2021 4888.00 5436.52 75.93 8.00  52.01 2528.99
   10:30:37.530.17-Sep-2021 4888.00 5436.52 75.93 8.00  52.21 2528.99
   10:30:37.730.17-Sep-2021 4888.00 5436.36 75.93 8.00  52.41 2528.99
   10:30:37.930.17-Sep-2021 4888.00 5436.42 75.93 8.00  52.61 2528.99
   10:30:38.130.17-Sep-2021 4888.00 5440.07 75.93 8.00  52.81 2528.99
   10:30:38.330.17-Sep-2021 4888.00 5434.48 75.93 8.00  53.01 2528.99
   10:30:38.530.17-Sep-2021 4888.00 5434.48 75.93 8.00  53.21 2528.99
   10:30:38.730.17-Sep-2021 4888.00 5436.43 75.93 8.00  53.41 2528.99
   10:30:38.930.17-Sep-2021 4888.00 5440.05 75.93 8.00  53.61 2528.99
   10:30:39.130.17-Sep-2021 4888.00 5436.20 75.93 8.00  53.81 2528.99
   10:30:39.330.17-Sep-2021 4888.00 5436.08 75.93 8.00  54.01 2528.99
   10:30:39.530.17-Sep-2021 4888.00 5436.08 75.93 8.00  54.21 2528.99
   10:30:39.730.17-Sep-2021 4888.00 5437.57 75.93 8.00  54.41 2528.99
   10:30:39.930.17-Sep-2021 4888.00 5440.65 75.93 8.00  54.61 2528.99
   10:30:40.130.17-Sep-2021 4888.00 5434.56 75.93 8.00  54.81 2528.99
   10:30:40.330.17-Sep-2021 4888.00 5436.69 75.93 8.00  55.01 2528.99
   10:30:40.530.17-Sep-2021 4888.00 5436.69 75.93 8.00  55.21 2528.99
   10:30:40.730.17-Sep-2021 4888.00 5439.97 75.93 8.00  55.41 2528.99
   10:30:40.930.17-Sep-2021 4888.00 5436.57 75.93 8.00  55.61 2528.99
   10:30:41.130.17-Sep-2021 4888.00 5436.72 75.93 8.00  55.81 2528.99
   10:30:41.330.17-Sep-2021 4888.00 5437.24 75.93 8.00  56.01 2528.99
   10:30:41.530.17-Sep-2021 4888.00 5437.24 75.93 8.00  56.21 2528.99
   10:30:41.730.17-Sep-2021 4888.00 5437.01 75.93 8.00  56.41 2528.99
   10:30:41.930.17-Sep-2021 4888.00 5436.70 75.93 8.00  56.61 2528.99
   10:30:42.130.17-Sep-2021 4888.00 5436.92 75.93 8.00  56.81 2528.99
   10:30:42.330.17-Sep-2021 4888.00 5436.95 75.93 8.00  57.01 2528.99
   10:30:42.530.17-Sep-2021 4888.00 5436.95 75.93 8.00  57.21 2528.99
   10:30:42.730.17-Sep-2021 4888.00 5436.69 75.93 8.00  57.41 2528.99
   10:30:42.930.17-Sep-2021 4888.00 5436.67 75.93 8.00  57.61 2528.99
   10:30:43.130.17-Sep-2021 4888.00 5437.18 75.93 8.00  57.81 2528.99
   10:30:43.330.17-Sep-2021 4888.00 5437.07 75.93 8.00  58.01 2528.99
   10:30:43.530.17-Sep-2021 4888.00 5437.07 75.93 8.00  58.21 2528.99
   10:30:43.730.17-Sep-2021 4888.00 5436.80 75.93 8.00  58.41 2528.99
   10:30:43.930.17-Sep-2021 4888.00 5440.60 75.93 8.00  58.61 2528.99
   10:30:44.130.17-Sep-2021 4888.00 5436.54 75.92 8.00  58.81 2528.99
   10:30:44.331.17-Sep-2021 4888.00 5437.05 75.92 8.00  59.01 2528.99
   10:30:44.531.17-Sep-2021 4888.00 5437.05 75.92 8.00  59.21 2528.99
   10:30:44.731.17-Sep-2021 4888.00 5438.77 75.92 8.00  59.41 2528.99
   10:30:44.931.17-Sep-2021 4888.00 5437.49 75.92 8.00  59.61 2528.99
   10:30:45.131.17-Sep-2021 4888.00 5436.80 75.92 8.00  59.81 2528.99
   10:30:45.331.17-Sep-2021 4888.00 5437.52 75.92 8.00  60.01 2528.99
   10:30:45.531.17-Sep-2021 4888.00 5437.52 75.92 8.00  60.21 2528.99
   10:30:45.731.17-Sep-2021 4888.00 5437.19 75.92 8.00  60.41 2528.99
   10:30:45.931.17-Sep-2021 4888.00 5436.83 75.92 8.00  60.61 2528.99
   10:30:46.131.17-Sep-2021 4888.00 5437.13 75.92 8.00  60.81 2528.99
   10:30:46.331.17-Sep-2021 4888.00 5437.37 75.92 8.00  61.01 2528.99
   10:30:46.531.17-Sep-2021 4888.00 5437.37 75.92 8.00  61.21 2528.99
   10:30:46.731.17-Sep-2021 4888.00 5437.16 75.92 8.00  61.41 2528.99
   10:30:46.931.17-Sep-2021 4888.00 5437.16 75.92 8.00  61.61 2528.99
   10:30:47.131.17-Sep-2021 4888.00 5437.55 75.92 8.00  61.81 2528.99
   10:30:47.331.17-Sep-2021 4888.00 5441.15 75.92 8.00  62.01 2528.99
   10:30:47.531.17-Sep-2021 4888.00 5441.15 75.92 8.00  62.21 2528.99
   10:30:47.731.17-Sep-2021 4888.00 5437.59 75.92 8.00  62.41 2528.99
   10:30:47.931.17-Sep-2021 4888.00 5437.38 75.92 8.00  62.61 2528.99
   10:30:48.131.17-Sep-2021 4888.00 5439.03 75.92 8.00  62.81 2528.99
   10:30:48.331.17-Sep-2021 4888.00 5441.45 75.92 8.00  63.01 2528.99
   10:30:48.531.17-Sep-2021 4888.00 5441.45 75.92 8.00  63.21 2528.99
   10:30:48.731.17-Sep-2021 4888.00 5437.92 75.92 8.00  63.41 2528.99
   10:30:48.931.17-Sep-2021 4888.00 5437.13 75.92 8.00  63.61 2528.99
   10:30:49.131.17-Sep-2021 4888.00 5438.52 75.92 8.00  63.81 2528.99
   10:30:49.331.17-Sep-2021 4888.00 5440.73 75.92 8.00  64.01 2528.99
   10:30:49.531.17-Sep-2021 4888.00 5440.73 75.92 8.00  64.21 2528.99
   10:30:49.731.17-Sep-2021 4888.00 5437.85 75.92 8.00  64.41 2528.99
   10:30:49.931.17-Sep-2021 4888.00 5436.96 75.92 8.00  64.61 2528.99
   10:30:50.131.17-Sep-2021 4888.00 5438.29 75.92 8.00  64.81 2528.99
   10:30:50.331.17-Sep-2021 4888.00 5438.44 75.92 8.00  65.01 2528.99
   10:30:50.531.17-Sep-2021 4888.00 5438.44 75.92 8.00  65.21 2528.99
   10:30:50.731.17-Sep-2021 4888.00 5437.18 75.92 8.00  65.41 2528.99
   10:30:50.931.17-Sep-2021 4888.00 5436.85 75.92 8.00  65.61 2528.99
   10:30:51.131.17-Sep-2021 4888.00 5437.52 75.92 8.00  65.81 2528.99
   10:30:51.331.17-Sep-2021 4888.00 5437.12 75.92 8.00  66.01 2528.99
   10:30:51.531.17-Sep-2021 4888.00 5437.12 75.92 8.00  66.21 2528.99
   10:30:51.731.17-Sep-2021 4888.00 5437.58 75.92 8.00  66.41 2528.99
   10:30:51.931.17-Sep-2021 4888.00 5437.05 75.92 8.00  66.61 2528.99
   10:30:52.131.17-Sep-2021 4888.00 5436.89 75.92 8.00  66.81 2528.99
   10:30:52.331.17-Sep-2021 4888.00 5436.84 75.92 8.00  67.01 2528.99
   10:30:52.531.17-Sep-2021 4888.00 5436.84 75.92 8.00  67.21 2528.99
   10:30:52.731.17-Sep-2021 4888.00 5437.51 75.92 8.00  67.41 2528.99
   10:30:52.931.17-Sep-2021 4888.00 5437.42 75.92 8.00  67.61 2528.99
   10:30:53.131.17-Sep-2021 4888.00 5437.46 75.92 8.00  67.81 2528.99
   10:30:53.332.17-Sep-2021 4888.00 5437.47 75.92 8.00  68.01 2528.99
   10:30:53.532.17-Sep-2021 4888.00 5437.47 75.92 8.00  68.21 2528.99
   10:30:53.732.17-Sep-2021 4888.00 5436.85 75.92 8.00  68.41 2528.99
   10:30:53.932.17-Sep-2021 4888.00 5437.37 75.92 8.00  68.61 2528.99
   10:30:54.132.17-Sep-2021 4888.00 5437.48 75.92 8.00  68.81 2528.99
