~Version Information
 VERS.                  2.0:   CWLS log ASCII Standard -VERSION 2.0
 WRAP.                   NO:   One line per depth step
~Well Information Block
#MNEM.UNIT     VALUE/NAME     DESCRIPTION
#---------     -----------    ---------------------------
 STRT.S             04:34:50 17-Sep-21: START TIME 04:34:50 17-Sep-21
 STOP.S             04:43:20 17-Sep-21: STOP TIME  04:43:20 17-Sep-21
 STEP.S                   0.00: STEP TIME
 NULL.                 -999.25: NULL VALUE
 DFWT.                        :  DIST FWL TEXT
 DFST.                        :  DIST FSL TEXT
 DMF .             Drill Floor:  DRILL MEAS FROM
 STIM.      10.59.12 05-Jul-21:  START TIME
 DATE.      10.59.12 10-Sep-21:  END TIME
 SPUD.               05-Jul-21:  SPUD DATE
 NREF.                    Grid:  NORTH REFERENCE
 HPTY.       Minimum Curvature:  HOLE POS TYPE
 DMOD.             Drill Model:  DRILL MOD DESC
 SVYD.                  Survey:  SURVEY DESC
 ILTD.               Lithology:  INTERP LTH DESC
 FTOP.          Formation Tops:  FORM TOPS DESC
 RIG .                     DWG:  RIG NAME
 PDAT.          Mean Sea Level:  PERMANENT DATUM
 FLD .                     ACG:  FIELD NAME
 SON .        AZ-XX-0907115008:  JOB NUMBER
 CTRY.              Azerbaijan:  COUNTRY NAME
 WELL.                    E35A:  WELL NAME
 SRVC.          TURAN DRILLING:  CONTRACTOR
 COMP.     BP Exploration (Caspian Sea LTD):  COMPANY
 UWI .                     N/A:  UNIQUE WELL IDENTIFIER
 API .                     N/A:  API NUMBER
 MDS .        Operator Entered:  MAG DATA SOURCE
 BASE.              Azerbaijan:  LOGGING EQUIPMENT BASE LOCATION
 REGN.                   EESSA:  REGION
 PROV.                    Baku:  PROVINCE
 STAT.                    Baku:  STATE NAME
 MWDS.                    Baku:  MWD SHOP
 JOBN.        AZ-XX-0907115008:  JOB TICKET NUMB
 DOE .                     N/A:  DOE NUMBER
 DCON.         Sperry Drilling:  DIRECTNL CONTR
 UNIT.                     N/A:  LOGGING EQUIPMENT ID
 WTYP.                Deviated:  WELL TYPE
 CNTY.                        :  COUNTY
 LOC .                        :  LOCATION
 LMF .             Drill Floor:  LOG MEASURED FROM
 TVDS.m                  43.16:  TVDSS CORRECTN
 LATI.deg                40.17:  LATITUDE
 LONG.deg                51.17:  LONGITUDE
 WHNS.m                  10.51:  WELL HEAD N/S
 WHEW.m                 -14.82:  WELL HEAD E/W
 UTMX.m              514336.92:  UTM X
 UTMY.m             4448618.56:  UTM Y
 DFWL.m                   0.00:  DISTANCE FWL
 DFSL.m                   0.00:  DISTANCE FSL
 SDEP.m                 849.00:  START DEPTH
 TDD .m                2862.00:  TOTAL DEPTH (DRILLER)
 VSDR.deg               292.10:  VERT SEC DIRECT
 GVFD.g                   1.00:  GRAVITY FIELD
 MFLD.nT              50382.00:  MAGNETIC FIELD
 MDIP.deg                59.68:  MAGNETIC DIP
 MDEC.deg                 6.66:  MAGNETIC DECL
 GRDC.deg                 0.09:  GRID CORRECTION
 AZTC.deg                 6.57:  AZM TOTAL CORR
 EPD .m                   0.00:  ELEVATION
 EGL .m                   0.00:  GROUND ELEVATION
 WDMS.m                 176.20:  WD ELEV
 APD .m                  43.16:  DEPTH ABOVE PD
 DEP .m                 363.42:  DEPTH
 AGAP.m                  43.16:  AIR GAP
 VSEW.m                 -14.82:  VERT SEC E/W
 VSNS.m                  10.51:  VERT SEC N/S
 EKB .m                  43.16:  KB ELEVATION
 EDF .m                  43.16:  DF ELEVATION
 TDL .m                1390.00:  TOTAL DEPTH (LOGGER)
 VSC .                       0:  VS TO CLOSURE
 MAGU.                 1855871:  MAGUTM CHECKSUM
~Parameter Information Block
#MNEM.UNIT       Value        Description
#---------     -----------    ---------------------------
 AV  .mps                 2.28:  Ann Velocity 
 AVMX.mps                 2.67:  Max Ann Veloc 
 AZIF.deg               305.00:  Azm, Final 
 BHAT.        Rotary Steerable:  BHA Type 
 BROT.°/30m               0.45:  Build Rotating 
 BS  .in                 12.25:  Bit Size 
 BSZ .in                 12.25:  Bit Size 
 BTPL.psig              600.00:  Bit Press Loss 
 CABU.                     Yes:  Customer Abuse 
 COMM.                     ÌN:  Run Comments 1 
 TCS .hr                150.00:  Time Ciculation Ended 
 CV  .mps                 1.24:  Crit Velocity 
 CVMX.mps                 1.66:  Max Crit Veloc 
 DD1 .         Intigam Rahimov:  Direct Drillr 1 
 DD2 .            Azer Ravavov:  Direct Drillr 2 
 DD3 .              Samir Abas:  Direct Drillr 3 
 DDSV.               Geo-Pilot:  DD Service 
 DEFF.%                 100.00:  % Det Eff 
 DLRX.°/30m               1.57:  Dogleg Rot Max 
 DLSO.°/30m               0.00:  Dogleg Oriented 
 DLSX.°/30m               0.00:  Dogleg Str Max 
 DRET.      20.28.06 17-Sep-21:  Drill End Time 
 DRST.      20.27.35 10-Sep-21:  Drill Start Tim 
 DTIM.hr                 54.00:  Time Drilling 
 EDEP.m                5260.00:  End Depth 
 ENG1.      Bakhtiyar Jabbarli:  Engineer 1 
 ENG2.      Natik Hasanaghayev:  Engineer 2 
 ENG3.           Royal Nasirov:  Engineer 3 
 ETIM.      20.27.55 18-Sep-21:  End Time 
 FLOI.gpm              1100.00:  Flow In 
 FLON.gpm               800.00:  Flow In Min 
 FLOS.cptm                0.00:  Fluid Loss 
 FLOX.gpm              1200.00:  Flow In Max 
 DFT .        Mineral Oil Base:  Mud Type 
 HPRE.                      No:  High Pressure 
 HTEM.                      No:  High Temp 
 HYDO.m                   1.80:  Hydro Offset 
 IFIN.deg                72.31:  Inc, Final 
 IMAX.deg                72.36:  Inc Max 
 IMIN.deg                69.36:  Inc Min 
 IMND.m                4192.96:  Inc Min Depth 
 IMXD.m                5128.36:  Inc Max Depth 
 JARR.                      No:  Jarring 
 LETM.      20.29.00 17-Sep-21:  Log End Time 
 LOST.hr                     0:  Lost Rig Time 
 LSTM.      20.27.00 10-Sep-21:  Log Start Time 
 MDCL.ppm            227000.00:  Mud Chlorides 
 MDES.     Inversion Oil/Synthetic:  Mud Desc 
 DFD .sg                  1.45:  Mud Density 
 MDMN.sg                  1.45:  Dens Mud Min 
 MDMX.sg                  1.45:  Dens Mud Max 
 MOIL.                    70.5:  Run Mud Oil % 
 MOWR.                   71:29:  Run Mud OWR 
 MSND.                     0.3:  Run Mud Sand % 
 MSOL.                    19.8:  Run Mud Solids% 
 DFV .spqt               80.00:  Mud Viscosity 
 MWOD.in                  8.00:  MWD Tool OD 
 MWSI.                     Yes:  Serv Intrp, MWD 
 OTIM.hr                180.00:  Time Operating 
 PCON.           Look Like New:  Pad Condition 
 PMAX.psia             9910.94:  Press Op, Max 
 PV  .cP                 35.00:  Mud PV 
 RUN .                    1000:  Run Number 
 ROPA.m/hr               18.00:  ROP Avg 
 ROPN.m/hr                8.00:  ROP Min 
 ROPX.m/hr               23.00:  ROP Max 
 RPMA.rpm               150.00:  RPM Surface Avg 
 RPMN.rpm               120.00:  RPM Surface Min 
 RPMX.rpm               160.00:  RPM Surface Max 
 RRUN.                    L503:  Rig Run Number 
 RTIM.hr                  5.00:  Time Reaming 
 SAZI.deg               298.42:  Azm, Start 
 SDEP.m                3870.00:  Start Depth 
 SIDD.                      No:  Serv Intrp, DD 
 SINC.deg                69.57:  Inc, Start 
 SPPA.psig             5500.00:  SPP Avg 
 SPPN.psig             4400.00:  SPP Min 
 SPPX.psig             5800.00:  SPP Max 
 STIM.      15.29.39 09-Sep-21:  Start Time 
 SVCS.                 DD, MWD:  Services 
 SVER.                    9.20:  Sperry Version 
 TDAT.m                5260.00:  Tot Depth Attmp 
 TDDF.                      No:  Trip for DD 
 TDLG.m                1390.00:  Tot Depth Loggd 
 TFF .                      No:  Trip for Fail 
 TQAA.f-kp               22.00:  Torque Abs Avg 
 TQAN.f-kp               13.00:  Torque Abs Min 
 TQAX.f-kp               27.00:  Torque Abs Max 
 TRRT.°/30m               1.60:  Turn Rotating 
 MRT .                  EWR-M5:  Maximum Recorded Temperature 
 TTMX.degC               92.00:  Max Tool Temp 
 VS01.                12330975:  Virtual Str1 SN 
 VS02.                90658671:  Virtual Str2 SN 
 VS03.                90658508:  Virtual Str3 SN 
 VS04.                90660974:  Virtual Str4 SN 
 VS05.                90654675:  Virtual Str5 SN 
 WBMN.klb                15.00:  WOB Min 
 WITN.     Alexander Yadullayev:  Customer Rep 
 WITN.           Adil Mammadov:  Customer Rep 2 
 WOBA.klb                17.00:  WOB Avg 
 WOBX.klb                18.00:  WOB Max 
 YP  .lhf2               31.00:  Yield Point 
~Curve Information Block
#MNEM.UNIT                 API CODE     Curve Description
#---------               -----------    ---------------------------
 TIME.HHMMSS            00 000 000 000:  GT Time & Date
 GTDEPTH.m              00 000 000 000:  GT Depth
 GTPQH.psia             00 000 000 000:  GT HR Quartz Pressure
 GTTQ.degC              00 000 000 000:  GT Quartz Temperature
 GTTN.NONE              00 000 000 000:  GT Test Number
 GTET.sec               00 000 000 000:  GT Elapsed Test Time
 GTTVD.m                00 000 000 000:  GT True Vertical Depth
#Other Information
#
#WARRANTY: Halliburton will use its best efforts to furnish customers with 
#accurate information and interpretations that are part of, and incident to, the services 
#provided.  However, Halliburton cannot and does not warrant the accuracy 
#or correctness of such information and interpretations.  Under no circumstances should any 
#such information or interpretation be relied upon as the sole basis for any drilling, 
#completion, production, or financial decision or any procedure involving any risk to the 
#safety of any drilling venture, drilling rig or its crew or any other third party.  The 
#Customer has full responsibility for all drilling, completion and production operation.  
#Halliburton makes no representations or warranties, either expressed or 
#implied, including, but not limited to, the implied warranties of merchantability or fitness 
#for a particular purpose, with respect to the services rendered.  In no event will 
#Halliburton be liable for failure to obtain any particular results or for 
#any damages, including, but not limited to, indirect, special or consequential damages, 
#resulting from the use of any information or interpretation provided by Halliburton.
#
~A           TIME           GTDEPTH  GTPQH  GTTQ  GTTN  GTET   GTTVD  
# ...
   04:40:35.395.17-Sep-2021 5094.00 5424.00 80.15 4.00 345.37 2595.14
   04:40:35.595.17-Sep-2021 5094.00 5424.00 80.15 4.00 345.57 2595.14
   04:40:35.796.17-Sep-2021 5094.00 5375.60 80.14 4.00 345.77 2595.14
   04:40:35.996.17-Sep-2021 5094.00 5382.73 80.14 4.00 345.97 2595.14
   04:40:36.196.17-Sep-2021 5094.00 5373.54 80.14 4.00 346.17 2595.14
   04:40:36.396.17-Sep-2021 5094.00 5389.09 80.14 4.00 346.37 2595.14
   04:40:36.596.17-Sep-2021 5094.00 5389.09 80.14 4.00 346.57 2595.14
   04:40:36.797.17-Sep-2021 5094.00 5381.88 80.14 4.00 346.77 2595.14
   04:40:36.997.17-Sep-2021 5094.00 5372.93 80.14 4.00 346.97 2595.14
   04:40:37.197.17-Sep-2021 5094.00 5377.94 80.14 4.00 347.17 2595.14
   04:40:37.397.17-Sep-2021 5094.00 5401.12 80.14 4.00 347.37 2595.14
   04:40:37.598.17-Sep-2021 5094.00 5401.12 80.14 4.00 347.57 2595.14
   04:40:37.798.17-Sep-2021 5094.00 5442.82 80.14 4.00 347.77 2595.14
   04:40:37.998.17-Sep-2021 5094.00 5444.04 80.14 4.00 347.97 2595.14
   04:40:38.198.17-Sep-2021 5094.00 5443.70 80.14 4.00 348.17 2595.14
   04:40:38.398.17-Sep-2021 5094.00 5441.79 80.14 4.00 348.38 2595.14
   04:40:38.599.17-Sep-2021 5094.00 5441.79 80.14 4.00 348.58 2595.14
   04:40:38.799.17-Sep-2021 5094.00 5442.01 80.14 4.00 348.78 2595.14
   04:40:38.999.17-Sep-2021 5094.00 5442.22 80.14 4.00 348.98 2595.14
   04:40:39.199.17-Sep-2021 5094.00 5442.50 80.14 4.00 349.18 2595.14
   04:40:39.400.17-Sep-2021 5094.00 5442.71 80.14 4.00 349.38 2595.14
   04:40:39.600.17-Sep-2021 5094.00 5442.71 80.14 4.00 349.58 2595.14
   04:40:39.800.17-Sep-2021 5094.00 5443.11 80.14 4.00 349.78 2595.14
   04:40:40.000.17-Sep-2021 5094.00 5443.34 80.14 4.00 349.98 2595.14
   04:40:40.200.17-Sep-2021 5094.00 5443.53 80.14 4.00 350.18 2595.14
   04:40:40.401.17-Sep-2021 5094.00 5443.74 80.14 4.00 350.38 2595.14
   04:40:40.601.17-Sep-2021 5094.00 5443.74 80.14 4.00 350.58 2595.14
   04:40:40.801.17-Sep-2021 5094.00 5444.16 80.13 4.00 350.78 2595.14
   04:40:41.001.17-Sep-2021 5094.00 5444.35 80.13 4.00 350.98 2595.14
   04:40:41.201.17-Sep-2021 5094.00 5444.50 80.13 4.00 351.18 2595.14
   04:40:41.402.17-Sep-2021 5094.00 5444.52 80.13 4.00 351.38 2595.14
   04:40:41.602.17-Sep-2021 5094.00 5444.52 80.13 4.00 351.58 2595.14
   04:40:41.802.17-Sep-2021 5094.00 5443.94 80.13 4.00 351.78 2595.14
   04:40:42.002.17-Sep-2021 5094.00 5444.11 80.13 4.00 351.98 2595.14
   04:40:42.203.17-Sep-2021 5094.00 5444.05 80.13 4.00 352.18 2595.14
   04:40:42.403.17-Sep-2021 5094.00 5444.22 80.13 4.00 352.38 2595.14
   04:40:42.603.17-Sep-2021 5094.00 5444.22 80.13 4.00 352.58 2595.14
   04:40:42.803.17-Sep-2021 5094.00 5444.33 80.13 4.00 352.78 2595.14
   04:40:43.003.17-Sep-2021 5094.00 5444.40 80.13 4.00 352.98 2595.14
   04:40:43.204.17-Sep-2021 5094.00 5444.52 80.13 4.00 353.18 2595.14
   04:40:43.404.17-Sep-2021 5094.00 5444.67 80.13 4.00 353.38 2595.14
   04:40:43.604.17-Sep-2021 5094.00 5444.67 80.13 4.00 353.58 2595.14
   04:40:43.804.17-Sep-2021 5094.00 5444.97 80.13 4.00 353.78 2595.14
   04:40:44.004.17-Sep-2021 5094.00 5445.08 80.13 4.00 353.98 2595.14
   04:40:44.205.17-Sep-2021 5094.00 5445.24 80.13 4.00 354.18 2595.14
   04:40:44.405.17-Sep-2021 5094.00 5445.33 80.13 4.00 354.38 2595.14
   04:40:44.605.17-Sep-2021 5094.00 5445.33 80.13 4.00 354.58 2595.14
   04:40:44.805.17-Sep-2021 5094.00 5446.15 80.13 4.00 354.78 2595.14
   04:40:45.006.17-Sep-2021 5094.00 5445.12 80.13 4.00 354.98 2595.14
   04:40:45.206.17-Sep-2021 5094.00 5445.57 80.13 4.00 355.18 2595.14
   04:40:45.406.17-Sep-2021 5094.00 5445.65 80.13 4.00 355.38 2595.14
   04:40:45.606.17-Sep-2021 5094.00 5445.65 80.13 4.00 355.58 2595.14
   04:40:45.806.17-Sep-2021 5094.00 5445.73 80.13 4.00 355.78 2595.14
   04:40:46.007.17-Sep-2021 5094.00 5445.13 80.13 4.00 355.98 2595.14
   04:40:46.207.17-Sep-2021 5094.00 5445.27 80.13 4.00 356.18 2595.14
   04:40:46.407.17-Sep-2021 5094.00 5445.26 80.13 4.00 356.38 2595.14
   04:40:46.607.17-Sep-2021 5094.00 5445.26 80.13 4.00 356.58 2595.14
   04:40:46.807.17-Sep-2021 5094.00 5445.18 80.12 4.00 356.78 2595.14
   04:40:47.008.17-Sep-2021 5094.00 5445.74 80.12 4.00 356.98 2595.14
   04:40:47.208.17-Sep-2021 5094.00 5444.94 80.12 4.00 357.18 2595.14
   04:40:47.408.17-Sep-2021 5094.00 5445.26 80.12 4.00 357.38 2595.14
   04:40:47.608.17-Sep-2021 5094.00 5445.26 80.12 4.00 357.59 2595.14
   04:40:47.809.17-Sep-2021 5094.00 5445.24 80.12 4.00 357.79 2595.14
   04:40:48.009.17-Sep-2021 5094.00 5445.38 80.12 4.00 357.99 2595.14
   04:40:48.209.17-Sep-2021 5094.00 5445.32 80.12 4.00 358.19 2595.14
   04:40:48.409.17-Sep-2021 5094.00 5445.85 80.12 4.00 358.39 2595.14
   04:40:48.609.17-Sep-2021 5094.00 5445.85 80.12 4.00 358.59 2595.14
   04:40:48.810.17-Sep-2021 5094.00 5445.23 80.12 4.00 358.79 2595.14
   04:40:49.010.17-Sep-2021 5094.00 5445.02 80.12 4.00 358.99 2595.14
   04:40:49.210.17-Sep-2021 5094.00 5445.16 80.12 4.00 359.19 2595.14
   04:40:49.410.17-Sep-2021 5094.00 5445.18 80.12 4.00 359.39 2595.14
   04:40:49.610.17-Sep-2021 5094.00 5445.18 80.12 4.00 359.59 2595.14
   04:40:49.811.17-Sep-2021 5094.00 5445.14 80.12 4.00 359.79 2595.14
   04:40:50.011.17-Sep-2021 5094.00 5445.14 80.12 4.00 359.99 2595.14
   04:40:50.211.17-Sep-2021 5094.00 5445.28 80.12 4.00 360.19 2595.14
   04:40:50.411.17-Sep-2021 5094.00 5445.31 80.12 4.00 360.39 2595.14
   04:40:50.612.17-Sep-2021 5094.00 5445.31 80.12 4.00 360.59 2595.14
   04:40:50.812.17-Sep-2021 5094.00 5445.46 80.12 4.00 360.79 2595.14
   04:40:51.012.17-Sep-2021 5094.00 5445.52 80.12 4.00 360.99 2595.14
   04:40:51.212.17-Sep-2021 5094.00 5445.58 80.12 4.00 361.19 2595.14
   04:40:51.412.17-Sep-2021 5094.00 5445.66 80.12 4.00 361.39 2595.14
   04:40:51.613.17-Sep-2021 5094.00 5445.66 80.12 4.00 361.59 2595.14
   04:40:51.813.17-Sep-2021 5094.00 5445.57 80.12 4.00 361.79 2595.14
   04:40:52.013.17-Sep-2021 5094.00 5445.73 80.12 4.00 361.99 2595.14
   04:40:52.213.17-Sep-2021 5094.00 5445.70 80.12 4.00 362.19 2595.14
   04:40:52.414.17-Sep-2021 5094.00 5445.47 80.12 4.00 362.39 2595.14
   04:40:52.614.17-Sep-2021 5094.00 5445.47 80.12 4.00 362.59 2595.14
   04:40:52.814.17-Sep-2021 5094.00 5445.41 80.11 4.00 362.79 2595.14
   04:40:53.014.17-Sep-2021 5094.00 5445.47 80.11 4.00 362.99 2595.14
   04:40:53.214.17-Sep-2021 5094.00 5445.48 80.11 4.00 363.19 2595.14
   04:40:53.415.17-Sep-2021 5094.00 5445.55 80.11 4.00 363.39 2595.14
   04:40:53.615.17-Sep-2021 5094.00 5445.55 80.11 4.00 363.59 2595.14
   04:40:53.815.17-Sep-2021 5094.00 5445.71 80.11 4.00 363.79 2595.14
   04:40:54.015.17-Sep-2021 5094.00 5445.71 80.11 4.00 363.99 2595.14
   04:40:54.215.17-Sep-2021 5094.00 5445.74 80.11 4.00 364.19 2595.14
   04:40:54.416.17-Sep-2021 5094.00 5445.80 80.11 4.00 364.39 2595.14
   04:40:54.616.17-Sep-2021 5094.00 5445.80 80.11 4.00 364.59 2595.14
   04:40:54.816.17-Sep-2021 5094.00 5445.88 80.11 4.00 364.79 2595.14
   04:40:55.016.17-Sep-2021 5094.00 5446.51 80.11 4.00 364.99 2595.14
   04:40:55.217.17-Sep-2021 5094.00 5445.28 80.11 4.00 365.19 2595.14
   04:40:55.417.17-Sep-2021 5094.00 5445.74 80.11 4.00 365.39 2595.14
   04:40:55.617.17-Sep-2021 5094.00 5445.74 80.11 4.00 365.59 2595.14
   04:40:55.817.17-Sep-2021 5094.00 5445.50 80.11 4.00 365.79 2595.14
   04:40:56.017.17-Sep-2021 5094.00 5445.14 80.11 4.00 365.99 2595.14
   04:40:56.218.17-Sep-2021 5094.00 5444.93 80.11 4.00 366.19 2595.14
   04:40:56.418.17-Sep-2021 5094.00 5444.82 80.11 4.00 366.39 2595.14
   04:40:56.618.17-Sep-2021 5094.00 5444.82 80.11 4.00 366.59 2595.14
   04:40:56.818.17-Sep-2021 5094.00 5444.77 80.11 4.00 366.80 2595.14
   04:40:57.018.17-Sep-2021 5094.00 5444.90 80.11 4.00 367.00 2595.14
   04:40:57.219.17-Sep-2021 5094.00 5444.26 80.11 4.00 367.20 2595.14
   04:40:57.419.17-Sep-2021 5094.00 5444.57 80.11 4.00 367.40 2595.14
   04:40:57.619.17-Sep-2021 5094.00 5444.57 80.11 4.00 367.60 2595.14
   04:40:57.819.17-Sep-2021 5094.00 5444.59 80.11 4.00 367.80 2595.14
   04:40:58.020.17-Sep-2021 5094.00 5444.59 80.11 4.00 368.00 2595.14
   04:40:58.220.17-Sep-2021 5094.00 5444.48 80.11 4.00 368.20 2595.14
