~Version Information
 VERS.                  2.0:   CWLS log ASCII Standard -VERSION 2.0
 WRAP.                   NO:   One line per depth step
~Well Information Block
#MNEM.UNIT     VALUE/NAME     DESCRIPTION
#---------     -----------    ---------------------------
 STRT.S             06:26:37 17-Sep-21: START TIME 06:26:37 17-Sep-21
 STOP.S             06:35:42 17-Sep-21: STOP TIME  06:35:42 17-Sep-21
 STEP.S                   0.00: STEP TIME
 NULL.                 -999.25: NULL VALUE
 DFWT.                        :  DIST FWL TEXT
 DFST.                        :  DIST FSL TEXT
 DMF .             Drill Floor:  DRILL MEAS FROM
 STIM.      10.59.12 05-Jul-21:  START TIME
 DATE.      10.59.12 10-Sep-21:  END TIME
 SPUD.               05-Jul-21:  SPUD DATE
 NREF.                    Grid:  NORTH REFERENCE
 HPTY.       Minimum Curvature:  HOLE POS TYPE
 DMOD.             Drill Model:  DRILL MOD DESC
 SVYD.                  Survey:  SURVEY DESC
 ILTD.               Lithology:  INTERP LTH DESC
 FTOP.          Formation Tops:  FORM TOPS DESC
 RIG .                     DWG:  RIG NAME
 PDAT.          Mean Sea Level:  PERMANENT DATUM
 FLD .                     ACG:  FIELD NAME
 SON .        AZ-XX-0907115008:  JOB NUMBER
 CTRY.              Azerbaijan:  COUNTRY NAME
 WELL.                    E35A:  WELL NAME
 SRVC.          TURAN DRILLING:  CONTRACTOR
 COMP.     BP Exploration (Caspian Sea LTD):  COMPANY
 UWI .                     N/A:  UNIQUE WELL IDENTIFIER
 API .                     N/A:  API NUMBER
 MDS .        Operator Entered:  MAG DATA SOURCE
 BASE.              Azerbaijan:  LOGGING EQUIPMENT BASE LOCATION
 REGN.                   EESSA:  REGION
 PROV.                    Baku:  PROVINCE
 STAT.                    Baku:  STATE NAME
 MWDS.                    Baku:  MWD SHOP
 JOBN.        AZ-XX-0907115008:  JOB TICKET NUMB
 DOE .                     N/A:  DOE NUMBER
 DCON.         Sperry Drilling:  DIRECTNL CONTR
 UNIT.                     N/A:  LOGGING EQUIPMENT ID
 WTYP.                Deviated:  WELL TYPE
 CNTY.                        :  COUNTY
 LOC .                        :  LOCATION
 LMF .             Drill Floor:  LOG MEASURED FROM
 TVDS.m                  43.16:  TVDSS CORRECTN
 LATI.deg                40.17:  LATITUDE
 LONG.deg                51.17:  LONGITUDE
 WHNS.m                  10.51:  WELL HEAD N/S
 WHEW.m                 -14.82:  WELL HEAD E/W
 UTMX.m              514336.92:  UTM X
 UTMY.m             4448618.56:  UTM Y
 DFWL.m                   0.00:  DISTANCE FWL
 DFSL.m                   0.00:  DISTANCE FSL
 SDEP.m                 849.00:  START DEPTH
 TDD .m                2862.00:  TOTAL DEPTH (DRILLER)
 VSDR.deg               292.10:  VERT SEC DIRECT
 GVFD.g                   1.00:  GRAVITY FIELD
 MFLD.nT              50382.00:  MAGNETIC FIELD
 MDIP.deg                59.68:  MAGNETIC DIP
 MDEC.deg                 6.66:  MAGNETIC DECL
 GRDC.deg                 0.09:  GRID CORRECTION
 AZTC.deg                 6.57:  AZM TOTAL CORR
 EPD .m                   0.00:  ELEVATION
 EGL .m                   0.00:  GROUND ELEVATION
 WDMS.m                 176.20:  WD ELEV
 APD .m                  43.16:  DEPTH ABOVE PD
 DEP .m                 363.42:  DEPTH
 AGAP.m                  43.16:  AIR GAP
 VSEW.m                 -14.82:  VERT SEC E/W
 VSNS.m                  10.51:  VERT SEC N/S
 EKB .m                  43.16:  KB ELEVATION
 EDF .m                  43.16:  DF ELEVATION
 TDL .m                1390.00:  TOTAL DEPTH (LOGGER)
 VSC .                       0:  VS TO CLOSURE
 MAGU.                 1855871:  MAGUTM CHECKSUM
~Parameter Information Block
#MNEM.UNIT       Value        Description
#---------     -----------    ---------------------------
 AV  .mps                 2.28:  Ann Velocity 
 AVMX.mps                 2.67:  Max Ann Veloc 
 AZIF.deg               305.00:  Azm, Final 
 BHAT.        Rotary Steerable:  BHA Type 
 BROT.°/30m               0.45:  Build Rotating 
 BS  .in                 12.25:  Bit Size 
 BSZ .in                 12.25:  Bit Size 
 BTPL.psig              600.00:  Bit Press Loss 
 CABU.                     Yes:  Customer Abuse 
 COMM.                     D5N:  Run Comments 1 
 TCS .hr                150.00:  Time Ciculation Ended 
 CV  .mps                 1.24:  Crit Velocity 
 CVMX.mps                 1.66:  Max Crit Veloc 
 DD1 .         Intigam Rahimov:  Direct Drillr 1 
 DD2 .            Azer Ravavov:  Direct Drillr 2 
 DD3 .              Samir Abas:  Direct Drillr 3 
 DDSV.               Geo-Pilot:  DD Service 
 DEFF.%                 100.00:  % Det Eff 
 DLRX.°/30m               1.57:  Dogleg Rot Max 
 DLSO.°/30m               0.00:  Dogleg Oriented 
 DLSX.°/30m               0.00:  Dogleg Str Max 
 DRET.      20.28.06 17-Sep-21:  Drill End Time 
 DRST.      20.27.35 10-Sep-21:  Drill Start Tim 
 DTIM.hr                 54.00:  Time Drilling 
 EDEP.m                5260.00:  End Depth 
 ENG1.      Bakhtiyar Jabbarli:  Engineer 1 
 ENG2.      Natik Hasanaghayev:  Engineer 2 
 ENG3.           Royal Nasirov:  Engineer 3 
 ETIM.      20.27.55 18-Sep-21:  End Time 
 FLOI.gpm              1100.00:  Flow In 
 FLON.gpm               800.00:  Flow In Min 
 FLOS.cptm                0.00:  Fluid Loss 
 FLOX.gpm              1200.00:  Flow In Max 
 DFT .        Mineral Oil Base:  Mud Type 
 HPRE.                      No:  High Pressure 
 HTEM.                      No:  High Temp 
 HYDO.m                   1.80:  Hydro Offset 
 IFIN.deg                72.31:  Inc, Final 
 IMAX.deg                72.36:  Inc Max 
 IMIN.deg                69.36:  Inc Min 
 IMND.m                4192.96:  Inc Min Depth 
 IMXD.m                5128.36:  Inc Max Depth 
 JARR.                      No:  Jarring 
 LETM.      20.29.00 17-Sep-21:  Log End Time 
 LOST.hr                     0:  Lost Rig Time 
 LSTM.      20.27.00 10-Sep-21:  Log Start Time 
 MDCL.ppm            227000.00:  Mud Chlorides 
 MDES.     Inversion Oil/Synthetic:  Mud Desc 
 DFD .sg                  1.45:  Mud Density 
 MDMN.sg                  1.45:  Dens Mud Min 
 MDMX.sg                  1.45:  Dens Mud Max 
 MOIL.                    70.5:  Run Mud Oil % 
 MOWR.                   71:29:  Run Mud OWR 
 MSND.                     0.3:  Run Mud Sand % 
 MSOL.                    19.8:  Run Mud Solids% 
 DFV .spqt               80.00:  Mud Viscosity 
 MWOD.in                  8.00:  MWD Tool OD 
 MWSI.                     Yes:  Serv Intrp, MWD 
 OTIM.hr                180.00:  Time Operating 
 PCON.           Look Like New:  Pad Condition 
 PMAX.psia             9910.94:  Press Op, Max 
 PV  .cP                 35.00:  Mud PV 
 RUN .                    1000:  Run Number 
 ROPA.m/hr               18.00:  ROP Avg 
 ROPN.m/hr                8.00:  ROP Min 
 ROPX.m/hr               23.00:  ROP Max 
 RPMA.rpm               150.00:  RPM Surface Avg 
 RPMN.rpm               120.00:  RPM Surface Min 
 RPMX.rpm               160.00:  RPM Surface Max 
 RRUN.                    L503:  Rig Run Number 
 RTIM.hr                  5.00:  Time Reaming 
 SAZI.deg               298.42:  Azm, Start 
 SDEP.m                3870.00:  Start Depth 
 SIDD.                      No:  Serv Intrp, DD 
 SINC.deg                69.57:  Inc, Start 
 SPPA.psig             5500.00:  SPP Avg 
 SPPN.psig             4400.00:  SPP Min 
 SPPX.psig             5800.00:  SPP Max 
 STIM.      15.29.39 09-Sep-21:  Start Time 
 SVCS.                 DD, MWD:  Services 
 SVER.                    9.20:  Sperry Version 
 TDAT.m                5260.00:  Tot Depth Attmp 
 TDDF.                      No:  Trip for DD 
 TDLG.m                1390.00:  Tot Depth Loggd 
 TFF .                      No:  Trip for Fail 
 TQAA.f-kp               22.00:  Torque Abs Avg 
 TQAN.f-kp               13.00:  Torque Abs Min 
 TQAX.f-kp               27.00:  Torque Abs Max 
 TRRT.°/30m               1.60:  Turn Rotating 
 MRT .                  EWR-M5:  Maximum Recorded Temperature 
 TTMX.degC               92.00:  Max Tool Temp 
 VS01.                12330975:  Virtual Str1 SN 
 VS02.                90658671:  Virtual Str2 SN 
 VS03.                90658508:  Virtual Str3 SN 
 VS04.                90660974:  Virtual Str4 SN 
 VS05.                90654675:  Virtual Str5 SN 
 WBMN.klb                15.00:  WOB Min 
 WITN.     Alexander Yadullayev:  Customer Rep 
 WITN.           Adil Mammadov:  Customer Rep 2 
 WOBA.klb                17.00:  WOB Avg 
 WOBX.klb                18.00:  WOB Max 
 YP  .lhf2               31.00:  Yield Point 
~Curve Information Block
#MNEM.UNIT                 API CODE     Curve Description
#---------               -----------    ---------------------------
 TIME.HHMMSS            00 000 000 000:  GT Time & Date
 GTDEPTH.m              00 000 000 000:  GT Depth
 GTPQH.psia             00 000 000 000:  GT HR Quartz Pressure
 GTTQ.degC              00 000 000 000:  GT Quartz Temperature
 GTTN.NONE              00 000 000 000:  GT Test Number
 GTET.sec               00 000 000 000:  GT Elapsed Test Time
 GTTVD.m                00 000 000 000:  GT True Vertical Depth
#Other Information
#
#WARRANTY: Halliburton will use its best efforts to furnish customers with 
#accurate information and interpretations that are part of, and incident to, the services 
#provided.  However, Halliburton cannot and does not warrant the accuracy 
#or correctness of such information and interpretations.  Under no circumstances should any 
#such information or interpretation be relied upon as the sole basis for any drilling, 
#completion, production, or financial decision or any procedure involving any risk to the 
#safety of any drilling venture, drilling rig or its crew or any other third party.  The 
#Customer has full responsibility for all drilling, completion and production operation.  
#Halliburton makes no representations or warranties, either expressed or 
#implied, including, but not limited to, the implied warranties of merchantability or fitness 
#for a particular purpose, with respect to the services rendered.  In no event will 
#Halliburton be liable for failure to obtain any particular results or for 
#any damages, including, but not limited to, indirect, special or consequential damages, 
#resulting from the use of any information or interpretation provided by Halliburton.
#
~A           TIME           GTDEPTH  GTPQH  GTTQ  GTTN  GTET   GTTVD  
# ...
   06:32:22.283.17-Sep-2021 5057.00 5593.93 78.68 7.00 344.93 2583.65
   06:32:22.483.17-Sep-2021 5057.00 5593.93 78.68 7.00 345.13 2583.65
   06:32:22.683.17-Sep-2021 5057.00 5593.88 78.68 7.00 345.33 2583.65
   06:32:22.883.17-Sep-2021 5057.00 5593.87 78.68 7.00 345.53 2583.65
   06:32:23.083.17-Sep-2021 5057.00 5593.94 78.68 7.00 345.73 2583.65
   06:32:23.283.17-Sep-2021 5057.00 5594.15 78.68 7.00 345.93 2583.65
   06:32:23.483.17-Sep-2021 5057.00 5594.15 78.68 7.00 346.13 2583.65
   06:32:23.683.17-Sep-2021 5057.00 5595.17 78.68 7.00 346.33 2583.65
   06:32:23.883.17-Sep-2021 5057.00 5594.02 78.68 7.00 346.53 2583.65
   06:32:24.083.17-Sep-2021 5057.00 5594.14 78.68 7.00 346.73 2583.65
   06:32:24.283.17-Sep-2021 5057.00 5594.25 78.68 7.00 346.93 2583.65
   06:32:24.483.17-Sep-2021 5057.00 5594.25 78.68 7.00 347.13 2583.65
   06:32:24.683.17-Sep-2021 5057.00 5593.33 78.68 7.00 347.33 2583.65
   06:32:24.883.17-Sep-2021 5057.00 5594.06 78.68 7.00 347.53 2583.65
   06:32:25.083.17-Sep-2021 5057.00 5592.92 78.68 7.00 347.73 2583.65
   06:32:25.283.17-Sep-2021 5057.00 5594.00 78.68 7.00 347.93 2583.65
   06:32:25.482.17-Sep-2021 5057.00 5594.00 78.68 7.00 348.13 2583.65
   06:32:25.682.17-Sep-2021 5057.00 5593.40 78.68 7.00 348.33 2583.65
   06:32:25.882.17-Sep-2021 5057.00 5593.61 78.68 7.00 348.53 2583.65
   06:32:26.082.17-Sep-2021 5057.00 5593.66 78.68 7.00 348.73 2583.65
   06:32:26.282.17-Sep-2021 5057.00 5594.50 78.68 7.00 348.93 2583.65
   06:32:26.482.17-Sep-2021 5057.00 5594.50 78.68 7.00 349.13 2583.65
   06:32:26.682.17-Sep-2021 5057.00 5594.27 78.68 7.00 349.33 2583.65
   06:32:26.882.17-Sep-2021 5057.00 5593.73 78.68 7.00 349.53 2583.65
   06:32:27.082.17-Sep-2021 5057.00 5594.65 78.68 7.00 349.73 2583.65
   06:32:27.282.17-Sep-2021 5057.00 5590.56 78.68 7.00 349.93 2583.65
   06:32:27.482.17-Sep-2021 5057.00 5590.56 78.68 7.00 350.13 2583.65
   06:32:27.682.17-Sep-2021 5057.00 5590.90 78.68 7.00 350.33 2583.65
   06:32:27.882.17-Sep-2021 5057.00 5590.64 78.68 7.00 350.53 2583.65
   06:32:28.082.17-Sep-2021 5057.00 5590.64 78.68 7.00 350.73 2583.65
   06:32:28.282.17-Sep-2021 5057.00 5590.51 78.68 7.00 350.93 2583.65
   06:32:28.482.17-Sep-2021 5057.00 5590.51 78.68 7.00 351.13 2583.65
   06:32:28.682.17-Sep-2021 5057.00 5590.58 78.68 7.00 351.33 2583.65
   06:32:28.882.17-Sep-2021 5057.00 5590.51 78.68 7.00 351.53 2583.65
   06:32:29.082.17-Sep-2021 5057.00 5590.59 78.68 7.00 351.73 2583.65
   06:32:29.282.17-Sep-2021 5057.00 5590.51 78.68 7.00 351.92 2583.65
   06:32:29.482.17-Sep-2021 5057.00 5590.51 78.68 7.00 352.12 2583.65
   06:32:29.682.17-Sep-2021 5057.00 5590.77 78.68 7.00 352.32 2583.65
   06:32:29.882.17-Sep-2021 5057.00 5590.88 78.68 7.00 352.52 2583.65
   06:32:30.082.17-Sep-2021 5057.00 5593.06 78.68 7.00 352.72 2583.65
   06:32:30.281.17-Sep-2021 5057.00 5594.99 78.68 7.00 352.92 2583.65
   06:32:30.481.17-Sep-2021 5057.00 5594.99 78.68 7.00 353.12 2583.65
   06:32:30.681.17-Sep-2021 5057.00 5594.90 78.68 7.00 353.32 2583.65
   06:32:30.881.17-Sep-2021 5057.00 5594.36 78.68 7.00 353.52 2583.65
   06:32:31.081.17-Sep-2021 5057.00 5594.25 78.68 7.00 353.72 2583.65
   06:32:31.281.17-Sep-2021 5057.00 5594.06 78.68 7.00 353.92 2583.65
   06:32:31.481.17-Sep-2021 5057.00 5594.06 78.68 7.00 354.12 2583.65
   06:32:31.681.17-Sep-2021 5057.00 5593.93 78.68 7.00 354.32 2583.65
   06:32:31.881.17-Sep-2021 5057.00 5593.99 78.68 7.00 354.52 2583.65
   06:32:32.081.17-Sep-2021 5057.00 5593.83 78.68 7.00 354.72 2583.65
   06:32:32.281.17-Sep-2021 5057.00 5593.93 78.68 7.00 354.92 2583.65
   06:32:32.481.17-Sep-2021 5057.00 5593.93 78.68 7.00 355.12 2583.65
   06:32:32.681.17-Sep-2021 5057.00 5593.99 78.68 7.00 355.32 2583.65
   06:32:32.881.17-Sep-2021 5057.00 5594.20 78.68 7.00 355.52 2583.65
   06:32:33.081.17-Sep-2021 5057.00 5594.23 78.68 7.00 355.72 2583.65
   06:32:33.281.17-Sep-2021 5057.00 5594.29 78.68 7.00 355.92 2583.65
   06:32:33.481.17-Sep-2021 5057.00 5594.29 78.68 7.00 356.12 2583.65
   06:32:33.681.17-Sep-2021 5057.00 5596.46 78.68 7.00 356.32 2583.65
   06:32:33.881.17-Sep-2021 5057.00 5596.18 78.68 7.00 356.52 2583.65
   06:32:34.081.17-Sep-2021 5057.00 5596.14 78.68 7.00 356.72 2583.65
   06:32:34.281.17-Sep-2021 5057.00 5596.00 78.68 7.00 356.92 2583.65
   06:32:34.481.17-Sep-2021 5057.00 5596.00 78.68 7.00 357.12 2583.65
   06:32:34.681.17-Sep-2021 5057.00 5595.57 78.68 7.00 357.32 2583.65
   06:32:34.880.17-Sep-2021 5057.00 5597.00 78.68 7.00 357.52 2583.65
   06:32:35.080.17-Sep-2021 5057.00 5596.45 78.68 7.00 357.72 2583.65
   06:32:35.280.17-Sep-2021 5057.00 5596.79 78.68 7.00 357.92 2583.65
   06:32:35.480.17-Sep-2021 5057.00 5596.79 78.68 7.00 358.12 2583.65
   06:32:35.680.17-Sep-2021 5057.00 5596.29 78.68 7.00 358.32 2583.65
   06:32:35.880.17-Sep-2021 5057.00 5596.21 78.68 7.00 358.52 2583.65
   06:32:36.080.17-Sep-2021 5057.00 5596.93 78.68 7.00 358.72 2583.65
   06:32:36.280.17-Sep-2021 5057.00 5597.23 78.68 7.00 358.92 2583.65
   06:32:36.480.17-Sep-2021 5057.00 5597.23 78.68 7.00 359.12 2583.65
   06:32:36.680.17-Sep-2021 5057.00 5597.47 78.68 7.00 359.32 2583.65
   06:32:36.880.17-Sep-2021 5057.00 5597.55 78.68 7.00 359.52 2583.65
   06:32:37.080.17-Sep-2021 5057.00 5596.93 78.68 7.00 359.72 2583.65
   06:32:37.280.17-Sep-2021 5057.00 5597.87 78.68 7.00 359.92 2583.65
   06:32:37.480.17-Sep-2021 5057.00 5597.87 78.68 7.00 360.12 2583.65
   06:32:37.680.17-Sep-2021 5057.00 5597.30 78.68 7.00 360.32 2583.65
   06:32:37.880.17-Sep-2021 5057.00 5597.43 78.68 7.00 360.52 2583.65
   06:32:38.080.17-Sep-2021 5057.00 5596.99 78.68 7.00 360.72 2583.65
   06:32:38.280.17-Sep-2021 5057.00 5596.92 78.68 7.00 360.92 2583.65
   06:32:38.480.17-Sep-2021 5057.00 5596.92 78.68 7.00 361.12 2583.65
   06:32:38.680.17-Sep-2021 5057.00 5596.83 78.68 7.00 361.32 2583.65
   06:32:38.880.17-Sep-2021 5057.00 5596.96 78.68 7.00 361.52 2583.65
   06:32:39.080.17-Sep-2021 5057.00 5596.82 78.68 7.00 361.72 2583.65
   06:32:39.280.17-Sep-2021 5057.00 5597.05 78.68 7.00 361.92 2583.65
   06:32:39.480.17-Sep-2021 5057.00 5597.05 78.68 7.00 362.12 2583.65
   06:32:39.679.17-Sep-2021 5057.00 5596.92 78.68 7.00 362.32 2583.65
   06:32:39.879.17-Sep-2021 5057.00 5597.06 78.68 7.00 362.52 2583.65
   06:32:40.079.17-Sep-2021 5057.00 5597.12 78.68 7.00 362.72 2583.65
   06:32:40.279.17-Sep-2021 5057.00 5598.47 78.68 7.00 362.92 2583.65
   06:32:40.479.17-Sep-2021 5057.00 5598.47 78.68 7.00 363.12 2583.65
   06:32:40.679.17-Sep-2021 5057.00 5598.58 78.68 7.00 363.32 2583.65
   06:32:40.879.17-Sep-2021 5057.00 5598.05 78.68 7.00 363.52 2583.65
   06:32:41.079.17-Sep-2021 5057.00 5597.65 78.68 7.00 363.72 2583.65
   06:32:41.279.17-Sep-2021 5057.00 5597.61 78.68 7.00 363.92 2583.65
   06:32:41.479.17-Sep-2021 5057.00 5597.61 78.68 7.00 364.12 2583.65
   06:32:41.679.17-Sep-2021 5057.00 5597.26 78.68 7.00 364.32 2583.65
   06:32:41.879.17-Sep-2021 5057.00 5597.32 78.68 7.00 364.52 2583.65
   06:32:42.079.17-Sep-2021 5057.00 5597.46 78.68 7.00 364.72 2583.65
   06:32:42.279.17-Sep-2021 5057.00 5597.44 78.68 7.00 364.92 2583.65
   06:32:42.479.17-Sep-2021 5057.00 5597.44 78.68 7.00 365.12 2583.65
   06:32:42.679.17-Sep-2021 5057.00 5597.51 78.68 7.00 365.32 2583.65
   06:32:42.879.17-Sep-2021 5057.00 5597.46 78.68 7.00 365.52 2583.65
   06:32:43.079.17-Sep-2021 5057.00 5597.50 78.68 7.00 365.72 2583.65
   06:32:43.279.17-Sep-2021 5057.00 5597.53 78.68 7.00 365.92 2583.65
   06:32:43.479.17-Sep-2021 5057.00 5597.53 78.68 7.00 366.12 2583.65
   06:32:43.679.17-Sep-2021 5057.00 5598.11 78.68 7.00 366.32 2583.65
   06:32:43.879.17-Sep-2021 5057.00 5598.47 78.68 7.00 366.52 2583.65
   06:32:44.079.17-Sep-2021 5057.00 5598.28 78.68 7.00 366.72 2583.65
   06:32:44.278.17-Sep-2021 5057.00 5598.42 78.68 7.00 366.92 2583.65
   06:32:44.478.17-Sep-2021 5057.00 5598.42 78.68 7.00 367.12 2583.65
   06:32:44.678.17-Sep-2021 5057.00 5597.63 78.68 7.00 367.32 2583.65
   06:32:44.878.17-Sep-2021 5057.00 5598.32 78.68 7.00 367.52 2583.65
   06:32:45.078.17-Sep-2021 5057.00 5598.08 78.68 7.00 367.72 2583.65
