~Version Information
 VERS.                  2.0:   CWLS log ASCII Standard -VERSION 2.0
 WRAP.                   NO:   One line per depth step
~Well Information Block
#MNEM.UNIT     VALUE/NAME     DESCRIPTION
#---------     -----------    ---------------------------
 STRT.S             04:23:34 20-May-20: START TIME 04:23:34 20-May-20
 STOP.S             04:34:06 20-May-20: STOP TIME  04:34:06 20-May-20
 STEP.S                   0.00: STEP TIME
 NULL.                 -999.25: NULL VALUE
 MDS .        Operator Entered:  MAG DATA SOURCE
 PDAT.          Mean Sea Level:  PERMANENT DATUM
 UNIT.                     N/A:  LOGGING EQUIPMENT ID
 DCON.         Sperry Drilling:  DIRECTNL CONTR
 DOE .                     N/A:  DOE NUMBER
 RIG .              East Azeri:  RIG NAME
 JOBN.        AZ-XX-0905856059:  JOB TICKET NUMB
 WELL.                     D36:  WELL NAME
 MWDS.                    Baku:  MWD SHOP
 SRVC.     Turan Drilling & Engineering:  CONTRACTOR
 FLD .                     ACG:  FIELD NAME
 CTRY.              Azerbaijan:  COUNTRY NAME
 PROV.                    Baku:  PROVINCE
 STAT.                    Baku:  STATE NAME
 REGN.                   EESSA:  REGION
 BASE.              Azerbaijan:  LOGGING EQUIPMENT BASE LOCATION
 UWI .                     N/A:  UNIQUE WELL IDENTIFIER
 API .                     N/A:  API NUMBER
 COMP.     BP Exploration (Caspian Sea) Ltd.:  COMPANY
 WTYP.                Deviated:  WELL TYPE
 SON .        AZ-XX-0905856059:  JOB NUMBER
 FTOP.          Formation Tops:  FORM TOPS DESC
 ILTD.               Lithology:  INTERP LTH DESC
 SVYD.                  Survey:  SURVEY DESC
 DMOD.             Drill Model:  DRILL MOD DESC
 HPTY.       Minimum Curvature:  HOLE POS TYPE
 NREF.                    Grid:  NORTH REFERENCE
 SPUD.               25-Feb-20:  SPUD DATE
 DATE.      08.55.28 01-May-20:  END TIME
 STIM.      08.55.28 25-Feb-20:  START TIME
 DMF .             Drill Floor:  DRILL MEAS FROM
 DFST.                        :  DIST FSL TEXT
 DFWT.                        :  DIST FWL TEXT
 CNTY.                        :  COUNTY
 LOC .                        :  LOCATION
 LMF .             Drill Floor:  LOG MEASURED FROM
 VSNS.m                   6.09:  VERT SEC N/S
 VSEW.m                 -10.79:  VERT SEC E/W
 AGAP.m                  43.60:  AIR GAP
 DEP .m                 388.24:  DEPTH
 APD .m                  43.60:  DEPTH ABOVE PD
 WDMS.m                 151.80:  WD ELEV
 EGL .m                   0.00:  GROUND ELEVATION
 EPD .m                   0.00:  ELEVATION
 AZTC.deg                 6.12:  AZM TOTAL CORR
 GRDC.deg                 0.30:  GRID CORRECTION
 MDEC.deg                 6.42:  MAGNETIC DECL
 MDIP.deg                59.42:  MAGNETIC DIP
 MFLD.nT              50256.00:  MAGNETIC FIELD
 GVFD.g                   1.00:  GRAVITY FIELD
 VSDR.deg               159.57:  VERT SEC DIRECT
 TDD .m                5000.01:  TOTAL DEPTH (DRILLER)
 SDEP.m                 397.00:  START DEPTH
 DFSL.m                   0.00:  DISTANCE FSL
 DFWL.m                   0.00:  DISTANCE FWL
 UTMY.m             4431880.20:  UTM Y
 UTMX.m              538763.98:  UTM X
 WHEW.m                 -10.79:  WELL HEAD E/W
 WHNS.m                   6.09:  WELL HEAD N/S
 LONG.deg                51.45:  LONGITUDE
 LATI.deg                40.02:  LATITUDE
 TVDS.m                  43.60:  TVDSS CORRECTN
 EKB .m                  43.60:  KB ELEVATION
 EDF .m                  43.60:  DF ELEVATION
 MAGU.                 1847640:  MAGUTM CHECKSUM
 VSC .                       0:  VS TO CLOSURE
~Parameter Information Block
#MNEM.UNIT       Value        Description
#---------     -----------    ---------------------------
 AV  .mps                 1.30:  Ann Velocity 
 AVMX.mps                 1.90:  Max Ann Veloc 
 AZIF.deg               115.68:  Azm, Final 
 BHAT.                   Other:  BHA Type 
 BROT.°/30m               0.74:  Build Rotating 
 BS  .in                  8.50:  Bit Size 
 BTPL.psig              430.00:  Bit Press Loss 
 CABU.                      No:  Customer Abuse 
 TCS .hr                 51.31:  Time Ciculation Ended 
 CV  .mps                 2.52:  Crit Velocity 
 CVMX.mps                 2.62:  Max Crit Veloc 
 DD1 .          Teymur Aghayev:  Direct Drillr 1 
 DDSV.                   Other:  DD Service 
 DEFF.%                 100.00:  % Det Eff 
 DLRX.°/30m               1.62:  Dogleg Rot Max 
 DLSO.°/30m               0.74:  Dogleg Oriented 
 DLSX.°/30m               1.62:  Dogleg Str Max 
 DRET.      04.30.56 18-May-20:  Drill End Time 
 DRST.      04.30.56 18-May-20:  Drill Start Tim 
 DTIM.hr                  0.00:  Time Drilling 
 EDEP.m                5337.01:  End Depth 
 ENG1.      Artemiy Matviyanov:  Engineer 1 
 ENG2.      Bakhtiyar Jabbarli:  Engineer 2 
 ENG3.           Emil Huseynov:  Engineer 3 
 ETIM.      18.40.00 22-May-20:  End Time 
 FLOI.gpm               550.00:  Flow In 
 FLON.gpm               350.00:  Flow In Min 
 FLOS.cptm                0.00:  Fluid Loss 
 FLOX.gpm               600.00:  Flow In Max 
 HFLO.                      No:  High Flow 
 HPRE.                      No:  High Pressure 
 HTEM.                      No:  High Temp 
 HYDO.m                   1.80:  Hydro Offset 
 IFIN.deg                67.01:  Inc, Final 
 IMAX.deg                67.49:  Inc Max 
 IMIN.deg                66.50:  Inc Min 
 IMND.m                5144.79:  Inc Min Depth 
 IMXD.m                5116.12:  Inc Max Depth 
 JARR.                      No:  Jarring 
 LETM.      17.55.56 20-May-20:  Log End Time 
 LOST.hr                     0:  Lost Rig Time 
 LSTM.      04.30.56 18-May-20:  Log Start Time 
 MDCL.ppm            193153.00:  Mud Chlorides 
 MDES.     Inversion Oil/Synthetic:  Mud Desc 
 DFD .sg                  1.40:  Mud Density 
 MDMN.sg                  1.40:  Dens Mud Min 
 MDMX.sg                  1.41:  Dens Mud Max 
 MOIL.                      68:  Run Mud Oil % 
 MOWR.                   68:32:  Run Mud OWR 
 MSND.                     0.2:  Run Mud Sand % 
 MSOL.                    18.8:  Run Mud Solids% 
 DFV .spqt               80.00:  Mud Viscosity 
 MWOD.in                  6.75:  MWD Tool OD 
 MWSI.                      No:  Serv Intrp, MWD 
 OTIM.hr                104.84:  Time Operating 
 PMAX.psia            10690.93:  Press Op, Max 
 PV  .cP                 26.00:  Mud PV 
 RUN .                     900:  Run Number 
 ROPA.m/hr                0.00:  ROP Avg 
 ROPN.m/hr                0.00:  ROP Min 
 ROPX.m/hr                0.00:  ROP Max 
 RPMA.rpm               140.00:  RPM Surface Avg 
 RPMN.rpm                70.00:  RPM Surface Min 
 RPMX.rpm               140.00:  RPM Surface Max 
 RRUN.                    0900:  Rig Run Number 
 RTIM.hr                 36.00:  Time Reaming 
 SAZI.deg               115.72:  Azm, Start 
 SDEP.m                5337.01:  Start Depth 
 SIDD.                      No:  Serv Intrp, DD 
 SINC.deg                66.92:  Inc, Start 
 SPPA.psig             4400.00:  SPP Avg 
 SPPN.psig             1135.00:  SPP Min 
 SPPX.psig             4581.00:  SPP Max 
 STIM.      04.30.56 18-May-20:  Start Time 
 SVCS.                     MWD:  Services 
 SVER.                    9.20:  Sperry Version 
 TDAT.m                5337.01:  Tot Depth Attmp 
 TDDF.                      No:  Trip for DD 
 TFF .                      No:  Trip for Fail 
 TQAA.f-kp               23.00:  Torque Abs Avg 
 TQAN.f-kp               18.00:  Torque Abs Min 
 TQAX.f-kp               25.00:  Torque Abs Max 
 TRRT.°/30m               0.74:  Turn Rotating 
 MRT .                    HCIM:  Maximum Recorded Temperature 
 TTMX.degC               76.47:  Max Tool Temp 
 WBMN.klb                 0.00:  WOB Min 
 WITN.             Anar Khalil:  Customer Rep 
 WITN.      Kamran Keberlinski:  Customer Rep 2 
 WOBA.klb                 0.00:  WOB Avg 
 WOBX.klb                 0.00:  WOB Max 
 YP  .lhf2               27.00:  Yield Point 
~Curve Information Block
#MNEM.UNIT                 API CODE     Curve Description
#---------               -----------    ---------------------------
 TIME.HHMMSS            00 000 000 000:  GT Time & Date
 GTDEPTH.m              00 000 000 000:  GT Depth
 GTPQH.psia             00 000 000 000:  GT HR Quartz Pressure
 GTTQ.degC              00 000 000 000:  GT Quartz Temperature
 GTTN.NONE              00 000 000 000:  GT Test Number
 GTET.sec               00 000 000 000:  GT Elapsed Test Time
 GTTVD.m                00 000 000 000:  GT True Vertical Depth
#Other Information
#
#WARRANTY: Halliburton will use its best efforts to furnish customers with 
#accurate information and interpretations that are part of, and incident to, the services 
#provided.  However, Halliburton cannot and does not warrant the accuracy 
#or correctness of such information and interpretations.  Under no circumstances should any 
#such information or interpretation be relied upon as the sole basis for any drilling, 
#completion, production, or financial decision or any procedure involving any risk to the 
#safety of any drilling venture, drilling rig or its crew or any other third party.  The 
#Customer has full responsibility for all drilling, completion and production operation.  
#Halliburton makes no representations or warranties, either expressed or 
#implied, including, but not limited to, the implied warranties of merchantability or fitness 
#for a particular purpose, with respect to the services rendered.  In no event will 
#Halliburton be liable for failure to obtain any particular results or for 
#any damages, including, but not limited to, indirect, special or consequential damages, 
#resulting from the use of any information or interpretation provided by Halliburton.
#
~A           TIME           GTDEPTH  GTPQH  GTTQ  GTTN  GTET   GTTVD  
# ...
   04:31:37.721.20-May-2020 5064.29 2956.12 68.78 9.00 483.14 2676.66
   04:31:37.921.20-May-2020 5064.29 2956.12 68.78 9.00 483.34 2676.66
   04:31:38.121.20-May-2020 5064.29 2956.11 68.78 9.00 483.54 2676.66
   04:31:38.321.20-May-2020 5064.29 2956.06 68.78 9.00 483.74 2676.66
   04:31:38.521.20-May-2020 5064.29 2956.12 68.78 9.00 483.94 2676.66
   04:31:38.721.20-May-2020 5064.29 2956.11 68.78 9.00 484.14 2676.66
   04:31:38.921.20-May-2020 5064.29 2956.11 68.78 9.00 484.34 2676.66
   04:31:39.121.20-May-2020 5064.29 2956.12 68.78 9.00 484.54 2676.66
   04:31:39.321.20-May-2020 5064.29 2956.07 68.78 9.00 484.74 2676.66
   04:31:39.521.20-May-2020 5064.29 2956.11 68.78 9.00 484.94 2676.66
   04:31:39.722.20-May-2020 5064.29 2956.11 68.78 9.00 485.14 2676.66
   04:31:39.922.20-May-2020 5064.29 2956.11 68.78 9.00 485.34 2676.66
   04:31:40.122.20-May-2020 5064.29 2956.12 68.78 9.00 485.54 2676.66
   04:31:40.322.20-May-2020 5064.29 2956.11 68.78 9.00 485.74 2676.66
   04:31:40.522.20-May-2020 5064.29 2956.11 68.78 9.00 485.94 2676.66
   04:31:40.722.20-May-2020 5064.29 2956.10 68.78 9.00 486.14 2676.66
   04:31:40.922.20-May-2020 5064.29 2956.10 68.78 9.00 486.34 2676.66
   04:31:41.122.20-May-2020 5064.29 2956.19 68.78 9.00 486.54 2676.66
   04:31:41.322.20-May-2020 5064.29 2956.03 68.78 9.00 486.74 2676.66
   04:31:41.522.20-May-2020 5064.29 2956.13 68.78 9.00 486.94 2676.66
   04:31:41.722.20-May-2020 5064.29 2956.12 68.78 9.00 487.14 2676.66
   04:31:41.922.20-May-2020 5064.29 2956.12 68.78 9.00 487.34 2676.66
   04:31:42.122.20-May-2020 5064.29 2956.02 68.78 9.00 487.54 2676.66
   04:31:42.322.20-May-2020 5064.29 2956.17 68.78 9.00 487.74 2676.66
   04:31:42.522.20-May-2020 5064.29 2956.10 68.78 9.00 487.94 2676.66
   04:31:42.722.20-May-2020 5064.29 2956.15 68.78 9.00 488.14 2676.66
   04:31:42.922.20-May-2020 5064.29 2956.15 68.78 9.00 488.34 2676.66
   04:31:43.122.20-May-2020 5064.29 2956.25 68.78 9.00 488.54 2676.66
   04:31:43.323.20-May-2020 5064.29 2956.02 68.78 9.00 488.74 2676.66
   04:31:43.523.20-May-2020 5064.29 2956.17 68.78 9.00 488.94 2676.66
   04:31:43.723.20-May-2020 5064.29 2956.13 68.78 9.00 489.14 2676.66
   04:31:43.923.20-May-2020 5064.29 2956.13 68.78 9.00 489.34 2676.66
   04:31:44.123.20-May-2020 5064.29 2956.01 68.78 9.00 489.54 2676.66
   04:31:44.323.20-May-2020 5064.29 2956.19 68.78 9.00 489.74 2676.66
   04:31:44.523.20-May-2020 5064.29 2956.10 68.78 9.00 489.94 2676.66
   04:31:44.723.20-May-2020 5064.29 2956.15 68.78 9.00 490.14 2676.66
   04:31:44.923.20-May-2020 5064.29 2956.15 68.78 9.00 490.34 2676.66
   04:31:45.123.20-May-2020 5064.29 2956.12 68.78 9.00 490.54 2676.66
   04:31:45.323.20-May-2020 5064.29 2956.08 68.78 9.00 490.74 2676.66
   04:31:45.523.20-May-2020 5064.29 2956.12 68.78 9.00 490.94 2676.66
   04:31:45.723.20-May-2020 5064.29 2956.11 68.78 9.00 491.14 2676.66
   04:31:45.923.20-May-2020 5064.29 2956.11 68.78 9.00 491.34 2676.66
   04:31:46.123.20-May-2020 5064.29 2956.12 68.78 9.00 491.54 2676.66
   04:31:46.323.20-May-2020 5064.29 2956.07 68.78 9.00 491.74 2676.66
   04:31:46.523.20-May-2020 5064.29 2956.13 68.78 9.00 491.94 2676.66
   04:31:46.723.20-May-2020 5064.29 2956.11 68.78 9.00 492.14 2676.66
   04:31:46.924.20-May-2020 5064.29 2956.11 68.78 9.00 492.34 2676.66
   04:31:47.124.20-May-2020 5064.29 2956.12 68.78 9.00 492.54 2676.66
   04:31:47.324.20-May-2020 5064.29 2956.09 68.78 9.00 492.74 2676.66
   04:31:47.524.20-May-2020 5064.29 2956.11 68.78 9.00 492.94 2676.66
   04:31:47.724.20-May-2020 5064.29 2956.14 68.78 9.00 493.14 2676.66
   04:31:47.924.20-May-2020 5064.29 2956.14 68.78 9.00 493.34 2676.66
   04:31:48.124.20-May-2020 5064.29 2956.27 68.78 9.00 493.54 2676.66
   04:31:48.324.20-May-2020 5064.29 2956.04 68.78 9.00 493.74 2676.66
   04:31:48.524.20-May-2020 5064.29 2956.11 68.78 9.00 493.94 2676.66
   04:31:48.724.20-May-2020 5064.29 2956.19 68.78 9.00 494.14 2676.66
   04:31:48.924.20-May-2020 5064.29 2956.19 68.78 9.00 494.34 2676.66
   04:31:49.124.20-May-2020 5064.29 2956.00 68.78 9.00 494.54 2676.66
   04:31:49.324.20-May-2020 5064.29 2956.17 68.78 9.00 494.74 2676.66
   04:31:49.524.20-May-2020 5064.29 2956.10 68.78 9.00 494.94 2676.66
   04:31:49.724.20-May-2020 5064.29 2956.15 68.78 9.00 495.14 2676.66
   04:31:49.924.20-May-2020 5064.29 2956.15 68.78 9.00 495.34 2676.66
   04:31:50.124.20-May-2020 5064.29 2956.22 68.78 9.00 495.54 2676.66
   04:31:50.325.20-May-2020 5064.29 2956.04 68.78 9.00 495.74 2676.66
   04:31:50.525.20-May-2020 5064.29 2956.16 68.78 9.00 495.94 2676.66
   04:31:50.725.20-May-2020 5064.29 2956.17 68.78 9.00 496.14 2676.66
   04:31:50.925.20-May-2020 5064.29 2956.17 68.78 9.00 496.34 2676.66
   04:31:51.125.20-May-2020 5064.29 2956.00 68.78 9.00 496.54 2676.66
   04:31:51.325.20-May-2020 5064.29 2956.17 68.78 9.00 496.74 2676.66
   04:31:51.525.20-May-2020 5064.29 2956.11 68.78 9.00 496.94 2676.66
   04:31:51.725.20-May-2020 5064.29 2956.14 68.78 9.00 497.14 2676.66
   04:31:51.925.20-May-2020 5064.29 2956.14 68.78 9.00 497.34 2676.66
   04:31:52.125.20-May-2020 5064.29 2956.10 68.78 9.00 497.54 2676.66
   04:31:52.325.20-May-2020 5064.29 2956.08 68.78 9.00 497.74 2676.66
   04:31:52.525.20-May-2020 5064.29 2956.14 68.78 9.00 497.94 2676.66
   04:31:52.725.20-May-2020 5064.29 2956.10 68.78 9.00 498.14 2676.66
   04:31:52.925.20-May-2020 5064.29 2956.10 68.78 9.00 498.34 2676.66
   04:31:53.125.20-May-2020 5064.29 2956.14 68.78 9.00 498.54 2676.66
   04:31:53.325.20-May-2020 5064.29 2956.08 68.78 9.00 498.74 2676.66
   04:31:53.525.20-May-2020 5064.29 2956.12 68.78 9.00 498.94 2676.66
   04:31:53.725.20-May-2020 5064.29 2956.12 68.78 9.00 499.14 2676.66
   04:31:53.926.20-May-2020 5064.29 2956.12 68.78 9.00 499.34 2676.66
   04:31:54.126.20-May-2020 5064.29 2956.05 68.78 9.00 499.54 2676.66
   04:31:54.326.20-May-2020 5064.29 2956.17 68.78 9.00 499.74 2676.66
   04:31:54.526.20-May-2020 5064.29 2956.11 68.78 9.00 499.94 2676.66
   04:31:54.726.20-May-2020 5064.29 2956.11 68.78 9.00 500.14 2676.66
   04:31:54.926.20-May-2020 5064.29 2956.11 68.78 9.00 500.34 2676.66
   04:31:55.126.20-May-2020 5064.29 2956.24 68.78 9.00 500.54 2676.66
   04:31:55.326.20-May-2020 5064.29 2956.03 68.78 9.00 500.74 2676.66
   04:31:55.526.20-May-2020 5064.29 2956.15 68.78 9.00 500.94 2676.66
   04:31:55.726.20-May-2020 5064.29 2956.15 68.78 9.00 501.14 2676.66
   04:31:55.926.20-May-2020 5064.29 2956.15 68.78 9.00 501.34 2676.66
   04:31:56.126.20-May-2020 5064.29 2956.15 68.78 9.00 501.54 2676.66
   04:31:56.326.20-May-2020 5064.29 2956.06 68.78 9.00 501.74 2676.66
   04:31:56.526.20-May-2020 5064.29 2956.12 68.78 9.00 501.94 2676.66
   04:31:56.726.20-May-2020 5064.29 2956.14 68.78 9.00 502.14 2676.66
   04:31:56.926.20-May-2020 5064.29 2956.14 68.78 9.00 502.34 2676.66
   04:31:57.126.20-May-2020 5064.29 2956.09 68.78 9.00 502.54 2676.66
   04:31:57.326.20-May-2020 5064.29 2956.06 68.78 9.00 502.74 2676.66
   04:31:57.527.20-May-2020 5064.29 2956.17 68.78 9.00 502.94 2676.66
   04:31:57.727.20-May-2020 5064.29 2956.15 68.78 9.00 503.14 2676.66
   04:31:57.927.20-May-2020 5064.29 2956.15 68.78 9.00 503.34 2676.66
   04:31:58.127.20-May-2020 5064.29 2956.16 68.78 9.00 503.54 2676.66
   04:31:58.327.20-May-2020 5064.29 2956.06 68.78 9.00 503.74 2676.66
   04:31:58.527.20-May-2020 5064.29 2956.13 68.78 9.00 503.94 2676.66
   04:31:58.727.20-May-2020 5064.29 2956.13 68.78 9.00 504.14 2676.66
   04:31:58.927.20-May-2020 5064.29 2956.13 68.78 9.00 504.34 2676.66
   04:31:59.127.20-May-2020 5064.29 2956.11 68.78 9.00 504.54 2676.66
   04:31:59.327.20-May-2020 5064.29 2956.11 68.78 9.00 504.74 2676.66
   04:31:59.527.20-May-2020 5064.29 2956.14 68.78 9.00 504.94 2676.66
   04:31:59.727.20-May-2020 5064.29 2956.11 68.78 9.00 505.14 2676.66
   04:31:59.927.20-May-2020 5064.29 2956.11 68.78 9.00 505.34 2676.66
   04:32:00.127.20-May-2020 5064.29 2956.14 68.78 9.00 505.54 2676.66
   04:32:00.327.20-May-2020 5064.29 2956.09 68.78 9.00 505.74 2676.66
   04:32:00.527.20-May-2020 5064.29 2956.13 68.78 9.00 505.94 2676.66
