~Version Information
 VERS.                  2.0:   CWLS log ASCII Standard -VERSION 2.0
 WRAP.                   NO:   One line per depth step
~Well Information Block
#MNEM.UNIT     VALUE/NAME     DESCRIPTION
#---------     -----------    ---------------------------
 STRT.S             04:23:34 20-May-20: START TIME 04:23:34 20-May-20
 STOP.S             04:34:06 20-May-20: STOP TIME  04:34:06 20-May-20
 STEP.S                   0.00: STEP TIME
 NULL.                 -999.25: NULL VALUE
 MDS .        Operator Entered:  MAG DATA SOURCE
 PDAT.          Mean Sea Level:  PERMANENT DATUM
 UNIT.                     N/A:  LOGGING EQUIPMENT ID
 DCON.         Sperry Drilling:  DIRECTNL CONTR
 DOE .                     N/A:  DOE NUMBER
 RIG .              East Azeri:  RIG NAME
 JOBN.        AZ-XX-0905856059:  JOB TICKET NUMB
 WELL.                     D36:  WELL NAME
 MWDS.                    Baku:  MWD SHOP
 SRVC.     Turan Drilling & Engineering:  CONTRACTOR
 FLD .                     ACG:  FIELD NAME
 CTRY.              Azerbaijan:  COUNTRY NAME
 PROV.                    Baku:  PROVINCE
 STAT.                    Baku:  STATE NAME
 REGN.                   EESSA:  REGION
 BASE.              Azerbaijan:  LOGGING EQUIPMENT BASE LOCATION
 UWI .                     N/A:  UNIQUE WELL IDENTIFIER
 API .                     N/A:  API NUMBER
 COMP.     BP Exploration (Caspian Sea) Ltd.:  COMPANY
 WTYP.                Deviated:  WELL TYPE
 SON .        AZ-XX-0905856059:  JOB NUMBER
 FTOP.          Formation Tops:  FORM TOPS DESC
 ILTD.               Lithology:  INTERP LTH DESC
 SVYD.                  Survey:  SURVEY DESC
 DMOD.             Drill Model:  DRILL MOD DESC
 HPTY.       Minimum Curvature:  HOLE POS TYPE
 NREF.                    Grid:  NORTH REFERENCE
 SPUD.               25-Feb-20:  SPUD DATE
 DATE.      08.55.28 01-May-20:  END TIME
 STIM.      08.55.28 25-Feb-20:  START TIME
 DMF .             Drill Floor:  DRILL MEAS FROM
 DFST.                        :  DIST FSL TEXT
 DFWT.                        :  DIST FWL TEXT
 CNTY.                        :  COUNTY
 LOC .                        :  LOCATION
 LMF .             Drill Floor:  LOG MEASURED FROM
 VSNS.m                   6.09:  VERT SEC N/S
 VSEW.m                 -10.79:  VERT SEC E/W
 AGAP.m                  43.60:  AIR GAP
 DEP .m                 388.24:  DEPTH
 APD .m                  43.60:  DEPTH ABOVE PD
 WDMS.m                 151.80:  WD ELEV
 EGL .m                   0.00:  GROUND ELEVATION
 EPD .m                   0.00:  ELEVATION
 AZTC.deg                 6.12:  AZM TOTAL CORR
 GRDC.deg                 0.30:  GRID CORRECTION
 MDEC.deg                 6.42:  MAGNETIC DECL
 MDIP.deg                59.42:  MAGNETIC DIP
 MFLD.nT              50256.00:  MAGNETIC FIELD
 GVFD.g                   1.00:  GRAVITY FIELD
 VSDR.deg               159.57:  VERT SEC DIRECT
 TDD .m                5000.01:  TOTAL DEPTH (DRILLER)
 SDEP.m                 397.00:  START DEPTH
 DFSL.m                   0.00:  DISTANCE FSL
 DFWL.m                   0.00:  DISTANCE FWL
 UTMY.m             4431880.20:  UTM Y
 UTMX.m              538763.98:  UTM X
 WHEW.m                 -10.79:  WELL HEAD E/W
 WHNS.m                   6.09:  WELL HEAD N/S
 LONG.deg                51.45:  LONGITUDE
 LATI.deg                40.02:  LATITUDE
 TVDS.m                  43.60:  TVDSS CORRECTN
 EKB .m                  43.60:  KB ELEVATION
 EDF .m                  43.60:  DF ELEVATION
 MAGU.                 1847640:  MAGUTM CHECKSUM
 VSC .                       0:  VS TO CLOSURE
~Parameter Information Block
#MNEM.UNIT       Value        Description
#---------     -----------    ---------------------------
 AV  .mps                 1.30:  Ann Velocity 
 AVMX.mps                 1.90:  Max Ann Veloc 
 AZIF.deg               115.68:  Azm, Final 
 BHAT.                   Other:  BHA Type 
 BROT.°/30m               0.74:  Build Rotating 
 BS  .in                  8.50:  Bit Size 
 BTPL.psig              430.00:  Bit Press Loss 
 CABU.                      No:  Customer Abuse 
 TCS .hr                 51.31:  Time Ciculation Ended 
 CV  .mps                 2.52:  Crit Velocity 
 CVMX.mps                 2.62:  Max Crit Veloc 
 DD1 .          Teymur Aghayev:  Direct Drillr 1 
 DDSV.                   Other:  DD Service 
 DEFF.%                 100.00:  % Det Eff 
 DLRX.°/30m               1.62:  Dogleg Rot Max 
 DLSO.°/30m               0.74:  Dogleg Oriented 
 DLSX.°/30m               1.62:  Dogleg Str Max 
 DRET.      04.30.56 18-May-20:  Drill End Time 
 DRST.      04.30.56 18-May-20:  Drill Start Tim 
 DTIM.hr                  0.00:  Time Drilling 
 EDEP.m                5337.01:  End Depth 
 ENG1.      Artemiy Matviyanov:  Engineer 1 
 ENG2.      Bakhtiyar Jabbarli:  Engineer 2 
 ENG3.           Emil Huseynov:  Engineer 3 
 ETIM.      18.40.00 22-May-20:  End Time 
 FLOI.gpm               550.00:  Flow In 
 FLON.gpm               350.00:  Flow In Min 
 FLOS.cptm                0.00:  Fluid Loss 
 FLOX.gpm               600.00:  Flow In Max 
 HFLO.                      No:  High Flow 
 HPRE.                      No:  High Pressure 
 HTEM.                      No:  High Temp 
 HYDO.m                   1.80:  Hydro Offset 
 IFIN.deg                67.01:  Inc, Final 
 IMAX.deg                67.49:  Inc Max 
 IMIN.deg                66.50:  Inc Min 
 IMND.m                5144.79:  Inc Min Depth 
 IMXD.m                5116.12:  Inc Max Depth 
 JARR.                      No:  Jarring 
 LETM.      17.55.56 20-May-20:  Log End Time 
 LOST.hr                     0:  Lost Rig Time 
 LSTM.      04.30.56 18-May-20:  Log Start Time 
 MDCL.ppm            193153.00:  Mud Chlorides 
 MDES.     Inversion Oil/Synthetic:  Mud Desc 
 DFD .sg                  1.40:  Mud Density 
 MDMN.sg                  1.40:  Dens Mud Min 
 MDMX.sg                  1.41:  Dens Mud Max 
 MOIL.                      68:  Run Mud Oil % 
 MOWR.                   68:32:  Run Mud OWR 
 MSND.                     0.2:  Run Mud Sand % 
 MSOL.                    18.8:  Run Mud Solids% 
 DFV .spqt               80.00:  Mud Viscosity 
 MWOD.in                  6.75:  MWD Tool OD 
 MWSI.                      No:  Serv Intrp, MWD 
 OTIM.hr                104.84:  Time Operating 
 PMAX.psia            10690.93:  Press Op, Max 
 PV  .cP                 26.00:  Mud PV 
 RUN .                     900:  Run Number 
 ROPA.m/hr                0.00:  ROP Avg 
 ROPN.m/hr                0.00:  ROP Min 
 ROPX.m/hr                0.00:  ROP Max 
 RPMA.rpm               140.00:  RPM Surface Avg 
 RPMN.rpm                70.00:  RPM Surface Min 
 RPMX.rpm               140.00:  RPM Surface Max 
 RRUN.                    0900:  Rig Run Number 
 RTIM.hr                 36.00:  Time Reaming 
 SAZI.deg               115.72:  Azm, Start 
 SDEP.m                5337.01:  Start Depth 
 SIDD.                      No:  Serv Intrp, DD 
 SINC.deg                66.92:  Inc, Start 
 SPPA.psig             4400.00:  SPP Avg 
 SPPN.psig             1135.00:  SPP Min 
 SPPX.psig             4581.00:  SPP Max 
 STIM.      04.30.56 18-May-20:  Start Time 
 SVCS.                     MWD:  Services 
 SVER.                    9.20:  Sperry Version 
 TDAT.m                5337.01:  Tot Depth Attmp 
 TDDF.                      No:  Trip for DD 
 TFF .                      No:  Trip for Fail 
 TQAA.f-kp               23.00:  Torque Abs Avg 
 TQAN.f-kp               18.00:  Torque Abs Min 
 TQAX.f-kp               25.00:  Torque Abs Max 
 TRRT.°/30m               0.74:  Turn Rotating 
 MRT .                    HCIM:  Maximum Recorded Temperature 
 TTMX.degC               76.47:  Max Tool Temp 
 WBMN.klb                 0.00:  WOB Min 
 WITN.             Anar Khalil:  Customer Rep 
 WITN.      Kamran Keberlinski:  Customer Rep 2 
 WOBA.klb                 0.00:  WOB Avg 
 WOBX.klb                 0.00:  WOB Max 
 YP  .lhf2               27.00:  Yield Point 
~Curve Information Block
#MNEM.UNIT                 API CODE     Curve Description
#---------               -----------    ---------------------------
 TIME.HHMMSS            00 000 000 000:  GT Time & Date
 GTDEPTH.m              00 000 000 000:  GT Depth
 GTPQH.psia             00 000 000 000:  GT HR Quartz Pressure
 GTTQ.degC              00 000 000 000:  GT Quartz Temperature
 GTTN.NONE              00 000 000 000:  GT Test Number
 GTET.sec               00 000 000 000:  GT Elapsed Test Time
 GTTVD.m                00 000 000 000:  GT True Vertical Depth
#Other Information
#
#WARRANTY: Halliburton will use its best efforts to furnish customers with 
#accurate information and interpretations that are part of, and incident to, the services 
#provided.  However, Halliburton cannot and does not warrant the accuracy 
#or correctness of such information and interpretations.  Under no circumstances should any 
#such information or interpretation be relied upon as the sole basis for any drilling, 
#completion, production, or financial decision or any procedure involving any risk to the 
#safety of any drilling venture, drilling rig or its crew or any other third party.  The 
#Customer has full responsibility for all drilling, completion and production operation.  
#Halliburton makes no representations or warranties, either expressed or 
#implied, including, but not limited to, the implied warranties of merchantability or fitness 
#for a particular purpose, with respect to the services rendered.  In no event will 
#Halliburton be liable for failure to obtain any particular results or for 
#any damages, including, but not limited to, indirect, special or consequential damages, 
#resulting from the use of any information or interpretation provided by Halliburton.
#
~A           TIME           GTDEPTH  GTPQH  GTTQ  GTTN  GTET   GTTVD  
# ...
   04:27:24.649.20-May-2020 5064.29 2893.11 68.77 9.00 230.07 2676.66
   04:27:24.849.20-May-2020 5064.29 2893.11 68.77 9.00 230.27 2676.66
   04:27:25.049.20-May-2020 5064.29 2894.00 68.77 9.00 230.47 2676.66
   04:27:25.250.20-May-2020 5064.29 2892.17 68.77 9.00 230.67 2676.66
   04:27:25.450.20-May-2020 5064.29 2892.18 68.77 9.00 230.87 2676.66
   04:27:25.650.20-May-2020 5064.29 2893.90 68.77 9.00 231.07 2676.66
   04:27:25.850.20-May-2020 5064.29 2893.90 68.77 9.00 231.27 2676.66
   04:27:26.050.20-May-2020 5064.29 2893.36 68.77 9.00 231.47 2676.66
   04:27:26.250.20-May-2020 5064.29 2893.82 68.77 9.00 231.67 2676.66
   04:27:26.450.20-May-2020 5064.29 2893.02 68.77 9.00 231.87 2676.66
   04:27:26.650.20-May-2020 5064.29 2893.30 68.77 9.00 232.07 2676.66
   04:27:26.850.20-May-2020 5064.29 2893.30 68.77 9.00 232.27 2676.66
   04:27:27.050.20-May-2020 5064.29 2893.34 68.77 9.00 232.47 2676.66
   04:27:27.250.20-May-2020 5064.29 2892.15 68.77 9.00 232.67 2676.66
   04:27:27.450.20-May-2020 5064.29 2893.19 68.77 9.00 232.87 2676.66
   04:27:27.650.20-May-2020 5064.29 2893.00 68.77 9.00 233.07 2676.66
   04:27:27.850.20-May-2020 5064.29 2893.00 68.77 9.00 233.27 2676.66
   04:27:28.050.20-May-2020 5064.29 2893.22 68.77 9.00 233.47 2676.66
   04:27:28.250.20-May-2020 5064.29 2894.30 68.77 9.00 233.67 2676.66
   04:27:28.450.20-May-2020 5064.29 2893.87 68.77 9.00 233.87 2676.66
   04:27:28.650.20-May-2020 5064.29 2893.85 68.77 9.00 234.07 2676.66
   04:27:28.851.20-May-2020 5064.29 2893.85 68.77 9.00 234.27 2676.66
   04:27:29.051.20-May-2020 5064.29 2892.97 68.77 9.00 234.47 2676.66
   04:27:29.251.20-May-2020 5064.29 2893.79 68.77 9.00 234.67 2676.66
   04:27:29.451.20-May-2020 5064.29 2892.98 68.77 9.00 234.87 2676.66
   04:27:29.651.20-May-2020 5064.29 2893.49 68.77 9.00 235.07 2676.66
   04:27:29.851.20-May-2020 5064.29 2893.49 68.77 9.00 235.27 2676.66
   04:27:30.051.20-May-2020 5064.29 2893.16 68.77 9.00 235.47 2676.66
   04:27:30.251.20-May-2020 5064.29 2892.36 68.77 9.00 235.67 2676.66
   04:27:30.451.20-May-2020 5064.29 2892.93 68.77 9.00 235.87 2676.66
   04:27:30.651.20-May-2020 5064.29 2895.15 68.77 9.00 236.07 2676.66
   04:27:30.851.20-May-2020 5064.29 2895.15 68.77 9.00 236.27 2676.66
   04:27:31.051.20-May-2020 5064.29 2892.77 68.77 9.00 236.47 2676.66
   04:27:31.251.20-May-2020 5064.29 2893.63 68.77 9.00 236.67 2676.66
   04:27:31.451.20-May-2020 5064.29 2894.33 68.77 9.00 236.87 2676.66
   04:27:31.651.20-May-2020 5064.29 2894.32 68.77 9.00 237.07 2676.66
   04:27:31.851.20-May-2020 5064.29 2894.32 68.77 9.00 237.27 2676.66
   04:27:32.051.20-May-2020 5064.29 2893.93 68.77 9.00 237.47 2676.66
   04:27:32.252.20-May-2020 5064.29 2894.38 68.77 9.00 237.67 2676.66
   04:27:32.452.20-May-2020 5064.29 2894.80 68.77 9.00 237.87 2676.66
   04:27:32.652.20-May-2020 5064.29 2894.44 68.77 9.00 238.07 2676.66
   04:27:32.852.20-May-2020 5064.29 2894.44 68.77 9.00 238.27 2676.66
   04:27:33.052.20-May-2020 5064.29 2892.48 68.77 9.00 238.47 2676.66
   04:27:33.252.20-May-2020 5064.29 2893.77 68.77 9.00 238.67 2676.66
   04:27:33.452.20-May-2020 5064.29 2894.22 68.77 9.00 238.87 2676.66
   04:27:33.652.20-May-2020 5064.29 2893.98 68.77 9.00 239.07 2676.66
   04:27:33.852.20-May-2020 5064.29 2893.98 68.77 9.00 239.27 2676.66
   04:27:34.052.20-May-2020 5064.29 2893.28 68.77 9.00 239.47 2676.66
   04:27:34.252.20-May-2020 5064.29 2893.85 68.77 9.00 239.67 2676.66
   04:27:34.452.20-May-2020 5064.29 2893.81 68.77 9.00 239.87 2676.66
   04:27:34.652.20-May-2020 5064.29 2894.52 68.77 9.00 240.07 2676.66
   04:27:34.852.20-May-2020 5064.29 2894.52 68.77 9.00 240.27 2676.66
   04:27:35.052.20-May-2020 5064.29 2893.41 68.77 9.00 240.47 2676.66
   04:27:35.252.20-May-2020 5064.29 2894.75 68.77 9.00 240.67 2676.66
   04:27:35.452.20-May-2020 5064.29 2893.73 68.77 9.00 240.87 2676.66
   04:27:35.652.20-May-2020 5064.29 2893.82 68.77 9.00 241.07 2676.66
   04:27:35.853.20-May-2020 5064.29 2893.82 68.77 9.00 241.27 2676.66
   04:27:36.053.20-May-2020 5064.29 2893.81 68.77 9.00 241.47 2676.66
   04:27:36.253.20-May-2020 5064.29 2893.76 68.77 9.00 241.67 2676.66
   04:27:36.453.20-May-2020 5064.29 2893.70 68.77 9.00 241.87 2676.66
   04:27:36.653.20-May-2020 5064.29 2894.01 68.77 9.00 242.07 2676.66
   04:27:36.853.20-May-2020 5064.29 2894.01 68.77 9.00 242.27 2676.66
   04:27:37.053.20-May-2020 5064.29 2893.77 68.77 9.00 242.47 2676.66
   04:27:37.253.20-May-2020 5064.29 2892.07 68.77 9.00 242.67 2676.66
   04:27:37.453.20-May-2020 5064.29 2892.67 68.77 9.00 242.87 2676.66
   04:27:37.653.20-May-2020 5064.29 2893.62 68.77 9.00 243.07 2676.66
   04:27:37.853.20-May-2020 5064.29 2893.62 68.77 9.00 243.27 2676.66
   04:27:38.053.20-May-2020 5064.29 2891.93 68.77 9.00 243.47 2676.66
   04:27:38.253.20-May-2020 5064.29 2893.18 68.77 9.00 243.67 2676.66
   04:27:38.453.20-May-2020 5064.29 2894.07 68.77 9.00 243.87 2676.66
   04:27:38.653.20-May-2020 5064.29 2894.26 68.77 9.00 244.07 2676.66
   04:27:38.853.20-May-2020 5064.29 2894.26 68.77 9.00 244.27 2676.66
   04:27:39.053.20-May-2020 5064.29 2893.46 68.77 9.00 244.47 2676.66
   04:27:39.253.20-May-2020 5064.29 2894.68 68.77 9.00 244.67 2676.66
   04:27:39.454.20-May-2020 5064.29 2893.95 68.77 9.00 244.87 2676.66
   04:27:39.654.20-May-2020 5064.29 2894.13 68.77 9.00 245.07 2676.66
   04:27:39.854.20-May-2020 5064.29 2894.13 68.77 9.00 245.27 2676.66
   04:27:40.054.20-May-2020 5064.29 2893.44 68.77 9.00 245.47 2676.66
   04:27:40.254.20-May-2020 5064.29 2895.14 68.77 9.00 245.67 2676.66
   04:27:40.454.20-May-2020 5064.29 2894.60 68.77 9.00 245.87 2676.66
   04:27:40.654.20-May-2020 5064.29 2896.00 68.77 9.00 246.07 2676.66
   04:27:40.854.20-May-2020 5064.29 2896.00 68.77 9.00 246.27 2676.66
   04:27:41.054.20-May-2020 5064.29 2895.43 68.77 9.00 246.47 2676.66
   04:27:41.254.20-May-2020 5064.29 2893.82 68.77 9.00 246.67 2676.66
   04:27:41.454.20-May-2020 5064.29 2894.16 68.77 9.00 246.87 2676.66
   04:27:41.654.20-May-2020 5064.29 2895.81 68.77 9.00 247.07 2676.66
   04:27:41.854.20-May-2020 5064.29 2895.81 68.77 9.00 247.27 2676.66
   04:27:42.054.20-May-2020 5064.29 2895.91 68.77 9.00 247.47 2676.66
   04:27:42.254.20-May-2020 5064.29 2895.92 68.77 9.00 247.67 2676.66
   04:27:42.454.20-May-2020 5064.29 2896.16 68.77 9.00 247.87 2676.66
   04:27:42.654.20-May-2020 5064.29 2896.18 68.77 9.00 248.07 2676.66
   04:27:42.855.20-May-2020 5064.29 2896.18 68.77 9.00 248.27 2676.66
   04:27:43.055.20-May-2020 5064.29 2896.52 68.77 9.00 248.47 2676.66
   04:27:43.255.20-May-2020 5064.29 2896.09 68.77 9.00 248.67 2676.66
   04:27:43.455.20-May-2020 5064.29 2896.39 68.77 9.00 248.87 2676.66
   04:27:43.655.20-May-2020 5064.29 2895.79 68.77 9.00 249.07 2676.66
   04:27:43.855.20-May-2020 5064.29 2895.79 68.77 9.00 249.27 2676.66
   04:27:44.055.20-May-2020 5064.29 2895.20 68.77 9.00 249.47 2676.66
   04:27:44.255.20-May-2020 5064.29 2895.60 68.77 9.00 249.67 2676.66
   04:27:44.455.20-May-2020 5064.29 2896.36 68.77 9.00 249.87 2676.66
   04:27:44.655.20-May-2020 5064.29 2897.12 68.77 9.00 250.07 2676.66
   04:27:44.855.20-May-2020 5064.29 2897.12 68.77 9.00 250.27 2676.66
   04:27:45.055.20-May-2020 5064.29 2935.09 68.77 9.00 250.47 2676.66
   04:27:45.255.20-May-2020 5064.29 2919.54 68.77 9.00 250.67 2676.66
   04:27:45.455.20-May-2020 5064.29 2902.78 68.77 9.00 250.87 2676.66
   04:27:45.655.20-May-2020 5064.29 2901.06 68.77 9.00 251.07 2676.66
   04:27:45.855.20-May-2020 5064.29 2901.06 68.77 9.00 251.27 2676.66
   04:27:46.055.20-May-2020 5064.29 2895.96 68.77 9.00 251.47 2676.66
   04:27:46.255.20-May-2020 5064.29 2896.95 68.77 9.00 251.67 2676.66
   04:27:46.456.20-May-2020 5064.29 2897.38 68.77 9.00 251.87 2676.66
   04:27:46.656.20-May-2020 5064.29 2897.25 68.77 9.00 252.07 2676.66
   04:27:46.856.20-May-2020 5064.29 2897.25 68.77 9.00 252.27 2676.66
   04:27:47.056.20-May-2020 5064.29 2895.55 68.77 9.00 252.47 2676.66
   04:27:47.256.20-May-2020 5064.29 2895.97 68.77 9.00 252.67 2676.66
   04:27:47.456.20-May-2020 5064.29 2896.35 68.77 9.00 252.87 2676.66
