~Version Information
 VERS.                  2.0:   CWLS log ASCII Standard -VERSION 2.0
 WRAP.                   NO:   One line per depth step
~Well Information Block
#MNEM.UNIT     VALUE/NAME     DESCRIPTION
#---------     -----------    ---------------------------
 STRT.S             00:06:39 20-May-20: START TIME 00:06:39 20-May-20
 STOP.S             00:17:12 20-May-20: STOP TIME  00:17:12 20-May-20
 STEP.S                   0.00: STEP TIME
 NULL.                 -999.25: NULL VALUE
 MDS .        Operator Entered:  MAG DATA SOURCE
 PDAT.          Mean Sea Level:  PERMANENT DATUM
 UNIT.                     N/A:  LOGGING EQUIPMENT ID
 DCON.         Sperry Drilling:  DIRECTNL CONTR
 DOE .                     N/A:  DOE NUMBER
 RIG .              East Azeri:  RIG NAME
 JOBN.        AZ-XX-0905856059:  JOB TICKET NUMB
 WELL.                     D36:  WELL NAME
 MWDS.                    Baku:  MWD SHOP
 SRVC.     Turan Drilling & Engineering:  CONTRACTOR
 FLD .                     ACG:  FIELD NAME
 CTRY.              Azerbaijan:  COUNTRY NAME
 PROV.                    Baku:  PROVINCE
 STAT.                    Baku:  STATE NAME
 REGN.                   EESSA:  REGION
 BASE.              Azerbaijan:  LOGGING EQUIPMENT BASE LOCATION
 UWI .                     N/A:  UNIQUE WELL IDENTIFIER
 API .                     N/A:  API NUMBER
 COMP.     BP Exploration (Caspian Sea) Ltd.:  COMPANY
 WTYP.                Deviated:  WELL TYPE
 SON .        AZ-XX-0905856059:  JOB NUMBER
 FTOP.          Formation Tops:  FORM TOPS DESC
 ILTD.               Lithology:  INTERP LTH DESC
 SVYD.                  Survey:  SURVEY DESC
 DMOD.             Drill Model:  DRILL MOD DESC
 HPTY.       Minimum Curvature:  HOLE POS TYPE
 NREF.                    Grid:  NORTH REFERENCE
 SPUD.               25-Feb-20:  SPUD DATE
 DATE.      08.55.28 01-May-20:  END TIME
 STIM.      08.55.28 25-Feb-20:  START TIME
 DMF .             Drill Floor:  DRILL MEAS FROM
 DFST.                        :  DIST FSL TEXT
 DFWT.                        :  DIST FWL TEXT
 CNTY.                        :  COUNTY
 LOC .                        :  LOCATION
 LMF .             Drill Floor:  LOG MEASURED FROM
 VSNS.m                   6.09:  VERT SEC N/S
 VSEW.m                 -10.79:  VERT SEC E/W
 AGAP.m                  43.60:  AIR GAP
 DEP .m                 388.24:  DEPTH
 APD .m                  43.60:  DEPTH ABOVE PD
 WDMS.m                 151.80:  WD ELEV
 EGL .m                   0.00:  GROUND ELEVATION
 EPD .m                   0.00:  ELEVATION
 AZTC.deg                 6.12:  AZM TOTAL CORR
 GRDC.deg                 0.30:  GRID CORRECTION
 MDEC.deg                 6.42:  MAGNETIC DECL
 MDIP.deg                59.42:  MAGNETIC DIP
 MFLD.nT              50256.00:  MAGNETIC FIELD
 GVFD.g                   1.00:  GRAVITY FIELD
 VSDR.deg               159.57:  VERT SEC DIRECT
 TDD .m                5000.01:  TOTAL DEPTH (DRILLER)
 SDEP.m                 397.00:  START DEPTH
 DFSL.m                   0.00:  DISTANCE FSL
 DFWL.m                   0.00:  DISTANCE FWL
 UTMY.m             4431880.20:  UTM Y
 UTMX.m              538763.98:  UTM X
 WHEW.m                 -10.79:  WELL HEAD E/W
 WHNS.m                   6.09:  WELL HEAD N/S
 LONG.deg                51.45:  LONGITUDE
 LATI.deg                40.02:  LATITUDE
 TVDS.m                  43.60:  TVDSS CORRECTN
 EKB .m                  43.60:  KB ELEVATION
 EDF .m                  43.60:  DF ELEVATION
 MAGU.                 1847640:  MAGUTM CHECKSUM
 VSC .                       0:  VS TO CLOSURE
~Parameter Information Block
#MNEM.UNIT       Value        Description
#---------     -----------    ---------------------------
 AV  .mps                 1.30:  Ann Velocity 
 AVMX.mps                 1.90:  Max Ann Veloc 
 AZIF.deg               115.68:  Azm, Final 
 BHAT.                   Other:  BHA Type 
 BROT.°/30m               0.74:  Build Rotating 
 BS  .in                  8.50:  Bit Size 
 BTPL.psig              430.00:  Bit Press Loss 
 CABU.                      No:  Customer Abuse 
 COMM.                     \õd:  Run Comments 1 
 TCS .hr                 51.31:  Time Ciculation Ended 
 CV  .mps                 2.52:  Crit Velocity 
 CVMX.mps                 2.62:  Max Crit Veloc 
 DD1 .          Teymur Aghayev:  Direct Drillr 1 
 DDSV.                   Other:  DD Service 
 DEFF.%                 100.00:  % Det Eff 
 DLRX.°/30m               1.62:  Dogleg Rot Max 
 DLSO.°/30m               0.74:  Dogleg Oriented 
 DLSX.°/30m               1.62:  Dogleg Str Max 
 DRET.      04.30.56 18-May-20:  Drill End Time 
 DRST.      04.30.56 18-May-20:  Drill Start Tim 
 DTIM.hr                  0.00:  Time Drilling 
 EDEP.m                5337.01:  End Depth 
 ENG1.      Artemiy Matviyanov:  Engineer 1 
 ENG2.      Bakhtiyar Jabbarli:  Engineer 2 
 ENG3.           Emil Huseynov:  Engineer 3 
 ETIM.      18.40.00 22-May-20:  End Time 
 FLOI.gpm               550.00:  Flow In 
 FLON.gpm               350.00:  Flow In Min 
 FLOS.cptm                0.00:  Fluid Loss 
 FLOX.gpm               600.00:  Flow In Max 
 HFLO.                      No:  High Flow 
 HPRE.                      No:  High Pressure 
 HTEM.                      No:  High Temp 
 HYDO.m                   1.80:  Hydro Offset 
 IFIN.deg                67.01:  Inc, Final 
 IMAX.deg                67.49:  Inc Max 
 IMIN.deg                66.50:  Inc Min 
 IMND.m                5144.79:  Inc Min Depth 
 IMXD.m                5116.12:  Inc Max Depth 
 JARR.                      No:  Jarring 
 LETM.      17.55.56 20-May-20:  Log End Time 
 LOST.hr                     0:  Lost Rig Time 
 LSTM.      04.30.56 18-May-20:  Log Start Time 
 MDCL.ppm            193153.00:  Mud Chlorides 
 MDES.     Inversion Oil/Synthetic:  Mud Desc 
 DFD .sg                  1.40:  Mud Density 
 MDMN.sg                  1.40:  Dens Mud Min 
 MDMX.sg                  1.41:  Dens Mud Max 
 MOIL.                      68:  Run Mud Oil % 
 MOWR.                   68:32:  Run Mud OWR 
 MSND.                     0.2:  Run Mud Sand % 
 MSOL.                    18.8:  Run Mud Solids% 
 DFV .spqt               80.00:  Mud Viscosity 
 MWOD.in                  6.75:  MWD Tool OD 
 MWSI.                      No:  Serv Intrp, MWD 
 OTIM.hr                104.84:  Time Operating 
 PMAX.psia            10690.93:  Press Op, Max 
 PV  .cP                 26.00:  Mud PV 
 RUN .                     900:  Run Number 
 ROPA.m/hr                0.00:  ROP Avg 
 ROPN.m/hr                0.00:  ROP Min 
 ROPX.m/hr                0.00:  ROP Max 
 RPMA.rpm               140.00:  RPM Surface Avg 
 RPMN.rpm                70.00:  RPM Surface Min 
 RPMX.rpm               140.00:  RPM Surface Max 
 RRUN.                    0900:  Rig Run Number 
 RTIM.hr                 36.00:  Time Reaming 
 SAZI.deg               115.72:  Azm, Start 
 SDEP.m                5337.01:  Start Depth 
 SIDD.                      No:  Serv Intrp, DD 
 SINC.deg                66.92:  Inc, Start 
 SPPA.psig             4400.00:  SPP Avg 
 SPPN.psig             1135.00:  SPP Min 
 SPPX.psig             4581.00:  SPP Max 
 STIM.      04.30.56 18-May-20:  Start Time 
 SVCS.                     MWD:  Services 
 SVER.                    9.20:  Sperry Version 
 TDAT.m                5337.01:  Tot Depth Attmp 
 TDDF.                      No:  Trip for DD 
 TFF .                      No:  Trip for Fail 
 TQAA.f-kp               23.00:  Torque Abs Avg 
 TQAN.f-kp               18.00:  Torque Abs Min 
 TQAX.f-kp               25.00:  Torque Abs Max 
 TRRT.°/30m               0.74:  Turn Rotating 
 MRT .                    HCIM:  Maximum Recorded Temperature 
 TTMX.degC               76.47:  Max Tool Temp 
 WBMN.klb                 0.00:  WOB Min 
 WITN.             Anar Khalil:  Customer Rep 
 WITN.      Kamran Keberlinski:  Customer Rep 2 
 WOBA.klb                 0.00:  WOB Avg 
 WOBX.klb                 0.00:  WOB Max 
 YP  .lhf2               27.00:  Yield Point 
~Curve Information Block
#MNEM.UNIT                 API CODE     Curve Description
#---------               -----------    ---------------------------
 TIME.HHMMSS            00 000 000 000:  GT Time & Date
 GTDEPTH.m              00 000 000 000:  GT Depth
 GTPQH.psia             00 000 000 000:  GT HR Quartz Pressure
 GTTQ.degC              00 000 000 000:  GT Quartz Temperature
 GTTN.NONE              00 000 000 000:  GT Test Number
 GTET.sec               00 000 000 000:  GT Elapsed Test Time
 GTTVD.m                00 000 000 000:  GT True Vertical Depth
#Other Information
#
#WARRANTY: Halliburton will use its best efforts to furnish customers with 
#accurate information and interpretations that are part of, and incident to, the services 
#provided.  However, Halliburton cannot and does not warrant the accuracy 
#or correctness of such information and interpretations.  Under no circumstances should any 
#such information or interpretation be relied upon as the sole basis for any drilling, 
#completion, production, or financial decision or any procedure involving any risk to the 
#safety of any drilling venture, drilling rig or its crew or any other third party.  The 
#Customer has full responsibility for all drilling, completion and production operation.  
#Halliburton makes no representations or warranties, either expressed or 
#implied, including, but not limited to, the implied warranties of merchantability or fitness 
#for a particular purpose, with respect to the services rendered.  In no event will 
#Halliburton be liable for failure to obtain any particular results or for 
#any damages, including, but not limited to, indirect, special or consequential damages, 
#resulting from the use of any information or interpretation provided by Halliburton.
#
~A           TIME           GTDEPTH  GTPQH  GTTQ  GTTN  GTET   GTTVD  
# ...
   00:12:01.610.20-May-2020 5121.01 3572.67 67.86 6.00 322.08 2698.81
   00:12:01.810.20-May-2020 5121.01 3572.67 67.86 6.00 322.28 2698.81
   00:12:02.010.20-May-2020 5121.01 3572.67 67.86 6.00 322.48 2698.81
   00:12:02.210.20-May-2020 5121.01 3572.57 67.86 6.00 322.68 2698.81
   00:12:02.410.20-May-2020 5121.01 3572.66 67.86 6.00 322.88 2698.81
   00:12:02.610.20-May-2020 5121.01 3572.49 67.86 6.00 323.08 2698.81
   00:12:02.810.20-May-2020 5121.01 3572.49 67.86 6.00 323.28 2698.81
   00:12:03.010.20-May-2020 5121.01 3572.58 67.86 6.00 323.48 2698.81
   00:12:03.210.20-May-2020 5121.01 3572.65 67.86 6.00 323.68 2698.81
   00:12:03.410.20-May-2020 5121.01 3572.58 67.86 6.00 323.88 2698.81
   00:12:03.610.20-May-2020 5121.01 3572.47 67.86 6.00 324.08 2698.81
   00:12:03.811.20-May-2020 5121.01 3572.47 67.86 6.00 324.28 2698.81
   00:12:04.011.20-May-2020 5121.01 3572.60 67.86 6.00 324.48 2698.81
   00:12:04.211.20-May-2020 5121.01 3572.59 67.86 6.00 324.68 2698.81
   00:12:04.411.20-May-2020 5121.01 3572.63 67.86 6.00 324.88 2698.81
   00:12:04.611.20-May-2020 5121.01 3572.61 67.86 6.00 325.08 2698.81
   00:12:04.811.20-May-2020 5121.01 3572.61 67.86 6.00 325.28 2698.81
   00:12:05.011.20-May-2020 5121.01 3572.76 67.86 6.00 325.48 2698.81
   00:12:05.211.20-May-2020 5121.01 3572.59 67.86 6.00 325.68 2698.81
   00:12:05.411.20-May-2020 5121.01 3572.63 67.86 6.00 325.88 2698.81
   00:12:05.611.20-May-2020 5121.01 3572.59 67.86 6.00 326.08 2698.81
   00:12:05.811.20-May-2020 5121.01 3572.59 67.86 6.00 326.28 2698.81
   00:12:06.011.20-May-2020 5121.01 3572.60 67.86 6.00 326.48 2698.81
   00:12:06.211.20-May-2020 5121.01 3572.61 67.86 6.00 326.68 2698.81
   00:12:06.411.20-May-2020 5121.01 3572.61 67.86 6.00 326.88 2698.81
   00:12:06.611.20-May-2020 5121.01 3572.59 67.86 6.00 327.08 2698.81
   00:12:06.811.20-May-2020 5121.01 3572.59 67.86 6.00 327.28 2698.81
   00:12:07.011.20-May-2020 5121.01 3572.62 67.86 6.00 327.48 2698.81
   00:12:07.211.20-May-2020 5121.01 3572.59 67.86 6.00 327.68 2698.81
   00:12:07.411.20-May-2020 5121.01 3572.62 67.86 6.00 327.88 2698.81
   00:12:07.611.20-May-2020 5121.01 3572.60 67.86 6.00 328.08 2698.81
   00:12:07.812.20-May-2020 5121.01 3572.60 67.86 6.00 328.28 2698.81
   00:12:08.012.20-May-2020 5121.01 3572.64 67.86 6.00 328.48 2698.81
   00:12:08.212.20-May-2020 5121.01 3572.59 67.86 6.00 328.68 2698.81
   00:12:08.412.20-May-2020 5121.01 3572.64 67.86 6.00 328.88 2698.81
   00:12:08.612.20-May-2020 5121.01 3572.55 67.86 6.00 329.08 2698.81
   00:12:08.812.20-May-2020 5121.01 3572.55 67.86 6.00 329.28 2698.81
   00:12:09.012.20-May-2020 5121.01 3572.54 67.86 6.00 329.48 2698.81
   00:12:09.212.20-May-2020 5121.01 3572.61 67.86 6.00 329.68 2698.81
   00:12:09.412.20-May-2020 5121.01 3572.61 67.86 6.00 329.88 2698.81
   00:12:09.612.20-May-2020 5121.01 3572.63 67.86 6.00 330.08 2698.81
   00:12:09.812.20-May-2020 5121.01 3572.63 67.86 6.00 330.28 2698.81
   00:12:10.012.20-May-2020 5121.01 3572.66 67.86 6.00 330.48 2698.81
   00:12:10.212.20-May-2020 5121.01 3572.53 67.86 6.00 330.68 2698.81
   00:12:10.412.20-May-2020 5121.01 3572.63 67.86 6.00 330.88 2698.81
   00:12:10.612.20-May-2020 5121.01 3572.58 67.86 6.00 331.08 2698.81
   00:12:10.812.20-May-2020 5121.01 3572.58 67.86 6.00 331.28 2698.81
   00:12:11.012.20-May-2020 5121.01 3572.58 67.86 6.00 331.48 2698.81
   00:12:11.212.20-May-2020 5121.01 3572.58 67.86 6.00 331.68 2698.81
   00:12:11.412.20-May-2020 5121.01 3572.64 67.86 6.00 331.88 2698.81
   00:12:11.612.20-May-2020 5121.01 3572.62 67.86 6.00 332.08 2698.81
   00:12:11.813.20-May-2020 5121.01 3572.62 67.86 6.00 332.28 2698.81
   00:12:12.013.20-May-2020 5121.01 3572.60 67.86 6.00 332.48 2698.81
   00:12:12.213.20-May-2020 5121.01 3572.59 67.86 6.00 332.68 2698.81
   00:12:12.413.20-May-2020 5121.01 3572.59 67.86 6.00 332.88 2698.81
   00:12:12.613.20-May-2020 5121.01 3572.59 67.86 6.00 333.08 2698.81
   00:12:12.813.20-May-2020 5121.01 3572.59 67.86 6.00 333.28 2698.81
   00:12:13.013.20-May-2020 5121.01 3572.61 67.86 6.00 333.48 2698.81
   00:12:13.213.20-May-2020 5121.01 3572.59 67.86 6.00 333.68 2698.81
   00:12:13.413.20-May-2020 5121.01 3572.61 67.86 6.00 333.88 2698.81
   00:12:13.613.20-May-2020 5121.01 3572.59 67.86 6.00 334.08 2698.81
   00:12:13.813.20-May-2020 5121.01 3572.59 67.86 6.00 334.28 2698.81
   00:12:14.013.20-May-2020 5121.01 3572.61 67.86 6.00 334.48 2698.81
   00:12:14.213.20-May-2020 5121.01 3572.60 67.86 6.00 334.68 2698.81
   00:12:14.413.20-May-2020 5121.01 3572.62 67.86 6.00 334.88 2698.81
   00:12:14.613.20-May-2020 5121.01 3572.59 67.86 6.00 335.08 2698.81
   00:12:14.813.20-May-2020 5121.01 3572.59 67.86 6.00 335.28 2698.81
   00:12:15.013.20-May-2020 5121.01 3572.61 67.86 6.00 335.48 2698.81
   00:12:15.213.20-May-2020 5121.01 3572.59 67.86 6.00 335.68 2698.81
   00:12:15.413.20-May-2020 5121.01 3572.49 67.86 6.00 335.88 2698.81
   00:12:15.613.20-May-2020 5121.01 3572.75 67.86 6.00 336.08 2698.81
   00:12:15.814.20-May-2020 5121.01 3572.75 67.86 6.00 336.28 2698.81
   00:12:16.014.20-May-2020 5121.01 3572.60 67.86 6.00 336.48 2698.81
   00:12:16.214.20-May-2020 5121.01 3572.60 67.86 6.00 336.68 2698.81
   00:12:16.414.20-May-2020 5121.01 3572.67 67.86 6.00 336.88 2698.81
   00:12:16.614.20-May-2020 5121.01 3572.56 67.86 6.00 337.08 2698.81
   00:12:16.814.20-May-2020 5121.01 3572.56 67.86 6.00 337.28 2698.81
   00:12:17.014.20-May-2020 5121.01 3572.57 67.86 6.00 337.48 2698.81
   00:12:17.214.20-May-2020 5121.01 3572.62 67.86 6.00 337.68 2698.81
   00:12:17.414.20-May-2020 5121.01 3572.60 67.86 6.00 337.88 2698.81
   00:12:17.614.20-May-2020 5121.01 3572.60 67.86 6.00 338.08 2698.81
   00:12:17.814.20-May-2020 5121.01 3572.60 67.86 6.00 338.28 2698.81
   00:12:18.014.20-May-2020 5121.01 3572.62 67.86 6.00 338.48 2698.81
   00:12:18.214.20-May-2020 5121.01 3572.55 67.86 6.00 338.68 2698.81
   00:12:18.414.20-May-2020 5121.01 3572.64 67.86 6.00 338.88 2698.81
   00:12:18.614.20-May-2020 5121.01 3572.57 67.86 6.00 339.08 2698.81
   00:12:18.814.20-May-2020 5121.01 3572.57 67.86 6.00 339.28 2698.81
   00:12:19.014.20-May-2020 5121.01 3572.53 67.86 6.00 339.48 2698.81
   00:12:19.214.20-May-2020 5121.01 3572.64 67.86 6.00 339.68 2698.81
   00:12:19.414.20-May-2020 5121.01 3572.60 67.86 6.00 339.88 2698.81
   00:12:19.614.20-May-2020 5121.01 3572.63 67.86 6.00 340.08 2698.81
   00:12:19.815.20-May-2020 5121.01 3572.63 67.86 6.00 340.28 2698.81
   00:12:20.015.20-May-2020 5121.01 3572.63 67.86 6.00 340.48 2698.81
   00:12:20.215.20-May-2020 5121.01 3572.51 67.86 6.00 340.68 2698.81
   00:12:20.415.20-May-2020 5121.01 3572.68 67.86 6.00 340.88 2698.81
   00:12:20.615.20-May-2020 5121.01 3572.56 67.86 6.00 341.09 2698.81
   00:12:20.815.20-May-2020 5121.01 3572.56 67.86 6.00 341.29 2698.81
   00:12:21.015.20-May-2020 5121.01 3572.59 67.86 6.00 341.49 2698.81
   00:12:21.215.20-May-2020 5121.01 3572.60 67.86 6.00 341.69 2698.81
   00:12:21.415.20-May-2020 5121.01 3572.61 67.86 6.00 341.89 2698.81
   00:12:21.615.20-May-2020 5121.01 3572.58 67.86 6.00 342.09 2698.81
   00:12:21.815.20-May-2020 5121.01 3572.58 67.86 6.00 342.29 2698.81
   00:12:22.015.20-May-2020 5121.01 3572.61 67.86 6.00 342.49 2698.81
   00:12:22.215.20-May-2020 5121.01 3572.59 67.86 6.00 342.69 2698.81
   00:12:22.415.20-May-2020 5121.01 3572.62 67.86 6.00 342.89 2698.81
   00:12:22.615.20-May-2020 5121.01 3572.59 67.86 6.00 343.09 2698.81
   00:12:22.815.20-May-2020 5121.01 3572.59 67.86 6.00 343.29 2698.81
   00:12:23.015.20-May-2020 5121.01 3572.58 67.86 6.00 343.49 2698.81
   00:12:23.215.20-May-2020 5121.01 3572.60 67.86 6.00 343.69 2698.81
   00:12:23.415.20-May-2020 5121.01 3572.65 67.86 6.00 343.89 2698.81
   00:12:23.615.20-May-2020 5121.01 3572.59 67.86 6.00 344.09 2698.81
   00:12:23.816.20-May-2020 5121.01 3572.59 67.86 6.00 344.29 2698.81
   00:12:24.016.20-May-2020 5121.01 3572.76 67.86 6.00 344.49 2698.81
   00:12:24.216.20-May-2020 5121.01 3572.59 67.86 6.00 344.69 2698.81
   00:12:24.416.20-May-2020 5121.01 3572.62 67.86 6.00 344.89 2698.81
