~Version Information
 VERS.                  2.0:   CWLS log ASCII Standard -VERSION 2.0
 WRAP.                   NO:   One line per depth step
~Well Information Block
#MNEM.UNIT     VALUE/NAME     DESCRIPTION
#---------     -----------    ---------------------------
 STRT.S             00:06:39 20-May-20: START TIME 00:06:39 20-May-20
 STOP.S             00:17:12 20-May-20: STOP TIME  00:17:12 20-May-20
 STEP.S                   0.00: STEP TIME
 NULL.                 -999.25: NULL VALUE
 MDS .        Operator Entered:  MAG DATA SOURCE
 PDAT.          Mean Sea Level:  PERMANENT DATUM
 UNIT.                     N/A:  LOGGING EQUIPMENT ID
 DCON.         Sperry Drilling:  DIRECTNL CONTR
 DOE .                     N/A:  DOE NUMBER
 RIG .              East Azeri:  RIG NAME
 JOBN.        AZ-XX-0905856059:  JOB TICKET NUMB
 WELL.                     D36:  WELL NAME
 MWDS.                    Baku:  MWD SHOP
 SRVC.     Turan Drilling & Engineering:  CONTRACTOR
 FLD .                     ACG:  FIELD NAME
 CTRY.              Azerbaijan:  COUNTRY NAME
 PROV.                    Baku:  PROVINCE
 STAT.                    Baku:  STATE NAME
 REGN.                   EESSA:  REGION
 BASE.              Azerbaijan:  LOGGING EQUIPMENT BASE LOCATION
 UWI .                     N/A:  UNIQUE WELL IDENTIFIER
 API .                     N/A:  API NUMBER
 COMP.     BP Exploration (Caspian Sea) Ltd.:  COMPANY
 WTYP.                Deviated:  WELL TYPE
 SON .        AZ-XX-0905856059:  JOB NUMBER
 FTOP.          Formation Tops:  FORM TOPS DESC
 ILTD.               Lithology:  INTERP LTH DESC
 SVYD.                  Survey:  SURVEY DESC
 DMOD.             Drill Model:  DRILL MOD DESC
 HPTY.       Minimum Curvature:  HOLE POS TYPE
 NREF.                    Grid:  NORTH REFERENCE
 SPUD.               25-Feb-20:  SPUD DATE
 DATE.      08.55.28 01-May-20:  END TIME
 STIM.      08.55.28 25-Feb-20:  START TIME
 DMF .             Drill Floor:  DRILL MEAS FROM
 DFST.                        :  DIST FSL TEXT
 DFWT.                        :  DIST FWL TEXT
 CNTY.                        :  COUNTY
 LOC .                        :  LOCATION
 LMF .             Drill Floor:  LOG MEASURED FROM
 VSNS.m                   6.09:  VERT SEC N/S
 VSEW.m                 -10.79:  VERT SEC E/W
 AGAP.m                  43.60:  AIR GAP
 DEP .m                 388.24:  DEPTH
 APD .m                  43.60:  DEPTH ABOVE PD
 WDMS.m                 151.80:  WD ELEV
 EGL .m                   0.00:  GROUND ELEVATION
 EPD .m                   0.00:  ELEVATION
 AZTC.deg                 6.12:  AZM TOTAL CORR
 GRDC.deg                 0.30:  GRID CORRECTION
 MDEC.deg                 6.42:  MAGNETIC DECL
 MDIP.deg                59.42:  MAGNETIC DIP
 MFLD.nT              50256.00:  MAGNETIC FIELD
 GVFD.g                   1.00:  GRAVITY FIELD
 VSDR.deg               159.57:  VERT SEC DIRECT
 TDD .m                5000.01:  TOTAL DEPTH (DRILLER)
 SDEP.m                 397.00:  START DEPTH
 DFSL.m                   0.00:  DISTANCE FSL
 DFWL.m                   0.00:  DISTANCE FWL
 UTMY.m             4431880.20:  UTM Y
 UTMX.m              538763.98:  UTM X
 WHEW.m                 -10.79:  WELL HEAD E/W
 WHNS.m                   6.09:  WELL HEAD N/S
 LONG.deg                51.45:  LONGITUDE
 LATI.deg                40.02:  LATITUDE
 TVDS.m                  43.60:  TVDSS CORRECTN
 EKB .m                  43.60:  KB ELEVATION
 EDF .m                  43.60:  DF ELEVATION
 MAGU.                 1847640:  MAGUTM CHECKSUM
 VSC .                       0:  VS TO CLOSURE
~Parameter Information Block
#MNEM.UNIT       Value        Description
#---------     -----------    ---------------------------
 AV  .mps                 1.30:  Ann Velocity 
 AVMX.mps                 1.90:  Max Ann Veloc 
 AZIF.deg               115.68:  Azm, Final 
 BHAT.                   Other:  BHA Type 
 BROT.°/30m               0.74:  Build Rotating 
 BS  .in                  8.50:  Bit Size 
 BTPL.psig              430.00:  Bit Press Loss 
 CABU.                      No:  Customer Abuse 
 COMM.                     \õd:  Run Comments 1 
 TCS .hr                 51.31:  Time Ciculation Ended 
 CV  .mps                 2.52:  Crit Velocity 
 CVMX.mps                 2.62:  Max Crit Veloc 
 DD1 .          Teymur Aghayev:  Direct Drillr 1 
 DDSV.                   Other:  DD Service 
 DEFF.%                 100.00:  % Det Eff 
 DLRX.°/30m               1.62:  Dogleg Rot Max 
 DLSO.°/30m               0.74:  Dogleg Oriented 
 DLSX.°/30m               1.62:  Dogleg Str Max 
 DRET.      04.30.56 18-May-20:  Drill End Time 
 DRST.      04.30.56 18-May-20:  Drill Start Tim 
 DTIM.hr                  0.00:  Time Drilling 
 EDEP.m                5337.01:  End Depth 
 ENG1.      Artemiy Matviyanov:  Engineer 1 
 ENG2.      Bakhtiyar Jabbarli:  Engineer 2 
 ENG3.           Emil Huseynov:  Engineer 3 
 ETIM.      18.40.00 22-May-20:  End Time 
 FLOI.gpm               550.00:  Flow In 
 FLON.gpm               350.00:  Flow In Min 
 FLOS.cptm                0.00:  Fluid Loss 
 FLOX.gpm               600.00:  Flow In Max 
 HFLO.                      No:  High Flow 
 HPRE.                      No:  High Pressure 
 HTEM.                      No:  High Temp 
 HYDO.m                   1.80:  Hydro Offset 
 IFIN.deg                67.01:  Inc, Final 
 IMAX.deg                67.49:  Inc Max 
 IMIN.deg                66.50:  Inc Min 
 IMND.m                5144.79:  Inc Min Depth 
 IMXD.m                5116.12:  Inc Max Depth 
 JARR.                      No:  Jarring 
 LETM.      17.55.56 20-May-20:  Log End Time 
 LOST.hr                     0:  Lost Rig Time 
 LSTM.      04.30.56 18-May-20:  Log Start Time 
 MDCL.ppm            193153.00:  Mud Chlorides 
 MDES.     Inversion Oil/Synthetic:  Mud Desc 
 DFD .sg                  1.40:  Mud Density 
 MDMN.sg                  1.40:  Dens Mud Min 
 MDMX.sg                  1.41:  Dens Mud Max 
 MOIL.                      68:  Run Mud Oil % 
 MOWR.                   68:32:  Run Mud OWR 
 MSND.                     0.2:  Run Mud Sand % 
 MSOL.                    18.8:  Run Mud Solids% 
 DFV .spqt               80.00:  Mud Viscosity 
 MWOD.in                  6.75:  MWD Tool OD 
 MWSI.                      No:  Serv Intrp, MWD 
 OTIM.hr                104.84:  Time Operating 
 PMAX.psia            10690.93:  Press Op, Max 
 PV  .cP                 26.00:  Mud PV 
 RUN .                     900:  Run Number 
 ROPA.m/hr                0.00:  ROP Avg 
 ROPN.m/hr                0.00:  ROP Min 
 ROPX.m/hr                0.00:  ROP Max 
 RPMA.rpm               140.00:  RPM Surface Avg 
 RPMN.rpm                70.00:  RPM Surface Min 
 RPMX.rpm               140.00:  RPM Surface Max 
 RRUN.                    0900:  Rig Run Number 
 RTIM.hr                 36.00:  Time Reaming 
 SAZI.deg               115.72:  Azm, Start 
 SDEP.m                5337.01:  Start Depth 
 SIDD.                      No:  Serv Intrp, DD 
 SINC.deg                66.92:  Inc, Start 
 SPPA.psig             4400.00:  SPP Avg 
 SPPN.psig             1135.00:  SPP Min 
 SPPX.psig             4581.00:  SPP Max 
 STIM.      04.30.56 18-May-20:  Start Time 
 SVCS.                     MWD:  Services 
 SVER.                    9.20:  Sperry Version 
 TDAT.m                5337.01:  Tot Depth Attmp 
 TDDF.                      No:  Trip for DD 
 TFF .                      No:  Trip for Fail 
 TQAA.f-kp               23.00:  Torque Abs Avg 
 TQAN.f-kp               18.00:  Torque Abs Min 
 TQAX.f-kp               25.00:  Torque Abs Max 
 TRRT.°/30m               0.74:  Turn Rotating 
 MRT .                    HCIM:  Maximum Recorded Temperature 
 TTMX.degC               76.47:  Max Tool Temp 
 WBMN.klb                 0.00:  WOB Min 
 WITN.             Anar Khalil:  Customer Rep 
 WITN.      Kamran Keberlinski:  Customer Rep 2 
 WOBA.klb                 0.00:  WOB Avg 
 WOBX.klb                 0.00:  WOB Max 
 YP  .lhf2               27.00:  Yield Point 
~Curve Information Block
#MNEM.UNIT                 API CODE     Curve Description
#---------               -----------    ---------------------------
 TIME.HHMMSS            00 000 000 000:  GT Time & Date
 GTDEPTH.m              00 000 000 000:  GT Depth
 GTPQH.psia             00 000 000 000:  GT HR Quartz Pressure
 GTTQ.degC              00 000 000 000:  GT Quartz Temperature
 GTTN.NONE              00 000 000 000:  GT Test Number
 GTET.sec               00 000 000 000:  GT Elapsed Test Time
 GTTVD.m                00 000 000 000:  GT True Vertical Depth
#Other Information
#
#WARRANTY: Halliburton will use its best efforts to furnish customers with 
#accurate information and interpretations that are part of, and incident to, the services 
#provided.  However, Halliburton cannot and does not warrant the accuracy 
#or correctness of such information and interpretations.  Under no circumstances should any 
#such information or interpretation be relied upon as the sole basis for any drilling, 
#completion, production, or financial decision or any procedure involving any risk to the 
#safety of any drilling venture, drilling rig or its crew or any other third party.  The 
#Customer has full responsibility for all drilling, completion and production operation.  
#Halliburton makes no representations or warranties, either expressed or 
#implied, including, but not limited to, the implied warranties of merchantability or fitness 
#for a particular purpose, with respect to the services rendered.  In no event will 
#Halliburton be liable for failure to obtain any particular results or for 
#any damages, including, but not limited to, indirect, special or consequential damages, 
#resulting from the use of any information or interpretation provided by Halliburton.
#
~A           TIME           GTDEPTH  GTPQH  GTTQ  GTTN  GTET   GTTVD  
# ...
   00:14:19.644.20-May-2020 5121.01 3572.55 67.87 6.00 460.11 2698.81
   00:14:19.844.20-May-2020 5121.01 3572.55 67.87 6.00 460.31 2698.81
   00:14:20.044.20-May-2020 5121.01 3572.54 67.87 6.00 460.51 2698.81
   00:14:20.245.20-May-2020 5121.01 3572.54 67.87 6.00 460.71 2698.81
   00:14:20.445.20-May-2020 5121.01 3572.54 67.87 6.00 460.91 2698.81
   00:14:20.645.20-May-2020 5121.01 3572.54 67.87 6.00 461.11 2698.81
   00:14:20.845.20-May-2020 5121.01 3572.54 67.87 6.00 461.31 2698.81
   00:14:21.045.20-May-2020 5121.01 3572.54 67.87 6.00 461.52 2698.81
   00:14:21.245.20-May-2020 5121.01 3572.56 67.87 6.00 461.72 2698.81
   00:14:21.445.20-May-2020 5121.01 3572.54 67.87 6.00 461.92 2698.81
   00:14:21.645.20-May-2020 5121.01 3572.53 67.87 6.00 462.12 2698.81
   00:14:21.845.20-May-2020 5121.01 3572.53 67.87 6.00 462.32 2698.81
   00:14:22.045.20-May-2020 5121.01 3572.51 67.87 6.00 462.52 2698.81
   00:14:22.245.20-May-2020 5121.01 3572.56 67.87 6.00 462.72 2698.81
   00:14:22.445.20-May-2020 5121.01 3572.51 67.87 6.00 462.92 2698.81
   00:14:22.645.20-May-2020 5121.01 3572.60 67.87 6.00 463.12 2698.81
   00:14:22.845.20-May-2020 5121.01 3572.60 67.87 6.00 463.32 2698.81
   00:14:23.045.20-May-2020 5121.01 3572.54 67.87 6.00 463.52 2698.81
   00:14:23.245.20-May-2020 5121.01 3572.56 67.87 6.00 463.72 2698.81
   00:14:23.445.20-May-2020 5121.01 3572.61 67.87 6.00 463.92 2698.81
   00:14:23.645.20-May-2020 5121.01 3572.51 67.87 6.00 464.12 2698.81
   00:14:23.845.20-May-2020 5121.01 3572.51 67.87 6.00 464.32 2698.81
   00:14:24.045.20-May-2020 5121.01 3572.46 67.87 6.00 464.52 2698.81
   00:14:24.246.20-May-2020 5121.01 3572.59 67.87 6.00 464.72 2698.81
   00:14:24.446.20-May-2020 5121.01 3572.55 67.87 6.00 464.92 2698.81
   00:14:24.646.20-May-2020 5121.01 3572.56 67.87 6.00 465.12 2698.81
   00:14:24.846.20-May-2020 5121.01 3572.56 67.87 6.00 465.32 2698.81
   00:14:25.046.20-May-2020 5121.01 3572.52 67.87 6.00 465.52 2698.81
   00:14:25.246.20-May-2020 5121.01 3572.55 67.87 6.00 465.72 2698.81
   00:14:25.446.20-May-2020 5121.01 3572.59 67.87 6.00 465.92 2698.81
   00:14:25.646.20-May-2020 5121.01 3572.55 67.87 6.00 466.12 2698.81
   00:14:25.846.20-May-2020 5121.01 3572.55 67.87 6.00 466.32 2698.81
   00:14:26.046.20-May-2020 5121.01 3572.54 67.87 6.00 466.52 2698.81
   00:14:26.246.20-May-2020 5121.01 3572.54 67.87 6.00 466.72 2698.81
   00:14:26.446.20-May-2020 5121.01 3572.55 67.87 6.00 466.92 2698.81
   00:14:26.646.20-May-2020 5121.01 3572.56 67.87 6.00 467.12 2698.81
   00:14:26.846.20-May-2020 5121.01 3572.56 67.87 6.00 467.32 2698.81
   00:14:27.046.20-May-2020 5121.01 3572.52 67.87 6.00 467.52 2698.81
   00:14:27.246.20-May-2020 5121.01 3572.55 67.87 6.00 467.72 2698.81
   00:14:27.446.20-May-2020 5121.01 3572.56 67.87 6.00 467.92 2698.81
   00:14:27.646.20-May-2020 5121.01 3572.54 67.87 6.00 468.12 2698.81
   00:14:27.846.20-May-2020 5121.01 3572.54 67.87 6.00 468.32 2698.81
   00:14:28.046.20-May-2020 5121.01 3572.53 67.87 6.00 468.52 2698.81
   00:14:28.247.20-May-2020 5121.01 3572.56 67.87 6.00 468.72 2698.81
   00:14:28.447.20-May-2020 5121.01 3572.55 67.87 6.00 468.92 2698.81
   00:14:28.647.20-May-2020 5121.01 3572.54 67.87 6.00 469.12 2698.81
   00:14:28.847.20-May-2020 5121.01 3572.54 67.87 6.00 469.32 2698.81
   00:14:29.047.20-May-2020 5121.01 3572.55 67.87 6.00 469.52 2698.81
   00:14:29.247.20-May-2020 5121.01 3572.44 67.87 6.00 469.72 2698.81
   00:14:29.447.20-May-2020 5121.01 3572.69 67.87 6.00 469.92 2698.81
   00:14:29.647.20-May-2020 5121.01 3572.54 67.87 6.00 470.12 2698.81
   00:14:29.847.20-May-2020 5121.01 3572.54 67.87 6.00 470.32 2698.81
   00:14:30.047.20-May-2020 5121.01 3572.53 67.87 6.00 470.52 2698.81
   00:14:30.247.20-May-2020 5121.01 3572.60 67.87 6.00 470.72 2698.81
   00:14:30.447.20-May-2020 5121.01 3572.53 67.87 6.00 470.92 2698.81
   00:14:30.647.20-May-2020 5121.01 3572.56 67.87 6.00 471.12 2698.81
   00:14:30.847.20-May-2020 5121.01 3572.56 67.87 6.00 471.32 2698.81
   00:14:31.047.20-May-2020 5121.01 3572.57 67.87 6.00 471.52 2698.81
   00:14:31.247.20-May-2020 5121.01 3572.55 67.87 6.00 471.72 2698.81
   00:14:31.447.20-May-2020 5121.01 3572.58 67.87 6.00 471.92 2698.81
   00:14:31.647.20-May-2020 5121.01 3572.53 67.87 6.00 472.12 2698.81
   00:14:31.847.20-May-2020 5121.01 3572.53 67.87 6.00 472.32 2698.81
   00:14:32.047.20-May-2020 5121.01 3572.50 67.87 6.00 472.52 2698.81
   00:14:32.248.20-May-2020 5121.01 3572.60 67.87 6.00 472.72 2698.81
   00:14:32.448.20-May-2020 5121.01 3572.52 67.87 6.00 472.92 2698.81
   00:14:32.648.20-May-2020 5121.01 3572.57 67.87 6.00 473.12 2698.81
   00:14:32.848.20-May-2020 5121.01 3572.57 67.87 6.00 473.32 2698.81
   00:14:33.048.20-May-2020 5121.01 3572.60 67.87 6.00 473.52 2698.81
   00:14:33.248.20-May-2020 5121.01 3572.55 67.87 6.00 473.72 2698.81
   00:14:33.448.20-May-2020 5121.01 3572.61 67.87 6.00 473.92 2698.81
   00:14:33.648.20-May-2020 5121.01 3572.53 67.87 6.00 474.12 2698.81
   00:14:33.848.20-May-2020 5121.01 3572.53 67.87 6.00 474.32 2698.81
   00:14:34.048.20-May-2020 5121.01 3572.45 67.87 6.00 474.52 2698.81
   00:14:34.248.20-May-2020 5121.01 3572.64 67.87 6.00 474.72 2698.81
   00:14:34.448.20-May-2020 5121.01 3572.54 67.87 6.00 474.92 2698.81
   00:14:34.648.20-May-2020 5121.01 3572.61 67.87 6.00 475.12 2698.81
   00:14:34.848.20-May-2020 5121.01 3572.61 67.87 6.00 475.32 2698.81
   00:14:35.048.20-May-2020 5121.01 3572.55 67.87 6.00 475.52 2698.81
   00:14:35.248.20-May-2020 5121.01 3572.57 67.87 6.00 475.72 2698.81
   00:14:35.448.20-May-2020 5121.01 3572.55 67.87 6.00 475.92 2698.81
   00:14:35.648.20-May-2020 5121.01 3572.55 67.87 6.00 476.12 2698.81
   00:14:35.848.20-May-2020 5121.01 3572.55 67.87 6.00 476.32 2698.81
   00:14:36.048.20-May-2020 5121.01 3572.53 67.87 6.00 476.52 2698.81
   00:14:36.249.20-May-2020 5121.01 3572.56 67.87 6.00 476.72 2698.81
   00:14:36.449.20-May-2020 5121.01 3572.56 67.87 6.00 476.92 2698.81
   00:14:36.649.20-May-2020 5121.01 3572.55 67.87 6.00 477.12 2698.81
   00:14:36.849.20-May-2020 5121.01 3572.55 67.87 6.00 477.32 2698.81
   00:14:37.049.20-May-2020 5121.01 3572.55 67.87 6.00 477.52 2698.81
   00:14:37.249.20-May-2020 5121.01 3572.61 67.87 6.00 477.72 2698.81
   00:14:37.449.20-May-2020 5121.01 3572.55 67.87 6.00 477.92 2698.81
   00:14:37.649.20-May-2020 5121.01 3572.41 67.87 6.00 478.12 2698.81
   00:14:37.849.20-May-2020 5121.01 3572.41 67.87 6.00 478.32 2698.81
   00:14:38.049.20-May-2020 5121.01 3572.54 67.87 6.00 478.52 2698.81
   00:14:38.249.20-May-2020 5121.01 3572.57 67.87 6.00 478.72 2698.81
   00:14:38.449.20-May-2020 5121.01 3572.55 67.87 6.00 478.92 2698.81
   00:14:38.649.20-May-2020 5121.01 3572.57 67.87 6.00 479.12 2698.81
   00:14:38.849.20-May-2020 5121.01 3572.57 67.87 6.00 479.32 2698.81
   00:14:39.049.20-May-2020 5121.01 3572.67 67.87 6.00 479.52 2698.81
   00:14:39.249.20-May-2020 5121.01 3572.56 67.87 6.00 479.72 2698.81
   00:14:39.449.20-May-2020 5121.01 3572.55 67.87 6.00 479.92 2698.81
   00:14:39.649.20-May-2020 5121.01 3572.55 67.87 6.00 480.12 2698.81
   00:14:39.849.20-May-2020 5121.01 3572.55 67.87 6.00 480.32 2698.81
   00:14:40.049.20-May-2020 5121.01 3572.52 67.87 6.00 480.52 2698.81
   00:14:40.250.20-May-2020 5121.01 3572.62 67.87 6.00 480.72 2698.81
   00:14:40.450.20-May-2020 5121.01 3572.51 67.87 6.00 480.92 2698.81
   00:14:40.650.20-May-2020 5121.01 3572.56 67.87 6.00 481.12 2698.81
   00:14:40.850.20-May-2020 5121.01 3572.56 67.87 6.00 481.32 2698.81
   00:14:41.050.20-May-2020 5121.01 3572.56 67.87 6.00 481.52 2698.81
   00:14:41.250.20-May-2020 5121.01 3572.54 67.87 6.00 481.72 2698.81
   00:14:41.450.20-May-2020 5121.01 3572.61 67.87 6.00 481.92 2698.81
   00:14:41.650.20-May-2020 5121.01 3572.47 67.87 6.00 482.12 2698.81
   00:14:41.850.20-May-2020 5121.01 3572.47 67.87 6.00 482.32 2698.81
   00:14:42.050.20-May-2020 5121.01 3572.54 67.87 6.00 482.52 2698.81
   00:14:42.250.20-May-2020 5121.01 3572.61 67.87 6.00 482.72 2698.81
   00:14:42.450.20-May-2020 5121.01 3572.53 67.87 6.00 482.92 2698.81
