~Version Information
 VERS.                  2.0:   CWLS log ASCII Standard -VERSION 2.0
 WRAP.                   NO:   One line per depth step
~Well Information Block
#MNEM.UNIT     VALUE/NAME     DESCRIPTION
#---------     -----------    ---------------------------
 STRT.S             15:16:23 19-May-20: START TIME 15:16:23 19-May-20
 STOP.S             15:23:31 19-May-20: STOP TIME  15:23:31 19-May-20
 STEP.S                   0.00: STEP TIME
 NULL.                 -999.25: NULL VALUE
 MDS .        Operator Entered:  MAG DATA SOURCE
 PDAT.          Mean Sea Level:  PERMANENT DATUM
 UNIT.                     N/A:  LOGGING EQUIPMENT ID
 DCON.         Sperry Drilling:  DIRECTNL CONTR
 DOE .                     N/A:  DOE NUMBER
 RIG .              East Azeri:  RIG NAME
 JOBN.        AZ-XX-0905856059:  JOB TICKET NUMB
 WELL.                     D36:  WELL NAME
 MWDS.                    Baku:  MWD SHOP
 SRVC.     Turan Drilling & Engineering:  CONTRACTOR
 FLD .                     ACG:  FIELD NAME
 CTRY.              Azerbaijan:  COUNTRY NAME
 PROV.                    Baku:  PROVINCE
 STAT.                    Baku:  STATE NAME
 REGN.                   EESSA:  REGION
 BASE.              Azerbaijan:  LOGGING EQUIPMENT BASE LOCATION
 UWI .                     N/A:  UNIQUE WELL IDENTIFIER
 API .                     N/A:  API NUMBER
 COMP.     BP Exploration (Caspian Sea) Ltd.:  COMPANY
 WTYP.                Deviated:  WELL TYPE
 SON .        AZ-XX-0905856059:  JOB NUMBER
 FTOP.          Formation Tops:  FORM TOPS DESC
 ILTD.               Lithology:  INTERP LTH DESC
 SVYD.                  Survey:  SURVEY DESC
 DMOD.             Drill Model:  DRILL MOD DESC
 HPTY.       Minimum Curvature:  HOLE POS TYPE
 NREF.                    Grid:  NORTH REFERENCE
 SPUD.               25-Feb-20:  SPUD DATE
 DATE.      08.55.28 01-May-20:  END TIME
 STIM.      08.55.28 25-Feb-20:  START TIME
 DMF .             Drill Floor:  DRILL MEAS FROM
 DFST.                        :  DIST FSL TEXT
 DFWT.                        :  DIST FWL TEXT
 CNTY.                        :  COUNTY
 LOC .                        :  LOCATION
 LMF .             Drill Floor:  LOG MEASURED FROM
 VSNS.m                   6.09:  VERT SEC N/S
 VSEW.m                 -10.79:  VERT SEC E/W
 AGAP.m                  43.60:  AIR GAP
 DEP .m                 388.24:  DEPTH
 APD .m                  43.60:  DEPTH ABOVE PD
 WDMS.m                 151.80:  WD ELEV
 EGL .m                   0.00:  GROUND ELEVATION
 EPD .m                   0.00:  ELEVATION
 AZTC.deg                 6.12:  AZM TOTAL CORR
 GRDC.deg                 0.30:  GRID CORRECTION
 MDEC.deg                 6.42:  MAGNETIC DECL
 MDIP.deg                59.42:  MAGNETIC DIP
 MFLD.nT              50256.00:  MAGNETIC FIELD
 GVFD.g                   1.00:  GRAVITY FIELD
 VSDR.deg               159.57:  VERT SEC DIRECT
 TDD .m                5000.01:  TOTAL DEPTH (DRILLER)
 SDEP.m                 397.00:  START DEPTH
 DFSL.m                   0.00:  DISTANCE FSL
 DFWL.m                   0.00:  DISTANCE FWL
 UTMY.m             4431880.20:  UTM Y
 UTMX.m              538763.98:  UTM X
 WHEW.m                 -10.79:  WELL HEAD E/W
 WHNS.m                   6.09:  WELL HEAD N/S
 LONG.deg                51.45:  LONGITUDE
 LATI.deg                40.02:  LATITUDE
 TVDS.m                  43.60:  TVDSS CORRECTN
 EKB .m                  43.60:  KB ELEVATION
 EDF .m                  43.60:  DF ELEVATION
 MAGU.                 1847640:  MAGUTM CHECKSUM
 VSC .                       0:  VS TO CLOSURE
~Parameter Information Block
#MNEM.UNIT       Value        Description
#---------     -----------    ---------------------------
 AV  .mps                 1.30:  Ann Velocity 
 AVMX.mps                 1.90:  Max Ann Veloc 
 AZIF.deg               115.68:  Azm, Final 
 BHAT.                   Other:  BHA Type 
 BROT.°/30m               0.74:  Build Rotating 
 BS  .in                  8.50:  Bit Size 
 BTPL.psig              430.00:  Bit Press Loss 
 CABU.                      No:  Customer Abuse 
 TCS .hr                 51.31:  Time Ciculation Ended 
 CV  .mps                 2.52:  Crit Velocity 
 CVMX.mps                 2.62:  Max Crit Veloc 
 DD1 .          Teymur Aghayev:  Direct Drillr 1 
 DDSV.                   Other:  DD Service 
 DEFF.%                 100.00:  % Det Eff 
 DLRX.°/30m               1.62:  Dogleg Rot Max 
 DLSO.°/30m               0.74:  Dogleg Oriented 
 DLSX.°/30m               1.62:  Dogleg Str Max 
 DRET.      04.30.56 18-May-20:  Drill End Time 
 DRST.      04.30.56 18-May-20:  Drill Start Tim 
 DTIM.hr                  0.00:  Time Drilling 
 EDEP.m                5337.01:  End Depth 
 ENG1.      Artemiy Matviyanov:  Engineer 1 
 ENG2.      Bakhtiyar Jabbarli:  Engineer 2 
 ENG3.           Emil Huseynov:  Engineer 3 
 ETIM.      18.40.00 22-May-20:  End Time 
 FLOI.gpm               550.00:  Flow In 
 FLON.gpm               350.00:  Flow In Min 
 FLOS.cptm                0.00:  Fluid Loss 
 FLOX.gpm               600.00:  Flow In Max 
 HFLO.                      No:  High Flow 
 HPRE.                      No:  High Pressure 
 HTEM.                      No:  High Temp 
 HYDO.m                   1.80:  Hydro Offset 
 IFIN.deg                67.01:  Inc, Final 
 IMAX.deg                67.49:  Inc Max 
 IMIN.deg                66.50:  Inc Min 
 IMND.m                5144.79:  Inc Min Depth 
 IMXD.m                5116.12:  Inc Max Depth 
 JARR.                      No:  Jarring 
 LETM.      17.55.56 20-May-20:  Log End Time 
 LOST.hr                     0:  Lost Rig Time 
 LSTM.      04.30.56 18-May-20:  Log Start Time 
 MDCL.ppm            193153.00:  Mud Chlorides 
 MDES.     Inversion Oil/Synthetic:  Mud Desc 
 DFD .sg                  1.40:  Mud Density 
 MDMN.sg                  1.40:  Dens Mud Min 
 MDMX.sg                  1.41:  Dens Mud Max 
 MOIL.                      68:  Run Mud Oil % 
 MOWR.                   68:32:  Run Mud OWR 
 MSND.                     0.2:  Run Mud Sand % 
 MSOL.                    18.8:  Run Mud Solids% 
 DFV .spqt               80.00:  Mud Viscosity 
 MWOD.in                  6.75:  MWD Tool OD 
 MWSI.                      No:  Serv Intrp, MWD 
 OTIM.hr                104.84:  Time Operating 
 PMAX.psia            10690.93:  Press Op, Max 
 PV  .cP                 26.00:  Mud PV 
 RUN .                     900:  Run Number 
 ROPA.m/hr                0.00:  ROP Avg 
 ROPN.m/hr                0.00:  ROP Min 
 ROPX.m/hr                0.00:  ROP Max 
 RPMA.rpm               140.00:  RPM Surface Avg 
 RPMN.rpm                70.00:  RPM Surface Min 
 RPMX.rpm               140.00:  RPM Surface Max 
 RRUN.                    0900:  Rig Run Number 
 RTIM.hr                 36.00:  Time Reaming 
 SAZI.deg               115.72:  Azm, Start 
 SDEP.m                5337.01:  Start Depth 
 SIDD.                      No:  Serv Intrp, DD 
 SINC.deg                66.92:  Inc, Start 
 SPPA.psig             4400.00:  SPP Avg 
 SPPN.psig             1135.00:  SPP Min 
 SPPX.psig             4581.00:  SPP Max 
 STIM.      04.30.56 18-May-20:  Start Time 
 SVCS.                     MWD:  Services 
 SVER.                    9.20:  Sperry Version 
 TDAT.m                5337.01:  Tot Depth Attmp 
 TDDF.                      No:  Trip for DD 
 TFF .                      No:  Trip for Fail 
 TQAA.f-kp               23.00:  Torque Abs Avg 
 TQAN.f-kp               18.00:  Torque Abs Min 
 TQAX.f-kp               25.00:  Torque Abs Max 
 TRRT.°/30m               0.74:  Turn Rotating 
 MRT .                    HCIM:  Maximum Recorded Temperature 
 TTMX.degC               76.47:  Max Tool Temp 
 WBMN.klb                 0.00:  WOB Min 
 WITN.             Anar Khalil:  Customer Rep 
 WITN.      Kamran Keberlinski:  Customer Rep 2 
 WOBA.klb                 0.00:  WOB Avg 
 WOBX.klb                 0.00:  WOB Max 
 YP  .lhf2               27.00:  Yield Point 
~Curve Information Block
#MNEM.UNIT                 API CODE     Curve Description
#---------               -----------    ---------------------------
 TIME.HHMMSS            00 000 000 000:  GT Time & Date
 GTDEPTH.m              00 000 000 000:  GT Depth
 GTPQH.psia             00 000 000 000:  GT HR Quartz Pressure
 GTTQ.degC              00 000 000 000:  GT Quartz Temperature
 GTTN.NONE              00 000 000 000:  GT Test Number
 GTET.sec               00 000 000 000:  GT Elapsed Test Time
 GTTVD.m                00 000 000 000:  GT True Vertical Depth
#Other Information
#
#WARRANTY: Halliburton will use its best efforts to furnish customers with 
#accurate information and interpretations that are part of, and incident to, the services 
#provided.  However, Halliburton cannot and does not warrant the accuracy 
#or correctness of such information and interpretations.  Under no circumstances should any 
#such information or interpretation be relied upon as the sole basis for any drilling, 
#completion, production, or financial decision or any procedure involving any risk to the 
#safety of any drilling venture, drilling rig or its crew or any other third party.  The 
#Customer has full responsibility for all drilling, completion and production operation.  
#Halliburton makes no representations or warranties, either expressed or 
#implied, including, but not limited to, the implied warranties of merchantability or fitness 
#for a particular purpose, with respect to the services rendered.  In no event will 
#Halliburton be liable for failure to obtain any particular results or for 
#any damages, including, but not limited to, indirect, special or consequential damages, 
#resulting from the use of any information or interpretation provided by Halliburton.
#
~A           TIME           GTDEPTH  GTPQH  GTTQ  GTTN  GTET   GTTVD  
# ...
   15:18:41.345.19-May-2020 5277.61 3454.10 67.42 1.00 138.03 2760.35
   15:18:41.545.19-May-2020 5277.61 3454.10 67.42 1.00 138.23 2760.35
   15:18:41.745.19-May-2020 5277.61 3454.13 67.42 1.00 138.43 2760.35
   15:18:41.945.19-May-2020 5277.61 3454.18 67.42 1.00 138.63 2760.35
   15:18:42.145.19-May-2020 5277.61 3454.12 67.42 1.00 138.83 2760.35
   15:18:42.345.19-May-2020 5277.61 3454.07 67.42 1.00 139.03 2760.35
   15:18:42.545.19-May-2020 5277.61 3454.07 67.42 1.00 139.23 2760.35
   15:18:42.745.19-May-2020 5277.61 3454.18 67.42 1.00 139.43 2760.35
   15:18:42.945.19-May-2020 5277.61 3453.94 67.42 1.00 139.63 2760.35
   15:18:43.145.19-May-2020 5277.61 3454.61 67.42 1.00 139.83 2760.35
   15:18:43.345.19-May-2020 5277.61 3454.14 67.42 1.00 140.03 2760.35
   15:18:43.545.19-May-2020 5277.61 3454.14 67.42 1.00 140.23 2760.35
   15:18:43.745.19-May-2020 5277.61 3453.97 67.42 1.00 140.43 2760.35
   15:18:43.945.19-May-2020 5277.61 3454.44 67.42 1.00 140.63 2760.35
   15:18:44.145.19-May-2020 5277.61 3454.19 67.42 1.00 140.83 2760.35
   15:18:44.346.19-May-2020 5277.61 3453.95 67.42 1.00 141.03 2760.35
   15:18:44.546.19-May-2020 5277.61 3453.95 67.42 1.00 141.23 2760.35
   15:18:44.746.19-May-2020 5277.61 3453.98 67.42 1.00 141.43 2760.35
   15:18:44.946.19-May-2020 5277.61 3454.39 67.42 1.00 141.63 2760.35
   15:18:45.146.19-May-2020 5277.61 3454.22 67.42 1.00 141.83 2760.35
   15:18:45.346.19-May-2020 5277.61 3453.98 67.42 1.00 142.03 2760.35
   15:18:45.546.19-May-2020 5277.61 3453.98 67.42 1.00 142.23 2760.35
   15:18:45.746.19-May-2020 5277.61 3454.17 67.42 1.00 142.43 2760.35
   15:18:45.946.19-May-2020 5277.61 3454.17 67.42 1.00 142.63 2760.35
   15:18:46.146.19-May-2020 5277.61 3454.28 67.42 1.00 142.83 2760.35
   15:18:46.346.19-May-2020 5277.61 3454.18 67.42 1.00 143.03 2760.35
   15:18:46.546.19-May-2020 5277.61 3454.18 67.42 1.00 143.23 2760.35
   15:18:46.746.19-May-2020 5277.61 3454.11 67.42 1.00 143.43 2760.35
   15:18:46.946.19-May-2020 5277.61 3454.34 67.42 1.00 143.63 2760.35
   15:18:47.146.19-May-2020 5277.61 3454.28 67.42 1.00 143.83 2760.35
   15:18:47.346.19-May-2020 5277.61 3453.97 67.42 1.00 144.03 2760.35
   15:18:47.546.19-May-2020 5277.61 3454.00 67.42 1.00 144.23 2760.35
   15:18:47.746.19-May-2020 5277.61 3454.14 67.42 1.00 144.43 2760.35
   15:18:47.946.19-May-2020 5277.61 3454.09 67.42 1.00 144.63 2760.35
   15:18:48.146.19-May-2020 5277.61 3454.10 67.42 1.00 144.83 2760.35
   15:18:48.346.19-May-2020 5277.61 3454.08 67.42 1.00 145.03 2760.35
   15:18:48.547.19-May-2020 5277.61 3454.08 67.42 1.00 145.23 2760.35
   15:18:48.747.19-May-2020 5277.61 3454.10 67.42 1.00 145.43 2760.35
   15:18:48.947.19-May-2020 5277.61 3454.17 67.42 1.00 145.63 2760.35
   15:18:49.147.19-May-2020 5277.61 3454.17 67.42 1.00 145.83 2760.35
   15:18:49.347.19-May-2020 5277.61 3454.15 67.42 1.00 146.03 2760.35
   15:18:49.547.19-May-2020 5277.61 3454.15 67.42 1.00 146.23 2760.35
   15:18:49.747.19-May-2020 5277.61 3454.15 67.42 1.00 146.43 2760.35
   15:18:49.947.19-May-2020 5277.61 3453.99 67.42 1.00 146.63 2760.35
   15:18:50.147.19-May-2020 5277.61 3454.55 67.42 1.00 146.83 2760.35
   15:18:50.347.19-May-2020 5277.61 3454.05 67.42 1.00 147.03 2760.35
   15:18:50.547.19-May-2020 5277.61 3454.05 67.42 1.00 147.23 2760.35
   15:18:50.747.19-May-2020 5277.61 3454.06 67.42 1.00 147.43 2760.35
   15:18:50.947.19-May-2020 5277.61 3454.70 67.42 1.00 147.64 2760.35
   15:18:51.147.19-May-2020 5277.61 3454.12 67.42 1.00 147.84 2760.35
   15:18:51.347.19-May-2020 5277.61 3454.00 67.42 1.00 148.04 2760.35
   15:18:51.547.19-May-2020 5277.61 3454.04 67.42 1.00 148.24 2760.35
   15:18:51.747.19-May-2020 5277.61 3454.00 67.42 1.00 148.44 2760.35
   15:18:51.947.19-May-2020 5277.61 3454.64 67.42 1.00 148.64 2760.35
   15:18:52.147.19-May-2020 5277.61 3454.13 67.42 1.00 148.84 2760.35
   15:18:52.347.19-May-2020 5277.61 3453.94 67.42 1.00 149.04 2760.35
   15:18:52.547.19-May-2020 5277.61 3453.94 67.42 1.00 149.24 2760.35
   15:18:52.748.19-May-2020 5277.61 3454.27 67.42 1.00 149.44 2760.35
   15:18:52.948.19-May-2020 5277.61 3454.20 67.42 1.00 149.64 2760.35
   15:18:53.148.19-May-2020 5277.61 3454.29 67.42 1.00 149.84 2760.35
   15:18:53.348.19-May-2020 5277.61 3454.25 67.42 1.00 150.04 2760.35
   15:18:53.548.19-May-2020 5277.61 3454.25 67.42 1.00 150.24 2760.35
   15:18:53.748.19-May-2020 5277.61 3454.05 67.42 1.00 150.44 2760.35
   15:18:53.948.19-May-2020 5277.61 3454.29 67.42 1.00 150.64 2760.35
   15:18:54.148.19-May-2020 5277.61 3454.31 67.42 1.00 150.84 2760.35
   15:18:54.348.19-May-2020 5277.61 3454.05 67.42 1.00 151.04 2760.35
   15:18:54.548.19-May-2020 5277.61 3454.05 67.42 1.00 151.24 2760.35
   15:18:54.748.19-May-2020 5277.61 3454.13 67.42 1.00 151.44 2760.35
   15:18:54.948.19-May-2020 5277.61 3454.14 67.42 1.00 151.64 2760.35
   15:18:55.148.19-May-2020 5277.61 3454.13 67.42 1.00 151.84 2760.35
   15:18:55.348.19-May-2020 5277.61 3454.15 67.42 1.00 152.04 2760.35
   15:18:55.548.19-May-2020 5277.61 3454.13 67.42 1.00 152.24 2760.35
   15:18:55.748.19-May-2020 5277.61 3454.14 67.42 1.00 152.44 2760.35
   15:18:55.948.19-May-2020 5277.61 3454.15 67.42 1.00 152.64 2760.35
   15:18:56.148.19-May-2020 5277.61 3454.14 67.42 1.00 152.84 2760.35
   15:18:56.348.19-May-2020 5277.61 3454.10 67.42 1.00 153.04 2760.35
   15:18:56.548.19-May-2020 5277.61 3454.10 67.42 1.00 153.24 2760.35
   15:18:56.748.19-May-2020 5277.61 3454.18 67.42 1.00 153.44 2760.35
   15:18:56.949.19-May-2020 5277.61 3454.30 67.42 1.00 153.64 2760.35
   15:18:57.149.19-May-2020 5277.61 3454.26 67.42 1.00 153.84 2760.35
   15:18:57.349.19-May-2020 5277.61 3454.01 67.42 1.00 154.04 2760.35
   15:18:57.549.19-May-2020 5277.61 3454.01 67.42 1.00 154.24 2760.35
   15:18:57.749.19-May-2020 5277.61 3454.08 67.42 1.00 154.44 2760.35
   15:18:57.949.19-May-2020 5277.61 3454.60 67.42 1.00 154.64 2760.35
   15:18:58.149.19-May-2020 5277.61 3454.10 67.42 1.00 154.84 2760.35
   15:18:58.349.19-May-2020 5277.61 3454.04 67.42 1.00 155.04 2760.35
   15:18:58.549.19-May-2020 5277.61 3454.04 67.42 1.00 155.24 2760.35
   15:18:58.749.19-May-2020 5277.61 3454.10 67.42 1.00 155.44 2760.35
   15:18:58.949.19-May-2020 5277.61 3454.60 67.42 1.00 155.64 2760.35
   15:18:59.149.19-May-2020 5277.61 3454.04 67.42 1.00 155.84 2760.35
   15:18:59.349.19-May-2020 5277.61 3454.02 67.42 1.00 156.04 2760.35
   15:18:59.549.19-May-2020 5277.61 3454.20 67.42 1.00 156.24 2760.35
   15:18:59.749.19-May-2020 5277.61 3454.25 67.42 1.00 156.44 2760.35
   15:18:59.949.19-May-2020 5277.61 3454.03 67.42 1.00 156.64 2760.35
   15:19:00.149.19-May-2020 5277.61 3454.41 67.42 1.00 156.84 2760.35
   15:19:00.349.19-May-2020 5277.61 3454.27 67.42 1.00 157.04 2760.35
   15:19:00.549.19-May-2020 5277.61 3454.27 67.42 1.00 157.24 2760.35
   15:19:00.749.19-May-2020 5277.61 3216.11 67.42 1.00 157.44 2760.35
   15:19:00.949.19-May-2020 5277.61 3051.16 67.42 1.00 157.64 2760.35
   15:19:01.150.19-May-2020 5277.61 3007.57 67.42 1.00 157.84 2760.35
   15:19:01.350.19-May-2020 5277.61 2991.95 67.42 1.00 158.04 2760.35
   15:19:01.550.19-May-2020 5277.61 2991.95 67.42 1.00 158.24 2760.35
   15:19:01.750.19-May-2020 5277.61 2981.79 67.42 1.00 158.44 2760.35
   15:19:01.950.19-May-2020 5277.61 2980.86 67.42 1.00 158.64 2760.35
   15:19:02.150.19-May-2020 5277.61 2980.57 67.42 1.00 158.84 2760.35
   15:19:02.350.19-May-2020 5277.61 2979.28 67.42 1.00 159.04 2760.35
   15:19:02.550.19-May-2020 5277.61 2979.28 67.42 1.00 159.24 2760.35
   15:19:02.750.19-May-2020 5277.61 2977.33 67.42 1.00 159.44 2760.35
   15:19:02.950.19-May-2020 5277.61 2978.19 67.42 1.00 159.64 2760.35
   15:19:03.150.19-May-2020 5277.61 2978.61 67.42 1.00 159.84 2760.35
   15:19:03.350.19-May-2020 5277.61 2976.34 67.42 1.00 160.04 2760.35
   15:19:03.550.19-May-2020 5277.61 2976.34 67.42 1.00 160.24 2760.35
   15:19:03.750.19-May-2020 5277.61 2976.01 67.42 1.00 160.44 2760.35
   15:19:03.950.19-May-2020 5277.61 2974.94 67.42 1.00 160.64 2760.35
   15:19:04.150.19-May-2020 5277.61 2976.16 67.42 1.00 160.84 2760.35
