~Version Information
 VERS.                  2.0:   CWLS log ASCII Standard -VERSION 2.0
 WRAP.                   NO:   One line per depth step
~Well Information Block
#MNEM.UNIT     VALUE/NAME     DESCRIPTION
#---------     -----------    ---------------------------
 STRT.S             02:05:08 20-May-20: START TIME 02:05:08 20-May-20
 STOP.S             02:15:48 20-May-20: STOP TIME  02:15:48 20-May-20
 STEP.S                   0.00: STEP TIME
 NULL.                 -999.25: NULL VALUE
 MDS .        Operator Entered:  MAG DATA SOURCE
 PDAT.          Mean Sea Level:  PERMANENT DATUM
 UNIT.                     N/A:  LOGGING EQUIPMENT ID
 DCON.         Sperry Drilling:  DIRECTNL CONTR
 DOE .                     N/A:  DOE NUMBER
 RIG .              East Azeri:  RIG NAME
 JOBN.        AZ-XX-0905856059:  JOB TICKET NUMB
 WELL.                     D36:  WELL NAME
 MWDS.                    Baku:  MWD SHOP
 SRVC.     Turan Drilling & Engineering:  CONTRACTOR
 FLD .                     ACG:  FIELD NAME
 CTRY.              Azerbaijan:  COUNTRY NAME
 PROV.                    Baku:  PROVINCE
 STAT.                    Baku:  STATE NAME
 REGN.                   EESSA:  REGION
 BASE.              Azerbaijan:  LOGGING EQUIPMENT BASE LOCATION
 UWI .                     N/A:  UNIQUE WELL IDENTIFIER
 API .                     N/A:  API NUMBER
 COMP.     BP Exploration (Caspian Sea) Ltd.:  COMPANY
 WTYP.                Deviated:  WELL TYPE
 SON .        AZ-XX-0905856059:  JOB NUMBER
 FTOP.          Formation Tops:  FORM TOPS DESC
 ILTD.               Lithology:  INTERP LTH DESC
 SVYD.                  Survey:  SURVEY DESC
 DMOD.             Drill Model:  DRILL MOD DESC
 HPTY.       Minimum Curvature:  HOLE POS TYPE
 NREF.                    Grid:  NORTH REFERENCE
 SPUD.               25-Feb-20:  SPUD DATE
 DATE.      08.55.28 01-May-20:  END TIME
 STIM.      08.55.28 25-Feb-20:  START TIME
 DMF .             Drill Floor:  DRILL MEAS FROM
 DFST.                        :  DIST FSL TEXT
 DFWT.                        :  DIST FWL TEXT
 CNTY.                        :  COUNTY
 LOC .                        :  LOCATION
 LMF .             Drill Floor:  LOG MEASURED FROM
 VSNS.m                   6.09:  VERT SEC N/S
 VSEW.m                 -10.79:  VERT SEC E/W
 AGAP.m                  43.60:  AIR GAP
 DEP .m                 388.24:  DEPTH
 APD .m                  43.60:  DEPTH ABOVE PD
 WDMS.m                 151.80:  WD ELEV
 EGL .m                   0.00:  GROUND ELEVATION
 EPD .m                   0.00:  ELEVATION
 AZTC.deg                 6.12:  AZM TOTAL CORR
 GRDC.deg                 0.30:  GRID CORRECTION
 MDEC.deg                 6.42:  MAGNETIC DECL
 MDIP.deg                59.42:  MAGNETIC DIP
 MFLD.nT              50256.00:  MAGNETIC FIELD
 GVFD.g                   1.00:  GRAVITY FIELD
 VSDR.deg               159.57:  VERT SEC DIRECT
 TDD .m                5000.01:  TOTAL DEPTH (DRILLER)
 SDEP.m                 397.00:  START DEPTH
 DFSL.m                   0.00:  DISTANCE FSL
 DFWL.m                   0.00:  DISTANCE FWL
 UTMY.m             4431880.20:  UTM Y
 UTMX.m              538763.98:  UTM X
 WHEW.m                 -10.79:  WELL HEAD E/W
 WHNS.m                   6.09:  WELL HEAD N/S
 LONG.deg                51.45:  LONGITUDE
 LATI.deg                40.02:  LATITUDE
 TVDS.m                  43.60:  TVDSS CORRECTN
 EKB .m                  43.60:  KB ELEVATION
 EDF .m                  43.60:  DF ELEVATION
 MAGU.                 1847640:  MAGUTM CHECKSUM
 VSC .                       0:  VS TO CLOSURE
~Parameter Information Block
#MNEM.UNIT       Value        Description
#---------     -----------    ---------------------------
 AV  .mps                 1.30:  Ann Velocity 
 AVMX.mps                 1.90:  Max Ann Veloc 
 AZIF.deg               115.68:  Azm, Final 
 BHAT.                   Other:  BHA Type 
 BROT.°/30m               0.74:  Build Rotating 
 BS  .in                  8.50:  Bit Size 
 BTPL.psig              430.00:  Bit Press Loss 
 CABU.                      No:  Customer Abuse 
 TCS .hr                 51.31:  Time Ciculation Ended 
 CV  .mps                 2.52:  Crit Velocity 
 CVMX.mps                 2.62:  Max Crit Veloc 
 DD1 .          Teymur Aghayev:  Direct Drillr 1 
 DDSV.                   Other:  DD Service 
 DEFF.%                 100.00:  % Det Eff 
 DLRX.°/30m               1.62:  Dogleg Rot Max 
 DLSO.°/30m               0.74:  Dogleg Oriented 
 DLSX.°/30m               1.62:  Dogleg Str Max 
 DRET.      04.30.56 18-May-20:  Drill End Time 
 DRST.      04.30.56 18-May-20:  Drill Start Tim 
 DTIM.hr                  0.00:  Time Drilling 
 EDEP.m                5337.01:  End Depth 
 ENG1.      Artemiy Matviyanov:  Engineer 1 
 ENG2.      Bakhtiyar Jabbarli:  Engineer 2 
 ENG3.           Emil Huseynov:  Engineer 3 
 ETIM.      18.40.00 22-May-20:  End Time 
 FLOI.gpm               550.00:  Flow In 
 FLON.gpm               350.00:  Flow In Min 
 FLOS.cptm                0.00:  Fluid Loss 
 FLOX.gpm               600.00:  Flow In Max 
 HFLO.                      No:  High Flow 
 HPRE.                      No:  High Pressure 
 HTEM.                      No:  High Temp 
 HYDO.m                   1.80:  Hydro Offset 
 IFIN.deg                67.01:  Inc, Final 
 IMAX.deg                67.49:  Inc Max 
 IMIN.deg                66.50:  Inc Min 
 IMND.m                5144.79:  Inc Min Depth 
 IMXD.m                5116.12:  Inc Max Depth 
 JARR.                      No:  Jarring 
 LETM.      17.55.56 20-May-20:  Log End Time 
 LOST.hr                     0:  Lost Rig Time 
 LSTM.      04.30.56 18-May-20:  Log Start Time 
 MDCL.ppm            193153.00:  Mud Chlorides 
 MDES.     Inversion Oil/Synthetic:  Mud Desc 
 DFD .sg                  1.40:  Mud Density 
 MDMN.sg                  1.40:  Dens Mud Min 
 MDMX.sg                  1.41:  Dens Mud Max 
 MOIL.                      68:  Run Mud Oil % 
 MOWR.                   68:32:  Run Mud OWR 
 MSND.                     0.2:  Run Mud Sand % 
 MSOL.                    18.8:  Run Mud Solids% 
 DFV .spqt               80.00:  Mud Viscosity 
 MWOD.in                  6.75:  MWD Tool OD 
 MWSI.                      No:  Serv Intrp, MWD 
 OTIM.hr                104.84:  Time Operating 
 PMAX.psia            10690.93:  Press Op, Max 
 PV  .cP                 26.00:  Mud PV 
 RUN .                     900:  Run Number 
 ROPA.m/hr                0.00:  ROP Avg 
 ROPN.m/hr                0.00:  ROP Min 
 ROPX.m/hr                0.00:  ROP Max 
 RPMA.rpm               140.00:  RPM Surface Avg 
 RPMN.rpm                70.00:  RPM Surface Min 
 RPMX.rpm               140.00:  RPM Surface Max 
 RRUN.                    0900:  Rig Run Number 
 RTIM.hr                 36.00:  Time Reaming 
 SAZI.deg               115.72:  Azm, Start 
 SDEP.m                5337.01:  Start Depth 
 SIDD.                      No:  Serv Intrp, DD 
 SINC.deg                66.92:  Inc, Start 
 SPPA.psig             4400.00:  SPP Avg 
 SPPN.psig             1135.00:  SPP Min 
 SPPX.psig             4581.00:  SPP Max 
 STIM.      04.30.56 18-May-20:  Start Time 
 SVCS.                     MWD:  Services 
 SVER.                    9.20:  Sperry Version 
 TDAT.m                5337.01:  Tot Depth Attmp 
 TDDF.                      No:  Trip for DD 
 TFF .                      No:  Trip for Fail 
 TQAA.f-kp               23.00:  Torque Abs Avg 
 TQAN.f-kp               18.00:  Torque Abs Min 
 TQAX.f-kp               25.00:  Torque Abs Max 
 TRRT.°/30m               0.74:  Turn Rotating 
 MRT .                    HCIM:  Maximum Recorded Temperature 
 TTMX.degC               76.47:  Max Tool Temp 
 WBMN.klb                 0.00:  WOB Min 
 WITN.             Anar Khalil:  Customer Rep 
 WITN.      Kamran Keberlinski:  Customer Rep 2 
 WOBA.klb                 0.00:  WOB Avg 
 WOBX.klb                 0.00:  WOB Max 
 YP  .lhf2               27.00:  Yield Point 
~Curve Information Block
#MNEM.UNIT                 API CODE     Curve Description
#---------               -----------    ---------------------------
 TIME.HHMMSS            00 000 000 000:  GT Time & Date
 GTDEPTH.m              00 000 000 000:  GT Depth
 GTPQH.psia             00 000 000 000:  GT HR Quartz Pressure
 GTTQ.degC              00 000 000 000:  GT Quartz Temperature
 GTTN.NONE              00 000 000 000:  GT Test Number
 GTET.sec               00 000 000 000:  GT Elapsed Test Time
 GTTVD.m                00 000 000 000:  GT True Vertical Depth
#Other Information
#
#WARRANTY: Halliburton will use its best efforts to furnish customers with 
#accurate information and interpretations that are part of, and incident to, the services 
#provided.  However, Halliburton cannot and does not warrant the accuracy 
#or correctness of such information and interpretations.  Under no circumstances should any 
#such information or interpretation be relied upon as the sole basis for any drilling, 
#completion, production, or financial decision or any procedure involving any risk to the 
#safety of any drilling venture, drilling rig or its crew or any other third party.  The 
#Customer has full responsibility for all drilling, completion and production operation.  
#Halliburton makes no representations or warranties, either expressed or 
#implied, including, but not limited to, the implied warranties of merchantability or fitness 
#for a particular purpose, with respect to the services rendered.  In no event will 
#Halliburton be liable for failure to obtain any particular results or for 
#any damages, including, but not limited to, indirect, special or consequential damages, 
#resulting from the use of any information or interpretation provided by Halliburton.
#
~A           TIME           GTDEPTH  GTPQH  GTTQ  GTTN  GTET   GTTVD  
# ...
   02:08:35.000.20-May-2020 5070.01 2956.35 68.37 7.00 207.00 2678.90
   02:08:35.200.20-May-2020 5070.01 2956.35 68.37 7.00 207.20 2678.90
   02:08:35.400.20-May-2020 5070.01 2956.43 68.37 7.00 207.40 2678.90
   02:08:35.600.20-May-2020 5070.01 2956.35 68.37 7.00 207.60 2678.90
   02:08:35.800.20-May-2020 5070.01 2956.37 68.37 7.00 207.80 2678.90
   02:08:36.000.20-May-2020 5070.01 2956.37 68.37 7.00 208.00 2678.90
   02:08:36.200.20-May-2020 5070.01 2956.37 68.37 7.00 208.20 2678.90
   02:08:36.400.20-May-2020 5070.01 2956.38 68.37 7.00 208.40 2678.90
   02:08:36.600.20-May-2020 5070.01 2956.34 68.37 7.00 208.60 2678.90
   02:08:36.800.20-May-2020 5070.01 2956.36 68.37 7.00 208.80 2678.90
   02:08:37.000.20-May-2020 5070.01 2956.34 68.37 7.00 209.00 2678.90
   02:08:37.200.20-May-2020 5070.01 2956.34 68.37 7.00 209.20 2678.90
   02:08:37.400.20-May-2020 5070.01 2956.32 68.37 7.00 209.40 2678.90
   02:08:37.600.20-May-2020 5070.01 2956.36 68.37 7.00 209.60 2678.90
   02:08:37.800.20-May-2020 5070.01 2956.34 68.37 7.00 209.80 2678.90
   02:08:38.000.20-May-2020 5070.01 2956.36 68.37 7.00 210.00 2678.90
   02:08:38.200.20-May-2020 5070.01 2956.36 68.37 7.00 210.20 2678.90
   02:08:38.400.20-May-2020 5070.01 2956.36 68.37 7.00 210.40 2678.90
   02:08:38.600.20-May-2020 5070.01 2956.33 68.37 7.00 210.60 2678.90
   02:08:38.800.20-May-2020 5070.01 2956.35 68.37 7.00 210.80 2678.90
   02:08:39.000.20-May-2020 5070.01 2956.33 68.37 7.00 211.00 2678.90
   02:08:39.200.20-May-2020 5070.01 2956.33 68.37 7.00 211.20 2678.90
   02:08:39.400.20-May-2020 5070.01 2956.34 68.37 7.00 211.40 2678.90
   02:08:39.600.20-May-2020 5070.01 2956.35 68.37 7.00 211.60 2678.90
   02:08:39.800.20-May-2020 5070.01 2956.35 68.37 7.00 211.80 2678.90
   02:08:40.000.20-May-2020 5070.01 2956.35 68.37 7.00 212.00 2678.90
   02:08:40.200.20-May-2020 5070.01 2956.35 68.37 7.00 212.20 2678.90
   02:08:40.400.20-May-2020 5070.01 2956.35 68.37 7.00 212.40 2678.90
   02:08:40.600.20-May-2020 5070.01 2956.35 68.37 7.00 212.60 2678.90
   02:08:40.800.20-May-2020 5070.01 2956.35 68.37 7.00 212.80 2678.90
   02:08:41.000.20-May-2020 5070.01 2956.35 68.37 7.00 213.00 2678.90
   02:08:41.200.20-May-2020 5070.01 2956.35 68.37 7.00 213.20 2678.90
   02:08:41.400.20-May-2020 5070.01 2956.26 68.37 7.00 213.40 2678.90
   02:08:41.600.20-May-2020 5070.01 2956.45 68.37 7.00 213.60 2678.90
   02:08:41.800.20-May-2020 5070.01 2956.34 68.37 7.00 213.80 2678.90
   02:08:42.000.20-May-2020 5070.01 2956.35 68.37 7.00 214.00 2678.90
   02:08:42.200.20-May-2020 5070.01 2956.33 68.37 7.00 214.20 2678.90
   02:08:42.400.20-May-2020 5070.01 2956.37 68.37 7.00 214.40 2678.90
   02:08:42.600.20-May-2020 5070.01 2956.34 68.37 7.00 214.60 2678.90
   02:08:42.800.20-May-2020 5070.01 2956.35 68.37 7.00 214.80 2678.90
   02:08:43.000.20-May-2020 5070.01 2956.35 68.37 7.00 215.00 2678.90
   02:08:43.200.20-May-2020 5070.01 2956.35 68.37 7.00 215.20 2678.90
   02:08:43.400.20-May-2020 5070.01 2956.33 68.37 7.00 215.40 2678.90
   02:08:43.600.20-May-2020 5070.01 2956.34 68.37 7.00 215.60 2678.90
   02:08:43.800.20-May-2020 5070.01 2956.35 68.37 7.00 215.80 2678.90
   02:08:44.000.20-May-2020 5070.01 2956.35 68.37 7.00 216.00 2678.90
   02:08:44.200.20-May-2020 5070.01 2956.35 68.37 7.00 216.20 2678.90
   02:08:44.400.20-May-2020 5070.01 2956.34 68.37 7.00 216.40 2678.90
   02:08:44.600.20-May-2020 5070.01 2956.35 68.37 7.00 216.60 2678.90
   02:08:44.800.20-May-2020 5070.01 2956.36 68.37 7.00 216.80 2678.90
   02:08:45.000.20-May-2020 5070.01 2956.33 68.37 7.00 217.00 2678.90
   02:08:45.200.20-May-2020 5070.01 2956.33 68.37 7.00 217.20 2678.90
   02:08:45.400.20-May-2020 5070.01 2956.31 68.37 7.00 217.40 2678.90
   02:08:45.600.20-May-2020 5070.01 2956.35 68.37 7.00 217.60 2678.90
   02:08:45.800.20-May-2020 5070.01 2956.34 68.37 7.00 217.80 2678.90
   02:08:46.000.20-May-2020 5070.01 2956.34 68.37 7.00 218.00 2678.90
   02:08:46.200.20-May-2020 5070.01 2956.34 68.37 7.00 218.20 2678.90
   02:08:46.400.20-May-2020 5070.01 2956.33 68.37 7.00 218.40 2678.90
   02:08:46.600.20-May-2020 5070.01 2956.34 68.37 7.00 218.60 2678.90
   02:08:46.800.20-May-2020 5070.01 2956.35 68.37 7.00 218.80 2678.90
   02:08:47.000.20-May-2020 5070.01 2956.33 68.37 7.00 219.00 2678.90
   02:08:47.200.20-May-2020 5070.01 2956.33 68.37 7.00 219.20 2678.90
   02:08:47.400.20-May-2020 5070.01 2956.33 68.37 7.00 219.40 2678.90
   02:08:47.600.20-May-2020 5070.01 2956.35 68.37 7.00 219.60 2678.90
   02:08:47.800.20-May-2020 5070.01 2956.34 68.37 7.00 219.80 2678.90
   02:08:48.000.20-May-2020 5070.01 2956.34 68.37 7.00 220.00 2678.90
   02:08:48.200.20-May-2020 5070.01 2956.34 68.37 7.00 220.20 2678.90
   02:08:48.400.20-May-2020 5070.01 2956.05 68.37 7.00 220.40 2678.90
   02:08:48.600.20-May-2020 5070.01 2955.72 68.37 7.00 220.60 2678.90
   02:08:48.800.20-May-2020 5070.01 2948.42 68.37 7.00 220.80 2678.90
   02:08:49.000.20-May-2020 5070.01 2947.35 68.37 7.00 221.00 2678.90
   02:08:49.200.20-May-2020 5070.01 2947.92 68.37 7.00 221.20 2678.90
   02:08:49.400.20-May-2020 5070.01 2947.47 68.37 7.00 221.40 2678.90
   02:08:49.600.20-May-2020 5070.01 2947.82 68.37 7.00 221.60 2678.90
   02:08:49.800.20-May-2020 5070.01 2947.52 68.37 7.00 221.80 2678.90
   02:08:50.000.20-May-2020 5070.01 2947.59 68.37 7.00 222.00 2678.90
   02:08:50.200.20-May-2020 5070.01 2947.70 68.37 7.00 222.20 2678.90
   02:08:50.400.20-May-2020 5070.01 2947.50 68.37 7.00 222.40 2678.90
   02:08:50.600.20-May-2020 5070.01 2947.58 68.37 7.00 222.60 2678.90
   02:08:50.800.20-May-2020 5070.01 2947.54 68.37 7.00 222.80 2678.90
   02:08:51.000.20-May-2020 5070.01 2947.41 68.37 7.00 223.00 2678.90
   02:08:51.200.20-May-2020 5070.01 2947.41 68.37 7.00 223.20 2678.90
   02:08:51.400.20-May-2020 5070.01 2947.11 68.37 7.00 223.40 2678.90
   02:08:51.600.20-May-2020 5070.01 2947.52 68.37 7.00 223.60 2678.90
   02:08:51.800.20-May-2020 5070.01 2947.15 68.37 7.00 223.80 2678.90
   02:08:52.000.20-May-2020 5070.01 2947.15 68.37 7.00 224.00 2678.90
   02:08:52.200.20-May-2020 5070.01 2947.15 68.37 7.00 224.20 2678.90
   02:08:52.400.20-May-2020 5070.01 2947.25 68.37 7.00 224.40 2678.90
   02:08:52.600.20-May-2020 5070.01 2947.35 68.37 7.00 224.60 2678.90
   02:08:52.800.20-May-2020 5070.01 2947.13 68.37 7.00 224.80 2678.90
   02:08:53.000.20-May-2020 5070.01 2947.02 68.37 7.00 225.00 2678.90
   02:08:53.200.20-May-2020 5070.01 2947.02 68.37 7.00 225.20 2678.90
   02:08:53.400.20-May-2020 5070.01 2947.23 68.37 7.00 225.40 2678.90
   02:08:53.600.20-May-2020 5070.01 2947.11 68.37 7.00 225.60 2678.90
   02:08:53.800.20-May-2020 5070.01 2946.98 68.37 7.00 225.80 2678.90
   02:08:54.000.20-May-2020 5070.01 2947.20 68.37 7.00 226.00 2678.90
   02:08:54.200.20-May-2020 5070.01 2947.04 68.37 7.00 226.20 2678.90
   02:08:54.400.20-May-2020 5070.01 2947.03 68.37 7.00 226.40 2678.90
   02:08:54.600.20-May-2020 5070.01 2946.98 68.37 7.00 226.60 2678.90
   02:08:54.800.20-May-2020 5070.01 2947.15 68.37 7.00 226.80 2678.90
   02:08:55.000.20-May-2020 5070.01 2947.08 68.37 7.00 227.00 2678.90
   02:08:55.200.20-May-2020 5070.01 2947.08 68.37 7.00 227.20 2678.90
   02:08:55.400.20-May-2020 5070.01 2947.00 68.37 7.00 227.40 2678.90
   02:08:55.600.20-May-2020 5070.01 2946.69 68.37 7.00 227.60 2678.90
   02:08:55.800.20-May-2020 5070.01 2947.04 68.37 7.00 227.80 2678.90
   02:08:56.000.20-May-2020 5070.01 2947.03 68.37 7.00 228.00 2678.90
   02:08:56.200.20-May-2020 5070.01 2947.03 68.37 7.00 228.20 2678.90
   02:08:56.400.20-May-2020 5070.01 2947.08 68.37 7.00 228.40 2678.90
   02:08:56.600.20-May-2020 5070.01 2947.08 68.37 7.00 228.60 2678.90
   02:08:56.800.20-May-2020 5070.01 2947.13 68.37 7.00 228.80 2678.90
   02:08:57.000.20-May-2020 5070.01 2946.78 68.37 7.00 229.00 2678.90
   02:08:57.200.20-May-2020 5070.01 2946.78 68.37 7.00 229.20 2678.90
   02:08:57.400.20-May-2020 5070.01 2946.82 68.37 7.00 229.40 2678.90
   02:08:57.600.20-May-2020 5070.01 2946.60 68.37 7.00 229.60 2678.90
   02:08:57.800.20-May-2020 5070.01 2946.72 68.37 7.00 229.80 2678.90
