~Version Information
 VERS.                  2.0:   CWLS log ASCII Standard -VERSION 2.0
 WRAP.                   NO:   One line per depth step
~Well Information Block
#MNEM.UNIT     VALUE/NAME     DESCRIPTION
#---------     -----------    ---------------------------
 STRT.S             21:41:59 19-May-20: START TIME 21:41:59 19-May-20
 STOP.S             21:48:44 19-May-20: STOP TIME  21:48:44 19-May-20
 STEP.S                   0.00: STEP TIME
 NULL.                 -999.25: NULL VALUE
 MDS .        Operator Entered:  MAG DATA SOURCE
 PDAT.          Mean Sea Level:  PERMANENT DATUM
 UNIT.                     N/A:  LOGGING EQUIPMENT ID
 DCON.         Sperry Drilling:  DIRECTNL CONTR
 DOE .                     N/A:  DOE NUMBER
 RIG .              East Azeri:  RIG NAME
 JOBN.        AZ-XX-0905856059:  JOB TICKET NUMB
 WELL.                     D36:  WELL NAME
 MWDS.                    Baku:  MWD SHOP
 SRVC.     Turan Drilling & Engineering:  CONTRACTOR
 FLD .                     ACG:  FIELD NAME
 CTRY.              Azerbaijan:  COUNTRY NAME
 PROV.                    Baku:  PROVINCE
 STAT.                    Baku:  STATE NAME
 REGN.                   EESSA:  REGION
 BASE.              Azerbaijan:  LOGGING EQUIPMENT BASE LOCATION
 UWI .                     N/A:  UNIQUE WELL IDENTIFIER
 API .                     N/A:  API NUMBER
 COMP.     BP Exploration (Caspian Sea) Ltd.:  COMPANY
 WTYP.                Deviated:  WELL TYPE
 SON .        AZ-XX-0905856059:  JOB NUMBER
 FTOP.          Formation Tops:  FORM TOPS DESC
 ILTD.               Lithology:  INTERP LTH DESC
 SVYD.                  Survey:  SURVEY DESC
 DMOD.             Drill Model:  DRILL MOD DESC
 HPTY.       Minimum Curvature:  HOLE POS TYPE
 NREF.                    Grid:  NORTH REFERENCE
 SPUD.               25-Feb-20:  SPUD DATE
 DATE.      08.55.28 01-May-20:  END TIME
 STIM.      08.55.28 25-Feb-20:  START TIME
 DMF .             Drill Floor:  DRILL MEAS FROM
 DFST.                        :  DIST FSL TEXT
 DFWT.                        :  DIST FWL TEXT
 CNTY.                        :  COUNTY
 LOC .                        :  LOCATION
 LMF .             Drill Floor:  LOG MEASURED FROM
 VSNS.m                   6.09:  VERT SEC N/S
 VSEW.m                 -10.79:  VERT SEC E/W
 AGAP.m                  43.60:  AIR GAP
 DEP .m                 388.24:  DEPTH
 APD .m                  43.60:  DEPTH ABOVE PD
 WDMS.m                 151.80:  WD ELEV
 EGL .m                   0.00:  GROUND ELEVATION
 EPD .m                   0.00:  ELEVATION
 AZTC.deg                 6.12:  AZM TOTAL CORR
 GRDC.deg                 0.30:  GRID CORRECTION
 MDEC.deg                 6.42:  MAGNETIC DECL
 MDIP.deg                59.42:  MAGNETIC DIP
 MFLD.nT              50256.00:  MAGNETIC FIELD
 GVFD.g                   1.00:  GRAVITY FIELD
 VSDR.deg               159.57:  VERT SEC DIRECT
 TDD .m                5000.01:  TOTAL DEPTH (DRILLER)
 SDEP.m                 397.00:  START DEPTH
 DFSL.m                   0.00:  DISTANCE FSL
 DFWL.m                   0.00:  DISTANCE FWL
 UTMY.m             4431880.20:  UTM Y
 UTMX.m              538763.98:  UTM X
 WHEW.m                 -10.79:  WELL HEAD E/W
 WHNS.m                   6.09:  WELL HEAD N/S
 LONG.deg                51.45:  LONGITUDE
 LATI.deg                40.02:  LATITUDE
 TVDS.m                  43.60:  TVDSS CORRECTN
 EKB .m                  43.60:  KB ELEVATION
 EDF .m                  43.60:  DF ELEVATION
 MAGU.                 1847640:  MAGUTM CHECKSUM
 VSC .                       0:  VS TO CLOSURE
~Parameter Information Block
#MNEM.UNIT       Value        Description
#---------     -----------    ---------------------------
 AV  .mps                 1.30:  Ann Velocity 
 AVMX.mps                 1.90:  Max Ann Veloc 
 AZIF.deg               115.68:  Azm, Final 
 BHAT.                   Other:  BHA Type 
 BROT.°/30m               0.74:  Build Rotating 
 BS  .in                  8.50:  Bit Size 
 BTPL.psig              430.00:  Bit Press Loss 
 CABU.                      No:  Customer Abuse 
 COMM.                     „äS:  Run Comments 1 
 TCS .hr                 51.31:  Time Ciculation Ended 
 CV  .mps                 2.52:  Crit Velocity 
 CVMX.mps                 2.62:  Max Crit Veloc 
 DD1 .          Teymur Aghayev:  Direct Drillr 1 
 DDSV.                   Other:  DD Service 
 DEFF.%                 100.00:  % Det Eff 
 DLRX.°/30m               1.62:  Dogleg Rot Max 
 DLSO.°/30m               0.74:  Dogleg Oriented 
 DLSX.°/30m               1.62:  Dogleg Str Max 
 DRET.      04.30.56 18-May-20:  Drill End Time 
 DRST.      04.30.56 18-May-20:  Drill Start Tim 
 DTIM.hr                  0.00:  Time Drilling 
 EDEP.m                5337.01:  End Depth 
 ENG1.      Artemiy Matviyanov:  Engineer 1 
 ENG2.      Bakhtiyar Jabbarli:  Engineer 2 
 ENG3.           Emil Huseynov:  Engineer 3 
 ETIM.      18.40.00 22-May-20:  End Time 
 FLOI.gpm               550.00:  Flow In 
 FLON.gpm               350.00:  Flow In Min 
 FLOS.cptm                0.00:  Fluid Loss 
 FLOX.gpm               600.00:  Flow In Max 
 HFLO.                      No:  High Flow 
 HPRE.                      No:  High Pressure 
 HTEM.                      No:  High Temp 
 HYDO.m                   1.80:  Hydro Offset 
 IFIN.deg                67.01:  Inc, Final 
 IMAX.deg                67.49:  Inc Max 
 IMIN.deg                66.50:  Inc Min 
 IMND.m                5144.79:  Inc Min Depth 
 IMXD.m                5116.12:  Inc Max Depth 
 JARR.                      No:  Jarring 
 LETM.      17.55.56 20-May-20:  Log End Time 
 LOST.hr                     0:  Lost Rig Time 
 LSTM.      04.30.56 18-May-20:  Log Start Time 
 MDCL.ppm            193153.00:  Mud Chlorides 
 MDES.     Inversion Oil/Synthetic:  Mud Desc 
 DFD .sg                  1.40:  Mud Density 
 MDMN.sg                  1.40:  Dens Mud Min 
 MDMX.sg                  1.41:  Dens Mud Max 
 MOIL.                      68:  Run Mud Oil % 
 MOWR.                   68:32:  Run Mud OWR 
 MSND.                     0.2:  Run Mud Sand % 
 MSOL.                    18.8:  Run Mud Solids% 
 DFV .spqt               80.00:  Mud Viscosity 
 MWOD.in                  6.75:  MWD Tool OD 
 MWSI.                      No:  Serv Intrp, MWD 
 OTIM.hr                104.84:  Time Operating 
 PMAX.psia            10690.93:  Press Op, Max 
 PV  .cP                 26.00:  Mud PV 
 RUN .                     900:  Run Number 
 ROPA.m/hr                0.00:  ROP Avg 
 ROPN.m/hr                0.00:  ROP Min 
 ROPX.m/hr                0.00:  ROP Max 
 RPMA.rpm               140.00:  RPM Surface Avg 
 RPMN.rpm                70.00:  RPM Surface Min 
 RPMX.rpm               140.00:  RPM Surface Max 
 RRUN.                    0900:  Rig Run Number 
 RTIM.hr                 36.00:  Time Reaming 
 SAZI.deg               115.72:  Azm, Start 
 SDEP.m                5337.01:  Start Depth 
 SIDD.                      No:  Serv Intrp, DD 
 SINC.deg                66.92:  Inc, Start 
 SPPA.psig             4400.00:  SPP Avg 
 SPPN.psig             1135.00:  SPP Min 
 SPPX.psig             4581.00:  SPP Max 
 STIM.      04.30.56 18-May-20:  Start Time 
 SVCS.                     MWD:  Services 
 SVER.                    9.20:  Sperry Version 
 TDAT.m                5337.01:  Tot Depth Attmp 
 TDDF.                      No:  Trip for DD 
 TFF .                      No:  Trip for Fail 
 TQAA.f-kp               23.00:  Torque Abs Avg 
 TQAN.f-kp               18.00:  Torque Abs Min 
 TQAX.f-kp               25.00:  Torque Abs Max 
 TRRT.°/30m               0.74:  Turn Rotating 
 MRT .                    HCIM:  Maximum Recorded Temperature 
 TTMX.degC               76.47:  Max Tool Temp 
 WBMN.klb                 0.00:  WOB Min 
 WITN.             Anar Khalil:  Customer Rep 
 WITN.      Kamran Keberlinski:  Customer Rep 2 
 WOBA.klb                 0.00:  WOB Avg 
 WOBX.klb                 0.00:  WOB Max 
 YP  .lhf2               27.00:  Yield Point 
~Curve Information Block
#MNEM.UNIT                 API CODE     Curve Description
#---------               -----------    ---------------------------
 TIME.HHMMSS            00 000 000 000:  GT Time & Date
 GTDEPTH.m              00 000 000 000:  GT Depth
 GTPQH.psia             00 000 000 000:  GT HR Quartz Pressure
 GTTQ.degC              00 000 000 000:  GT Quartz Temperature
 GTTN.NONE              00 000 000 000:  GT Test Number
 GTET.sec               00 000 000 000:  GT Elapsed Test Time
 GTTVD.m                00 000 000 000:  GT True Vertical Depth
#Other Information
#
#WARRANTY: Halliburton will use its best efforts to furnish customers with 
#accurate information and interpretations that are part of, and incident to, the services 
#provided.  However, Halliburton cannot and does not warrant the accuracy 
#or correctness of such information and interpretations.  Under no circumstances should any 
#such information or interpretation be relied upon as the sole basis for any drilling, 
#completion, production, or financial decision or any procedure involving any risk to the 
#safety of any drilling venture, drilling rig or its crew or any other third party.  The 
#Customer has full responsibility for all drilling, completion and production operation.  
#Halliburton makes no representations or warranties, either expressed or 
#implied, including, but not limited to, the implied warranties of merchantability or fitness 
#for a particular purpose, with respect to the services rendered.  In no event will 
#Halliburton be liable for failure to obtain any particular results or for 
#any damages, including, but not limited to, indirect, special or consequential damages, 
#resulting from the use of any information or interpretation provided by Halliburton.
#
~A           TIME           GTDEPTH  GTPQH  GTTQ  GTTN  GTET   GTTVD  
# ...
   21:47:21.446.19-May-2020 5137.01 3673.53 67.52 3.00 322.08 2705.05
   21:47:21.646.19-May-2020 5137.01 3673.53 67.52 3.00 322.28 2705.05
   21:47:21.846.19-May-2020 5137.01 3680.67 67.52 3.00 322.48 2705.05
   21:47:22.046.19-May-2020 5137.01 3684.18 67.52 3.00 322.68 2705.05
   21:47:22.246.19-May-2020 5137.01 3687.49 67.52 3.00 322.88 2705.05
   21:47:22.447.19-May-2020 5137.01 3690.98 67.52 3.00 323.08 2705.05
   21:47:22.647.19-May-2020 5137.01 3690.98 67.52 3.00 323.28 2705.05
   21:47:22.847.19-May-2020 5137.01 3697.71 67.52 3.00 323.48 2705.05
   21:47:23.047.19-May-2020 5137.01 3701.05 67.52 3.00 323.68 2705.05
   21:47:23.247.19-May-2020 5137.01 3704.31 67.52 3.00 323.88 2705.05
   21:47:23.447.19-May-2020 5137.01 3707.66 67.52 3.00 324.08 2705.05
   21:47:23.647.19-May-2020 5137.01 3707.66 67.52 3.00 324.28 2705.05
   21:47:23.847.19-May-2020 5137.01 3714.16 67.52 3.00 324.48 2705.05
   21:47:24.047.19-May-2020 5137.01 3717.38 67.52 3.00 324.68 2705.05
   21:47:24.247.19-May-2020 5137.01 3720.58 67.52 3.00 324.88 2705.05
   21:47:24.447.19-May-2020 5137.01 3723.07 67.52 3.00 325.08 2705.05
   21:47:24.647.19-May-2020 5137.01 3723.07 67.52 3.00 325.28 2705.05
   21:47:24.847.19-May-2020 5137.01 3729.86 67.52 3.00 325.48 2705.05
   21:47:25.047.19-May-2020 5137.01 3732.91 67.52 3.00 325.68 2705.05
   21:47:25.247.19-May-2020 5137.01 3735.38 67.52 3.00 325.88 2705.05
   21:47:25.447.19-May-2020 5137.01 3739.02 67.52 3.00 326.08 2705.05
   21:47:25.647.19-May-2020 5137.01 3742.02 67.52 3.00 326.28 2705.05
   21:47:25.847.19-May-2020 5137.01 3745.07 67.52 3.00 326.48 2705.05
   21:47:26.047.19-May-2020 5137.01 3748.13 67.52 3.00 326.68 2705.05
   21:47:26.247.19-May-2020 5137.01 3751.10 67.52 3.00 326.88 2705.05
   21:47:26.448.19-May-2020 5137.01 3753.70 67.52 3.00 327.08 2705.05
   21:47:26.648.19-May-2020 5137.01 3756.82 67.52 3.00 327.28 2705.05
   21:47:26.848.19-May-2020 5137.01 3759.90 67.52 3.00 327.48 2705.05
   21:47:27.048.19-May-2020 5137.01 3762.88 67.52 3.00 327.68 2705.05
   21:47:27.248.19-May-2020 5137.01 3765.77 67.52 3.00 327.88 2705.05
   21:47:27.448.19-May-2020 5137.01 3768.68 67.52 3.00 328.08 2705.05
   21:47:27.648.19-May-2020 5137.01 3768.68 67.52 3.00 328.28 2705.05
   21:47:27.848.19-May-2020 5137.01 3773.71 67.52 3.00 328.48 2705.05
   21:47:28.048.19-May-2020 5137.01 3777.16 67.52 3.00 328.68 2705.05
   21:47:28.248.19-May-2020 5137.01 3780.01 67.52 3.00 328.88 2705.05
   21:47:28.448.19-May-2020 5137.01 3782.77 67.52 3.00 329.08 2705.05
   21:47:28.648.19-May-2020 5137.01 3782.77 67.52 3.00 329.28 2705.05
   21:47:28.848.19-May-2020 5137.01 3788.09 67.52 3.00 329.48 2705.05
   21:47:29.048.19-May-2020 5137.01 3790.99 67.52 3.00 329.68 2705.05
   21:47:29.248.19-May-2020 5137.01 3793.78 67.52 3.00 329.88 2705.05
   21:47:29.448.19-May-2020 5137.01 3796.53 67.52 3.00 330.08 2705.05
   21:47:29.648.19-May-2020 5137.01 3796.53 67.52 3.00 330.28 2705.05
   21:47:29.848.19-May-2020 5137.01 3801.85 67.52 3.00 330.48 2705.05
   21:47:30.048.19-May-2020 5137.01 3804.58 67.52 3.00 330.68 2705.05
   21:47:30.248.19-May-2020 5137.01 3807.23 67.52 3.00 330.88 2705.05
   21:47:30.449.19-May-2020 5137.01 3809.86 67.52 3.00 331.08 2705.05
   21:47:30.649.19-May-2020 5137.01 3809.86 67.52 3.00 331.28 2705.05
   21:47:30.849.19-May-2020 5137.01 3815.09 67.52 3.00 331.48 2705.05
   21:47:31.049.19-May-2020 5137.01 3817.73 67.52 3.00 331.68 2705.05
   21:47:31.249.19-May-2020 5137.01 3820.23 67.52 3.00 331.88 2705.05
   21:47:31.449.19-May-2020 5137.01 3822.83 67.52 3.00 332.08 2705.05
   21:47:31.649.19-May-2020 5137.01 3822.83 67.52 3.00 332.28 2705.05
   21:47:31.849.19-May-2020 5137.01 3827.19 67.52 3.00 332.48 2705.05
   21:47:32.049.19-May-2020 5137.01 3830.24 67.52 3.00 332.68 2705.05
   21:47:32.249.19-May-2020 5137.01 3832.69 67.52 3.00 332.88 2705.05
   21:47:32.449.19-May-2020 5137.01 3835.22 67.52 3.00 333.08 2705.05
   21:47:32.649.19-May-2020 5137.01 3835.22 67.52 3.00 333.28 2705.05
   21:47:32.849.19-May-2020 5137.01 3839.97 67.52 3.00 333.48 2705.05
   21:47:33.049.19-May-2020 5137.01 3842.45 67.52 3.00 333.68 2705.05
   21:47:33.249.19-May-2020 5137.01 3844.84 67.52 3.00 333.88 2705.05
   21:47:33.449.19-May-2020 5137.01 3847.29 67.52 3.00 334.08 2705.05
   21:47:33.649.19-May-2020 5137.01 3847.29 67.52 3.00 334.28 2705.05
   21:47:33.849.19-May-2020 5137.01 3851.94 67.52 3.00 334.48 2705.05
   21:47:34.049.19-May-2020 5137.01 3854.37 67.52 3.00 334.68 2705.05
   21:47:34.249.19-May-2020 5137.01 3856.68 67.52 3.00 334.88 2705.05
   21:47:34.450.19-May-2020 5137.01 3859.04 67.52 3.00 335.08 2705.05
   21:47:34.650.19-May-2020 5137.01 3859.04 67.52 3.00 335.28 2705.05
   21:47:34.850.19-May-2020 5137.01 3862.87 67.52 3.00 335.48 2705.05
   21:47:35.050.19-May-2020 5137.01 3866.06 67.52 3.00 335.68 2705.05
   21:47:35.250.19-May-2020 5137.01 3868.15 67.52 3.00 335.88 2705.05
   21:47:35.450.19-May-2020 5137.01 3870.44 67.52 3.00 336.08 2705.05
   21:47:35.650.19-May-2020 5137.01 3870.44 67.52 3.00 336.28 2705.05
   21:47:35.850.19-May-2020 5137.01 3874.91 67.52 3.00 336.48 2705.05
   21:47:36.050.19-May-2020 5137.01 3876.55 67.52 3.00 336.68 2705.05
   21:47:36.250.19-May-2020 5137.01 3879.41 67.52 3.00 336.88 2705.05
   21:47:36.450.19-May-2020 5137.01 3881.55 67.52 3.00 337.08 2705.05
   21:47:36.650.19-May-2020 5137.01 3881.55 67.52 3.00 337.28 2705.05
   21:47:36.850.19-May-2020 5137.01 3885.87 67.52 3.00 337.48 2705.05
   21:47:37.050.19-May-2020 5137.01 3888.09 67.52 3.00 337.68 2705.05
   21:47:37.250.19-May-2020 5137.01 3890.25 67.52 3.00 337.88 2705.05
   21:47:37.450.19-May-2020 5137.01 3892.44 67.52 3.00 338.08 2705.05
   21:47:37.650.19-May-2020 5137.01 3892.44 67.52 3.00 338.28 2705.05
   21:47:37.850.19-May-2020 5137.01 3896.65 67.52 3.00 338.48 2705.05
   21:47:38.050.19-May-2020 5137.01 3898.74 67.52 3.00 338.68 2705.05
   21:47:38.250.19-May-2020 5137.01 3900.87 67.52 3.00 338.88 2705.05
   21:47:38.451.19-May-2020 5137.01 3903.00 67.52 3.00 339.08 2705.05
   21:47:38.651.19-May-2020 5137.01 3903.00 67.52 3.00 339.28 2705.05
   21:47:38.851.19-May-2020 5137.01 3907.08 67.52 3.00 339.48 2705.05
   21:47:39.051.19-May-2020 5137.01 3909.17 67.52 3.00 339.68 2705.05
   21:47:39.251.19-May-2020 5137.01 3910.48 67.52 3.00 339.88 2705.05
   21:47:39.451.19-May-2020 5137.01 3913.12 67.52 3.00 340.08 2705.05
   21:47:39.651.19-May-2020 5137.01 3913.12 67.52 3.00 340.28 2705.05
   21:47:39.851.19-May-2020 5137.01 3917.01 67.52 3.00 340.48 2705.05
   21:47:40.051.19-May-2020 5137.01 3918.44 67.52 3.00 340.68 2705.05
   21:47:40.251.19-May-2020 5137.01 3921.00 67.52 3.00 340.88 2705.05
   21:47:40.451.19-May-2020 5137.01 3922.99 67.52 3.00 341.09 2705.05
   21:47:40.651.19-May-2020 5137.01 3922.99 67.52 3.00 341.29 2705.05
   21:47:40.851.19-May-2020 5137.01 3926.82 67.52 3.00 341.49 2705.05
   21:47:41.051.19-May-2020 5137.01 3928.78 67.52 3.00 341.69 2705.05
   21:47:41.251.19-May-2020 5137.01 3930.00 67.52 3.00 341.89 2705.05
   21:47:41.451.19-May-2020 5137.01 3932.64 67.52 3.00 342.09 2705.05
   21:47:41.651.19-May-2020 5137.01 3932.64 67.52 3.00 342.29 2705.05
   21:47:41.851.19-May-2020 5137.01 3936.27 67.52 3.00 342.49 2705.05
   21:47:42.051.19-May-2020 5137.01 3938.24 67.52 3.00 342.69 2705.05
   21:47:42.251.19-May-2020 5137.01 3940.12 67.52 3.00 342.89 2705.05
   21:47:42.452.19-May-2020 5137.01 3941.35 67.52 3.00 343.09 2705.05
   21:47:42.652.19-May-2020 5137.01 3941.35 67.52 3.00 343.29 2705.05
   21:47:42.852.19-May-2020 5137.01 3945.55 67.52 3.00 343.49 2705.05
   21:47:43.052.19-May-2020 5137.01 3947.45 67.52 3.00 343.69 2705.05
   21:47:43.252.19-May-2020 5137.01 3948.48 67.52 3.00 343.89 2705.05
   21:47:43.452.19-May-2020 5137.01 3951.19 67.52 3.00 344.09 2705.05
   21:47:43.652.19-May-2020 5137.01 3951.19 67.52 3.00 344.29 2705.05
   21:47:43.852.19-May-2020 5137.01 3954.59 67.52 3.00 344.49 2705.05
   21:47:44.052.19-May-2020 5137.01 3956.43 67.52 3.00 344.69 2705.05
   21:47:44.252.19-May-2020 5137.01 3958.13 67.52 3.00 344.89 2705.05
