~Version Information
 VERS.                  2.0:   CWLS log ASCII Standard -VERSION 2.0
 WRAP.                   NO:   One line per depth step
~Well Information Block
#MNEM.UNIT     VALUE/NAME     DESCRIPTION
#---------     -----------    ---------------------------
 STRT.S             00:06:39 20-May-20: START TIME 00:06:39 20-May-20
 STOP.S             00:17:12 20-May-20: STOP TIME  00:17:12 20-May-20
 STEP.S                   0.00: STEP TIME
 NULL.                 -999.25: NULL VALUE
 MDS .        Operator Entered:  MAG DATA SOURCE
 PDAT.          Mean Sea Level:  PERMANENT DATUM
 UNIT.                     N/A:  LOGGING EQUIPMENT ID
 DCON.         Sperry Drilling:  DIRECTNL CONTR
 DOE .                     N/A:  DOE NUMBER
 RIG .              East Azeri:  RIG NAME
 JOBN.        AZ-XX-0905856059:  JOB TICKET NUMB
 WELL.                     D36:  WELL NAME
 MWDS.                    Baku:  MWD SHOP
 SRVC.     Turan Drilling & Engineering:  CONTRACTOR
 FLD .                     ACG:  FIELD NAME
 CTRY.              Azerbaijan:  COUNTRY NAME
 PROV.                    Baku:  PROVINCE
 STAT.                    Baku:  STATE NAME
 REGN.                   EESSA:  REGION
 BASE.              Azerbaijan:  LOGGING EQUIPMENT BASE LOCATION
 UWI .                     N/A:  UNIQUE WELL IDENTIFIER
 API .                     N/A:  API NUMBER
 COMP.     BP Exploration (Caspian Sea) Ltd.:  COMPANY
 WTYP.                Deviated:  WELL TYPE
 SON .        AZ-XX-0905856059:  JOB NUMBER
 FTOP.          Formation Tops:  FORM TOPS DESC
 ILTD.               Lithology:  INTERP LTH DESC
 SVYD.                  Survey:  SURVEY DESC
 DMOD.             Drill Model:  DRILL MOD DESC
 HPTY.       Minimum Curvature:  HOLE POS TYPE
 NREF.                    Grid:  NORTH REFERENCE
 SPUD.               25-Feb-20:  SPUD DATE
 DATE.      08.55.28 01-May-20:  END TIME
 STIM.      08.55.28 25-Feb-20:  START TIME
 DMF .             Drill Floor:  DRILL MEAS FROM
 DFST.                        :  DIST FSL TEXT
 DFWT.                        :  DIST FWL TEXT
 CNTY.                        :  COUNTY
 LOC .                        :  LOCATION
 LMF .             Drill Floor:  LOG MEASURED FROM
 VSNS.m                   6.09:  VERT SEC N/S
 VSEW.m                 -10.79:  VERT SEC E/W
 AGAP.m                  43.60:  AIR GAP
 DEP .m                 388.24:  DEPTH
 APD .m                  43.60:  DEPTH ABOVE PD
 WDMS.m                 151.80:  WD ELEV
 EGL .m                   0.00:  GROUND ELEVATION
 EPD .m                   0.00:  ELEVATION
 AZTC.deg                 6.12:  AZM TOTAL CORR
 GRDC.deg                 0.30:  GRID CORRECTION
 MDEC.deg                 6.42:  MAGNETIC DECL
 MDIP.deg                59.42:  MAGNETIC DIP
 MFLD.nT              50256.00:  MAGNETIC FIELD
 GVFD.g                   1.00:  GRAVITY FIELD
 VSDR.deg               159.57:  VERT SEC DIRECT
 TDD .m                5000.01:  TOTAL DEPTH (DRILLER)
 SDEP.m                 397.00:  START DEPTH
 DFSL.m                   0.00:  DISTANCE FSL
 DFWL.m                   0.00:  DISTANCE FWL
 UTMY.m             4431880.20:  UTM Y
 UTMX.m              538763.98:  UTM X
 WHEW.m                 -10.79:  WELL HEAD E/W
 WHNS.m                   6.09:  WELL HEAD N/S
 LONG.deg                51.45:  LONGITUDE
 LATI.deg                40.02:  LATITUDE
 TVDS.m                  43.60:  TVDSS CORRECTN
 EKB .m                  43.60:  KB ELEVATION
 EDF .m                  43.60:  DF ELEVATION
 MAGU.                 1847640:  MAGUTM CHECKSUM
 VSC .                       0:  VS TO CLOSURE
~Parameter Information Block
#MNEM.UNIT       Value        Description
#---------     -----------    ---------------------------
 AV  .mps                 1.30:  Ann Velocity 
 AVMX.mps                 1.90:  Max Ann Veloc 
 AZIF.deg               115.68:  Azm, Final 
 BHAT.                   Other:  BHA Type 
 BROT.°/30m               0.74:  Build Rotating 
 BS  .in                  8.50:  Bit Size 
 BTPL.psig              430.00:  Bit Press Loss 
 CABU.                      No:  Customer Abuse 
 COMM.                     \õd:  Run Comments 1 
 TCS .hr                 51.31:  Time Ciculation Ended 
 CV  .mps                 2.52:  Crit Velocity 
 CVMX.mps                 2.62:  Max Crit Veloc 
 DD1 .          Teymur Aghayev:  Direct Drillr 1 
 DDSV.                   Other:  DD Service 
 DEFF.%                 100.00:  % Det Eff 
 DLRX.°/30m               1.62:  Dogleg Rot Max 
 DLSO.°/30m               0.74:  Dogleg Oriented 
 DLSX.°/30m               1.62:  Dogleg Str Max 
 DRET.      04.30.56 18-May-20:  Drill End Time 
 DRST.      04.30.56 18-May-20:  Drill Start Tim 
 DTIM.hr                  0.00:  Time Drilling 
 EDEP.m                5337.01:  End Depth 
 ENG1.      Artemiy Matviyanov:  Engineer 1 
 ENG2.      Bakhtiyar Jabbarli:  Engineer 2 
 ENG3.           Emil Huseynov:  Engineer 3 
 ETIM.      18.40.00 22-May-20:  End Time 
 FLOI.gpm               550.00:  Flow In 
 FLON.gpm               350.00:  Flow In Min 
 FLOS.cptm                0.00:  Fluid Loss 
 FLOX.gpm               600.00:  Flow In Max 
 HFLO.                      No:  High Flow 
 HPRE.                      No:  High Pressure 
 HTEM.                      No:  High Temp 
 HYDO.m                   1.80:  Hydro Offset 
 IFIN.deg                67.01:  Inc, Final 
 IMAX.deg                67.49:  Inc Max 
 IMIN.deg                66.50:  Inc Min 
 IMND.m                5144.79:  Inc Min Depth 
 IMXD.m                5116.12:  Inc Max Depth 
 JARR.                      No:  Jarring 
 LETM.      17.55.56 20-May-20:  Log End Time 
 LOST.hr                     0:  Lost Rig Time 
 LSTM.      04.30.56 18-May-20:  Log Start Time 
 MDCL.ppm            193153.00:  Mud Chlorides 
 MDES.     Inversion Oil/Synthetic:  Mud Desc 
 DFD .sg                  1.40:  Mud Density 
 MDMN.sg                  1.40:  Dens Mud Min 
 MDMX.sg                  1.41:  Dens Mud Max 
 MOIL.                      68:  Run Mud Oil % 
 MOWR.                   68:32:  Run Mud OWR 
 MSND.                     0.2:  Run Mud Sand % 
 MSOL.                    18.8:  Run Mud Solids% 
 DFV .spqt               80.00:  Mud Viscosity 
 MWOD.in                  6.75:  MWD Tool OD 
 MWSI.                      No:  Serv Intrp, MWD 
 OTIM.hr                104.84:  Time Operating 
 PMAX.psia            10690.93:  Press Op, Max 
 PV  .cP                 26.00:  Mud PV 
 RUN .                     900:  Run Number 
 ROPA.m/hr                0.00:  ROP Avg 
 ROPN.m/hr                0.00:  ROP Min 
 ROPX.m/hr                0.00:  ROP Max 
 RPMA.rpm               140.00:  RPM Surface Avg 
 RPMN.rpm                70.00:  RPM Surface Min 
 RPMX.rpm               140.00:  RPM Surface Max 
 RRUN.                    0900:  Rig Run Number 
 RTIM.hr                 36.00:  Time Reaming 
 SAZI.deg               115.72:  Azm, Start 
 SDEP.m                5337.01:  Start Depth 
 SIDD.                      No:  Serv Intrp, DD 
 SINC.deg                66.92:  Inc, Start 
 SPPA.psig             4400.00:  SPP Avg 
 SPPN.psig             1135.00:  SPP Min 
 SPPX.psig             4581.00:  SPP Max 
 STIM.      04.30.56 18-May-20:  Start Time 
 SVCS.                     MWD:  Services 
 SVER.                    9.20:  Sperry Version 
 TDAT.m                5337.01:  Tot Depth Attmp 
 TDDF.                      No:  Trip for DD 
 TFF .                      No:  Trip for Fail 
 TQAA.f-kp               23.00:  Torque Abs Avg 
 TQAN.f-kp               18.00:  Torque Abs Min 
 TQAX.f-kp               25.00:  Torque Abs Max 
 TRRT.°/30m               0.74:  Turn Rotating 
 MRT .                    HCIM:  Maximum Recorded Temperature 
 TTMX.degC               76.47:  Max Tool Temp 
 WBMN.klb                 0.00:  WOB Min 
 WITN.             Anar Khalil:  Customer Rep 
 WITN.      Kamran Keberlinski:  Customer Rep 2 
 WOBA.klb                 0.00:  WOB Avg 
 WOBX.klb                 0.00:  WOB Max 
 YP  .lhf2               27.00:  Yield Point 
~Curve Information Block
#MNEM.UNIT                 API CODE     Curve Description
#---------               -----------    ---------------------------
 TIME.HHMMSS            00 000 000 000:  GT Time & Date
 GTDEPTH.m              00 000 000 000:  GT Depth
 GTPQH.psia             00 000 000 000:  GT HR Quartz Pressure
 GTTQ.degC              00 000 000 000:  GT Quartz Temperature
 GTTN.NONE              00 000 000 000:  GT Test Number
 GTET.sec               00 000 000 000:  GT Elapsed Test Time
 GTTVD.m                00 000 000 000:  GT True Vertical Depth
#Other Information
#
#WARRANTY: Halliburton will use its best efforts to furnish customers with 
#accurate information and interpretations that are part of, and incident to, the services 
#provided.  However, Halliburton cannot and does not warrant the accuracy 
#or correctness of such information and interpretations.  Under no circumstances should any 
#such information or interpretation be relied upon as the sole basis for any drilling, 
#completion, production, or financial decision or any procedure involving any risk to the 
#safety of any drilling venture, drilling rig or its crew or any other third party.  The 
#Customer has full responsibility for all drilling, completion and production operation.  
#Halliburton makes no representations or warranties, either expressed or 
#implied, including, but not limited to, the implied warranties of merchantability or fitness 
#for a particular purpose, with respect to the services rendered.  In no event will 
#Halliburton be liable for failure to obtain any particular results or for 
#any damages, including, but not limited to, indirect, special or consequential damages, 
#resulting from the use of any information or interpretation provided by Halliburton.
#
~A           TIME           GTDEPTH  GTPQH  GTTQ  GTTN  GTET   GTTVD  
# ...
   00:15:28.662.20-May-2020 5121.01 3572.56 67.87 6.00 529.13 2698.81
   00:15:28.862.20-May-2020 5121.01 3572.56 67.87 6.00 529.33 2698.81
   00:15:29.062.20-May-2020 5121.01 3572.56 67.87 6.00 529.53 2698.81
   00:15:29.262.20-May-2020 5121.01 3572.58 67.87 6.00 529.73 2698.81
   00:15:29.462.20-May-2020 5121.01 3572.56 67.87 6.00 529.93 2698.81
   00:15:29.662.20-May-2020 5121.01 3572.57 67.87 6.00 530.13 2698.81
   00:15:29.862.20-May-2020 5121.01 3572.57 67.87 6.00 530.33 2698.81
   00:15:30.062.20-May-2020 5121.01 3572.50 67.87 6.00 530.53 2698.81
   00:15:30.262.20-May-2020 5121.01 3572.60 67.87 6.00 530.73 2698.81
   00:15:30.462.20-May-2020 5121.01 3572.54 67.87 6.00 530.93 2698.81
   00:15:30.662.20-May-2020 5121.01 3572.61 67.87 6.00 531.13 2698.81
   00:15:30.862.20-May-2020 5121.01 3572.61 67.87 6.00 531.33 2698.81
   00:15:31.062.20-May-2020 5121.01 3572.64 67.87 6.00 531.53 2698.81
   00:15:31.262.20-May-2020 5121.01 3572.56 67.87 6.00 531.73 2698.81
   00:15:31.462.20-May-2020 5121.01 3572.60 67.87 6.00 531.93 2698.81
   00:15:31.662.20-May-2020 5121.01 3572.56 67.87 6.00 532.13 2698.81
   00:15:31.862.20-May-2020 5121.01 3572.56 67.87 6.00 532.33 2698.81
   00:15:32.062.20-May-2020 5121.01 3572.47 67.87 6.00 532.53 2698.81
   00:15:32.262.20-May-2020 5121.01 3572.65 67.87 6.00 532.73 2698.81
   00:15:32.463.20-May-2020 5121.01 3572.53 67.87 6.00 532.93 2698.81
   00:15:32.663.20-May-2020 5121.01 3572.61 67.87 6.00 533.13 2698.81
   00:15:32.863.20-May-2020 5121.01 3572.61 67.87 6.00 533.33 2698.81
   00:15:33.063.20-May-2020 5121.01 3572.43 67.87 6.00 533.53 2698.81
   00:15:33.263.20-May-2020 5121.01 3572.73 67.87 6.00 533.73 2698.81
   00:15:33.463.20-May-2020 5121.01 3572.55 67.87 6.00 533.93 2698.81
   00:15:33.663.20-May-2020 5121.01 3572.56 67.87 6.00 534.13 2698.81
   00:15:33.863.20-May-2020 5121.01 3572.56 67.87 6.00 534.33 2698.81
   00:15:34.063.20-May-2020 5121.01 3572.56 67.87 6.00 534.53 2698.81
   00:15:34.263.20-May-2020 5121.01 3572.43 67.87 6.00 534.73 2698.81
   00:15:34.463.20-May-2020 5121.01 3572.69 67.87 6.00 534.93 2698.81
   00:15:34.663.20-May-2020 5121.01 3572.55 67.87 6.00 535.13 2698.81
   00:15:34.863.20-May-2020 5121.01 3572.55 67.87 6.00 535.33 2698.81
   00:15:35.063.20-May-2020 5121.01 3572.55 67.87 6.00 535.53 2698.81
   00:15:35.263.20-May-2020 5121.01 3572.60 67.87 6.00 535.73 2698.81
   00:15:35.463.20-May-2020 5121.01 3572.53 67.87 6.00 535.93 2698.81
   00:15:35.663.20-May-2020 5121.01 3572.58 67.87 6.00 536.13 2698.81
   00:15:35.863.20-May-2020 5121.01 3572.58 67.87 6.00 536.33 2698.81
   00:15:36.063.20-May-2020 5121.01 3572.56 67.87 6.00 536.53 2698.81
   00:15:36.263.20-May-2020 5121.01 3572.58 67.87 6.00 536.73 2698.81
   00:15:36.464.20-May-2020 5121.01 3572.56 67.87 6.00 536.93 2698.81
   00:15:36.664.20-May-2020 5121.01 3572.56 67.87 6.00 537.13 2698.81
   00:15:36.864.20-May-2020 5121.01 3572.56 67.87 6.00 537.33 2698.81
   00:15:37.064.20-May-2020 5121.01 3572.55 67.87 6.00 537.53 2698.81
   00:15:37.264.20-May-2020 5121.01 3572.58 67.87 6.00 537.73 2698.81
   00:15:37.464.20-May-2020 5121.01 3572.59 67.87 6.00 537.93 2698.81
   00:15:37.664.20-May-2020 5121.01 3572.56 67.87 6.00 538.13 2698.81
   00:15:37.864.20-May-2020 5121.01 3572.56 67.87 6.00 538.33 2698.81
   00:15:38.064.20-May-2020 5121.01 3572.50 67.87 6.00 538.53 2698.81
   00:15:38.264.20-May-2020 5121.01 3572.69 67.87 6.00 538.73 2698.81
   00:15:38.464.20-May-2020 5121.01 3572.47 67.87 6.00 538.93 2698.81
   00:15:38.664.20-May-2020 5121.01 3572.59 67.87 6.00 539.13 2698.81
   00:15:38.864.20-May-2020 5121.01 3572.59 67.87 6.00 539.33 2698.81
   00:15:39.064.20-May-2020 5121.01 3572.56 67.87 6.00 539.53 2698.81
   00:15:39.264.20-May-2020 5121.01 3572.55 67.87 6.00 539.73 2698.81
   00:15:39.464.20-May-2020 5121.01 3572.61 67.87 6.00 539.93 2698.81
   00:15:39.664.20-May-2020 5121.01 3572.49 67.87 6.00 540.13 2698.81
   00:15:39.864.20-May-2020 5121.01 3572.49 67.87 6.00 540.33 2698.81
   00:15:40.064.20-May-2020 5121.01 3572.56 67.87 6.00 540.53 2698.81
   00:15:40.264.20-May-2020 5121.01 3572.64 67.87 6.00 540.73 2698.81
   00:15:40.465.20-May-2020 5121.01 3572.53 67.87 6.00 540.93 2698.81
   00:15:40.665.20-May-2020 5121.01 3572.55 67.87 6.00 541.13 2698.81
   00:15:40.865.20-May-2020 5121.01 3572.55 67.87 6.00 541.33 2698.81
   00:15:41.065.20-May-2020 5121.01 3572.56 67.87 6.00 541.53 2698.81
   00:15:41.265.20-May-2020 5121.01 3572.61 67.87 6.00 541.74 2698.81
   00:15:41.465.20-May-2020 5121.01 3572.54 67.87 6.00 541.94 2698.81
   00:15:41.665.20-May-2020 5121.01 3572.57 67.87 6.00 542.14 2698.81
   00:15:41.865.20-May-2020 5121.01 3572.57 67.87 6.00 542.34 2698.81
   00:15:42.065.20-May-2020 5121.01 3572.56 67.87 6.00 542.54 2698.81
   00:15:42.265.20-May-2020 5121.01 3572.60 67.87 6.00 542.74 2698.81
   00:15:42.465.20-May-2020 5121.01 3572.57 67.87 6.00 542.94 2698.81
   00:15:42.665.20-May-2020 5121.01 3572.56 67.87 6.00 543.14 2698.81
   00:15:42.865.20-May-2020 5121.01 3572.56 67.87 6.00 543.34 2698.81
   00:15:43.065.20-May-2020 5121.01 3572.55 67.87 6.00 543.54 2698.81
   00:15:43.265.20-May-2020 5121.01 3572.58 67.87 6.00 543.74 2698.81
   00:15:43.465.20-May-2020 5121.01 3572.54 67.87 6.00 543.94 2698.81
   00:15:43.665.20-May-2020 5121.01 3572.58 67.87 6.00 544.14 2698.81
   00:15:43.865.20-May-2020 5121.01 3572.58 67.87 6.00 544.34 2698.81
   00:15:44.065.20-May-2020 5121.01 3572.56 67.87 6.00 544.54 2698.81
   00:15:44.265.20-May-2020 5121.01 3572.58 67.87 6.00 544.74 2698.81
   00:15:44.466.20-May-2020 5121.01 3572.56 67.87 6.00 544.94 2698.81
   00:15:44.666.20-May-2020 5121.01 3572.58 67.87 6.00 545.14 2698.81
   00:15:44.866.20-May-2020 5121.01 3572.58 67.87 6.00 545.34 2698.81
   00:15:45.066.20-May-2020 5121.01 3572.69 67.87 6.00 545.54 2698.81
   00:15:45.266.20-May-2020 5121.01 3572.59 67.87 6.00 545.74 2698.81
   00:15:45.466.20-May-2020 5121.01 3572.56 67.87 6.00 545.94 2698.81
   00:15:45.666.20-May-2020 5121.01 3572.56 67.87 6.00 546.14 2698.81
   00:15:45.866.20-May-2020 5121.01 3572.56 67.87 6.00 546.34 2698.81
   00:15:46.066.20-May-2020 5121.01 3572.52 67.87 6.00 546.54 2698.81
   00:15:46.266.20-May-2020 5121.01 3572.62 67.87 6.00 546.74 2698.81
   00:15:46.466.20-May-2020 5121.01 3572.51 67.87 6.00 546.94 2698.81
   00:15:46.666.20-May-2020 5121.01 3572.61 67.87 6.00 547.14 2698.81
   00:15:46.866.20-May-2020 5121.01 3572.57 67.87 6.00 547.34 2698.81
   00:15:47.066.20-May-2020 5121.01 3572.58 67.87 6.00 547.54 2698.81
   00:15:47.266.20-May-2020 5121.01 3572.58 67.87 6.00 547.74 2698.81
   00:15:47.466.20-May-2020 5121.01 3572.56 67.87 6.00 547.94 2698.81
   00:15:47.666.20-May-2020 5121.01 3572.52 67.87 6.00 548.14 2698.81
   00:15:47.866.20-May-2020 5121.01 3572.52 67.87 6.00 548.34 2698.81
   00:15:48.066.20-May-2020 5121.01 3572.52 67.87 6.00 548.54 2698.81
   00:15:48.266.20-May-2020 5121.01 3572.60 67.87 6.00 548.74 2698.81
   00:15:48.467.20-May-2020 5121.01 3572.48 67.87 6.00 548.94 2698.81
   00:15:48.667.20-May-2020 5121.01 3572.63 67.87 6.00 549.14 2698.81
   00:15:48.867.20-May-2020 5121.01 3572.63 67.87 6.00 549.34 2698.81
   00:15:49.067.20-May-2020 5121.01 3572.60 67.87 6.00 549.54 2698.81
   00:15:49.267.20-May-2020 5121.01 3572.56 67.87 6.00 549.74 2698.81
   00:15:49.467.20-May-2020 5121.01 3572.58 67.87 6.00 549.94 2698.81
   00:15:49.667.20-May-2020 5121.01 3572.48 67.87 6.00 550.14 2698.81
   00:15:49.867.20-May-2020 5121.01 3572.48 67.87 6.00 550.34 2698.81
   00:15:50.067.20-May-2020 5121.01 3572.52 67.87 6.00 550.54 2698.81
   00:15:50.267.20-May-2020 5121.01 3572.64 67.87 6.00 550.74 2698.81
   00:15:50.467.20-May-2020 5121.01 3572.52 67.87 6.00 550.94 2698.81
   00:15:50.667.20-May-2020 5121.01 3572.58 67.87 6.00 551.14 2698.81
   00:15:50.867.20-May-2020 5121.01 3572.58 67.87 6.00 551.34 2698.81
   00:15:51.067.20-May-2020 5121.01 3572.55 67.87 6.00 551.54 2698.81
   00:15:51.267.20-May-2020 5121.01 3572.59 67.88 6.00 551.74 2698.81
   00:15:51.467.20-May-2020 5121.01 3572.56 67.87 6.00 551.94 2698.81
