~Version Information
 VERS.                  2.0:   CWLS log ASCII Standard -VERSION 2.0
 WRAP.                   NO:   One line per depth step
~Well Information Block
#MNEM.UNIT     VALUE/NAME     DESCRIPTION
#---------     -----------    ---------------------------
 STRT.S             21:41:59 19-May-20: START TIME 21:41:59 19-May-20
 STOP.S             21:48:44 19-May-20: STOP TIME  21:48:44 19-May-20
 STEP.S                   0.00: STEP TIME
 NULL.                 -999.25: NULL VALUE
 MDS .        Operator Entered:  MAG DATA SOURCE
 PDAT.          Mean Sea Level:  PERMANENT DATUM
 UNIT.                     N/A:  LOGGING EQUIPMENT ID
 DCON.         Sperry Drilling:  DIRECTNL CONTR
 DOE .                     N/A:  DOE NUMBER
 RIG .              East Azeri:  RIG NAME
 JOBN.        AZ-XX-0905856059:  JOB TICKET NUMB
 WELL.                     D36:  WELL NAME
 MWDS.                    Baku:  MWD SHOP
 SRVC.     Turan Drilling & Engineering:  CONTRACTOR
 FLD .                     ACG:  FIELD NAME
 CTRY.              Azerbaijan:  COUNTRY NAME
 PROV.                    Baku:  PROVINCE
 STAT.                    Baku:  STATE NAME
 REGN.                   EESSA:  REGION
 BASE.              Azerbaijan:  LOGGING EQUIPMENT BASE LOCATION
 UWI .                     N/A:  UNIQUE WELL IDENTIFIER
 API .                     N/A:  API NUMBER
 COMP.     BP Exploration (Caspian Sea) Ltd.:  COMPANY
 WTYP.                Deviated:  WELL TYPE
 SON .        AZ-XX-0905856059:  JOB NUMBER
 FTOP.          Formation Tops:  FORM TOPS DESC
 ILTD.               Lithology:  INTERP LTH DESC
 SVYD.                  Survey:  SURVEY DESC
 DMOD.             Drill Model:  DRILL MOD DESC
 HPTY.       Minimum Curvature:  HOLE POS TYPE
 NREF.                    Grid:  NORTH REFERENCE
 SPUD.               25-Feb-20:  SPUD DATE
 DATE.      08.55.28 01-May-20:  END TIME
 STIM.      08.55.28 25-Feb-20:  START TIME
 DMF .             Drill Floor:  DRILL MEAS FROM
 DFST.                        :  DIST FSL TEXT
 DFWT.                        :  DIST FWL TEXT
 CNTY.                        :  COUNTY
 LOC .                        :  LOCATION
 LMF .             Drill Floor:  LOG MEASURED FROM
 VSNS.m                   6.09:  VERT SEC N/S
 VSEW.m                 -10.79:  VERT SEC E/W
 AGAP.m                  43.60:  AIR GAP
 DEP .m                 388.24:  DEPTH
 APD .m                  43.60:  DEPTH ABOVE PD
 WDMS.m                 151.80:  WD ELEV
 EGL .m                   0.00:  GROUND ELEVATION
 EPD .m                   0.00:  ELEVATION
 AZTC.deg                 6.12:  AZM TOTAL CORR
 GRDC.deg                 0.30:  GRID CORRECTION
 MDEC.deg                 6.42:  MAGNETIC DECL
 MDIP.deg                59.42:  MAGNETIC DIP
 MFLD.nT              50256.00:  MAGNETIC FIELD
 GVFD.g                   1.00:  GRAVITY FIELD
 VSDR.deg               159.57:  VERT SEC DIRECT
 TDD .m                5000.01:  TOTAL DEPTH (DRILLER)
 SDEP.m                 397.00:  START DEPTH
 DFSL.m                   0.00:  DISTANCE FSL
 DFWL.m                   0.00:  DISTANCE FWL
 UTMY.m             4431880.20:  UTM Y
 UTMX.m              538763.98:  UTM X
 WHEW.m                 -10.79:  WELL HEAD E/W
 WHNS.m                   6.09:  WELL HEAD N/S
 LONG.deg                51.45:  LONGITUDE
 LATI.deg                40.02:  LATITUDE
 TVDS.m                  43.60:  TVDSS CORRECTN
 EKB .m                  43.60:  KB ELEVATION
 EDF .m                  43.60:  DF ELEVATION
 MAGU.                 1847640:  MAGUTM CHECKSUM
 VSC .                       0:  VS TO CLOSURE
~Parameter Information Block
#MNEM.UNIT       Value        Description
#---------     -----------    ---------------------------
 AV  .mps                 1.30:  Ann Velocity 
 AVMX.mps                 1.90:  Max Ann Veloc 
 AZIF.deg               115.68:  Azm, Final 
 BHAT.                   Other:  BHA Type 
 BROT.°/30m               0.74:  Build Rotating 
 BS  .in                  8.50:  Bit Size 
 BTPL.psig              430.00:  Bit Press Loss 
 CABU.                      No:  Customer Abuse 
 COMM.                     „äS:  Run Comments 1 
 TCS .hr                 51.31:  Time Ciculation Ended 
 CV  .mps                 2.52:  Crit Velocity 
 CVMX.mps                 2.62:  Max Crit Veloc 
 DD1 .          Teymur Aghayev:  Direct Drillr 1 
 DDSV.                   Other:  DD Service 
 DEFF.%                 100.00:  % Det Eff 
 DLRX.°/30m               1.62:  Dogleg Rot Max 
 DLSO.°/30m               0.74:  Dogleg Oriented 
 DLSX.°/30m               1.62:  Dogleg Str Max 
 DRET.      04.30.56 18-May-20:  Drill End Time 
 DRST.      04.30.56 18-May-20:  Drill Start Tim 
 DTIM.hr                  0.00:  Time Drilling 
 EDEP.m                5337.01:  End Depth 
 ENG1.      Artemiy Matviyanov:  Engineer 1 
 ENG2.      Bakhtiyar Jabbarli:  Engineer 2 
 ENG3.           Emil Huseynov:  Engineer 3 
 ETIM.      18.40.00 22-May-20:  End Time 
 FLOI.gpm               550.00:  Flow In 
 FLON.gpm               350.00:  Flow In Min 
 FLOS.cptm                0.00:  Fluid Loss 
 FLOX.gpm               600.00:  Flow In Max 
 HFLO.                      No:  High Flow 
 HPRE.                      No:  High Pressure 
 HTEM.                      No:  High Temp 
 HYDO.m                   1.80:  Hydro Offset 
 IFIN.deg                67.01:  Inc, Final 
 IMAX.deg                67.49:  Inc Max 
 IMIN.deg                66.50:  Inc Min 
 IMND.m                5144.79:  Inc Min Depth 
 IMXD.m                5116.12:  Inc Max Depth 
 JARR.                      No:  Jarring 
 LETM.      17.55.56 20-May-20:  Log End Time 
 LOST.hr                     0:  Lost Rig Time 
 LSTM.      04.30.56 18-May-20:  Log Start Time 
 MDCL.ppm            193153.00:  Mud Chlorides 
 MDES.     Inversion Oil/Synthetic:  Mud Desc 
 DFD .sg                  1.40:  Mud Density 
 MDMN.sg                  1.40:  Dens Mud Min 
 MDMX.sg                  1.41:  Dens Mud Max 
 MOIL.                      68:  Run Mud Oil % 
 MOWR.                   68:32:  Run Mud OWR 
 MSND.                     0.2:  Run Mud Sand % 
 MSOL.                    18.8:  Run Mud Solids% 
 DFV .spqt               80.00:  Mud Viscosity 
 MWOD.in                  6.75:  MWD Tool OD 
 MWSI.                      No:  Serv Intrp, MWD 
 OTIM.hr                104.84:  Time Operating 
 PMAX.psia            10690.93:  Press Op, Max 
 PV  .cP                 26.00:  Mud PV 
 RUN .                     900:  Run Number 
 ROPA.m/hr                0.00:  ROP Avg 
 ROPN.m/hr                0.00:  ROP Min 
 ROPX.m/hr                0.00:  ROP Max 
 RPMA.rpm               140.00:  RPM Surface Avg 
 RPMN.rpm                70.00:  RPM Surface Min 
 RPMX.rpm               140.00:  RPM Surface Max 
 RRUN.                    0900:  Rig Run Number 
 RTIM.hr                 36.00:  Time Reaming 
 SAZI.deg               115.72:  Azm, Start 
 SDEP.m                5337.01:  Start Depth 
 SIDD.                      No:  Serv Intrp, DD 
 SINC.deg                66.92:  Inc, Start 
 SPPA.psig             4400.00:  SPP Avg 
 SPPN.psig             1135.00:  SPP Min 
 SPPX.psig             4581.00:  SPP Max 
 STIM.      04.30.56 18-May-20:  Start Time 
 SVCS.                     MWD:  Services 
 SVER.                    9.20:  Sperry Version 
 TDAT.m                5337.01:  Tot Depth Attmp 
 TDDF.                      No:  Trip for DD 
 TFF .                      No:  Trip for Fail 
 TQAA.f-kp               23.00:  Torque Abs Avg 
 TQAN.f-kp               18.00:  Torque Abs Min 
 TQAX.f-kp               25.00:  Torque Abs Max 
 TRRT.°/30m               0.74:  Turn Rotating 
 MRT .                    HCIM:  Maximum Recorded Temperature 
 TTMX.degC               76.47:  Max Tool Temp 
 WBMN.klb                 0.00:  WOB Min 
 WITN.             Anar Khalil:  Customer Rep 
 WITN.      Kamran Keberlinski:  Customer Rep 2 
 WOBA.klb                 0.00:  WOB Avg 
 WOBX.klb                 0.00:  WOB Max 
 YP  .lhf2               27.00:  Yield Point 
~Curve Information Block
#MNEM.UNIT                 API CODE     Curve Description
#---------               -----------    ---------------------------
 TIME.HHMMSS            00 000 000 000:  GT Time & Date
 GTDEPTH.m              00 000 000 000:  GT Depth
 GTPQH.psia             00 000 000 000:  GT HR Quartz Pressure
 GTTQ.degC              00 000 000 000:  GT Quartz Temperature
 GTTN.NONE              00 000 000 000:  GT Test Number
 GTET.sec               00 000 000 000:  GT Elapsed Test Time
 GTTVD.m                00 000 000 000:  GT True Vertical Depth
#Other Information
#
#WARRANTY: Halliburton will use its best efforts to furnish customers with 
#accurate information and interpretations that are part of, and incident to, the services 
#provided.  However, Halliburton cannot and does not warrant the accuracy 
#or correctness of such information and interpretations.  Under no circumstances should any 
#such information or interpretation be relied upon as the sole basis for any drilling, 
#completion, production, or financial decision or any procedure involving any risk to the 
#safety of any drilling venture, drilling rig or its crew or any other third party.  The 
#Customer has full responsibility for all drilling, completion and production operation.  
#Halliburton makes no representations or warranties, either expressed or 
#implied, including, but not limited to, the implied warranties of merchantability or fitness 
#for a particular purpose, with respect to the services rendered.  In no event will 
#Halliburton be liable for failure to obtain any particular results or for 
#any damages, including, but not limited to, indirect, special or consequential damages, 
#resulting from the use of any information or interpretation provided by Halliburton.
#
~A           TIME           GTDEPTH  GTPQH  GTTQ  GTTN  GTET   GTTVD  
# ...
   21:48:07.458.19-May-2020 5137.01 6453.15 67.52 3.00 368.09 2705.05
   21:48:07.658.19-May-2020 5137.01 6453.15 67.52 3.00 368.29 2705.05
   21:48:07.858.19-May-2020 5137.01 6455.63 67.52 3.00 368.49 2705.05
   21:48:08.058.19-May-2020 5137.01 6454.11 67.52 3.00 368.69 2705.05
   21:48:08.258.19-May-2020 5137.01 6454.77 67.53 3.00 368.89 2705.05
   21:48:08.458.19-May-2020 5137.01 6456.04 67.53 3.00 369.09 2705.05
   21:48:08.658.19-May-2020 5137.01 6456.04 67.53 3.00 369.29 2705.05
   21:48:08.858.19-May-2020 5137.01 6455.58 67.53 3.00 369.49 2705.05
   21:48:09.058.19-May-2020 5137.01 6457.29 67.53 3.00 369.69 2705.05
   21:48:09.258.19-May-2020 5137.01 6456.15 67.53 3.00 369.89 2705.05
   21:48:09.458.19-May-2020 5137.01 6457.20 67.54 3.00 370.09 2705.05
   21:48:09.658.19-May-2020 5137.01 6457.20 67.54 3.00 370.29 2705.05
   21:48:09.858.19-May-2020 5137.01 6456.12 67.54 3.00 370.49 2705.05
   21:48:10.058.19-May-2020 5137.01 6457.07 67.54 3.00 370.69 2705.05
   21:48:10.258.19-May-2020 5137.01 6460.14 67.54 3.00 370.89 2705.05
   21:48:10.459.19-May-2020 5137.01 6455.38 67.54 3.00 371.09 2705.05
   21:48:10.659.19-May-2020 5137.01 6455.38 67.55 3.00 371.29 2705.05
   21:48:10.859.19-May-2020 5137.01 6457.15 67.55 3.00 371.49 2705.05
   21:48:11.059.19-May-2020 5137.01 6457.77 67.55 3.00 371.69 2705.05
   21:48:11.259.19-May-2020 5137.01 6458.63 67.55 3.00 371.89 2705.05
   21:48:11.459.19-May-2020 5137.01 6457.55 67.55 3.00 372.09 2705.05
   21:48:11.659.19-May-2020 5137.01 6457.55 67.55 3.00 372.29 2705.05
   21:48:11.859.19-May-2020 5137.01 6456.19 67.56 3.00 372.49 2705.05
   21:48:12.059.19-May-2020 5137.01 6458.52 67.56 3.00 372.69 2705.05
   21:48:12.259.19-May-2020 5137.01 6455.28 67.56 3.00 372.89 2705.05
   21:48:12.459.19-May-2020 5137.01 6456.81 67.56 3.00 373.09 2705.05
   21:48:12.659.19-May-2020 5137.01 6455.67 67.56 3.00 373.29 2705.05
   21:48:12.859.19-May-2020 5137.01 6456.25 67.56 3.00 373.49 2705.05
   21:48:13.059.19-May-2020 5137.01 6455.98 67.56 3.00 373.69 2705.05
   21:48:13.259.19-May-2020 5137.01 6455.33 67.56 3.00 373.89 2705.05
   21:48:13.459.19-May-2020 5137.01 6455.49 67.56 3.00 374.09 2705.05
   21:48:13.659.19-May-2020 5137.01 6455.61 67.57 3.00 374.29 2705.05
   21:48:13.859.19-May-2020 5137.01 6455.32 67.57 3.00 374.49 2705.05
   21:48:14.059.19-May-2020 5137.01 6455.60 67.57 3.00 374.69 2705.05
   21:48:14.259.19-May-2020 5137.01 6458.38 67.57 3.00 374.89 2705.05
   21:48:14.460.19-May-2020 5137.01 6455.84 67.57 3.00 375.09 2705.05
   21:48:14.660.19-May-2020 5137.01 6455.84 67.57 3.00 375.29 2705.05
   21:48:14.860.19-May-2020 5137.01 6455.64 67.57 3.00 375.49 2705.05
   21:48:15.060.19-May-2020 5137.01 6460.58 67.57 3.00 375.69 2705.05
   21:48:15.260.19-May-2020 5137.01 6456.34 67.57 3.00 375.89 2705.05
   21:48:15.460.19-May-2020 5137.01 6458.61 67.57 3.00 376.09 2705.05
   21:48:15.660.19-May-2020 5137.01 6458.61 67.57 3.00 376.29 2705.05
   21:48:15.860.19-May-2020 5137.01 6457.09 67.57 3.00 376.49 2705.05
   21:48:16.060.19-May-2020 5137.01 6461.33 67.57 3.00 376.69 2705.05
   21:48:16.260.19-May-2020 5137.01 6456.24 67.57 3.00 376.89 2705.05
   21:48:16.460.19-May-2020 5137.01 6459.94 67.57 3.00 377.09 2705.05
   21:48:16.660.19-May-2020 5137.01 6459.94 67.57 3.00 377.29 2705.05
   21:48:16.860.19-May-2020 5137.01 6461.04 67.57 3.00 377.49 2705.05
   21:48:17.060.19-May-2020 5137.01 6458.02 67.58 3.00 377.69 2705.05
   21:48:17.260.19-May-2020 5137.01 6458.15 67.58 3.00 377.89 2705.05
   21:48:17.460.19-May-2020 5137.01 6459.30 67.58 3.00 378.09 2705.05
   21:48:17.660.19-May-2020 5137.01 6459.30 67.58 3.00 378.29 2705.05
   21:48:17.860.19-May-2020 5137.01 6457.75 67.58 3.00 378.49 2705.05
   21:48:18.060.19-May-2020 5137.01 6461.94 67.58 3.00 378.69 2705.05
   21:48:18.260.19-May-2020 5137.01 6455.87 67.58 3.00 378.89 2705.05
   21:48:18.461.19-May-2020 5137.01 6459.64 67.58 3.00 379.09 2705.05
   21:48:18.661.19-May-2020 5137.01 6459.64 67.58 3.00 379.29 2705.05
   21:48:18.861.19-May-2020 5137.01 6458.20 67.58 3.00 379.49 2705.05
   21:48:19.061.19-May-2020 5137.01 6456.91 67.58 3.00 379.69 2705.05
   21:48:19.261.19-May-2020 5137.01 6457.59 67.58 3.00 379.89 2705.05
   21:48:19.461.19-May-2020 5137.01 6457.19 67.58 3.00 380.09 2705.05
   21:48:19.661.19-May-2020 5137.01 6457.19 67.58 3.00 380.29 2705.05
   21:48:19.861.19-May-2020 5137.01 6456.60 67.58 3.00 380.49 2705.05
   21:48:20.061.19-May-2020 5137.01 6456.96 67.58 3.00 380.69 2705.05
   21:48:20.261.19-May-2020 5137.01 6456.04 67.58 3.00 380.89 2705.05
   21:48:20.461.19-May-2020 5137.01 6456.16 67.58 3.00 381.09 2705.05
   21:48:20.661.19-May-2020 5137.01 6456.16 67.58 3.00 381.30 2705.05
   21:48:20.861.19-May-2020 5137.01 6455.44 67.58 3.00 381.50 2705.05
   21:48:21.061.19-May-2020 5137.01 6459.63 67.58 3.00 381.70 2705.05
   21:48:21.261.19-May-2020 5137.01 6455.18 67.58 3.00 381.90 2705.05
   21:48:21.461.19-May-2020 5137.01 6457.72 67.58 3.00 382.10 2705.05
   21:48:21.661.19-May-2020 5137.01 6457.72 67.58 3.00 382.30 2705.05
   21:48:21.861.19-May-2020 5137.01 6456.77 67.58 3.00 382.50 2705.05
   21:48:22.061.19-May-2020 5137.01 6459.61 67.58 3.00 382.70 2705.05
   21:48:22.261.19-May-2020 5137.01 6456.19 67.58 3.00 382.90 2705.05
   21:48:22.462.19-May-2020 5137.01 6459.24 67.58 3.00 383.10 2705.05
   21:48:22.662.19-May-2020 5137.01 6459.24 67.58 3.00 383.30 2705.05
   21:48:22.862.19-May-2020 5137.01 6460.91 67.58 3.00 383.50 2705.05
   21:48:23.062.19-May-2020 5137.01 6457.74 67.58 3.00 383.70 2705.05
   21:48:23.262.19-May-2020 5137.01 6458.55 67.58 3.00 383.90 2705.05
   21:48:23.462.19-May-2020 5137.01 6459.32 67.58 3.00 384.10 2705.05
   21:48:23.662.19-May-2020 5137.01 6459.32 67.58 3.00 384.30 2705.05
   21:48:23.862.19-May-2020 5137.01 6460.57 67.57 3.00 384.50 2705.05
   21:48:24.062.19-May-2020 5137.01 6458.59 67.57 3.00 384.70 2705.05
   21:48:24.262.19-May-2020 5137.01 6459.05 67.57 3.00 384.90 2705.05
   21:48:24.462.19-May-2020 5137.01 6459.55 67.57 3.00 385.10 2705.05
   21:48:24.662.19-May-2020 5137.01 6459.55 67.57 3.00 385.30 2705.05
   21:48:24.862.19-May-2020 5137.01 6458.27 67.57 3.00 385.50 2705.05
   21:48:25.062.19-May-2020 5137.01 6461.64 67.57 3.00 385.70 2705.05
   21:48:25.262.19-May-2020 5137.01 6455.80 67.57 3.00 385.90 2705.05
   21:48:25.462.19-May-2020 5137.01 6459.86 67.57 3.00 386.10 2705.05
   21:48:25.662.19-May-2020 5137.01 6459.86 67.57 3.00 386.30 2705.05
   21:48:25.862.19-May-2020 5137.01 6458.39 67.57 3.00 386.50 2705.05
   21:48:26.062.19-May-2020 5137.01 6456.85 67.57 3.00 386.70 2705.05
   21:48:26.262.19-May-2020 5137.01 6457.02 67.57 3.00 386.90 2705.05
   21:48:26.463.19-May-2020 5137.01 6457.16 67.57 3.00 387.10 2705.05
   21:48:26.663.19-May-2020 5137.01 6457.16 67.57 3.00 387.30 2705.05
   21:48:26.863.19-May-2020 5137.01 6456.70 67.57 3.00 387.50 2705.05
   21:48:27.063.19-May-2020 5137.01 6457.08 67.57 3.00 387.70 2705.05
   21:48:27.263.19-May-2020 5137.01 6455.97 67.57 3.00 387.90 2705.05
   21:48:27.463.19-May-2020 5137.01 6456.26 67.57 3.00 388.10 2705.05
   21:48:27.663.19-May-2020 5137.01 6456.26 67.57 3.00 388.30 2705.05
   21:48:27.863.19-May-2020 5137.01 6456.05 67.57 3.00 388.50 2705.05
   21:48:28.063.19-May-2020 5137.01 6459.98 67.57 3.00 388.70 2705.05
   21:48:28.263.19-May-2020 5137.01 6455.26 67.57 3.00 388.90 2705.05
   21:48:28.463.19-May-2020 5137.01 6457.92 67.57 3.00 389.10 2705.05
   21:48:28.663.19-May-2020 5137.01 6457.92 67.57 3.00 389.30 2705.05
   21:48:28.863.19-May-2020 5137.01 6457.32 67.57 3.00 389.50 2705.05
   21:48:29.063.19-May-2020 5137.01 6459.82 67.57 3.00 389.70 2705.05
   21:48:29.263.19-May-2020 5137.01 6456.01 67.57 3.00 389.90 2705.05
   21:48:29.463.19-May-2020 5137.01 6459.43 67.57 3.00 390.10 2705.05
   21:48:29.663.19-May-2020 5137.01 6459.43 67.57 3.00 390.30 2705.05
   21:48:29.863.19-May-2020 5137.01 6458.46 67.57 3.00 390.50 2705.05
   21:48:30.063.19-May-2020 5137.01 6459.94 67.57 3.00 390.70 2705.05
   21:48:30.263.19-May-2020 5137.01 6457.73 67.57 3.00 390.90 2705.05
