~Version Information
 VERS.                  2.0:   CWLS log ASCII Standard -VERSION 2.0
 WRAP.                   NO:   One line per depth step
~Well Information Block
#MNEM.UNIT     VALUE/NAME     DESCRIPTION
#---------     -----------    ---------------------------
 STRT.S             22:24:43 19-May-20: START TIME 22:24:43 19-May-20
 STOP.S             22:33:01 19-May-20: STOP TIME  22:33:01 19-May-20
 STEP.S                   0.00: STEP TIME
 NULL.                 -999.25: NULL VALUE
 MDS .        Operator Entered:  MAG DATA SOURCE
 PDAT.          Mean Sea Level:  PERMANENT DATUM
 UNIT.                     N/A:  LOGGING EQUIPMENT ID
 DCON.         Sperry Drilling:  DIRECTNL CONTR
 DOE .                     N/A:  DOE NUMBER
 RIG .              East Azeri:  RIG NAME
 JOBN.        AZ-XX-0905856059:  JOB TICKET NUMB
 WELL.                     D36:  WELL NAME
 MWDS.                    Baku:  MWD SHOP
 SRVC.     Turan Drilling & Engineering:  CONTRACTOR
 FLD .                     ACG:  FIELD NAME
 CTRY.              Azerbaijan:  COUNTRY NAME
 PROV.                    Baku:  PROVINCE
 STAT.                    Baku:  STATE NAME
 REGN.                   EESSA:  REGION
 BASE.              Azerbaijan:  LOGGING EQUIPMENT BASE LOCATION
 UWI .                     N/A:  UNIQUE WELL IDENTIFIER
 API .                     N/A:  API NUMBER
 COMP.     BP Exploration (Caspian Sea) Ltd.:  COMPANY
 WTYP.                Deviated:  WELL TYPE
 SON .        AZ-XX-0905856059:  JOB NUMBER
 FTOP.          Formation Tops:  FORM TOPS DESC
 ILTD.               Lithology:  INTERP LTH DESC
 SVYD.                  Survey:  SURVEY DESC
 DMOD.             Drill Model:  DRILL MOD DESC
 HPTY.       Minimum Curvature:  HOLE POS TYPE
 NREF.                    Grid:  NORTH REFERENCE
 SPUD.               25-Feb-20:  SPUD DATE
 DATE.      08.55.28 01-May-20:  END TIME
 STIM.      08.55.28 25-Feb-20:  START TIME
 DMF .             Drill Floor:  DRILL MEAS FROM
 DFST.                        :  DIST FSL TEXT
 DFWT.                        :  DIST FWL TEXT
 CNTY.                        :  COUNTY
 LOC .                        :  LOCATION
 LMF .             Drill Floor:  LOG MEASURED FROM
 VSNS.m                   6.09:  VERT SEC N/S
 VSEW.m                 -10.79:  VERT SEC E/W
 AGAP.m                  43.60:  AIR GAP
 DEP .m                 388.24:  DEPTH
 APD .m                  43.60:  DEPTH ABOVE PD
 WDMS.m                 151.80:  WD ELEV
 EGL .m                   0.00:  GROUND ELEVATION
 EPD .m                   0.00:  ELEVATION
 AZTC.deg                 6.12:  AZM TOTAL CORR
 GRDC.deg                 0.30:  GRID CORRECTION
 MDEC.deg                 6.42:  MAGNETIC DECL
 MDIP.deg                59.42:  MAGNETIC DIP
 MFLD.nT              50256.00:  MAGNETIC FIELD
 GVFD.g                   1.00:  GRAVITY FIELD
 VSDR.deg               159.57:  VERT SEC DIRECT
 TDD .m                5000.01:  TOTAL DEPTH (DRILLER)
 SDEP.m                 397.00:  START DEPTH
 DFSL.m                   0.00:  DISTANCE FSL
 DFWL.m                   0.00:  DISTANCE FWL
 UTMY.m             4431880.20:  UTM Y
 UTMX.m              538763.98:  UTM X
 WHEW.m                 -10.79:  WELL HEAD E/W
 WHNS.m                   6.09:  WELL HEAD N/S
 LONG.deg                51.45:  LONGITUDE
 LATI.deg                40.02:  LATITUDE
 TVDS.m                  43.60:  TVDSS CORRECTN
 EKB .m                  43.60:  KB ELEVATION
 EDF .m                  43.60:  DF ELEVATION
 MAGU.                 1847640:  MAGUTM CHECKSUM
 VSC .                       0:  VS TO CLOSURE
~Parameter Information Block
#MNEM.UNIT       Value        Description
#---------     -----------    ---------------------------
 AV  .mps                 1.30:  Ann Velocity 
 AVMX.mps                 1.90:  Max Ann Veloc 
 AZIF.deg               115.68:  Azm, Final 
 BHAT.                   Other:  BHA Type 
 BROT.°/30m               0.74:  Build Rotating 
 BS  .in                  8.50:  Bit Size 
 BTPL.psig              430.00:  Bit Press Loss 
 CABU.                      No:  Customer Abuse 
 COMM.                     ”le:  Run Comments 1 
 TCS .hr                 51.31:  Time Ciculation Ended 
 CV  .mps                 2.52:  Crit Velocity 
 CVMX.mps                 2.62:  Max Crit Veloc 
 DD1 .          Teymur Aghayev:  Direct Drillr 1 
 DDSV.                   Other:  DD Service 
 DEFF.%                 100.00:  % Det Eff 
 DLRX.°/30m               1.62:  Dogleg Rot Max 
 DLSO.°/30m               0.74:  Dogleg Oriented 
 DLSX.°/30m               1.62:  Dogleg Str Max 
 DRET.      04.30.56 18-May-20:  Drill End Time 
 DRST.      04.30.56 18-May-20:  Drill Start Tim 
 DTIM.hr                  0.00:  Time Drilling 
 EDEP.m                5337.01:  End Depth 
 ENG1.      Artemiy Matviyanov:  Engineer 1 
 ENG2.      Bakhtiyar Jabbarli:  Engineer 2 
 ENG3.           Emil Huseynov:  Engineer 3 
 ETIM.      18.40.00 22-May-20:  End Time 
 FLOI.gpm               550.00:  Flow In 
 FLON.gpm               350.00:  Flow In Min 
 FLOS.cptm                0.00:  Fluid Loss 
 FLOX.gpm               600.00:  Flow In Max 
 HFLO.                      No:  High Flow 
 HPRE.                      No:  High Pressure 
 HTEM.                      No:  High Temp 
 HYDO.m                   1.80:  Hydro Offset 
 IFIN.deg                67.01:  Inc, Final 
 IMAX.deg                67.49:  Inc Max 
 IMIN.deg                66.50:  Inc Min 
 IMND.m                5144.79:  Inc Min Depth 
 IMXD.m                5116.12:  Inc Max Depth 
 JARR.                      No:  Jarring 
 LETM.      17.55.56 20-May-20:  Log End Time 
 LOST.hr                     0:  Lost Rig Time 
 LSTM.      04.30.56 18-May-20:  Log Start Time 
 MDCL.ppm            193153.00:  Mud Chlorides 
 MDES.     Inversion Oil/Synthetic:  Mud Desc 
 DFD .sg                  1.40:  Mud Density 
 MDMN.sg                  1.40:  Dens Mud Min 
 MDMX.sg                  1.41:  Dens Mud Max 
 MOIL.                      68:  Run Mud Oil % 
 MOWR.                   68:32:  Run Mud OWR 
 MSND.                     0.2:  Run Mud Sand % 
 MSOL.                    18.8:  Run Mud Solids% 
 DFV .spqt               80.00:  Mud Viscosity 
 MWOD.in                  6.75:  MWD Tool OD 
 MWSI.                      No:  Serv Intrp, MWD 
 OTIM.hr                104.84:  Time Operating 
 PMAX.psia            10690.93:  Press Op, Max 
 PV  .cP                 26.00:  Mud PV 
 RUN .                     900:  Run Number 
 ROPA.m/hr                0.00:  ROP Avg 
 ROPN.m/hr                0.00:  ROP Min 
 ROPX.m/hr                0.00:  ROP Max 
 RPMA.rpm               140.00:  RPM Surface Avg 
 RPMN.rpm                70.00:  RPM Surface Min 
 RPMX.rpm               140.00:  RPM Surface Max 
 RRUN.                    0900:  Rig Run Number 
 RTIM.hr                 36.00:  Time Reaming 
 SAZI.deg               115.72:  Azm, Start 
 SDEP.m                5337.01:  Start Depth 
 SIDD.                      No:  Serv Intrp, DD 
 SINC.deg                66.92:  Inc, Start 
 SPPA.psig             4400.00:  SPP Avg 
 SPPN.psig             1135.00:  SPP Min 
 SPPX.psig             4581.00:  SPP Max 
 STIM.      04.30.56 18-May-20:  Start Time 
 SVCS.                     MWD:  Services 
 SVER.                    9.20:  Sperry Version 
 TDAT.m                5337.01:  Tot Depth Attmp 
 TDDF.                      No:  Trip for DD 
 TFF .                      No:  Trip for Fail 
 TQAA.f-kp               23.00:  Torque Abs Avg 
 TQAN.f-kp               18.00:  Torque Abs Min 
 TQAX.f-kp               25.00:  Torque Abs Max 
 TRRT.°/30m               0.74:  Turn Rotating 
 MRT .                    HCIM:  Maximum Recorded Temperature 
 TTMX.degC               76.47:  Max Tool Temp 
 WBMN.klb                 0.00:  WOB Min 
 WITN.             Anar Khalil:  Customer Rep 
 WITN.      Kamran Keberlinski:  Customer Rep 2 
 WOBA.klb                 0.00:  WOB Avg 
 WOBX.klb                 0.00:  WOB Max 
 YP  .lhf2               27.00:  Yield Point 
~Curve Information Block
#MNEM.UNIT                 API CODE     Curve Description
#---------               -----------    ---------------------------
 TIME.HHMMSS            00 000 000 000:  GT Time & Date
 GTDEPTH.m              00 000 000 000:  GT Depth
 GTPQH.psia             00 000 000 000:  GT HR Quartz Pressure
 GTTQ.degC              00 000 000 000:  GT Quartz Temperature
 GTTN.NONE              00 000 000 000:  GT Test Number
 GTET.sec               00 000 000 000:  GT Elapsed Test Time
 GTTVD.m                00 000 000 000:  GT True Vertical Depth
#Other Information
#
#WARRANTY: Halliburton will use its best efforts to furnish customers with 
#accurate information and interpretations that are part of, and incident to, the services 
#provided.  However, Halliburton cannot and does not warrant the accuracy 
#or correctness of such information and interpretations.  Under no circumstances should any 
#such information or interpretation be relied upon as the sole basis for any drilling, 
#completion, production, or financial decision or any procedure involving any risk to the 
#safety of any drilling venture, drilling rig or its crew or any other third party.  The 
#Customer has full responsibility for all drilling, completion and production operation.  
#Halliburton makes no representations or warranties, either expressed or 
#implied, including, but not limited to, the implied warranties of merchantability or fitness 
#for a particular purpose, with respect to the services rendered.  In no event will 
#Halliburton be liable for failure to obtain any particular results or for 
#any damages, including, but not limited to, indirect, special or consequential damages, 
#resulting from the use of any information or interpretation provided by Halliburton.
#
~A           TIME           GTDEPTH  GTPQH  GTTQ  GTTN  GTET   GTTVD  
# ...
   22:32:46.125.19-May-2020 5137.01 6465.73 67.85 4.00 483.12 2705.05
   22:32:46.326.19-May-2020 5137.01 6465.73 67.85 4.00 483.32 2705.05
   22:32:46.526.19-May-2020 5137.01 6466.37 67.85 4.00 483.52 2705.05
   22:32:46.726.19-May-2020 5137.01 6466.38 67.85 4.00 483.72 2705.05
   22:32:46.926.19-May-2020 5137.01 6464.59 67.85 4.00 483.92 2705.05
   22:32:47.126.19-May-2020 5137.01 6465.88 67.85 4.00 484.12 2705.05
   22:32:47.326.19-May-2020 5137.01 6465.88 67.85 4.00 484.32 2705.05
   22:32:47.526.19-May-2020 5137.01 6464.44 67.85 4.00 484.52 2705.05
   22:32:47.726.19-May-2020 5137.01 6466.77 67.85 4.00 484.72 2705.05
   22:32:47.926.19-May-2020 5137.01 6465.94 67.85 4.00 484.92 2705.05
   22:32:48.126.19-May-2020 5137.01 6465.77 67.85 4.00 485.12 2705.05
   22:32:48.326.19-May-2020 5137.01 6465.77 67.85 4.00 485.32 2705.05
   22:32:48.526.19-May-2020 5137.01 6464.37 67.85 4.00 485.52 2705.05
   22:32:48.726.19-May-2020 5137.01 6464.70 67.85 4.00 485.72 2705.05
   22:32:48.926.19-May-2020 5137.01 6463.87 67.85 4.00 485.92 2705.05
   22:32:49.126.19-May-2020 5137.01 6463.89 67.85 4.00 486.12 2705.05
   22:32:49.326.19-May-2020 5137.01 6463.89 67.85 4.00 486.32 2705.05
   22:32:49.526.19-May-2020 5137.01 6463.27 67.85 4.00 486.52 2705.05
   22:32:49.726.19-May-2020 5137.01 6464.43 67.85 4.00 486.72 2705.05
   22:32:49.926.19-May-2020 5137.01 6463.15 67.85 4.00 486.92 2705.05
   22:32:50.126.19-May-2020 5137.01 6463.26 67.85 4.00 487.12 2705.05
   22:32:50.327.19-May-2020 5137.01 6463.26 67.85 4.00 487.32 2705.05
   22:32:50.527.19-May-2020 5137.01 6463.26 67.85 4.00 487.52 2705.05
   22:32:50.727.19-May-2020 5137.01 6465.67 67.85 4.00 487.72 2705.05
   22:32:50.927.19-May-2020 5137.01 6464.05 67.85 4.00 487.92 2705.05
   22:32:51.127.19-May-2020 5137.01 6464.33 67.85 4.00 488.12 2705.05
   22:32:51.327.19-May-2020 5137.01 6464.33 67.85 4.00 488.32 2705.05
   22:32:51.527.19-May-2020 5137.01 6463.25 67.85 4.00 488.52 2705.05
   22:32:51.727.19-May-2020 5137.01 6467.02 67.85 4.00 488.72 2705.05
   22:32:51.927.19-May-2020 5137.01 6463.90 67.85 4.00 488.92 2705.05
   22:32:52.127.19-May-2020 5137.01 6465.82 67.85 4.00 489.12 2705.05
   22:32:52.327.19-May-2020 5137.01 6465.82 67.85 4.00 489.32 2705.05
   22:32:52.527.19-May-2020 5137.01 6464.34 67.85 4.00 489.52 2705.05
   22:32:52.727.19-May-2020 5137.01 6467.72 67.85 4.00 489.72 2705.05
   22:32:52.927.19-May-2020 5137.01 6464.57 67.85 4.00 489.92 2705.05
   22:32:53.127.19-May-2020 5137.01 6466.02 67.85 4.00 490.12 2705.05
   22:32:53.327.19-May-2020 5137.01 6466.02 67.85 4.00 490.32 2705.05
   22:32:53.527.19-May-2020 5137.01 6464.60 67.85 4.00 490.52 2705.05
   22:32:53.727.19-May-2020 5137.01 6467.40 67.85 4.00 490.72 2705.05
   22:32:53.927.19-May-2020 5137.01 6466.95 67.85 4.00 490.92 2705.05
   22:32:54.127.19-May-2020 5137.01 6467.54 67.85 4.00 491.12 2705.05
   22:32:54.328.19-May-2020 5137.01 6467.54 67.85 4.00 491.32 2705.05
   22:32:54.528.19-May-2020 5137.01 6465.82 67.85 4.00 491.52 2705.05
   22:32:54.728.19-May-2020 5137.01 6466.30 67.85 4.00 491.72 2705.05
   22:32:54.928.19-May-2020 5137.01 6464.67 67.85 4.00 491.92 2705.05
   22:32:55.128.19-May-2020 5137.01 6464.49 67.85 4.00 492.12 2705.05
   22:32:55.328.19-May-2020 5137.01 6464.49 67.85 4.00 492.32 2705.05
   22:32:55.528.19-May-2020 5137.01 6463.72 67.85 4.00 492.52 2705.05
   22:32:55.728.19-May-2020 5137.01 6464.85 67.85 4.00 492.72 2705.05
   22:32:55.928.19-May-2020 5137.01 6463.20 67.85 4.00 492.92 2705.05
   22:32:56.128.19-May-2020 5137.01 6463.94 67.85 4.00 493.12 2705.05
   22:32:56.328.19-May-2020 5137.01 6463.94 67.85 4.00 493.32 2705.05
   22:32:56.528.19-May-2020 5137.01 6462.68 67.85 4.00 493.52 2705.05
   22:32:56.728.19-May-2020 5137.01 6463.91 67.85 4.00 493.72 2705.05
   22:32:56.928.19-May-2020 5137.01 6463.71 67.85 4.00 493.92 2705.05
   22:32:57.128.19-May-2020 5137.01 6465.44 67.85 4.00 494.12 2705.05
   22:32:57.328.19-May-2020 5137.01 6465.44 67.85 4.00 494.32 2705.05
   22:32:57.528.19-May-2020 5137.01 6464.42 67.85 4.00 494.52 2705.05
   22:32:57.728.19-May-2020 5137.01 6463.62 67.85 4.00 494.72 2705.05
   22:32:57.928.19-May-2020 5137.01 6468.96 67.85 4.00 494.92 2705.05
   22:32:58.128.19-May-2020 5137.01 6461.70 67.85 4.00 495.12 2705.05
   22:32:58.329.19-May-2020 5137.01 6461.70 67.85 4.00 495.32 2705.05
   22:32:58.529.19-May-2020 5137.01 6464.42 67.85 4.00 495.52 2705.05
   22:32:58.729.19-May-2020 5137.01 6469.44 67.85 4.00 495.72 2705.05
   22:32:58.929.19-May-2020 5137.01 6463.39 67.85 4.00 495.92 2705.05
   22:32:59.129.19-May-2020 5137.01 6466.56 67.85 4.00 496.12 2705.05
   22:32:59.329.19-May-2020 5137.01 6466.56 67.85 4.00 496.32 2705.05
   22:32:59.529.19-May-2020 5137.01 6465.20 67.85 4.00 496.52 2705.05
   22:32:59.729.19-May-2020 5137.01 6466.74 67.85 4.00 496.72 2705.05
   22:32:59.929.19-May-2020 5137.01 6463.84 67.85 4.00 496.92 2705.05
   22:33:00.129.19-May-2020 5137.01 6466.32 67.85 4.00 497.12 2705.05
   22:33:00.329.19-May-2020 5137.01 6466.32 67.85 4.00 497.32 2705.05
   22:33:00.529.19-May-2020 5137.01 6466.95 67.85 4.00 497.52 2705.05
   22:33:00.729.19-May-2020 5137.01 6464.75 67.85 4.00 497.72 2705.05
   22:33:00.929.19-May-2020 5137.01 6465.91 67.85 4.00 497.92 2705.05
   22:33:01.129.19-May-2020 5137.01 6463.50 67.85 4.00 498.12 2705.05
   22:33:01.329.19-May-2020 5137.01 6463.50 67.85 4.00 498.32 2705.05
   22:33:01.529.19-May-2020 5137.01 6462.21 67.85 4.00 498.52 2705.05
   22:33:01.729.19-May-2020 5137.01 6464.36 67.85 4.00 498.72 2705.05
   22:33:01.929.19-May-2020 5137.01 6462.64 67.85 4.00 498.92 2705.05
