~Version Information
 VERS.                  2.0:   CWLS log ASCII Standard -VERSION 2.0
 WRAP.                   NO:   One line per depth step
~Well Information Block
#MNEM.UNIT     VALUE/NAME     DESCRIPTION
#---------     -----------    ---------------------------
 STRT.S             15:16:23 19-May-20: START TIME 15:16:23 19-May-20
 STOP.S             15:23:31 19-May-20: STOP TIME  15:23:31 19-May-20
 STEP.S                   0.00: STEP TIME
 NULL.                 -999.25: NULL VALUE
 MDS .        Operator Entered:  MAG DATA SOURCE
 PDAT.          Mean Sea Level:  PERMANENT DATUM
 UNIT.                     N/A:  LOGGING EQUIPMENT ID
 DCON.         Sperry Drilling:  DIRECTNL CONTR
 DOE .                     N/A:  DOE NUMBER
 RIG .              East Azeri:  RIG NAME
 JOBN.        AZ-XX-0905856059:  JOB TICKET NUMB
 WELL.                     D36:  WELL NAME
 MWDS.                    Baku:  MWD SHOP
 SRVC.     Turan Drilling & Engineering:  CONTRACTOR
 FLD .                     ACG:  FIELD NAME
 CTRY.              Azerbaijan:  COUNTRY NAME
 PROV.                    Baku:  PROVINCE
 STAT.                    Baku:  STATE NAME
 REGN.                   EESSA:  REGION
 BASE.              Azerbaijan:  LOGGING EQUIPMENT BASE LOCATION
 UWI .                     N/A:  UNIQUE WELL IDENTIFIER
 API .                     N/A:  API NUMBER
 COMP.     BP Exploration (Caspian Sea) Ltd.:  COMPANY
 WTYP.                Deviated:  WELL TYPE
 SON .        AZ-XX-0905856059:  JOB NUMBER
 FTOP.          Formation Tops:  FORM TOPS DESC
 ILTD.               Lithology:  INTERP LTH DESC
 SVYD.                  Survey:  SURVEY DESC
 DMOD.             Drill Model:  DRILL MOD DESC
 HPTY.       Minimum Curvature:  HOLE POS TYPE
 NREF.                    Grid:  NORTH REFERENCE
 SPUD.               25-Feb-20:  SPUD DATE
 DATE.      08.55.28 01-May-20:  END TIME
 STIM.      08.55.28 25-Feb-20:  START TIME
 DMF .             Drill Floor:  DRILL MEAS FROM
 DFST.                        :  DIST FSL TEXT
 DFWT.                        :  DIST FWL TEXT
 CNTY.                        :  COUNTY
 LOC .                        :  LOCATION
 LMF .             Drill Floor:  LOG MEASURED FROM
 VSNS.m                   6.09:  VERT SEC N/S
 VSEW.m                 -10.79:  VERT SEC E/W
 AGAP.m                  43.60:  AIR GAP
 DEP .m                 388.24:  DEPTH
 APD .m                  43.60:  DEPTH ABOVE PD
 WDMS.m                 151.80:  WD ELEV
 EGL .m                   0.00:  GROUND ELEVATION
 EPD .m                   0.00:  ELEVATION
 AZTC.deg                 6.12:  AZM TOTAL CORR
 GRDC.deg                 0.30:  GRID CORRECTION
 MDEC.deg                 6.42:  MAGNETIC DECL
 MDIP.deg                59.42:  MAGNETIC DIP
 MFLD.nT              50256.00:  MAGNETIC FIELD
 GVFD.g                   1.00:  GRAVITY FIELD
 VSDR.deg               159.57:  VERT SEC DIRECT
 TDD .m                5000.01:  TOTAL DEPTH (DRILLER)
 SDEP.m                 397.00:  START DEPTH
 DFSL.m                   0.00:  DISTANCE FSL
 DFWL.m                   0.00:  DISTANCE FWL
 UTMY.m             4431880.20:  UTM Y
 UTMX.m              538763.98:  UTM X
 WHEW.m                 -10.79:  WELL HEAD E/W
 WHNS.m                   6.09:  WELL HEAD N/S
 LONG.deg                51.45:  LONGITUDE
 LATI.deg                40.02:  LATITUDE
 TVDS.m                  43.60:  TVDSS CORRECTN
 EKB .m                  43.60:  KB ELEVATION
 EDF .m                  43.60:  DF ELEVATION
 MAGU.                 1847640:  MAGUTM CHECKSUM
 VSC .                       0:  VS TO CLOSURE
~Parameter Information Block
#MNEM.UNIT       Value        Description
#---------     -----------    ---------------------------
 AV  .mps                 1.30:  Ann Velocity 
 AVMX.mps                 1.90:  Max Ann Veloc 
 AZIF.deg               115.68:  Azm, Final 
 BHAT.                   Other:  BHA Type 
 BROT.°/30m               0.74:  Build Rotating 
 BS  .in                  8.50:  Bit Size 
 BTPL.psig              430.00:  Bit Press Loss 
 CABU.                      No:  Customer Abuse 
 TCS .hr                 51.31:  Time Ciculation Ended 
 CV  .mps                 2.52:  Crit Velocity 
 CVMX.mps                 2.62:  Max Crit Veloc 
 DD1 .          Teymur Aghayev:  Direct Drillr 1 
 DDSV.                   Other:  DD Service 
 DEFF.%                 100.00:  % Det Eff 
 DLRX.°/30m               1.62:  Dogleg Rot Max 
 DLSO.°/30m               0.74:  Dogleg Oriented 
 DLSX.°/30m               1.62:  Dogleg Str Max 
 DRET.      04.30.56 18-May-20:  Drill End Time 
 DRST.      04.30.56 18-May-20:  Drill Start Tim 
 DTIM.hr                  0.00:  Time Drilling 
 EDEP.m                5337.01:  End Depth 
 ENG1.      Artemiy Matviyanov:  Engineer 1 
 ENG2.      Bakhtiyar Jabbarli:  Engineer 2 
 ENG3.           Emil Huseynov:  Engineer 3 
 ETIM.      18.40.00 22-May-20:  End Time 
 FLOI.gpm               550.00:  Flow In 
 FLON.gpm               350.00:  Flow In Min 
 FLOS.cptm                0.00:  Fluid Loss 
 FLOX.gpm               600.00:  Flow In Max 
 HFLO.                      No:  High Flow 
 HPRE.                      No:  High Pressure 
 HTEM.                      No:  High Temp 
 HYDO.m                   1.80:  Hydro Offset 
 IFIN.deg                67.01:  Inc, Final 
 IMAX.deg                67.49:  Inc Max 
 IMIN.deg                66.50:  Inc Min 
 IMND.m                5144.79:  Inc Min Depth 
 IMXD.m                5116.12:  Inc Max Depth 
 JARR.                      No:  Jarring 
 LETM.      17.55.56 20-May-20:  Log End Time 
 LOST.hr                     0:  Lost Rig Time 
 LSTM.      04.30.56 18-May-20:  Log Start Time 
 MDCL.ppm            193153.00:  Mud Chlorides 
 MDES.     Inversion Oil/Synthetic:  Mud Desc 
 DFD .sg                  1.40:  Mud Density 
 MDMN.sg                  1.40:  Dens Mud Min 
 MDMX.sg                  1.41:  Dens Mud Max 
 MOIL.                      68:  Run Mud Oil % 
 MOWR.                   68:32:  Run Mud OWR 
 MSND.                     0.2:  Run Mud Sand % 
 MSOL.                    18.8:  Run Mud Solids% 
 DFV .spqt               80.00:  Mud Viscosity 
 MWOD.in                  6.75:  MWD Tool OD 
 MWSI.                      No:  Serv Intrp, MWD 
 OTIM.hr                104.84:  Time Operating 
 PMAX.psia            10690.93:  Press Op, Max 
 PV  .cP                 26.00:  Mud PV 
 RUN .                     900:  Run Number 
 ROPA.m/hr                0.00:  ROP Avg 
 ROPN.m/hr                0.00:  ROP Min 
 ROPX.m/hr                0.00:  ROP Max 
 RPMA.rpm               140.00:  RPM Surface Avg 
 RPMN.rpm                70.00:  RPM Surface Min 
 RPMX.rpm               140.00:  RPM Surface Max 
 RRUN.                    0900:  Rig Run Number 
 RTIM.hr                 36.00:  Time Reaming 
 SAZI.deg               115.72:  Azm, Start 
 SDEP.m                5337.01:  Start Depth 
 SIDD.                      No:  Serv Intrp, DD 
 SINC.deg                66.92:  Inc, Start 
 SPPA.psig             4400.00:  SPP Avg 
 SPPN.psig             1135.00:  SPP Min 
 SPPX.psig             4581.00:  SPP Max 
 STIM.      04.30.56 18-May-20:  Start Time 
 SVCS.                     MWD:  Services 
 SVER.                    9.20:  Sperry Version 
 TDAT.m                5337.01:  Tot Depth Attmp 
 TDDF.                      No:  Trip for DD 
 TFF .                      No:  Trip for Fail 
 TQAA.f-kp               23.00:  Torque Abs Avg 
 TQAN.f-kp               18.00:  Torque Abs Min 
 TQAX.f-kp               25.00:  Torque Abs Max 
 TRRT.°/30m               0.74:  Turn Rotating 
 MRT .                    HCIM:  Maximum Recorded Temperature 
 TTMX.degC               76.47:  Max Tool Temp 
 WBMN.klb                 0.00:  WOB Min 
 WITN.             Anar Khalil:  Customer Rep 
 WITN.      Kamran Keberlinski:  Customer Rep 2 
 WOBA.klb                 0.00:  WOB Avg 
 WOBX.klb                 0.00:  WOB Max 
 YP  .lhf2               27.00:  Yield Point 
~Curve Information Block
#MNEM.UNIT                 API CODE     Curve Description
#---------               -----------    ---------------------------
 TIME.HHMMSS            00 000 000 000:  GT Time & Date
 GTDEPTH.m              00 000 000 000:  GT Depth
 GTPQH.psia             00 000 000 000:  GT HR Quartz Pressure
 GTTQ.degC              00 000 000 000:  GT Quartz Temperature
 GTTN.NONE              00 000 000 000:  GT Test Number
 GTET.sec               00 000 000 000:  GT Elapsed Test Time
 GTTVD.m                00 000 000 000:  GT True Vertical Depth
#Other Information
#
#WARRANTY: Halliburton will use its best efforts to furnish customers with 
#accurate information and interpretations that are part of, and incident to, the services 
#provided.  However, Halliburton cannot and does not warrant the accuracy 
#or correctness of such information and interpretations.  Under no circumstances should any 
#such information or interpretation be relied upon as the sole basis for any drilling, 
#completion, production, or financial decision or any procedure involving any risk to the 
#safety of any drilling venture, drilling rig or its crew or any other third party.  The 
#Customer has full responsibility for all drilling, completion and production operation.  
#Halliburton makes no representations or warranties, either expressed or 
#implied, including, but not limited to, the implied warranties of merchantability or fitness 
#for a particular purpose, with respect to the services rendered.  In no event will 
#Halliburton be liable for failure to obtain any particular results or for 
#any damages, including, but not limited to, indirect, special or consequential damages, 
#resulting from the use of any information or interpretation provided by Halliburton.
#
~A           TIME           GTDEPTH  GTPQH  GTTQ  GTTN  GTET   GTTVD  
# ...
   15:20:59.378.19-May-2020 5277.61 3449.87 67.43 1.00 276.07 2760.35
   15:20:59.578.19-May-2020 5277.61 3450.10 67.43 1.00 276.27 2760.35
   15:20:59.778.19-May-2020 5277.61 3450.50 67.43 1.00 276.47 2760.35
   15:20:59.978.19-May-2020 5277.61 3450.86 67.43 1.00 276.67 2760.35
   15:21:00.178.19-May-2020 5277.61 3451.07 67.43 1.00 276.87 2760.35
   15:21:00.378.19-May-2020 5277.61 3451.23 67.43 1.00 277.07 2760.35
   15:21:00.578.19-May-2020 5277.61 3451.23 67.43 1.00 277.27 2760.35
   15:21:00.778.19-May-2020 5277.61 3451.58 67.44 1.00 277.47 2760.35
   15:21:00.978.19-May-2020 5277.61 3451.74 67.44 1.00 277.67 2760.35
   15:21:01.178.19-May-2020 5277.61 3451.88 67.44 1.00 277.87 2760.35
   15:21:01.378.19-May-2020 5277.61 3451.95 67.44 1.00 278.07 2760.35
   15:21:01.578.19-May-2020 5277.61 3451.95 67.44 1.00 278.27 2760.35
   15:21:01.778.19-May-2020 5277.61 3452.14 67.44 1.00 278.47 2760.35
   15:21:01.978.19-May-2020 5277.61 3452.26 67.44 1.00 278.67 2760.35
   15:21:02.178.19-May-2020 5277.61 3452.13 67.44 1.00 278.87 2760.35
   15:21:02.378.19-May-2020 5277.61 3452.88 67.44 1.00 279.07 2760.35
   15:21:02.578.19-May-2020 5277.61 3452.88 67.44 1.00 279.27 2760.35
   15:21:02.778.19-May-2020 5277.61 3452.65 67.44 1.00 279.47 2760.35
   15:21:02.978.19-May-2020 5277.61 3452.88 67.44 1.00 279.67 2760.35
   15:21:03.178.19-May-2020 5277.61 3453.05 67.44 1.00 279.87 2760.35
   15:21:03.379.19-May-2020 5277.61 3452.84 67.44 1.00 280.07 2760.35
   15:21:03.579.19-May-2020 5277.61 3452.84 67.44 1.00 280.27 2760.35
   15:21:03.779.19-May-2020 5277.61 3453.00 67.44 1.00 280.47 2760.35
   15:21:03.979.19-May-2020 5277.61 3452.99 67.44 1.00 280.67 2760.35
   15:21:04.179.19-May-2020 5277.61 3452.86 67.44 1.00 280.87 2760.35
   15:21:04.379.19-May-2020 5277.61 3453.42 67.44 1.00 281.07 2760.35
   15:21:04.579.19-May-2020 5277.61 3453.42 67.44 1.00 281.27 2760.35
   15:21:04.779.19-May-2020 5277.61 3453.09 67.44 1.00 281.47 2760.35
   15:21:04.979.19-May-2020 5277.61 3453.08 67.44 1.00 281.67 2760.35
   15:21:05.179.19-May-2020 5277.61 3453.67 67.44 1.00 281.87 2760.35
   15:21:05.379.19-May-2020 5277.61 3453.25 67.44 1.00 282.07 2760.35
   15:21:05.579.19-May-2020 5277.61 3453.25 67.44 1.00 282.27 2760.35
   15:21:05.779.19-May-2020 5277.61 3453.17 67.44 1.00 282.47 2760.35
   15:21:05.979.19-May-2020 5277.61 3453.53 67.44 1.00 282.67 2760.35
   15:21:06.179.19-May-2020 5277.61 3453.43 67.44 1.00 282.87 2760.35
   15:21:06.379.19-May-2020 5277.61 3453.20 67.44 1.00 283.07 2760.35
   15:21:06.579.19-May-2020 5277.61 3453.20 67.44 1.00 283.27 2760.35
   15:21:06.779.19-May-2020 5277.61 3453.36 67.44 1.00 283.47 2760.35
   15:21:06.979.19-May-2020 5277.61 3453.37 67.44 1.00 283.67 2760.35
   15:21:07.179.19-May-2020 5277.61 3453.34 67.44 1.00 283.87 2760.35
   15:21:07.379.19-May-2020 5277.61 3453.37 67.45 1.00 284.07 2760.35
   15:21:07.580.19-May-2020 5277.61 3453.40 67.45 1.00 284.27 2760.35
   15:21:07.780.19-May-2020 5277.61 3453.38 67.45 1.00 284.47 2760.35
   15:21:07.980.19-May-2020 5277.61 3453.42 67.45 1.00 284.67 2760.35
   15:21:08.180.19-May-2020 5277.61 3453.40 67.45 1.00 284.87 2760.35
   15:21:08.380.19-May-2020 5277.61 3453.37 67.45 1.00 285.07 2760.35
   15:21:08.580.19-May-2020 5277.61 3453.37 67.45 1.00 285.27 2760.35
   15:21:08.780.19-May-2020 5277.61 3453.36 67.45 1.00 285.47 2760.35
   15:21:08.980.19-May-2020 5277.61 3453.44 67.45 1.00 285.67 2760.35
   15:21:09.180.19-May-2020 5277.61 3453.65 67.45 1.00 285.87 2760.35
   15:21:09.380.19-May-2020 5277.61 3453.45 67.45 1.00 286.07 2760.35
   15:21:09.580.19-May-2020 5277.61 3453.45 67.45 1.00 286.27 2760.35
   15:21:09.780.19-May-2020 5277.61 3453.66 67.45 1.00 286.47 2760.35
   15:21:09.980.19-May-2020 5277.61 3453.75 67.45 1.00 286.67 2760.35
   15:21:10.180.19-May-2020 5277.61 3453.51 67.45 1.00 286.87 2760.35
   15:21:10.380.19-May-2020 5277.61 3453.51 67.45 1.00 287.07 2760.35
   15:21:10.580.19-May-2020 5277.61 3453.51 67.45 1.00 287.27 2760.35
   15:21:10.780.19-May-2020 5277.61 3453.68 67.45 1.00 287.47 2760.35
   15:21:10.980.19-May-2020 5277.61 3453.78 67.45 1.00 287.67 2760.35
   15:21:11.180.19-May-2020 5277.61 3453.57 67.45 1.00 287.87 2760.35
   15:21:11.380.19-May-2020 5277.61 3453.60 67.45 1.00 288.07 2760.35
   15:21:11.580.19-May-2020 5277.61 3453.66 67.45 1.00 288.27 2760.35
   15:21:11.781.19-May-2020 5277.61 3453.65 67.45 1.00 288.47 2760.35
   15:21:11.981.19-May-2020 5277.61 3453.51 67.45 1.00 288.67 2760.35
   15:21:12.181.19-May-2020 5277.61 3454.04 67.45 1.00 288.87 2760.35
   15:21:12.381.19-May-2020 5277.61 3453.62 67.45 1.00 289.07 2760.35
   15:21:12.581.19-May-2020 5277.61 3453.62 67.45 1.00 289.27 2760.35
   15:21:12.781.19-May-2020 5277.61 3453.67 67.45 1.00 289.47 2760.35
   15:21:12.981.19-May-2020 5277.61 3453.93 67.45 1.00 289.67 2760.35
   15:21:13.181.19-May-2020 5277.61 3453.83 67.45 1.00 289.87 2760.35
   15:21:13.381.19-May-2020 5277.61 3453.65 67.45 1.00 290.07 2760.35
   15:21:13.581.19-May-2020 5277.61 3453.65 67.45 1.00 290.27 2760.35
   15:21:13.781.19-May-2020 5277.61 3453.71 67.45 1.00 290.47 2760.35
   15:21:13.981.19-May-2020 5277.61 3453.72 67.45 1.00 290.67 2760.35
   15:21:14.181.19-May-2020 5277.61 3453.69 67.45 1.00 290.87 2760.35
   15:21:14.381.19-May-2020 5277.61 3453.63 67.45 1.00 291.07 2760.35
   15:21:14.581.19-May-2020 5277.61 3453.63 67.45 1.00 291.27 2760.35
   15:21:14.781.19-May-2020 5277.61 3453.71 67.45 1.00 291.47 2760.35
   15:21:14.981.19-May-2020 5277.61 3453.70 67.45 1.00 291.67 2760.35
   15:21:15.181.19-May-2020 5277.61 3453.68 67.45 1.00 291.87 2760.35
   15:21:15.381.19-May-2020 5277.61 3453.68 67.45 1.00 292.07 2760.35
   15:21:15.581.19-May-2020 5277.61 3453.75 67.45 1.00 292.27 2760.35
   15:21:15.781.19-May-2020 5277.61 3453.74 67.45 1.00 292.47 2760.35
   15:21:15.981.19-May-2020 5277.61 3453.80 67.45 1.00 292.67 2760.35
   15:21:16.182.19-May-2020 5277.61 3453.95 67.45 1.00 292.87 2760.35
   15:21:16.382.19-May-2020 5277.61 3453.77 67.45 1.00 293.07 2760.35
   15:21:16.582.19-May-2020 5277.61 3453.77 67.45 1.00 293.27 2760.35
   15:21:16.782.19-May-2020 5277.61 3453.91 67.45 1.00 293.47 2760.35
   15:21:16.982.19-May-2020 5277.61 3453.96 67.45 1.00 293.67 2760.35
   15:21:17.182.19-May-2020 5277.61 3453.68 67.45 1.00 293.87 2760.35
   15:21:17.382.19-May-2020 5277.61 3453.74 67.45 1.00 294.07 2760.35
   15:21:17.582.19-May-2020 5277.61 3453.74 67.45 1.00 294.27 2760.35
   15:21:17.782.19-May-2020 5277.61 3453.88 67.45 1.00 294.47 2760.35
   15:21:17.982.19-May-2020 5277.61 3453.96 67.45 1.00 294.67 2760.35
   15:21:18.182.19-May-2020 5277.61 3453.74 67.45 1.00 294.87 2760.35
   15:21:18.382.19-May-2020 5277.61 3453.70 67.45 1.00 295.07 2760.35
   15:21:18.582.19-May-2020 5277.61 3453.70 67.45 1.00 295.27 2760.35
   15:21:18.782.19-May-2020 5277.61 3453.87 67.45 1.00 295.47 2760.35
   15:21:18.982.19-May-2020 5277.61 3453.64 67.45 1.00 295.67 2760.35
   15:21:19.182.19-May-2020 5277.61 3454.18 67.45 1.00 295.87 2760.35
   15:21:19.382.19-May-2020 5277.61 3453.88 67.45 1.00 296.07 2760.35
   15:21:19.582.19-May-2020 5277.61 3453.88 67.45 1.00 296.27 2760.35
   15:21:19.782.19-May-2020 5277.61 3453.78 67.45 1.00 296.47 2760.35
   15:21:19.982.19-May-2020 5277.61 3453.96 67.45 1.00 296.67 2760.35
   15:21:20.182.19-May-2020 5277.61 3453.99 67.45 1.00 296.87 2760.35
   15:21:20.383.19-May-2020 5277.61 3453.73 67.45 1.00 297.07 2760.35
   15:21:20.583.19-May-2020 5277.61 3453.73 67.45 1.00 297.27 2760.35
   15:21:20.783.19-May-2020 5277.61 3453.85 67.45 1.00 297.47 2760.35
   15:21:20.983.19-May-2020 5277.61 3453.88 67.45 1.00 297.67 2760.35
   15:21:21.183.19-May-2020 5277.61 3453.82 67.45 1.00 297.87 2760.35
   15:21:21.383.19-May-2020 5277.61 3453.80 67.45 1.00 298.07 2760.35
   15:21:21.583.19-May-2020 5277.61 3453.80 67.45 1.00 298.27 2760.35
   15:21:21.783.19-May-2020 5277.61 3453.89 67.45 1.00 298.47 2760.35
   15:21:21.983.19-May-2020 5277.61 3453.89 67.45 1.00 298.67 2760.35
   15:21:22.183.19-May-2020 5277.61 3453.83 67.45 1.00 298.87 2760.35
