~Version Information
 VERS.                  2.0:   CWLS log ASCII Standard -VERSION 2.0
 WRAP.                   NO:   One line per depth step
~Well Information Block
#MNEM.UNIT     VALUE/NAME     DESCRIPTION
#---------     -----------    ---------------------------
 STRT.S             22:24:43 19-May-20: START TIME 22:24:43 19-May-20
 STOP.S             22:33:01 19-May-20: STOP TIME  22:33:01 19-May-20
 STEP.S                   0.00: STEP TIME
 NULL.                 -999.25: NULL VALUE
 MDS .        Operator Entered:  MAG DATA SOURCE
 PDAT.          Mean Sea Level:  PERMANENT DATUM
 UNIT.                     N/A:  LOGGING EQUIPMENT ID
 DCON.         Sperry Drilling:  DIRECTNL CONTR
 DOE .                     N/A:  DOE NUMBER
 RIG .              East Azeri:  RIG NAME
 JOBN.        AZ-XX-0905856059:  JOB TICKET NUMB
 WELL.                     D36:  WELL NAME
 MWDS.                    Baku:  MWD SHOP
 SRVC.     Turan Drilling & Engineering:  CONTRACTOR
 FLD .                     ACG:  FIELD NAME
 CTRY.              Azerbaijan:  COUNTRY NAME
 PROV.                    Baku:  PROVINCE
 STAT.                    Baku:  STATE NAME
 REGN.                   EESSA:  REGION
 BASE.              Azerbaijan:  LOGGING EQUIPMENT BASE LOCATION
 UWI .                     N/A:  UNIQUE WELL IDENTIFIER
 API .                     N/A:  API NUMBER
 COMP.     BP Exploration (Caspian Sea) Ltd.:  COMPANY
 WTYP.                Deviated:  WELL TYPE
 SON .        AZ-XX-0905856059:  JOB NUMBER
 FTOP.          Formation Tops:  FORM TOPS DESC
 ILTD.               Lithology:  INTERP LTH DESC
 SVYD.                  Survey:  SURVEY DESC
 DMOD.             Drill Model:  DRILL MOD DESC
 HPTY.       Minimum Curvature:  HOLE POS TYPE
 NREF.                    Grid:  NORTH REFERENCE
 SPUD.               25-Feb-20:  SPUD DATE
 DATE.      08.55.28 01-May-20:  END TIME
 STIM.      08.55.28 25-Feb-20:  START TIME
 DMF .             Drill Floor:  DRILL MEAS FROM
 DFST.                        :  DIST FSL TEXT
 DFWT.                        :  DIST FWL TEXT
 CNTY.                        :  COUNTY
 LOC .                        :  LOCATION
 LMF .             Drill Floor:  LOG MEASURED FROM
 VSNS.m                   6.09:  VERT SEC N/S
 VSEW.m                 -10.79:  VERT SEC E/W
 AGAP.m                  43.60:  AIR GAP
 DEP .m                 388.24:  DEPTH
 APD .m                  43.60:  DEPTH ABOVE PD
 WDMS.m                 151.80:  WD ELEV
 EGL .m                   0.00:  GROUND ELEVATION
 EPD .m                   0.00:  ELEVATION
 AZTC.deg                 6.12:  AZM TOTAL CORR
 GRDC.deg                 0.30:  GRID CORRECTION
 MDEC.deg                 6.42:  MAGNETIC DECL
 MDIP.deg                59.42:  MAGNETIC DIP
 MFLD.nT              50256.00:  MAGNETIC FIELD
 GVFD.g                   1.00:  GRAVITY FIELD
 VSDR.deg               159.57:  VERT SEC DIRECT
 TDD .m                5000.01:  TOTAL DEPTH (DRILLER)
 SDEP.m                 397.00:  START DEPTH
 DFSL.m                   0.00:  DISTANCE FSL
 DFWL.m                   0.00:  DISTANCE FWL
 UTMY.m             4431880.20:  UTM Y
 UTMX.m              538763.98:  UTM X
 WHEW.m                 -10.79:  WELL HEAD E/W
 WHNS.m                   6.09:  WELL HEAD N/S
 LONG.deg                51.45:  LONGITUDE
 LATI.deg                40.02:  LATITUDE
 TVDS.m                  43.60:  TVDSS CORRECTN
 EKB .m                  43.60:  KB ELEVATION
 EDF .m                  43.60:  DF ELEVATION
 MAGU.                 1847640:  MAGUTM CHECKSUM
 VSC .                       0:  VS TO CLOSURE
~Parameter Information Block
#MNEM.UNIT       Value        Description
#---------     -----------    ---------------------------
 AV  .mps                 1.30:  Ann Velocity 
 AVMX.mps                 1.90:  Max Ann Veloc 
 AZIF.deg               115.68:  Azm, Final 
 BHAT.                   Other:  BHA Type 
 BROT.°/30m               0.74:  Build Rotating 
 BS  .in                  8.50:  Bit Size 
 BTPL.psig              430.00:  Bit Press Loss 
 CABU.                      No:  Customer Abuse 
 COMM.                     ”le:  Run Comments 1 
 TCS .hr                 51.31:  Time Ciculation Ended 
 CV  .mps                 2.52:  Crit Velocity 
 CVMX.mps                 2.62:  Max Crit Veloc 
 DD1 .          Teymur Aghayev:  Direct Drillr 1 
 DDSV.                   Other:  DD Service 
 DEFF.%                 100.00:  % Det Eff 
 DLRX.°/30m               1.62:  Dogleg Rot Max 
 DLSO.°/30m               0.74:  Dogleg Oriented 
 DLSX.°/30m               1.62:  Dogleg Str Max 
 DRET.      04.30.56 18-May-20:  Drill End Time 
 DRST.      04.30.56 18-May-20:  Drill Start Tim 
 DTIM.hr                  0.00:  Time Drilling 
 EDEP.m                5337.01:  End Depth 
 ENG1.      Artemiy Matviyanov:  Engineer 1 
 ENG2.      Bakhtiyar Jabbarli:  Engineer 2 
 ENG3.           Emil Huseynov:  Engineer 3 
 ETIM.      18.40.00 22-May-20:  End Time 
 FLOI.gpm               550.00:  Flow In 
 FLON.gpm               350.00:  Flow In Min 
 FLOS.cptm                0.00:  Fluid Loss 
 FLOX.gpm               600.00:  Flow In Max 
 HFLO.                      No:  High Flow 
 HPRE.                      No:  High Pressure 
 HTEM.                      No:  High Temp 
 HYDO.m                   1.80:  Hydro Offset 
 IFIN.deg                67.01:  Inc, Final 
 IMAX.deg                67.49:  Inc Max 
 IMIN.deg                66.50:  Inc Min 
 IMND.m                5144.79:  Inc Min Depth 
 IMXD.m                5116.12:  Inc Max Depth 
 JARR.                      No:  Jarring 
 LETM.      17.55.56 20-May-20:  Log End Time 
 LOST.hr                     0:  Lost Rig Time 
 LSTM.      04.30.56 18-May-20:  Log Start Time 
 MDCL.ppm            193153.00:  Mud Chlorides 
 MDES.     Inversion Oil/Synthetic:  Mud Desc 
 DFD .sg                  1.40:  Mud Density 
 MDMN.sg                  1.40:  Dens Mud Min 
 MDMX.sg                  1.41:  Dens Mud Max 
 MOIL.                      68:  Run Mud Oil % 
 MOWR.                   68:32:  Run Mud OWR 
 MSND.                     0.2:  Run Mud Sand % 
 MSOL.                    18.8:  Run Mud Solids% 
 DFV .spqt               80.00:  Mud Viscosity 
 MWOD.in                  6.75:  MWD Tool OD 
 MWSI.                      No:  Serv Intrp, MWD 
 OTIM.hr                104.84:  Time Operating 
 PMAX.psia            10690.93:  Press Op, Max 
 PV  .cP                 26.00:  Mud PV 
 RUN .                     900:  Run Number 
 ROPA.m/hr                0.00:  ROP Avg 
 ROPN.m/hr                0.00:  ROP Min 
 ROPX.m/hr                0.00:  ROP Max 
 RPMA.rpm               140.00:  RPM Surface Avg 
 RPMN.rpm                70.00:  RPM Surface Min 
 RPMX.rpm               140.00:  RPM Surface Max 
 RRUN.                    0900:  Rig Run Number 
 RTIM.hr                 36.00:  Time Reaming 
 SAZI.deg               115.72:  Azm, Start 
 SDEP.m                5337.01:  Start Depth 
 SIDD.                      No:  Serv Intrp, DD 
 SINC.deg                66.92:  Inc, Start 
 SPPA.psig             4400.00:  SPP Avg 
 SPPN.psig             1135.00:  SPP Min 
 SPPX.psig             4581.00:  SPP Max 
 STIM.      04.30.56 18-May-20:  Start Time 
 SVCS.                     MWD:  Services 
 SVER.                    9.20:  Sperry Version 
 TDAT.m                5337.01:  Tot Depth Attmp 
 TDDF.                      No:  Trip for DD 
 TFF .                      No:  Trip for Fail 
 TQAA.f-kp               23.00:  Torque Abs Avg 
 TQAN.f-kp               18.00:  Torque Abs Min 
 TQAX.f-kp               25.00:  Torque Abs Max 
 TRRT.°/30m               0.74:  Turn Rotating 
 MRT .                    HCIM:  Maximum Recorded Temperature 
 TTMX.degC               76.47:  Max Tool Temp 
 WBMN.klb                 0.00:  WOB Min 
 WITN.             Anar Khalil:  Customer Rep 
 WITN.      Kamran Keberlinski:  Customer Rep 2 
 WOBA.klb                 0.00:  WOB Avg 
 WOBX.klb                 0.00:  WOB Max 
 YP  .lhf2               27.00:  Yield Point 
~Curve Information Block
#MNEM.UNIT                 API CODE     Curve Description
#---------               -----------    ---------------------------
 TIME.HHMMSS            00 000 000 000:  GT Time & Date
 GTDEPTH.m              00 000 000 000:  GT Depth
 GTPQH.psia             00 000 000 000:  GT HR Quartz Pressure
 GTTQ.degC              00 000 000 000:  GT Quartz Temperature
 GTTN.NONE              00 000 000 000:  GT Test Number
 GTET.sec               00 000 000 000:  GT Elapsed Test Time
 GTTVD.m                00 000 000 000:  GT True Vertical Depth
#Other Information
#
#WARRANTY: Halliburton will use its best efforts to furnish customers with 
#accurate information and interpretations that are part of, and incident to, the services 
#provided.  However, Halliburton cannot and does not warrant the accuracy 
#or correctness of such information and interpretations.  Under no circumstances should any 
#such information or interpretation be relied upon as the sole basis for any drilling, 
#completion, production, or financial decision or any procedure involving any risk to the 
#safety of any drilling venture, drilling rig or its crew or any other third party.  The 
#Customer has full responsibility for all drilling, completion and production operation.  
#Halliburton makes no representations or warranties, either expressed or 
#implied, including, but not limited to, the implied warranties of merchantability or fitness 
#for a particular purpose, with respect to the services rendered.  In no event will 
#Halliburton be liable for failure to obtain any particular results or for 
#any damages, including, but not limited to, indirect, special or consequential damages, 
#resulting from the use of any information or interpretation provided by Halliburton.
#
~A           TIME           GTDEPTH  GTPQH  GTTQ  GTTN  GTET   GTTVD  
# ...
   22:25:52.022.19-May-2020 5137.01 6459.36 67.92 4.00  69.02 2705.05
   22:25:52.222.19-May-2020 5137.01 6459.36 67.92 4.00  69.22 2705.05
   22:25:52.422.19-May-2020 5137.01 6457.47 67.92 4.00  69.42 2705.05
   22:25:52.622.19-May-2020 5137.01 6456.64 67.92 4.00  69.62 2705.05
   22:25:52.822.19-May-2020 5137.01 6456.26 67.92 4.00  69.82 2705.05
   22:25:53.023.19-May-2020 5137.01 6456.81 67.92 4.00  70.02 2705.05
   22:25:53.223.19-May-2020 5137.01 6456.81 67.92 4.00  70.22 2705.05
   22:25:53.423.19-May-2020 5137.01 6456.60 67.92 4.00  70.42 2705.05
   22:25:53.623.19-May-2020 5137.01 6456.27 67.92 4.00  70.62 2705.05
   22:25:53.823.19-May-2020 5137.01 6455.70 67.92 4.00  70.82 2705.05
   22:25:54.023.19-May-2020 5137.01 6456.41 67.92 4.00  71.02 2705.05
   22:25:54.223.19-May-2020 5137.01 6458.98 67.92 4.00  71.22 2705.05
   22:25:54.423.19-May-2020 5137.01 6456.68 67.92 4.00  71.42 2705.05
   22:25:54.623.19-May-2020 5137.01 6458.80 67.92 4.00  71.62 2705.05
   22:25:54.823.19-May-2020 5137.01 6456.34 67.92 4.00  71.82 2705.05
   22:25:55.023.19-May-2020 5137.01 6459.95 67.92 4.00  72.02 2705.05
   22:25:55.223.19-May-2020 5137.01 6459.95 67.92 4.00  72.22 2705.05
   22:25:55.423.19-May-2020 5137.01 6458.84 67.92 4.00  72.42 2705.05
   22:25:55.623.19-May-2020 5137.01 6459.18 67.92 4.00  72.62 2705.05
   22:25:55.823.19-May-2020 5137.01 6457.24 67.92 4.00  72.82 2705.05
   22:25:56.023.19-May-2020 5137.01 6464.13 67.92 4.00  73.02 2705.05
   22:25:56.223.19-May-2020 5137.01 6464.13 67.92 4.00  73.22 2705.05
   22:25:56.423.19-May-2020 5137.01 6460.66 67.92 4.00  73.42 2705.05
   22:25:56.623.19-May-2020 5137.01 6458.97 67.92 4.00  73.62 2705.05
   22:25:56.823.19-May-2020 5137.01 6458.89 67.92 4.00  73.82 2705.05
   22:25:57.023.19-May-2020 5137.01 6461.50 67.92 4.00  74.02 2705.05
   22:25:57.224.19-May-2020 5137.01 6461.50 67.92 4.00  74.22 2705.05
   22:25:57.424.19-May-2020 5137.01 6460.97 67.92 4.00  74.42 2705.05
   22:25:57.624.19-May-2020 5137.01 6458.62 67.92 4.00  74.62 2705.05
   22:25:57.824.19-May-2020 5137.01 6459.44 67.92 4.00  74.82 2705.05
   22:25:58.024.19-May-2020 5137.01 6463.29 67.92 4.00  75.02 2705.05
   22:25:58.224.19-May-2020 5137.01 6457.36 67.92 4.00  75.22 2705.05
   22:25:58.424.19-May-2020 5137.01 6460.98 67.92 4.00  75.42 2705.05
   22:25:58.624.19-May-2020 5137.01 6460.12 67.92 4.00  75.62 2705.05
   22:25:58.824.19-May-2020 5137.01 6459.52 67.92 4.00  75.82 2705.05
   22:25:59.024.19-May-2020 5137.01 6458.92 67.92 4.00  76.02 2705.05
   22:25:59.224.19-May-2020 5137.01 6458.92 67.92 4.00  76.22 2705.05
   22:25:59.424.19-May-2020 5137.01 6458.43 67.92 4.00  76.42 2705.05
   22:25:59.624.19-May-2020 5137.01 6458.39 67.92 4.00  76.62 2705.05
   22:25:59.824.19-May-2020 5137.01 6457.67 67.92 4.00  76.82 2705.05
   22:26:00.024.19-May-2020 5137.01 6458.69 67.92 4.00  77.02 2705.05
   22:26:00.224.19-May-2020 5137.01 6458.69 67.92 4.00  77.22 2705.05
   22:26:00.424.19-May-2020 5137.01 6457.93 67.92 4.00  77.42 2705.05
   22:26:00.624.19-May-2020 5137.01 6457.81 67.92 4.00  77.62 2705.05
   22:26:00.824.19-May-2020 5137.01 6457.41 67.92 4.00  77.82 2705.05
   22:26:01.024.19-May-2020 5137.01 6461.28 67.92 4.00  78.02 2705.05
   22:26:01.225.19-May-2020 5137.01 6461.28 67.92 4.00  78.22 2705.05
   22:26:01.425.19-May-2020 5137.01 6460.18 67.92 4.00  78.42 2705.05
   22:26:01.625.19-May-2020 5137.01 6459.61 67.92 4.00  78.62 2705.05
   22:26:01.825.19-May-2020 5137.01 6459.11 67.92 4.00  78.82 2705.05
   22:26:02.025.19-May-2020 5137.01 6462.91 67.92 4.00  79.02 2705.05
   22:26:02.225.19-May-2020 5137.01 6458.79 67.92 4.00  79.22 2705.05
   22:26:02.425.19-May-2020 5137.01 6462.19 67.92 4.00  79.42 2705.05
   22:26:02.625.19-May-2020 5137.01 6459.42 67.92 4.00  79.62 2705.05
   22:26:02.825.19-May-2020 5137.01 6460.85 67.92 4.00  79.82 2705.05
   22:26:03.025.19-May-2020 5137.01 6463.14 67.92 4.00  80.02 2705.05
   22:26:03.225.19-May-2020 5137.01 6463.14 67.92 4.00  80.22 2705.05
   22:26:03.425.19-May-2020 5137.01 6462.00 67.92 4.00  80.42 2705.05
   22:26:03.625.19-May-2020 5137.01 6459.43 67.92 4.00  80.62 2705.05
   22:26:03.825.19-May-2020 5137.01 6466.10 67.92 4.00  80.82 2705.05
   22:26:04.025.19-May-2020 5137.01 6458.42 67.92 4.00  81.02 2705.05
   22:26:04.225.19-May-2020 5137.01 6458.42 67.92 4.00  81.22 2705.05
   22:26:04.425.19-May-2020 5137.01 6461.37 67.92 4.00  81.42 2705.05
   22:26:04.625.19-May-2020 5137.01 6464.97 67.92 4.00  81.62 2705.05
   22:26:04.825.19-May-2020 5137.01 6459.64 67.92 4.00  81.82 2705.05
   22:26:05.025.19-May-2020 5137.01 6463.05 67.92 4.00  82.02 2705.05
   22:26:05.226.19-May-2020 5137.01 6463.05 67.92 4.00  82.22 2705.05
   22:26:05.426.19-May-2020 5137.01 6462.75 67.92 4.00  82.42 2705.05
   22:26:05.626.19-May-2020 5137.01 6459.63 67.92 4.00  82.62 2705.05
   22:26:05.826.19-May-2020 5137.01 6460.17 67.92 4.00  82.82 2705.05
   22:26:06.026.19-May-2020 5137.01 6460.41 67.92 4.00  83.02 2705.05
   22:26:06.226.19-May-2020 5137.01 6459.59 67.92 4.00  83.22 2705.05
   22:26:06.426.19-May-2020 5137.01 6459.60 67.92 4.00  83.42 2705.05
   22:26:06.626.19-May-2020 5137.01 6459.46 67.92 4.00  83.62 2705.05
   22:26:06.826.19-May-2020 5137.01 6458.92 67.92 4.00  83.82 2705.05
   22:26:07.026.19-May-2020 5137.01 6460.25 67.92 4.00  84.02 2705.05
   22:26:07.226.19-May-2020 5137.01 6460.25 67.92 4.00  84.22 2705.05
   22:26:07.426.19-May-2020 5137.01 6459.37 67.92 4.00  84.42 2705.05
   22:26:07.626.19-May-2020 5137.01 6462.54 67.92 4.00  84.62 2705.05
   22:26:07.826.19-May-2020 5137.01 6458.98 67.92 4.00  84.82 2705.05
   22:26:08.026.19-May-2020 5137.01 6462.46 67.92 4.00  85.02 2705.05
   22:26:08.226.19-May-2020 5137.01 6462.46 67.92 4.00  85.22 2705.05
   22:26:08.426.19-May-2020 5137.01 6462.76 67.92 4.00  85.42 2705.05
   22:26:08.626.19-May-2020 5137.01 6461.38 67.92 4.00  85.62 2705.05
   22:26:08.826.19-May-2020 5137.01 6461.01 67.92 4.00  85.82 2705.05
   22:26:09.026.19-May-2020 5137.01 6462.42 67.92 4.00  86.02 2705.05
   22:26:09.227.19-May-2020 5137.01 6462.42 67.92 4.00  86.22 2705.05
   22:26:09.427.19-May-2020 5137.01 6463.12 67.92 4.00  86.42 2705.05
   22:26:09.627.19-May-2020 5137.01 6462.20 67.92 4.00  86.62 2705.05
   22:26:09.827.19-May-2020 5137.01 6461.66 67.92 4.00  86.82 2705.05
   22:26:10.027.19-May-2020 5137.01 6463.55 67.92 4.00  87.02 2705.05
   22:26:10.227.19-May-2020 5137.01 6460.36 67.92 4.00  87.22 2705.05
   22:26:10.427.19-May-2020 5137.01 6466.33 67.92 4.00  87.42 2705.05
   22:26:10.627.19-May-2020 5137.01 6460.96 67.92 4.00  87.62 2705.05
   22:26:10.827.19-May-2020 5137.01 6463.86 67.92 4.00  87.82 2705.05
   22:26:11.027.19-May-2020 5137.01 6462.07 67.92 4.00  88.02 2705.05
   22:26:11.227.19-May-2020 5137.01 6462.07 67.92 4.00  88.22 2705.05
   22:26:11.427.19-May-2020 5137.01 6461.72 67.92 4.00  88.42 2705.05
   22:26:11.627.19-May-2020 5137.01 6463.37 67.92 4.00  88.62 2705.05
   22:26:11.827.19-May-2020 5137.01 6462.04 67.92 4.00  88.82 2705.05
   22:26:12.027.19-May-2020 5137.01 6462.77 67.92 4.00  89.02 2705.05
   22:26:12.227.19-May-2020 5137.01 6462.77 67.92 4.00  89.22 2705.05
   22:26:12.427.19-May-2020 5137.01 6461.50 67.92 4.00  89.42 2705.05
   22:26:12.627.19-May-2020 5137.01 6460.74 67.92 4.00  89.62 2705.05
   22:26:12.827.19-May-2020 5137.01 6460.31 67.92 4.00  89.82 2705.05
   22:26:13.027.19-May-2020 5137.01 6460.94 67.92 4.00  90.02 2705.05
   22:26:13.228.19-May-2020 5137.01 6460.94 67.92 4.00  90.22 2705.05
   22:26:13.428.19-May-2020 5137.01 6460.58 67.92 4.00  90.42 2705.05
   22:26:13.628.19-May-2020 5137.01 6460.05 67.92 4.00  90.62 2705.05
   22:26:13.828.19-May-2020 5137.01 6459.62 67.92 4.00  90.82 2705.05
   22:26:14.028.19-May-2020 5137.01 6460.12 67.92 4.00  91.02 2705.05
   22:26:14.228.19-May-2020 5137.01 6460.22 67.92 4.00  91.22 2705.05
   22:26:14.428.19-May-2020 5137.01 6462.21 67.92 4.00  91.42 2705.05
   22:26:14.628.19-May-2020 5137.01 6460.72 67.92 4.00  91.62 2705.05
   22:26:14.828.19-May-2020 5137.01 6461.72 67.92 4.00  91.82 2705.05
