~Version Information
 VERS.                  2.0:   CWLS log ASCII Standard -VERSION 2.0
 WRAP.                   NO:   One line per depth step
~Well Information Block
#MNEM.UNIT     VALUE/NAME     DESCRIPTION
#---------     -----------    ---------------------------
 STRT.S             00:06:39 20-May-20: START TIME 00:06:39 20-May-20
 STOP.S             00:17:12 20-May-20: STOP TIME  00:17:12 20-May-20
 STEP.S                   0.00: STEP TIME
 NULL.                 -999.25: NULL VALUE
 MDS .        Operator Entered:  MAG DATA SOURCE
 PDAT.          Mean Sea Level:  PERMANENT DATUM
 UNIT.                     N/A:  LOGGING EQUIPMENT ID
 DCON.         Sperry Drilling:  DIRECTNL CONTR
 DOE .                     N/A:  DOE NUMBER
 RIG .              East Azeri:  RIG NAME
 JOBN.        AZ-XX-0905856059:  JOB TICKET NUMB
 WELL.                     D36:  WELL NAME
 MWDS.                    Baku:  MWD SHOP
 SRVC.     Turan Drilling & Engineering:  CONTRACTOR
 FLD .                     ACG:  FIELD NAME
 CTRY.              Azerbaijan:  COUNTRY NAME
 PROV.                    Baku:  PROVINCE
 STAT.                    Baku:  STATE NAME
 REGN.                   EESSA:  REGION
 BASE.              Azerbaijan:  LOGGING EQUIPMENT BASE LOCATION
 UWI .                     N/A:  UNIQUE WELL IDENTIFIER
 API .                     N/A:  API NUMBER
 COMP.     BP Exploration (Caspian Sea) Ltd.:  COMPANY
 WTYP.                Deviated:  WELL TYPE
 SON .        AZ-XX-0905856059:  JOB NUMBER
 FTOP.          Formation Tops:  FORM TOPS DESC
 ILTD.               Lithology:  INTERP LTH DESC
 SVYD.                  Survey:  SURVEY DESC
 DMOD.             Drill Model:  DRILL MOD DESC
 HPTY.       Minimum Curvature:  HOLE POS TYPE
 NREF.                    Grid:  NORTH REFERENCE
 SPUD.               25-Feb-20:  SPUD DATE
 DATE.      08.55.28 01-May-20:  END TIME
 STIM.      08.55.28 25-Feb-20:  START TIME
 DMF .             Drill Floor:  DRILL MEAS FROM
 DFST.                        :  DIST FSL TEXT
 DFWT.                        :  DIST FWL TEXT
 CNTY.                        :  COUNTY
 LOC .                        :  LOCATION
 LMF .             Drill Floor:  LOG MEASURED FROM
 VSNS.m                   6.09:  VERT SEC N/S
 VSEW.m                 -10.79:  VERT SEC E/W
 AGAP.m                  43.60:  AIR GAP
 DEP .m                 388.24:  DEPTH
 APD .m                  43.60:  DEPTH ABOVE PD
 WDMS.m                 151.80:  WD ELEV
 EGL .m                   0.00:  GROUND ELEVATION
 EPD .m                   0.00:  ELEVATION
 AZTC.deg                 6.12:  AZM TOTAL CORR
 GRDC.deg                 0.30:  GRID CORRECTION
 MDEC.deg                 6.42:  MAGNETIC DECL
 MDIP.deg                59.42:  MAGNETIC DIP
 MFLD.nT              50256.00:  MAGNETIC FIELD
 GVFD.g                   1.00:  GRAVITY FIELD
 VSDR.deg               159.57:  VERT SEC DIRECT
 TDD .m                5000.01:  TOTAL DEPTH (DRILLER)
 SDEP.m                 397.00:  START DEPTH
 DFSL.m                   0.00:  DISTANCE FSL
 DFWL.m                   0.00:  DISTANCE FWL
 UTMY.m             4431880.20:  UTM Y
 UTMX.m              538763.98:  UTM X
 WHEW.m                 -10.79:  WELL HEAD E/W
 WHNS.m                   6.09:  WELL HEAD N/S
 LONG.deg                51.45:  LONGITUDE
 LATI.deg                40.02:  LATITUDE
 TVDS.m                  43.60:  TVDSS CORRECTN
 EKB .m                  43.60:  KB ELEVATION
 EDF .m                  43.60:  DF ELEVATION
 MAGU.                 1847640:  MAGUTM CHECKSUM
 VSC .                       0:  VS TO CLOSURE
~Parameter Information Block
#MNEM.UNIT       Value        Description
#---------     -----------    ---------------------------
 AV  .mps                 1.30:  Ann Velocity 
 AVMX.mps                 1.90:  Max Ann Veloc 
 AZIF.deg               115.68:  Azm, Final 
 BHAT.                   Other:  BHA Type 
 BROT.°/30m               0.74:  Build Rotating 
 BS  .in                  8.50:  Bit Size 
 BTPL.psig              430.00:  Bit Press Loss 
 CABU.                      No:  Customer Abuse 
 COMM.                     \õd:  Run Comments 1 
 TCS .hr                 51.31:  Time Ciculation Ended 
 CV  .mps                 2.52:  Crit Velocity 
 CVMX.mps                 2.62:  Max Crit Veloc 
 DD1 .          Teymur Aghayev:  Direct Drillr 1 
 DDSV.                   Other:  DD Service 
 DEFF.%                 100.00:  % Det Eff 
 DLRX.°/30m               1.62:  Dogleg Rot Max 
 DLSO.°/30m               0.74:  Dogleg Oriented 
 DLSX.°/30m               1.62:  Dogleg Str Max 
 DRET.      04.30.56 18-May-20:  Drill End Time 
 DRST.      04.30.56 18-May-20:  Drill Start Tim 
 DTIM.hr                  0.00:  Time Drilling 
 EDEP.m                5337.01:  End Depth 
 ENG1.      Artemiy Matviyanov:  Engineer 1 
 ENG2.      Bakhtiyar Jabbarli:  Engineer 2 
 ENG3.           Emil Huseynov:  Engineer 3 
 ETIM.      18.40.00 22-May-20:  End Time 
 FLOI.gpm               550.00:  Flow In 
 FLON.gpm               350.00:  Flow In Min 
 FLOS.cptm                0.00:  Fluid Loss 
 FLOX.gpm               600.00:  Flow In Max 
 HFLO.                      No:  High Flow 
 HPRE.                      No:  High Pressure 
 HTEM.                      No:  High Temp 
 HYDO.m                   1.80:  Hydro Offset 
 IFIN.deg                67.01:  Inc, Final 
 IMAX.deg                67.49:  Inc Max 
 IMIN.deg                66.50:  Inc Min 
 IMND.m                5144.79:  Inc Min Depth 
 IMXD.m                5116.12:  Inc Max Depth 
 JARR.                      No:  Jarring 
 LETM.      17.55.56 20-May-20:  Log End Time 
 LOST.hr                     0:  Lost Rig Time 
 LSTM.      04.30.56 18-May-20:  Log Start Time 
 MDCL.ppm            193153.00:  Mud Chlorides 
 MDES.     Inversion Oil/Synthetic:  Mud Desc 
 DFD .sg                  1.40:  Mud Density 
 MDMN.sg                  1.40:  Dens Mud Min 
 MDMX.sg                  1.41:  Dens Mud Max 
 MOIL.                      68:  Run Mud Oil % 
 MOWR.                   68:32:  Run Mud OWR 
 MSND.                     0.2:  Run Mud Sand % 
 MSOL.                    18.8:  Run Mud Solids% 
 DFV .spqt               80.00:  Mud Viscosity 
 MWOD.in                  6.75:  MWD Tool OD 
 MWSI.                      No:  Serv Intrp, MWD 
 OTIM.hr                104.84:  Time Operating 
 PMAX.psia            10690.93:  Press Op, Max 
 PV  .cP                 26.00:  Mud PV 
 RUN .                     900:  Run Number 
 ROPA.m/hr                0.00:  ROP Avg 
 ROPN.m/hr                0.00:  ROP Min 
 ROPX.m/hr                0.00:  ROP Max 
 RPMA.rpm               140.00:  RPM Surface Avg 
 RPMN.rpm                70.00:  RPM Surface Min 
 RPMX.rpm               140.00:  RPM Surface Max 
 RRUN.                    0900:  Rig Run Number 
 RTIM.hr                 36.00:  Time Reaming 
 SAZI.deg               115.72:  Azm, Start 
 SDEP.m                5337.01:  Start Depth 
 SIDD.                      No:  Serv Intrp, DD 
 SINC.deg                66.92:  Inc, Start 
 SPPA.psig             4400.00:  SPP Avg 
 SPPN.psig             1135.00:  SPP Min 
 SPPX.psig             4581.00:  SPP Max 
 STIM.      04.30.56 18-May-20:  Start Time 
 SVCS.                     MWD:  Services 
 SVER.                    9.20:  Sperry Version 
 TDAT.m                5337.01:  Tot Depth Attmp 
 TDDF.                      No:  Trip for DD 
 TFF .                      No:  Trip for Fail 
 TQAA.f-kp               23.00:  Torque Abs Avg 
 TQAN.f-kp               18.00:  Torque Abs Min 
 TQAX.f-kp               25.00:  Torque Abs Max 
 TRRT.°/30m               0.74:  Turn Rotating 
 MRT .                    HCIM:  Maximum Recorded Temperature 
 TTMX.degC               76.47:  Max Tool Temp 
 WBMN.klb                 0.00:  WOB Min 
 WITN.             Anar Khalil:  Customer Rep 
 WITN.      Kamran Keberlinski:  Customer Rep 2 
 WOBA.klb                 0.00:  WOB Avg 
 WOBX.klb                 0.00:  WOB Max 
 YP  .lhf2               27.00:  Yield Point 
~Curve Information Block
#MNEM.UNIT                 API CODE     Curve Description
#---------               -----------    ---------------------------
 TIME.HHMMSS            00 000 000 000:  GT Time & Date
 GTDEPTH.m              00 000 000 000:  GT Depth
 GTPQH.psia             00 000 000 000:  GT HR Quartz Pressure
 GTTQ.degC              00 000 000 000:  GT Quartz Temperature
 GTTN.NONE              00 000 000 000:  GT Test Number
 GTET.sec               00 000 000 000:  GT Elapsed Test Time
 GTTVD.m                00 000 000 000:  GT True Vertical Depth
#Other Information
#
#WARRANTY: Halliburton will use its best efforts to furnish customers with 
#accurate information and interpretations that are part of, and incident to, the services 
#provided.  However, Halliburton cannot and does not warrant the accuracy 
#or correctness of such information and interpretations.  Under no circumstances should any 
#such information or interpretation be relied upon as the sole basis for any drilling, 
#completion, production, or financial decision or any procedure involving any risk to the 
#safety of any drilling venture, drilling rig or its crew or any other third party.  The 
#Customer has full responsibility for all drilling, completion and production operation.  
#Halliburton makes no representations or warranties, either expressed or 
#implied, including, but not limited to, the implied warranties of merchantability or fitness 
#for a particular purpose, with respect to the services rendered.  In no event will 
#Halliburton be liable for failure to obtain any particular results or for 
#any damages, including, but not limited to, indirect, special or consequential damages, 
#resulting from the use of any information or interpretation provided by Halliburton.
#
~A           TIME           GTDEPTH  GTPQH  GTTQ  GTTN  GTET   GTTVD  
# ...
   00:15:05.656.20-May-2020 5121.01 3572.55 67.87 6.00 506.13 2698.81
   00:15:05.856.20-May-2020 5121.01 3572.55 67.87 6.00 506.33 2698.81
   00:15:06.056.20-May-2020 5121.01 3572.56 67.87 6.00 506.53 2698.81
   00:15:06.256.20-May-2020 5121.01 3572.58 67.87 6.00 506.73 2698.81
   00:15:06.456.20-May-2020 5121.01 3572.57 67.87 6.00 506.93 2698.81
   00:15:06.656.20-May-2020 5121.01 3572.56 67.87 6.00 507.13 2698.81
   00:15:06.856.20-May-2020 5121.01 3572.56 67.87 6.00 507.33 2698.81
   00:15:07.056.20-May-2020 5121.01 3572.43 67.87 6.00 507.53 2698.81
   00:15:07.256.20-May-2020 5121.01 3572.74 67.87 6.00 507.73 2698.81
   00:15:07.456.20-May-2020 5121.01 3572.56 67.87 6.00 507.93 2698.81
   00:15:07.656.20-May-2020 5121.01 3572.56 67.87 6.00 508.13 2698.81
   00:15:07.856.20-May-2020 5121.01 3572.56 67.87 6.00 508.33 2698.81
   00:15:08.056.20-May-2020 5121.01 3572.58 67.87 6.00 508.53 2698.81
   00:15:08.257.20-May-2020 5121.01 3572.56 67.87 6.00 508.73 2698.81
   00:15:08.457.20-May-2020 5121.01 3572.58 67.87 6.00 508.93 2698.81
   00:15:08.657.20-May-2020 5121.01 3572.50 67.87 6.00 509.13 2698.81
   00:15:08.857.20-May-2020 5121.01 3572.50 67.87 6.00 509.33 2698.81
   00:15:09.057.20-May-2020 5121.01 3572.54 67.87 6.00 509.53 2698.81
   00:15:09.257.20-May-2020 5121.01 3572.61 67.87 6.00 509.73 2698.81
   00:15:09.457.20-May-2020 5121.01 3572.55 67.87 6.00 509.93 2698.81
   00:15:09.657.20-May-2020 5121.01 3572.57 67.87 6.00 510.13 2698.81
   00:15:09.857.20-May-2020 5121.01 3572.57 67.87 6.00 510.33 2698.81
   00:15:10.057.20-May-2020 5121.01 3572.59 67.87 6.00 510.53 2698.81
   00:15:10.257.20-May-2020 5121.01 3572.56 67.87 6.00 510.73 2698.81
   00:15:10.457.20-May-2020 5121.01 3572.57 67.87 6.00 510.93 2698.81
   00:15:10.657.20-May-2020 5121.01 3572.50 67.87 6.00 511.13 2698.81
   00:15:10.857.20-May-2020 5121.01 3572.50 67.87 6.00 511.33 2698.81
   00:15:11.057.20-May-2020 5121.01 3572.53 67.87 6.00 511.53 2698.81
   00:15:11.257.20-May-2020 5121.01 3572.63 67.87 6.00 511.73 2698.81
   00:15:11.457.20-May-2020 5121.01 3572.55 67.87 6.00 511.93 2698.81
   00:15:11.657.20-May-2020 5121.01 3572.61 67.87 6.00 512.13 2698.81
   00:15:11.857.20-May-2020 5121.01 3572.61 67.87 6.00 512.33 2698.81
   00:15:12.057.20-May-2020 5121.01 3572.59 67.87 6.00 512.53 2698.81
   00:15:12.258.20-May-2020 5121.01 3572.57 67.87 6.00 512.73 2698.81
   00:15:12.458.20-May-2020 5121.01 3572.62 67.87 6.00 512.93 2698.81
   00:15:12.658.20-May-2020 5121.01 3572.53 67.87 6.00 513.13 2698.81
   00:15:12.858.20-May-2020 5121.01 3572.53 67.87 6.00 513.33 2698.81
   00:15:13.058.20-May-2020 5121.01 3572.56 67.87 6.00 513.53 2698.81
   00:15:13.258.20-May-2020 5121.01 3572.58 67.87 6.00 513.73 2698.81
   00:15:13.458.20-May-2020 5121.01 3572.56 67.87 6.00 513.93 2698.81
   00:15:13.658.20-May-2020 5121.01 3572.56 67.87 6.00 514.13 2698.81
   00:15:13.858.20-May-2020 5121.01 3572.56 67.87 6.00 514.33 2698.81
   00:15:14.058.20-May-2020 5121.01 3572.56 67.87 6.00 514.53 2698.81
   00:15:14.258.20-May-2020 5121.01 3572.58 67.87 6.00 514.73 2698.81
   00:15:14.458.20-May-2020 5121.01 3572.57 67.87 6.00 514.93 2698.81
   00:15:14.658.20-May-2020 5121.01 3572.53 67.87 6.00 515.13 2698.81
   00:15:14.858.20-May-2020 5121.01 3572.53 67.87 6.00 515.33 2698.81
   00:15:15.058.20-May-2020 5121.01 3572.58 67.87 6.00 515.53 2698.81
   00:15:15.258.20-May-2020 5121.01 3572.60 67.87 6.00 515.73 2698.81
   00:15:15.458.20-May-2020 5121.01 3572.44 67.87 6.00 515.93 2698.81
   00:15:15.658.20-May-2020 5121.01 3572.69 67.87 6.00 516.13 2698.81
   00:15:15.858.20-May-2020 5121.01 3572.57 67.87 6.00 516.33 2698.81
   00:15:16.058.20-May-2020 5121.01 3572.56 67.87 6.00 516.53 2698.81
   00:15:16.259.20-May-2020 5121.01 3572.58 67.87 6.00 516.73 2698.81
   00:15:16.459.20-May-2020 5121.01 3572.58 67.87 6.00 516.93 2698.81
   00:15:16.659.20-May-2020 5121.01 3572.43 67.87 6.00 517.13 2698.81
   00:15:16.859.20-May-2020 5121.01 3572.43 67.87 6.00 517.33 2698.81
   00:15:17.059.20-May-2020 5121.01 3572.54 67.87 6.00 517.53 2698.81
   00:15:17.259.20-May-2020 5121.01 3572.59 67.87 6.00 517.73 2698.81
   00:15:17.459.20-May-2020 5121.01 3572.56 67.87 6.00 517.93 2698.81
   00:15:17.659.20-May-2020 5121.01 3572.58 67.87 6.00 518.13 2698.81
   00:15:17.859.20-May-2020 5121.01 3572.58 67.87 6.00 518.33 2698.81
   00:15:18.059.20-May-2020 5121.01 3572.58 67.87 6.00 518.53 2698.81
   00:15:18.259.20-May-2020 5121.01 3572.52 67.87 6.00 518.73 2698.81
   00:15:18.459.20-May-2020 5121.01 3572.59 67.87 6.00 518.93 2698.81
   00:15:18.659.20-May-2020 5121.01 3572.57 67.87 6.00 519.13 2698.81
   00:15:18.859.20-May-2020 5121.01 3572.57 67.87 6.00 519.33 2698.81
   00:15:19.059.20-May-2020 5121.01 3572.62 67.87 6.00 519.53 2698.81
   00:15:19.259.20-May-2020 5121.01 3572.64 67.87 6.00 519.73 2698.81
   00:15:19.459.20-May-2020 5121.01 3572.51 67.87 6.00 519.93 2698.81
   00:15:19.659.20-May-2020 5121.01 3572.56 67.87 6.00 520.13 2698.81
   00:15:19.859.20-May-2020 5121.01 3572.56 67.87 6.00 520.33 2698.81
   00:15:20.059.20-May-2020 5121.01 3572.58 67.87 6.00 520.53 2698.81
   00:15:20.260.20-May-2020 5121.01 3572.54 67.87 6.00 520.73 2698.81
   00:15:20.460.20-May-2020 5121.01 3572.58 67.87 6.00 520.93 2698.81
   00:15:20.660.20-May-2020 5121.01 3572.55 67.87 6.00 521.13 2698.81
   00:15:20.860.20-May-2020 5121.01 3572.55 67.87 6.00 521.33 2698.81
   00:15:21.060.20-May-2020 5121.01 3572.56 67.87 6.00 521.53 2698.81
   00:15:21.260.20-May-2020 5121.01 3572.59 67.87 6.00 521.73 2698.81
   00:15:21.460.20-May-2020 5121.01 3572.57 67.87 6.00 521.93 2698.81
   00:15:21.660.20-May-2020 5121.01 3572.56 67.87 6.00 522.13 2698.81
   00:15:21.860.20-May-2020 5121.01 3572.56 67.87 6.00 522.33 2698.81
   00:15:22.060.20-May-2020 5121.01 3572.56 67.87 6.00 522.53 2698.81
   00:15:22.260.20-May-2020 5121.01 3572.60 67.87 6.00 522.73 2698.81
   00:15:22.460.20-May-2020 5121.01 3572.49 67.87 6.00 522.93 2698.81
   00:15:22.660.20-May-2020 5121.01 3572.61 67.87 6.00 523.13 2698.81
   00:15:22.860.20-May-2020 5121.01 3572.56 67.87 6.00 523.33 2698.81
   00:15:23.060.20-May-2020 5121.01 3572.56 67.87 6.00 523.53 2698.81
   00:15:23.260.20-May-2020 5121.01 3572.58 67.87 6.00 523.73 2698.81
   00:15:23.460.20-May-2020 5121.01 3572.60 67.87 6.00 523.93 2698.81
   00:15:23.660.20-May-2020 5121.01 3572.58 67.87 6.00 524.13 2698.81
   00:15:23.860.20-May-2020 5121.01 3572.58 67.87 6.00 524.33 2698.81
   00:15:24.060.20-May-2020 5121.01 3572.55 67.87 6.00 524.53 2698.81
   00:15:24.260.20-May-2020 5121.01 3572.56 67.87 6.00 524.73 2698.81
   00:15:24.461.20-May-2020 5121.01 3572.56 67.87 6.00 524.93 2698.81
   00:15:24.661.20-May-2020 5121.01 3572.60 67.87 6.00 525.13 2698.81
   00:15:24.861.20-May-2020 5121.01 3572.60 67.87 6.00 525.33 2698.81
   00:15:25.061.20-May-2020 5121.01 3572.54 67.87 6.00 525.53 2698.81
   00:15:25.261.20-May-2020 5121.01 3572.57 67.87 6.00 525.73 2698.81
   00:15:25.461.20-May-2020 5121.01 3572.55 67.87 6.00 525.93 2698.81
   00:15:25.661.20-May-2020 5121.01 3572.59 67.87 6.00 526.13 2698.81
   00:15:25.861.20-May-2020 5121.01 3572.59 67.87 6.00 526.33 2698.81
   00:15:26.061.20-May-2020 5121.01 3572.56 67.87 6.00 526.53 2698.81
   00:15:26.261.20-May-2020 5121.01 3572.54 67.87 6.00 526.73 2698.81
   00:15:26.461.20-May-2020 5121.01 3572.59 67.87 6.00 526.93 2698.81
   00:15:26.661.20-May-2020 5121.01 3572.55 67.87 6.00 527.13 2698.81
   00:15:26.861.20-May-2020 5121.01 3572.55 67.87 6.00 527.33 2698.81
   00:15:27.061.20-May-2020 5121.01 3572.53 67.87 6.00 527.53 2698.81
   00:15:27.261.20-May-2020 5121.01 3572.60 67.87 6.00 527.73 2698.81
   00:15:27.461.20-May-2020 5121.01 3572.52 67.87 6.00 527.93 2698.81
   00:15:27.661.20-May-2020 5121.01 3572.59 67.87 6.00 528.13 2698.81
   00:15:27.861.20-May-2020 5121.01 3572.59 67.87 6.00 528.33 2698.81
   00:15:28.061.20-May-2020 5121.01 3572.56 67.87 6.00 528.53 2698.81
   00:15:28.261.20-May-2020 5121.01 3572.59 67.87 6.00 528.73 2698.81
   00:15:28.462.20-May-2020 5121.01 3572.57 67.87 6.00 528.93 2698.81
