~Version Information
 VERS.                  2.0:   CWLS log ASCII Standard -VERSION 2.0
 WRAP.                   NO:   One line per depth step
~Well Information Block
#MNEM.UNIT     VALUE/NAME     DESCRIPTION
#---------     -----------    ---------------------------
 STRT.S             03:43:00 20-May-20: START TIME 03:43:00 20-May-20
 STOP.S             03:53:08 20-May-20: STOP TIME  03:53:08 20-May-20
 STEP.S                   0.00: STEP TIME
 NULL.                 -999.25: NULL VALUE
 MDS .        Operator Entered:  MAG DATA SOURCE
 PDAT.          Mean Sea Level:  PERMANENT DATUM
 UNIT.                     N/A:  LOGGING EQUIPMENT ID
 DCON.         Sperry Drilling:  DIRECTNL CONTR
 DOE .                     N/A:  DOE NUMBER
 RIG .              East Azeri:  RIG NAME
 JOBN.        AZ-XX-0905856059:  JOB TICKET NUMB
 WELL.                     D36:  WELL NAME
 MWDS.                    Baku:  MWD SHOP
 SRVC.     Turan Drilling & Engineering:  CONTRACTOR
 FLD .                     ACG:  FIELD NAME
 CTRY.              Azerbaijan:  COUNTRY NAME
 PROV.                    Baku:  PROVINCE
 STAT.                    Baku:  STATE NAME
 REGN.                   EESSA:  REGION
 BASE.              Azerbaijan:  LOGGING EQUIPMENT BASE LOCATION
 UWI .                     N/A:  UNIQUE WELL IDENTIFIER
 API .                     N/A:  API NUMBER
 COMP.     BP Exploration (Caspian Sea) Ltd.:  COMPANY
 WTYP.                Deviated:  WELL TYPE
 SON .        AZ-XX-0905856059:  JOB NUMBER
 FTOP.          Formation Tops:  FORM TOPS DESC
 ILTD.               Lithology:  INTERP LTH DESC
 SVYD.                  Survey:  SURVEY DESC
 DMOD.             Drill Model:  DRILL MOD DESC
 HPTY.       Minimum Curvature:  HOLE POS TYPE
 NREF.                    Grid:  NORTH REFERENCE
 SPUD.               25-Feb-20:  SPUD DATE
 DATE.      08.55.28 01-May-20:  END TIME
 STIM.      08.55.28 25-Feb-20:  START TIME
 DMF .             Drill Floor:  DRILL MEAS FROM
 DFST.                        :  DIST FSL TEXT
 DFWT.                        :  DIST FWL TEXT
 CNTY.                        :  COUNTY
 LOC .                        :  LOCATION
 LMF .             Drill Floor:  LOG MEASURED FROM
 VSNS.m                   6.09:  VERT SEC N/S
 VSEW.m                 -10.79:  VERT SEC E/W
 AGAP.m                  43.60:  AIR GAP
 DEP .m                 388.24:  DEPTH
 APD .m                  43.60:  DEPTH ABOVE PD
 WDMS.m                 151.80:  WD ELEV
 EGL .m                   0.00:  GROUND ELEVATION
 EPD .m                   0.00:  ELEVATION
 AZTC.deg                 6.12:  AZM TOTAL CORR
 GRDC.deg                 0.30:  GRID CORRECTION
 MDEC.deg                 6.42:  MAGNETIC DECL
 MDIP.deg                59.42:  MAGNETIC DIP
 MFLD.nT              50256.00:  MAGNETIC FIELD
 GVFD.g                   1.00:  GRAVITY FIELD
 VSDR.deg               159.57:  VERT SEC DIRECT
 TDD .m                5000.01:  TOTAL DEPTH (DRILLER)
 SDEP.m                 397.00:  START DEPTH
 DFSL.m                   0.00:  DISTANCE FSL
 DFWL.m                   0.00:  DISTANCE FWL
 UTMY.m             4431880.20:  UTM Y
 UTMX.m              538763.98:  UTM X
 WHEW.m                 -10.79:  WELL HEAD E/W
 WHNS.m                   6.09:  WELL HEAD N/S
 LONG.deg                51.45:  LONGITUDE
 LATI.deg                40.02:  LATITUDE
 TVDS.m                  43.60:  TVDSS CORRECTN
 EKB .m                  43.60:  KB ELEVATION
 EDF .m                  43.60:  DF ELEVATION
 MAGU.                 1847640:  MAGUTM CHECKSUM
 VSC .                       0:  VS TO CLOSURE
~Parameter Information Block
#MNEM.UNIT       Value        Description
#---------     -----------    ---------------------------
 AV  .mps                 1.30:  Ann Velocity 
 AVMX.mps                 1.90:  Max Ann Veloc 
 AZIF.deg               115.68:  Azm, Final 
 BHAT.                   Other:  BHA Type 
 BROT.°/30m               0.74:  Build Rotating 
 BS  .in                  8.50:  Bit Size 
 BTPL.psig              430.00:  Bit Press Loss 
 CABU.                      No:  Customer Abuse 
 COMM.                     ÌÍk:  Run Comments 1 
 TCS .hr                 51.31:  Time Ciculation Ended 
 CV  .mps                 2.52:  Crit Velocity 
 CVMX.mps                 2.62:  Max Crit Veloc 
 DD1 .          Teymur Aghayev:  Direct Drillr 1 
 DDSV.                   Other:  DD Service 
 DEFF.%                 100.00:  % Det Eff 
 DLRX.°/30m               1.62:  Dogleg Rot Max 
 DLSO.°/30m               0.74:  Dogleg Oriented 
 DLSX.°/30m               1.62:  Dogleg Str Max 
 DRET.      04.30.56 18-May-20:  Drill End Time 
 DRST.      04.30.56 18-May-20:  Drill Start Tim 
 DTIM.hr                  0.00:  Time Drilling 
 EDEP.m                5337.01:  End Depth 
 ENG1.      Artemiy Matviyanov:  Engineer 1 
 ENG2.      Bakhtiyar Jabbarli:  Engineer 2 
 ENG3.           Emil Huseynov:  Engineer 3 
 ETIM.      18.40.00 22-May-20:  End Time 
 FLOI.gpm               550.00:  Flow In 
 FLON.gpm               350.00:  Flow In Min 
 FLOS.cptm                0.00:  Fluid Loss 
 FLOX.gpm               600.00:  Flow In Max 
 HFLO.                      No:  High Flow 
 HPRE.                      No:  High Pressure 
 HTEM.                      No:  High Temp 
 HYDO.m                   1.80:  Hydro Offset 
 IFIN.deg                67.01:  Inc, Final 
 IMAX.deg                67.49:  Inc Max 
 IMIN.deg                66.50:  Inc Min 
 IMND.m                5144.79:  Inc Min Depth 
 IMXD.m                5116.12:  Inc Max Depth 
 JARR.                      No:  Jarring 
 LETM.      17.55.56 20-May-20:  Log End Time 
 LOST.hr                     0:  Lost Rig Time 
 LSTM.      04.30.56 18-May-20:  Log Start Time 
 MDCL.ppm            193153.00:  Mud Chlorides 
 MDES.     Inversion Oil/Synthetic:  Mud Desc 
 DFD .sg                  1.40:  Mud Density 
 MDMN.sg                  1.40:  Dens Mud Min 
 MDMX.sg                  1.41:  Dens Mud Max 
 MOIL.                      68:  Run Mud Oil % 
 MOWR.                   68:32:  Run Mud OWR 
 MSND.                     0.2:  Run Mud Sand % 
 MSOL.                    18.8:  Run Mud Solids% 
 DFV .spqt               80.00:  Mud Viscosity 
 MWOD.in                  6.75:  MWD Tool OD 
 MWSI.                      No:  Serv Intrp, MWD 
 OTIM.hr                104.84:  Time Operating 
 PMAX.psia            10690.93:  Press Op, Max 
 PV  .cP                 26.00:  Mud PV 
 RUN .                     900:  Run Number 
 ROPA.m/hr                0.00:  ROP Avg 
 ROPN.m/hr                0.00:  ROP Min 
 ROPX.m/hr                0.00:  ROP Max 
 RPMA.rpm               140.00:  RPM Surface Avg 
 RPMN.rpm                70.00:  RPM Surface Min 
 RPMX.rpm               140.00:  RPM Surface Max 
 RRUN.                    0900:  Rig Run Number 
 RTIM.hr                 36.00:  Time Reaming 
 SAZI.deg               115.72:  Azm, Start 
 SDEP.m                5337.01:  Start Depth 
 SIDD.                      No:  Serv Intrp, DD 
 SINC.deg                66.92:  Inc, Start 
 SPPA.psig             4400.00:  SPP Avg 
 SPPN.psig             1135.00:  SPP Min 
 SPPX.psig             4581.00:  SPP Max 
 STIM.      04.30.56 18-May-20:  Start Time 
 SVCS.                     MWD:  Services 
 SVER.                    9.20:  Sperry Version 
 TDAT.m                5337.01:  Tot Depth Attmp 
 TDDF.                      No:  Trip for DD 
 TFF .                      No:  Trip for Fail 
 TQAA.f-kp               23.00:  Torque Abs Avg 
 TQAN.f-kp               18.00:  Torque Abs Min 
 TQAX.f-kp               25.00:  Torque Abs Max 
 TRRT.°/30m               0.74:  Turn Rotating 
 MRT .                    HCIM:  Maximum Recorded Temperature 
 TTMX.degC               76.47:  Max Tool Temp 
 WBMN.klb                 0.00:  WOB Min 
 WITN.             Anar Khalil:  Customer Rep 
 WITN.      Kamran Keberlinski:  Customer Rep 2 
 WOBA.klb                 0.00:  WOB Avg 
 WOBX.klb                 0.00:  WOB Max 
 YP  .lhf2               27.00:  Yield Point 
~Curve Information Block
#MNEM.UNIT                 API CODE     Curve Description
#---------               -----------    ---------------------------
 TIME.HHMMSS            00 000 000 000:  GT Time & Date
 GTDEPTH.m              00 000 000 000:  GT Depth
 GTPQH.psia             00 000 000 000:  GT HR Quartz Pressure
 GTTQ.degC              00 000 000 000:  GT Quartz Temperature
 GTTN.NONE              00 000 000 000:  GT Test Number
 GTET.sec               00 000 000 000:  GT Elapsed Test Time
 GTTVD.m                00 000 000 000:  GT True Vertical Depth
#Other Information
#
#WARRANTY: Halliburton will use its best efforts to furnish customers with 
#accurate information and interpretations that are part of, and incident to, the services 
#provided.  However, Halliburton cannot and does not warrant the accuracy 
#or correctness of such information and interpretations.  Under no circumstances should any 
#such information or interpretation be relied upon as the sole basis for any drilling, 
#completion, production, or financial decision or any procedure involving any risk to the 
#safety of any drilling venture, drilling rig or its crew or any other third party.  The 
#Customer has full responsibility for all drilling, completion and production operation.  
#Halliburton makes no representations or warranties, either expressed or 
#implied, including, but not limited to, the implied warranties of merchantability or fitness 
#for a particular purpose, with respect to the services rendered.  In no event will 
#Halliburton be liable for failure to obtain any particular results or for 
#any damages, including, but not limited to, indirect, special or consequential damages, 
#resulting from the use of any information or interpretation provided by Halliburton.
#
~A           TIME           GTDEPTH  GTPQH  GTTQ  GTTN  GTET   GTTVD  
# ...
   03:49:55.013.20-May-2020 5064.01  392.76 68.94 8.00 414.12 2676.56
   03:49:55.213.20-May-2020 5064.01  389.15 68.94 8.00 414.32 2676.56
   03:49:55.413.20-May-2020 5064.01  387.45 68.94 8.00 414.52 2676.56
   03:49:55.613.20-May-2020 5064.01  387.51 68.94 8.00 414.72 2676.56
   03:49:55.813.20-May-2020 5064.01  387.89 68.94 8.00 414.92 2676.56
   03:49:56.013.20-May-2020 5064.01  388.38 68.94 8.00 415.12 2676.56
   03:49:56.213.20-May-2020 5064.01  388.30 68.94 8.00 415.32 2676.56
   03:49:56.414.20-May-2020 5064.01  388.55 68.94 8.00 415.52 2676.56
   03:49:56.614.20-May-2020 5064.01  388.78 68.94 8.00 415.72 2676.56
   03:49:56.814.20-May-2020 5064.01  389.19 68.94 8.00 415.92 2676.56
   03:49:57.014.20-May-2020 5064.01  389.72 68.94 8.00 416.12 2676.56
   03:49:57.214.20-May-2020 5064.01  389.91 68.94 8.00 416.32 2676.56
   03:49:57.414.20-May-2020 5064.01  390.21 68.94 8.00 416.52 2676.56
   03:49:57.614.20-May-2020 5064.01  390.40 68.94 8.00 416.72 2676.56
   03:49:57.814.20-May-2020 5064.01  390.45 68.94 8.00 416.92 2676.56
   03:49:58.014.20-May-2020 5064.01  390.00 68.94 8.00 417.12 2676.56
   03:49:58.214.20-May-2020 5064.01  387.22 68.94 8.00 417.32 2676.56
   03:49:58.414.20-May-2020 5064.01  381.11 68.94 8.00 417.52 2676.56
   03:49:58.614.20-May-2020 5064.01  375.29 68.94 8.00 417.72 2676.56
   03:49:58.814.20-May-2020 5064.01  370.16 68.94 8.00 417.92 2676.56
   03:49:59.014.20-May-2020 5064.01  364.60 68.94 8.00 418.12 2676.56
   03:49:59.214.20-May-2020 5064.01  361.08 68.94 8.00 418.32 2676.56
   03:49:59.414.20-May-2020 5064.01  360.49 68.94 8.00 418.52 2676.56
   03:49:59.614.20-May-2020 5064.01  360.81 68.94 8.00 418.72 2676.56
   03:49:59.814.20-May-2020 5064.01  361.28 68.94 8.00 418.92 2676.56
   03:50:00.015.20-May-2020 5064.01  361.44 68.94 8.00 419.12 2676.56
   03:50:00.215.20-May-2020 5064.01  361.80 68.94 8.00 419.32 2676.56
   03:50:00.415.20-May-2020 5064.01  362.15 68.94 8.00 419.52 2676.56
   03:50:00.615.20-May-2020 5064.01  362.62 68.94 8.00 419.72 2676.56
   03:50:00.815.20-May-2020 5064.01  363.19 68.94 8.00 419.92 2676.56
   03:50:01.015.20-May-2020 5064.01  363.18 68.94 8.00 420.12 2676.56
   03:50:01.215.20-May-2020 5064.01  363.61 68.94 8.00 420.32 2676.56
   03:50:01.415.20-May-2020 5064.01  363.92 68.94 8.00 420.52 2676.56
   03:50:01.615.20-May-2020 5064.01  364.45 68.94 8.00 420.72 2676.56
   03:50:01.815.20-May-2020 5064.01  364.62 68.94 8.00 420.92 2676.56
   03:50:02.015.20-May-2020 5064.01  364.89 68.94 8.00 421.12 2676.56
   03:50:02.215.20-May-2020 5064.01  365.20 68.94 8.00 421.32 2676.56
   03:50:02.415.20-May-2020 5064.01  365.65 68.94 8.00 421.52 2676.56
   03:50:02.615.20-May-2020 5064.01  365.91 68.94 8.00 421.72 2676.56
   03:50:02.815.20-May-2020 5064.01  366.22 68.94 8.00 421.92 2676.56
   03:50:03.015.20-May-2020 5064.01  366.27 68.94 8.00 422.12 2676.56
   03:50:03.215.20-May-2020 5064.01  366.27 68.94 8.00 422.32 2676.56
   03:50:03.416.20-May-2020 5064.01  367.05 68.94 8.00 422.52 2676.56
   03:50:03.616.20-May-2020 5064.01  367.34 68.94 8.00 422.72 2676.56
   03:50:03.816.20-May-2020 5064.01  367.63 68.94 8.00 422.92 2676.56
   03:50:04.016.20-May-2020 5064.01  367.98 68.94 8.00 423.12 2676.56
   03:50:04.216.20-May-2020 5064.01  367.98 68.94 8.00 423.32 2676.56
   03:50:04.416.20-May-2020 5064.01  368.25 68.94 8.00 423.52 2676.56
   03:50:04.616.20-May-2020 5064.01  368.58 68.94 8.00 423.72 2676.56
   03:50:04.816.20-May-2020 5064.01  368.87 68.94 8.00 423.92 2676.56
   03:50:05.016.20-May-2020 5064.01  369.05 68.94 8.00 424.12 2676.56
   03:50:05.216.20-May-2020 5064.01  369.18 68.94 8.00 424.32 2676.56
   03:50:05.416.20-May-2020 5064.01  369.18 68.94 8.00 424.52 2676.56
   03:50:05.616.20-May-2020 5064.01  369.15 68.94 8.00 424.72 2676.56
   03:50:05.816.20-May-2020 5064.01  369.42 68.94 8.00 424.92 2676.56
   03:50:06.016.20-May-2020 5064.01  369.51 68.94 8.00 425.12 2676.56
   03:50:06.216.20-May-2020 5064.01  369.85 68.94 8.00 425.32 2676.56
   03:50:06.416.20-May-2020 5064.01  369.96 68.94 8.00 425.52 2676.56
   03:50:06.616.20-May-2020 5064.01  370.13 68.94 8.00 425.72 2676.56
   03:50:06.816.20-May-2020 5064.01  370.29 68.94 8.00 425.92 2676.56
   03:50:07.017.20-May-2020 5064.01  370.67 68.94 8.00 426.12 2676.56
   03:50:07.217.20-May-2020 5064.01  370.67 68.94 8.00 426.32 2676.56
   03:50:07.417.20-May-2020 5064.01  370.87 68.94 8.00 426.52 2676.56
   03:50:07.617.20-May-2020 5064.01  371.19 68.94 8.00 426.72 2676.56
   03:50:07.817.20-May-2020 5064.01  371.30 68.94 8.00 426.92 2676.56
   03:50:08.017.20-May-2020 5064.01  371.70 68.94 8.00 427.12 2676.56
   03:50:08.217.20-May-2020 5064.01  371.70 68.94 8.00 427.32 2676.56
   03:50:08.417.20-May-2020 5064.01  371.98 68.94 8.00 427.52 2676.56
   03:50:08.617.20-May-2020 5064.01  372.25 68.94 8.00 427.72 2676.56
   03:50:08.817.20-May-2020 5064.01  372.55 68.94 8.00 427.92 2676.56
   03:50:09.017.20-May-2020 5064.01  373.00 68.94 8.00 428.12 2676.56
   03:50:09.217.20-May-2020 5064.01  373.00 68.94 8.00 428.32 2676.56
   03:50:09.417.20-May-2020 5064.01  372.40 68.94 8.00 428.52 2676.56
   03:50:09.617.20-May-2020 5064.01  372.75 68.94 8.00 428.72 2676.56
   03:50:09.817.20-May-2020 5064.01  373.02 68.94 8.00 428.92 2676.56
   03:50:10.017.20-May-2020 5064.01  373.47 68.94 8.00 429.12 2676.56
   03:50:10.217.20-May-2020 5064.01  373.69 68.94 8.00 429.32 2676.56
   03:50:10.417.20-May-2020 5064.01  374.00 68.94 8.00 429.52 2676.56
   03:50:10.618.20-May-2020 5064.01  374.37 68.94 8.00 429.72 2676.56
   03:50:10.818.20-May-2020 5064.01  374.49 68.94 8.00 429.92 2676.56
   03:50:11.018.20-May-2020 5064.01  372.41 68.94 8.00 430.12 2676.56
   03:50:11.218.20-May-2020 5064.01  372.41 68.94 8.00 430.32 2676.56
   03:50:11.418.20-May-2020 5064.01  363.23 68.94 8.00 430.52 2676.56
   03:50:11.618.20-May-2020 5064.01  358.64 68.94 8.00 430.72 2676.56
   03:50:11.818.20-May-2020 5064.01  356.84 68.94 8.00 430.92 2676.56
   03:50:12.018.20-May-2020 5064.01  356.33 68.94 8.00 431.12 2676.56
   03:50:12.218.20-May-2020 5064.01  356.33 68.94 8.00 431.32 2676.56
   03:50:12.418.20-May-2020 5064.01  356.55 68.94 8.00 431.52 2676.56
   03:50:12.618.20-May-2020 5064.01  356.97 68.94 8.00 431.72 2676.56
   03:50:12.818.20-May-2020 5064.01  357.11 68.94 8.00 431.92 2676.56
   03:50:13.018.20-May-2020 5064.01  357.57 68.94 8.00 432.12 2676.56
   03:50:13.218.20-May-2020 5064.01  357.66 68.94 8.00 432.32 2676.56
   03:50:13.418.20-May-2020 5064.01  358.08 68.94 8.00 432.52 2676.56
   03:50:13.618.20-May-2020 5064.01  358.55 68.94 8.00 432.72 2676.56
   03:50:13.818.20-May-2020 5064.01  358.41 68.94 8.00 432.92 2676.56
   03:50:14.019.20-May-2020 5064.01  358.81 68.94 8.00 433.12 2676.56
   03:50:14.219.20-May-2020 5064.01  359.20 68.94 8.00 433.32 2676.56
   03:50:14.419.20-May-2020 5064.01  359.57 68.94 8.00 433.52 2676.56
   03:50:14.619.20-May-2020 5064.01  360.14 68.94 8.00 433.72 2676.56
   03:50:14.819.20-May-2020 5064.01  360.36 68.94 8.00 433.92 2676.56
   03:50:15.019.20-May-2020 5064.01  360.38 68.94 8.00 434.12 2676.56
   03:50:15.219.20-May-2020 5064.01  360.38 68.94 8.00 434.32 2676.56
   03:50:15.419.20-May-2020 5064.01  361.03 68.94 8.00 434.52 2676.56
   03:50:15.619.20-May-2020 5064.01  361.35 68.94 8.00 434.72 2676.56
   03:50:15.819.20-May-2020 5064.01  361.89 68.94 8.00 434.92 2676.56
   03:50:16.019.20-May-2020 5064.01  361.72 68.94 8.00 435.12 2676.56
   03:50:16.219.20-May-2020 5064.01  361.72 68.94 8.00 435.32 2676.56
   03:50:16.419.20-May-2020 5064.01  362.35 68.94 8.00 435.52 2676.56
   03:50:16.619.20-May-2020 5064.01  362.67 68.94 8.00 435.72 2676.56
   03:50:16.819.20-May-2020 5064.01  363.15 68.94 8.00 435.92 2676.56
   03:50:17.019.20-May-2020 5064.01  363.36 68.94 8.00 436.12 2676.56
   03:50:17.219.20-May-2020 5064.01  363.63 68.94 8.00 436.32 2676.56
   03:50:17.419.20-May-2020 5064.01  363.98 68.94 8.00 436.52 2676.56
   03:50:17.620.20-May-2020 5064.01  364.44 68.94 8.00 436.72 2676.56
   03:50:17.820.20-May-2020 5064.01  364.87 68.94 8.00 436.92 2676.56
