~Version Information
 VERS.                  2.0:   CWLS log ASCII Standard -VERSION 2.0
 WRAP.                   NO:   One line per depth step
~Well Information Block
#MNEM.UNIT     VALUE/NAME     DESCRIPTION
#---------     -----------    ---------------------------
 STRT.S             21:41:59 19-May-20: START TIME 21:41:59 19-May-20
 STOP.S             21:48:44 19-May-20: STOP TIME  21:48:44 19-May-20
 STEP.S                   0.00: STEP TIME
 NULL.                 -999.25: NULL VALUE
 MDS .        Operator Entered:  MAG DATA SOURCE
 PDAT.          Mean Sea Level:  PERMANENT DATUM
 UNIT.                     N/A:  LOGGING EQUIPMENT ID
 DCON.         Sperry Drilling:  DIRECTNL CONTR
 DOE .                     N/A:  DOE NUMBER
 RIG .              East Azeri:  RIG NAME
 JOBN.        AZ-XX-0905856059:  JOB TICKET NUMB
 WELL.                     D36:  WELL NAME
 MWDS.                    Baku:  MWD SHOP
 SRVC.     Turan Drilling & Engineering:  CONTRACTOR
 FLD .                     ACG:  FIELD NAME
 CTRY.              Azerbaijan:  COUNTRY NAME
 PROV.                    Baku:  PROVINCE
 STAT.                    Baku:  STATE NAME
 REGN.                   EESSA:  REGION
 BASE.              Azerbaijan:  LOGGING EQUIPMENT BASE LOCATION
 UWI .                     N/A:  UNIQUE WELL IDENTIFIER
 API .                     N/A:  API NUMBER
 COMP.     BP Exploration (Caspian Sea) Ltd.:  COMPANY
 WTYP.                Deviated:  WELL TYPE
 SON .        AZ-XX-0905856059:  JOB NUMBER
 FTOP.          Formation Tops:  FORM TOPS DESC
 ILTD.               Lithology:  INTERP LTH DESC
 SVYD.                  Survey:  SURVEY DESC
 DMOD.             Drill Model:  DRILL MOD DESC
 HPTY.       Minimum Curvature:  HOLE POS TYPE
 NREF.                    Grid:  NORTH REFERENCE
 SPUD.               25-Feb-20:  SPUD DATE
 DATE.      08.55.28 01-May-20:  END TIME
 STIM.      08.55.28 25-Feb-20:  START TIME
 DMF .             Drill Floor:  DRILL MEAS FROM
 DFST.                        :  DIST FSL TEXT
 DFWT.                        :  DIST FWL TEXT
 CNTY.                        :  COUNTY
 LOC .                        :  LOCATION
 LMF .             Drill Floor:  LOG MEASURED FROM
 VSNS.m                   6.09:  VERT SEC N/S
 VSEW.m                 -10.79:  VERT SEC E/W
 AGAP.m                  43.60:  AIR GAP
 DEP .m                 388.24:  DEPTH
 APD .m                  43.60:  DEPTH ABOVE PD
 WDMS.m                 151.80:  WD ELEV
 EGL .m                   0.00:  GROUND ELEVATION
 EPD .m                   0.00:  ELEVATION
 AZTC.deg                 6.12:  AZM TOTAL CORR
 GRDC.deg                 0.30:  GRID CORRECTION
 MDEC.deg                 6.42:  MAGNETIC DECL
 MDIP.deg                59.42:  MAGNETIC DIP
 MFLD.nT              50256.00:  MAGNETIC FIELD
 GVFD.g                   1.00:  GRAVITY FIELD
 VSDR.deg               159.57:  VERT SEC DIRECT
 TDD .m                5000.01:  TOTAL DEPTH (DRILLER)
 SDEP.m                 397.00:  START DEPTH
 DFSL.m                   0.00:  DISTANCE FSL
 DFWL.m                   0.00:  DISTANCE FWL
 UTMY.m             4431880.20:  UTM Y
 UTMX.m              538763.98:  UTM X
 WHEW.m                 -10.79:  WELL HEAD E/W
 WHNS.m                   6.09:  WELL HEAD N/S
 LONG.deg                51.45:  LONGITUDE
 LATI.deg                40.02:  LATITUDE
 TVDS.m                  43.60:  TVDSS CORRECTN
 EKB .m                  43.60:  KB ELEVATION
 EDF .m                  43.60:  DF ELEVATION
 MAGU.                 1847640:  MAGUTM CHECKSUM
 VSC .                       0:  VS TO CLOSURE
~Parameter Information Block
#MNEM.UNIT       Value        Description
#---------     -----------    ---------------------------
 AV  .mps                 1.30:  Ann Velocity 
 AVMX.mps                 1.90:  Max Ann Veloc 
 AZIF.deg               115.68:  Azm, Final 
 BHAT.                   Other:  BHA Type 
 BROT.°/30m               0.74:  Build Rotating 
 BS  .in                  8.50:  Bit Size 
 BTPL.psig              430.00:  Bit Press Loss 
 CABU.                      No:  Customer Abuse 
 COMM.                     „äS:  Run Comments 1 
 TCS .hr                 51.31:  Time Ciculation Ended 
 CV  .mps                 2.52:  Crit Velocity 
 CVMX.mps                 2.62:  Max Crit Veloc 
 DD1 .          Teymur Aghayev:  Direct Drillr 1 
 DDSV.                   Other:  DD Service 
 DEFF.%                 100.00:  % Det Eff 
 DLRX.°/30m               1.62:  Dogleg Rot Max 
 DLSO.°/30m               0.74:  Dogleg Oriented 
 DLSX.°/30m               1.62:  Dogleg Str Max 
 DRET.      04.30.56 18-May-20:  Drill End Time 
 DRST.      04.30.56 18-May-20:  Drill Start Tim 
 DTIM.hr                  0.00:  Time Drilling 
 EDEP.m                5337.01:  End Depth 
 ENG1.      Artemiy Matviyanov:  Engineer 1 
 ENG2.      Bakhtiyar Jabbarli:  Engineer 2 
 ENG3.           Emil Huseynov:  Engineer 3 
 ETIM.      18.40.00 22-May-20:  End Time 
 FLOI.gpm               550.00:  Flow In 
 FLON.gpm               350.00:  Flow In Min 
 FLOS.cptm                0.00:  Fluid Loss 
 FLOX.gpm               600.00:  Flow In Max 
 HFLO.                      No:  High Flow 
 HPRE.                      No:  High Pressure 
 HTEM.                      No:  High Temp 
 HYDO.m                   1.80:  Hydro Offset 
 IFIN.deg                67.01:  Inc, Final 
 IMAX.deg                67.49:  Inc Max 
 IMIN.deg                66.50:  Inc Min 
 IMND.m                5144.79:  Inc Min Depth 
 IMXD.m                5116.12:  Inc Max Depth 
 JARR.                      No:  Jarring 
 LETM.      17.55.56 20-May-20:  Log End Time 
 LOST.hr                     0:  Lost Rig Time 
 LSTM.      04.30.56 18-May-20:  Log Start Time 
 MDCL.ppm            193153.00:  Mud Chlorides 
 MDES.     Inversion Oil/Synthetic:  Mud Desc 
 DFD .sg                  1.40:  Mud Density 
 MDMN.sg                  1.40:  Dens Mud Min 
 MDMX.sg                  1.41:  Dens Mud Max 
 MOIL.                      68:  Run Mud Oil % 
 MOWR.                   68:32:  Run Mud OWR 
 MSND.                     0.2:  Run Mud Sand % 
 MSOL.                    18.8:  Run Mud Solids% 
 DFV .spqt               80.00:  Mud Viscosity 
 MWOD.in                  6.75:  MWD Tool OD 
 MWSI.                      No:  Serv Intrp, MWD 
 OTIM.hr                104.84:  Time Operating 
 PMAX.psia            10690.93:  Press Op, Max 
 PV  .cP                 26.00:  Mud PV 
 RUN .                     900:  Run Number 
 ROPA.m/hr                0.00:  ROP Avg 
 ROPN.m/hr                0.00:  ROP Min 
 ROPX.m/hr                0.00:  ROP Max 
 RPMA.rpm               140.00:  RPM Surface Avg 
 RPMN.rpm                70.00:  RPM Surface Min 
 RPMX.rpm               140.00:  RPM Surface Max 
 RRUN.                    0900:  Rig Run Number 
 RTIM.hr                 36.00:  Time Reaming 
 SAZI.deg               115.72:  Azm, Start 
 SDEP.m                5337.01:  Start Depth 
 SIDD.                      No:  Serv Intrp, DD 
 SINC.deg                66.92:  Inc, Start 
 SPPA.psig             4400.00:  SPP Avg 
 SPPN.psig             1135.00:  SPP Min 
 SPPX.psig             4581.00:  SPP Max 
 STIM.      04.30.56 18-May-20:  Start Time 
 SVCS.                     MWD:  Services 
 SVER.                    9.20:  Sperry Version 
 TDAT.m                5337.01:  Tot Depth Attmp 
 TDDF.                      No:  Trip for DD 
 TFF .                      No:  Trip for Fail 
 TQAA.f-kp               23.00:  Torque Abs Avg 
 TQAN.f-kp               18.00:  Torque Abs Min 
 TQAX.f-kp               25.00:  Torque Abs Max 
 TRRT.°/30m               0.74:  Turn Rotating 
 MRT .                    HCIM:  Maximum Recorded Temperature 
 TTMX.degC               76.47:  Max Tool Temp 
 WBMN.klb                 0.00:  WOB Min 
 WITN.             Anar Khalil:  Customer Rep 
 WITN.      Kamran Keberlinski:  Customer Rep 2 
 WOBA.klb                 0.00:  WOB Avg 
 WOBX.klb                 0.00:  WOB Max 
 YP  .lhf2               27.00:  Yield Point 
~Curve Information Block
#MNEM.UNIT                 API CODE     Curve Description
#---------               -----------    ---------------------------
 TIME.HHMMSS            00 000 000 000:  GT Time & Date
 GTDEPTH.m              00 000 000 000:  GT Depth
 GTPQH.psia             00 000 000 000:  GT HR Quartz Pressure
 GTTQ.degC              00 000 000 000:  GT Quartz Temperature
 GTTN.NONE              00 000 000 000:  GT Test Number
 GTET.sec               00 000 000 000:  GT Elapsed Test Time
 GTTVD.m                00 000 000 000:  GT True Vertical Depth
#Other Information
#
#WARRANTY: Halliburton will use its best efforts to furnish customers with 
#accurate information and interpretations that are part of, and incident to, the services 
#provided.  However, Halliburton cannot and does not warrant the accuracy 
#or correctness of such information and interpretations.  Under no circumstances should any 
#such information or interpretation be relied upon as the sole basis for any drilling, 
#completion, production, or financial decision or any procedure involving any risk to the 
#safety of any drilling venture, drilling rig or its crew or any other third party.  The 
#Customer has full responsibility for all drilling, completion and production operation.  
#Halliburton makes no representations or warranties, either expressed or 
#implied, including, but not limited to, the implied warranties of merchantability or fitness 
#for a particular purpose, with respect to the services rendered.  In no event will 
#Halliburton be liable for failure to obtain any particular results or for 
#any damages, including, but not limited to, indirect, special or consequential damages, 
#resulting from the use of any information or interpretation provided by Halliburton.
#
~A           TIME           GTDEPTH  GTPQH  GTTQ  GTTN  GTET   GTTVD  
# ...
   21:47:44.452.19-May-2020 5137.01 3959.93 67.52 3.00 345.09 2705.05
   21:47:44.652.19-May-2020 5137.01 3959.93 67.52 3.00 345.29 2705.05
   21:47:44.852.19-May-2020 5137.01 3963.42 67.52 3.00 345.49 2705.05
   21:47:45.052.19-May-2020 5137.01 3965.19 67.52 3.00 345.69 2705.05
   21:47:45.252.19-May-2020 5137.01 3966.84 67.52 3.00 345.89 2705.05
   21:47:45.452.19-May-2020 5137.01 3968.59 67.52 3.00 346.09 2705.05
   21:47:45.652.19-May-2020 5137.01 3968.59 67.52 3.00 346.29 2705.05
   21:47:45.852.19-May-2020 5137.01 3972.02 67.52 3.00 346.49 2705.05
   21:47:46.052.19-May-2020 5137.01 3973.70 67.52 3.00 346.69 2705.05
   21:47:46.252.19-May-2020 5137.01 3974.94 67.52 3.00 346.89 2705.05
   21:47:46.453.19-May-2020 5137.01 3976.80 67.52 3.00 347.09 2705.05
   21:47:46.653.19-May-2020 5137.01 3976.80 67.52 3.00 347.29 2705.05
   21:47:46.853.19-May-2020 5137.01 3980.26 67.52 3.00 347.49 2705.05
   21:47:47.053.19-May-2020 5137.01 3981.96 67.52 3.00 347.69 2705.05
   21:47:47.253.19-May-2020 5137.01 3982.84 67.52 3.00 347.89 2705.05
   21:47:47.453.19-May-2020 5137.01 3985.14 67.52 3.00 348.09 2705.05
   21:47:47.653.19-May-2020 5137.01 3985.14 67.52 3.00 348.29 2705.05
   21:47:47.853.19-May-2020 5137.01 3986.72 67.52 3.00 348.49 2705.05
   21:47:48.053.19-May-2020 5137.01 3989.98 67.52 3.00 348.69 2705.05
   21:47:48.253.19-May-2020 5137.01 3991.48 67.52 3.00 348.89 2705.05
   21:47:48.453.19-May-2020 5137.01 3993.07 67.52 3.00 349.09 2705.05
   21:47:48.653.19-May-2020 5137.01 3993.07 67.52 3.00 349.29 2705.05
   21:47:48.853.19-May-2020 5137.01 3996.23 67.52 3.00 349.49 2705.05
   21:47:49.053.19-May-2020 5137.01 3997.21 67.52 3.00 349.69 2705.05
   21:47:49.253.19-May-2020 5137.01 3999.28 67.52 3.00 349.89 2705.05
   21:47:49.453.19-May-2020 5137.01 4000.87 67.52 3.00 350.09 2705.05
   21:47:49.653.19-May-2020 5137.01 4000.87 67.52 3.00 350.29 2705.05
   21:47:49.853.19-May-2020 5137.01 4003.86 67.52 3.00 350.49 2705.05
   21:47:50.053.19-May-2020 5137.01 4005.39 67.52 3.00 350.69 2705.05
   21:47:50.253.19-May-2020 5137.01 4006.88 67.52 3.00 350.89 2705.05
   21:47:50.454.19-May-2020 5137.01 4008.35 67.52 3.00 351.09 2705.05
   21:47:50.654.19-May-2020 5137.01 4008.35 67.52 3.00 351.29 2705.05
   21:47:50.854.19-May-2020 5137.01 4011.38 67.52 3.00 351.49 2705.05
   21:47:51.054.19-May-2020 5137.01 4012.87 67.52 3.00 351.69 2705.05
   21:47:51.254.19-May-2020 5137.01 4014.32 67.52 3.00 351.89 2705.05
   21:47:51.454.19-May-2020 5137.01 4015.81 67.52 3.00 352.09 2705.05
   21:47:51.654.19-May-2020 5137.01 4015.81 67.52 3.00 352.29 2705.05
   21:47:51.854.19-May-2020 5137.01 4018.67 67.52 3.00 352.49 2705.05
   21:47:52.054.19-May-2020 5137.01 4020.20 67.52 3.00 352.69 2705.05
   21:47:52.254.19-May-2020 5137.01 4021.58 67.52 3.00 352.89 2705.05
   21:47:52.454.19-May-2020 5137.01 4022.99 67.52 3.00 353.09 2705.05
   21:47:52.654.19-May-2020 5137.01 4022.99 67.52 3.00 353.29 2705.05
   21:47:52.854.19-May-2020 5137.01 4025.16 67.52 3.00 353.49 2705.05
   21:47:53.054.19-May-2020 5137.01 4027.22 67.52 3.00 353.69 2705.05
   21:47:53.254.19-May-2020 5137.01 4028.56 67.52 3.00 353.89 2705.05
   21:47:53.454.19-May-2020 5137.01 4029.92 67.52 3.00 354.09 2705.05
   21:47:53.654.19-May-2020 5137.01 4029.92 67.52 3.00 354.29 2705.05
   21:47:53.854.19-May-2020 5137.01 4032.63 67.52 3.00 354.49 2705.05
   21:47:54.054.19-May-2020 5137.01 4034.00 67.52 3.00 354.69 2705.05
   21:47:54.254.19-May-2020 5137.01 4035.38 67.52 3.00 354.89 2705.05
   21:47:54.455.19-May-2020 5137.01 4036.77 67.52 3.00 355.09 2705.05
   21:47:54.655.19-May-2020 5137.01 4036.77 67.52 3.00 355.29 2705.05
   21:47:54.855.19-May-2020 5137.01 4039.33 67.52 3.00 355.49 2705.05
   21:47:55.055.19-May-2020 5137.01 4040.72 67.52 3.00 355.69 2705.05
   21:47:55.255.19-May-2020 5137.01 4042.00 67.52 3.00 355.89 2705.05
   21:47:55.455.19-May-2020 5137.01 4043.38 67.52 3.00 356.09 2705.05
   21:47:55.655.19-May-2020 5137.01 4043.38 67.52 3.00 356.29 2705.05
   21:47:55.855.19-May-2020 5137.01 4045.16 67.52 3.00 356.49 2705.05
   21:47:56.055.19-May-2020 5137.01 4047.41 67.52 3.00 356.69 2705.05
   21:47:56.255.19-May-2020 5137.01 4048.51 67.52 3.00 356.89 2705.05
   21:47:56.455.19-May-2020 5137.01 4049.74 67.52 3.00 357.09 2705.05
   21:47:56.655.19-May-2020 5137.01 4049.74 67.52 3.00 357.29 2705.05
   21:47:56.855.19-May-2020 5137.01 4051.74 67.52 3.00 357.49 2705.05
   21:47:57.055.19-May-2020 5137.01 4053.63 67.52 3.00 357.69 2705.05
   21:47:57.255.19-May-2020 5137.01 4054.89 67.52 3.00 357.89 2705.05
   21:47:57.455.19-May-2020 5137.01 4056.12 67.52 3.00 358.09 2705.05
   21:47:57.655.19-May-2020 5137.01 4056.12 67.52 3.00 358.29 2705.05
   21:47:57.855.19-May-2020 5137.01 4058.68 67.52 3.00 358.49 2705.05
   21:47:58.055.19-May-2020 5137.01 4059.90 67.52 3.00 358.69 2705.05
   21:47:58.255.19-May-2020 5137.01 4061.10 67.52 3.00 358.89 2705.05
   21:47:58.456.19-May-2020 5137.01 4062.37 67.52 3.00 359.09 2705.05
   21:47:58.656.19-May-2020 5137.01 4062.37 67.52 3.00 359.29 2705.05
   21:47:58.856.19-May-2020 5137.01 4064.77 67.52 3.00 359.49 2705.05
   21:47:59.056.19-May-2020 5137.01 4066.00 67.52 3.00 359.69 2705.05
   21:47:59.256.19-May-2020 5137.01 4067.22 67.52 3.00 359.89 2705.05
   21:47:59.456.19-May-2020 5137.01 4068.46 67.52 3.00 360.09 2705.05
   21:47:59.656.19-May-2020 5137.01 4068.46 67.52 3.00 360.29 2705.05
   21:47:59.856.19-May-2020 5137.01 4070.01 67.52 3.00 360.49 2705.05
   21:48:00.056.19-May-2020 5137.01 4072.11 67.52 3.00 360.69 2705.05
   21:48:00.256.19-May-2020 5137.01 4073.10 67.52 3.00 360.89 2705.05
   21:48:00.456.19-May-2020 5137.01 4074.27 67.52 3.00 361.09 2705.05
   21:48:00.656.19-May-2020 5137.01 4074.27 67.52 3.00 361.29 2705.05
   21:48:00.856.19-May-2020 5137.01 4076.56 67.52 3.00 361.49 2705.05
   21:48:01.056.19-May-2020 5137.01 4077.67 67.52 3.00 361.69 2705.05
   21:48:01.256.19-May-2020 5137.01 4078.88 67.52 3.00 361.89 2705.05
   21:48:01.456.19-May-2020 5137.01 4079.96 67.52 3.00 362.09 2705.05
   21:48:01.656.19-May-2020 5137.01 4079.96 67.52 3.00 362.29 2705.05
   21:48:01.856.19-May-2020 5137.01 4081.82 67.52 3.00 362.49 2705.05
   21:48:02.056.19-May-2020 5137.01 4083.12 67.52 3.00 362.69 2705.05
   21:48:02.256.19-May-2020 5137.01 4084.46 67.52 3.00 362.89 2705.05
   21:48:02.457.19-May-2020 5137.01 4085.66 67.52 3.00 363.09 2705.05
   21:48:02.657.19-May-2020 5137.01 4085.66 67.52 3.00 363.29 2705.05
   21:48:02.857.19-May-2020 5137.01 4087.09 67.52 3.00 363.49 2705.05
   21:48:03.057.19-May-2020 5137.01 4088.90 67.52 3.00 363.69 2705.05
   21:48:03.257.19-May-2020 5137.01 4089.98 67.52 3.00 363.89 2705.05
   21:48:03.457.19-May-2020 5137.01 4091.13 67.52 3.00 364.09 2705.05
   21:48:03.657.19-May-2020 5137.01 4091.13 67.52 3.00 364.29 2705.05
   21:48:03.857.19-May-2020 5137.01 4093.21 67.52 3.00 364.49 2705.05
   21:48:04.057.19-May-2020 5137.01 4093.71 67.52 3.00 364.69 2705.05
   21:48:04.257.19-May-2020 5137.01 4095.39 67.52 3.00 364.89 2705.05
   21:48:04.457.19-May-2020 5137.01 4096.46 67.52 3.00 365.09 2705.05
   21:48:04.657.19-May-2020 5137.01 4096.46 67.52 3.00 365.29 2705.05
   21:48:04.857.19-May-2020 5137.01 4098.59 67.52 3.00 365.49 2705.05
   21:48:05.057.19-May-2020 5137.01 4099.60 67.52 3.00 365.69 2705.05
   21:48:05.257.19-May-2020 5137.01 4100.61 67.52 3.00 365.89 2705.05
   21:48:05.457.19-May-2020 5137.01 4097.66 67.52 3.00 366.09 2705.05
   21:48:05.657.19-May-2020 5137.01 4097.66 67.52 3.00 366.29 2705.05
   21:48:05.857.19-May-2020 5137.01 4030.73 67.52 3.00 366.49 2705.05
   21:48:06.057.19-May-2020 5137.01 5725.86 67.52 3.00 366.69 2705.05
   21:48:06.257.19-May-2020 5137.01 6450.80 67.52 3.00 366.89 2705.05
   21:48:06.458.19-May-2020 5137.01 6449.68 67.52 3.00 367.09 2705.05
   21:48:06.658.19-May-2020 5137.01 6449.59 67.52 3.00 367.29 2705.05
   21:48:06.858.19-May-2020 5137.01 6450.08 67.52 3.00 367.49 2705.05
   21:48:07.058.19-May-2020 5137.01 6454.39 67.52 3.00 367.69 2705.05
   21:48:07.258.19-May-2020 5137.01 6450.14 67.52 3.00 367.89 2705.05
