~Version Information
 VERS.                  2.0:   CWLS log ASCII Standard -VERSION 2.0
 WRAP.                   NO:   One line per depth step
~Well Information Block
#MNEM.UNIT     VALUE/NAME     DESCRIPTION
#---------     -----------    ---------------------------
 STRT.S             17:37:07 19-May-20: START TIME 17:37:07 19-May-20
 STOP.S             17:43:47 19-May-20: STOP TIME  17:43:47 19-May-20
 STEP.S                   0.00: STEP TIME
 NULL.                 -999.25: NULL VALUE
 MDS .        Operator Entered:  MAG DATA SOURCE
 PDAT.          Mean Sea Level:  PERMANENT DATUM
 UNIT.                     N/A:  LOGGING EQUIPMENT ID
 DCON.         Sperry Drilling:  DIRECTNL CONTR
 DOE .                     N/A:  DOE NUMBER
 RIG .              East Azeri:  RIG NAME
 JOBN.        AZ-XX-0905856059:  JOB TICKET NUMB
 WELL.                     D36:  WELL NAME
 MWDS.                    Baku:  MWD SHOP
 SRVC.     Turan Drilling & Engineering:  CONTRACTOR
 FLD .                     ACG:  FIELD NAME
 CTRY.              Azerbaijan:  COUNTRY NAME
 PROV.                    Baku:  PROVINCE
 STAT.                    Baku:  STATE NAME
 REGN.                   EESSA:  REGION
 BASE.              Azerbaijan:  LOGGING EQUIPMENT BASE LOCATION
 UWI .                     N/A:  UNIQUE WELL IDENTIFIER
 API .                     N/A:  API NUMBER
 COMP.     BP Exploration (Caspian Sea) Ltd.:  COMPANY
 WTYP.                Deviated:  WELL TYPE
 SON .        AZ-XX-0905856059:  JOB NUMBER
 FTOP.          Formation Tops:  FORM TOPS DESC
 ILTD.               Lithology:  INTERP LTH DESC
 SVYD.                  Survey:  SURVEY DESC
 DMOD.             Drill Model:  DRILL MOD DESC
 HPTY.       Minimum Curvature:  HOLE POS TYPE
 NREF.                    Grid:  NORTH REFERENCE
 SPUD.               25-Feb-20:  SPUD DATE
 DATE.      08.55.28 01-May-20:  END TIME
 STIM.      08.55.28 25-Feb-20:  START TIME
 DMF .             Drill Floor:  DRILL MEAS FROM
 DFST.                        :  DIST FSL TEXT
 DFWT.                        :  DIST FWL TEXT
 CNTY.                        :  COUNTY
 LOC .                        :  LOCATION
 LMF .             Drill Floor:  LOG MEASURED FROM
 VSNS.m                   6.09:  VERT SEC N/S
 VSEW.m                 -10.79:  VERT SEC E/W
 AGAP.m                  43.60:  AIR GAP
 DEP .m                 388.24:  DEPTH
 APD .m                  43.60:  DEPTH ABOVE PD
 WDMS.m                 151.80:  WD ELEV
 EGL .m                   0.00:  GROUND ELEVATION
 EPD .m                   0.00:  ELEVATION
 AZTC.deg                 6.12:  AZM TOTAL CORR
 GRDC.deg                 0.30:  GRID CORRECTION
 MDEC.deg                 6.42:  MAGNETIC DECL
 MDIP.deg                59.42:  MAGNETIC DIP
 MFLD.nT              50256.00:  MAGNETIC FIELD
 GVFD.g                   1.00:  GRAVITY FIELD
 VSDR.deg               159.57:  VERT SEC DIRECT
 TDD .m                5000.01:  TOTAL DEPTH (DRILLER)
 SDEP.m                 397.00:  START DEPTH
 DFSL.m                   0.00:  DISTANCE FSL
 DFWL.m                   0.00:  DISTANCE FWL
 UTMY.m             4431880.20:  UTM Y
 UTMX.m              538763.98:  UTM X
 WHEW.m                 -10.79:  WELL HEAD E/W
 WHNS.m                   6.09:  WELL HEAD N/S
 LONG.deg                51.45:  LONGITUDE
 LATI.deg                40.02:  LATITUDE
 TVDS.m                  43.60:  TVDSS CORRECTN
 EKB .m                  43.60:  KB ELEVATION
 EDF .m                  43.60:  DF ELEVATION
 MAGU.                 1847640:  MAGUTM CHECKSUM
 VSC .                       0:  VS TO CLOSURE
~Parameter Information Block
#MNEM.UNIT       Value        Description
#---------     -----------    ---------------------------
 AV  .mps                 1.30:  Ann Velocity 
 AVMX.mps                 1.90:  Max Ann Veloc 
 AZIF.deg               115.68:  Azm, Final 
 BHAT.                   Other:  BHA Type 
 BROT.°/30m               0.74:  Build Rotating 
 BS  .in                  8.50:  Bit Size 
 BTPL.psig              430.00:  Bit Press Loss 
 CABU.                      No:  Customer Abuse 
 COMM.                     t9l:  Run Comments 1 
 TCS .hr                 51.31:  Time Ciculation Ended 
 CV  .mps                 2.52:  Crit Velocity 
 CVMX.mps                 2.62:  Max Crit Veloc 
 DD1 .          Teymur Aghayev:  Direct Drillr 1 
 DDSV.                   Other:  DD Service 
 DEFF.%                 100.00:  % Det Eff 
 DLRX.°/30m               1.62:  Dogleg Rot Max 
 DLSO.°/30m               0.74:  Dogleg Oriented 
 DLSX.°/30m               1.62:  Dogleg Str Max 
 DRET.      04.30.56 18-May-20:  Drill End Time 
 DRST.      04.30.56 18-May-20:  Drill Start Tim 
 DTIM.hr                  0.00:  Time Drilling 
 EDEP.m                5337.01:  End Depth 
 ENG1.      Artemiy Matviyanov:  Engineer 1 
 ENG2.      Bakhtiyar Jabbarli:  Engineer 2 
 ENG3.           Emil Huseynov:  Engineer 3 
 ETIM.      18.40.00 22-May-20:  End Time 
 FLOI.gpm               550.00:  Flow In 
 FLON.gpm               350.00:  Flow In Min 
 FLOS.cptm                0.00:  Fluid Loss 
 FLOX.gpm               600.00:  Flow In Max 
 HFLO.                      No:  High Flow 
 HPRE.                      No:  High Pressure 
 HTEM.                      No:  High Temp 
 HYDO.m                   1.80:  Hydro Offset 
 IFIN.deg                67.01:  Inc, Final 
 IMAX.deg                67.49:  Inc Max 
 IMIN.deg                66.50:  Inc Min 
 IMND.m                5144.79:  Inc Min Depth 
 IMXD.m                5116.12:  Inc Max Depth 
 JARR.                      No:  Jarring 
 LETM.      17.55.56 20-May-20:  Log End Time 
 LOST.hr                     0:  Lost Rig Time 
 LSTM.      04.30.56 18-May-20:  Log Start Time 
 MDCL.ppm            193153.00:  Mud Chlorides 
 MDES.     Inversion Oil/Synthetic:  Mud Desc 
 DFD .sg                  1.40:  Mud Density 
 MDMN.sg                  1.40:  Dens Mud Min 
 MDMX.sg                  1.41:  Dens Mud Max 
 MOIL.                      68:  Run Mud Oil % 
 MOWR.                   68:32:  Run Mud OWR 
 MSND.                     0.2:  Run Mud Sand % 
 MSOL.                    18.8:  Run Mud Solids% 
 DFV .spqt               80.00:  Mud Viscosity 
 MWOD.in                  6.75:  MWD Tool OD 
 MWSI.                      No:  Serv Intrp, MWD 
 OTIM.hr                104.84:  Time Operating 
 PMAX.psia            10690.93:  Press Op, Max 
 PV  .cP                 26.00:  Mud PV 
 RUN .                     900:  Run Number 
 ROPA.m/hr                0.00:  ROP Avg 
 ROPN.m/hr                0.00:  ROP Min 
 ROPX.m/hr                0.00:  ROP Max 
 RPMA.rpm               140.00:  RPM Surface Avg 
 RPMN.rpm                70.00:  RPM Surface Min 
 RPMX.rpm               140.00:  RPM Surface Max 
 RRUN.                    0900:  Rig Run Number 
 RTIM.hr                 36.00:  Time Reaming 
 SAZI.deg               115.72:  Azm, Start 
 SDEP.m                5337.01:  Start Depth 
 SIDD.                      No:  Serv Intrp, DD 
 SINC.deg                66.92:  Inc, Start 
 SPPA.psig             4400.00:  SPP Avg 
 SPPN.psig             1135.00:  SPP Min 
 SPPX.psig             4581.00:  SPP Max 
 STIM.      04.30.56 18-May-20:  Start Time 
 SVCS.                     MWD:  Services 
 SVER.                    9.20:  Sperry Version 
 TDAT.m                5337.01:  Tot Depth Attmp 
 TDDF.                      No:  Trip for DD 
 TFF .                      No:  Trip for Fail 
 TQAA.f-kp               23.00:  Torque Abs Avg 
 TQAN.f-kp               18.00:  Torque Abs Min 
 TQAX.f-kp               25.00:  Torque Abs Max 
 TRRT.°/30m               0.74:  Turn Rotating 
 MRT .                    HCIM:  Maximum Recorded Temperature 
 TTMX.degC               76.47:  Max Tool Temp 
 WBMN.klb                 0.00:  WOB Min 
 WITN.             Anar Khalil:  Customer Rep 
 WITN.      Kamran Keberlinski:  Customer Rep 2 
 WOBA.klb                 0.00:  WOB Avg 
 WOBX.klb                 0.00:  WOB Max 
 YP  .lhf2               27.00:  Yield Point 
~Curve Information Block
#MNEM.UNIT                 API CODE     Curve Description
#---------               -----------    ---------------------------
 TIME.HHMMSS            00 000 000 000:  GT Time & Date
 GTDEPTH.m              00 000 000 000:  GT Depth
 GTPQH.psia             00 000 000 000:  GT HR Quartz Pressure
 GTTQ.degC              00 000 000 000:  GT Quartz Temperature
 GTTN.NONE              00 000 000 000:  GT Test Number
 GTET.sec               00 000 000 000:  GT Elapsed Test Time
 GTTVD.m                00 000 000 000:  GT True Vertical Depth
#Other Information
#
#WARRANTY: Halliburton will use its best efforts to furnish customers with 
#accurate information and interpretations that are part of, and incident to, the services 
#provided.  However, Halliburton cannot and does not warrant the accuracy 
#or correctness of such information and interpretations.  Under no circumstances should any 
#such information or interpretation be relied upon as the sole basis for any drilling, 
#completion, production, or financial decision or any procedure involving any risk to the 
#safety of any drilling venture, drilling rig or its crew or any other third party.  The 
#Customer has full responsibility for all drilling, completion and production operation.  
#Halliburton makes no representations or warranties, either expressed or 
#implied, including, but not limited to, the implied warranties of merchantability or fitness 
#for a particular purpose, with respect to the services rendered.  In no event will 
#Halliburton be liable for failure to obtain any particular results or for 
#any damages, including, but not limited to, indirect, special or consequential damages, 
#resulting from the use of any information or interpretation provided by Halliburton.
#
~A           TIME           GTDEPTH  GTPQH  GTTQ  GTTN  GTET   GTTVD  
# ...
   17:38:39.136.19-May-2020 5195.01 1688.20 66.98 2.00  92.01 2727.85
   17:38:39.336.19-May-2020 5195.01 1688.20 66.98 2.00  92.21 2727.85
   17:38:39.536.19-May-2020 5195.01 1695.01 66.98 2.00  92.41 2727.85
   17:38:39.736.19-May-2020 5195.01 1698.68 66.98 2.00  92.61 2727.85
   17:38:39.936.19-May-2020 5195.01 1702.23 66.98 2.00  92.81 2727.85
   17:38:40.136.19-May-2020 5195.01 1705.42 66.98 2.00  93.01 2727.85
   17:38:40.336.19-May-2020 5195.01 1705.42 66.98 2.00  93.21 2727.85
   17:38:40.536.19-May-2020 5195.01 1712.72 66.99 2.00  93.41 2727.85
   17:38:40.736.19-May-2020 5195.01 1716.14 66.99 2.00  93.61 2727.85
   17:38:40.936.19-May-2020 5195.01 1719.26 66.99 2.00  93.81 2727.85
   17:38:41.137.19-May-2020 5195.01 1723.32 66.99 2.00  94.01 2727.85
   17:38:41.337.19-May-2020 5195.01 1723.32 66.99 2.00  94.21 2727.85
   17:38:41.537.19-May-2020 5195.01 1730.39 66.99 2.00  94.41 2727.85
   17:38:41.737.19-May-2020 5195.01 1733.84 66.99 2.00  94.61 2727.85
   17:38:41.937.19-May-2020 5195.01 1737.24 66.99 2.00  94.81 2727.85
   17:38:42.137.19-May-2020 5195.01 1740.54 66.99 2.00  95.01 2727.85
   17:38:42.337.19-May-2020 5195.01 1740.54 66.99 2.00  95.21 2727.85
   17:38:42.537.19-May-2020 5195.01 1747.20 66.99 2.00  95.41 2727.85
   17:38:42.737.19-May-2020 5195.01 1750.74 66.99 2.00  95.61 2727.85
   17:38:42.937.19-May-2020 5195.01 1753.90 66.99 2.00  95.81 2727.85
   17:38:43.137.19-May-2020 5195.01 1757.42 66.99 2.00  96.01 2727.85
   17:38:43.337.19-May-2020 5195.01 1757.42 66.99 2.00  96.21 2727.85
   17:38:43.537.19-May-2020 5195.01 1763.94 66.99 2.00  96.41 2727.85
   17:38:43.737.19-May-2020 5195.01 1767.28 66.99 2.00  96.61 2727.85
   17:38:43.937.19-May-2020 5195.01 1770.47 66.99 2.00  96.81 2727.85
   17:38:44.137.19-May-2020 5195.01 1773.76 66.99 2.00  97.01 2727.85
   17:38:44.337.19-May-2020 5195.01 1776.95 66.99 2.00  97.21 2727.85
   17:38:44.537.19-May-2020 5195.01 1780.23 66.99 2.00  97.41 2727.85
   17:38:44.737.19-May-2020 5195.01 1783.40 66.99 2.00  97.61 2727.85
   17:38:44.937.19-May-2020 5195.01 1786.57 66.99 2.00  97.81 2727.85
   17:38:45.137.19-May-2020 5195.01 1789.77 66.99 2.00  98.01 2727.85
   17:38:45.337.19-May-2020 5195.01 1789.77 66.99 2.00  98.21 2727.85
   17:38:45.537.19-May-2020 5195.01 1796.12 66.99 2.00  98.41 2727.85
   17:38:45.737.19-May-2020 5195.01 1799.35 66.99 2.00  98.61 2727.85
   17:38:45.937.19-May-2020 5195.01 1802.52 66.99 2.00  98.81 2727.85
   17:38:46.137.19-May-2020 5195.01 1805.42 66.99 2.00  99.01 2727.85
   17:38:46.337.19-May-2020 5195.01 1805.42 66.99 2.00  99.21 2727.85
   17:38:46.537.19-May-2020 5195.01 1812.69 66.99 2.00  99.41 2727.85
   17:38:46.737.19-May-2020 5195.01 1815.97 66.99 2.00  99.61 2727.85
   17:38:46.937.19-May-2020 5195.01 1818.97 67.00 2.00  99.81 2727.85
   17:38:47.137.19-May-2020 5195.01 1822.75 67.00 2.00 100.01 2727.85
   17:38:47.337.19-May-2020 5195.01 1822.75 67.00 2.00 100.21 2727.85
   17:38:47.537.19-May-2020 5195.01 1829.41 67.00 2.00 100.41 2727.85
   17:38:47.737.19-May-2020 5195.01 1832.71 67.00 2.00 100.61 2727.85
   17:38:47.937.19-May-2020 5195.01 1835.88 67.00 2.00 100.81 2727.85
   17:38:48.137.19-May-2020 5195.01 1839.04 67.00 2.00 101.01 2727.85
   17:38:48.337.19-May-2020 5195.01 1842.21 67.00 2.00 101.21 2727.85
   17:38:48.537.19-May-2020 5195.01 1845.77 67.00 2.00 101.41 2727.85
   17:38:48.737.19-May-2020 5195.01 1849.20 67.00 2.00 101.61 2727.85
   17:38:48.937.19-May-2020 5195.01 1852.51 67.00 2.00 101.81 2727.85
   17:38:49.137.19-May-2020 5195.01 1855.38 67.00 2.00 102.01 2727.85
   17:38:49.338.19-May-2020 5195.01 1855.38 67.00 2.00 102.21 2727.85
   17:38:49.538.19-May-2020 5195.01 1862.60 67.00 2.00 102.41 2727.85
   17:38:49.738.19-May-2020 5195.01 1865.89 67.00 2.00 102.61 2727.85
   17:38:49.938.19-May-2020 5195.01 1869.23 67.00 2.00 102.81 2727.85
   17:38:50.138.19-May-2020 5195.01 1872.67 67.00 2.00 103.01 2727.85
   17:38:50.338.19-May-2020 5195.01 1872.67 67.00 2.00 103.21 2727.85
   17:38:50.538.19-May-2020 5195.01 1879.31 67.00 2.00 103.41 2727.85
   17:38:50.738.19-May-2020 5195.01 1882.53 67.00 2.00 103.61 2727.85
   17:38:50.938.19-May-2020 5195.01 1885.83 67.00 2.00 103.81 2727.85
   17:38:51.138.19-May-2020 5195.01 1888.97 67.00 2.00 104.01 2727.85
   17:38:51.338.19-May-2020 5195.01 1888.97 67.00 2.00 104.21 2727.85
   17:38:51.538.19-May-2020 5195.01 1895.25 67.00 2.00 104.41 2727.85
   17:38:51.738.19-May-2020 5195.01 1898.33 67.00 2.00 104.61 2727.85
   17:38:51.938.19-May-2020 5195.01 1901.44 67.00 2.00 104.81 2727.85
   17:38:52.138.19-May-2020 5195.01 1903.94 67.00 2.00 105.01 2727.85
   17:38:52.338.19-May-2020 5195.01 1908.00 67.00 2.00 105.21 2727.85
   17:38:52.538.19-May-2020 5195.01 1912.17 67.00 2.00 105.41 2727.85
   17:38:52.738.19-May-2020 5195.01 1915.63 67.00 2.00 105.61 2727.85
   17:38:52.938.19-May-2020 5195.01 1918.45 67.00 2.00 105.81 2727.85
   17:38:53.138.19-May-2020 5195.01 1922.32 67.00 2.00 106.01 2727.85
   17:38:53.338.19-May-2020 5195.01 1922.32 67.00 2.00 106.21 2727.85
   17:38:53.538.19-May-2020 5195.01 1928.97 67.00 2.00 106.41 2727.85
   17:38:53.738.19-May-2020 5195.01 1932.37 67.00 2.00 106.61 2727.85
   17:38:53.938.19-May-2020 5195.01 1935.60 67.00 2.00 106.81 2727.85
   17:38:54.138.19-May-2020 5195.01 1938.69 67.00 2.00 107.01 2727.85
   17:38:54.338.19-May-2020 5195.01 1938.69 67.00 2.00 107.21 2727.85
   17:38:54.538.19-May-2020 5195.01 1945.53 67.00 2.00 107.41 2727.85
   17:38:54.738.19-May-2020 5195.01 1948.78 67.00 2.00 107.61 2727.85
   17:38:54.938.19-May-2020 5195.01 1952.00 67.01 2.00 107.81 2727.85
   17:38:55.138.19-May-2020 5195.01 1955.44 67.01 2.00 108.01 2727.85
   17:38:55.338.19-May-2020 5195.01 1955.44 67.01 2.00 108.21 2727.85
   17:38:55.538.19-May-2020 5195.01 1961.75 67.01 2.00 108.41 2727.85
   17:38:55.738.19-May-2020 5195.01 1965.50 67.01 2.00 108.61 2727.85
   17:38:55.938.19-May-2020 5195.01 1969.73 67.01 2.00 108.81 2727.85
   17:38:56.138.19-May-2020 5195.01 1973.46 67.01 2.00 109.01 2727.85
   17:38:56.338.19-May-2020 5195.01 1976.97 67.01 2.00 109.21 2727.85
   17:38:56.538.19-May-2020 5195.01 1980.92 67.01 2.00 109.41 2727.85
   17:38:56.738.19-May-2020 5195.01 1984.58 67.01 2.00 109.61 2727.85
   17:38:56.938.19-May-2020 5195.01 1988.01 67.01 2.00 109.81 2727.85
   17:38:57.138.19-May-2020 5195.01 1991.61 67.01 2.00 110.01 2727.85
   17:38:57.338.19-May-2020 5195.01 1991.61 67.01 2.00 110.21 2727.85
   17:38:57.539.19-May-2020 5195.01 1998.41 67.01 2.00 110.41 2727.85
   17:38:57.739.19-May-2020 5195.01 2001.89 67.01 2.00 110.61 2727.85
   17:38:57.939.19-May-2020 5195.01 2005.24 67.01 2.00 110.81 2727.85
   17:38:58.139.19-May-2020 5195.01 2008.63 67.01 2.00 111.01 2727.85
   17:38:58.339.19-May-2020 5195.01 2008.63 67.01 2.00 111.21 2727.85
   17:38:58.539.19-May-2020 5195.01 2015.27 67.01 2.00 111.41 2727.85
   17:38:58.739.19-May-2020 5195.01 2018.76 67.01 2.00 111.61 2727.85
   17:38:58.939.19-May-2020 5195.01 2022.05 67.01 2.00 111.81 2727.85
   17:38:59.139.19-May-2020 5195.01 2025.42 67.01 2.00 112.01 2727.85
   17:38:59.339.19-May-2020 5195.01 2025.42 67.01 2.00 112.21 2727.85
   17:38:59.539.19-May-2020 5195.01 2031.87 67.01 2.00 112.41 2727.85
   17:38:59.739.19-May-2020 5195.01 2035.21 67.01 2.00 112.61 2727.85
   17:38:59.939.19-May-2020 5195.01 2038.36 67.01 2.00 112.81 2727.85
   17:39:00.139.19-May-2020 5195.01 2041.44 67.01 2.00 113.01 2727.85
   17:39:00.339.19-May-2020 5195.01 2041.44 67.01 2.00 113.21 2727.85
   17:39:00.539.19-May-2020 5195.01 2048.26 67.01 2.00 113.41 2727.85
   17:39:00.739.19-May-2020 5195.01 2051.38 67.01 2.00 113.61 2727.85
   17:39:00.939.19-May-2020 5195.01 2054.69 67.01 2.00 113.81 2727.85
   17:39:01.139.19-May-2020 5195.01 2057.43 67.01 2.00 114.01 2727.85
   17:39:01.339.19-May-2020 5195.01 2057.43 67.01 2.00 114.21 2727.85
   17:39:01.539.19-May-2020 5195.01 2064.49 67.01 2.00 114.41 2727.85
   17:39:01.739.19-May-2020 5195.01 2067.80 67.01 2.00 114.61 2727.85
   17:39:01.939.19-May-2020 5195.01 2071.10 67.01 2.00 114.81 2727.85
