~Version Information
 VERS.                  2.0:   CWLS log ASCII Standard -VERSION 2.0
 WRAP.                   NO:   One line per depth step
~Well Information Block
#MNEM.UNIT     VALUE/NAME     DESCRIPTION
#---------     -----------    ---------------------------
 STRT.S             03:43:00 20-May-20: START TIME 03:43:00 20-May-20
 STOP.S             03:53:08 20-May-20: STOP TIME  03:53:08 20-May-20
 STEP.S                   0.00: STEP TIME
 NULL.                 -999.25: NULL VALUE
 MDS .        Operator Entered:  MAG DATA SOURCE
 PDAT.          Mean Sea Level:  PERMANENT DATUM
 UNIT.                     N/A:  LOGGING EQUIPMENT ID
 DCON.         Sperry Drilling:  DIRECTNL CONTR
 DOE .                     N/A:  DOE NUMBER
 RIG .              East Azeri:  RIG NAME
 JOBN.        AZ-XX-0905856059:  JOB TICKET NUMB
 WELL.                     D36:  WELL NAME
 MWDS.                    Baku:  MWD SHOP
 SRVC.     Turan Drilling & Engineering:  CONTRACTOR
 FLD .                     ACG:  FIELD NAME
 CTRY.              Azerbaijan:  COUNTRY NAME
 PROV.                    Baku:  PROVINCE
 STAT.                    Baku:  STATE NAME
 REGN.                   EESSA:  REGION
 BASE.              Azerbaijan:  LOGGING EQUIPMENT BASE LOCATION
 UWI .                     N/A:  UNIQUE WELL IDENTIFIER
 API .                     N/A:  API NUMBER
 COMP.     BP Exploration (Caspian Sea) Ltd.:  COMPANY
 WTYP.                Deviated:  WELL TYPE
 SON .        AZ-XX-0905856059:  JOB NUMBER
 FTOP.          Formation Tops:  FORM TOPS DESC
 ILTD.               Lithology:  INTERP LTH DESC
 SVYD.                  Survey:  SURVEY DESC
 DMOD.             Drill Model:  DRILL MOD DESC
 HPTY.       Minimum Curvature:  HOLE POS TYPE
 NREF.                    Grid:  NORTH REFERENCE
 SPUD.               25-Feb-20:  SPUD DATE
 DATE.      08.55.28 01-May-20:  END TIME
 STIM.      08.55.28 25-Feb-20:  START TIME
 DMF .             Drill Floor:  DRILL MEAS FROM
 DFST.                        :  DIST FSL TEXT
 DFWT.                        :  DIST FWL TEXT
 CNTY.                        :  COUNTY
 LOC .                        :  LOCATION
 LMF .             Drill Floor:  LOG MEASURED FROM
 VSNS.m                   6.09:  VERT SEC N/S
 VSEW.m                 -10.79:  VERT SEC E/W
 AGAP.m                  43.60:  AIR GAP
 DEP .m                 388.24:  DEPTH
 APD .m                  43.60:  DEPTH ABOVE PD
 WDMS.m                 151.80:  WD ELEV
 EGL .m                   0.00:  GROUND ELEVATION
 EPD .m                   0.00:  ELEVATION
 AZTC.deg                 6.12:  AZM TOTAL CORR
 GRDC.deg                 0.30:  GRID CORRECTION
 MDEC.deg                 6.42:  MAGNETIC DECL
 MDIP.deg                59.42:  MAGNETIC DIP
 MFLD.nT              50256.00:  MAGNETIC FIELD
 GVFD.g                   1.00:  GRAVITY FIELD
 VSDR.deg               159.57:  VERT SEC DIRECT
 TDD .m                5000.01:  TOTAL DEPTH (DRILLER)
 SDEP.m                 397.00:  START DEPTH
 DFSL.m                   0.00:  DISTANCE FSL
 DFWL.m                   0.00:  DISTANCE FWL
 UTMY.m             4431880.20:  UTM Y
 UTMX.m              538763.98:  UTM X
 WHEW.m                 -10.79:  WELL HEAD E/W
 WHNS.m                   6.09:  WELL HEAD N/S
 LONG.deg                51.45:  LONGITUDE
 LATI.deg                40.02:  LATITUDE
 TVDS.m                  43.60:  TVDSS CORRECTN
 EKB .m                  43.60:  KB ELEVATION
 EDF .m                  43.60:  DF ELEVATION
 MAGU.                 1847640:  MAGUTM CHECKSUM
 VSC .                       0:  VS TO CLOSURE
~Parameter Information Block
#MNEM.UNIT       Value        Description
#---------     -----------    ---------------------------
 AV  .mps                 1.30:  Ann Velocity 
 AVMX.mps                 1.90:  Max Ann Veloc 
 AZIF.deg               115.68:  Azm, Final 
 BHAT.                   Other:  BHA Type 
 BROT.°/30m               0.74:  Build Rotating 
 BS  .in                  8.50:  Bit Size 
 BTPL.psig              430.00:  Bit Press Loss 
 CABU.                      No:  Customer Abuse 
 COMM.                     ÌÍk:  Run Comments 1 
 TCS .hr                 51.31:  Time Ciculation Ended 
 CV  .mps                 2.52:  Crit Velocity 
 CVMX.mps                 2.62:  Max Crit Veloc 
 DD1 .          Teymur Aghayev:  Direct Drillr 1 
 DDSV.                   Other:  DD Service 
 DEFF.%                 100.00:  % Det Eff 
 DLRX.°/30m               1.62:  Dogleg Rot Max 
 DLSO.°/30m               0.74:  Dogleg Oriented 
 DLSX.°/30m               1.62:  Dogleg Str Max 
 DRET.      04.30.56 18-May-20:  Drill End Time 
 DRST.      04.30.56 18-May-20:  Drill Start Tim 
 DTIM.hr                  0.00:  Time Drilling 
 EDEP.m                5337.01:  End Depth 
 ENG1.      Artemiy Matviyanov:  Engineer 1 
 ENG2.      Bakhtiyar Jabbarli:  Engineer 2 
 ENG3.           Emil Huseynov:  Engineer 3 
 ETIM.      18.40.00 22-May-20:  End Time 
 FLOI.gpm               550.00:  Flow In 
 FLON.gpm               350.00:  Flow In Min 
 FLOS.cptm                0.00:  Fluid Loss 
 FLOX.gpm               600.00:  Flow In Max 
 HFLO.                      No:  High Flow 
 HPRE.                      No:  High Pressure 
 HTEM.                      No:  High Temp 
 HYDO.m                   1.80:  Hydro Offset 
 IFIN.deg                67.01:  Inc, Final 
 IMAX.deg                67.49:  Inc Max 
 IMIN.deg                66.50:  Inc Min 
 IMND.m                5144.79:  Inc Min Depth 
 IMXD.m                5116.12:  Inc Max Depth 
 JARR.                      No:  Jarring 
 LETM.      17.55.56 20-May-20:  Log End Time 
 LOST.hr                     0:  Lost Rig Time 
 LSTM.      04.30.56 18-May-20:  Log Start Time 
 MDCL.ppm            193153.00:  Mud Chlorides 
 MDES.     Inversion Oil/Synthetic:  Mud Desc 
 DFD .sg                  1.40:  Mud Density 
 MDMN.sg                  1.40:  Dens Mud Min 
 MDMX.sg                  1.41:  Dens Mud Max 
 MOIL.                      68:  Run Mud Oil % 
 MOWR.                   68:32:  Run Mud OWR 
 MSND.                     0.2:  Run Mud Sand % 
 MSOL.                    18.8:  Run Mud Solids% 
 DFV .spqt               80.00:  Mud Viscosity 
 MWOD.in                  6.75:  MWD Tool OD 
 MWSI.                      No:  Serv Intrp, MWD 
 OTIM.hr                104.84:  Time Operating 
 PMAX.psia            10690.93:  Press Op, Max 
 PV  .cP                 26.00:  Mud PV 
 RUN .                     900:  Run Number 
 ROPA.m/hr                0.00:  ROP Avg 
 ROPN.m/hr                0.00:  ROP Min 
 ROPX.m/hr                0.00:  ROP Max 
 RPMA.rpm               140.00:  RPM Surface Avg 
 RPMN.rpm                70.00:  RPM Surface Min 
 RPMX.rpm               140.00:  RPM Surface Max 
 RRUN.                    0900:  Rig Run Number 
 RTIM.hr                 36.00:  Time Reaming 
 SAZI.deg               115.72:  Azm, Start 
 SDEP.m                5337.01:  Start Depth 
 SIDD.                      No:  Serv Intrp, DD 
 SINC.deg                66.92:  Inc, Start 
 SPPA.psig             4400.00:  SPP Avg 
 SPPN.psig             1135.00:  SPP Min 
 SPPX.psig             4581.00:  SPP Max 
 STIM.      04.30.56 18-May-20:  Start Time 
 SVCS.                     MWD:  Services 
 SVER.                    9.20:  Sperry Version 
 TDAT.m                5337.01:  Tot Depth Attmp 
 TDDF.                      No:  Trip for DD 
 TFF .                      No:  Trip for Fail 
 TQAA.f-kp               23.00:  Torque Abs Avg 
 TQAN.f-kp               18.00:  Torque Abs Min 
 TQAX.f-kp               25.00:  Torque Abs Max 
 TRRT.°/30m               0.74:  Turn Rotating 
 MRT .                    HCIM:  Maximum Recorded Temperature 
 TTMX.degC               76.47:  Max Tool Temp 
 WBMN.klb                 0.00:  WOB Min 
 WITN.             Anar Khalil:  Customer Rep 
 WITN.      Kamran Keberlinski:  Customer Rep 2 
 WOBA.klb                 0.00:  WOB Avg 
 WOBX.klb                 0.00:  WOB Max 
 YP  .lhf2               27.00:  Yield Point 
~Curve Information Block
#MNEM.UNIT                 API CODE     Curve Description
#---------               -----------    ---------------------------
 TIME.HHMMSS            00 000 000 000:  GT Time & Date
 GTDEPTH.m              00 000 000 000:  GT Depth
 GTPQH.psia             00 000 000 000:  GT HR Quartz Pressure
 GTTQ.degC              00 000 000 000:  GT Quartz Temperature
 GTTN.NONE              00 000 000 000:  GT Test Number
 GTET.sec               00 000 000 000:  GT Elapsed Test Time
 GTTVD.m                00 000 000 000:  GT True Vertical Depth
#Other Information
#
#WARRANTY: Halliburton will use its best efforts to furnish customers with 
#accurate information and interpretations that are part of, and incident to, the services 
#provided.  However, Halliburton cannot and does not warrant the accuracy 
#or correctness of such information and interpretations.  Under no circumstances should any 
#such information or interpretation be relied upon as the sole basis for any drilling, 
#completion, production, or financial decision or any procedure involving any risk to the 
#safety of any drilling venture, drilling rig or its crew or any other third party.  The 
#Customer has full responsibility for all drilling, completion and production operation.  
#Halliburton makes no representations or warranties, either expressed or 
#implied, including, but not limited to, the implied warranties of merchantability or fitness 
#for a particular purpose, with respect to the services rendered.  In no event will 
#Halliburton be liable for failure to obtain any particular results or for 
#any damages, including, but not limited to, indirect, special or consequential damages, 
#resulting from the use of any information or interpretation provided by Halliburton.
#
~A           TIME           GTDEPTH  GTPQH  GTTQ  GTTN  GTET   GTTVD  
# ...
   03:51:27.039.20-May-2020 5064.01  486.04 68.93 8.00 506.14 2676.56
   03:51:27.239.20-May-2020 5064.01  486.38 68.93 8.00 506.34 2676.56
   03:51:27.439.20-May-2020 5064.01  486.81 68.93 8.00 506.54 2676.56
   03:51:27.639.20-May-2020 5064.01  487.23 68.93 8.00 506.74 2676.56
   03:51:27.839.20-May-2020 5064.01  487.59 68.93 8.00 506.94 2676.56
   03:51:28.039.20-May-2020 5064.01  487.60 68.93 8.00 507.14 2676.56
   03:51:28.239.20-May-2020 5064.01  487.60 68.93 8.00 507.34 2676.56
   03:51:28.440.20-May-2020 5064.01  488.47 68.93 8.00 507.54 2676.56
   03:51:28.640.20-May-2020 5064.01  488.92 68.93 8.00 507.74 2676.56
   03:51:28.840.20-May-2020 5064.01  488.80 68.93 8.00 507.94 2676.56
   03:51:29.040.20-May-2020 5064.01  489.46 68.93 8.00 508.14 2676.56
   03:51:29.240.20-May-2020 5064.01  489.46 68.93 8.00 508.34 2676.56
   03:51:29.440.20-May-2020 5064.01  490.05 68.93 8.00 508.54 2676.56
   03:51:29.640.20-May-2020 5064.01  490.48 68.93 8.00 508.74 2676.56
   03:51:29.840.20-May-2020 5064.01  490.77 68.93 8.00 508.94 2676.56
   03:51:30.040.20-May-2020 5064.01  490.77 68.93 8.00 509.14 2676.56
   03:51:30.240.20-May-2020 5064.01  491.32 68.93 8.00 509.34 2676.56
   03:51:30.440.20-May-2020 5064.01  491.68 68.93 8.00 509.54 2676.56
   03:51:30.640.20-May-2020 5064.01  492.09 68.93 8.00 509.74 2676.56
   03:51:30.840.20-May-2020 5064.01  492.44 68.93 8.00 509.94 2676.56
   03:51:31.040.20-May-2020 5064.01  492.73 68.93 8.00 510.14 2676.56
   03:51:31.240.20-May-2020 5064.01  492.73 68.93 8.00 510.34 2676.56
   03:51:31.440.20-May-2020 5064.01  493.41 68.93 8.00 510.54 2676.56
   03:51:31.640.20-May-2020 5064.01  493.69 68.93 8.00 510.74 2676.56
   03:51:31.841.20-May-2020 5064.01  494.01 68.93 8.00 510.94 2676.56
   03:51:32.041.20-May-2020 5064.01  494.16 68.93 8.00 511.14 2676.56
   03:51:32.241.20-May-2020 5064.01  494.16 68.93 8.00 511.34 2676.56
   03:51:32.441.20-May-2020 5064.01  494.86 68.93 8.00 511.54 2676.56
   03:51:32.641.20-May-2020 5064.01  495.29 68.93 8.00 511.74 2676.56
   03:51:32.841.20-May-2020 5064.01  495.65 68.93 8.00 511.94 2676.56
   03:51:33.041.20-May-2020 5064.01  495.98 68.93 8.00 512.14 2676.56
   03:51:33.241.20-May-2020 5064.01  496.30 68.93 8.00 512.34 2676.56
   03:51:33.441.20-May-2020 5064.01  496.70 68.93 8.00 512.54 2676.56
   03:51:33.641.20-May-2020 5064.01  497.09 68.93 8.00 512.75 2676.56
   03:51:33.841.20-May-2020 5064.01  497.45 68.93 8.00 512.95 2676.56
   03:51:34.041.20-May-2020 5064.01  497.83 68.93 8.00 513.15 2676.56
   03:51:34.241.20-May-2020 5064.01  498.20 68.93 8.00 513.35 2676.56
   03:51:34.441.20-May-2020 5064.01  498.56 68.93 8.00 513.55 2676.56
   03:51:34.641.20-May-2020 5064.01  499.01 68.93 8.00 513.75 2676.56
   03:51:34.841.20-May-2020 5064.01  499.36 68.93 8.00 513.95 2676.56
   03:51:35.041.20-May-2020 5064.01  499.38 68.93 8.00 514.15 2676.56
   03:51:35.241.20-May-2020 5064.01  499.38 68.93 8.00 514.35 2676.56
   03:51:35.442.20-May-2020 5064.01  500.31 68.93 8.00 514.55 2676.56
   03:51:35.642.20-May-2020 5064.01  500.73 68.93 8.00 514.75 2676.56
   03:51:35.842.20-May-2020 5064.01  500.60 68.93 8.00 514.95 2676.56
   03:51:36.042.20-May-2020 5064.01  501.24 68.93 8.00 515.15 2676.56
   03:51:36.242.20-May-2020 5064.01  501.24 68.93 8.00 515.35 2676.56
   03:51:36.442.20-May-2020 5064.01  501.82 68.93 8.00 515.55 2676.56
   03:51:36.642.20-May-2020 5064.01  502.24 68.93 8.00 515.75 2676.56
   03:51:36.842.20-May-2020 5064.01  502.52 68.93 8.00 515.95 2676.56
   03:51:37.042.20-May-2020 5064.01  502.50 68.93 8.00 516.15 2676.56
   03:51:37.242.20-May-2020 5064.01  503.15 68.93 8.00 516.35 2676.56
   03:51:37.442.20-May-2020 5064.01  503.38 68.93 8.00 516.55 2676.56
   03:51:37.642.20-May-2020 5064.01  503.85 68.93 8.00 516.75 2676.56
   03:51:37.842.20-May-2020 5064.01  504.17 68.93 8.00 516.95 2676.56
   03:51:38.042.20-May-2020 5064.01  504.55 68.93 8.00 517.15 2676.56
   03:51:38.242.20-May-2020 5064.01  504.49 68.93 8.00 517.35 2676.56
   03:51:38.442.20-May-2020 5064.01  505.03 68.93 8.00 517.55 2676.56
   03:51:38.642.20-May-2020 5064.01  505.38 68.93 8.00 517.75 2676.56
   03:51:38.842.20-May-2020 5064.01  505.76 68.93 8.00 517.95 2676.56
   03:51:39.043.20-May-2020 5064.01  505.72 68.93 8.00 518.15 2676.56
   03:51:39.243.20-May-2020 5064.01  505.72 68.93 8.00 518.35 2676.56
   03:51:39.443.20-May-2020 5064.01  506.62 68.93 8.00 518.55 2676.56
   03:51:39.643.20-May-2020 5064.01  506.97 68.93 8.00 518.75 2676.56
   03:51:39.843.20-May-2020 5064.01  507.39 68.93 8.00 518.95 2676.56
   03:51:40.043.20-May-2020 5064.01  507.72 68.93 8.00 519.15 2676.56
   03:51:40.243.20-May-2020 5064.01  507.72 68.93 8.00 519.35 2676.56
   03:51:40.443.20-May-2020 5064.01  508.39 68.93 8.00 519.55 2676.56
   03:51:40.643.20-May-2020 5064.01  508.77 68.93 8.00 519.75 2676.56
   03:51:40.843.20-May-2020 5064.01  509.16 68.93 8.00 519.95 2676.56
   03:51:41.043.20-May-2020 5064.01  509.54 68.93 8.00 520.15 2676.56
   03:51:41.243.20-May-2020 5064.01  509.54 68.93 8.00 520.35 2676.56
   03:51:41.443.20-May-2020 5064.01  510.29 68.93 8.00 520.55 2676.56
   03:51:41.643.20-May-2020 5064.01  510.69 68.93 8.00 520.75 2676.56
   03:51:41.843.20-May-2020 5064.01  511.04 68.93 8.00 520.95 2676.56
   03:51:42.043.20-May-2020 5064.01  511.08 68.93 8.00 521.15 2676.56
   03:51:42.243.20-May-2020 5064.01  511.66 68.93 8.00 521.35 2676.56
   03:51:42.444.20-May-2020 5064.01  512.00 68.93 8.00 521.55 2676.56
   03:51:42.644.20-May-2020 5064.01  512.36 68.93 8.00 521.75 2676.56
   03:51:42.844.20-May-2020 5064.01  512.33 68.93 8.00 521.95 2676.56
   03:51:43.044.20-May-2020 5064.01  512.87 68.93 8.00 522.15 2676.56
   03:51:43.244.20-May-2020 5064.01  512.87 68.93 8.00 522.35 2676.56
   03:51:43.444.20-May-2020 5064.01  513.58 68.93 8.00 522.55 2676.56
   03:51:43.644.20-May-2020 5064.01  513.99 68.93 8.00 522.75 2676.56
   03:51:43.844.20-May-2020 5064.01  514.32 68.93 8.00 522.95 2676.56
   03:51:44.044.20-May-2020 5064.01  514.33 68.93 8.00 523.15 2676.56
   03:51:44.244.20-May-2020 5064.01  514.33 68.93 8.00 523.35 2676.56
   03:51:44.444.20-May-2020 5064.01  515.22 68.93 8.00 523.55 2676.56
   03:51:44.644.20-May-2020 5064.01  515.64 68.93 8.00 523.75 2676.56
   03:51:44.844.20-May-2020 5064.01  515.99 68.93 8.00 523.95 2676.56
   03:51:45.044.20-May-2020 5064.01  516.28 68.93 8.00 524.15 2676.56
   03:51:45.244.20-May-2020 5064.01  516.26 68.93 8.00 524.35 2676.56
   03:51:45.444.20-May-2020 5064.01  516.87 68.93 8.00 524.55 2676.56
   03:51:45.644.20-May-2020 5064.01  517.18 68.93 8.00 524.75 2676.56
   03:51:45.844.20-May-2020 5064.01  517.57 68.93 8.00 524.95 2676.56
   03:51:46.045.20-May-2020 5064.01  517.95 68.93 8.00 525.15 2676.56
   03:51:46.245.20-May-2020 5064.01  517.95 68.93 8.00 525.35 2676.56
   03:51:46.445.20-May-2020 5064.01  518.38 68.93 8.00 525.55 2676.56
   03:51:46.645.20-May-2020 5064.01  518.80 68.93 8.00 525.75 2676.56
   03:51:46.845.20-May-2020 5064.01  519.16 68.93 8.00 525.95 2676.56
   03:51:47.045.20-May-2020 5064.01  519.52 68.93 8.00 526.15 2676.56
   03:51:47.245.20-May-2020 5064.01  519.52 68.93 8.00 526.35 2676.56
   03:51:47.445.20-May-2020 5064.01  520.16 68.93 8.00 526.55 2676.56
   03:51:47.645.20-May-2020 5064.01  520.56 68.93 8.00 526.75 2676.56
   03:51:47.845.20-May-2020 5064.01  520.96 68.93 8.00 526.95 2676.56
   03:51:48.045.20-May-2020 5064.01  521.29 68.93 8.00 527.15 2676.56
   03:51:48.245.20-May-2020 5064.01  521.29 68.93 8.00 527.35 2676.56
   03:51:48.445.20-May-2020 5064.01  522.10 68.93 8.00 527.55 2676.56
   03:51:48.645.20-May-2020 5064.01  522.50 68.93 8.00 527.75 2676.56
   03:51:48.845.20-May-2020 5064.01  522.81 68.93 8.00 527.95 2676.56
   03:51:49.045.20-May-2020 5064.01  523.26 68.93 8.00 528.15 2676.56
   03:51:49.245.20-May-2020 5064.01  523.26 68.93 8.00 528.35 2676.56
   03:51:49.445.20-May-2020 5064.01  523.61 68.93 8.00 528.55 2676.56
   03:51:49.646.20-May-2020 5064.01  524.25 68.93 8.00 528.75 2676.56
   03:51:49.846.20-May-2020 5064.01  524.50 68.93 8.00 528.95 2676.56
