~Version Information
 VERS.                  2.0:   CWLS log ASCII Standard -VERSION 2.0
 WRAP.                   NO:   One line per depth step
~Well Information Block
#MNEM.UNIT     VALUE/NAME     DESCRIPTION
#---------     -----------    ---------------------------
 STRT.S             06:41:15 20-May-20: START TIME 06:41:15 20-May-20
 STOP.S             06:51:49 20-May-20: STOP TIME  06:51:49 20-May-20
 STEP.S                   0.00: STEP TIME
 NULL.                 -999.25: NULL VALUE
 MDS .        Operator Entered:  MAG DATA SOURCE
 PDAT.          Mean Sea Level:  PERMANENT DATUM
 UNIT.                     N/A:  LOGGING EQUIPMENT ID
 DCON.         Sperry Drilling:  DIRECTNL CONTR
 DOE .                     N/A:  DOE NUMBER
 RIG .              East Azeri:  RIG NAME
 JOBN.        AZ-XX-0905856059:  JOB TICKET NUMB
 WELL.                     D36:  WELL NAME
 MWDS.                    Baku:  MWD SHOP
 SRVC.     Turan Drilling & Engineering:  CONTRACTOR
 FLD .                     ACG:  FIELD NAME
 CTRY.              Azerbaijan:  COUNTRY NAME
 PROV.                    Baku:  PROVINCE
 STAT.                    Baku:  STATE NAME
 REGN.                   EESSA:  REGION
 BASE.              Azerbaijan:  LOGGING EQUIPMENT BASE LOCATION
 UWI .                     N/A:  UNIQUE WELL IDENTIFIER
 API .                     N/A:  API NUMBER
 COMP.     BP Exploration (Caspian Sea) Ltd.:  COMPANY
 WTYP.                Deviated:  WELL TYPE
 SON .        AZ-XX-0905856059:  JOB NUMBER
 FTOP.          Formation Tops:  FORM TOPS DESC
 ILTD.               Lithology:  INTERP LTH DESC
 SVYD.                  Survey:  SURVEY DESC
 DMOD.             Drill Model:  DRILL MOD DESC
 HPTY.       Minimum Curvature:  HOLE POS TYPE
 NREF.                    Grid:  NORTH REFERENCE
 SPUD.               25-Feb-20:  SPUD DATE
 DATE.      08.55.28 01-May-20:  END TIME
 STIM.      08.55.28 25-Feb-20:  START TIME
 DMF .             Drill Floor:  DRILL MEAS FROM
 DFST.                        :  DIST FSL TEXT
 DFWT.                        :  DIST FWL TEXT
 CNTY.                        :  COUNTY
 LOC .                        :  LOCATION
 LMF .             Drill Floor:  LOG MEASURED FROM
 VSNS.m                   6.09:  VERT SEC N/S
 VSEW.m                 -10.79:  VERT SEC E/W
 AGAP.m                  43.60:  AIR GAP
 DEP .m                 388.24:  DEPTH
 APD .m                  43.60:  DEPTH ABOVE PD
 WDMS.m                 151.80:  WD ELEV
 EGL .m                   0.00:  GROUND ELEVATION
 EPD .m                   0.00:  ELEVATION
 AZTC.deg                 6.12:  AZM TOTAL CORR
 GRDC.deg                 0.30:  GRID CORRECTION
 MDEC.deg                 6.42:  MAGNETIC DECL
 MDIP.deg                59.42:  MAGNETIC DIP
 MFLD.nT              50256.00:  MAGNETIC FIELD
 GVFD.g                   1.00:  GRAVITY FIELD
 VSDR.deg               159.57:  VERT SEC DIRECT
 TDD .m                5000.01:  TOTAL DEPTH (DRILLER)
 SDEP.m                 397.00:  START DEPTH
 DFSL.m                   0.00:  DISTANCE FSL
 DFWL.m                   0.00:  DISTANCE FWL
 UTMY.m             4431880.20:  UTM Y
 UTMX.m              538763.98:  UTM X
 WHEW.m                 -10.79:  WELL HEAD E/W
 WHNS.m                   6.09:  WELL HEAD N/S
 LONG.deg                51.45:  LONGITUDE
 LATI.deg                40.02:  LATITUDE
 TVDS.m                  43.60:  TVDSS CORRECTN
 EKB .m                  43.60:  KB ELEVATION
 EDF .m                  43.60:  DF ELEVATION
 MAGU.                 1847640:  MAGUTM CHECKSUM
 VSC .                       0:  VS TO CLOSURE
~Parameter Information Block
#MNEM.UNIT       Value        Description
#---------     -----------    ---------------------------
 AV  .mps                 1.30:  Ann Velocity 
 AVMX.mps                 1.90:  Max Ann Veloc 
 AZIF.deg               115.68:  Azm, Final 
 BHAT.                   Other:  BHA Type 
 BROT.°/30m               0.74:  Build Rotating 
 BS  .in                  8.50:  Bit Size 
 BTPL.psig              430.00:  Bit Press Loss 
 CABU.                      No:  Customer Abuse 
 COMM.                     œÿv:  Run Comments 1 
 TCS .hr                 51.31:  Time Ciculation Ended 
 CV  .mps                 2.52:  Crit Velocity 
 CVMX.mps                 2.62:  Max Crit Veloc 
 DD1 .          Teymur Aghayev:  Direct Drillr 1 
 DDSV.                   Other:  DD Service 
 DEFF.%                 100.00:  % Det Eff 
 DLRX.°/30m               1.62:  Dogleg Rot Max 
 DLSO.°/30m               0.74:  Dogleg Oriented 
 DLSX.°/30m               1.62:  Dogleg Str Max 
 DRET.      04.30.56 18-May-20:  Drill End Time 
 DRST.      04.30.56 18-May-20:  Drill Start Tim 
 DTIM.hr                  0.00:  Time Drilling 
 EDEP.m                5337.01:  End Depth 
 ENG1.      Artemiy Matviyanov:  Engineer 1 
 ENG2.      Bakhtiyar Jabbarli:  Engineer 2 
 ENG3.           Emil Huseynov:  Engineer 3 
 ETIM.      18.40.00 22-May-20:  End Time 
 FLOI.gpm               550.00:  Flow In 
 FLON.gpm               350.00:  Flow In Min 
 FLOS.cptm                0.00:  Fluid Loss 
 FLOX.gpm               600.00:  Flow In Max 
 HFLO.                      No:  High Flow 
 HPRE.                      No:  High Pressure 
 HTEM.                      No:  High Temp 
 HYDO.m                   1.80:  Hydro Offset 
 IFIN.deg                67.01:  Inc, Final 
 IMAX.deg                67.49:  Inc Max 
 IMIN.deg                66.50:  Inc Min 
 IMND.m                5144.79:  Inc Min Depth 
 IMXD.m                5116.12:  Inc Max Depth 
 JARR.                      No:  Jarring 
 LETM.      17.55.56 20-May-20:  Log End Time 
 LOST.hr                     0:  Lost Rig Time 
 LSTM.      04.30.56 18-May-20:  Log Start Time 
 MDCL.ppm            193153.00:  Mud Chlorides 
 MDES.     Inversion Oil/Synthetic:  Mud Desc 
 DFD .sg                  1.40:  Mud Density 
 MDMN.sg                  1.40:  Dens Mud Min 
 MDMX.sg                  1.41:  Dens Mud Max 
 MOIL.                      68:  Run Mud Oil % 
 MOWR.                   68:32:  Run Mud OWR 
 MSND.                     0.2:  Run Mud Sand % 
 MSOL.                    18.8:  Run Mud Solids% 
 DFV .spqt               80.00:  Mud Viscosity 
 MWOD.in                  6.75:  MWD Tool OD 
 MWSI.                      No:  Serv Intrp, MWD 
 OTIM.hr                104.84:  Time Operating 
 PMAX.psia            10690.93:  Press Op, Max 
 PV  .cP                 26.00:  Mud PV 
 RUN .                     900:  Run Number 
 ROPA.m/hr                0.00:  ROP Avg 
 ROPN.m/hr                0.00:  ROP Min 
 ROPX.m/hr                0.00:  ROP Max 
 RPMA.rpm               140.00:  RPM Surface Avg 
 RPMN.rpm                70.00:  RPM Surface Min 
 RPMX.rpm               140.00:  RPM Surface Max 
 RRUN.                    0900:  Rig Run Number 
 RTIM.hr                 36.00:  Time Reaming 
 SAZI.deg               115.72:  Azm, Start 
 SDEP.m                5337.01:  Start Depth 
 SIDD.                      No:  Serv Intrp, DD 
 SINC.deg                66.92:  Inc, Start 
 SPPA.psig             4400.00:  SPP Avg 
 SPPN.psig             1135.00:  SPP Min 
 SPPX.psig             4581.00:  SPP Max 
 STIM.      04.30.56 18-May-20:  Start Time 
 SVCS.                     MWD:  Services 
 SVER.                    9.20:  Sperry Version 
 TDAT.m                5337.01:  Tot Depth Attmp 
 TDDF.                      No:  Trip for DD 
 TFF .                      No:  Trip for Fail 
 TQAA.f-kp               23.00:  Torque Abs Avg 
 TQAN.f-kp               18.00:  Torque Abs Min 
 TQAX.f-kp               25.00:  Torque Abs Max 
 TRRT.°/30m               0.74:  Turn Rotating 
 MRT .                    HCIM:  Maximum Recorded Temperature 
 TTMX.degC               76.47:  Max Tool Temp 
 WBMN.klb                 0.00:  WOB Min 
 WITN.             Anar Khalil:  Customer Rep 
 WITN.      Kamran Keberlinski:  Customer Rep 2 
 WOBA.klb                 0.00:  WOB Avg 
 WOBX.klb                 0.00:  WOB Max 
 YP  .lhf2               27.00:  Yield Point 
~Curve Information Block
#MNEM.UNIT                 API CODE     Curve Description
#---------               -----------    ---------------------------
 TIME.HHMMSS            00 000 000 000:  GT Time & Date
 GTDEPTH.m              00 000 000 000:  GT Depth
 GTPQH.psia             00 000 000 000:  GT HR Quartz Pressure
 GTTQ.degC              00 000 000 000:  GT Quartz Temperature
 GTTN.NONE              00 000 000 000:  GT Test Number
 GTET.sec               00 000 000 000:  GT Elapsed Test Time
 GTTVD.m                00 000 000 000:  GT True Vertical Depth
#Other Information
#
#WARRANTY: Halliburton will use its best efforts to furnish customers with 
#accurate information and interpretations that are part of, and incident to, the services 
#provided.  However, Halliburton cannot and does not warrant the accuracy 
#or correctness of such information and interpretations.  Under no circumstances should any 
#such information or interpretation be relied upon as the sole basis for any drilling, 
#completion, production, or financial decision or any procedure involving any risk to the 
#safety of any drilling venture, drilling rig or its crew or any other third party.  The 
#Customer has full responsibility for all drilling, completion and production operation.  
#Halliburton makes no representations or warranties, either expressed or 
#implied, including, but not limited to, the implied warranties of merchantability or fitness 
#for a particular purpose, with respect to the services rendered.  In no event will 
#Halliburton be liable for failure to obtain any particular results or for 
#any damages, including, but not limited to, indirect, special or consequential damages, 
#resulting from the use of any information or interpretation provided by Halliburton.
#
~A           TIME           GTDEPTH  GTPQH  GTTQ  GTTN   GTET   GTTVD  
# ...
   06:45:24.591.20-May-2020 5012.01 2860.15 68.10 10.00 248.67 2656.39
   06:45:24.791.20-May-2020 5012.01 2857.83 68.10 10.00 248.87 2656.39
   06:45:24.991.20-May-2020 5012.01 2858.01 68.10 10.00 249.07 2656.39
   06:45:25.191.20-May-2020 5012.01 2858.01 68.10 10.00 249.27 2656.39
   06:45:25.391.20-May-2020 5012.01 2855.41 68.10 10.00 249.47 2656.39
   06:45:25.591.20-May-2020 5012.01 2854.13 68.10 10.00 249.67 2656.39
   06:45:25.791.20-May-2020 5012.01 2853.38 68.10 10.00 249.87 2656.39
   06:45:25.991.20-May-2020 5012.01 2852.91 68.10 10.00 250.07 2656.39
   06:45:26.192.20-May-2020 5012.01 2851.86 68.10 10.00 250.27 2656.39
   06:45:26.392.20-May-2020 5012.01 2852.36 68.10 10.00 250.47 2656.39
   06:45:26.592.20-May-2020 5012.01 2851.19 68.10 10.00 250.67 2656.39
   06:45:26.792.20-May-2020 5012.01 2850.73 68.10 10.00 250.87 2656.39
   06:45:26.992.20-May-2020 5012.01 2850.73 68.10 10.00 251.07 2656.39
   06:45:27.192.20-May-2020 5012.01 2850.73 68.10 10.00 251.27 2656.39
   06:45:27.392.20-May-2020 5012.01 2848.77 68.10 10.00 251.47 2656.39
   06:45:27.592.20-May-2020 5012.01 2849.51 68.10 10.00 251.67 2656.39
   06:45:27.792.20-May-2020 5012.01 2849.70 68.10 10.00 251.87 2656.39
   06:45:27.992.20-May-2020 5012.01 2850.05 68.10 10.00 252.07 2656.39
   06:45:28.192.20-May-2020 5012.01 2850.05 68.10 10.00 252.27 2656.39
   06:45:28.392.20-May-2020 5012.01 2848.60 68.10 10.00 252.47 2656.39
   06:45:28.592.20-May-2020 5012.01 2848.56 68.10 10.00 252.67 2656.39
   06:45:28.792.20-May-2020 5012.01 2848.44 68.10 10.00 252.87 2656.39
   06:45:28.992.20-May-2020 5012.01 2846.63 68.10 10.00 253.07 2656.39
   06:45:29.192.20-May-2020 5012.01 2846.63 68.10 10.00 253.27 2656.39
   06:45:29.392.20-May-2020 5012.01 2847.09 68.10 10.00 253.47 2656.39
   06:45:29.593.20-May-2020 5012.01 2847.45 68.10 10.00 253.67 2656.39
   06:45:29.793.20-May-2020 5012.01 2845.61 68.10 10.00 253.87 2656.39
   06:45:29.993.20-May-2020 5012.01 2848.51 68.10 10.00 254.07 2656.39
   06:45:30.193.20-May-2020 5012.01 2846.51 68.10 10.00 254.27 2656.39
   06:45:30.393.20-May-2020 5012.01 2848.09 68.10 10.00 254.47 2656.39
   06:45:30.593.20-May-2020 5012.01 2844.87 68.10 10.00 254.67 2656.39
   06:45:30.793.20-May-2020 5012.01 2847.40 68.10 10.00 254.87 2656.39
   06:45:30.993.20-May-2020 5012.01 2846.21 68.10 10.00 255.07 2656.39
   06:45:31.193.20-May-2020 5012.01 2846.21 68.10 10.00 255.27 2656.39
   06:45:31.393.20-May-2020 5012.01 2845.46 68.10 10.00 255.47 2656.39
   06:45:31.593.20-May-2020 5012.01 2845.05 68.10 10.00 255.67 2656.39
   06:45:31.793.20-May-2020 5012.01 2845.94 68.10 10.00 255.87 2656.39
   06:45:31.993.20-May-2020 5012.01 2846.80 68.10 10.00 256.07 2656.39
   06:45:32.193.20-May-2020 5012.01 2846.80 68.10 10.00 256.27 2656.39
   06:45:32.393.20-May-2020 5012.01 2847.53 68.10 10.00 256.47 2656.39
   06:45:32.593.20-May-2020 5012.01 2853.23 68.10 10.00 256.67 2656.39
   06:45:32.793.20-May-2020 5012.01 2854.91 68.10 10.00 256.87 2656.39
   06:45:32.993.20-May-2020 5012.01 2851.97 68.10 10.00 257.07 2656.39
   06:45:33.194.20-May-2020 5012.01 2851.97 68.10 10.00 257.27 2656.39
   06:45:33.394.20-May-2020 5012.01 2855.49 68.10 10.00 257.47 2656.39
   06:45:33.594.20-May-2020 5012.01 2854.39 68.10 10.00 257.67 2656.39
   06:45:33.794.20-May-2020 5012.01 2855.72 68.09 10.00 257.87 2656.39
   06:45:33.994.20-May-2020 5012.01 2855.22 68.10 10.00 258.07 2656.39
   06:45:34.194.20-May-2020 5012.01 2856.28 68.09 10.00 258.27 2656.39
   06:45:34.394.20-May-2020 5012.01 2854.38 68.10 10.00 258.47 2656.39
   06:45:34.594.20-May-2020 5012.01 2853.35 68.09 10.00 258.67 2656.39
   06:45:34.794.20-May-2020 5012.01 2853.36 68.10 10.00 258.87 2656.39
   06:45:34.994.20-May-2020 5012.01 2876.50 68.09 10.00 259.07 2656.39
   06:45:35.194.20-May-2020 5012.01 2876.50 68.09 10.00 259.27 2656.39
   06:45:35.394.20-May-2020 5012.01 2868.62 68.09 10.00 259.47 2656.39
   06:45:35.594.20-May-2020 5012.01 2856.48 68.10 10.00 259.67 2656.39
   06:45:35.794.20-May-2020 5012.01 2852.62 68.09 10.00 259.87 2656.39
   06:45:35.994.20-May-2020 5012.01 2853.33 68.10 10.00 260.07 2656.39
   06:45:36.194.20-May-2020 5012.01 2853.33 68.10 10.00 260.27 2656.39
   06:45:36.394.20-May-2020 5012.01 2849.79 68.10 10.00 260.47 2656.39
   06:45:36.594.20-May-2020 5012.01 2850.70 68.09 10.00 260.67 2656.39
   06:45:36.795.20-May-2020 5012.01 2850.24 68.09 10.00 260.87 2656.39
   06:45:36.995.20-May-2020 5012.01 2846.72 68.10 10.00 261.07 2656.39
   06:45:37.195.20-May-2020 5012.01 2846.55 68.09 10.00 261.27 2656.39
   06:45:37.395.20-May-2020 5012.01 2847.27 68.09 10.00 261.47 2656.39
   06:45:37.595.20-May-2020 5012.01 2847.03 68.09 10.00 261.67 2656.39
   06:45:37.795.20-May-2020 5012.01 2844.75 68.09 10.00 261.87 2656.39
   06:45:37.995.20-May-2020 5012.01 2844.93 68.09 10.00 262.07 2656.39
   06:45:38.195.20-May-2020 5012.01 2844.93 68.09 10.00 262.27 2656.39
   06:45:38.395.20-May-2020 5012.01 2844.83 68.09 10.00 262.47 2656.39
   06:45:38.595.20-May-2020 5012.01 2844.42 68.09 10.00 262.67 2656.39
   06:45:38.795.20-May-2020 5012.01 2844.48 68.09 10.00 262.87 2656.39
   06:45:38.995.20-May-2020 5012.01 2844.93 68.09 10.00 263.07 2656.39
   06:45:39.195.20-May-2020 5012.01 2842.50 68.09 10.00 263.27 2656.39
   06:45:39.395.20-May-2020 5012.01 2842.74 68.09 10.00 263.47 2656.39
   06:45:39.595.20-May-2020 5012.01 2842.20 68.09 10.00 263.67 2656.39
   06:45:39.795.20-May-2020 5012.01 2842.92 68.09 10.00 263.87 2656.39
   06:45:39.995.20-May-2020 5012.01 2841.11 68.09 10.00 264.07 2656.39
   06:45:40.196.20-May-2020 5012.01 2843.56 68.09 10.00 264.27 2656.39
   06:45:40.396.20-May-2020 5012.01 2845.06 68.09 10.00 264.47 2656.39
   06:45:40.596.20-May-2020 5012.01 2845.85 68.09 10.00 264.67 2656.39
   06:45:40.796.20-May-2020 5012.01 2843.30 68.09 10.00 264.87 2656.39
   06:45:40.996.20-May-2020 5012.01 2845.39 68.09 10.00 265.07 2656.39
   06:45:41.196.20-May-2020 5012.01 2845.39 68.09 10.00 265.28 2656.39
   06:45:41.396.20-May-2020 5012.01 2844.77 68.09 10.00 265.48 2656.39
   06:45:41.596.20-May-2020 5012.01 2840.42 68.09 10.00 265.68 2656.39
   06:45:41.796.20-May-2020 5012.01 2843.58 68.09 10.00 265.88 2656.39
   06:45:41.996.20-May-2020 5012.01 2843.06 68.09 10.00 266.08 2656.39
   06:45:42.196.20-May-2020 5012.01 2843.54 68.09 10.00 266.28 2656.39
   06:45:42.396.20-May-2020 5012.01 2842.82 68.09 10.00 266.48 2656.39
   06:45:42.596.20-May-2020 5012.01 2841.86 68.09 10.00 266.68 2656.39
   06:45:42.796.20-May-2020 5012.01 2844.72 68.09 10.00 266.88 2656.39
   06:45:42.996.20-May-2020 5012.01 2843.79 68.09 10.00 267.08 2656.39
   06:45:43.196.20-May-2020 5012.01 2843.79 68.09 10.00 267.28 2656.39
   06:45:43.396.20-May-2020 5012.01 2841.19 68.09 10.00 267.48 2656.39
   06:45:43.596.20-May-2020 5012.01 2842.14 68.09 10.00 267.68 2656.39
   06:45:43.797.20-May-2020 5012.01 2841.24 68.09 10.00 267.88 2656.39
   06:45:43.997.20-May-2020 5012.01 2841.49 68.09 10.00 268.08 2656.39
   06:45:44.197.20-May-2020 5012.01 2841.49 68.09 10.00 268.28 2656.39
   06:45:44.397.20-May-2020 5012.01 2840.24 68.09 10.00 268.48 2656.39
   06:45:44.597.20-May-2020 5012.01 2841.27 68.09 10.00 268.68 2656.39
   06:45:44.797.20-May-2020 5012.01 2841.00 68.09 10.00 268.88 2656.39
   06:45:44.997.20-May-2020 5012.01 2840.90 68.09 10.00 269.08 2656.39
   06:45:45.197.20-May-2020 5012.01 2840.90 68.09 10.00 269.28 2656.39
   06:45:45.397.20-May-2020 5012.01 2840.19 68.09 10.00 269.48 2656.39
   06:45:45.597.20-May-2020 5012.01 2840.01 68.09 10.00 269.68 2656.39
   06:45:45.797.20-May-2020 5012.01 2839.09 68.09 10.00 269.88 2656.39
   06:45:45.997.20-May-2020 5012.01 2867.91 68.09 10.00 270.08 2656.39
   06:45:46.197.20-May-2020 5012.01 2897.80 68.09 10.00 270.28 2656.39
   06:45:46.397.20-May-2020 5012.01 2901.38 68.09 10.00 270.48 2656.39
   06:45:46.597.20-May-2020 5012.01 2901.89 68.09 10.00 270.68 2656.39
   06:45:46.797.20-May-2020 5012.01 2902.03 68.09 10.00 270.88 2656.39
   06:45:46.997.20-May-2020 5012.01 2902.06 68.09 10.00 271.08 2656.39
