~Version Information
 VERS.                  2.0:   CWLS log ASCII Standard -VERSION 2.0
 WRAP.                   NO:   One line per depth step
~Well Information Block
#MNEM.UNIT     VALUE/NAME     DESCRIPTION
#---------     -----------    ---------------------------
 STRT.S             00:06:39 20-May-20: START TIME 00:06:39 20-May-20
 STOP.S             00:17:12 20-May-20: STOP TIME  00:17:12 20-May-20
 STEP.S                   0.00: STEP TIME
 NULL.                 -999.25: NULL VALUE
 MDS .        Operator Entered:  MAG DATA SOURCE
 PDAT.          Mean Sea Level:  PERMANENT DATUM
 UNIT.                     N/A:  LOGGING EQUIPMENT ID
 DCON.         Sperry Drilling:  DIRECTNL CONTR
 DOE .                     N/A:  DOE NUMBER
 RIG .              East Azeri:  RIG NAME
 JOBN.        AZ-XX-0905856059:  JOB TICKET NUMB
 WELL.                     D36:  WELL NAME
 MWDS.                    Baku:  MWD SHOP
 SRVC.     Turan Drilling & Engineering:  CONTRACTOR
 FLD .                     ACG:  FIELD NAME
 CTRY.              Azerbaijan:  COUNTRY NAME
 PROV.                    Baku:  PROVINCE
 STAT.                    Baku:  STATE NAME
 REGN.                   EESSA:  REGION
 BASE.              Azerbaijan:  LOGGING EQUIPMENT BASE LOCATION
 UWI .                     N/A:  UNIQUE WELL IDENTIFIER
 API .                     N/A:  API NUMBER
 COMP.     BP Exploration (Caspian Sea) Ltd.:  COMPANY
 WTYP.                Deviated:  WELL TYPE
 SON .        AZ-XX-0905856059:  JOB NUMBER
 FTOP.          Formation Tops:  FORM TOPS DESC
 ILTD.               Lithology:  INTERP LTH DESC
 SVYD.                  Survey:  SURVEY DESC
 DMOD.             Drill Model:  DRILL MOD DESC
 HPTY.       Minimum Curvature:  HOLE POS TYPE
 NREF.                    Grid:  NORTH REFERENCE
 SPUD.               25-Feb-20:  SPUD DATE
 DATE.      08.55.28 01-May-20:  END TIME
 STIM.      08.55.28 25-Feb-20:  START TIME
 DMF .             Drill Floor:  DRILL MEAS FROM
 DFST.                        :  DIST FSL TEXT
 DFWT.                        :  DIST FWL TEXT
 CNTY.                        :  COUNTY
 LOC .                        :  LOCATION
 LMF .             Drill Floor:  LOG MEASURED FROM
 VSNS.m                   6.09:  VERT SEC N/S
 VSEW.m                 -10.79:  VERT SEC E/W
 AGAP.m                  43.60:  AIR GAP
 DEP .m                 388.24:  DEPTH
 APD .m                  43.60:  DEPTH ABOVE PD
 WDMS.m                 151.80:  WD ELEV
 EGL .m                   0.00:  GROUND ELEVATION
 EPD .m                   0.00:  ELEVATION
 AZTC.deg                 6.12:  AZM TOTAL CORR
 GRDC.deg                 0.30:  GRID CORRECTION
 MDEC.deg                 6.42:  MAGNETIC DECL
 MDIP.deg                59.42:  MAGNETIC DIP
 MFLD.nT              50256.00:  MAGNETIC FIELD
 GVFD.g                   1.00:  GRAVITY FIELD
 VSDR.deg               159.57:  VERT SEC DIRECT
 TDD .m                5000.01:  TOTAL DEPTH (DRILLER)
 SDEP.m                 397.00:  START DEPTH
 DFSL.m                   0.00:  DISTANCE FSL
 DFWL.m                   0.00:  DISTANCE FWL
 UTMY.m             4431880.20:  UTM Y
 UTMX.m              538763.98:  UTM X
 WHEW.m                 -10.79:  WELL HEAD E/W
 WHNS.m                   6.09:  WELL HEAD N/S
 LONG.deg                51.45:  LONGITUDE
 LATI.deg                40.02:  LATITUDE
 TVDS.m                  43.60:  TVDSS CORRECTN
 EKB .m                  43.60:  KB ELEVATION
 EDF .m                  43.60:  DF ELEVATION
 MAGU.                 1847640:  MAGUTM CHECKSUM
 VSC .                       0:  VS TO CLOSURE
~Parameter Information Block
#MNEM.UNIT       Value        Description
#---------     -----------    ---------------------------
 AV  .mps                 1.30:  Ann Velocity 
 AVMX.mps                 1.90:  Max Ann Veloc 
 AZIF.deg               115.68:  Azm, Final 
 BHAT.                   Other:  BHA Type 
 BROT.°/30m               0.74:  Build Rotating 
 BS  .in                  8.50:  Bit Size 
 BTPL.psig              430.00:  Bit Press Loss 
 CABU.                      No:  Customer Abuse 
 COMM.                     \õd:  Run Comments 1 
 TCS .hr                 51.31:  Time Ciculation Ended 
 CV  .mps                 2.52:  Crit Velocity 
 CVMX.mps                 2.62:  Max Crit Veloc 
 DD1 .          Teymur Aghayev:  Direct Drillr 1 
 DDSV.                   Other:  DD Service 
 DEFF.%                 100.00:  % Det Eff 
 DLRX.°/30m               1.62:  Dogleg Rot Max 
 DLSO.°/30m               0.74:  Dogleg Oriented 
 DLSX.°/30m               1.62:  Dogleg Str Max 
 DRET.      04.30.56 18-May-20:  Drill End Time 
 DRST.      04.30.56 18-May-20:  Drill Start Tim 
 DTIM.hr                  0.00:  Time Drilling 
 EDEP.m                5337.01:  End Depth 
 ENG1.      Artemiy Matviyanov:  Engineer 1 
 ENG2.      Bakhtiyar Jabbarli:  Engineer 2 
 ENG3.           Emil Huseynov:  Engineer 3 
 ETIM.      18.40.00 22-May-20:  End Time 
 FLOI.gpm               550.00:  Flow In 
 FLON.gpm               350.00:  Flow In Min 
 FLOS.cptm                0.00:  Fluid Loss 
 FLOX.gpm               600.00:  Flow In Max 
 HFLO.                      No:  High Flow 
 HPRE.                      No:  High Pressure 
 HTEM.                      No:  High Temp 
 HYDO.m                   1.80:  Hydro Offset 
 IFIN.deg                67.01:  Inc, Final 
 IMAX.deg                67.49:  Inc Max 
 IMIN.deg                66.50:  Inc Min 
 IMND.m                5144.79:  Inc Min Depth 
 IMXD.m                5116.12:  Inc Max Depth 
 JARR.                      No:  Jarring 
 LETM.      17.55.56 20-May-20:  Log End Time 
 LOST.hr                     0:  Lost Rig Time 
 LSTM.      04.30.56 18-May-20:  Log Start Time 
 MDCL.ppm            193153.00:  Mud Chlorides 
 MDES.     Inversion Oil/Synthetic:  Mud Desc 
 DFD .sg                  1.40:  Mud Density 
 MDMN.sg                  1.40:  Dens Mud Min 
 MDMX.sg                  1.41:  Dens Mud Max 
 MOIL.                      68:  Run Mud Oil % 
 MOWR.                   68:32:  Run Mud OWR 
 MSND.                     0.2:  Run Mud Sand % 
 MSOL.                    18.8:  Run Mud Solids% 
 DFV .spqt               80.00:  Mud Viscosity 
 MWOD.in                  6.75:  MWD Tool OD 
 MWSI.                      No:  Serv Intrp, MWD 
 OTIM.hr                104.84:  Time Operating 
 PMAX.psia            10690.93:  Press Op, Max 
 PV  .cP                 26.00:  Mud PV 
 RUN .                     900:  Run Number 
 ROPA.m/hr                0.00:  ROP Avg 
 ROPN.m/hr                0.00:  ROP Min 
 ROPX.m/hr                0.00:  ROP Max 
 RPMA.rpm               140.00:  RPM Surface Avg 
 RPMN.rpm                70.00:  RPM Surface Min 
 RPMX.rpm               140.00:  RPM Surface Max 
 RRUN.                    0900:  Rig Run Number 
 RTIM.hr                 36.00:  Time Reaming 
 SAZI.deg               115.72:  Azm, Start 
 SDEP.m                5337.01:  Start Depth 
 SIDD.                      No:  Serv Intrp, DD 
 SINC.deg                66.92:  Inc, Start 
 SPPA.psig             4400.00:  SPP Avg 
 SPPN.psig             1135.00:  SPP Min 
 SPPX.psig             4581.00:  SPP Max 
 STIM.      04.30.56 18-May-20:  Start Time 
 SVCS.                     MWD:  Services 
 SVER.                    9.20:  Sperry Version 
 TDAT.m                5337.01:  Tot Depth Attmp 
 TDDF.                      No:  Trip for DD 
 TFF .                      No:  Trip for Fail 
 TQAA.f-kp               23.00:  Torque Abs Avg 
 TQAN.f-kp               18.00:  Torque Abs Min 
 TQAX.f-kp               25.00:  Torque Abs Max 
 TRRT.°/30m               0.74:  Turn Rotating 
 MRT .                    HCIM:  Maximum Recorded Temperature 
 TTMX.degC               76.47:  Max Tool Temp 
 WBMN.klb                 0.00:  WOB Min 
 WITN.             Anar Khalil:  Customer Rep 
 WITN.      Kamran Keberlinski:  Customer Rep 2 
 WOBA.klb                 0.00:  WOB Avg 
 WOBX.klb                 0.00:  WOB Max 
 YP  .lhf2               27.00:  Yield Point 
~Curve Information Block
#MNEM.UNIT                 API CODE     Curve Description
#---------               -----------    ---------------------------
 TIME.HHMMSS            00 000 000 000:  GT Time & Date
 GTDEPTH.m              00 000 000 000:  GT Depth
 GTPQH.psia             00 000 000 000:  GT HR Quartz Pressure
 GTTQ.degC              00 000 000 000:  GT Quartz Temperature
 GTTN.NONE              00 000 000 000:  GT Test Number
 GTET.sec               00 000 000 000:  GT Elapsed Test Time
 GTTVD.m                00 000 000 000:  GT True Vertical Depth
#Other Information
#
#WARRANTY: Halliburton will use its best efforts to furnish customers with 
#accurate information and interpretations that are part of, and incident to, the services 
#provided.  However, Halliburton cannot and does not warrant the accuracy 
#or correctness of such information and interpretations.  Under no circumstances should any 
#such information or interpretation be relied upon as the sole basis for any drilling, 
#completion, production, or financial decision or any procedure involving any risk to the 
#safety of any drilling venture, drilling rig or its crew or any other third party.  The 
#Customer has full responsibility for all drilling, completion and production operation.  
#Halliburton makes no representations or warranties, either expressed or 
#implied, including, but not limited to, the implied warranties of merchantability or fitness 
#for a particular purpose, with respect to the services rendered.  In no event will 
#Halliburton be liable for failure to obtain any particular results or for 
#any damages, including, but not limited to, indirect, special or consequential damages, 
#resulting from the use of any information or interpretation provided by Halliburton.
#
~A           TIME           GTDEPTH  GTPQH  GTTQ  GTTN  GTET   GTTVD  
# ...
   00:16:14.673.20-May-2020 5121.01 3572.72 67.88 6.00 575.14 2698.81
   00:16:14.873.20-May-2020 5121.01 3572.72 67.88 6.00 575.34 2698.81
   00:16:15.073.20-May-2020 5121.01 3625.26 67.88 6.00 575.54 2698.81
   00:16:15.273.20-May-2020 5121.01 5882.93 67.88 6.00 575.74 2698.81
   00:16:15.473.20-May-2020 5121.01 6429.49 67.88 6.00 575.94 2698.81
   00:16:15.673.20-May-2020 5121.01 6430.53 67.88 6.00 576.14 2698.81
   00:16:15.873.20-May-2020 5121.01 6430.53 67.88 6.00 576.34 2698.81
   00:16:16.073.20-May-2020 5121.01 6436.52 67.88 6.00 576.54 2698.81
   00:16:16.273.20-May-2020 5121.01 6431.28 67.88 6.00 576.74 2698.81
   00:16:16.474.20-May-2020 5121.01 6433.58 67.88 6.00 576.94 2698.81
   00:16:16.674.20-May-2020 5121.01 6433.32 67.88 6.00 577.14 2698.81
   00:16:16.874.20-May-2020 5121.01 6433.32 67.88 6.00 577.34 2698.81
   00:16:17.074.20-May-2020 5121.01 6432.13 67.89 6.00 577.54 2698.81
   00:16:17.274.20-May-2020 5121.01 6439.28 67.89 6.00 577.74 2698.81
   00:16:17.474.20-May-2020 5121.01 6434.34 67.89 6.00 577.94 2698.81
   00:16:17.674.20-May-2020 5121.01 6435.67 67.89 6.00 578.14 2698.81
   00:16:17.874.20-May-2020 5121.01 6435.67 67.89 6.00 578.34 2698.81
   00:16:18.074.20-May-2020 5121.01 6436.44 67.90 6.00 578.54 2698.81
   00:16:18.274.20-May-2020 5121.01 6435.22 67.90 6.00 578.74 2698.81
   00:16:18.474.20-May-2020 5121.01 6440.49 67.90 6.00 578.94 2698.81
   00:16:18.674.20-May-2020 5121.01 6435.20 67.90 6.00 579.14 2698.81
   00:16:18.874.20-May-2020 5121.01 6435.20 67.90 6.00 579.34 2698.81
   00:16:19.074.20-May-2020 5121.01 6439.27 67.90 6.00 579.54 2698.81
   00:16:19.274.20-May-2020 5121.01 6437.62 67.91 6.00 579.74 2698.81
   00:16:19.474.20-May-2020 5121.01 6437.47 67.91 6.00 579.94 2698.81
   00:16:19.674.20-May-2020 5121.01 6440.88 67.91 6.00 580.14 2698.81
   00:16:19.874.20-May-2020 5121.01 6440.88 67.91 6.00 580.34 2698.81
   00:16:20.074.20-May-2020 5121.01 6438.72 67.92 6.00 580.54 2698.81
   00:16:20.274.20-May-2020 5121.01 6439.34 67.92 6.00 580.74 2698.81
   00:16:20.475.20-May-2020 5121.01 6437.40 67.92 6.00 580.94 2698.81
   00:16:20.675.20-May-2020 5121.01 6437.90 67.92 6.00 581.14 2698.81
   00:16:20.875.20-May-2020 5121.01 6437.90 67.92 6.00 581.34 2698.81
   00:16:21.075.20-May-2020 5121.01 6437.18 67.93 6.00 581.54 2698.81
   00:16:21.275.20-May-2020 5121.01 6437.61 67.93 6.00 581.75 2698.81
   00:16:21.475.20-May-2020 5121.01 6437.07 67.93 6.00 581.95 2698.81
   00:16:21.675.20-May-2020 5121.01 6436.58 67.93 6.00 582.15 2698.81
   00:16:21.875.20-May-2020 5121.01 6436.58 67.93 6.00 582.35 2698.81
   00:16:22.075.20-May-2020 5121.01 6436.25 67.93 6.00 582.55 2698.81
   00:16:22.275.20-May-2020 5121.01 6437.24 67.94 6.00 582.75 2698.81
   00:16:22.475.20-May-2020 5121.01 6436.58 67.94 6.00 582.95 2698.81
   00:16:22.675.20-May-2020 5121.01 6437.67 67.94 6.00 583.15 2698.81
   00:16:22.875.20-May-2020 5121.01 6437.67 67.94 6.00 583.35 2698.81
   00:16:23.075.20-May-2020 5121.01 6436.41 67.94 6.00 583.55 2698.81
   00:16:23.275.20-May-2020 5121.01 6439.10 67.94 6.00 583.75 2698.81
   00:16:23.475.20-May-2020 5121.01 6436.83 67.94 6.00 583.95 2698.81
   00:16:23.675.20-May-2020 5121.01 6444.31 67.94 6.00 584.15 2698.81
   00:16:23.875.20-May-2020 5121.01 6444.31 67.94 6.00 584.35 2698.81
   00:16:24.075.20-May-2020 5121.01 6439.10 67.95 6.00 584.55 2698.81
   00:16:24.275.20-May-2020 5121.01 6438.42 67.95 6.00 584.75 2698.81
   00:16:24.476.20-May-2020 5121.01 6440.70 67.95 6.00 584.95 2698.81
   00:16:24.676.20-May-2020 5121.01 6436.98 67.95 6.00 585.15 2698.81
   00:16:24.876.20-May-2020 5121.01 6436.98 67.95 6.00 585.35 2698.81
   00:16:25.076.20-May-2020 5121.01 6435.33 67.95 6.00 585.55 2698.81
   00:16:25.276.20-May-2020 5121.01 6440.96 67.95 6.00 585.75 2698.81
   00:16:25.476.20-May-2020 5121.01 6439.30 67.95 6.00 585.95 2698.81
   00:16:25.676.20-May-2020 5121.01 6438.91 67.95 6.00 586.15 2698.81
   00:16:25.876.20-May-2020 5121.01 6438.91 67.95 6.00 586.35 2698.81
   00:16:26.076.20-May-2020 5121.01 6441.85 67.95 6.00 586.55 2698.81
   00:16:26.276.20-May-2020 5121.01 6437.99 67.95 6.00 586.75 2698.81
   00:16:26.476.20-May-2020 5121.01 6439.81 67.95 6.00 586.95 2698.81
   00:16:26.676.20-May-2020 5121.01 6439.41 67.95 6.00 587.15 2698.81
   00:16:26.876.20-May-2020 5121.01 6439.41 67.95 6.00 587.35 2698.81
   00:16:27.076.20-May-2020 5121.01 6437.45 67.95 6.00 587.55 2698.81
   00:16:27.276.20-May-2020 5121.01 6441.09 67.95 6.00 587.75 2698.81
   00:16:27.476.20-May-2020 5121.01 6439.68 67.95 6.00 587.95 2698.81
   00:16:27.676.20-May-2020 5121.01 6438.14 67.95 6.00 588.15 2698.81
   00:16:27.876.20-May-2020 5121.01 6438.14 67.95 6.00 588.35 2698.81
   00:16:28.076.20-May-2020 5121.01 6437.31 67.96 6.00 588.55 2698.81
   00:16:28.276.20-May-2020 5121.01 6438.79 67.96 6.00 588.75 2698.81
   00:16:28.477.20-May-2020 5121.01 6438.02 67.96 6.00 588.95 2698.81
   00:16:28.677.20-May-2020 5121.01 6438.26 67.96 6.00 589.15 2698.81
   00:16:28.877.20-May-2020 5121.01 6438.26 67.96 6.00 589.35 2698.81
   00:16:29.077.20-May-2020 5121.01 6436.98 67.96 6.00 589.55 2698.81
   00:16:29.277.20-May-2020 5121.01 6438.25 67.96 6.00 589.75 2698.81
   00:16:29.477.20-May-2020 5121.01 6437.31 67.96 6.00 589.95 2698.81
   00:16:29.677.20-May-2020 5121.01 6437.18 67.96 6.00 590.15 2698.81
   00:16:29.877.20-May-2020 5121.01 6437.18 67.96 6.00 590.35 2698.81
   00:16:30.077.20-May-2020 5121.01 6440.30 67.96 6.00 590.55 2698.81
   00:16:30.277.20-May-2020 5121.01 6438.49 67.96 6.00 590.75 2698.81
   00:16:30.477.20-May-2020 5121.01 6438.68 67.96 6.00 590.95 2698.81
   00:16:30.677.20-May-2020 5121.01 6437.09 67.96 6.00 591.15 2698.81
   00:16:30.877.20-May-2020 5121.01 6437.09 67.96 6.00 591.35 2698.81
   00:16:31.077.20-May-2020 5121.01 6434.57 67.96 6.00 591.55 2698.81
   00:16:31.277.20-May-2020 5121.01 6440.93 67.96 6.00 591.75 2698.81
   00:16:31.477.20-May-2020 5121.01 6439.78 67.96 6.00 591.95 2698.81
   00:16:31.677.20-May-2020 5121.01 6440.79 67.96 6.00 592.15 2698.81
   00:16:31.877.20-May-2020 5121.01 6440.79 67.96 6.00 592.35 2698.81
   00:16:32.077.20-May-2020 5121.01 6438.29 67.96 6.00 592.55 2698.81
   00:16:32.277.20-May-2020 5121.01 6440.80 67.96 6.00 592.75 2698.81
   00:16:32.478.20-May-2020 5121.01 6437.79 67.96 6.00 592.95 2698.81
   00:16:32.678.20-May-2020 5121.01 6445.50 67.96 6.00 593.15 2698.81
   00:16:32.878.20-May-2020 5121.01 6445.50 67.96 6.00 593.35 2698.81
   00:16:33.078.20-May-2020 5121.01 6439.52 67.96 6.00 593.55 2698.81
   00:16:33.278.20-May-2020 5121.01 6439.09 67.96 6.00 593.75 2698.81
   00:16:33.478.20-May-2020 5121.01 6442.59 67.96 6.00 593.95 2698.81
   00:16:33.678.20-May-2020 5121.01 6440.97 67.96 6.00 594.15 2698.81
   00:16:33.878.20-May-2020 5121.01 6440.97 67.95 6.00 594.35 2698.81
   00:16:34.078.20-May-2020 5121.01 6439.41 67.95 6.00 594.55 2698.81
   00:16:34.278.20-May-2020 5121.01 6439.38 67.95 6.00 594.75 2698.81
   00:16:34.478.20-May-2020 5121.01 6440.24 67.95 6.00 594.95 2698.81
   00:16:34.678.20-May-2020 5121.01 6437.93 67.95 6.00 595.15 2698.81
   00:16:34.878.20-May-2020 5121.01 6437.93 67.95 6.00 595.35 2698.81
   00:16:35.078.20-May-2020 5121.01 6438.02 67.95 6.00 595.55 2698.81
   00:16:35.278.20-May-2020 5121.01 6439.35 67.95 6.00 595.75 2698.81
   00:16:35.478.20-May-2020 5121.01 6437.87 67.95 6.00 595.95 2698.81
   00:16:35.678.20-May-2020 5121.01 6437.99 67.95 6.00 596.15 2698.81
   00:16:35.878.20-May-2020 5121.01 6438.56 67.95 6.00 596.35 2698.81
   00:16:36.078.20-May-2020 5121.01 6437.35 67.95 6.00 596.55 2698.81
   00:16:36.278.20-May-2020 5121.01 6438.04 67.95 6.00 596.75 2698.81
   00:16:36.479.20-May-2020 5121.01 6437.50 67.95 6.00 596.95 2698.81
   00:16:36.679.20-May-2020 5121.01 6441.79 67.95 6.00 597.15 2698.81
   00:16:36.879.20-May-2020 5121.01 6437.70 67.95 6.00 597.35 2698.81
   00:16:37.079.20-May-2020 5121.01 6438.19 67.95 6.00 597.55 2698.81
   00:16:37.279.20-May-2020 5121.01 6438.15 67.95 6.00 597.75 2698.81
   00:16:37.479.20-May-2020 5121.01 6443.95 67.95 6.00 597.95 2698.81
