~Version Information
 VERS.                  2.0:   CWLS log ASCII Standard -VERSION 2.0
 WRAP.                   NO:   One line per depth step
~Well Information Block
#MNEM.UNIT     VALUE/NAME     DESCRIPTION
#---------     -----------    ---------------------------
 STRT.S             06:41:15 20-May-20: START TIME 06:41:15 20-May-20
 STOP.S             06:51:49 20-May-20: STOP TIME  06:51:49 20-May-20
 STEP.S                   0.00: STEP TIME
 NULL.                 -999.25: NULL VALUE
 MDS .        Operator Entered:  MAG DATA SOURCE
 PDAT.          Mean Sea Level:  PERMANENT DATUM
 UNIT.                     N/A:  LOGGING EQUIPMENT ID
 DCON.         Sperry Drilling:  DIRECTNL CONTR
 DOE .                     N/A:  DOE NUMBER
 RIG .              East Azeri:  RIG NAME
 JOBN.        AZ-XX-0905856059:  JOB TICKET NUMB
 WELL.                     D36:  WELL NAME
 MWDS.                    Baku:  MWD SHOP
 SRVC.     Turan Drilling & Engineering:  CONTRACTOR
 FLD .                     ACG:  FIELD NAME
 CTRY.              Azerbaijan:  COUNTRY NAME
 PROV.                    Baku:  PROVINCE
 STAT.                    Baku:  STATE NAME
 REGN.                   EESSA:  REGION
 BASE.              Azerbaijan:  LOGGING EQUIPMENT BASE LOCATION
 UWI .                     N/A:  UNIQUE WELL IDENTIFIER
 API .                     N/A:  API NUMBER
 COMP.     BP Exploration (Caspian Sea) Ltd.:  COMPANY
 WTYP.                Deviated:  WELL TYPE
 SON .        AZ-XX-0905856059:  JOB NUMBER
 FTOP.          Formation Tops:  FORM TOPS DESC
 ILTD.               Lithology:  INTERP LTH DESC
 SVYD.                  Survey:  SURVEY DESC
 DMOD.             Drill Model:  DRILL MOD DESC
 HPTY.       Minimum Curvature:  HOLE POS TYPE
 NREF.                    Grid:  NORTH REFERENCE
 SPUD.               25-Feb-20:  SPUD DATE
 DATE.      08.55.28 01-May-20:  END TIME
 STIM.      08.55.28 25-Feb-20:  START TIME
 DMF .             Drill Floor:  DRILL MEAS FROM
 DFST.                        :  DIST FSL TEXT
 DFWT.                        :  DIST FWL TEXT
 CNTY.                        :  COUNTY
 LOC .                        :  LOCATION
 LMF .             Drill Floor:  LOG MEASURED FROM
 VSNS.m                   6.09:  VERT SEC N/S
 VSEW.m                 -10.79:  VERT SEC E/W
 AGAP.m                  43.60:  AIR GAP
 DEP .m                 388.24:  DEPTH
 APD .m                  43.60:  DEPTH ABOVE PD
 WDMS.m                 151.80:  WD ELEV
 EGL .m                   0.00:  GROUND ELEVATION
 EPD .m                   0.00:  ELEVATION
 AZTC.deg                 6.12:  AZM TOTAL CORR
 GRDC.deg                 0.30:  GRID CORRECTION
 MDEC.deg                 6.42:  MAGNETIC DECL
 MDIP.deg                59.42:  MAGNETIC DIP
 MFLD.nT              50256.00:  MAGNETIC FIELD
 GVFD.g                   1.00:  GRAVITY FIELD
 VSDR.deg               159.57:  VERT SEC DIRECT
 TDD .m                5000.01:  TOTAL DEPTH (DRILLER)
 SDEP.m                 397.00:  START DEPTH
 DFSL.m                   0.00:  DISTANCE FSL
 DFWL.m                   0.00:  DISTANCE FWL
 UTMY.m             4431880.20:  UTM Y
 UTMX.m              538763.98:  UTM X
 WHEW.m                 -10.79:  WELL HEAD E/W
 WHNS.m                   6.09:  WELL HEAD N/S
 LONG.deg                51.45:  LONGITUDE
 LATI.deg                40.02:  LATITUDE
 TVDS.m                  43.60:  TVDSS CORRECTN
 EKB .m                  43.60:  KB ELEVATION
 EDF .m                  43.60:  DF ELEVATION
 MAGU.                 1847640:  MAGUTM CHECKSUM
 VSC .                       0:  VS TO CLOSURE
~Parameter Information Block
#MNEM.UNIT       Value        Description
#---------     -----------    ---------------------------
 AV  .mps                 1.30:  Ann Velocity 
 AVMX.mps                 1.90:  Max Ann Veloc 
 AZIF.deg               115.68:  Azm, Final 
 BHAT.                   Other:  BHA Type 
 BROT.°/30m               0.74:  Build Rotating 
 BS  .in                  8.50:  Bit Size 
 BTPL.psig              430.00:  Bit Press Loss 
 CABU.                      No:  Customer Abuse 
 COMM.                     œÿv:  Run Comments 1 
 TCS .hr                 51.31:  Time Ciculation Ended 
 CV  .mps                 2.52:  Crit Velocity 
 CVMX.mps                 2.62:  Max Crit Veloc 
 DD1 .          Teymur Aghayev:  Direct Drillr 1 
 DDSV.                   Other:  DD Service 
 DEFF.%                 100.00:  % Det Eff 
 DLRX.°/30m               1.62:  Dogleg Rot Max 
 DLSO.°/30m               0.74:  Dogleg Oriented 
 DLSX.°/30m               1.62:  Dogleg Str Max 
 DRET.      04.30.56 18-May-20:  Drill End Time 
 DRST.      04.30.56 18-May-20:  Drill Start Tim 
 DTIM.hr                  0.00:  Time Drilling 
 EDEP.m                5337.01:  End Depth 
 ENG1.      Artemiy Matviyanov:  Engineer 1 
 ENG2.      Bakhtiyar Jabbarli:  Engineer 2 
 ENG3.           Emil Huseynov:  Engineer 3 
 ETIM.      18.40.00 22-May-20:  End Time 
 FLOI.gpm               550.00:  Flow In 
 FLON.gpm               350.00:  Flow In Min 
 FLOS.cptm                0.00:  Fluid Loss 
 FLOX.gpm               600.00:  Flow In Max 
 HFLO.                      No:  High Flow 
 HPRE.                      No:  High Pressure 
 HTEM.                      No:  High Temp 
 HYDO.m                   1.80:  Hydro Offset 
 IFIN.deg                67.01:  Inc, Final 
 IMAX.deg                67.49:  Inc Max 
 IMIN.deg                66.50:  Inc Min 
 IMND.m                5144.79:  Inc Min Depth 
 IMXD.m                5116.12:  Inc Max Depth 
 JARR.                      No:  Jarring 
 LETM.      17.55.56 20-May-20:  Log End Time 
 LOST.hr                     0:  Lost Rig Time 
 LSTM.      04.30.56 18-May-20:  Log Start Time 
 MDCL.ppm            193153.00:  Mud Chlorides 
 MDES.     Inversion Oil/Synthetic:  Mud Desc 
 DFD .sg                  1.40:  Mud Density 
 MDMN.sg                  1.40:  Dens Mud Min 
 MDMX.sg                  1.41:  Dens Mud Max 
 MOIL.                      68:  Run Mud Oil % 
 MOWR.                   68:32:  Run Mud OWR 
 MSND.                     0.2:  Run Mud Sand % 
 MSOL.                    18.8:  Run Mud Solids% 
 DFV .spqt               80.00:  Mud Viscosity 
 MWOD.in                  6.75:  MWD Tool OD 
 MWSI.                      No:  Serv Intrp, MWD 
 OTIM.hr                104.84:  Time Operating 
 PMAX.psia            10690.93:  Press Op, Max 
 PV  .cP                 26.00:  Mud PV 
 RUN .                     900:  Run Number 
 ROPA.m/hr                0.00:  ROP Avg 
 ROPN.m/hr                0.00:  ROP Min 
 ROPX.m/hr                0.00:  ROP Max 
 RPMA.rpm               140.00:  RPM Surface Avg 
 RPMN.rpm                70.00:  RPM Surface Min 
 RPMX.rpm               140.00:  RPM Surface Max 
 RRUN.                    0900:  Rig Run Number 
 RTIM.hr                 36.00:  Time Reaming 
 SAZI.deg               115.72:  Azm, Start 
 SDEP.m                5337.01:  Start Depth 
 SIDD.                      No:  Serv Intrp, DD 
 SINC.deg                66.92:  Inc, Start 
 SPPA.psig             4400.00:  SPP Avg 
 SPPN.psig             1135.00:  SPP Min 
 SPPX.psig             4581.00:  SPP Max 
 STIM.      04.30.56 18-May-20:  Start Time 
 SVCS.                     MWD:  Services 
 SVER.                    9.20:  Sperry Version 
 TDAT.m                5337.01:  Tot Depth Attmp 
 TDDF.                      No:  Trip for DD 
 TFF .                      No:  Trip for Fail 
 TQAA.f-kp               23.00:  Torque Abs Avg 
 TQAN.f-kp               18.00:  Torque Abs Min 
 TQAX.f-kp               25.00:  Torque Abs Max 
 TRRT.°/30m               0.74:  Turn Rotating 
 MRT .                    HCIM:  Maximum Recorded Temperature 
 TTMX.degC               76.47:  Max Tool Temp 
 WBMN.klb                 0.00:  WOB Min 
 WITN.             Anar Khalil:  Customer Rep 
 WITN.      Kamran Keberlinski:  Customer Rep 2 
 WOBA.klb                 0.00:  WOB Avg 
 WOBX.klb                 0.00:  WOB Max 
 YP  .lhf2               27.00:  Yield Point 
~Curve Information Block
#MNEM.UNIT                 API CODE     Curve Description
#---------               -----------    ---------------------------
 TIME.HHMMSS            00 000 000 000:  GT Time & Date
 GTDEPTH.m              00 000 000 000:  GT Depth
 GTPQH.psia             00 000 000 000:  GT HR Quartz Pressure
 GTTQ.degC              00 000 000 000:  GT Quartz Temperature
 GTTN.NONE              00 000 000 000:  GT Test Number
 GTET.sec               00 000 000 000:  GT Elapsed Test Time
 GTTVD.m                00 000 000 000:  GT True Vertical Depth
#Other Information
#
#WARRANTY: Halliburton will use its best efforts to furnish customers with 
#accurate information and interpretations that are part of, and incident to, the services 
#provided.  However, Halliburton cannot and does not warrant the accuracy 
#or correctness of such information and interpretations.  Under no circumstances should any 
#such information or interpretation be relied upon as the sole basis for any drilling, 
#completion, production, or financial decision or any procedure involving any risk to the 
#safety of any drilling venture, drilling rig or its crew or any other third party.  The 
#Customer has full responsibility for all drilling, completion and production operation.  
#Halliburton makes no representations or warranties, either expressed or 
#implied, including, but not limited to, the implied warranties of merchantability or fitness 
#for a particular purpose, with respect to the services rendered.  In no event will 
#Halliburton be liable for failure to obtain any particular results or for 
#any damages, including, but not limited to, indirect, special or consequential damages, 
#resulting from the use of any information or interpretation provided by Halliburton.
#
~A           TIME           GTDEPTH  GTPQH  GTTQ  GTTN   GTET   GTTVD  
# ...
   06:44:39.378.20-May-2020 5012.01 2902.75 68.10 10.00 203.46 2656.39
   06:44:39.578.20-May-2020 5012.01 2903.00 68.10 10.00 203.66 2656.39
   06:44:39.778.20-May-2020 5012.01 2903.02 68.10 10.00 203.86 2656.39
   06:44:39.978.20-May-2020 5012.01 2902.78 68.10 10.00 204.06 2656.39
   06:44:40.179.20-May-2020 5012.01 2902.78 68.10 10.00 204.26 2656.39
   06:44:40.379.20-May-2020 5012.01 2903.04 68.10 10.00 204.46 2656.39
   06:44:40.579.20-May-2020 5012.01 2902.69 68.10 10.00 204.66 2656.39
   06:44:40.779.20-May-2020 5012.01 2902.64 68.10 10.00 204.86 2656.39
   06:44:40.979.20-May-2020 5012.01 2902.72 68.10 10.00 205.06 2656.39
   06:44:41.179.20-May-2020 5012.01 2902.72 68.10 10.00 205.26 2656.39
   06:44:41.379.20-May-2020 5012.01 2902.66 68.10 10.00 205.46 2656.39
   06:44:41.579.20-May-2020 5012.01 2902.61 68.10 10.00 205.66 2656.39
   06:44:41.779.20-May-2020 5012.01 2902.81 68.10 10.00 205.86 2656.39
   06:44:41.979.20-May-2020 5012.01 2902.72 68.10 10.00 206.06 2656.39
   06:44:42.179.20-May-2020 5012.01 2902.73 68.10 10.00 206.26 2656.39
   06:44:42.379.20-May-2020 5012.01 2902.71 68.10 10.00 206.46 2656.39
   06:44:42.579.20-May-2020 5012.01 2902.66 68.10 10.00 206.66 2656.39
   06:44:42.779.20-May-2020 5012.01 2902.65 68.10 10.00 206.86 2656.39
   06:44:42.979.20-May-2020 5012.01 2902.74 68.10 10.00 207.06 2656.39
   06:44:43.179.20-May-2020 5012.01 2902.74 68.10 10.00 207.26 2656.39
   06:44:43.379.20-May-2020 5012.01 2902.67 68.10 10.00 207.46 2656.39
   06:44:43.579.20-May-2020 5012.01 2902.74 68.10 10.00 207.66 2656.39
   06:44:43.780.20-May-2020 5012.01 2902.66 68.10 10.00 207.86 2656.39
   06:44:43.980.20-May-2020 5012.01 2902.67 68.10 10.00 208.06 2656.39
   06:44:44.180.20-May-2020 5012.01 2902.67 68.10 10.00 208.26 2656.39
   06:44:44.380.20-May-2020 5012.01 2902.70 68.10 10.00 208.46 2656.39
   06:44:44.580.20-May-2020 5012.01 2902.68 68.10 10.00 208.66 2656.39
   06:44:44.780.20-May-2020 5012.01 2902.67 68.10 10.00 208.86 2656.39
   06:44:44.980.20-May-2020 5012.01 2902.70 68.10 10.00 209.06 2656.39
   06:44:45.180.20-May-2020 5012.01 2902.70 68.10 10.00 209.26 2656.39
   06:44:45.380.20-May-2020 5012.01 2902.69 68.10 10.00 209.46 2656.39
   06:44:45.580.20-May-2020 5012.01 2902.67 68.10 10.00 209.66 2656.39
   06:44:45.780.20-May-2020 5012.01 2902.58 68.10 10.00 209.86 2656.39
   06:44:45.980.20-May-2020 5012.01 2902.86 68.10 10.00 210.06 2656.39
   06:44:46.180.20-May-2020 5012.01 2902.68 68.10 10.00 210.26 2656.39
   06:44:46.380.20-May-2020 5012.01 2902.67 68.10 10.00 210.46 2656.39
   06:44:46.580.20-May-2020 5012.01 2902.78 68.10 10.00 210.66 2656.39
   06:44:46.780.20-May-2020 5012.01 2903.11 68.10 10.00 210.86 2656.39
   06:44:46.980.20-May-2020 5012.01 2902.79 68.10 10.00 211.06 2656.39
   06:44:47.181.20-May-2020 5012.01 2902.79 68.10 10.00 211.26 2656.39
   06:44:47.381.20-May-2020 5012.01 2902.83 68.10 10.00 211.46 2656.39
   06:44:47.581.20-May-2020 5012.01 2902.85 68.10 10.00 211.66 2656.39
   06:44:47.781.20-May-2020 5012.01 2902.74 68.10 10.00 211.86 2656.39
   06:44:47.981.20-May-2020 5012.01 2902.70 68.10 10.00 212.06 2656.39
   06:44:48.181.20-May-2020 5012.01 2902.70 68.10 10.00 212.26 2656.39
   06:44:48.381.20-May-2020 5012.01 2902.63 68.10 10.00 212.46 2656.39
   06:44:48.581.20-May-2020 5012.01 2902.50 68.10 10.00 212.66 2656.39
   06:44:48.781.20-May-2020 5012.01 2902.86 68.10 10.00 212.86 2656.39
   06:44:48.981.20-May-2020 5012.01 2902.68 68.10 10.00 213.06 2656.39
   06:44:49.181.20-May-2020 5012.01 2902.68 68.10 10.00 213.26 2656.39
   06:44:49.381.20-May-2020 5012.01 2902.69 68.10 10.00 213.46 2656.39
   06:44:49.581.20-May-2020 5012.01 2902.60 68.10 10.00 213.66 2656.39
   06:44:49.781.20-May-2020 5012.01 2902.59 68.10 10.00 213.86 2656.39
   06:44:49.981.20-May-2020 5012.01 2902.72 68.10 10.00 214.06 2656.39
   06:44:50.181.20-May-2020 5012.01 2902.67 68.10 10.00 214.26 2656.39
   06:44:50.381.20-May-2020 5012.01 2902.67 68.10 10.00 214.46 2656.39
   06:44:50.581.20-May-2020 5012.01 2902.66 68.10 10.00 214.66 2656.39
   06:44:50.782.20-May-2020 5012.01 2902.61 68.10 10.00 214.86 2656.39
   06:44:50.982.20-May-2020 5012.01 2902.70 68.10 10.00 215.06 2656.39
   06:44:51.182.20-May-2020 5012.01 2902.70 68.10 10.00 215.26 2656.39
   06:44:51.382.20-May-2020 5012.01 2902.67 68.10 10.00 215.46 2656.39
   06:44:51.582.20-May-2020 5012.01 2902.66 68.10 10.00 215.66 2656.39
   06:44:51.782.20-May-2020 5012.01 2902.67 68.10 10.00 215.86 2656.39
   06:44:51.982.20-May-2020 5012.01 2902.69 68.10 10.00 216.06 2656.39
   06:44:52.182.20-May-2020 5012.01 2902.69 68.10 10.00 216.26 2656.39
   06:44:52.382.20-May-2020 5012.01 2902.67 68.10 10.00 216.46 2656.39
   06:44:52.582.20-May-2020 5012.01 2902.66 68.10 10.00 216.66 2656.39
   06:44:52.782.20-May-2020 5012.01 2902.65 68.10 10.00 216.86 2656.39
   06:44:52.982.20-May-2020 5012.01 2902.74 68.10 10.00 217.06 2656.39
   06:44:53.182.20-May-2020 5012.01 2902.74 68.10 10.00 217.26 2656.39
   06:44:53.382.20-May-2020 5012.01 2902.67 68.10 10.00 217.46 2656.39
   06:44:53.582.20-May-2020 5012.01 2902.51 68.10 10.00 217.66 2656.39
   06:44:53.782.20-May-2020 5012.01 2903.25 68.10 10.00 217.86 2656.39
   06:44:53.982.20-May-2020 5012.01 2902.81 68.10 10.00 218.06 2656.39
   06:44:54.182.20-May-2020 5012.01 2902.68 68.10 10.00 218.26 2656.39
   06:44:54.383.20-May-2020 5012.01 2902.79 68.10 10.00 218.46 2656.39
   06:44:54.583.20-May-2020 5012.01 2902.94 68.10 10.00 218.66 2656.39
   06:44:54.783.20-May-2020 5012.01 2902.73 68.10 10.00 218.86 2656.39
   06:44:54.983.20-May-2020 5012.01 2902.72 68.10 10.00 219.06 2656.39
   06:44:55.183.20-May-2020 5012.01 2902.72 68.10 10.00 219.26 2656.39
   06:44:55.383.20-May-2020 5012.01 2902.61 68.10 10.00 219.46 2656.39
   06:44:55.583.20-May-2020 5012.01 2902.08 68.10 10.00 219.66 2656.39
   06:44:55.783.20-May-2020 5012.01 2889.30 68.10 10.00 219.86 2656.39
   06:44:55.983.20-May-2020 5012.01 2882.76 68.10 10.00 220.06 2656.39
   06:44:56.183.20-May-2020 5012.01 2882.76 68.10 10.00 220.26 2656.39
   06:44:56.383.20-May-2020 5012.01 2881.17 68.10 10.00 220.46 2656.39
   06:44:56.583.20-May-2020 5012.01 2877.91 68.10 10.00 220.66 2656.39
   06:44:56.783.20-May-2020 5012.01 2876.66 68.10 10.00 220.86 2656.39
   06:44:56.983.20-May-2020 5012.01 2876.04 68.10 10.00 221.06 2656.39
   06:44:57.183.20-May-2020 5012.01 2876.04 68.10 10.00 221.26 2656.39
   06:44:57.383.20-May-2020 5012.01 2874.62 68.10 10.00 221.46 2656.39
   06:44:57.583.20-May-2020 5012.01 2873.48 68.10 10.00 221.66 2656.39
   06:44:57.784.20-May-2020 5012.01 2873.18 68.10 10.00 221.86 2656.39
   06:44:57.984.20-May-2020 5012.01 2873.10 68.10 10.00 222.06 2656.39
   06:44:58.184.20-May-2020 5012.01 2873.10 68.10 10.00 222.26 2656.39
   06:44:58.384.20-May-2020 5012.01 2871.95 68.10 10.00 222.46 2656.39
   06:44:58.584.20-May-2020 5012.01 2872.71 68.10 10.00 222.66 2656.39
   06:44:58.784.20-May-2020 5012.01 2873.74 68.10 10.00 222.86 2656.39
   06:44:58.984.20-May-2020 5012.01 2874.39 68.10 10.00 223.06 2656.39
   06:44:59.184.20-May-2020 5012.01 2874.39 68.10 10.00 223.26 2656.39
   06:44:59.384.20-May-2020 5012.01 2873.96 68.10 10.00 223.46 2656.39
   06:44:59.584.20-May-2020 5012.01 2875.67 68.10 10.00 223.66 2656.39
   06:44:59.784.20-May-2020 5012.01 2878.36 68.10 10.00 223.86 2656.39
   06:44:59.984.20-May-2020 5012.01 2878.83 68.10 10.00 224.06 2656.39
   06:45:00.184.20-May-2020 5012.01 2878.83 68.10 10.00 224.26 2656.39
   06:45:00.384.20-May-2020 5012.01 2878.57 68.10 10.00 224.46 2656.39
   06:45:00.584.20-May-2020 5012.01 2878.36 68.10 10.00 224.66 2656.39
   06:45:00.784.20-May-2020 5012.01 2878.67 68.10 10.00 224.86 2656.39
   06:45:00.984.20-May-2020 5012.01 2880.25 68.10 10.00 225.06 2656.39
   06:45:01.184.20-May-2020 5012.01 2880.25 68.10 10.00 225.26 2656.39
   06:45:01.385.20-May-2020 5012.01 2879.92 68.10 10.00 225.46 2656.39
   06:45:01.585.20-May-2020 5012.01 2879.88 68.10 10.00 225.66 2656.39
   06:45:01.785.20-May-2020 5012.01 2880.86 68.10 10.00 225.86 2656.39
