~Version Information
 VERS.                  2.0:   CWLS log ASCII Standard -VERSION 2.0
 WRAP.                   NO:   One line per depth step
~Well Information Block
#MNEM.UNIT     VALUE/NAME     DESCRIPTION
#---------     -----------    ---------------------------
 STRT.S             06:41:15 20-May-20: START TIME 06:41:15 20-May-20
 STOP.S             06:51:49 20-May-20: STOP TIME  06:51:49 20-May-20
 STEP.S                   0.00: STEP TIME
 NULL.                 -999.25: NULL VALUE
 MDS .        Operator Entered:  MAG DATA SOURCE
 PDAT.          Mean Sea Level:  PERMANENT DATUM
 UNIT.                     N/A:  LOGGING EQUIPMENT ID
 DCON.         Sperry Drilling:  DIRECTNL CONTR
 DOE .                     N/A:  DOE NUMBER
 RIG .              East Azeri:  RIG NAME
 JOBN.        AZ-XX-0905856059:  JOB TICKET NUMB
 WELL.                     D36:  WELL NAME
 MWDS.                    Baku:  MWD SHOP
 SRVC.     Turan Drilling & Engineering:  CONTRACTOR
 FLD .                     ACG:  FIELD NAME
 CTRY.              Azerbaijan:  COUNTRY NAME
 PROV.                    Baku:  PROVINCE
 STAT.                    Baku:  STATE NAME
 REGN.                   EESSA:  REGION
 BASE.              Azerbaijan:  LOGGING EQUIPMENT BASE LOCATION
 UWI .                     N/A:  UNIQUE WELL IDENTIFIER
 API .                     N/A:  API NUMBER
 COMP.     BP Exploration (Caspian Sea) Ltd.:  COMPANY
 WTYP.                Deviated:  WELL TYPE
 SON .        AZ-XX-0905856059:  JOB NUMBER
 FTOP.          Formation Tops:  FORM TOPS DESC
 ILTD.               Lithology:  INTERP LTH DESC
 SVYD.                  Survey:  SURVEY DESC
 DMOD.             Drill Model:  DRILL MOD DESC
 HPTY.       Minimum Curvature:  HOLE POS TYPE
 NREF.                    Grid:  NORTH REFERENCE
 SPUD.               25-Feb-20:  SPUD DATE
 DATE.      08.55.28 01-May-20:  END TIME
 STIM.      08.55.28 25-Feb-20:  START TIME
 DMF .             Drill Floor:  DRILL MEAS FROM
 DFST.                        :  DIST FSL TEXT
 DFWT.                        :  DIST FWL TEXT
 CNTY.                        :  COUNTY
 LOC .                        :  LOCATION
 LMF .             Drill Floor:  LOG MEASURED FROM
 VSNS.m                   6.09:  VERT SEC N/S
 VSEW.m                 -10.79:  VERT SEC E/W
 AGAP.m                  43.60:  AIR GAP
 DEP .m                 388.24:  DEPTH
 APD .m                  43.60:  DEPTH ABOVE PD
 WDMS.m                 151.80:  WD ELEV
 EGL .m                   0.00:  GROUND ELEVATION
 EPD .m                   0.00:  ELEVATION
 AZTC.deg                 6.12:  AZM TOTAL CORR
 GRDC.deg                 0.30:  GRID CORRECTION
 MDEC.deg                 6.42:  MAGNETIC DECL
 MDIP.deg                59.42:  MAGNETIC DIP
 MFLD.nT              50256.00:  MAGNETIC FIELD
 GVFD.g                   1.00:  GRAVITY FIELD
 VSDR.deg               159.57:  VERT SEC DIRECT
 TDD .m                5000.01:  TOTAL DEPTH (DRILLER)
 SDEP.m                 397.00:  START DEPTH
 DFSL.m                   0.00:  DISTANCE FSL
 DFWL.m                   0.00:  DISTANCE FWL
 UTMY.m             4431880.20:  UTM Y
 UTMX.m              538763.98:  UTM X
 WHEW.m                 -10.79:  WELL HEAD E/W
 WHNS.m                   6.09:  WELL HEAD N/S
 LONG.deg                51.45:  LONGITUDE
 LATI.deg                40.02:  LATITUDE
 TVDS.m                  43.60:  TVDSS CORRECTN
 EKB .m                  43.60:  KB ELEVATION
 EDF .m                  43.60:  DF ELEVATION
 MAGU.                 1847640:  MAGUTM CHECKSUM
 VSC .                       0:  VS TO CLOSURE
~Parameter Information Block
#MNEM.UNIT       Value        Description
#---------     -----------    ---------------------------
 AV  .mps                 1.30:  Ann Velocity 
 AVMX.mps                 1.90:  Max Ann Veloc 
 AZIF.deg               115.68:  Azm, Final 
 BHAT.                   Other:  BHA Type 
 BROT.°/30m               0.74:  Build Rotating 
 BS  .in                  8.50:  Bit Size 
 BTPL.psig              430.00:  Bit Press Loss 
 CABU.                      No:  Customer Abuse 
 COMM.                     œÿv:  Run Comments 1 
 TCS .hr                 51.31:  Time Ciculation Ended 
 CV  .mps                 2.52:  Crit Velocity 
 CVMX.mps                 2.62:  Max Crit Veloc 
 DD1 .          Teymur Aghayev:  Direct Drillr 1 
 DDSV.                   Other:  DD Service 
 DEFF.%                 100.00:  % Det Eff 
 DLRX.°/30m               1.62:  Dogleg Rot Max 
 DLSO.°/30m               0.74:  Dogleg Oriented 
 DLSX.°/30m               1.62:  Dogleg Str Max 
 DRET.      04.30.56 18-May-20:  Drill End Time 
 DRST.      04.30.56 18-May-20:  Drill Start Tim 
 DTIM.hr                  0.00:  Time Drilling 
 EDEP.m                5337.01:  End Depth 
 ENG1.      Artemiy Matviyanov:  Engineer 1 
 ENG2.      Bakhtiyar Jabbarli:  Engineer 2 
 ENG3.           Emil Huseynov:  Engineer 3 
 ETIM.      18.40.00 22-May-20:  End Time 
 FLOI.gpm               550.00:  Flow In 
 FLON.gpm               350.00:  Flow In Min 
 FLOS.cptm                0.00:  Fluid Loss 
 FLOX.gpm               600.00:  Flow In Max 
 HFLO.                      No:  High Flow 
 HPRE.                      No:  High Pressure 
 HTEM.                      No:  High Temp 
 HYDO.m                   1.80:  Hydro Offset 
 IFIN.deg                67.01:  Inc, Final 
 IMAX.deg                67.49:  Inc Max 
 IMIN.deg                66.50:  Inc Min 
 IMND.m                5144.79:  Inc Min Depth 
 IMXD.m                5116.12:  Inc Max Depth 
 JARR.                      No:  Jarring 
 LETM.      17.55.56 20-May-20:  Log End Time 
 LOST.hr                     0:  Lost Rig Time 
 LSTM.      04.30.56 18-May-20:  Log Start Time 
 MDCL.ppm            193153.00:  Mud Chlorides 
 MDES.     Inversion Oil/Synthetic:  Mud Desc 
 DFD .sg                  1.40:  Mud Density 
 MDMN.sg                  1.40:  Dens Mud Min 
 MDMX.sg                  1.41:  Dens Mud Max 
 MOIL.                      68:  Run Mud Oil % 
 MOWR.                   68:32:  Run Mud OWR 
 MSND.                     0.2:  Run Mud Sand % 
 MSOL.                    18.8:  Run Mud Solids% 
 DFV .spqt               80.00:  Mud Viscosity 
 MWOD.in                  6.75:  MWD Tool OD 
 MWSI.                      No:  Serv Intrp, MWD 
 OTIM.hr                104.84:  Time Operating 
 PMAX.psia            10690.93:  Press Op, Max 
 PV  .cP                 26.00:  Mud PV 
 RUN .                     900:  Run Number 
 ROPA.m/hr                0.00:  ROP Avg 
 ROPN.m/hr                0.00:  ROP Min 
 ROPX.m/hr                0.00:  ROP Max 
 RPMA.rpm               140.00:  RPM Surface Avg 
 RPMN.rpm                70.00:  RPM Surface Min 
 RPMX.rpm               140.00:  RPM Surface Max 
 RRUN.                    0900:  Rig Run Number 
 RTIM.hr                 36.00:  Time Reaming 
 SAZI.deg               115.72:  Azm, Start 
 SDEP.m                5337.01:  Start Depth 
 SIDD.                      No:  Serv Intrp, DD 
 SINC.deg                66.92:  Inc, Start 
 SPPA.psig             4400.00:  SPP Avg 
 SPPN.psig             1135.00:  SPP Min 
 SPPX.psig             4581.00:  SPP Max 
 STIM.      04.30.56 18-May-20:  Start Time 
 SVCS.                     MWD:  Services 
 SVER.                    9.20:  Sperry Version 
 TDAT.m                5337.01:  Tot Depth Attmp 
 TDDF.                      No:  Trip for DD 
 TFF .                      No:  Trip for Fail 
 TQAA.f-kp               23.00:  Torque Abs Avg 
 TQAN.f-kp               18.00:  Torque Abs Min 
 TQAX.f-kp               25.00:  Torque Abs Max 
 TRRT.°/30m               0.74:  Turn Rotating 
 MRT .                    HCIM:  Maximum Recorded Temperature 
 TTMX.degC               76.47:  Max Tool Temp 
 WBMN.klb                 0.00:  WOB Min 
 WITN.             Anar Khalil:  Customer Rep 
 WITN.      Kamran Keberlinski:  Customer Rep 2 
 WOBA.klb                 0.00:  WOB Avg 
 WOBX.klb                 0.00:  WOB Max 
 YP  .lhf2               27.00:  Yield Point 
~Curve Information Block
#MNEM.UNIT                 API CODE     Curve Description
#---------               -----------    ---------------------------
 TIME.HHMMSS            00 000 000 000:  GT Time & Date
 GTDEPTH.m              00 000 000 000:  GT Depth
 GTPQH.psia             00 000 000 000:  GT HR Quartz Pressure
 GTTQ.degC              00 000 000 000:  GT Quartz Temperature
 GTTN.NONE              00 000 000 000:  GT Test Number
 GTET.sec               00 000 000 000:  GT Elapsed Test Time
 GTTVD.m                00 000 000 000:  GT True Vertical Depth
#Other Information
#
#WARRANTY: Halliburton will use its best efforts to furnish customers with 
#accurate information and interpretations that are part of, and incident to, the services 
#provided.  However, Halliburton cannot and does not warrant the accuracy 
#or correctness of such information and interpretations.  Under no circumstances should any 
#such information or interpretation be relied upon as the sole basis for any drilling, 
#completion, production, or financial decision or any procedure involving any risk to the 
#safety of any drilling venture, drilling rig or its crew or any other third party.  The 
#Customer has full responsibility for all drilling, completion and production operation.  
#Halliburton makes no representations or warranties, either expressed or 
#implied, including, but not limited to, the implied warranties of merchantability or fitness 
#for a particular purpose, with respect to the services rendered.  In no event will 
#Halliburton be liable for failure to obtain any particular results or for 
#any damages, including, but not limited to, indirect, special or consequential damages, 
#resulting from the use of any information or interpretation provided by Halliburton.
#
~A           TIME           GTDEPTH  GTPQH  GTTQ  GTTN   GTET   GTTVD  
# ...
   06:47:17.623.20-May-2020 5012.01 2902.35 68.09 10.00 361.70 2656.39
   06:47:17.823.20-May-2020 5012.01 2902.42 68.08 10.00 361.90 2656.39
   06:47:18.023.20-May-2020 5012.01 2902.45 68.09 10.00 362.10 2656.39
   06:47:18.223.20-May-2020 5012.01 2902.45 68.09 10.00 362.30 2656.39
   06:47:18.423.20-May-2020 5012.01 2902.32 68.09 10.00 362.50 2656.39
   06:47:18.623.20-May-2020 5012.01 2902.45 68.09 10.00 362.70 2656.39
   06:47:18.823.20-May-2020 5012.01 2902.41 68.08 10.00 362.90 2656.39
   06:47:19.023.20-May-2020 5012.01 2902.51 68.09 10.00 363.10 2656.39
   06:47:19.224.20-May-2020 5012.01 2902.51 68.09 10.00 363.30 2656.39
   06:47:19.424.20-May-2020 5012.01 2902.29 68.08 10.00 363.50 2656.39
   06:47:19.624.20-May-2020 5012.01 2902.55 68.09 10.00 363.70 2656.39
   06:47:19.824.20-May-2020 5012.01 2902.44 68.08 10.00 363.90 2656.39
   06:47:20.024.20-May-2020 5012.01 2902.40 68.08 10.00 364.10 2656.39
   06:47:20.224.20-May-2020 5012.01 2902.40 68.08 10.00 364.30 2656.39
   06:47:20.424.20-May-2020 5012.01 2902.37 68.08 10.00 364.50 2656.39
   06:47:20.624.20-May-2020 5012.01 2902.42 68.08 10.00 364.70 2656.39
   06:47:20.824.20-May-2020 5012.01 2902.42 68.08 10.00 364.90 2656.39
   06:47:21.024.20-May-2020 5012.01 2902.42 68.08 10.00 365.10 2656.39
   06:47:21.224.20-May-2020 5012.01 2902.42 68.08 10.00 365.30 2656.39
   06:47:21.424.20-May-2020 5012.01 2902.43 68.08 10.00 365.50 2656.39
   06:47:21.624.20-May-2020 5012.01 2902.38 68.08 10.00 365.70 2656.39
   06:47:21.824.20-May-2020 5012.01 2902.42 68.08 10.00 365.90 2656.39
   06:47:22.024.20-May-2020 5012.01 2902.41 68.08 10.00 366.10 2656.39
   06:47:22.224.20-May-2020 5012.01 2902.42 68.08 10.00 366.30 2656.39
   06:47:22.424.20-May-2020 5012.01 2902.41 68.08 10.00 366.50 2656.39
   06:47:22.624.20-May-2020 5012.01 2902.40 68.08 10.00 366.70 2656.39
   06:47:22.825.20-May-2020 5012.01 2902.42 68.08 10.00 366.90 2656.39
   06:47:23.025.20-May-2020 5012.01 2902.40 68.08 10.00 367.10 2656.39
   06:47:23.225.20-May-2020 5012.01 2902.40 68.08 10.00 367.30 2656.39
   06:47:23.425.20-May-2020 5012.01 2902.40 68.08 10.00 367.50 2656.39
   06:47:23.625.20-May-2020 5012.01 2902.40 68.08 10.00 367.70 2656.39
   06:47:23.825.20-May-2020 5012.01 2902.44 68.08 10.00 367.90 2656.39
   06:47:24.025.20-May-2020 5012.01 2902.42 68.08 10.00 368.10 2656.39
   06:47:24.225.20-May-2020 5012.01 2902.42 68.08 10.00 368.30 2656.39
   06:47:24.425.20-May-2020 5012.01 2902.33 68.08 10.00 368.50 2656.39
   06:47:24.625.20-May-2020 5012.01 2902.52 68.08 10.00 368.70 2656.39
   06:47:24.825.20-May-2020 5012.01 2902.44 68.08 10.00 368.90 2656.39
   06:47:25.025.20-May-2020 5012.01 2902.41 68.08 10.00 369.10 2656.39
   06:47:25.225.20-May-2020 5012.01 2902.41 68.08 10.00 369.30 2656.39
   06:47:25.425.20-May-2020 5012.01 2902.36 68.08 10.00 369.50 2656.39
   06:47:25.625.20-May-2020 5012.01 2902.42 68.08 10.00 369.70 2656.39
   06:47:25.825.20-May-2020 5012.01 2902.43 68.08 10.00 369.90 2656.39
   06:47:26.025.20-May-2020 5012.01 2902.45 68.08 10.00 370.10 2656.39
   06:47:26.225.20-May-2020 5012.01 2902.38 68.08 10.00 370.30 2656.39
   06:47:26.426.20-May-2020 5012.01 2902.41 68.08 10.00 370.50 2656.39
   06:47:26.626.20-May-2020 5012.01 2902.42 68.08 10.00 370.70 2656.39
   06:47:26.826.20-May-2020 5012.01 2902.46 68.08 10.00 370.90 2656.39
   06:47:27.026.20-May-2020 5012.01 2902.38 68.08 10.00 371.10 2656.39
   06:47:27.226.20-May-2020 5012.01 2902.38 68.08 10.00 371.31 2656.39
   06:47:27.426.20-May-2020 5012.01 2902.44 68.08 10.00 371.51 2656.39
   06:47:27.626.20-May-2020 5012.01 2902.32 68.08 10.00 371.71 2656.39
   06:47:27.826.20-May-2020 5012.01 2902.50 68.08 10.00 371.91 2656.39
   06:47:28.026.20-May-2020 5012.01 2902.44 68.08 10.00 372.11 2656.39
   06:47:28.226.20-May-2020 5012.01 2902.44 68.08 10.00 372.31 2656.39
   06:47:28.426.20-May-2020 5012.01 2902.48 68.08 10.00 372.51 2656.39
   06:47:28.626.20-May-2020 5012.01 2902.35 68.08 10.00 372.71 2656.39
   06:47:28.826.20-May-2020 5012.01 2902.42 68.08 10.00 372.91 2656.39
   06:47:29.026.20-May-2020 5012.01 2902.41 68.08 10.00 373.11 2656.39
   06:47:29.226.20-May-2020 5012.01 2902.41 68.08 10.00 373.31 2656.39
   06:47:29.426.20-May-2020 5012.01 2902.40 68.08 10.00 373.51 2656.39
   06:47:29.626.20-May-2020 5012.01 2902.39 68.08 10.00 373.71 2656.39
   06:47:29.827.20-May-2020 5012.01 2902.41 68.08 10.00 373.91 2656.39
   06:47:30.027.20-May-2020 5012.01 2902.42 68.08 10.00 374.11 2656.39
   06:47:30.227.20-May-2020 5012.01 2902.40 68.08 10.00 374.31 2656.39
   06:47:30.427.20-May-2020 5012.01 2902.41 68.08 10.00 374.51 2656.39
   06:47:30.627.20-May-2020 5012.01 2902.39 68.08 10.00 374.71 2656.39
   06:47:30.827.20-May-2020 5012.01 2902.53 68.08 10.00 374.91 2656.39
   06:47:31.027.20-May-2020 5012.01 2902.33 68.08 10.00 375.11 2656.39
   06:47:31.227.20-May-2020 5012.01 2902.33 68.08 10.00 375.31 2656.39
   06:47:31.427.20-May-2020 5012.01 2902.39 68.08 10.00 375.51 2656.39
   06:47:31.627.20-May-2020 5012.01 2902.46 68.08 10.00 375.71 2656.39
   06:47:31.827.20-May-2020 5012.01 2902.44 68.08 10.00 375.91 2656.39
   06:47:32.027.20-May-2020 5012.01 2902.39 68.08 10.00 376.11 2656.39
   06:47:32.227.20-May-2020 5012.01 2902.39 68.08 10.00 376.31 2656.39
   06:47:32.427.20-May-2020 5012.01 2902.54 68.08 10.00 376.51 2656.39
   06:47:32.627.20-May-2020 5012.01 2902.41 68.08 10.00 376.71 2656.39
   06:47:32.827.20-May-2020 5012.01 2902.39 68.08 10.00 376.91 2656.39
   06:47:33.027.20-May-2020 5012.01 2902.49 68.08 10.00 377.11 2656.39
   06:47:33.227.20-May-2020 5012.01 2902.49 68.08 10.00 377.31 2656.39
   06:47:33.428.20-May-2020 5012.01 2902.41 68.08 10.00 377.51 2656.39
   06:47:33.628.20-May-2020 5012.01 2902.50 68.08 10.00 377.71 2656.39
   06:47:33.828.20-May-2020 5012.01 2902.34 68.08 10.00 377.91 2656.39
   06:47:34.028.20-May-2020 5012.01 2902.39 68.08 10.00 378.11 2656.39
   06:47:34.228.20-May-2020 5012.01 2902.38 68.08 10.00 378.31 2656.39
   06:47:34.428.20-May-2020 5012.01 2902.48 68.08 10.00 378.51 2656.39
   06:47:34.628.20-May-2020 5012.01 2902.40 68.08 10.00 378.71 2656.39
   06:47:34.828.20-May-2020 5012.01 2902.42 68.08 10.00 378.91 2656.39
   06:47:35.028.20-May-2020 5012.01 2902.46 68.08 10.00 379.11 2656.39
   06:47:35.228.20-May-2020 5012.01 2902.46 68.08 10.00 379.31 2656.39
   06:47:35.428.20-May-2020 5012.01 2902.39 68.08 10.00 379.51 2656.39
   06:47:35.628.20-May-2020 5012.01 2902.41 68.08 10.00 379.71 2656.39
   06:47:35.828.20-May-2020 5012.01 2902.42 68.08 10.00 379.91 2656.39
   06:47:36.028.20-May-2020 5012.01 2902.39 68.08 10.00 380.11 2656.39
   06:47:36.228.20-May-2020 5012.01 2902.41 68.08 10.00 380.31 2656.39
   06:47:36.428.20-May-2020 5012.01 2902.41 68.08 10.00 380.51 2656.39
   06:47:36.628.20-May-2020 5012.01 2902.41 68.08 10.00 380.71 2656.39
   06:47:36.828.20-May-2020 5012.01 2902.39 68.08 10.00 380.91 2656.39
   06:47:37.029.20-May-2020 5012.01 2902.42 68.08 10.00 381.11 2656.39
   06:47:37.229.20-May-2020 5012.01 2902.40 68.08 10.00 381.31 2656.39
   06:47:37.429.20-May-2020 5012.01 2902.41 68.08 10.00 381.51 2656.39
   06:47:37.629.20-May-2020 5012.01 2902.39 68.08 10.00 381.71 2656.39
   06:47:37.829.20-May-2020 5012.01 2902.43 68.08 10.00 381.91 2656.39
   06:47:38.029.20-May-2020 5012.01 2902.37 68.08 10.00 382.11 2656.39
   06:47:38.229.20-May-2020 5012.01 2902.37 68.08 10.00 382.31 2656.39
   06:47:38.429.20-May-2020 5012.01 2902.40 68.08 10.00 382.51 2656.39
   06:47:38.629.20-May-2020 5012.01 2902.55 68.08 10.00 382.71 2656.39
   06:47:38.829.20-May-2020 5012.01 2902.31 68.08 10.00 382.91 2656.39
   06:47:39.029.20-May-2020 5012.01 2902.36 68.08 10.00 383.11 2656.39
   06:47:39.229.20-May-2020 5012.01 2902.36 68.08 10.00 383.31 2656.39
   06:47:39.429.20-May-2020 5012.01 2902.49 68.08 10.00 383.51 2656.39
   06:47:39.629.20-May-2020 5012.01 2902.41 68.08 10.00 383.71 2656.39
   06:47:39.829.20-May-2020 5012.01 2902.36 68.08 10.00 383.91 2656.39
   06:47:40.029.20-May-2020 5012.01 2902.42 68.08 10.00 384.11 2656.39
