~Version Information
 VERS.                  2.0:   CWLS log ASCII Standard -VERSION 2.0
 WRAP.                   NO:   One line per depth step
~Well Information Block
#MNEM.UNIT     VALUE/NAME     DESCRIPTION
#---------     -----------    ---------------------------
 STRT.S             23:11:25 19-May-20: START TIME 23:11:25 19-May-20
 STOP.S             23:19:39 19-May-20: STOP TIME  23:19:39 19-May-20
 STEP.S                   0.00: STEP TIME
 NULL.                 -999.25: NULL VALUE
 MDS .        Operator Entered:  MAG DATA SOURCE
 PDAT.          Mean Sea Level:  PERMANENT DATUM
 UNIT.                     N/A:  LOGGING EQUIPMENT ID
 DCON.         Sperry Drilling:  DIRECTNL CONTR
 DOE .                     N/A:  DOE NUMBER
 RIG .              East Azeri:  RIG NAME
 JOBN.        AZ-XX-0905856059:  JOB TICKET NUMB
 WELL.                     D36:  WELL NAME
 MWDS.                    Baku:  MWD SHOP
 SRVC.     Turan Drilling & Engineering:  CONTRACTOR
 FLD .                     ACG:  FIELD NAME
 CTRY.              Azerbaijan:  COUNTRY NAME
 PROV.                    Baku:  PROVINCE
 STAT.                    Baku:  STATE NAME
 REGN.                   EESSA:  REGION
 BASE.              Azerbaijan:  LOGGING EQUIPMENT BASE LOCATION
 UWI .                     N/A:  UNIQUE WELL IDENTIFIER
 API .                     N/A:  API NUMBER
 COMP.     BP Exploration (Caspian Sea) Ltd.:  COMPANY
 WTYP.                Deviated:  WELL TYPE
 SON .        AZ-XX-0905856059:  JOB NUMBER
 FTOP.          Formation Tops:  FORM TOPS DESC
 ILTD.               Lithology:  INTERP LTH DESC
 SVYD.                  Survey:  SURVEY DESC
 DMOD.             Drill Model:  DRILL MOD DESC
 HPTY.       Minimum Curvature:  HOLE POS TYPE
 NREF.                    Grid:  NORTH REFERENCE
 SPUD.               25-Feb-20:  SPUD DATE
 DATE.      08.55.28 01-May-20:  END TIME
 STIM.      08.55.28 25-Feb-20:  START TIME
 DMF .             Drill Floor:  DRILL MEAS FROM
 DFST.                        :  DIST FSL TEXT
 DFWT.                        :  DIST FWL TEXT
 CNTY.                        :  COUNTY
 LOC .                        :  LOCATION
 LMF .             Drill Floor:  LOG MEASURED FROM
 VSNS.m                   6.09:  VERT SEC N/S
 VSEW.m                 -10.79:  VERT SEC E/W
 AGAP.m                  43.60:  AIR GAP
 DEP .m                 388.24:  DEPTH
 APD .m                  43.60:  DEPTH ABOVE PD
 WDMS.m                 151.80:  WD ELEV
 EGL .m                   0.00:  GROUND ELEVATION
 EPD .m                   0.00:  ELEVATION
 AZTC.deg                 6.12:  AZM TOTAL CORR
 GRDC.deg                 0.30:  GRID CORRECTION
 MDEC.deg                 6.42:  MAGNETIC DECL
 MDIP.deg                59.42:  MAGNETIC DIP
 MFLD.nT              50256.00:  MAGNETIC FIELD
 GVFD.g                   1.00:  GRAVITY FIELD
 VSDR.deg               159.57:  VERT SEC DIRECT
 TDD .m                5000.01:  TOTAL DEPTH (DRILLER)
 SDEP.m                 397.00:  START DEPTH
 DFSL.m                   0.00:  DISTANCE FSL
 DFWL.m                   0.00:  DISTANCE FWL
 UTMY.m             4431880.20:  UTM Y
 UTMX.m              538763.98:  UTM X
 WHEW.m                 -10.79:  WELL HEAD E/W
 WHNS.m                   6.09:  WELL HEAD N/S
 LONG.deg                51.45:  LONGITUDE
 LATI.deg                40.02:  LATITUDE
 TVDS.m                  43.60:  TVDSS CORRECTN
 EKB .m                  43.60:  KB ELEVATION
 EDF .m                  43.60:  DF ELEVATION
 MAGU.                 1847640:  MAGUTM CHECKSUM
 VSC .                       0:  VS TO CLOSURE
~Parameter Information Block
#MNEM.UNIT       Value        Description
#---------     -----------    ---------------------------
 AV  .mps                 1.30:  Ann Velocity 
 AVMX.mps                 1.90:  Max Ann Veloc 
 AZIF.deg               115.68:  Azm, Final 
 BHAT.                   Other:  BHA Type 
 BROT.°/30m               0.74:  Build Rotating 
 BS  .in                  8.50:  Bit Size 
 BTPL.psig              430.00:  Bit Press Loss 
 CABU.                      No:  Customer Abuse 
 COMM.                     Tr}:  Run Comments 1 
 TCS .hr                 51.31:  Time Ciculation Ended 
 CV  .mps                 2.52:  Crit Velocity 
 CVMX.mps                 2.62:  Max Crit Veloc 
 DD1 .          Teymur Aghayev:  Direct Drillr 1 
 DDSV.                   Other:  DD Service 
 DEFF.%                 100.00:  % Det Eff 
 DLRX.°/30m               1.62:  Dogleg Rot Max 
 DLSO.°/30m               0.74:  Dogleg Oriented 
 DLSX.°/30m               1.62:  Dogleg Str Max 
 DRET.      04.30.56 18-May-20:  Drill End Time 
 DRST.      04.30.56 18-May-20:  Drill Start Tim 
 DTIM.hr                  0.00:  Time Drilling 
 EDEP.m                5337.01:  End Depth 
 ENG1.      Artemiy Matviyanov:  Engineer 1 
 ENG2.      Bakhtiyar Jabbarli:  Engineer 2 
 ENG3.           Emil Huseynov:  Engineer 3 
 ETIM.      18.40.00 22-May-20:  End Time 
 FLOI.gpm               550.00:  Flow In 
 FLON.gpm               350.00:  Flow In Min 
 FLOS.cptm                0.00:  Fluid Loss 
 FLOX.gpm               600.00:  Flow In Max 
 HFLO.                      No:  High Flow 
 HPRE.                      No:  High Pressure 
 HTEM.                      No:  High Temp 
 HYDO.m                   1.80:  Hydro Offset 
 IFIN.deg                67.01:  Inc, Final 
 IMAX.deg                67.49:  Inc Max 
 IMIN.deg                66.50:  Inc Min 
 IMND.m                5144.79:  Inc Min Depth 
 IMXD.m                5116.12:  Inc Max Depth 
 JARR.                      No:  Jarring 
 LETM.      17.55.56 20-May-20:  Log End Time 
 LOST.hr                     0:  Lost Rig Time 
 LSTM.      04.30.56 18-May-20:  Log Start Time 
 MDCL.ppm            193153.00:  Mud Chlorides 
 MDES.     Inversion Oil/Synthetic:  Mud Desc 
 DFD .sg                  1.40:  Mud Density 
 MDMN.sg                  1.40:  Dens Mud Min 
 MDMX.sg                  1.41:  Dens Mud Max 
 MOIL.                      68:  Run Mud Oil % 
 MOWR.                   68:32:  Run Mud OWR 
 MSND.                     0.2:  Run Mud Sand % 
 MSOL.                    18.8:  Run Mud Solids% 
 DFV .spqt               80.00:  Mud Viscosity 
 MWOD.in                  6.75:  MWD Tool OD 
 MWSI.                      No:  Serv Intrp, MWD 
 OTIM.hr                104.84:  Time Operating 
 PMAX.psia            10690.93:  Press Op, Max 
 PV  .cP                 26.00:  Mud PV 
 RUN .                     900:  Run Number 
 ROPA.m/hr                0.00:  ROP Avg 
 ROPN.m/hr                0.00:  ROP Min 
 ROPX.m/hr                0.00:  ROP Max 
 RPMA.rpm               140.00:  RPM Surface Avg 
 RPMN.rpm                70.00:  RPM Surface Min 
 RPMX.rpm               140.00:  RPM Surface Max 
 RRUN.                    0900:  Rig Run Number 
 RTIM.hr                 36.00:  Time Reaming 
 SAZI.deg               115.72:  Azm, Start 
 SDEP.m                5337.01:  Start Depth 
 SIDD.                      No:  Serv Intrp, DD 
 SINC.deg                66.92:  Inc, Start 
 SPPA.psig             4400.00:  SPP Avg 
 SPPN.psig             1135.00:  SPP Min 
 SPPX.psig             4581.00:  SPP Max 
 STIM.      04.30.56 18-May-20:  Start Time 
 SVCS.                     MWD:  Services 
 SVER.                    9.20:  Sperry Version 
 TDAT.m                5337.01:  Tot Depth Attmp 
 TDDF.                      No:  Trip for DD 
 TFF .                      No:  Trip for Fail 
 TQAA.f-kp               23.00:  Torque Abs Avg 
 TQAN.f-kp               18.00:  Torque Abs Min 
 TQAX.f-kp               25.00:  Torque Abs Max 
 TRRT.°/30m               0.74:  Turn Rotating 
 MRT .                    HCIM:  Maximum Recorded Temperature 
 TTMX.degC               76.47:  Max Tool Temp 
 WBMN.klb                 0.00:  WOB Min 
 WITN.             Anar Khalil:  Customer Rep 
 WITN.      Kamran Keberlinski:  Customer Rep 2 
 WOBA.klb                 0.00:  WOB Avg 
 WOBX.klb                 0.00:  WOB Max 
 YP  .lhf2               27.00:  Yield Point 
~Curve Information Block
#MNEM.UNIT                 API CODE     Curve Description
#---------               -----------    ---------------------------
 TIME.HHMMSS            00 000 000 000:  GT Time & Date
 GTDEPTH.m              00 000 000 000:  GT Depth
 GTPQH.psia             00 000 000 000:  GT HR Quartz Pressure
 GTTQ.degC              00 000 000 000:  GT Quartz Temperature
 GTTN.NONE              00 000 000 000:  GT Test Number
 GTET.sec               00 000 000 000:  GT Elapsed Test Time
 GTTVD.m                00 000 000 000:  GT True Vertical Depth
#Other Information
#
#WARRANTY: Halliburton will use its best efforts to furnish customers with 
#accurate information and interpretations that are part of, and incident to, the services 
#provided.  However, Halliburton cannot and does not warrant the accuracy 
#or correctness of such information and interpretations.  Under no circumstances should any 
#such information or interpretation be relied upon as the sole basis for any drilling, 
#completion, production, or financial decision or any procedure involving any risk to the 
#safety of any drilling venture, drilling rig or its crew or any other third party.  The 
#Customer has full responsibility for all drilling, completion and production operation.  
#Halliburton makes no representations or warranties, either expressed or 
#implied, including, but not limited to, the implied warranties of merchantability or fitness 
#for a particular purpose, with respect to the services rendered.  In no event will 
#Halliburton be liable for failure to obtain any particular results or for 
#any damages, including, but not limited to, indirect, special or consequential damages, 
#resulting from the use of any information or interpretation provided by Halliburton.
#
~A           TIME           GTDEPTH  GTPQH  GTTQ  GTTN  GTET   GTTVD  
   23:11:25.704.19-May-2020 5121.01 6354.94 68.04 5.00   0.00 2698.81
   23:11:25.904.19-May-2020 5121.01 6354.94 68.04 5.00   0.20 2698.81
   23:11:26.104.19-May-2020 5121.01 6355.68 68.04 5.00   0.40 2698.81
   23:11:26.304.19-May-2020 5121.01 6359.64 68.04 5.00   0.60 2698.81
   23:11:26.504.19-May-2020 5121.01 6353.07 68.04 5.00   0.80 2698.81
   23:11:26.704.19-May-2020 5121.01 6358.16 68.04 5.00   1.00 2698.81
   23:11:26.904.19-May-2020 5121.01 6358.16 68.04 5.00   1.20 2698.81
   23:11:27.104.19-May-2020 5121.01 6356.97 68.04 5.00   1.40 2698.81
   23:11:27.304.19-May-2020 5121.01 6357.19 68.04 5.00   1.60 2698.81
   23:11:27.504.19-May-2020 5121.01 6360.51 68.04 5.00   1.80 2698.81
   23:11:27.704.19-May-2020 5121.01 6357.35 68.04 5.00   2.00 2698.81
   23:11:27.904.19-May-2020 5121.01 6357.35 68.04 5.00   2.20 2698.81
   23:11:28.104.19-May-2020 5121.01 6359.26 68.04 5.00   2.40 2698.81
   23:11:28.304.19-May-2020 5121.01 6360.07 68.04 5.00   2.60 2698.81
   23:11:28.504.19-May-2020 5121.01 6362.06 68.04 5.00   2.80 2698.81
   23:11:28.704.19-May-2020 5121.01 6360.00 68.04 5.00   3.00 2698.81
   23:11:28.904.19-May-2020 5121.01 6360.00 68.04 5.00   3.20 2698.81
   23:11:29.105.19-May-2020 5121.01 6363.62 68.04 5.00   3.40 2698.81
   23:11:29.305.19-May-2020 5121.01 6364.10 68.04 5.00   3.60 2698.81
   23:11:29.505.19-May-2020 5121.01 6362.73 68.04 5.00   3.80 2698.81
   23:11:29.705.19-May-2020 5121.01 6364.81 68.04 5.00   4.00 2698.81
   23:11:29.905.19-May-2020 5121.01 6364.81 68.04 5.00   4.20 2698.81
   23:11:30.105.19-May-2020 5121.01 6364.21 68.04 5.00   4.40 2698.81
   23:11:30.305.19-May-2020 5121.01 6367.94 68.04 5.00   4.60 2698.81
   23:11:30.505.19-May-2020 5121.01 6367.49 68.04 5.00   4.80 2698.81
   23:11:30.705.19-May-2020 5121.01 6372.12 68.04 5.00   5.00 2698.81
   23:11:30.905.19-May-2020 5121.01 6372.12 68.04 5.00   5.20 2698.81
   23:11:31.105.19-May-2020 5121.01 6369.17 68.04 5.00   5.40 2698.81
   23:11:31.305.19-May-2020 5121.01 6372.75 68.04 5.00   5.60 2698.81
   23:11:31.505.19-May-2020 5121.01 6370.72 68.04 5.00   5.80 2698.81
   23:11:31.705.19-May-2020 5121.01 6370.67 68.04 5.00   6.00 2698.81
   23:11:31.905.19-May-2020 5121.01 6370.67 68.04 5.00   6.20 2698.81
   23:11:32.105.19-May-2020 5121.01 6373.88 68.04 5.00   6.40 2698.81
   23:11:32.305.19-May-2020 5121.01 6371.65 68.04 5.00   6.60 2698.81
   23:11:32.505.19-May-2020 5121.01 6370.71 68.04 5.00   6.80 2698.81
   23:11:32.705.19-May-2020 5121.01 6372.87 68.04 5.00   7.00 2698.81
   23:11:32.905.19-May-2020 5121.01 6372.87 68.04 5.00   7.20 2698.81
   23:11:33.106.19-May-2020 5121.01 6371.98 68.03 5.00   7.40 2698.81
   23:11:33.306.19-May-2020 5121.01 6373.03 68.04 5.00   7.60 2698.81
   23:11:33.506.19-May-2020 5121.01 6372.62 68.03 5.00   7.80 2698.81
   23:11:33.706.19-May-2020 5121.01 6373.46 68.03 5.00   8.00 2698.81
   23:11:33.906.19-May-2020 5121.01 6373.46 68.03 5.00   8.20 2698.81
   23:11:34.106.19-May-2020 5121.01 6374.14 68.03 5.00   8.40 2698.81
   23:11:34.306.19-May-2020 5121.01 6375.46 68.03 5.00   8.60 2698.81
   23:11:34.506.19-May-2020 5121.01 6374.43 68.03 5.00   8.80 2698.81
   23:11:34.706.19-May-2020 5121.01 6380.89 68.03 5.00   9.00 2698.81
   23:11:34.906.19-May-2020 5121.01 6380.89 68.03 5.00   9.20 2698.81
   23:11:35.106.19-May-2020 5121.01 6378.33 68.03 5.00   9.40 2698.81
   23:11:35.306.19-May-2020 5121.01 6378.45 68.03 5.00   9.60 2698.81
   23:11:35.506.19-May-2020 5121.01 6377.14 68.03 5.00   9.80 2698.81
   23:11:35.706.19-May-2020 5121.01 6378.07 68.03 5.00  10.00 2698.81
   23:11:35.906.19-May-2020 5121.01 6378.07 68.03 5.00  10.20 2698.81
   23:11:36.106.19-May-2020 5121.01 6378.21 68.03 5.00  10.40 2698.81
   23:11:36.306.19-May-2020 5121.01 6378.86 68.03 5.00  10.60 2698.81
   23:11:36.506.19-May-2020 5121.01 6378.68 68.03 5.00  10.80 2698.81
   23:11:36.706.19-May-2020 5121.01 6379.67 68.03 5.00  11.00 2698.81
   23:11:36.906.19-May-2020 5121.01 6379.12 68.03 5.00  11.20 2698.81
   23:11:37.107.19-May-2020 5121.01 6379.69 68.03 5.00  11.40 2698.81
   23:11:37.307.19-May-2020 5121.01 6380.68 68.03 5.00  11.60 2698.81
   23:11:37.507.19-May-2020 5121.01 6380.10 68.03 5.00  11.80 2698.81
   23:11:37.707.19-May-2020 5121.01 6385.99 68.03 5.00  12.00 2698.81
   23:11:37.907.19-May-2020 5121.01 6385.99 68.03 5.00  12.20 2698.81
   23:11:38.107.19-May-2020 5121.01 6384.22 68.03 5.00  12.40 2698.81
   23:11:38.307.19-May-2020 5121.01 6383.70 68.03 5.00  12.60 2698.81
   23:11:38.507.19-May-2020 5121.01 6386.14 68.03 5.00  12.80 2698.81
   23:11:38.707.19-May-2020 5121.01 6384.39 68.03 5.00  13.00 2698.81
   23:11:38.907.19-May-2020 5121.01 6384.39 68.03 5.00  13.20 2698.81
   23:11:39.107.19-May-2020 5121.01 6385.63 68.03 5.00  13.40 2698.81
   23:11:39.307.19-May-2020 5121.01 6388.99 68.03 5.00  13.60 2698.81
   23:11:39.507.19-May-2020 5121.01 6386.10 68.03 5.00  13.80 2698.81
   23:11:39.707.19-May-2020 5121.01 6387.39 68.03 5.00  14.00 2698.81
   23:11:39.907.19-May-2020 5121.01 6387.39 68.03 5.00  14.20 2698.81
   23:11:40.107.19-May-2020 5121.01 6387.39 68.03 5.00  14.40 2698.81
   23:11:40.307.19-May-2020 5121.01 6388.44 68.03 5.00  14.60 2698.81
   23:11:40.507.19-May-2020 5121.01 6388.96 68.03 5.00  14.80 2698.81
   23:11:40.707.19-May-2020 5121.01 6390.11 68.03 5.00  15.00 2698.81
   23:11:40.907.19-May-2020 5121.01 6390.11 68.03 5.00  15.20 2698.81
   23:11:41.108.19-May-2020 5121.01 6389.05 68.03 5.00  15.40 2698.81
   23:11:41.308.19-May-2020 5121.01 6392.00 68.03 5.00  15.60 2698.81
   23:11:41.508.19-May-2020 5121.01 6389.64 68.03 5.00  15.80 2698.81
   23:11:41.708.19-May-2020 5121.01 6393.50 68.03 5.00  16.00 2698.81
   23:11:41.908.19-May-2020 5121.01 6393.50 68.03 5.00  16.20 2698.81
   23:11:42.108.19-May-2020 5121.01 6391.76 68.03 5.00  16.40 2698.81
   23:11:42.308.19-May-2020 5121.01 6391.71 68.03 5.00  16.60 2698.81
   23:11:42.508.19-May-2020 5121.01 6391.49 68.03 5.00  16.80 2698.81
   23:11:42.708.19-May-2020 5121.01 6392.16 68.03 5.00  17.00 2698.81
   23:11:42.908.19-May-2020 5121.01 6392.16 68.03 5.00  17.20 2698.81
   23:11:43.108.19-May-2020 5121.01 6392.51 68.03 5.00  17.40 2698.81
   23:11:43.308.19-May-2020 5121.01 6393.09 68.03 5.00  17.60 2698.81
   23:11:43.508.19-May-2020 5121.01 6392.73 68.03 5.00  17.80 2698.81
   23:11:43.708.19-May-2020 5121.01 6394.22 68.03 5.00  18.00 2698.81
   23:11:43.908.19-May-2020 5121.01 6397.71 68.03 5.00  18.20 2698.81
   23:11:44.108.19-May-2020 5121.01 6394.40 68.03 5.00  18.40 2698.81
   23:11:44.308.19-May-2020 5121.01 6395.84 68.03 5.00  18.60 2698.81
   23:11:44.508.19-May-2020 5121.01 6394.88 68.03 5.00  18.80 2698.81
   23:11:44.708.19-May-2020 5121.01 6402.81 68.03 5.00  19.00 2698.81
   23:11:44.908.19-May-2020 5121.01 6392.90 68.03 5.00  19.20 2698.81
   23:11:45.109.19-May-2020 5121.01 6399.31 68.03 5.00  19.40 2698.81
   23:11:45.309.19-May-2020 5121.01 6398.55 68.03 5.00  19.60 2698.81
   23:11:45.509.19-May-2020 5121.01 6397.52 68.03 5.00  19.80 2698.81
   23:11:45.709.19-May-2020 5121.01 6397.96 68.03 5.00  20.00 2698.81
   23:11:45.909.19-May-2020 5121.01 6397.96 68.03 5.00  20.21 2698.81
   23:11:46.109.19-May-2020 5121.01 6402.84 68.03 5.00  20.41 2698.81
   23:11:46.309.19-May-2020 5121.01 6399.07 68.03 5.00  20.61 2698.81
   23:11:46.509.19-May-2020 5121.01 6399.77 68.03 5.00  20.81 2698.81
   23:11:46.709.19-May-2020 5121.01 6400.71 68.03 5.00  21.01 2698.81
   23:11:46.909.19-May-2020 5121.01 6400.71 68.03 5.00  21.21 2698.81
   23:11:47.109.19-May-2020 5121.01 6403.81 68.03 5.00  21.41 2698.81
   23:11:47.309.19-May-2020 5121.01 6401.30 68.03 5.00  21.61 2698.81
   23:11:47.509.19-May-2020 5121.01 6402.26 68.03 5.00  21.81 2698.81
   23:11:47.709.19-May-2020 5121.01 6403.64 68.03 5.00  22.01 2698.81
   23:11:47.909.19-May-2020 5121.01 6402.20 68.03 5.00  22.21 2698.81
   23:11:48.109.19-May-2020 5121.01 6406.49 68.03 5.00  22.41 2698.81
   23:11:48.309.19-May-2020 5121.01 6402.72 68.03 5.00  22.61 2698.81
   23:11:48.509.19-May-2020 5121.01 6403.69 68.03 5.00  22.81 2698.81
