~Version Information
 VERS.                  2.0:   CWLS log ASCII Standard -VERSION 2.0
 WRAP.                   NO:   One line per depth step
~Well Information Block
#MNEM.UNIT     VALUE/NAME     DESCRIPTION
#---------     -----------    ---------------------------
 STRT.S             15:16:23 19-May-20: START TIME 15:16:23 19-May-20
 STOP.S             15:23:31 19-May-20: STOP TIME  15:23:31 19-May-20
 STEP.S                   0.00: STEP TIME
 NULL.                 -999.25: NULL VALUE
 MDS .        Operator Entered:  MAG DATA SOURCE
 PDAT.          Mean Sea Level:  PERMANENT DATUM
 UNIT.                     N/A:  LOGGING EQUIPMENT ID
 DCON.         Sperry Drilling:  DIRECTNL CONTR
 DOE .                     N/A:  DOE NUMBER
 RIG .              East Azeri:  RIG NAME
 JOBN.        AZ-XX-0905856059:  JOB TICKET NUMB
 WELL.                     D36:  WELL NAME
 MWDS.                    Baku:  MWD SHOP
 SRVC.     Turan Drilling & Engineering:  CONTRACTOR
 FLD .                     ACG:  FIELD NAME
 CTRY.              Azerbaijan:  COUNTRY NAME
 PROV.                    Baku:  PROVINCE
 STAT.                    Baku:  STATE NAME
 REGN.                   EESSA:  REGION
 BASE.              Azerbaijan:  LOGGING EQUIPMENT BASE LOCATION
 UWI .                     N/A:  UNIQUE WELL IDENTIFIER
 API .                     N/A:  API NUMBER
 COMP.     BP Exploration (Caspian Sea) Ltd.:  COMPANY
 WTYP.                Deviated:  WELL TYPE
 SON .        AZ-XX-0905856059:  JOB NUMBER
 FTOP.          Formation Tops:  FORM TOPS DESC
 ILTD.               Lithology:  INTERP LTH DESC
 SVYD.                  Survey:  SURVEY DESC
 DMOD.             Drill Model:  DRILL MOD DESC
 HPTY.       Minimum Curvature:  HOLE POS TYPE
 NREF.                    Grid:  NORTH REFERENCE
 SPUD.               25-Feb-20:  SPUD DATE
 DATE.      08.55.28 01-May-20:  END TIME
 STIM.      08.55.28 25-Feb-20:  START TIME
 DMF .             Drill Floor:  DRILL MEAS FROM
 DFST.                        :  DIST FSL TEXT
 DFWT.                        :  DIST FWL TEXT
 CNTY.                        :  COUNTY
 LOC .                        :  LOCATION
 LMF .             Drill Floor:  LOG MEASURED FROM
 VSNS.m                   6.09:  VERT SEC N/S
 VSEW.m                 -10.79:  VERT SEC E/W
 AGAP.m                  43.60:  AIR GAP
 DEP .m                 388.24:  DEPTH
 APD .m                  43.60:  DEPTH ABOVE PD
 WDMS.m                 151.80:  WD ELEV
 EGL .m                   0.00:  GROUND ELEVATION
 EPD .m                   0.00:  ELEVATION
 AZTC.deg                 6.12:  AZM TOTAL CORR
 GRDC.deg                 0.30:  GRID CORRECTION
 MDEC.deg                 6.42:  MAGNETIC DECL
 MDIP.deg                59.42:  MAGNETIC DIP
 MFLD.nT              50256.00:  MAGNETIC FIELD
 GVFD.g                   1.00:  GRAVITY FIELD
 VSDR.deg               159.57:  VERT SEC DIRECT
 TDD .m                5000.01:  TOTAL DEPTH (DRILLER)
 SDEP.m                 397.00:  START DEPTH
 DFSL.m                   0.00:  DISTANCE FSL
 DFWL.m                   0.00:  DISTANCE FWL
 UTMY.m             4431880.20:  UTM Y
 UTMX.m              538763.98:  UTM X
 WHEW.m                 -10.79:  WELL HEAD E/W
 WHNS.m                   6.09:  WELL HEAD N/S
 LONG.deg                51.45:  LONGITUDE
 LATI.deg                40.02:  LATITUDE
 TVDS.m                  43.60:  TVDSS CORRECTN
 EKB .m                  43.60:  KB ELEVATION
 EDF .m                  43.60:  DF ELEVATION
 MAGU.                 1847640:  MAGUTM CHECKSUM
 VSC .                       0:  VS TO CLOSURE
~Parameter Information Block
#MNEM.UNIT       Value        Description
#---------     -----------    ---------------------------
 AV  .mps                 1.30:  Ann Velocity 
 AVMX.mps                 1.90:  Max Ann Veloc 
 AZIF.deg               115.68:  Azm, Final 
 BHAT.                   Other:  BHA Type 
 BROT.°/30m               0.74:  Build Rotating 
 BS  .in                  8.50:  Bit Size 
 BTPL.psig              430.00:  Bit Press Loss 
 CABU.                      No:  Customer Abuse 
 TCS .hr                 51.31:  Time Ciculation Ended 
 CV  .mps                 2.52:  Crit Velocity 
 CVMX.mps                 2.62:  Max Crit Veloc 
 DD1 .          Teymur Aghayev:  Direct Drillr 1 
 DDSV.                   Other:  DD Service 
 DEFF.%                 100.00:  % Det Eff 
 DLRX.°/30m               1.62:  Dogleg Rot Max 
 DLSO.°/30m               0.74:  Dogleg Oriented 
 DLSX.°/30m               1.62:  Dogleg Str Max 
 DRET.      04.30.56 18-May-20:  Drill End Time 
 DRST.      04.30.56 18-May-20:  Drill Start Tim 
 DTIM.hr                  0.00:  Time Drilling 
 EDEP.m                5337.01:  End Depth 
 ENG1.      Artemiy Matviyanov:  Engineer 1 
 ENG2.      Bakhtiyar Jabbarli:  Engineer 2 
 ENG3.           Emil Huseynov:  Engineer 3 
 ETIM.      18.40.00 22-May-20:  End Time 
 FLOI.gpm               550.00:  Flow In 
 FLON.gpm               350.00:  Flow In Min 
 FLOS.cptm                0.00:  Fluid Loss 
 FLOX.gpm               600.00:  Flow In Max 
 HFLO.                      No:  High Flow 
 HPRE.                      No:  High Pressure 
 HTEM.                      No:  High Temp 
 HYDO.m                   1.80:  Hydro Offset 
 IFIN.deg                67.01:  Inc, Final 
 IMAX.deg                67.49:  Inc Max 
 IMIN.deg                66.50:  Inc Min 
 IMND.m                5144.79:  Inc Min Depth 
 IMXD.m                5116.12:  Inc Max Depth 
 JARR.                      No:  Jarring 
 LETM.      17.55.56 20-May-20:  Log End Time 
 LOST.hr                     0:  Lost Rig Time 
 LSTM.      04.30.56 18-May-20:  Log Start Time 
 MDCL.ppm            193153.00:  Mud Chlorides 
 MDES.     Inversion Oil/Synthetic:  Mud Desc 
 DFD .sg                  1.40:  Mud Density 
 MDMN.sg                  1.40:  Dens Mud Min 
 MDMX.sg                  1.41:  Dens Mud Max 
 MOIL.                      68:  Run Mud Oil % 
 MOWR.                   68:32:  Run Mud OWR 
 MSND.                     0.2:  Run Mud Sand % 
 MSOL.                    18.8:  Run Mud Solids% 
 DFV .spqt               80.00:  Mud Viscosity 
 MWOD.in                  6.75:  MWD Tool OD 
 MWSI.                      No:  Serv Intrp, MWD 
 OTIM.hr                104.84:  Time Operating 
 PMAX.psia            10690.93:  Press Op, Max 
 PV  .cP                 26.00:  Mud PV 
 RUN .                     900:  Run Number 
 ROPA.m/hr                0.00:  ROP Avg 
 ROPN.m/hr                0.00:  ROP Min 
 ROPX.m/hr                0.00:  ROP Max 
 RPMA.rpm               140.00:  RPM Surface Avg 
 RPMN.rpm                70.00:  RPM Surface Min 
 RPMX.rpm               140.00:  RPM Surface Max 
 RRUN.                    0900:  Rig Run Number 
 RTIM.hr                 36.00:  Time Reaming 
 SAZI.deg               115.72:  Azm, Start 
 SDEP.m                5337.01:  Start Depth 
 SIDD.                      No:  Serv Intrp, DD 
 SINC.deg                66.92:  Inc, Start 
 SPPA.psig             4400.00:  SPP Avg 
 SPPN.psig             1135.00:  SPP Min 
 SPPX.psig             4581.00:  SPP Max 
 STIM.      04.30.56 18-May-20:  Start Time 
 SVCS.                     MWD:  Services 
 SVER.                    9.20:  Sperry Version 
 TDAT.m                5337.01:  Tot Depth Attmp 
 TDDF.                      No:  Trip for DD 
 TFF .                      No:  Trip for Fail 
 TQAA.f-kp               23.00:  Torque Abs Avg 
 TQAN.f-kp               18.00:  Torque Abs Min 
 TQAX.f-kp               25.00:  Torque Abs Max 
 TRRT.°/30m               0.74:  Turn Rotating 
 MRT .                    HCIM:  Maximum Recorded Temperature 
 TTMX.degC               76.47:  Max Tool Temp 
 WBMN.klb                 0.00:  WOB Min 
 WITN.             Anar Khalil:  Customer Rep 
 WITN.      Kamran Keberlinski:  Customer Rep 2 
 WOBA.klb                 0.00:  WOB Avg 
 WOBX.klb                 0.00:  WOB Max 
 YP  .lhf2               27.00:  Yield Point 
~Curve Information Block
#MNEM.UNIT                 API CODE     Curve Description
#---------               -----------    ---------------------------
 TIME.HHMMSS            00 000 000 000:  GT Time & Date
 GTDEPTH.m              00 000 000 000:  GT Depth
 GTPQH.psia             00 000 000 000:  GT HR Quartz Pressure
 GTTQ.degC              00 000 000 000:  GT Quartz Temperature
 GTTN.NONE              00 000 000 000:  GT Test Number
 GTET.sec               00 000 000 000:  GT Elapsed Test Time
 GTTVD.m                00 000 000 000:  GT True Vertical Depth
#Other Information
#
#WARRANTY: Halliburton will use its best efforts to furnish customers with 
#accurate information and interpretations that are part of, and incident to, the services 
#provided.  However, Halliburton cannot and does not warrant the accuracy 
#or correctness of such information and interpretations.  Under no circumstances should any 
#such information or interpretation be relied upon as the sole basis for any drilling, 
#completion, production, or financial decision or any procedure involving any risk to the 
#safety of any drilling venture, drilling rig or its crew or any other third party.  The 
#Customer has full responsibility for all drilling, completion and production operation.  
#Halliburton makes no representations or warranties, either expressed or 
#implied, including, but not limited to, the implied warranties of merchantability or fitness 
#for a particular purpose, with respect to the services rendered.  In no event will 
#Halliburton be liable for failure to obtain any particular results or for 
#any damages, including, but not limited to, indirect, special or consequential damages, 
#resulting from the use of any information or interpretation provided by Halliburton.
#
~A           TIME           GTDEPTH  GTPQH  GTTQ  GTTN  GTET   GTTVD  
# ...
   15:22:54.405.19-May-2020 5277.61 6656.01 67.55 1.00 391.09 2760.35
   15:22:54.605.19-May-2020 5277.61 6656.01 67.55 1.00 391.29 2760.35
   15:22:54.805.19-May-2020 5277.61 6650.63 67.55 1.00 391.49 2760.35
   15:22:55.005.19-May-2020 5277.61 6651.44 67.55 1.00 391.69 2760.35
   15:22:55.205.19-May-2020 5277.61 6657.90 67.55 1.00 391.89 2760.35
   15:22:55.405.19-May-2020 5277.61 6655.77 67.55 1.00 392.09 2760.35
   15:22:55.605.19-May-2020 5277.61 6650.66 67.55 1.00 392.29 2760.35
   15:22:55.805.19-May-2020 5277.61 6652.80 67.55 1.00 392.49 2760.35
   15:22:56.005.19-May-2020 5277.61 6652.63 67.55 1.00 392.69 2760.35
   15:22:56.205.19-May-2020 5277.61 6653.85 67.55 1.00 392.89 2760.35
   15:22:56.405.19-May-2020 5277.61 6652.62 67.55 1.00 393.09 2760.35
   15:22:56.605.19-May-2020 5277.61 6652.62 67.55 1.00 393.29 2760.35
   15:22:56.805.19-May-2020 5277.61 6656.58 67.55 1.00 393.49 2760.35
   15:22:57.005.19-May-2020 5277.61 6652.63 67.55 1.00 393.69 2760.35
   15:22:57.206.19-May-2020 5277.61 6653.75 67.55 1.00 393.89 2760.35
   15:22:57.406.19-May-2020 5277.61 6652.17 67.55 1.00 394.09 2760.35
   15:22:57.606.19-May-2020 5277.61 6652.17 67.55 1.00 394.29 2760.35
   15:22:57.806.19-May-2020 5277.61 6656.32 67.55 1.00 394.49 2760.35
   15:22:58.006.19-May-2020 5277.61 6655.50 67.55 1.00 394.69 2760.35
   15:22:58.206.19-May-2020 5277.61 6653.12 67.54 1.00 394.89 2760.35
   15:22:58.406.19-May-2020 5277.61 6653.34 67.54 1.00 395.09 2760.35
   15:22:58.606.19-May-2020 5277.61 6653.34 67.54 1.00 395.29 2760.35
   15:22:58.806.19-May-2020 5277.61 6656.59 67.54 1.00 395.49 2760.35
   15:22:59.006.19-May-2020 5277.61 6656.17 67.54 1.00 395.69 2760.35
   15:22:59.206.19-May-2020 5277.61 6651.63 67.54 1.00 395.89 2760.35
   15:22:59.406.19-May-2020 5277.61 6652.46 67.54 1.00 396.09 2760.35
   15:22:59.606.19-May-2020 5277.61 6652.46 67.54 1.00 396.29 2760.35
   15:22:59.806.19-May-2020 5277.61 6653.16 67.54 1.00 396.49 2760.35
   15:23:00.006.19-May-2020 5277.61 6652.42 67.54 1.00 396.69 2760.35
   15:23:00.206.19-May-2020 5277.61 6651.87 67.54 1.00 396.89 2760.35
   15:23:00.406.19-May-2020 5277.61 6653.17 67.54 1.00 397.09 2760.35
   15:23:00.606.19-May-2020 5277.61 6653.17 67.54 1.00 397.29 2760.35
   15:23:00.806.19-May-2020 5277.61 6652.02 67.54 1.00 397.49 2760.35
   15:23:01.006.19-May-2020 5277.61 6651.94 67.54 1.00 397.69 2760.35
   15:23:01.206.19-May-2020 5277.61 6652.02 67.54 1.00 397.89 2760.35
   15:23:01.406.19-May-2020 5277.61 6651.72 67.54 1.00 398.09 2760.35
   15:23:01.607.19-May-2020 5277.61 6651.72 67.54 1.00 398.29 2760.35
   15:23:01.807.19-May-2020 5277.61 6656.19 67.54 1.00 398.49 2760.35
   15:23:02.007.19-May-2020 5277.61 6654.58 67.54 1.00 398.69 2760.35
   15:23:02.207.19-May-2020 5277.61 6652.49 67.54 1.00 398.89 2760.35
   15:23:02.407.19-May-2020 5277.61 6651.85 67.54 1.00 399.09 2760.35
   15:23:02.607.19-May-2020 5277.61 6651.85 67.54 1.00 399.29 2760.35
   15:23:02.807.19-May-2020 5277.61 6656.88 67.54 1.00 399.49 2760.35
   15:23:03.007.19-May-2020 5277.61 6652.91 67.54 1.00 399.69 2760.35
   15:23:03.207.19-May-2020 5277.61 6651.51 67.54 1.00 399.89 2760.35
   15:23:03.407.19-May-2020 5277.61 6652.66 67.54 1.00 400.09 2760.35
   15:23:03.607.19-May-2020 5277.61 6652.66 67.54 1.00 400.29 2760.35
   15:23:03.807.19-May-2020 5277.61 6652.08 67.54 1.00 400.49 2760.35
   15:23:04.007.19-May-2020 5277.61 6656.07 67.54 1.00 400.70 2760.35
   15:23:04.207.19-May-2020 5277.61 6655.00 67.54 1.00 400.90 2760.35
   15:23:04.407.19-May-2020 5277.61 6652.87 67.54 1.00 401.10 2760.35
   15:23:04.607.19-May-2020 5277.61 6652.87 67.54 1.00 401.30 2760.35
   15:23:04.807.19-May-2020 5277.61 6652.51 67.54 1.00 401.50 2760.35
   15:23:05.007.19-May-2020 5277.61 6653.07 67.54 1.00 401.70 2760.35
   15:23:05.207.19-May-2020 5277.61 6656.42 67.54 1.00 401.90 2760.35
   15:23:05.407.19-May-2020 5277.61 6655.49 67.54 1.00 402.10 2760.35
   15:23:05.607.19-May-2020 5277.61 6655.49 67.54 1.00 402.30 2760.35
   15:23:05.808.19-May-2020 5277.61 6653.33 67.54 1.00 402.50 2760.35
   15:23:06.008.19-May-2020 5277.61 6652.29 67.54 1.00 402.70 2760.35
   15:23:06.208.19-May-2020 5277.61 6658.00 67.54 1.00 402.90 2760.35
   15:23:06.408.19-May-2020 5277.61 6657.27 67.54 1.00 403.10 2760.35
   15:23:06.608.19-May-2020 5277.61 6657.27 67.54 1.00 403.30 2760.35
   15:23:06.808.19-May-2020 5277.61 6654.03 67.54 1.00 403.50 2760.35
   15:23:07.008.19-May-2020 5277.61 6652.93 67.54 1.00 403.70 2760.35
   15:23:07.208.19-May-2020 5277.61 6653.64 67.54 1.00 403.90 2760.35
   15:23:07.408.19-May-2020 5277.61 6651.84 67.54 1.00 404.10 2760.35
   15:23:07.608.19-May-2020 5277.61 6651.84 67.54 1.00 404.30 2760.35
   15:23:07.808.19-May-2020 5277.61 6652.20 67.54 1.00 404.50 2760.35
   15:23:08.008.19-May-2020 5277.61 6651.71 67.54 1.00 404.70 2760.35
   15:23:08.208.19-May-2020 5277.61 6651.59 67.54 1.00 404.90 2760.35
   15:23:08.408.19-May-2020 5277.61 6651.25 67.53 1.00 405.10 2760.35
   15:23:08.608.19-May-2020 5277.61 6651.25 67.53 1.00 405.30 2760.35
   15:23:08.808.19-May-2020 5277.61 6650.92 67.53 1.00 405.50 2760.35
   15:23:09.008.19-May-2020 5277.61 6651.65 67.53 1.00 405.70 2760.35
   15:23:09.208.19-May-2020 5277.61 6654.67 67.53 1.00 405.90 2760.35
   15:23:09.408.19-May-2020 5277.61 6654.94 67.53 1.00 406.10 2760.35
   15:23:09.608.19-May-2020 5277.61 6654.94 67.53 1.00 406.30 2760.35
   15:23:09.808.19-May-2020 5277.61 6652.03 67.53 1.00 406.50 2760.35
   15:23:10.009.19-May-2020 5277.61 6653.65 67.53 1.00 406.70 2760.35
   15:23:10.209.19-May-2020 5277.61 6656.33 67.53 1.00 406.90 2760.35
   15:23:10.409.19-May-2020 5277.61 6655.25 67.53 1.00 407.10 2760.35
   15:23:10.609.19-May-2020 5277.61 6655.25 67.53 1.00 407.30 2760.35
   15:23:10.809.19-May-2020 5277.61 6652.28 67.53 1.00 407.50 2760.35
   15:23:11.009.19-May-2020 5277.61 6653.74 67.53 1.00 407.70 2760.35
   15:23:11.209.19-May-2020 5277.61 6652.50 67.53 1.00 407.90 2760.35
   15:23:11.409.19-May-2020 5277.61 6657.25 67.53 1.00 408.10 2760.35
   15:23:11.609.19-May-2020 5277.61 6654.26 67.53 1.00 408.30 2760.35
   15:23:11.809.19-May-2020 5277.61 6652.11 67.53 1.00 408.50 2760.35
   15:23:12.009.19-May-2020 5277.61 6652.69 67.53 1.00 408.70 2760.35
   15:23:12.209.19-May-2020 5277.61 6653.24 67.53 1.00 408.90 2760.35
   15:23:12.409.19-May-2020 5277.61 6652.69 67.53 1.00 409.10 2760.35
   15:23:12.609.19-May-2020 5277.61 6652.69 67.53 1.00 409.30 2760.35
   15:23:12.809.19-May-2020 5277.61 6656.29 67.53 1.00 409.50 2760.35
   15:23:13.009.19-May-2020 5277.61 6652.99 67.53 1.00 409.70 2760.35
   15:23:13.209.19-May-2020 5277.61 6652.01 67.53 1.00 409.90 2760.35
   15:23:13.409.19-May-2020 5277.61 6652.02 67.53 1.00 410.10 2760.35
   15:23:13.609.19-May-2020 5277.61 6652.02 67.53 1.00 410.30 2760.35
   15:23:13.809.19-May-2020 5277.61 6655.74 67.53 1.00 410.50 2760.35
   15:23:14.009.19-May-2020 5277.61 6652.91 67.53 1.00 410.70 2760.35
   15:23:14.210.19-May-2020 5277.61 6652.82 67.53 1.00 410.90 2760.35
   15:23:14.410.19-May-2020 5277.61 6653.36 67.53 1.00 411.10 2760.35
   15:23:14.610.19-May-2020 5277.61 6653.36 67.53 1.00 411.30 2760.35
   15:23:14.810.19-May-2020 5277.61 6651.27 67.53 1.00 411.50 2760.35
   15:23:15.010.19-May-2020 5277.61 6652.86 67.53 1.00 411.70 2760.35
   15:23:15.210.19-May-2020 5277.61 6652.02 67.53 1.00 411.90 2760.35
   15:23:15.410.19-May-2020 5277.61 6652.57 67.53 1.00 412.10 2760.35
   15:23:15.610.19-May-2020 5277.61 6651.07 67.53 1.00 412.30 2760.35
   15:23:15.810.19-May-2020 5277.61 6651.72 67.53 1.00 412.50 2760.35
   15:23:16.010.19-May-2020 5277.61 6651.95 67.53 1.00 412.70 2760.35
   15:23:16.210.19-May-2020 5277.61 6651.31 67.53 1.00 412.90 2760.35
   15:23:16.410.19-May-2020 5277.61 6651.64 67.53 1.00 413.10 2760.35
   15:23:16.610.19-May-2020 5277.61 6651.64 67.53 1.00 413.30 2760.35
   15:23:16.810.19-May-2020 5277.61 6654.74 67.53 1.00 413.50 2760.35
   15:23:17.010.19-May-2020 5277.61 6650.25 67.53 1.00 413.70 2760.35
   15:23:17.210.19-May-2020 5277.61 6652.48 67.53 1.00 413.90 2760.35
