~Version Information
 VERS.                  2.0:   CWLS log ASCII Standard -VERSION 2.0
 WRAP.                   NO:   One line per depth step
~Well Information Block
#MNEM.UNIT     VALUE/NAME     DESCRIPTION
#---------     -----------    ---------------------------
 STRT.S             02:05:08 20-May-20: START TIME 02:05:08 20-May-20
 STOP.S             02:15:48 20-May-20: STOP TIME  02:15:48 20-May-20
 STEP.S                   0.00: STEP TIME
 NULL.                 -999.25: NULL VALUE
 MDS .        Operator Entered:  MAG DATA SOURCE
 PDAT.          Mean Sea Level:  PERMANENT DATUM
 UNIT.                     N/A:  LOGGING EQUIPMENT ID
 DCON.         Sperry Drilling:  DIRECTNL CONTR
 DOE .                     N/A:  DOE NUMBER
 RIG .              East Azeri:  RIG NAME
 JOBN.        AZ-XX-0905856059:  JOB TICKET NUMB
 WELL.                     D36:  WELL NAME
 MWDS.                    Baku:  MWD SHOP
 SRVC.     Turan Drilling & Engineering:  CONTRACTOR
 FLD .                     ACG:  FIELD NAME
 CTRY.              Azerbaijan:  COUNTRY NAME
 PROV.                    Baku:  PROVINCE
 STAT.                    Baku:  STATE NAME
 REGN.                   EESSA:  REGION
 BASE.              Azerbaijan:  LOGGING EQUIPMENT BASE LOCATION
 UWI .                     N/A:  UNIQUE WELL IDENTIFIER
 API .                     N/A:  API NUMBER
 COMP.     BP Exploration (Caspian Sea) Ltd.:  COMPANY
 WTYP.                Deviated:  WELL TYPE
 SON .        AZ-XX-0905856059:  JOB NUMBER
 FTOP.          Formation Tops:  FORM TOPS DESC
 ILTD.               Lithology:  INTERP LTH DESC
 SVYD.                  Survey:  SURVEY DESC
 DMOD.             Drill Model:  DRILL MOD DESC
 HPTY.       Minimum Curvature:  HOLE POS TYPE
 NREF.                    Grid:  NORTH REFERENCE
 SPUD.               25-Feb-20:  SPUD DATE
 DATE.      08.55.28 01-May-20:  END TIME
 STIM.      08.55.28 25-Feb-20:  START TIME
 DMF .             Drill Floor:  DRILL MEAS FROM
 DFST.                        :  DIST FSL TEXT
 DFWT.                        :  DIST FWL TEXT
 CNTY.                        :  COUNTY
 LOC .                        :  LOCATION
 LMF .             Drill Floor:  LOG MEASURED FROM
 VSNS.m                   6.09:  VERT SEC N/S
 VSEW.m                 -10.79:  VERT SEC E/W
 AGAP.m                  43.60:  AIR GAP
 DEP .m                 388.24:  DEPTH
 APD .m                  43.60:  DEPTH ABOVE PD
 WDMS.m                 151.80:  WD ELEV
 EGL .m                   0.00:  GROUND ELEVATION
 EPD .m                   0.00:  ELEVATION
 AZTC.deg                 6.12:  AZM TOTAL CORR
 GRDC.deg                 0.30:  GRID CORRECTION
 MDEC.deg                 6.42:  MAGNETIC DECL
 MDIP.deg                59.42:  MAGNETIC DIP
 MFLD.nT              50256.00:  MAGNETIC FIELD
 GVFD.g                   1.00:  GRAVITY FIELD
 VSDR.deg               159.57:  VERT SEC DIRECT
 TDD .m                5000.01:  TOTAL DEPTH (DRILLER)
 SDEP.m                 397.00:  START DEPTH
 DFSL.m                   0.00:  DISTANCE FSL
 DFWL.m                   0.00:  DISTANCE FWL
 UTMY.m             4431880.20:  UTM Y
 UTMX.m              538763.98:  UTM X
 WHEW.m                 -10.79:  WELL HEAD E/W
 WHNS.m                   6.09:  WELL HEAD N/S
 LONG.deg                51.45:  LONGITUDE
 LATI.deg                40.02:  LATITUDE
 TVDS.m                  43.60:  TVDSS CORRECTN
 EKB .m                  43.60:  KB ELEVATION
 EDF .m                  43.60:  DF ELEVATION
 MAGU.                 1847640:  MAGUTM CHECKSUM
 VSC .                       0:  VS TO CLOSURE
~Parameter Information Block
#MNEM.UNIT       Value        Description
#---------     -----------    ---------------------------
 AV  .mps                 1.30:  Ann Velocity 
 AVMX.mps                 1.90:  Max Ann Veloc 
 AZIF.deg               115.68:  Azm, Final 
 BHAT.                   Other:  BHA Type 
 BROT.°/30m               0.74:  Build Rotating 
 BS  .in                  8.50:  Bit Size 
 BTPL.psig              430.00:  Bit Press Loss 
 CABU.                      No:  Customer Abuse 
 TCS .hr                 51.31:  Time Ciculation Ended 
 CV  .mps                 2.52:  Crit Velocity 
 CVMX.mps                 2.62:  Max Crit Veloc 
 DD1 .          Teymur Aghayev:  Direct Drillr 1 
 DDSV.                   Other:  DD Service 
 DEFF.%                 100.00:  % Det Eff 
 DLRX.°/30m               1.62:  Dogleg Rot Max 
 DLSO.°/30m               0.74:  Dogleg Oriented 
 DLSX.°/30m               1.62:  Dogleg Str Max 
 DRET.      04.30.56 18-May-20:  Drill End Time 
 DRST.      04.30.56 18-May-20:  Drill Start Tim 
 DTIM.hr                  0.00:  Time Drilling 
 EDEP.m                5337.01:  End Depth 
 ENG1.      Artemiy Matviyanov:  Engineer 1 
 ENG2.      Bakhtiyar Jabbarli:  Engineer 2 
 ENG3.           Emil Huseynov:  Engineer 3 
 ETIM.      18.40.00 22-May-20:  End Time 
 FLOI.gpm               550.00:  Flow In 
 FLON.gpm               350.00:  Flow In Min 
 FLOS.cptm                0.00:  Fluid Loss 
 FLOX.gpm               600.00:  Flow In Max 
 HFLO.                      No:  High Flow 
 HPRE.                      No:  High Pressure 
 HTEM.                      No:  High Temp 
 HYDO.m                   1.80:  Hydro Offset 
 IFIN.deg                67.01:  Inc, Final 
 IMAX.deg                67.49:  Inc Max 
 IMIN.deg                66.50:  Inc Min 
 IMND.m                5144.79:  Inc Min Depth 
 IMXD.m                5116.12:  Inc Max Depth 
 JARR.                      No:  Jarring 
 LETM.      17.55.56 20-May-20:  Log End Time 
 LOST.hr                     0:  Lost Rig Time 
 LSTM.      04.30.56 18-May-20:  Log Start Time 
 MDCL.ppm            193153.00:  Mud Chlorides 
 MDES.     Inversion Oil/Synthetic:  Mud Desc 
 DFD .sg                  1.40:  Mud Density 
 MDMN.sg                  1.40:  Dens Mud Min 
 MDMX.sg                  1.41:  Dens Mud Max 
 MOIL.                      68:  Run Mud Oil % 
 MOWR.                   68:32:  Run Mud OWR 
 MSND.                     0.2:  Run Mud Sand % 
 MSOL.                    18.8:  Run Mud Solids% 
 DFV .spqt               80.00:  Mud Viscosity 
 MWOD.in                  6.75:  MWD Tool OD 
 MWSI.                      No:  Serv Intrp, MWD 
 OTIM.hr                104.84:  Time Operating 
 PMAX.psia            10690.93:  Press Op, Max 
 PV  .cP                 26.00:  Mud PV 
 RUN .                     900:  Run Number 
 ROPA.m/hr                0.00:  ROP Avg 
 ROPN.m/hr                0.00:  ROP Min 
 ROPX.m/hr                0.00:  ROP Max 
 RPMA.rpm               140.00:  RPM Surface Avg 
 RPMN.rpm                70.00:  RPM Surface Min 
 RPMX.rpm               140.00:  RPM Surface Max 
 RRUN.                    0900:  Rig Run Number 
 RTIM.hr                 36.00:  Time Reaming 
 SAZI.deg               115.72:  Azm, Start 
 SDEP.m                5337.01:  Start Depth 
 SIDD.                      No:  Serv Intrp, DD 
 SINC.deg                66.92:  Inc, Start 
 SPPA.psig             4400.00:  SPP Avg 
 SPPN.psig             1135.00:  SPP Min 
 SPPX.psig             4581.00:  SPP Max 
 STIM.      04.30.56 18-May-20:  Start Time 
 SVCS.                     MWD:  Services 
 SVER.                    9.20:  Sperry Version 
 TDAT.m                5337.01:  Tot Depth Attmp 
 TDDF.                      No:  Trip for DD 
 TFF .                      No:  Trip for Fail 
 TQAA.f-kp               23.00:  Torque Abs Avg 
 TQAN.f-kp               18.00:  Torque Abs Min 
 TQAX.f-kp               25.00:  Torque Abs Max 
 TRRT.°/30m               0.74:  Turn Rotating 
 MRT .                    HCIM:  Maximum Recorded Temperature 
 TTMX.degC               76.47:  Max Tool Temp 
 WBMN.klb                 0.00:  WOB Min 
 WITN.             Anar Khalil:  Customer Rep 
 WITN.      Kamran Keberlinski:  Customer Rep 2 
 WOBA.klb                 0.00:  WOB Avg 
 WOBX.klb                 0.00:  WOB Max 
 YP  .lhf2               27.00:  Yield Point 
~Curve Information Block
#MNEM.UNIT                 API CODE     Curve Description
#---------               -----------    ---------------------------
 TIME.HHMMSS            00 000 000 000:  GT Time & Date
 GTDEPTH.m              00 000 000 000:  GT Depth
 GTPQH.psia             00 000 000 000:  GT HR Quartz Pressure
 GTTQ.degC              00 000 000 000:  GT Quartz Temperature
 GTTN.NONE              00 000 000 000:  GT Test Number
 GTET.sec               00 000 000 000:  GT Elapsed Test Time
 GTTVD.m                00 000 000 000:  GT True Vertical Depth
#Other Information
#
#WARRANTY: Halliburton will use its best efforts to furnish customers with 
#accurate information and interpretations that are part of, and incident to, the services 
#provided.  However, Halliburton cannot and does not warrant the accuracy 
#or correctness of such information and interpretations.  Under no circumstances should any 
#such information or interpretation be relied upon as the sole basis for any drilling, 
#completion, production, or financial decision or any procedure involving any risk to the 
#safety of any drilling venture, drilling rig or its crew or any other third party.  The 
#Customer has full responsibility for all drilling, completion and production operation.  
#Halliburton makes no representations or warranties, either expressed or 
#implied, including, but not limited to, the implied warranties of merchantability or fitness 
#for a particular purpose, with respect to the services rendered.  In no event will 
#Halliburton be liable for failure to obtain any particular results or for 
#any damages, including, but not limited to, indirect, special or consequential damages, 
#resulting from the use of any information or interpretation provided by Halliburton.
#
~A           TIME           GTDEPTH  GTPQH  GTTQ  GTTN  GTET   GTTVD  
# ...
   02:09:21.000.20-May-2020 5070.01 2942.93 68.36 7.00 253.00 2678.90
   02:09:21.200.20-May-2020 5070.01 2942.93 68.36 7.00 253.20 2678.90
   02:09:21.400.20-May-2020 5070.01 2942.70 68.36 7.00 253.40 2678.90
   02:09:21.600.20-May-2020 5070.01 2943.13 68.36 7.00 253.60 2678.90
   02:09:21.800.20-May-2020 5070.01 2942.57 68.36 7.00 253.80 2678.90
   02:09:22.000.20-May-2020 5070.01 2942.36 68.36 7.00 254.00 2678.90
   02:09:22.200.20-May-2020 5070.01 2942.72 68.36 7.00 254.20 2678.90
   02:09:22.400.20-May-2020 5070.01 2943.01 68.36 7.00 254.40 2678.90
   02:09:22.600.20-May-2020 5070.01 2943.21 68.36 7.00 254.60 2678.90
   02:09:22.800.20-May-2020 5070.01 2942.58 68.36 7.00 254.80 2678.90
   02:09:23.000.20-May-2020 5070.01 2942.82 68.36 7.00 255.00 2678.90
   02:09:23.200.20-May-2020 5070.01 2942.82 68.36 7.00 255.20 2678.90
   02:09:23.400.20-May-2020 5070.01 2942.94 68.36 7.00 255.40 2678.90
   02:09:23.600.20-May-2020 5070.01 2942.88 68.36 7.00 255.60 2678.90
   02:09:23.800.20-May-2020 5070.01 2942.24 68.36 7.00 255.80 2678.90
   02:09:24.000.20-May-2020 5070.01 2943.10 68.36 7.00 256.00 2678.90
   02:09:24.200.20-May-2020 5070.01 2943.10 68.36 7.00 256.20 2678.90
   02:09:24.400.20-May-2020 5070.01 2942.94 68.36 7.00 256.40 2678.90
   02:09:24.600.20-May-2020 5070.01 2942.95 68.36 7.00 256.60 2678.90
   02:09:24.800.20-May-2020 5070.01 2943.03 68.36 7.00 256.80 2678.90
   02:09:25.000.20-May-2020 5070.01 2943.17 68.36 7.00 257.00 2678.90
   02:09:25.200.20-May-2020 5070.01 2942.97 68.36 7.00 257.20 2678.90
   02:09:25.400.20-May-2020 5070.01 2942.40 68.36 7.00 257.40 2678.90
   02:09:25.600.20-May-2020 5070.01 2942.79 68.36 7.00 257.60 2678.90
   02:09:25.800.20-May-2020 5070.01 2942.80 68.36 7.00 257.80 2678.90
   02:09:26.000.20-May-2020 5070.01 2942.63 68.36 7.00 258.00 2678.90
   02:09:26.200.20-May-2020 5070.01 2942.63 68.36 7.00 258.20 2678.90
   02:09:26.400.20-May-2020 5070.01 2942.47 68.36 7.00 258.40 2678.90
   02:09:26.600.20-May-2020 5070.01 2942.53 68.36 7.00 258.60 2678.90
   02:09:26.800.20-May-2020 5070.01 2942.49 68.36 7.00 258.80 2678.90
   02:09:27.000.20-May-2020 5070.01 2942.14 68.36 7.00 259.00 2678.90
   02:09:27.200.20-May-2020 5070.01 2942.14 68.36 7.00 259.20 2678.90
   02:09:27.400.20-May-2020 5070.01 2942.33 68.36 7.00 259.40 2678.90
   02:09:27.600.20-May-2020 5070.01 2942.08 68.36 7.00 259.60 2678.90
   02:09:27.800.20-May-2020 5070.01 2942.17 68.36 7.00 259.80 2678.90
   02:09:28.000.20-May-2020 5070.01 2942.15 68.36 7.00 260.00 2678.90
   02:09:28.200.20-May-2020 5070.01 2942.15 68.36 7.00 260.20 2678.90
   02:09:28.400.20-May-2020 5070.01 2941.80 68.36 7.00 260.40 2678.90
   02:09:28.600.20-May-2020 5070.01 2941.88 68.36 7.00 260.60 2678.90
   02:09:28.800.20-May-2020 5070.01 2942.25 68.36 7.00 260.80 2678.90
   02:09:29.000.20-May-2020 5070.01 2942.40 68.36 7.00 261.00 2678.90
   02:09:29.200.20-May-2020 5070.01 2942.40 68.36 7.00 261.20 2678.90
   02:09:29.400.20-May-2020 5070.01 2941.65 68.36 7.00 261.40 2678.90
   02:09:29.600.20-May-2020 5070.01 2942.28 68.36 7.00 261.60 2678.90
   02:09:29.800.20-May-2020 5070.01 2942.24 68.36 7.00 261.80 2678.90
   02:09:30.000.20-May-2020 5070.01 2941.88 68.36 7.00 262.00 2678.90
   02:09:30.200.20-May-2020 5070.01 2941.47 68.36 7.00 262.20 2678.90
   02:09:30.400.20-May-2020 5070.01 2941.05 68.36 7.00 262.40 2678.90
   02:09:30.600.20-May-2020 5070.01 2941.38 68.36 7.00 262.60 2678.90
   02:09:30.800.20-May-2020 5070.01 2941.66 68.36 7.00 262.80 2678.90
   02:09:31.000.20-May-2020 5070.01 2941.17 68.36 7.00 263.00 2678.90
   02:09:31.200.20-May-2020 5070.01 2941.17 68.36 7.00 263.20 2678.90
   02:09:31.400.20-May-2020 5070.01 2940.71 68.36 7.00 263.40 2678.90
   02:09:31.600.20-May-2020 5070.01 2941.26 68.36 7.00 263.60 2678.90
   02:09:31.800.20-May-2020 5070.01 2941.41 68.36 7.00 263.80 2678.90
   02:09:32.000.20-May-2020 5070.01 2940.77 68.36 7.00 264.00 2678.90
   02:09:32.200.20-May-2020 5070.01 2940.77 68.36 7.00 264.20 2678.90
   02:09:32.400.20-May-2020 5070.01 2939.82 68.36 7.00 264.40 2678.90
   02:09:32.600.20-May-2020 5070.01 2940.52 68.36 7.00 264.60 2678.90
   02:09:32.800.20-May-2020 5070.01 2940.19 68.36 7.00 264.80 2678.90
   02:09:33.000.20-May-2020 5070.01 2939.87 68.36 7.00 265.00 2678.90
   02:09:33.200.20-May-2020 5070.01 2939.87 68.36 7.00 265.20 2678.90
   02:09:33.400.20-May-2020 5070.01 2940.47 68.36 7.00 265.40 2678.90
   02:09:33.600.20-May-2020 5070.01 2940.86 68.36 7.00 265.60 2678.90
   02:09:33.800.20-May-2020 5070.01 2942.64 68.36 7.00 265.80 2678.90
   02:09:34.000.20-May-2020 5070.01 2952.79 68.36 7.00 266.00 2678.90
   02:09:34.200.20-May-2020 5070.01 2948.19 68.36 7.00 266.20 2678.90
   02:09:34.400.20-May-2020 5070.01 2941.54 68.36 7.00 266.40 2678.90
   02:09:34.600.20-May-2020 5070.01 2941.43 68.36 7.00 266.60 2678.90
   02:09:34.800.20-May-2020 5070.01 2940.22 68.36 7.00 266.80 2678.90
   02:09:35.000.20-May-2020 5070.01 2940.09 68.36 7.00 267.00 2678.90
   02:09:35.200.20-May-2020 5070.01 2940.09 68.36 7.00 267.20 2678.90
   02:09:35.400.20-May-2020 5070.01 2939.43 68.36 7.00 267.40 2678.90
   02:09:35.600.20-May-2020 5070.01 2940.17 68.36 7.00 267.60 2678.90
   02:09:35.800.20-May-2020 5070.01 2939.76 68.36 7.00 267.80 2678.90
   02:09:36.000.20-May-2020 5070.01 2939.58 68.36 7.00 268.00 2678.90
   02:09:36.200.20-May-2020 5070.01 2939.58 68.36 7.00 268.20 2678.90
   02:09:36.400.20-May-2020 5070.01 2939.70 68.36 7.00 268.40 2678.90
   02:09:36.600.20-May-2020 5070.01 2939.66 68.36 7.00 268.60 2678.90
   02:09:36.800.20-May-2020 5070.01 2939.05 68.36 7.00 268.80 2678.90
   02:09:37.000.20-May-2020 5070.01 2938.98 68.36 7.00 269.00 2678.90
   02:09:37.200.20-May-2020 5070.01 2938.89 68.36 7.00 269.20 2678.90
   02:09:37.400.20-May-2020 5070.01 2938.95 68.36 7.00 269.40 2678.90
   02:09:37.600.20-May-2020 5070.01 2938.92 68.36 7.00 269.60 2678.90
   02:09:37.800.20-May-2020 5070.01 2938.95 68.36 7.00 269.80 2678.90
   02:09:38.000.20-May-2020 5070.01 2938.91 68.36 7.00 270.00 2678.90
   02:09:38.200.20-May-2020 5070.01 2938.37 68.36 7.00 270.20 2678.90
   02:09:38.400.20-May-2020 5070.01 2937.82 68.36 7.00 270.40 2678.90
   02:09:38.600.20-May-2020 5070.01 2937.68 68.36 7.00 270.60 2678.90
   02:09:38.800.20-May-2020 5070.01 2938.12 68.36 7.00 270.80 2678.90
   02:09:39.000.20-May-2020 5070.01 2938.29 68.36 7.00 271.00 2678.90
   02:09:39.200.20-May-2020 5070.01 2938.29 68.36 7.00 271.20 2678.90
   02:09:39.400.20-May-2020 5070.01 2937.53 68.36 7.00 271.40 2678.90
   02:09:39.600.20-May-2020 5070.01 2938.00 68.36 7.00 271.60 2678.90
   02:09:39.800.20-May-2020 5070.01 2937.92 68.36 7.00 271.80 2678.90
   02:09:40.000.20-May-2020 5070.01 2938.53 68.36 7.00 272.00 2678.90
   02:09:40.200.20-May-2020 5070.01 2938.53 68.36 7.00 272.20 2678.90
   02:09:40.400.20-May-2020 5070.01 2937.06 68.36 7.00 272.40 2678.90
   02:09:40.600.20-May-2020 5070.01 2937.12 68.36 7.00 272.60 2678.90
   02:09:40.800.20-May-2020 5070.01 2952.81 68.36 7.00 272.80 2678.90
   02:09:41.000.20-May-2020 5070.01 2956.09 68.36 7.00 273.00 2678.90
   02:09:41.200.20-May-2020 5070.01 2956.09 68.36 7.00 273.20 2678.90
   02:09:41.400.20-May-2020 5070.01 2956.03 68.36 7.00 273.40 2678.90
   02:09:41.600.20-May-2020 5070.01 2956.06 68.36 7.00 273.60 2678.90
   02:09:41.800.20-May-2020 5070.01 2956.03 68.36 7.00 273.80 2678.90
   02:09:42.000.20-May-2020 5070.01 2956.05 68.36 7.00 274.00 2678.90
   02:09:42.200.20-May-2020 5070.01 2956.05 68.36 7.00 274.20 2678.90
   02:09:42.400.20-May-2020 5070.01 2956.08 68.36 7.00 274.40 2678.90
   02:09:42.600.20-May-2020 5070.01 2956.11 68.36 7.00 274.60 2678.90
   02:09:42.800.20-May-2020 5070.01 2955.95 68.36 7.00 274.80 2678.90
   02:09:43.000.20-May-2020 5070.01 2956.21 68.36 7.00 275.00 2678.90
   02:09:43.200.20-May-2020 5070.01 2956.21 68.36 7.00 275.20 2678.90
   02:09:43.400.20-May-2020 5070.01 2956.12 68.36 7.00 275.40 2678.90
   02:09:43.600.20-May-2020 5070.01 2956.16 68.36 7.00 275.60 2678.90
   02:09:43.800.20-May-2020 5070.01 2956.03 68.36 7.00 275.80 2678.90
