~Version Information
 VERS.                  2.0:   CWLS log ASCII Standard -VERSION 2.0
 WRAP.                   NO:   One line per depth step
~Well Information Block
#MNEM.UNIT     VALUE/NAME     DESCRIPTION
#---------     -----------    ---------------------------
 STRT.S             21:41:59 19-May-20: START TIME 21:41:59 19-May-20
 STOP.S             21:48:44 19-May-20: STOP TIME  21:48:44 19-May-20
 STEP.S                   0.00: STEP TIME
 NULL.                 -999.25: NULL VALUE
 MDS .        Operator Entered:  MAG DATA SOURCE
 PDAT.          Mean Sea Level:  PERMANENT DATUM
 UNIT.                     N/A:  LOGGING EQUIPMENT ID
 DCON.         Sperry Drilling:  DIRECTNL CONTR
 DOE .                     N/A:  DOE NUMBER
 RIG .              East Azeri:  RIG NAME
 JOBN.        AZ-XX-0905856059:  JOB TICKET NUMB
 WELL.                     D36:  WELL NAME
 MWDS.                    Baku:  MWD SHOP
 SRVC.     Turan Drilling & Engineering:  CONTRACTOR
 FLD .                     ACG:  FIELD NAME
 CTRY.              Azerbaijan:  COUNTRY NAME
 PROV.                    Baku:  PROVINCE
 STAT.                    Baku:  STATE NAME
 REGN.                   EESSA:  REGION
 BASE.              Azerbaijan:  LOGGING EQUIPMENT BASE LOCATION
 UWI .                     N/A:  UNIQUE WELL IDENTIFIER
 API .                     N/A:  API NUMBER
 COMP.     BP Exploration (Caspian Sea) Ltd.:  COMPANY
 WTYP.                Deviated:  WELL TYPE
 SON .        AZ-XX-0905856059:  JOB NUMBER
 FTOP.          Formation Tops:  FORM TOPS DESC
 ILTD.               Lithology:  INTERP LTH DESC
 SVYD.                  Survey:  SURVEY DESC
 DMOD.             Drill Model:  DRILL MOD DESC
 HPTY.       Minimum Curvature:  HOLE POS TYPE
 NREF.                    Grid:  NORTH REFERENCE
 SPUD.               25-Feb-20:  SPUD DATE
 DATE.      08.55.28 01-May-20:  END TIME
 STIM.      08.55.28 25-Feb-20:  START TIME
 DMF .             Drill Floor:  DRILL MEAS FROM
 DFST.                        :  DIST FSL TEXT
 DFWT.                        :  DIST FWL TEXT
 CNTY.                        :  COUNTY
 LOC .                        :  LOCATION
 LMF .             Drill Floor:  LOG MEASURED FROM
 VSNS.m                   6.09:  VERT SEC N/S
 VSEW.m                 -10.79:  VERT SEC E/W
 AGAP.m                  43.60:  AIR GAP
 DEP .m                 388.24:  DEPTH
 APD .m                  43.60:  DEPTH ABOVE PD
 WDMS.m                 151.80:  WD ELEV
 EGL .m                   0.00:  GROUND ELEVATION
 EPD .m                   0.00:  ELEVATION
 AZTC.deg                 6.12:  AZM TOTAL CORR
 GRDC.deg                 0.30:  GRID CORRECTION
 MDEC.deg                 6.42:  MAGNETIC DECL
 MDIP.deg                59.42:  MAGNETIC DIP
 MFLD.nT              50256.00:  MAGNETIC FIELD
 GVFD.g                   1.00:  GRAVITY FIELD
 VSDR.deg               159.57:  VERT SEC DIRECT
 TDD .m                5000.01:  TOTAL DEPTH (DRILLER)
 SDEP.m                 397.00:  START DEPTH
 DFSL.m                   0.00:  DISTANCE FSL
 DFWL.m                   0.00:  DISTANCE FWL
 UTMY.m             4431880.20:  UTM Y
 UTMX.m              538763.98:  UTM X
 WHEW.m                 -10.79:  WELL HEAD E/W
 WHNS.m                   6.09:  WELL HEAD N/S
 LONG.deg                51.45:  LONGITUDE
 LATI.deg                40.02:  LATITUDE
 TVDS.m                  43.60:  TVDSS CORRECTN
 EKB .m                  43.60:  KB ELEVATION
 EDF .m                  43.60:  DF ELEVATION
 MAGU.                 1847640:  MAGUTM CHECKSUM
 VSC .                       0:  VS TO CLOSURE
~Parameter Information Block
#MNEM.UNIT       Value        Description
#---------     -----------    ---------------------------
 AV  .mps                 1.30:  Ann Velocity 
 AVMX.mps                 1.90:  Max Ann Veloc 
 AZIF.deg               115.68:  Azm, Final 
 BHAT.                   Other:  BHA Type 
 BROT.°/30m               0.74:  Build Rotating 
 BS  .in                  8.50:  Bit Size 
 BTPL.psig              430.00:  Bit Press Loss 
 CABU.                      No:  Customer Abuse 
 COMM.                     „äS:  Run Comments 1 
 TCS .hr                 51.31:  Time Ciculation Ended 
 CV  .mps                 2.52:  Crit Velocity 
 CVMX.mps                 2.62:  Max Crit Veloc 
 DD1 .          Teymur Aghayev:  Direct Drillr 1 
 DDSV.                   Other:  DD Service 
 DEFF.%                 100.00:  % Det Eff 
 DLRX.°/30m               1.62:  Dogleg Rot Max 
 DLSO.°/30m               0.74:  Dogleg Oriented 
 DLSX.°/30m               1.62:  Dogleg Str Max 
 DRET.      04.30.56 18-May-20:  Drill End Time 
 DRST.      04.30.56 18-May-20:  Drill Start Tim 
 DTIM.hr                  0.00:  Time Drilling 
 EDEP.m                5337.01:  End Depth 
 ENG1.      Artemiy Matviyanov:  Engineer 1 
 ENG2.      Bakhtiyar Jabbarli:  Engineer 2 
 ENG3.           Emil Huseynov:  Engineer 3 
 ETIM.      18.40.00 22-May-20:  End Time 
 FLOI.gpm               550.00:  Flow In 
 FLON.gpm               350.00:  Flow In Min 
 FLOS.cptm                0.00:  Fluid Loss 
 FLOX.gpm               600.00:  Flow In Max 
 HFLO.                      No:  High Flow 
 HPRE.                      No:  High Pressure 
 HTEM.                      No:  High Temp 
 HYDO.m                   1.80:  Hydro Offset 
 IFIN.deg                67.01:  Inc, Final 
 IMAX.deg                67.49:  Inc Max 
 IMIN.deg                66.50:  Inc Min 
 IMND.m                5144.79:  Inc Min Depth 
 IMXD.m                5116.12:  Inc Max Depth 
 JARR.                      No:  Jarring 
 LETM.      17.55.56 20-May-20:  Log End Time 
 LOST.hr                     0:  Lost Rig Time 
 LSTM.      04.30.56 18-May-20:  Log Start Time 
 MDCL.ppm            193153.00:  Mud Chlorides 
 MDES.     Inversion Oil/Synthetic:  Mud Desc 
 DFD .sg                  1.40:  Mud Density 
 MDMN.sg                  1.40:  Dens Mud Min 
 MDMX.sg                  1.41:  Dens Mud Max 
 MOIL.                      68:  Run Mud Oil % 
 MOWR.                   68:32:  Run Mud OWR 
 MSND.                     0.2:  Run Mud Sand % 
 MSOL.                    18.8:  Run Mud Solids% 
 DFV .spqt               80.00:  Mud Viscosity 
 MWOD.in                  6.75:  MWD Tool OD 
 MWSI.                      No:  Serv Intrp, MWD 
 OTIM.hr                104.84:  Time Operating 
 PMAX.psia            10690.93:  Press Op, Max 
 PV  .cP                 26.00:  Mud PV 
 RUN .                     900:  Run Number 
 ROPA.m/hr                0.00:  ROP Avg 
 ROPN.m/hr                0.00:  ROP Min 
 ROPX.m/hr                0.00:  ROP Max 
 RPMA.rpm               140.00:  RPM Surface Avg 
 RPMN.rpm                70.00:  RPM Surface Min 
 RPMX.rpm               140.00:  RPM Surface Max 
 RRUN.                    0900:  Rig Run Number 
 RTIM.hr                 36.00:  Time Reaming 
 SAZI.deg               115.72:  Azm, Start 
 SDEP.m                5337.01:  Start Depth 
 SIDD.                      No:  Serv Intrp, DD 
 SINC.deg                66.92:  Inc, Start 
 SPPA.psig             4400.00:  SPP Avg 
 SPPN.psig             1135.00:  SPP Min 
 SPPX.psig             4581.00:  SPP Max 
 STIM.      04.30.56 18-May-20:  Start Time 
 SVCS.                     MWD:  Services 
 SVER.                    9.20:  Sperry Version 
 TDAT.m                5337.01:  Tot Depth Attmp 
 TDDF.                      No:  Trip for DD 
 TFF .                      No:  Trip for Fail 
 TQAA.f-kp               23.00:  Torque Abs Avg 
 TQAN.f-kp               18.00:  Torque Abs Min 
 TQAX.f-kp               25.00:  Torque Abs Max 
 TRRT.°/30m               0.74:  Turn Rotating 
 MRT .                    HCIM:  Maximum Recorded Temperature 
 TTMX.degC               76.47:  Max Tool Temp 
 WBMN.klb                 0.00:  WOB Min 
 WITN.             Anar Khalil:  Customer Rep 
 WITN.      Kamran Keberlinski:  Customer Rep 2 
 WOBA.klb                 0.00:  WOB Avg 
 WOBX.klb                 0.00:  WOB Max 
 YP  .lhf2               27.00:  Yield Point 
~Curve Information Block
#MNEM.UNIT                 API CODE     Curve Description
#---------               -----------    ---------------------------
 TIME.HHMMSS            00 000 000 000:  GT Time & Date
 GTDEPTH.m              00 000 000 000:  GT Depth
 GTPQH.psia             00 000 000 000:  GT HR Quartz Pressure
 GTTQ.degC              00 000 000 000:  GT Quartz Temperature
 GTTN.NONE              00 000 000 000:  GT Test Number
 GTET.sec               00 000 000 000:  GT Elapsed Test Time
 GTTVD.m                00 000 000 000:  GT True Vertical Depth
#Other Information
#
#WARRANTY: Halliburton will use its best efforts to furnish customers with 
#accurate information and interpretations that are part of, and incident to, the services 
#provided.  However, Halliburton cannot and does not warrant the accuracy 
#or correctness of such information and interpretations.  Under no circumstances should any 
#such information or interpretation be relied upon as the sole basis for any drilling, 
#completion, production, or financial decision or any procedure involving any risk to the 
#safety of any drilling venture, drilling rig or its crew or any other third party.  The 
#Customer has full responsibility for all drilling, completion and production operation.  
#Halliburton makes no representations or warranties, either expressed or 
#implied, including, but not limited to, the implied warranties of merchantability or fitness 
#for a particular purpose, with respect to the services rendered.  In no event will 
#Halliburton be liable for failure to obtain any particular results or for 
#any damages, including, but not limited to, indirect, special or consequential damages, 
#resulting from the use of any information or interpretation provided by Halliburton.
#
~A           TIME           GTDEPTH  GTPQH  GTTQ  GTTN  GTET   GTTVD  
# ...
   21:43:54.395.19-May-2020 5137.01 3898.93 67.52 3.00 115.03 2705.05
   21:43:54.595.19-May-2020 5137.01 3898.93 67.52 3.00 115.23 2705.05
   21:43:54.795.19-May-2020 5137.01 3903.21 67.52 3.00 115.43 2705.05
   21:43:54.995.19-May-2020 5137.01 3905.29 67.52 3.00 115.63 2705.05
   21:43:55.195.19-May-2020 5137.01 3907.42 67.52 3.00 115.83 2705.05
   21:43:55.395.19-May-2020 5137.01 3909.44 67.52 3.00 116.03 2705.05
   21:43:55.595.19-May-2020 5137.01 3909.44 67.52 3.00 116.23 2705.05
   21:43:55.795.19-May-2020 5137.01 3913.52 67.52 3.00 116.43 2705.05
   21:43:55.995.19-May-2020 5137.01 3915.55 67.52 3.00 116.63 2705.05
   21:43:56.195.19-May-2020 5137.01 3916.69 67.52 3.00 116.83 2705.05
   21:43:56.395.19-May-2020 5137.01 3919.53 67.52 3.00 117.03 2705.05
   21:43:56.595.19-May-2020 5137.01 3919.53 67.52 3.00 117.23 2705.05
   21:43:56.795.19-May-2020 5137.01 3923.29 67.52 3.00 117.43 2705.05
   21:43:56.995.19-May-2020 5137.01 3924.48 67.52 3.00 117.63 2705.05
   21:43:57.195.19-May-2020 5137.01 3927.37 67.52 3.00 117.83 2705.05
   21:43:57.395.19-May-2020 5137.01 3929.07 67.52 3.00 118.03 2705.05
   21:43:57.595.19-May-2020 5137.01 3929.07 67.52 3.00 118.23 2705.05
   21:43:57.796.19-May-2020 5137.01 3932.95 67.52 3.00 118.43 2705.05
   21:43:57.996.19-May-2020 5137.01 3934.79 67.52 3.00 118.63 2705.05
   21:43:58.196.19-May-2020 5137.01 3936.22 67.52 3.00 118.83 2705.05
   21:43:58.396.19-May-2020 5137.01 3938.30 67.52 3.00 119.03 2705.05
   21:43:58.596.19-May-2020 5137.01 3940.34 67.52 3.00 119.23 2705.05
   21:43:58.796.19-May-2020 5137.01 3942.17 67.52 3.00 119.43 2705.05
   21:43:58.996.19-May-2020 5137.01 3944.08 67.52 3.00 119.63 2705.05
   21:43:59.196.19-May-2020 5137.01 3945.84 67.52 3.00 119.83 2705.05
   21:43:59.396.19-May-2020 5137.01 3946.93 67.52 3.00 120.03 2705.05
   21:43:59.596.19-May-2020 5137.01 3946.93 67.52 3.00 120.23 2705.05
   21:43:59.796.19-May-2020 5137.01 3951.18 67.52 3.00 120.43 2705.05
   21:43:59.996.19-May-2020 5137.01 3952.97 67.52 3.00 120.63 2705.05
   21:44:00.196.19-May-2020 5137.01 3953.93 67.52 3.00 120.83 2705.05
   21:44:00.396.19-May-2020 5137.01 3956.59 67.52 3.00 121.03 2705.05
   21:44:00.596.19-May-2020 5137.01 3958.14 67.52 3.00 121.23 2705.05
   21:44:00.796.19-May-2020 5137.01 3959.85 67.52 3.00 121.43 2705.05
   21:44:00.996.19-May-2020 5137.01 3961.68 67.52 3.00 121.63 2705.05
   21:44:01.196.19-May-2020 5137.01 3963.31 67.52 3.00 121.83 2705.05
   21:44:01.396.19-May-2020 5137.01 3964.99 67.52 3.00 122.03 2705.05
   21:44:01.596.19-May-2020 5137.01 3964.99 67.52 3.00 122.23 2705.05
   21:44:01.797.19-May-2020 5137.01 3968.36 67.52 3.00 122.43 2705.05
   21:44:01.997.19-May-2020 5137.01 3970.04 67.52 3.00 122.63 2705.05
   21:44:02.197.19-May-2020 5137.01 3971.66 67.52 3.00 122.83 2705.05
   21:44:02.397.19-May-2020 5137.01 3973.25 67.52 3.00 123.03 2705.05
   21:44:02.597.19-May-2020 5137.01 3974.97 67.52 3.00 123.23 2705.05
   21:44:02.797.19-May-2020 5137.01 3976.58 67.52 3.00 123.43 2705.05
   21:44:02.997.19-May-2020 5137.01 3978.18 67.52 3.00 123.63 2705.05
   21:44:03.197.19-May-2020 5137.01 3979.32 67.52 3.00 123.83 2705.05
   21:44:03.397.19-May-2020 5137.01 3981.07 67.52 3.00 124.03 2705.05
   21:44:03.597.19-May-2020 5137.01 3982.79 67.52 3.00 124.23 2705.05
   21:44:03.797.19-May-2020 5137.01 3984.37 67.52 3.00 124.43 2705.05
   21:44:03.997.19-May-2020 5137.01 3985.93 67.52 3.00 124.63 2705.05
   21:44:04.197.19-May-2020 5137.01 3986.74 67.52 3.00 124.83 2705.05
   21:44:04.397.19-May-2020 5137.01 3988.96 67.52 3.00 125.03 2705.05
   21:44:04.597.19-May-2020 5137.01 3988.96 67.52 3.00 125.23 2705.05
   21:44:04.797.19-May-2020 5137.01 3991.25 67.52 3.00 125.43 2705.05
   21:44:04.997.19-May-2020 5137.01 3993.52 67.52 3.00 125.63 2705.05
   21:44:05.197.19-May-2020 5137.01 3994.99 67.52 3.00 125.83 2705.05
   21:44:05.397.19-May-2020 5137.01 3996.46 67.52 3.00 126.03 2705.05
   21:44:05.597.19-May-2020 5137.01 3996.46 67.52 3.00 126.23 2705.05
   21:44:05.798.19-May-2020 5137.01 3999.45 67.52 3.00 126.43 2705.05
   21:44:05.998.19-May-2020 5137.01 4000.11 67.52 3.00 126.63 2705.05
   21:44:06.198.19-May-2020 5137.01 4002.51 67.52 3.00 126.83 2705.05
   21:44:06.398.19-May-2020 5137.01 4003.78 67.52 3.00 127.03 2705.05
   21:44:06.598.19-May-2020 5137.01 4003.78 67.52 3.00 127.23 2705.05
   21:44:06.798.19-May-2020 5137.01 4006.24 67.52 3.00 127.43 2705.05
   21:44:06.998.19-May-2020 5137.01 4007.90 67.52 3.00 127.63 2705.05
   21:44:07.198.19-May-2020 5137.01 4009.52 67.52 3.00 127.83 2705.05
   21:44:07.398.19-May-2020 5137.01 4010.91 67.52 3.00 128.03 2705.05
   21:44:07.598.19-May-2020 5137.01 4010.91 67.52 3.00 128.23 2705.05
   21:44:07.798.19-May-2020 5137.01 4013.66 67.52 3.00 128.43 2705.05
   21:44:07.998.19-May-2020 5137.01 4015.09 67.52 3.00 128.63 2705.05
   21:44:08.198.19-May-2020 5137.01 4016.46 67.52 3.00 128.83 2705.05
   21:44:08.398.19-May-2020 5137.01 4017.78 67.52 3.00 129.03 2705.05
   21:44:08.598.19-May-2020 5137.01 4017.78 67.52 3.00 129.23 2705.05
   21:44:08.798.19-May-2020 5137.01 4020.48 67.52 3.00 129.43 2705.05
   21:44:08.998.19-May-2020 5137.01 4021.86 67.52 3.00 129.63 2705.05
   21:44:09.198.19-May-2020 5137.01 4023.22 67.52 3.00 129.83 2705.05
   21:44:09.398.19-May-2020 5137.01 4024.47 67.52 3.00 130.03 2705.05
   21:44:09.598.19-May-2020 5137.01 4024.47 67.52 3.00 130.23 2705.05
   21:44:09.799.19-May-2020 5137.01 4027.14 67.52 3.00 130.43 2705.05
   21:44:09.999.19-May-2020 5137.01 4027.75 67.52 3.00 130.63 2705.05
   21:44:10.199.19-May-2020 5137.01 4029.68 67.52 3.00 130.83 2705.05
   21:44:10.399.19-May-2020 5137.01 4030.92 67.52 3.00 131.03 2705.05
   21:44:10.599.19-May-2020 5137.01 4030.92 67.52 3.00 131.23 2705.05
   21:44:10.799.19-May-2020 5137.01 4032.64 67.52 3.00 131.43 2705.05
   21:44:10.999.19-May-2020 5137.01 4034.86 67.52 3.00 131.63 2705.05
   21:44:11.199.19-May-2020 5137.01 4035.97 67.52 3.00 131.83 2705.05
   21:44:11.399.19-May-2020 5137.01 4037.18 67.52 3.00 132.03 2705.05
   21:44:11.599.19-May-2020 5137.01 4037.18 67.52 3.00 132.23 2705.05
   21:44:11.799.19-May-2020 5137.01 4039.04 67.52 3.00 132.43 2705.05
   21:44:11.999.19-May-2020 5137.01 4040.89 67.52 3.00 132.63 2705.05
   21:44:12.199.19-May-2020 5137.01 4042.10 67.52 3.00 132.83 2705.05
   21:44:12.399.19-May-2020 5137.01 4043.32 67.52 3.00 133.03 2705.05
   21:44:12.599.19-May-2020 5137.01 4043.32 67.52 3.00 133.23 2705.05
   21:44:12.799.19-May-2020 5137.01 4045.71 67.52 3.00 133.43 2705.05
   21:44:12.999.19-May-2020 5137.01 4046.19 67.52 3.00 133.63 2705.05
   21:44:13.199.19-May-2020 5137.01 4048.22 67.52 3.00 133.83 2705.05
   21:44:13.399.19-May-2020 5137.01 4049.22 67.52 3.00 134.03 2705.05
   21:44:13.599.19-May-2020 5137.01 4049.22 67.52 3.00 134.23 2705.05
   21:44:13.800.19-May-2020 5137.01 4051.61 67.52 3.00 134.43 2705.05
   21:44:14.000.19-May-2020 5137.01 4052.08 67.52 3.00 134.63 2705.05
   21:44:14.200.19-May-2020 5137.01 4053.95 67.52 3.00 134.83 2705.05
   21:44:14.400.19-May-2020 5137.01 4055.04 67.52 3.00 135.03 2705.05
   21:44:14.600.19-May-2020 5137.01 4055.04 67.52 3.00 135.23 2705.05
   21:44:14.800.19-May-2020 5137.01 4057.30 67.52 3.00 135.43 2705.05
   21:44:15.000.19-May-2020 5137.01 4058.48 67.52 3.00 135.63 2705.05
   21:44:15.200.19-May-2020 5137.01 4059.59 67.52 3.00 135.83 2705.05
   21:44:15.400.19-May-2020 5137.01 4060.70 67.52 3.00 136.03 2705.05
   21:44:15.600.19-May-2020 5137.01 4060.70 67.52 3.00 136.23 2705.05
   21:44:15.800.19-May-2020 5137.01 4062.94 67.52 3.00 136.43 2705.05
   21:44:16.000.19-May-2020 5137.01 4064.00 67.52 3.00 136.63 2705.05
   21:44:16.200.19-May-2020 5137.01 4065.09 67.52 3.00 136.83 2705.05
   21:44:16.400.19-May-2020 5137.01 4066.22 67.52 3.00 137.03 2705.05
   21:44:16.600.19-May-2020 5137.01 4066.22 67.52 3.00 137.23 2705.05
   21:44:16.800.19-May-2020 5137.01 4068.35 67.52 3.00 137.43 2705.05
   21:44:17.000.19-May-2020 5137.01 4069.45 67.52 3.00 137.63 2705.05
   21:44:17.200.19-May-2020 5137.01 4069.82 67.52 3.00 137.83 2705.05
