~Version Information
 VERS.                  2.0:   CWLS log ASCII Standard -VERSION 2.0
 WRAP.                   NO:   One line per depth step
~Well Information Block
#MNEM.UNIT     VALUE/NAME     DESCRIPTION
#---------     -----------    ---------------------------
 STRT.S             00:06:39 20-May-20: START TIME 00:06:39 20-May-20
 STOP.S             00:17:12 20-May-20: STOP TIME  00:17:12 20-May-20
 STEP.S                   0.00: STEP TIME
 NULL.                 -999.25: NULL VALUE
 MDS .        Operator Entered:  MAG DATA SOURCE
 PDAT.          Mean Sea Level:  PERMANENT DATUM
 UNIT.                     N/A:  LOGGING EQUIPMENT ID
 DCON.         Sperry Drilling:  DIRECTNL CONTR
 DOE .                     N/A:  DOE NUMBER
 RIG .              East Azeri:  RIG NAME
 JOBN.        AZ-XX-0905856059:  JOB TICKET NUMB
 WELL.                     D36:  WELL NAME
 MWDS.                    Baku:  MWD SHOP
 SRVC.     Turan Drilling & Engineering:  CONTRACTOR
 FLD .                     ACG:  FIELD NAME
 CTRY.              Azerbaijan:  COUNTRY NAME
 PROV.                    Baku:  PROVINCE
 STAT.                    Baku:  STATE NAME
 REGN.                   EESSA:  REGION
 BASE.              Azerbaijan:  LOGGING EQUIPMENT BASE LOCATION
 UWI .                     N/A:  UNIQUE WELL IDENTIFIER
 API .                     N/A:  API NUMBER
 COMP.     BP Exploration (Caspian Sea) Ltd.:  COMPANY
 WTYP.                Deviated:  WELL TYPE
 SON .        AZ-XX-0905856059:  JOB NUMBER
 FTOP.          Formation Tops:  FORM TOPS DESC
 ILTD.               Lithology:  INTERP LTH DESC
 SVYD.                  Survey:  SURVEY DESC
 DMOD.             Drill Model:  DRILL MOD DESC
 HPTY.       Minimum Curvature:  HOLE POS TYPE
 NREF.                    Grid:  NORTH REFERENCE
 SPUD.               25-Feb-20:  SPUD DATE
 DATE.      08.55.28 01-May-20:  END TIME
 STIM.      08.55.28 25-Feb-20:  START TIME
 DMF .             Drill Floor:  DRILL MEAS FROM
 DFST.                        :  DIST FSL TEXT
 DFWT.                        :  DIST FWL TEXT
 CNTY.                        :  COUNTY
 LOC .                        :  LOCATION
 LMF .             Drill Floor:  LOG MEASURED FROM
 VSNS.m                   6.09:  VERT SEC N/S
 VSEW.m                 -10.79:  VERT SEC E/W
 AGAP.m                  43.60:  AIR GAP
 DEP .m                 388.24:  DEPTH
 APD .m                  43.60:  DEPTH ABOVE PD
 WDMS.m                 151.80:  WD ELEV
 EGL .m                   0.00:  GROUND ELEVATION
 EPD .m                   0.00:  ELEVATION
 AZTC.deg                 6.12:  AZM TOTAL CORR
 GRDC.deg                 0.30:  GRID CORRECTION
 MDEC.deg                 6.42:  MAGNETIC DECL
 MDIP.deg                59.42:  MAGNETIC DIP
 MFLD.nT              50256.00:  MAGNETIC FIELD
 GVFD.g                   1.00:  GRAVITY FIELD
 VSDR.deg               159.57:  VERT SEC DIRECT
 TDD .m                5000.01:  TOTAL DEPTH (DRILLER)
 SDEP.m                 397.00:  START DEPTH
 DFSL.m                   0.00:  DISTANCE FSL
 DFWL.m                   0.00:  DISTANCE FWL
 UTMY.m             4431880.20:  UTM Y
 UTMX.m              538763.98:  UTM X
 WHEW.m                 -10.79:  WELL HEAD E/W
 WHNS.m                   6.09:  WELL HEAD N/S
 LONG.deg                51.45:  LONGITUDE
 LATI.deg                40.02:  LATITUDE
 TVDS.m                  43.60:  TVDSS CORRECTN
 EKB .m                  43.60:  KB ELEVATION
 EDF .m                  43.60:  DF ELEVATION
 MAGU.                 1847640:  MAGUTM CHECKSUM
 VSC .                       0:  VS TO CLOSURE
~Parameter Information Block
#MNEM.UNIT       Value        Description
#---------     -----------    ---------------------------
 AV  .mps                 1.30:  Ann Velocity 
 AVMX.mps                 1.90:  Max Ann Veloc 
 AZIF.deg               115.68:  Azm, Final 
 BHAT.                   Other:  BHA Type 
 BROT.°/30m               0.74:  Build Rotating 
 BS  .in                  8.50:  Bit Size 
 BTPL.psig              430.00:  Bit Press Loss 
 CABU.                      No:  Customer Abuse 
 COMM.                     \õd:  Run Comments 1 
 TCS .hr                 51.31:  Time Ciculation Ended 
 CV  .mps                 2.52:  Crit Velocity 
 CVMX.mps                 2.62:  Max Crit Veloc 
 DD1 .          Teymur Aghayev:  Direct Drillr 1 
 DDSV.                   Other:  DD Service 
 DEFF.%                 100.00:  % Det Eff 
 DLRX.°/30m               1.62:  Dogleg Rot Max 
 DLSO.°/30m               0.74:  Dogleg Oriented 
 DLSX.°/30m               1.62:  Dogleg Str Max 
 DRET.      04.30.56 18-May-20:  Drill End Time 
 DRST.      04.30.56 18-May-20:  Drill Start Tim 
 DTIM.hr                  0.00:  Time Drilling 
 EDEP.m                5337.01:  End Depth 
 ENG1.      Artemiy Matviyanov:  Engineer 1 
 ENG2.      Bakhtiyar Jabbarli:  Engineer 2 
 ENG3.           Emil Huseynov:  Engineer 3 
 ETIM.      18.40.00 22-May-20:  End Time 
 FLOI.gpm               550.00:  Flow In 
 FLON.gpm               350.00:  Flow In Min 
 FLOS.cptm                0.00:  Fluid Loss 
 FLOX.gpm               600.00:  Flow In Max 
 HFLO.                      No:  High Flow 
 HPRE.                      No:  High Pressure 
 HTEM.                      No:  High Temp 
 HYDO.m                   1.80:  Hydro Offset 
 IFIN.deg                67.01:  Inc, Final 
 IMAX.deg                67.49:  Inc Max 
 IMIN.deg                66.50:  Inc Min 
 IMND.m                5144.79:  Inc Min Depth 
 IMXD.m                5116.12:  Inc Max Depth 
 JARR.                      No:  Jarring 
 LETM.      17.55.56 20-May-20:  Log End Time 
 LOST.hr                     0:  Lost Rig Time 
 LSTM.      04.30.56 18-May-20:  Log Start Time 
 MDCL.ppm            193153.00:  Mud Chlorides 
 MDES.     Inversion Oil/Synthetic:  Mud Desc 
 DFD .sg                  1.40:  Mud Density 
 MDMN.sg                  1.40:  Dens Mud Min 
 MDMX.sg                  1.41:  Dens Mud Max 
 MOIL.                      68:  Run Mud Oil % 
 MOWR.                   68:32:  Run Mud OWR 
 MSND.                     0.2:  Run Mud Sand % 
 MSOL.                    18.8:  Run Mud Solids% 
 DFV .spqt               80.00:  Mud Viscosity 
 MWOD.in                  6.75:  MWD Tool OD 
 MWSI.                      No:  Serv Intrp, MWD 
 OTIM.hr                104.84:  Time Operating 
 PMAX.psia            10690.93:  Press Op, Max 
 PV  .cP                 26.00:  Mud PV 
 RUN .                     900:  Run Number 
 ROPA.m/hr                0.00:  ROP Avg 
 ROPN.m/hr                0.00:  ROP Min 
 ROPX.m/hr                0.00:  ROP Max 
 RPMA.rpm               140.00:  RPM Surface Avg 
 RPMN.rpm                70.00:  RPM Surface Min 
 RPMX.rpm               140.00:  RPM Surface Max 
 RRUN.                    0900:  Rig Run Number 
 RTIM.hr                 36.00:  Time Reaming 
 SAZI.deg               115.72:  Azm, Start 
 SDEP.m                5337.01:  Start Depth 
 SIDD.                      No:  Serv Intrp, DD 
 SINC.deg                66.92:  Inc, Start 
 SPPA.psig             4400.00:  SPP Avg 
 SPPN.psig             1135.00:  SPP Min 
 SPPX.psig             4581.00:  SPP Max 
 STIM.      04.30.56 18-May-20:  Start Time 
 SVCS.                     MWD:  Services 
 SVER.                    9.20:  Sperry Version 
 TDAT.m                5337.01:  Tot Depth Attmp 
 TDDF.                      No:  Trip for DD 
 TFF .                      No:  Trip for Fail 
 TQAA.f-kp               23.00:  Torque Abs Avg 
 TQAN.f-kp               18.00:  Torque Abs Min 
 TQAX.f-kp               25.00:  Torque Abs Max 
 TRRT.°/30m               0.74:  Turn Rotating 
 MRT .                    HCIM:  Maximum Recorded Temperature 
 TTMX.degC               76.47:  Max Tool Temp 
 WBMN.klb                 0.00:  WOB Min 
 WITN.             Anar Khalil:  Customer Rep 
 WITN.      Kamran Keberlinski:  Customer Rep 2 
 WOBA.klb                 0.00:  WOB Avg 
 WOBX.klb                 0.00:  WOB Max 
 YP  .lhf2               27.00:  Yield Point 
~Curve Information Block
#MNEM.UNIT                 API CODE     Curve Description
#---------               -----------    ---------------------------
 TIME.HHMMSS            00 000 000 000:  GT Time & Date
 GTDEPTH.m              00 000 000 000:  GT Depth
 GTPQH.psia             00 000 000 000:  GT HR Quartz Pressure
 GTTQ.degC              00 000 000 000:  GT Quartz Temperature
 GTTN.NONE              00 000 000 000:  GT Test Number
 GTET.sec               00 000 000 000:  GT Elapsed Test Time
 GTTVD.m                00 000 000 000:  GT True Vertical Depth
#Other Information
#
#WARRANTY: Halliburton will use its best efforts to furnish customers with 
#accurate information and interpretations that are part of, and incident to, the services 
#provided.  However, Halliburton cannot and does not warrant the accuracy 
#or correctness of such information and interpretations.  Under no circumstances should any 
#such information or interpretation be relied upon as the sole basis for any drilling, 
#completion, production, or financial decision or any procedure involving any risk to the 
#safety of any drilling venture, drilling rig or its crew or any other third party.  The 
#Customer has full responsibility for all drilling, completion and production operation.  
#Halliburton makes no representations or warranties, either expressed or 
#implied, including, but not limited to, the implied warranties of merchantability or fitness 
#for a particular purpose, with respect to the services rendered.  In no event will 
#Halliburton be liable for failure to obtain any particular results or for 
#any damages, including, but not limited to, indirect, special or consequential damages, 
#resulting from the use of any information or interpretation provided by Halliburton.
#
~A           TIME           GTDEPTH  GTPQH  GTTQ  GTTN  GTET   GTTVD  
# ...
   00:08:11.553.20-May-2020 5121.01 3572.69 67.84 6.00  92.02 2698.81
   00:08:11.753.20-May-2020 5121.01 3572.69 67.84 6.00  92.22 2698.81
   00:08:11.953.20-May-2020 5121.01 3572.71 67.84 6.00  92.42 2698.81
   00:08:12.153.20-May-2020 5121.01 3572.74 67.84 6.00  92.62 2698.81
   00:08:12.353.20-May-2020 5121.01 3572.58 67.84 6.00  92.82 2698.81
   00:08:12.553.20-May-2020 5121.01 3572.76 67.84 6.00  93.02 2698.81
   00:08:12.753.20-May-2020 5121.01 3572.76 67.84 6.00  93.22 2698.81
   00:08:12.953.20-May-2020 5121.01 3572.78 67.84 6.00  93.42 2698.81
   00:08:13.153.20-May-2020 5121.01 3572.71 67.84 6.00  93.62 2698.81
   00:08:13.353.20-May-2020 5121.01 3572.73 67.84 6.00  93.82 2698.81
   00:08:13.553.20-May-2020 5121.01 3572.72 67.84 6.00  94.02 2698.81
   00:08:13.753.20-May-2020 5121.01 3572.76 67.84 6.00  94.22 2698.81
   00:08:13.953.20-May-2020 5121.01 3572.76 67.84 6.00  94.42 2698.81
   00:08:14.153.20-May-2020 5121.01 3572.78 67.84 6.00  94.62 2698.81
   00:08:14.353.20-May-2020 5121.01 3572.78 67.84 6.00  94.82 2698.81
   00:08:14.553.20-May-2020 5121.01 3572.82 67.84 6.00  95.02 2698.81
   00:08:14.753.20-May-2020 5121.01 3572.82 67.84 6.00  95.22 2698.81
   00:08:14.953.20-May-2020 5121.01 3572.81 67.84 6.00  95.42 2698.81
   00:08:15.154.20-May-2020 5121.01 3572.82 67.84 6.00  95.62 2698.81
   00:08:15.354.20-May-2020 5121.01 3572.83 67.84 6.00  95.82 2698.81
   00:08:15.554.20-May-2020 5121.01 3572.83 67.84 6.00  96.02 2698.81
   00:08:15.754.20-May-2020 5121.01 3572.83 67.84 6.00  96.22 2698.81
   00:08:15.954.20-May-2020 5121.01 3572.83 67.84 6.00  96.42 2698.81
   00:08:16.154.20-May-2020 5121.01 3572.75 67.84 6.00  96.62 2698.81
   00:08:16.354.20-May-2020 5121.01 3572.79 67.84 6.00  96.82 2698.81
   00:08:16.554.20-May-2020 5121.01 3572.81 67.84 6.00  97.02 2698.81
   00:08:16.754.20-May-2020 5121.01 3572.81 67.84 6.00  97.22 2698.81
   00:08:16.954.20-May-2020 5121.01 3572.67 67.84 6.00  97.42 2698.81
   00:08:17.154.20-May-2020 5121.01 3572.87 67.84 6.00  97.62 2698.81
   00:08:17.354.20-May-2020 5121.01 3572.76 67.84 6.00  97.82 2698.81
   00:08:17.554.20-May-2020 5121.01 3572.86 67.84 6.00  98.02 2698.81
   00:08:17.754.20-May-2020 5121.01 3572.79 67.84 6.00  98.22 2698.81
   00:08:17.954.20-May-2020 5121.01 3572.85 67.84 6.00  98.42 2698.81
   00:08:18.154.20-May-2020 5121.01 3572.77 67.84 6.00  98.62 2698.81
   00:08:18.354.20-May-2020 5121.01 3572.80 67.84 6.00  98.82 2698.81
   00:08:18.554.20-May-2020 5121.01 3572.83 67.84 6.00  99.02 2698.81
   00:08:18.754.20-May-2020 5121.01 3572.83 67.84 6.00  99.22 2698.81
   00:08:18.954.20-May-2020 5121.01 3572.81 67.84 6.00  99.42 2698.81
   00:08:19.155.20-May-2020 5121.01 3572.70 67.84 6.00  99.62 2698.81
   00:08:19.355.20-May-2020 5121.01 3572.97 67.84 6.00  99.82 2698.81
   00:08:19.555.20-May-2020 5121.01 3572.82 67.84 6.00 100.02 2698.81
   00:08:19.755.20-May-2020 5121.01 3572.82 67.84 6.00 100.22 2698.81
   00:08:19.955.20-May-2020 5121.01 3572.84 67.84 6.00 100.43 2698.81
   00:08:20.155.20-May-2020 5121.01 3572.84 67.84 6.00 100.63 2698.81
   00:08:20.355.20-May-2020 5121.01 3572.78 67.84 6.00 100.83 2698.81
   00:08:20.555.20-May-2020 5121.01 3572.84 67.84 6.00 101.03 2698.81
   00:08:20.755.20-May-2020 5121.01 3572.84 67.84 6.00 101.23 2698.81
   00:08:20.955.20-May-2020 5121.01 3572.87 67.84 6.00 101.43 2698.81
   00:08:21.155.20-May-2020 5121.01 3572.83 67.84 6.00 101.63 2698.81
   00:08:21.355.20-May-2020 5121.01 3572.84 67.84 6.00 101.83 2698.81
   00:08:21.555.20-May-2020 5121.01 3572.88 67.84 6.00 102.03 2698.81
   00:08:21.755.20-May-2020 5121.01 3572.88 67.84 6.00 102.23 2698.81
   00:08:21.955.20-May-2020 5121.01 3572.86 67.84 6.00 102.43 2698.81
   00:08:22.155.20-May-2020 5121.01 3572.87 67.84 6.00 102.63 2698.81
   00:08:22.355.20-May-2020 5121.01 3572.87 67.84 6.00 102.83 2698.81
   00:08:22.555.20-May-2020 5121.01 3572.88 67.84 6.00 103.03 2698.81
   00:08:22.755.20-May-2020 5121.01 3572.88 67.84 6.00 103.23 2698.81
   00:08:22.955.20-May-2020 5121.01 3572.87 67.84 6.00 103.43 2698.81
   00:08:23.156.20-May-2020 5121.01 3572.87 67.84 6.00 103.63 2698.81
   00:08:23.356.20-May-2020 5121.01 3572.77 67.84 6.00 103.83 2698.81
   00:08:23.556.20-May-2020 5121.01 3572.86 67.84 6.00 104.03 2698.81
   00:08:23.756.20-May-2020 5121.01 3572.86 67.84 6.00 104.23 2698.81
   00:08:23.956.20-May-2020 5121.01 3572.92 67.84 6.00 104.43 2698.81
   00:08:24.156.20-May-2020 5121.01 3572.72 67.84 6.00 104.63 2698.81
   00:08:24.356.20-May-2020 5121.01 3572.90 67.84 6.00 104.83 2698.81
   00:08:24.556.20-May-2020 5121.01 3572.83 67.84 6.00 105.03 2698.81
   00:08:24.756.20-May-2020 5121.01 3572.83 67.84 6.00 105.23 2698.81
   00:08:24.956.20-May-2020 5121.01 3572.83 67.84 6.00 105.43 2698.81
   00:08:25.156.20-May-2020 5121.01 3572.88 67.84 6.00 105.63 2698.81
   00:08:25.356.20-May-2020 5121.01 3572.74 67.84 6.00 105.83 2698.81
   00:08:25.556.20-May-2020 5121.01 3572.90 67.84 6.00 106.03 2698.81
   00:08:25.756.20-May-2020 5121.01 3572.80 67.84 6.00 106.23 2698.81
   00:08:25.956.20-May-2020 5121.01 3572.90 67.84 6.00 106.43 2698.81
   00:08:26.156.20-May-2020 5121.01 3572.82 67.84 6.00 106.63 2698.81
   00:08:26.356.20-May-2020 5121.01 3572.70 67.84 6.00 106.83 2698.81
   00:08:26.556.20-May-2020 5121.01 3573.02 67.84 6.00 107.03 2698.81
   00:08:26.756.20-May-2020 5121.01 3572.82 67.84 6.00 107.23 2698.81
   00:08:26.956.20-May-2020 5121.01 3572.85 67.84 6.00 107.43 2698.81
   00:08:27.157.20-May-2020 5121.01 3572.84 67.84 6.00 107.63 2698.81
   00:08:27.357.20-May-2020 5121.01 3572.86 67.84 6.00 107.83 2698.81
   00:08:27.557.20-May-2020 5121.01 3572.73 67.84 6.00 108.03 2698.81
   00:08:27.757.20-May-2020 5121.01 3572.73 67.84 6.00 108.23 2698.81
   00:08:27.957.20-May-2020 5121.01 3572.85 67.84 6.00 108.43 2698.81
   00:08:28.157.20-May-2020 5121.01 3572.85 67.84 6.00 108.63 2698.81
   00:08:28.357.20-May-2020 5121.01 3572.85 67.84 6.00 108.83 2698.81
   00:08:28.557.20-May-2020 5121.01 3572.88 67.84 6.00 109.03 2698.81
   00:08:28.757.20-May-2020 5121.01 3572.88 67.84 6.00 109.23 2698.81
   00:08:28.957.20-May-2020 5121.01 3572.89 67.84 6.00 109.43 2698.81
   00:08:29.157.20-May-2020 5121.01 3572.88 67.84 6.00 109.63 2698.81
   00:08:29.357.20-May-2020 5121.01 3572.89 67.84 6.00 109.83 2698.81
   00:08:29.557.20-May-2020 5121.01 3572.90 67.84 6.00 110.03 2698.81
   00:08:29.757.20-May-2020 5121.01 3572.90 67.84 6.00 110.23 2698.81
   00:08:29.957.20-May-2020 5121.01 3572.91 67.84 6.00 110.43 2698.81
   00:08:30.157.20-May-2020 5121.01 3572.90 67.84 6.00 110.63 2698.81
   00:08:30.357.20-May-2020 5121.01 3572.91 67.84 6.00 110.83 2698.81
   00:08:30.557.20-May-2020 5121.01 3572.93 67.84 6.00 111.03 2698.81
   00:08:30.757.20-May-2020 5121.01 3572.87 67.84 6.00 111.23 2698.81
   00:08:30.957.20-May-2020 5121.01 3572.87 67.84 6.00 111.43 2698.81
   00:08:31.158.20-May-2020 5121.01 3572.86 67.84 6.00 111.63 2698.81
   00:08:31.358.20-May-2020 5121.01 3572.82 67.84 6.00 111.83 2698.81
   00:08:31.558.20-May-2020 5121.01 3572.93 67.84 6.00 112.03 2698.81
   00:08:31.758.20-May-2020 5121.01 3572.93 67.84 6.00 112.23 2698.81
   00:08:31.958.20-May-2020 5121.01 3572.88 67.84 6.00 112.43 2698.81
   00:08:32.158.20-May-2020 5121.01 3572.85 67.84 6.00 112.63 2698.81
   00:08:32.358.20-May-2020 5121.01 3572.88 67.84 6.00 112.83 2698.81
   00:08:32.558.20-May-2020 5121.01 3572.87 67.85 6.00 113.03 2698.81
   00:08:32.758.20-May-2020 5121.01 3572.88 67.85 6.00 113.23 2698.81
   00:08:32.958.20-May-2020 5121.01 3572.81 67.85 6.00 113.43 2698.81
   00:08:33.158.20-May-2020 5121.01 3572.85 67.85 6.00 113.63 2698.81
   00:08:33.358.20-May-2020 5121.01 3572.85 67.85 6.00 113.83 2698.81
   00:08:33.558.20-May-2020 5121.01 3572.90 67.85 6.00 114.03 2698.81
   00:08:33.758.20-May-2020 5121.01 3572.83 67.85 6.00 114.23 2698.81
   00:08:33.958.20-May-2020 5121.01 3572.85 67.85 6.00 114.43 2698.81
   00:08:34.158.20-May-2020 5121.01 3572.87 67.85 6.00 114.63 2698.81
   00:08:34.358.20-May-2020 5121.01 3572.87 67.85 6.00 114.83 2698.81
