~Version Information
 VERS.                  2.0:   CWLS log ASCII Standard -VERSION 2.0
 WRAP.                   NO:   One line per depth step
~Well Information Block
#MNEM.UNIT     VALUE/NAME     DESCRIPTION
#---------     -----------    ---------------------------
 STRT.S             22:24:43 19-May-20: START TIME 22:24:43 19-May-20
 STOP.S             22:33:01 19-May-20: STOP TIME  22:33:01 19-May-20
 STEP.S                   0.00: STEP TIME
 NULL.                 -999.25: NULL VALUE
 MDS .        Operator Entered:  MAG DATA SOURCE
 PDAT.          Mean Sea Level:  PERMANENT DATUM
 UNIT.                     N/A:  LOGGING EQUIPMENT ID
 DCON.         Sperry Drilling:  DIRECTNL CONTR
 DOE .                     N/A:  DOE NUMBER
 RIG .              East Azeri:  RIG NAME
 JOBN.        AZ-XX-0905856059:  JOB TICKET NUMB
 WELL.                     D36:  WELL NAME
 MWDS.                    Baku:  MWD SHOP
 SRVC.     Turan Drilling & Engineering:  CONTRACTOR
 FLD .                     ACG:  FIELD NAME
 CTRY.              Azerbaijan:  COUNTRY NAME
 PROV.                    Baku:  PROVINCE
 STAT.                    Baku:  STATE NAME
 REGN.                   EESSA:  REGION
 BASE.              Azerbaijan:  LOGGING EQUIPMENT BASE LOCATION
 UWI .                     N/A:  UNIQUE WELL IDENTIFIER
 API .                     N/A:  API NUMBER
 COMP.     BP Exploration (Caspian Sea) Ltd.:  COMPANY
 WTYP.                Deviated:  WELL TYPE
 SON .        AZ-XX-0905856059:  JOB NUMBER
 FTOP.          Formation Tops:  FORM TOPS DESC
 ILTD.               Lithology:  INTERP LTH DESC
 SVYD.                  Survey:  SURVEY DESC
 DMOD.             Drill Model:  DRILL MOD DESC
 HPTY.       Minimum Curvature:  HOLE POS TYPE
 NREF.                    Grid:  NORTH REFERENCE
 SPUD.               25-Feb-20:  SPUD DATE
 DATE.      08.55.28 01-May-20:  END TIME
 STIM.      08.55.28 25-Feb-20:  START TIME
 DMF .             Drill Floor:  DRILL MEAS FROM
 DFST.                        :  DIST FSL TEXT
 DFWT.                        :  DIST FWL TEXT
 CNTY.                        :  COUNTY
 LOC .                        :  LOCATION
 LMF .             Drill Floor:  LOG MEASURED FROM
 VSNS.m                   6.09:  VERT SEC N/S
 VSEW.m                 -10.79:  VERT SEC E/W
 AGAP.m                  43.60:  AIR GAP
 DEP .m                 388.24:  DEPTH
 APD .m                  43.60:  DEPTH ABOVE PD
 WDMS.m                 151.80:  WD ELEV
 EGL .m                   0.00:  GROUND ELEVATION
 EPD .m                   0.00:  ELEVATION
 AZTC.deg                 6.12:  AZM TOTAL CORR
 GRDC.deg                 0.30:  GRID CORRECTION
 MDEC.deg                 6.42:  MAGNETIC DECL
 MDIP.deg                59.42:  MAGNETIC DIP
 MFLD.nT              50256.00:  MAGNETIC FIELD
 GVFD.g                   1.00:  GRAVITY FIELD
 VSDR.deg               159.57:  VERT SEC DIRECT
 TDD .m                5000.01:  TOTAL DEPTH (DRILLER)
 SDEP.m                 397.00:  START DEPTH
 DFSL.m                   0.00:  DISTANCE FSL
 DFWL.m                   0.00:  DISTANCE FWL
 UTMY.m             4431880.20:  UTM Y
 UTMX.m              538763.98:  UTM X
 WHEW.m                 -10.79:  WELL HEAD E/W
 WHNS.m                   6.09:  WELL HEAD N/S
 LONG.deg                51.45:  LONGITUDE
 LATI.deg                40.02:  LATITUDE
 TVDS.m                  43.60:  TVDSS CORRECTN
 EKB .m                  43.60:  KB ELEVATION
 EDF .m                  43.60:  DF ELEVATION
 MAGU.                 1847640:  MAGUTM CHECKSUM
 VSC .                       0:  VS TO CLOSURE
~Parameter Information Block
#MNEM.UNIT       Value        Description
#---------     -----------    ---------------------------
 AV  .mps                 1.30:  Ann Velocity 
 AVMX.mps                 1.90:  Max Ann Veloc 
 AZIF.deg               115.68:  Azm, Final 
 BHAT.                   Other:  BHA Type 
 BROT.°/30m               0.74:  Build Rotating 
 BS  .in                  8.50:  Bit Size 
 BTPL.psig              430.00:  Bit Press Loss 
 CABU.                      No:  Customer Abuse 
 COMM.                     ”le:  Run Comments 1 
 TCS .hr                 51.31:  Time Ciculation Ended 
 CV  .mps                 2.52:  Crit Velocity 
 CVMX.mps                 2.62:  Max Crit Veloc 
 DD1 .          Teymur Aghayev:  Direct Drillr 1 
 DDSV.                   Other:  DD Service 
 DEFF.%                 100.00:  % Det Eff 
 DLRX.°/30m               1.62:  Dogleg Rot Max 
 DLSO.°/30m               0.74:  Dogleg Oriented 
 DLSX.°/30m               1.62:  Dogleg Str Max 
 DRET.      04.30.56 18-May-20:  Drill End Time 
 DRST.      04.30.56 18-May-20:  Drill Start Tim 
 DTIM.hr                  0.00:  Time Drilling 
 EDEP.m                5337.01:  End Depth 
 ENG1.      Artemiy Matviyanov:  Engineer 1 
 ENG2.      Bakhtiyar Jabbarli:  Engineer 2 
 ENG3.           Emil Huseynov:  Engineer 3 
 ETIM.      18.40.00 22-May-20:  End Time 
 FLOI.gpm               550.00:  Flow In 
 FLON.gpm               350.00:  Flow In Min 
 FLOS.cptm                0.00:  Fluid Loss 
 FLOX.gpm               600.00:  Flow In Max 
 HFLO.                      No:  High Flow 
 HPRE.                      No:  High Pressure 
 HTEM.                      No:  High Temp 
 HYDO.m                   1.80:  Hydro Offset 
 IFIN.deg                67.01:  Inc, Final 
 IMAX.deg                67.49:  Inc Max 
 IMIN.deg                66.50:  Inc Min 
 IMND.m                5144.79:  Inc Min Depth 
 IMXD.m                5116.12:  Inc Max Depth 
 JARR.                      No:  Jarring 
 LETM.      17.55.56 20-May-20:  Log End Time 
 LOST.hr                     0:  Lost Rig Time 
 LSTM.      04.30.56 18-May-20:  Log Start Time 
 MDCL.ppm            193153.00:  Mud Chlorides 
 MDES.     Inversion Oil/Synthetic:  Mud Desc 
 DFD .sg                  1.40:  Mud Density 
 MDMN.sg                  1.40:  Dens Mud Min 
 MDMX.sg                  1.41:  Dens Mud Max 
 MOIL.                      68:  Run Mud Oil % 
 MOWR.                   68:32:  Run Mud OWR 
 MSND.                     0.2:  Run Mud Sand % 
 MSOL.                    18.8:  Run Mud Solids% 
 DFV .spqt               80.00:  Mud Viscosity 
 MWOD.in                  6.75:  MWD Tool OD 
 MWSI.                      No:  Serv Intrp, MWD 
 OTIM.hr                104.84:  Time Operating 
 PMAX.psia            10690.93:  Press Op, Max 
 PV  .cP                 26.00:  Mud PV 
 RUN .                     900:  Run Number 
 ROPA.m/hr                0.00:  ROP Avg 
 ROPN.m/hr                0.00:  ROP Min 
 ROPX.m/hr                0.00:  ROP Max 
 RPMA.rpm               140.00:  RPM Surface Avg 
 RPMN.rpm                70.00:  RPM Surface Min 
 RPMX.rpm               140.00:  RPM Surface Max 
 RRUN.                    0900:  Rig Run Number 
 RTIM.hr                 36.00:  Time Reaming 
 SAZI.deg               115.72:  Azm, Start 
 SDEP.m                5337.01:  Start Depth 
 SIDD.                      No:  Serv Intrp, DD 
 SINC.deg                66.92:  Inc, Start 
 SPPA.psig             4400.00:  SPP Avg 
 SPPN.psig             1135.00:  SPP Min 
 SPPX.psig             4581.00:  SPP Max 
 STIM.      04.30.56 18-May-20:  Start Time 
 SVCS.                     MWD:  Services 
 SVER.                    9.20:  Sperry Version 
 TDAT.m                5337.01:  Tot Depth Attmp 
 TDDF.                      No:  Trip for DD 
 TFF .                      No:  Trip for Fail 
 TQAA.f-kp               23.00:  Torque Abs Avg 
 TQAN.f-kp               18.00:  Torque Abs Min 
 TQAX.f-kp               25.00:  Torque Abs Max 
 TRRT.°/30m               0.74:  Turn Rotating 
 MRT .                    HCIM:  Maximum Recorded Temperature 
 TTMX.degC               76.47:  Max Tool Temp 
 WBMN.klb                 0.00:  WOB Min 
 WITN.             Anar Khalil:  Customer Rep 
 WITN.      Kamran Keberlinski:  Customer Rep 2 
 WOBA.klb                 0.00:  WOB Avg 
 WOBX.klb                 0.00:  WOB Max 
 YP  .lhf2               27.00:  Yield Point 
~Curve Information Block
#MNEM.UNIT                 API CODE     Curve Description
#---------               -----------    ---------------------------
 TIME.HHMMSS            00 000 000 000:  GT Time & Date
 GTDEPTH.m              00 000 000 000:  GT Depth
 GTPQH.psia             00 000 000 000:  GT HR Quartz Pressure
 GTTQ.degC              00 000 000 000:  GT Quartz Temperature
 GTTN.NONE              00 000 000 000:  GT Test Number
 GTET.sec               00 000 000 000:  GT Elapsed Test Time
 GTTVD.m                00 000 000 000:  GT True Vertical Depth
#Other Information
#
#WARRANTY: Halliburton will use its best efforts to furnish customers with 
#accurate information and interpretations that are part of, and incident to, the services 
#provided.  However, Halliburton cannot and does not warrant the accuracy 
#or correctness of such information and interpretations.  Under no circumstances should any 
#such information or interpretation be relied upon as the sole basis for any drilling, 
#completion, production, or financial decision or any procedure involving any risk to the 
#safety of any drilling venture, drilling rig or its crew or any other third party.  The 
#Customer has full responsibility for all drilling, completion and production operation.  
#Halliburton makes no representations or warranties, either expressed or 
#implied, including, but not limited to, the implied warranties of merchantability or fitness 
#for a particular purpose, with respect to the services rendered.  In no event will 
#Halliburton be liable for failure to obtain any particular results or for 
#any damages, including, but not limited to, indirect, special or consequential damages, 
#resulting from the use of any information or interpretation provided by Halliburton.
#
~A           TIME           GTDEPTH  GTPQH  GTTQ  GTTN  GTET   GTTVD  
# ...
   22:30:28.091.19-May-2020 5137.01 6465.22 67.87 4.00 345.09 2705.05
   22:30:28.291.19-May-2020 5137.01 6465.22 67.87 4.00 345.29 2705.05
   22:30:28.491.19-May-2020 5137.01 6467.66 67.87 4.00 345.49 2705.05
   22:30:28.691.19-May-2020 5137.01 6467.52 67.87 4.00 345.69 2705.05
   22:30:28.891.19-May-2020 5137.01 6467.11 67.87 4.00 345.89 2705.05
   22:30:29.091.19-May-2020 5137.01 6466.27 67.87 4.00 346.09 2705.05
   22:30:29.291.19-May-2020 5137.01 6466.27 67.87 4.00 346.29 2705.05
   22:30:29.491.19-May-2020 5137.01 6465.71 67.87 4.00 346.49 2705.05
   22:30:29.691.19-May-2020 5137.01 6464.72 67.87 4.00 346.69 2705.05
   22:30:29.892.19-May-2020 5137.01 6465.38 67.87 4.00 346.89 2705.05
   22:30:30.092.19-May-2020 5137.01 6463.76 67.87 4.00 347.09 2705.05
   22:30:30.292.19-May-2020 5137.01 6465.01 67.87 4.00 347.29 2705.05
   22:30:30.492.19-May-2020 5137.01 6463.90 67.87 4.00 347.49 2705.05
   22:30:30.692.19-May-2020 5137.01 6463.60 67.87 4.00 347.69 2705.05
   22:30:30.892.19-May-2020 5137.01 6464.47 67.87 4.00 347.89 2705.05
   22:30:31.092.19-May-2020 5137.01 6463.27 67.87 4.00 348.09 2705.05
   22:30:31.292.19-May-2020 5137.01 6463.27 67.87 4.00 348.29 2705.05
   22:30:31.492.19-May-2020 5137.01 6464.25 67.87 4.00 348.49 2705.05
   22:30:31.692.19-May-2020 5137.01 6465.76 67.87 4.00 348.69 2705.05
   22:30:31.892.19-May-2020 5137.01 6464.89 67.87 4.00 348.89 2705.05
   22:30:32.092.19-May-2020 5137.01 6465.19 67.87 4.00 349.09 2705.05
   22:30:32.292.19-May-2020 5137.01 6465.19 67.87 4.00 349.29 2705.05
   22:30:32.492.19-May-2020 5137.01 6469.56 67.87 4.00 349.49 2705.05
   22:30:32.692.19-May-2020 5137.01 6462.14 67.87 4.00 349.69 2705.05
   22:30:32.892.19-May-2020 5137.01 6467.03 67.87 4.00 349.89 2705.05
   22:30:33.092.19-May-2020 5137.01 6464.81 67.87 4.00 350.09 2705.05
   22:30:33.292.19-May-2020 5137.01 6464.81 67.87 4.00 350.29 2705.05
   22:30:33.492.19-May-2020 5137.01 6463.96 67.87 4.00 350.49 2705.05
   22:30:33.692.19-May-2020 5137.01 6467.38 67.87 4.00 350.69 2705.05
   22:30:33.893.19-May-2020 5137.01 6464.85 67.87 4.00 350.89 2705.05
   22:30:34.093.19-May-2020 5137.01 6466.75 67.87 4.00 351.09 2705.05
   22:30:34.293.19-May-2020 5137.01 6466.75 67.87 4.00 351.29 2705.05
   22:30:34.493.19-May-2020 5137.01 6465.16 67.87 4.00 351.49 2705.05
   22:30:34.693.19-May-2020 5137.01 6467.68 67.87 4.00 351.69 2705.05
   22:30:34.893.19-May-2020 5137.01 6467.23 67.87 4.00 351.89 2705.05
   22:30:35.093.19-May-2020 5137.01 6468.56 67.87 4.00 352.09 2705.05
   22:30:35.293.19-May-2020 5137.01 6468.56 67.87 4.00 352.29 2705.05
   22:30:35.493.19-May-2020 5137.01 6467.23 67.87 4.00 352.49 2705.05
   22:30:35.693.19-May-2020 5137.01 6464.93 67.87 4.00 352.69 2705.05
   22:30:35.893.19-May-2020 5137.01 6467.27 67.87 4.00 352.89 2705.05
   22:30:36.093.19-May-2020 5137.01 6463.68 67.87 4.00 353.09 2705.05
   22:30:36.293.19-May-2020 5137.01 6463.68 67.87 4.00 353.29 2705.05
   22:30:36.493.19-May-2020 5137.01 6464.38 67.87 4.00 353.49 2705.05
   22:30:36.693.19-May-2020 5137.01 6464.97 67.87 4.00 353.69 2705.05
   22:30:36.893.19-May-2020 5137.01 6464.93 67.87 4.00 353.89 2705.05
   22:30:37.093.19-May-2020 5137.01 6463.63 67.87 4.00 354.09 2705.05
   22:30:37.293.19-May-2020 5137.01 6463.63 67.87 4.00 354.29 2705.05
   22:30:37.493.19-May-2020 5137.01 6464.17 67.87 4.00 354.49 2705.05
   22:30:37.693.19-May-2020 5137.01 6463.90 67.87 4.00 354.69 2705.05
   22:30:37.894.19-May-2020 5137.01 6464.39 67.87 4.00 354.89 2705.05
   22:30:38.094.19-May-2020 5137.01 6466.87 67.87 4.00 355.09 2705.05
   22:30:38.294.19-May-2020 5137.01 6464.74 67.87 4.00 355.29 2705.05
   22:30:38.494.19-May-2020 5137.01 6465.87 67.87 4.00 355.49 2705.05
   22:30:38.694.19-May-2020 5137.01 6463.94 67.87 4.00 355.69 2705.05
   22:30:38.894.19-May-2020 5137.01 6469.73 67.87 4.00 355.89 2705.05
   22:30:39.094.19-May-2020 5137.01 6464.13 67.87 4.00 356.09 2705.05
   22:30:39.294.19-May-2020 5137.01 6464.13 67.87 4.00 356.29 2705.05
   22:30:39.494.19-May-2020 5137.01 6465.38 67.87 4.00 356.49 2705.05
   22:30:39.694.19-May-2020 5137.01 6465.58 67.87 4.00 356.69 2705.05
   22:30:39.894.19-May-2020 5137.01 6468.09 67.87 4.00 356.89 2705.05
   22:30:40.094.19-May-2020 5137.01 6464.71 67.87 4.00 357.09 2705.05
   22:30:40.294.19-May-2020 5137.01 6464.71 67.87 4.00 357.29 2705.05
   22:30:40.494.19-May-2020 5137.01 6465.66 67.87 4.00 357.49 2705.05
   22:30:40.694.19-May-2020 5137.01 6465.75 67.87 4.00 357.69 2705.05
   22:30:40.894.19-May-2020 5137.01 6468.66 67.87 4.00 357.89 2705.05
   22:30:41.094.19-May-2020 5137.01 6464.94 67.87 4.00 358.09 2705.05
   22:30:41.294.19-May-2020 5137.01 6464.94 67.87 4.00 358.29 2705.05
   22:30:41.494.19-May-2020 5137.01 6466.17 67.87 4.00 358.49 2705.05
   22:30:41.694.19-May-2020 5137.01 6469.02 67.87 4.00 358.69 2705.05
   22:30:41.895.19-May-2020 5137.01 6466.12 67.87 4.00 358.89 2705.05
   22:30:42.095.19-May-2020 5137.01 6466.52 67.87 4.00 359.09 2705.05
   22:30:42.295.19-May-2020 5137.01 6466.81 67.87 4.00 359.29 2705.05
   22:30:42.495.19-May-2020 5137.01 6465.59 67.87 4.00 359.49 2705.05
   22:30:42.695.19-May-2020 5137.01 6465.32 67.87 4.00 359.69 2705.05
   22:30:42.895.19-May-2020 5137.01 6465.23 67.87 4.00 359.89 2705.05
   22:30:43.095.19-May-2020 5137.01 6463.90 67.87 4.00 360.09 2705.05
   22:30:43.295.19-May-2020 5137.01 6463.90 67.87 4.00 360.29 2705.05
   22:30:43.495.19-May-2020 5137.01 6463.93 67.87 4.00 360.49 2705.05
   22:30:43.695.19-May-2020 5137.01 6463.89 67.87 4.00 360.69 2705.05
   22:30:43.895.19-May-2020 5137.01 6464.60 67.87 4.00 360.89 2705.05
   22:30:44.095.19-May-2020 5137.01 6463.26 67.87 4.00 361.09 2705.05
   22:30:44.295.19-May-2020 5137.01 6463.26 67.87 4.00 361.29 2705.05
   22:30:44.495.19-May-2020 5137.01 6463.39 67.87 4.00 361.49 2705.05
   22:30:44.695.19-May-2020 5137.01 6464.38 67.87 4.00 361.69 2705.05
   22:30:44.895.19-May-2020 5137.01 6466.34 67.87 4.00 361.89 2705.05
   22:30:45.095.19-May-2020 5137.01 6463.64 67.87 4.00 362.09 2705.05
   22:30:45.295.19-May-2020 5137.01 6463.64 67.87 4.00 362.29 2705.05
   22:30:45.495.19-May-2020 5137.01 6463.30 67.87 4.00 362.49 2705.05
   22:30:45.695.19-May-2020 5137.01 6470.18 67.87 4.00 362.69 2705.05
   22:30:45.896.19-May-2020 5137.01 6462.56 67.87 4.00 362.89 2705.05
   22:30:46.096.19-May-2020 5137.01 6466.06 67.87 4.00 363.09 2705.05
   22:30:46.296.19-May-2020 5137.01 6466.25 67.87 4.00 363.29 2705.05
   22:30:46.496.19-May-2020 5137.01 6468.92 67.87 4.00 363.49 2705.05
   22:30:46.696.19-May-2020 5137.01 6464.45 67.87 4.00 363.69 2705.05
   22:30:46.896.19-May-2020 5137.01 6468.06 67.87 4.00 363.89 2705.05
   22:30:47.096.19-May-2020 5137.01 6463.98 67.87 4.00 364.09 2705.05
   22:30:47.296.19-May-2020 5137.01 6463.98 67.87 4.00 364.29 2705.05
   22:30:47.496.19-May-2020 5137.01 6467.12 67.87 4.00 364.49 2705.05
   22:30:47.696.19-May-2020 5137.01 6465.74 67.87 4.00 364.69 2705.05
   22:30:47.896.19-May-2020 5137.01 6467.68 67.87 4.00 364.89 2705.05
   22:30:48.096.19-May-2020 5137.01 6466.34 67.87 4.00 365.09 2705.05
   22:30:48.296.19-May-2020 5137.01 6466.34 67.87 4.00 365.29 2705.05
   22:30:48.496.19-May-2020 5137.01 6465.11 67.87 4.00 365.49 2705.05
   22:30:48.696.19-May-2020 5137.01 6467.73 67.87 4.00 365.69 2705.05
   22:30:48.896.19-May-2020 5137.01 6465.55 67.87 4.00 365.89 2705.05
   22:30:49.096.19-May-2020 5137.01 6466.45 67.87 4.00 366.09 2705.05
   22:30:49.296.19-May-2020 5137.01 6466.45 67.87 4.00 366.29 2705.05
   22:30:49.496.19-May-2020 5137.01 6464.92 67.87 4.00 366.49 2705.05
   22:30:49.696.19-May-2020 5137.01 6464.58 67.87 4.00 366.69 2705.05
   22:30:49.897.19-May-2020 5137.01 6465.18 67.87 4.00 366.89 2705.05
   22:30:50.097.19-May-2020 5137.01 6463.92 67.87 4.00 367.09 2705.05
   22:30:50.297.19-May-2020 5137.01 6464.51 67.87 4.00 367.29 2705.05
   22:30:50.497.19-May-2020 5137.01 6463.68 67.87 4.00 367.49 2705.05
   22:30:50.697.19-May-2020 5137.01 6463.96 67.87 4.00 367.69 2705.05
   22:30:50.897.19-May-2020 5137.01 6464.14 67.87 4.00 367.89 2705.05
