~Version Information
 VERS.                  2.0:   CWLS log ASCII Standard -VERSION 2.0
 WRAP.                   NO:   One line per depth step
~Well Information Block
#MNEM.UNIT     VALUE/NAME     DESCRIPTION
#---------     -----------    ---------------------------
 STRT.S             06:41:15 20-May-20: START TIME 06:41:15 20-May-20
 STOP.S             06:51:49 20-May-20: STOP TIME  06:51:49 20-May-20
 STEP.S                   0.00: STEP TIME
 NULL.                 -999.25: NULL VALUE
 MDS .        Operator Entered:  MAG DATA SOURCE
 PDAT.          Mean Sea Level:  PERMANENT DATUM
 UNIT.                     N/A:  LOGGING EQUIPMENT ID
 DCON.         Sperry Drilling:  DIRECTNL CONTR
 DOE .                     N/A:  DOE NUMBER
 RIG .              East Azeri:  RIG NAME
 JOBN.        AZ-XX-0905856059:  JOB TICKET NUMB
 WELL.                     D36:  WELL NAME
 MWDS.                    Baku:  MWD SHOP
 SRVC.     Turan Drilling & Engineering:  CONTRACTOR
 FLD .                     ACG:  FIELD NAME
 CTRY.              Azerbaijan:  COUNTRY NAME
 PROV.                    Baku:  PROVINCE
 STAT.                    Baku:  STATE NAME
 REGN.                   EESSA:  REGION
 BASE.              Azerbaijan:  LOGGING EQUIPMENT BASE LOCATION
 UWI .                     N/A:  UNIQUE WELL IDENTIFIER
 API .                     N/A:  API NUMBER
 COMP.     BP Exploration (Caspian Sea) Ltd.:  COMPANY
 WTYP.                Deviated:  WELL TYPE
 SON .        AZ-XX-0905856059:  JOB NUMBER
 FTOP.          Formation Tops:  FORM TOPS DESC
 ILTD.               Lithology:  INTERP LTH DESC
 SVYD.                  Survey:  SURVEY DESC
 DMOD.             Drill Model:  DRILL MOD DESC
 HPTY.       Minimum Curvature:  HOLE POS TYPE
 NREF.                    Grid:  NORTH REFERENCE
 SPUD.               25-Feb-20:  SPUD DATE
 DATE.      08.55.28 01-May-20:  END TIME
 STIM.      08.55.28 25-Feb-20:  START TIME
 DMF .             Drill Floor:  DRILL MEAS FROM
 DFST.                        :  DIST FSL TEXT
 DFWT.                        :  DIST FWL TEXT
 CNTY.                        :  COUNTY
 LOC .                        :  LOCATION
 LMF .             Drill Floor:  LOG MEASURED FROM
 VSNS.m                   6.09:  VERT SEC N/S
 VSEW.m                 -10.79:  VERT SEC E/W
 AGAP.m                  43.60:  AIR GAP
 DEP .m                 388.24:  DEPTH
 APD .m                  43.60:  DEPTH ABOVE PD
 WDMS.m                 151.80:  WD ELEV
 EGL .m                   0.00:  GROUND ELEVATION
 EPD .m                   0.00:  ELEVATION
 AZTC.deg                 6.12:  AZM TOTAL CORR
 GRDC.deg                 0.30:  GRID CORRECTION
 MDEC.deg                 6.42:  MAGNETIC DECL
 MDIP.deg                59.42:  MAGNETIC DIP
 MFLD.nT              50256.00:  MAGNETIC FIELD
 GVFD.g                   1.00:  GRAVITY FIELD
 VSDR.deg               159.57:  VERT SEC DIRECT
 TDD .m                5000.01:  TOTAL DEPTH (DRILLER)
 SDEP.m                 397.00:  START DEPTH
 DFSL.m                   0.00:  DISTANCE FSL
 DFWL.m                   0.00:  DISTANCE FWL
 UTMY.m             4431880.20:  UTM Y
 UTMX.m              538763.98:  UTM X
 WHEW.m                 -10.79:  WELL HEAD E/W
 WHNS.m                   6.09:  WELL HEAD N/S
 LONG.deg                51.45:  LONGITUDE
 LATI.deg                40.02:  LATITUDE
 TVDS.m                  43.60:  TVDSS CORRECTN
 EKB .m                  43.60:  KB ELEVATION
 EDF .m                  43.60:  DF ELEVATION
 MAGU.                 1847640:  MAGUTM CHECKSUM
 VSC .                       0:  VS TO CLOSURE
~Parameter Information Block
#MNEM.UNIT       Value        Description
#---------     -----------    ---------------------------
 AV  .mps                 1.30:  Ann Velocity 
 AVMX.mps                 1.90:  Max Ann Veloc 
 AZIF.deg               115.68:  Azm, Final 
 BHAT.                   Other:  BHA Type 
 BROT.°/30m               0.74:  Build Rotating 
 BS  .in                  8.50:  Bit Size 
 BTPL.psig              430.00:  Bit Press Loss 
 CABU.                      No:  Customer Abuse 
 COMM.                     œÿv:  Run Comments 1 
 TCS .hr                 51.31:  Time Ciculation Ended 
 CV  .mps                 2.52:  Crit Velocity 
 CVMX.mps                 2.62:  Max Crit Veloc 
 DD1 .          Teymur Aghayev:  Direct Drillr 1 
 DDSV.                   Other:  DD Service 
 DEFF.%                 100.00:  % Det Eff 
 DLRX.°/30m               1.62:  Dogleg Rot Max 
 DLSO.°/30m               0.74:  Dogleg Oriented 
 DLSX.°/30m               1.62:  Dogleg Str Max 
 DRET.      04.30.56 18-May-20:  Drill End Time 
 DRST.      04.30.56 18-May-20:  Drill Start Tim 
 DTIM.hr                  0.00:  Time Drilling 
 EDEP.m                5337.01:  End Depth 
 ENG1.      Artemiy Matviyanov:  Engineer 1 
 ENG2.      Bakhtiyar Jabbarli:  Engineer 2 
 ENG3.           Emil Huseynov:  Engineer 3 
 ETIM.      18.40.00 22-May-20:  End Time 
 FLOI.gpm               550.00:  Flow In 
 FLON.gpm               350.00:  Flow In Min 
 FLOS.cptm                0.00:  Fluid Loss 
 FLOX.gpm               600.00:  Flow In Max 
 HFLO.                      No:  High Flow 
 HPRE.                      No:  High Pressure 
 HTEM.                      No:  High Temp 
 HYDO.m                   1.80:  Hydro Offset 
 IFIN.deg                67.01:  Inc, Final 
 IMAX.deg                67.49:  Inc Max 
 IMIN.deg                66.50:  Inc Min 
 IMND.m                5144.79:  Inc Min Depth 
 IMXD.m                5116.12:  Inc Max Depth 
 JARR.                      No:  Jarring 
 LETM.      17.55.56 20-May-20:  Log End Time 
 LOST.hr                     0:  Lost Rig Time 
 LSTM.      04.30.56 18-May-20:  Log Start Time 
 MDCL.ppm            193153.00:  Mud Chlorides 
 MDES.     Inversion Oil/Synthetic:  Mud Desc 
 DFD .sg                  1.40:  Mud Density 
 MDMN.sg                  1.40:  Dens Mud Min 
 MDMX.sg                  1.41:  Dens Mud Max 
 MOIL.                      68:  Run Mud Oil % 
 MOWR.                   68:32:  Run Mud OWR 
 MSND.                     0.2:  Run Mud Sand % 
 MSOL.                    18.8:  Run Mud Solids% 
 DFV .spqt               80.00:  Mud Viscosity 
 MWOD.in                  6.75:  MWD Tool OD 
 MWSI.                      No:  Serv Intrp, MWD 
 OTIM.hr                104.84:  Time Operating 
 PMAX.psia            10690.93:  Press Op, Max 
 PV  .cP                 26.00:  Mud PV 
 RUN .                     900:  Run Number 
 ROPA.m/hr                0.00:  ROP Avg 
 ROPN.m/hr                0.00:  ROP Min 
 ROPX.m/hr                0.00:  ROP Max 
 RPMA.rpm               140.00:  RPM Surface Avg 
 RPMN.rpm                70.00:  RPM Surface Min 
 RPMX.rpm               140.00:  RPM Surface Max 
 RRUN.                    0900:  Rig Run Number 
 RTIM.hr                 36.00:  Time Reaming 
 SAZI.deg               115.72:  Azm, Start 
 SDEP.m                5337.01:  Start Depth 
 SIDD.                      No:  Serv Intrp, DD 
 SINC.deg                66.92:  Inc, Start 
 SPPA.psig             4400.00:  SPP Avg 
 SPPN.psig             1135.00:  SPP Min 
 SPPX.psig             4581.00:  SPP Max 
 STIM.      04.30.56 18-May-20:  Start Time 
 SVCS.                     MWD:  Services 
 SVER.                    9.20:  Sperry Version 
 TDAT.m                5337.01:  Tot Depth Attmp 
 TDDF.                      No:  Trip for DD 
 TFF .                      No:  Trip for Fail 
 TQAA.f-kp               23.00:  Torque Abs Avg 
 TQAN.f-kp               18.00:  Torque Abs Min 
 TQAX.f-kp               25.00:  Torque Abs Max 
 TRRT.°/30m               0.74:  Turn Rotating 
 MRT .                    HCIM:  Maximum Recorded Temperature 
 TTMX.degC               76.47:  Max Tool Temp 
 WBMN.klb                 0.00:  WOB Min 
 WITN.             Anar Khalil:  Customer Rep 
 WITN.      Kamran Keberlinski:  Customer Rep 2 
 WOBA.klb                 0.00:  WOB Avg 
 WOBX.klb                 0.00:  WOB Max 
 YP  .lhf2               27.00:  Yield Point 
~Curve Information Block
#MNEM.UNIT                 API CODE     Curve Description
#---------               -----------    ---------------------------
 TIME.HHMMSS            00 000 000 000:  GT Time & Date
 GTDEPTH.m              00 000 000 000:  GT Depth
 GTPQH.psia             00 000 000 000:  GT HR Quartz Pressure
 GTTQ.degC              00 000 000 000:  GT Quartz Temperature
 GTTN.NONE              00 000 000 000:  GT Test Number
 GTET.sec               00 000 000 000:  GT Elapsed Test Time
 GTTVD.m                00 000 000 000:  GT True Vertical Depth
#Other Information
#
#WARRANTY: Halliburton will use its best efforts to furnish customers with 
#accurate information and interpretations that are part of, and incident to, the services 
#provided.  However, Halliburton cannot and does not warrant the accuracy 
#or correctness of such information and interpretations.  Under no circumstances should any 
#such information or interpretation be relied upon as the sole basis for any drilling, 
#completion, production, or financial decision or any procedure involving any risk to the 
#safety of any drilling venture, drilling rig or its crew or any other third party.  The 
#Customer has full responsibility for all drilling, completion and production operation.  
#Halliburton makes no representations or warranties, either expressed or 
#implied, including, but not limited to, the implied warranties of merchantability or fitness 
#for a particular purpose, with respect to the services rendered.  In no event will 
#Halliburton be liable for failure to obtain any particular results or for 
#any damages, including, but not limited to, indirect, special or consequential damages, 
#resulting from the use of any information or interpretation provided by Halliburton.
#
~A           TIME           GTDEPTH  GTPQH  GTTQ  GTTN   GTET   GTTVD  
# ...
   06:43:08.953.20-May-2020 5012.01 2902.92 68.10 10.00 113.03 2656.39
   06:43:09.153.20-May-2020 5012.01 2902.92 68.10 10.00 113.23 2656.39
   06:43:09.353.20-May-2020 5012.01 2902.99 68.10 10.00 113.43 2656.39
   06:43:09.553.20-May-2020 5012.01 2902.97 68.10 10.00 113.63 2656.39
   06:43:09.753.20-May-2020 5012.01 2903.10 68.10 10.00 113.83 2656.39
   06:43:09.953.20-May-2020 5012.01 2903.05 68.10 10.00 114.03 2656.39
   06:43:10.153.20-May-2020 5012.01 2903.01 68.10 10.00 114.23 2656.39
   06:43:10.353.20-May-2020 5012.01 2903.24 68.10 10.00 114.43 2656.39
   06:43:10.553.20-May-2020 5012.01 2903.03 68.10 10.00 114.63 2656.39
   06:43:10.753.20-May-2020 5012.01 2903.01 68.10 10.00 114.83 2656.39
   06:43:10.953.20-May-2020 5012.01 2903.07 68.10 10.00 115.03 2656.39
   06:43:11.153.20-May-2020 5012.01 2903.07 68.10 10.00 115.23 2656.39
   06:43:11.353.20-May-2020 5012.01 2902.92 68.10 10.00 115.43 2656.39
   06:43:11.553.20-May-2020 5012.01 2903.37 68.10 10.00 115.63 2656.39
   06:43:11.754.20-May-2020 5012.01 2902.98 68.10 10.00 115.83 2656.39
   06:43:11.954.20-May-2020 5012.01 2903.04 68.10 10.00 116.03 2656.39
   06:43:12.154.20-May-2020 5012.01 2903.04 68.10 10.00 116.23 2656.39
   06:43:12.354.20-May-2020 5012.01 2903.07 68.10 10.00 116.43 2656.39
   06:43:12.554.20-May-2020 5012.01 2903.01 68.10 10.00 116.63 2656.39
   06:43:12.754.20-May-2020 5012.01 2903.08 68.10 10.00 116.83 2656.39
   06:43:12.954.20-May-2020 5012.01 2903.13 68.10 10.00 117.03 2656.39
   06:43:13.154.20-May-2020 5012.01 2903.13 68.10 10.00 117.23 2656.39
   06:43:13.354.20-May-2020 5012.01 2903.12 68.10 10.00 117.43 2656.39
   06:43:13.554.20-May-2020 5012.01 2903.14 68.10 10.00 117.63 2656.39
   06:43:13.754.20-May-2020 5012.01 2903.14 68.10 10.00 117.83 2656.39
   06:43:13.954.20-May-2020 5012.01 2903.16 68.10 10.00 118.03 2656.39
   06:43:14.154.20-May-2020 5012.01 2903.13 68.10 10.00 118.23 2656.39
   06:43:14.354.20-May-2020 5012.01 2903.14 68.10 10.00 118.43 2656.39
   06:43:14.554.20-May-2020 5012.01 2903.46 68.10 10.00 118.63 2656.39
   06:43:14.754.20-May-2020 5012.01 2902.92 68.10 10.00 118.83 2656.39
   06:43:14.954.20-May-2020 5012.01 2902.97 68.10 10.00 119.03 2656.39
   06:43:15.154.20-May-2020 5012.01 2902.97 68.10 10.00 119.23 2656.39
   06:43:15.355.20-May-2020 5012.01 2903.53 68.10 10.00 119.43 2656.39
   06:43:15.555.20-May-2020 5012.01 2902.98 68.10 10.00 119.63 2656.39
   06:43:15.755.20-May-2020 5012.01 2902.95 68.10 10.00 119.83 2656.39
   06:43:15.955.20-May-2020 5012.01 2902.89 68.10 10.00 120.03 2656.39
   06:43:16.155.20-May-2020 5012.01 2902.89 68.10 10.00 120.23 2656.39
   06:43:16.355.20-May-2020 5012.01 2902.96 68.10 10.00 120.43 2656.39
   06:43:16.555.20-May-2020 5012.01 2902.96 68.10 10.00 120.63 2656.39
   06:43:16.755.20-May-2020 5012.01 2903.06 68.10 10.00 120.83 2656.39
   06:43:16.955.20-May-2020 5012.01 2903.00 68.10 10.00 121.03 2656.39
   06:43:17.155.20-May-2020 5012.01 2903.00 68.10 10.00 121.23 2656.39
   06:43:17.355.20-May-2020 5012.01 2903.22 68.10 10.00 121.43 2656.39
   06:43:17.555.20-May-2020 5012.01 2903.03 68.10 10.00 121.63 2656.39
   06:43:17.755.20-May-2020 5012.01 2903.00 68.10 10.00 121.83 2656.39
   06:43:17.955.20-May-2020 5012.01 2903.03 68.10 10.00 122.03 2656.39
   06:43:18.155.20-May-2020 5012.01 2903.03 68.10 10.00 122.23 2656.39
   06:43:18.355.20-May-2020 5012.01 2902.91 68.10 10.00 122.43 2656.39
   06:43:18.555.20-May-2020 5012.01 2903.36 68.10 10.00 122.63 2656.39
   06:43:18.756.20-May-2020 5012.01 2902.96 68.10 10.00 122.83 2656.39
   06:43:18.956.20-May-2020 5012.01 2903.00 68.10 10.00 123.03 2656.39
   06:43:19.156.20-May-2020 5012.01 2903.00 68.10 10.00 123.23 2656.39
   06:43:19.356.20-May-2020 5012.01 2903.06 68.10 10.00 123.43 2656.39
   06:43:19.556.20-May-2020 5012.01 2903.01 68.10 10.00 123.63 2656.39
   06:43:19.756.20-May-2020 5012.01 2903.03 68.10 10.00 123.84 2656.39
   06:43:19.956.20-May-2020 5012.01 2903.12 68.10 10.00 124.04 2656.39
   06:43:20.156.20-May-2020 5012.01 2903.12 68.10 10.00 124.24 2656.39
   06:43:20.356.20-May-2020 5012.01 2903.09 68.10 10.00 124.44 2656.39
   06:43:20.556.20-May-2020 5012.01 2903.11 68.10 10.00 124.64 2656.39
   06:43:20.756.20-May-2020 5012.01 2903.09 68.10 10.00 124.84 2656.39
   06:43:20.956.20-May-2020 5012.01 2903.11 68.10 10.00 125.04 2656.39
   06:43:21.156.20-May-2020 5012.01 2903.11 68.10 10.00 125.24 2656.39
   06:43:21.356.20-May-2020 5012.01 2903.10 68.10 10.00 125.44 2656.39
   06:43:21.556.20-May-2020 5012.01 2903.46 68.10 10.00 125.64 2656.39
   06:43:21.756.20-May-2020 5012.01 2902.89 68.10 10.00 125.84 2656.39
   06:43:21.956.20-May-2020 5012.01 2902.93 68.10 10.00 126.04 2656.39
   06:43:22.156.20-May-2020 5012.01 2902.98 68.10 10.00 126.24 2656.39
   06:43:22.357.20-May-2020 5012.01 2903.52 68.10 10.00 126.44 2656.39
   06:43:22.557.20-May-2020 5012.01 2902.94 68.10 10.00 126.64 2656.39
   06:43:22.757.20-May-2020 5012.01 2902.92 68.10 10.00 126.84 2656.39
   06:43:22.957.20-May-2020 5012.01 2902.86 68.10 10.00 127.04 2656.39
   06:43:23.157.20-May-2020 5012.01 2902.86 68.10 10.00 127.24 2656.39
   06:43:23.357.20-May-2020 5012.01 2902.98 68.10 10.00 127.44 2656.39
   06:43:23.557.20-May-2020 5012.01 2902.95 68.10 10.00 127.64 2656.39
   06:43:23.757.20-May-2020 5012.01 2903.04 68.10 10.00 127.84 2656.39
   06:43:23.957.20-May-2020 5012.01 2902.93 68.10 10.00 128.04 2656.39
   06:43:24.157.20-May-2020 5012.01 2902.93 68.10 10.00 128.24 2656.39
   06:43:24.357.20-May-2020 5012.01 2903.10 68.10 10.00 128.44 2656.39
   06:43:24.557.20-May-2020 5012.01 2903.06 68.10 10.00 128.64 2656.39
   06:43:24.757.20-May-2020 5012.01 2902.97 68.10 10.00 128.84 2656.39
   06:43:24.957.20-May-2020 5012.01 2902.96 68.10 10.00 129.04 2656.39
   06:43:25.157.20-May-2020 5012.01 2902.96 68.10 10.00 129.24 2656.39
   06:43:25.357.20-May-2020 5012.01 2902.91 68.10 10.00 129.44 2656.39
   06:43:25.557.20-May-2020 5012.01 2903.37 68.10 10.00 129.64 2656.39
   06:43:25.757.20-May-2020 5012.01 2902.98 68.10 10.00 129.84 2656.39
   06:43:25.958.20-May-2020 5012.01 2902.97 68.10 10.00 130.04 2656.39
   06:43:26.158.20-May-2020 5012.01 2903.04 68.10 10.00 130.24 2656.39
   06:43:26.358.20-May-2020 5012.01 2903.05 68.10 10.00 130.44 2656.39
   06:43:26.558.20-May-2020 5012.01 2902.97 68.10 10.00 130.64 2656.39
   06:43:26.758.20-May-2020 5012.01 2902.95 68.10 10.00 130.84 2656.39
   06:43:26.958.20-May-2020 5012.01 2902.98 68.10 10.00 131.04 2656.39
   06:43:27.158.20-May-2020 5012.01 2902.98 68.10 10.00 131.24 2656.39
   06:43:27.358.20-May-2020 5012.01 2903.02 68.10 10.00 131.44 2656.39
   06:43:27.558.20-May-2020 5012.01 2903.04 68.10 10.00 131.64 2656.39
   06:43:27.758.20-May-2020 5012.01 2903.03 68.10 10.00 131.84 2656.39
   06:43:27.958.20-May-2020 5012.01 2903.06 68.10 10.00 132.04 2656.39
   06:43:28.158.20-May-2020 5012.01 2903.06 68.10 10.00 132.24 2656.39
   06:43:28.358.20-May-2020 5012.01 2903.03 68.10 10.00 132.44 2656.39
   06:43:28.558.20-May-2020 5012.01 2903.48 68.10 10.00 132.64 2656.39
   06:43:28.758.20-May-2020 5012.01 2902.94 68.10 10.00 132.84 2656.39
   06:43:28.958.20-May-2020 5012.01 2902.95 68.10 10.00 133.04 2656.39
   06:43:29.158.20-May-2020 5012.01 2902.95 68.10 10.00 133.24 2656.39
   06:43:29.358.20-May-2020 5012.01 2903.58 68.10 10.00 133.44 2656.39
   06:43:29.559.20-May-2020 5012.01 2902.98 68.10 10.00 133.64 2656.39
   06:43:29.759.20-May-2020 5012.01 2902.92 68.10 10.00 133.84 2656.39
   06:43:29.959.20-May-2020 5012.01 2902.84 68.10 10.00 134.04 2656.39
   06:43:30.159.20-May-2020 5012.01 2903.50 68.10 10.00 134.24 2656.39
   06:43:30.359.20-May-2020 5012.01 2902.95 68.10 10.00 134.44 2656.39
   06:43:30.559.20-May-2020 5012.01 2902.91 68.10 10.00 134.64 2656.39
   06:43:30.759.20-May-2020 5012.01 2903.02 68.10 10.00 134.84 2656.39
   06:43:30.959.20-May-2020 5012.01 2902.91 68.10 10.00 135.04 2656.39
   06:43:31.159.20-May-2020 5012.01 2902.91 68.10 10.00 135.24 2656.39
   06:43:31.359.20-May-2020 5012.01 2902.94 68.10 10.00 135.44 2656.39
