~Version Information
 VERS.                  2.0:   CWLS log ASCII Standard -VERSION 2.0
 WRAP.                   NO:   One line per depth step
~Well Information Block
#MNEM.UNIT     VALUE/NAME     DESCRIPTION
#---------     -----------    ---------------------------
 STRT.S             23:11:25 19-May-20: START TIME 23:11:25 19-May-20
 STOP.S             23:19:39 19-May-20: STOP TIME  23:19:39 19-May-20
 STEP.S                   0.00: STEP TIME
 NULL.                 -999.25: NULL VALUE
 MDS .        Operator Entered:  MAG DATA SOURCE
 PDAT.          Mean Sea Level:  PERMANENT DATUM
 UNIT.                     N/A:  LOGGING EQUIPMENT ID
 DCON.         Sperry Drilling:  DIRECTNL CONTR
 DOE .                     N/A:  DOE NUMBER
 RIG .              East Azeri:  RIG NAME
 JOBN.        AZ-XX-0905856059:  JOB TICKET NUMB
 WELL.                     D36:  WELL NAME
 MWDS.                    Baku:  MWD SHOP
 SRVC.     Turan Drilling & Engineering:  CONTRACTOR
 FLD .                     ACG:  FIELD NAME
 CTRY.              Azerbaijan:  COUNTRY NAME
 PROV.                    Baku:  PROVINCE
 STAT.                    Baku:  STATE NAME
 REGN.                   EESSA:  REGION
 BASE.              Azerbaijan:  LOGGING EQUIPMENT BASE LOCATION
 UWI .                     N/A:  UNIQUE WELL IDENTIFIER
 API .                     N/A:  API NUMBER
 COMP.     BP Exploration (Caspian Sea) Ltd.:  COMPANY
 WTYP.                Deviated:  WELL TYPE
 SON .        AZ-XX-0905856059:  JOB NUMBER
 FTOP.          Formation Tops:  FORM TOPS DESC
 ILTD.               Lithology:  INTERP LTH DESC
 SVYD.                  Survey:  SURVEY DESC
 DMOD.             Drill Model:  DRILL MOD DESC
 HPTY.       Minimum Curvature:  HOLE POS TYPE
 NREF.                    Grid:  NORTH REFERENCE
 SPUD.               25-Feb-20:  SPUD DATE
 DATE.      08.55.28 01-May-20:  END TIME
 STIM.      08.55.28 25-Feb-20:  START TIME
 DMF .             Drill Floor:  DRILL MEAS FROM
 DFST.                        :  DIST FSL TEXT
 DFWT.                        :  DIST FWL TEXT
 CNTY.                        :  COUNTY
 LOC .                        :  LOCATION
 LMF .             Drill Floor:  LOG MEASURED FROM
 VSNS.m                   6.09:  VERT SEC N/S
 VSEW.m                 -10.79:  VERT SEC E/W
 AGAP.m                  43.60:  AIR GAP
 DEP .m                 388.24:  DEPTH
 APD .m                  43.60:  DEPTH ABOVE PD
 WDMS.m                 151.80:  WD ELEV
 EGL .m                   0.00:  GROUND ELEVATION
 EPD .m                   0.00:  ELEVATION
 AZTC.deg                 6.12:  AZM TOTAL CORR
 GRDC.deg                 0.30:  GRID CORRECTION
 MDEC.deg                 6.42:  MAGNETIC DECL
 MDIP.deg                59.42:  MAGNETIC DIP
 MFLD.nT              50256.00:  MAGNETIC FIELD
 GVFD.g                   1.00:  GRAVITY FIELD
 VSDR.deg               159.57:  VERT SEC DIRECT
 TDD .m                5000.01:  TOTAL DEPTH (DRILLER)
 SDEP.m                 397.00:  START DEPTH
 DFSL.m                   0.00:  DISTANCE FSL
 DFWL.m                   0.00:  DISTANCE FWL
 UTMY.m             4431880.20:  UTM Y
 UTMX.m              538763.98:  UTM X
 WHEW.m                 -10.79:  WELL HEAD E/W
 WHNS.m                   6.09:  WELL HEAD N/S
 LONG.deg                51.45:  LONGITUDE
 LATI.deg                40.02:  LATITUDE
 TVDS.m                  43.60:  TVDSS CORRECTN
 EKB .m                  43.60:  KB ELEVATION
 EDF .m                  43.60:  DF ELEVATION
 MAGU.                 1847640:  MAGUTM CHECKSUM
 VSC .                       0:  VS TO CLOSURE
~Parameter Information Block
#MNEM.UNIT       Value        Description
#---------     -----------    ---------------------------
 AV  .mps                 1.30:  Ann Velocity 
 AVMX.mps                 1.90:  Max Ann Veloc 
 AZIF.deg               115.68:  Azm, Final 
 BHAT.                   Other:  BHA Type 
 BROT.°/30m               0.74:  Build Rotating 
 BS  .in                  8.50:  Bit Size 
 BTPL.psig              430.00:  Bit Press Loss 
 CABU.                      No:  Customer Abuse 
 COMM.                     Tr}:  Run Comments 1 
 TCS .hr                 51.31:  Time Ciculation Ended 
 CV  .mps                 2.52:  Crit Velocity 
 CVMX.mps                 2.62:  Max Crit Veloc 
 DD1 .          Teymur Aghayev:  Direct Drillr 1 
 DDSV.                   Other:  DD Service 
 DEFF.%                 100.00:  % Det Eff 
 DLRX.°/30m               1.62:  Dogleg Rot Max 
 DLSO.°/30m               0.74:  Dogleg Oriented 
 DLSX.°/30m               1.62:  Dogleg Str Max 
 DRET.      04.30.56 18-May-20:  Drill End Time 
 DRST.      04.30.56 18-May-20:  Drill Start Tim 
 DTIM.hr                  0.00:  Time Drilling 
 EDEP.m                5337.01:  End Depth 
 ENG1.      Artemiy Matviyanov:  Engineer 1 
 ENG2.      Bakhtiyar Jabbarli:  Engineer 2 
 ENG3.           Emil Huseynov:  Engineer 3 
 ETIM.      18.40.00 22-May-20:  End Time 
 FLOI.gpm               550.00:  Flow In 
 FLON.gpm               350.00:  Flow In Min 
 FLOS.cptm                0.00:  Fluid Loss 
 FLOX.gpm               600.00:  Flow In Max 
 HFLO.                      No:  High Flow 
 HPRE.                      No:  High Pressure 
 HTEM.                      No:  High Temp 
 HYDO.m                   1.80:  Hydro Offset 
 IFIN.deg                67.01:  Inc, Final 
 IMAX.deg                67.49:  Inc Max 
 IMIN.deg                66.50:  Inc Min 
 IMND.m                5144.79:  Inc Min Depth 
 IMXD.m                5116.12:  Inc Max Depth 
 JARR.                      No:  Jarring 
 LETM.      17.55.56 20-May-20:  Log End Time 
 LOST.hr                     0:  Lost Rig Time 
 LSTM.      04.30.56 18-May-20:  Log Start Time 
 MDCL.ppm            193153.00:  Mud Chlorides 
 MDES.     Inversion Oil/Synthetic:  Mud Desc 
 DFD .sg                  1.40:  Mud Density 
 MDMN.sg                  1.40:  Dens Mud Min 
 MDMX.sg                  1.41:  Dens Mud Max 
 MOIL.                      68:  Run Mud Oil % 
 MOWR.                   68:32:  Run Mud OWR 
 MSND.                     0.2:  Run Mud Sand % 
 MSOL.                    18.8:  Run Mud Solids% 
 DFV .spqt               80.00:  Mud Viscosity 
 MWOD.in                  6.75:  MWD Tool OD 
 MWSI.                      No:  Serv Intrp, MWD 
 OTIM.hr                104.84:  Time Operating 
 PMAX.psia            10690.93:  Press Op, Max 
 PV  .cP                 26.00:  Mud PV 
 RUN .                     900:  Run Number 
 ROPA.m/hr                0.00:  ROP Avg 
 ROPN.m/hr                0.00:  ROP Min 
 ROPX.m/hr                0.00:  ROP Max 
 RPMA.rpm               140.00:  RPM Surface Avg 
 RPMN.rpm                70.00:  RPM Surface Min 
 RPMX.rpm               140.00:  RPM Surface Max 
 RRUN.                    0900:  Rig Run Number 
 RTIM.hr                 36.00:  Time Reaming 
 SAZI.deg               115.72:  Azm, Start 
 SDEP.m                5337.01:  Start Depth 
 SIDD.                      No:  Serv Intrp, DD 
 SINC.deg                66.92:  Inc, Start 
 SPPA.psig             4400.00:  SPP Avg 
 SPPN.psig             1135.00:  SPP Min 
 SPPX.psig             4581.00:  SPP Max 
 STIM.      04.30.56 18-May-20:  Start Time 
 SVCS.                     MWD:  Services 
 SVER.                    9.20:  Sperry Version 
 TDAT.m                5337.01:  Tot Depth Attmp 
 TDDF.                      No:  Trip for DD 
 TFF .                      No:  Trip for Fail 
 TQAA.f-kp               23.00:  Torque Abs Avg 
 TQAN.f-kp               18.00:  Torque Abs Min 
 TQAX.f-kp               25.00:  Torque Abs Max 
 TRRT.°/30m               0.74:  Turn Rotating 
 MRT .                    HCIM:  Maximum Recorded Temperature 
 TTMX.degC               76.47:  Max Tool Temp 
 WBMN.klb                 0.00:  WOB Min 
 WITN.             Anar Khalil:  Customer Rep 
 WITN.      Kamran Keberlinski:  Customer Rep 2 
 WOBA.klb                 0.00:  WOB Avg 
 WOBX.klb                 0.00:  WOB Max 
 YP  .lhf2               27.00:  Yield Point 
~Curve Information Block
#MNEM.UNIT                 API CODE     Curve Description
#---------               -----------    ---------------------------
 TIME.HHMMSS            00 000 000 000:  GT Time & Date
 GTDEPTH.m              00 000 000 000:  GT Depth
 GTPQH.psia             00 000 000 000:  GT HR Quartz Pressure
 GTTQ.degC              00 000 000 000:  GT Quartz Temperature
 GTTN.NONE              00 000 000 000:  GT Test Number
 GTET.sec               00 000 000 000:  GT Elapsed Test Time
 GTTVD.m                00 000 000 000:  GT True Vertical Depth
#Other Information
#
#WARRANTY: Halliburton will use its best efforts to furnish customers with 
#accurate information and interpretations that are part of, and incident to, the services 
#provided.  However, Halliburton cannot and does not warrant the accuracy 
#or correctness of such information and interpretations.  Under no circumstances should any 
#such information or interpretation be relied upon as the sole basis for any drilling, 
#completion, production, or financial decision or any procedure involving any risk to the 
#safety of any drilling venture, drilling rig or its crew or any other third party.  The 
#Customer has full responsibility for all drilling, completion and production operation.  
#Halliburton makes no representations or warranties, either expressed or 
#implied, including, but not limited to, the implied warranties of merchantability or fitness 
#for a particular purpose, with respect to the services rendered.  In no event will 
#Halliburton be liable for failure to obtain any particular results or for 
#any damages, including, but not limited to, indirect, special or consequential damages, 
#resulting from the use of any information or interpretation provided by Halliburton.
#
~A           TIME           GTDEPTH  GTPQH  GTTQ  GTTN  GTET   GTTVD  
# ...
   23:15:38.767.19-May-2020 5121.01 3296.64 67.97 5.00 253.06 2698.81
   23:15:38.967.19-May-2020 5121.01 3296.64 67.97 5.00 253.26 2698.81
   23:15:39.167.19-May-2020 5121.01 3302.35 67.97 5.00 253.46 2698.81
   23:15:39.367.19-May-2020 5121.01 3305.52 67.97 5.00 253.66 2698.81
   23:15:39.567.19-May-2020 5121.01 3308.62 67.97 5.00 253.86 2698.81
   23:15:39.767.19-May-2020 5121.01 3311.41 67.97 5.00 254.06 2698.81
   23:15:39.967.19-May-2020 5121.01 3311.41 67.97 5.00 254.26 2698.81
   23:15:40.167.19-May-2020 5121.01 3317.13 67.97 5.00 254.46 2698.81
   23:15:40.367.19-May-2020 5121.01 3319.91 67.97 5.00 254.66 2698.81
   23:15:40.567.19-May-2020 5121.01 3322.68 67.97 5.00 254.86 2698.81
   23:15:40.767.19-May-2020 5121.01 3325.39 67.97 5.00 255.06 2698.81
   23:15:40.967.19-May-2020 5121.01 3325.39 67.97 5.00 255.26 2698.81
   23:15:41.167.19-May-2020 5121.01 3330.76 67.98 5.00 255.46 2698.81
   23:15:41.367.19-May-2020 5121.01 3333.40 67.97 5.00 255.66 2698.81
   23:15:41.567.19-May-2020 5121.01 3336.03 67.98 5.00 255.86 2698.81
   23:15:41.767.19-May-2020 5121.01 3338.57 67.98 5.00 256.06 2698.81
   23:15:41.968.19-May-2020 5121.01 3338.57 67.98 5.00 256.26 2698.81
   23:15:42.168.19-May-2020 5121.01 3343.43 67.98 5.00 256.46 2698.81
   23:15:42.368.19-May-2020 5121.01 3346.37 67.98 5.00 256.66 2698.81
   23:15:42.568.19-May-2020 5121.01 3349.23 67.98 5.00 256.86 2698.81
   23:15:42.768.19-May-2020 5121.01 3351.66 67.98 5.00 257.06 2698.81
   23:15:42.968.19-May-2020 5121.01 3351.66 67.98 5.00 257.26 2698.81
   23:15:43.168.19-May-2020 5121.01 3356.91 67.98 5.00 257.46 2698.81
   23:15:43.368.19-May-2020 5121.01 3359.73 67.98 5.00 257.66 2698.81
   23:15:43.568.19-May-2020 5121.01 3362.25 67.98 5.00 257.86 2698.81
   23:15:43.768.19-May-2020 5121.01 3364.89 67.98 5.00 258.06 2698.81
   23:15:43.968.19-May-2020 5121.01 3364.89 67.98 5.00 258.26 2698.81
   23:15:44.168.19-May-2020 5121.01 3369.90 67.98 5.00 258.46 2698.81
   23:15:44.368.19-May-2020 5121.01 3372.82 67.98 5.00 258.66 2698.81
   23:15:44.568.19-May-2020 5121.01 3375.51 67.98 5.00 258.86 2698.81
   23:15:44.768.19-May-2020 5121.01 3377.87 67.98 5.00 259.06 2698.81
   23:15:44.968.19-May-2020 5121.01 3380.21 67.98 5.00 259.26 2698.81
   23:15:45.168.19-May-2020 5121.01 3382.74 67.98 5.00 259.46 2698.81
   23:15:45.368.19-May-2020 5121.01 3385.24 67.98 5.00 259.66 2698.81
   23:15:45.568.19-May-2020 5121.01 3387.78 67.98 5.00 259.86 2698.81
   23:15:45.768.19-May-2020 5121.01 3390.01 67.98 5.00 260.06 2698.81
   23:15:45.969.19-May-2020 5121.01 3390.01 67.98 5.00 260.26 2698.81
   23:15:46.169.19-May-2020 5121.01 3394.35 67.98 5.00 260.46 2698.81
   23:15:46.369.19-May-2020 5121.01 3396.90 67.98 5.00 260.66 2698.81
   23:15:46.569.19-May-2020 5121.01 3399.43 67.98 5.00 260.87 2698.81
   23:15:46.769.19-May-2020 5121.01 3401.84 67.98 5.00 261.07 2698.81
   23:15:46.969.19-May-2020 5121.01 3401.84 67.98 5.00 261.27 2698.81
   23:15:47.169.19-May-2020 5121.01 3406.48 67.98 5.00 261.47 2698.81
   23:15:47.369.19-May-2020 5121.01 3408.66 67.98 5.00 261.67 2698.81
   23:15:47.569.19-May-2020 5121.01 3410.86 67.98 5.00 261.87 2698.81
   23:15:47.769.19-May-2020 5121.01 3412.98 67.98 5.00 262.07 2698.81
   23:15:47.969.19-May-2020 5121.01 3412.98 67.98 5.00 262.27 2698.81
   23:15:48.169.19-May-2020 5121.01 3417.11 67.98 5.00 262.47 2698.81
   23:15:48.369.19-May-2020 5121.01 3419.12 67.98 5.00 262.67 2698.81
   23:15:48.569.19-May-2020 5121.01 3421.21 67.98 5.00 262.87 2698.81
   23:15:48.769.19-May-2020 5121.01 3423.22 67.98 5.00 263.07 2698.81
   23:15:48.969.19-May-2020 5121.01 3425.25 67.98 5.00 263.27 2698.81
   23:15:49.169.19-May-2020 5121.01 3426.77 67.98 5.00 263.47 2698.81
   23:15:49.369.19-May-2020 5121.01 3429.14 67.98 5.00 263.67 2698.81
   23:15:49.569.19-May-2020 5121.01 3431.36 67.98 5.00 263.87 2698.81
   23:15:49.769.19-May-2020 5121.01 3433.16 67.98 5.00 264.07 2698.81
   23:15:49.970.19-May-2020 5121.01 3433.16 67.98 5.00 264.27 2698.81
   23:15:50.170.19-May-2020 5121.01 3437.03 67.98 5.00 264.47 2698.81
   23:15:50.370.19-May-2020 5121.01 3439.13 67.98 5.00 264.67 2698.81
   23:15:50.570.19-May-2020 5121.01 3440.93 67.97 5.00 264.87 2698.81
   23:15:50.770.19-May-2020 5121.01 3442.87 67.98 5.00 265.07 2698.81
   23:15:50.970.19-May-2020 5121.01 3442.87 67.98 5.00 265.27 2698.81
   23:15:51.170.19-May-2020 5121.01 3445.97 67.97 5.00 265.47 2698.81
   23:15:51.370.19-May-2020 5121.01 3448.21 67.98 5.00 265.67 2698.81
   23:15:51.570.19-May-2020 5121.01 3450.18 67.98 5.00 265.87 2698.81
   23:15:51.770.19-May-2020 5121.01 3452.01 67.97 5.00 266.07 2698.81
   23:15:51.970.19-May-2020 5121.01 3452.01 67.98 5.00 266.27 2698.81
   23:15:52.170.19-May-2020 5121.01 3455.48 67.97 5.00 266.47 2698.81
   23:15:52.370.19-May-2020 5121.01 3457.20 67.97 5.00 266.67 2698.81
   23:15:52.570.19-May-2020 5121.01 3458.52 67.97 5.00 266.87 2698.81
   23:15:52.770.19-May-2020 5121.01 3460.51 67.97 5.00 267.07 2698.81
   23:15:52.970.19-May-2020 5121.01 3462.57 67.97 5.00 267.27 2698.81
   23:15:53.170.19-May-2020 5121.01 3464.35 67.97 5.00 267.47 2698.81
   23:15:53.370.19-May-2020 5121.01 3466.18 67.97 5.00 267.67 2698.81
   23:15:53.570.19-May-2020 5121.01 3467.79 67.97 5.00 267.87 2698.81
   23:15:53.770.19-May-2020 5121.01 3468.95 67.97 5.00 268.07 2698.81
   23:15:53.971.19-May-2020 5121.01 3468.95 67.97 5.00 268.27 2698.81
   23:15:54.171.19-May-2020 5121.01 3472.70 67.97 5.00 268.47 2698.81
   23:15:54.371.19-May-2020 5121.01 3474.41 67.97 5.00 268.67 2698.81
   23:15:54.571.19-May-2020 5121.01 3476.11 67.97 5.00 268.87 2698.81
   23:15:54.771.19-May-2020 5121.01 3477.66 67.97 5.00 269.07 2698.81
   23:15:54.971.19-May-2020 5121.01 3477.66 67.97 5.00 269.27 2698.81
   23:15:55.171.19-May-2020 5121.01 3480.79 67.97 5.00 269.47 2698.81
   23:15:55.371.19-May-2020 5121.01 3482.25 67.97 5.00 269.67 2698.81
   23:15:55.571.19-May-2020 5121.01 3483.80 67.97 5.00 269.87 2698.81
   23:15:55.771.19-May-2020 5121.01 3485.18 67.97 5.00 270.07 2698.81
   23:15:55.971.19-May-2020 5121.01 3485.18 67.97 5.00 270.27 2698.81
   23:15:56.171.19-May-2020 5121.01 3488.10 67.97 5.00 270.47 2698.81
   23:15:56.371.19-May-2020 5121.01 3489.50 67.97 5.00 270.67 2698.81
   23:15:56.571.19-May-2020 5121.01 3490.93 67.97 5.00 270.87 2698.81
   23:15:56.771.19-May-2020 5121.01 3491.97 67.97 5.00 271.07 2698.81
   23:15:56.971.19-May-2020 5121.01 3493.62 67.97 5.00 271.27 2698.81
   23:15:57.171.19-May-2020 5121.01 3495.13 67.97 5.00 271.47 2698.81
   23:15:57.371.19-May-2020 5121.01 3496.57 67.97 5.00 271.67 2698.81
   23:15:57.571.19-May-2020 5121.01 3497.83 67.97 5.00 271.87 2698.81
   23:15:57.771.19-May-2020 5121.01 3498.96 67.97 5.00 272.07 2698.81
   23:15:57.972.19-May-2020 5121.01 3498.96 67.97 5.00 272.27 2698.81
   23:15:58.172.19-May-2020 5121.01 3502.00 67.97 5.00 272.47 2698.81
   23:15:58.372.19-May-2020 5121.01 3503.26 67.97 5.00 272.67 2698.81
   23:15:58.572.19-May-2020 5121.01 3504.38 67.97 5.00 272.87 2698.81
   23:15:58.772.19-May-2020 5121.01 3505.80 67.97 5.00 273.07 2698.81
   23:15:58.972.19-May-2020 5121.01 3505.80 67.97 5.00 273.27 2698.81
   23:15:59.172.19-May-2020 5121.01 3508.40 67.97 5.00 273.47 2698.81
   23:15:59.372.19-May-2020 5121.01 3509.72 67.97 5.00 273.67 2698.81
   23:15:59.572.19-May-2020 5121.01 3510.85 67.97 5.00 273.87 2698.81
   23:15:59.772.19-May-2020 5121.01 3511.61 67.97 5.00 274.07 2698.81
   23:15:59.972.19-May-2020 5121.01 3511.61 67.97 5.00 274.27 2698.81
   23:16:00.172.19-May-2020 5121.01 3514.42 67.97 5.00 274.47 2698.81
   23:16:00.372.19-May-2020 5121.01 3515.41 67.97 5.00 274.67 2698.81
   23:16:00.572.19-May-2020 5121.01 3516.27 67.97 5.00 274.87 2698.81
   23:16:00.772.19-May-2020 5121.01 3517.64 67.97 5.00 275.07 2698.81
   23:16:00.972.19-May-2020 5121.01 3517.64 67.97 5.00 275.27 2698.81
   23:16:01.172.19-May-2020 5121.01 3519.95 67.97 5.00 275.47 2698.81
   23:16:01.372.19-May-2020 5121.01 3520.96 67.97 5.00 275.67 2698.81
   23:16:01.572.19-May-2020 5121.01 3522.02 67.97 5.00 275.87 2698.81
