~Version Information
 VERS.                  2.0:   CWLS log ASCII Standard -VERSION 2.0
 WRAP.                   NO:   One line per depth step
~Well Information Block
#MNEM.UNIT     VALUE/NAME     DESCRIPTION
#---------     -----------    ---------------------------
 STRT.S             03:43:00 20-May-20: START TIME 03:43:00 20-May-20
 STOP.S             03:53:08 20-May-20: STOP TIME  03:53:08 20-May-20
 STEP.S                   0.00: STEP TIME
 NULL.                 -999.25: NULL VALUE
 MDS .        Operator Entered:  MAG DATA SOURCE
 PDAT.          Mean Sea Level:  PERMANENT DATUM
 UNIT.                     N/A:  LOGGING EQUIPMENT ID
 DCON.         Sperry Drilling:  DIRECTNL CONTR
 DOE .                     N/A:  DOE NUMBER
 RIG .              East Azeri:  RIG NAME
 JOBN.        AZ-XX-0905856059:  JOB TICKET NUMB
 WELL.                     D36:  WELL NAME
 MWDS.                    Baku:  MWD SHOP
 SRVC.     Turan Drilling & Engineering:  CONTRACTOR
 FLD .                     ACG:  FIELD NAME
 CTRY.              Azerbaijan:  COUNTRY NAME
 PROV.                    Baku:  PROVINCE
 STAT.                    Baku:  STATE NAME
 REGN.                   EESSA:  REGION
 BASE.              Azerbaijan:  LOGGING EQUIPMENT BASE LOCATION
 UWI .                     N/A:  UNIQUE WELL IDENTIFIER
 API .                     N/A:  API NUMBER
 COMP.     BP Exploration (Caspian Sea) Ltd.:  COMPANY
 WTYP.                Deviated:  WELL TYPE
 SON .        AZ-XX-0905856059:  JOB NUMBER
 FTOP.          Formation Tops:  FORM TOPS DESC
 ILTD.               Lithology:  INTERP LTH DESC
 SVYD.                  Survey:  SURVEY DESC
 DMOD.             Drill Model:  DRILL MOD DESC
 HPTY.       Minimum Curvature:  HOLE POS TYPE
 NREF.                    Grid:  NORTH REFERENCE
 SPUD.               25-Feb-20:  SPUD DATE
 DATE.      08.55.28 01-May-20:  END TIME
 STIM.      08.55.28 25-Feb-20:  START TIME
 DMF .             Drill Floor:  DRILL MEAS FROM
 DFST.                        :  DIST FSL TEXT
 DFWT.                        :  DIST FWL TEXT
 CNTY.                        :  COUNTY
 LOC .                        :  LOCATION
 LMF .             Drill Floor:  LOG MEASURED FROM
 VSNS.m                   6.09:  VERT SEC N/S
 VSEW.m                 -10.79:  VERT SEC E/W
 AGAP.m                  43.60:  AIR GAP
 DEP .m                 388.24:  DEPTH
 APD .m                  43.60:  DEPTH ABOVE PD
 WDMS.m                 151.80:  WD ELEV
 EGL .m                   0.00:  GROUND ELEVATION
 EPD .m                   0.00:  ELEVATION
 AZTC.deg                 6.12:  AZM TOTAL CORR
 GRDC.deg                 0.30:  GRID CORRECTION
 MDEC.deg                 6.42:  MAGNETIC DECL
 MDIP.deg                59.42:  MAGNETIC DIP
 MFLD.nT              50256.00:  MAGNETIC FIELD
 GVFD.g                   1.00:  GRAVITY FIELD
 VSDR.deg               159.57:  VERT SEC DIRECT
 TDD .m                5000.01:  TOTAL DEPTH (DRILLER)
 SDEP.m                 397.00:  START DEPTH
 DFSL.m                   0.00:  DISTANCE FSL
 DFWL.m                   0.00:  DISTANCE FWL
 UTMY.m             4431880.20:  UTM Y
 UTMX.m              538763.98:  UTM X
 WHEW.m                 -10.79:  WELL HEAD E/W
 WHNS.m                   6.09:  WELL HEAD N/S
 LONG.deg                51.45:  LONGITUDE
 LATI.deg                40.02:  LATITUDE
 TVDS.m                  43.60:  TVDSS CORRECTN
 EKB .m                  43.60:  KB ELEVATION
 EDF .m                  43.60:  DF ELEVATION
 MAGU.                 1847640:  MAGUTM CHECKSUM
 VSC .                       0:  VS TO CLOSURE
~Parameter Information Block
#MNEM.UNIT       Value        Description
#---------     -----------    ---------------------------
 AV  .mps                 1.30:  Ann Velocity 
 AVMX.mps                 1.90:  Max Ann Veloc 
 AZIF.deg               115.68:  Azm, Final 
 BHAT.                   Other:  BHA Type 
 BROT.°/30m               0.74:  Build Rotating 
 BS  .in                  8.50:  Bit Size 
 BTPL.psig              430.00:  Bit Press Loss 
 CABU.                      No:  Customer Abuse 
 COMM.                     ÌÍk:  Run Comments 1 
 TCS .hr                 51.31:  Time Ciculation Ended 
 CV  .mps                 2.52:  Crit Velocity 
 CVMX.mps                 2.62:  Max Crit Veloc 
 DD1 .          Teymur Aghayev:  Direct Drillr 1 
 DDSV.                   Other:  DD Service 
 DEFF.%                 100.00:  % Det Eff 
 DLRX.°/30m               1.62:  Dogleg Rot Max 
 DLSO.°/30m               0.74:  Dogleg Oriented 
 DLSX.°/30m               1.62:  Dogleg Str Max 
 DRET.      04.30.56 18-May-20:  Drill End Time 
 DRST.      04.30.56 18-May-20:  Drill Start Tim 
 DTIM.hr                  0.00:  Time Drilling 
 EDEP.m                5337.01:  End Depth 
 ENG1.      Artemiy Matviyanov:  Engineer 1 
 ENG2.      Bakhtiyar Jabbarli:  Engineer 2 
 ENG3.           Emil Huseynov:  Engineer 3 
 ETIM.      18.40.00 22-May-20:  End Time 
 FLOI.gpm               550.00:  Flow In 
 FLON.gpm               350.00:  Flow In Min 
 FLOS.cptm                0.00:  Fluid Loss 
 FLOX.gpm               600.00:  Flow In Max 
 HFLO.                      No:  High Flow 
 HPRE.                      No:  High Pressure 
 HTEM.                      No:  High Temp 
 HYDO.m                   1.80:  Hydro Offset 
 IFIN.deg                67.01:  Inc, Final 
 IMAX.deg                67.49:  Inc Max 
 IMIN.deg                66.50:  Inc Min 
 IMND.m                5144.79:  Inc Min Depth 
 IMXD.m                5116.12:  Inc Max Depth 
 JARR.                      No:  Jarring 
 LETM.      17.55.56 20-May-20:  Log End Time 
 LOST.hr                     0:  Lost Rig Time 
 LSTM.      04.30.56 18-May-20:  Log Start Time 
 MDCL.ppm            193153.00:  Mud Chlorides 
 MDES.     Inversion Oil/Synthetic:  Mud Desc 
 DFD .sg                  1.40:  Mud Density 
 MDMN.sg                  1.40:  Dens Mud Min 
 MDMX.sg                  1.41:  Dens Mud Max 
 MOIL.                      68:  Run Mud Oil % 
 MOWR.                   68:32:  Run Mud OWR 
 MSND.                     0.2:  Run Mud Sand % 
 MSOL.                    18.8:  Run Mud Solids% 
 DFV .spqt               80.00:  Mud Viscosity 
 MWOD.in                  6.75:  MWD Tool OD 
 MWSI.                      No:  Serv Intrp, MWD 
 OTIM.hr                104.84:  Time Operating 
 PMAX.psia            10690.93:  Press Op, Max 
 PV  .cP                 26.00:  Mud PV 
 RUN .                     900:  Run Number 
 ROPA.m/hr                0.00:  ROP Avg 
 ROPN.m/hr                0.00:  ROP Min 
 ROPX.m/hr                0.00:  ROP Max 
 RPMA.rpm               140.00:  RPM Surface Avg 
 RPMN.rpm                70.00:  RPM Surface Min 
 RPMX.rpm               140.00:  RPM Surface Max 
 RRUN.                    0900:  Rig Run Number 
 RTIM.hr                 36.00:  Time Reaming 
 SAZI.deg               115.72:  Azm, Start 
 SDEP.m                5337.01:  Start Depth 
 SIDD.                      No:  Serv Intrp, DD 
 SINC.deg                66.92:  Inc, Start 
 SPPA.psig             4400.00:  SPP Avg 
 SPPN.psig             1135.00:  SPP Min 
 SPPX.psig             4581.00:  SPP Max 
 STIM.      04.30.56 18-May-20:  Start Time 
 SVCS.                     MWD:  Services 
 SVER.                    9.20:  Sperry Version 
 TDAT.m                5337.01:  Tot Depth Attmp 
 TDDF.                      No:  Trip for DD 
 TFF .                      No:  Trip for Fail 
 TQAA.f-kp               23.00:  Torque Abs Avg 
 TQAN.f-kp               18.00:  Torque Abs Min 
 TQAX.f-kp               25.00:  Torque Abs Max 
 TRRT.°/30m               0.74:  Turn Rotating 
 MRT .                    HCIM:  Maximum Recorded Temperature 
 TTMX.degC               76.47:  Max Tool Temp 
 WBMN.klb                 0.00:  WOB Min 
 WITN.             Anar Khalil:  Customer Rep 
 WITN.      Kamran Keberlinski:  Customer Rep 2 
 WOBA.klb                 0.00:  WOB Avg 
 WOBX.klb                 0.00:  WOB Max 
 YP  .lhf2               27.00:  Yield Point 
~Curve Information Block
#MNEM.UNIT                 API CODE     Curve Description
#---------               -----------    ---------------------------
 TIME.HHMMSS            00 000 000 000:  GT Time & Date
 GTDEPTH.m              00 000 000 000:  GT Depth
 GTPQH.psia             00 000 000 000:  GT HR Quartz Pressure
 GTTQ.degC              00 000 000 000:  GT Quartz Temperature
 GTTN.NONE              00 000 000 000:  GT Test Number
 GTET.sec               00 000 000 000:  GT Elapsed Test Time
 GTTVD.m                00 000 000 000:  GT True Vertical Depth
#Other Information
#
#WARRANTY: Halliburton will use its best efforts to furnish customers with 
#accurate information and interpretations that are part of, and incident to, the services 
#provided.  However, Halliburton cannot and does not warrant the accuracy 
#or correctness of such information and interpretations.  Under no circumstances should any 
#such information or interpretation be relied upon as the sole basis for any drilling, 
#completion, production, or financial decision or any procedure involving any risk to the 
#safety of any drilling venture, drilling rig or its crew or any other third party.  The 
#Customer has full responsibility for all drilling, completion and production operation.  
#Halliburton makes no representations or warranties, either expressed or 
#implied, including, but not limited to, the implied warranties of merchantability or fitness 
#for a particular purpose, with respect to the services rendered.  In no event will 
#Halliburton be liable for failure to obtain any particular results or for 
#any damages, including, but not limited to, indirect, special or consequential damages, 
#resulting from the use of any information or interpretation provided by Halliburton.
#
~A           TIME           GTDEPTH  GTPQH  GTTQ  GTTN  GTET   GTTVD  
# ...
   03:43:46.909.20-May-2020 5064.01  730.41 69.05 8.00  46.01 2676.56
   03:43:47.109.20-May-2020 5064.01  730.41 69.04 8.00  46.21 2676.56
   03:43:47.309.20-May-2020 5064.01  615.73 69.04 8.00  46.41 2676.56
   03:43:47.509.20-May-2020 5064.01  566.09 69.03 8.00  46.61 2676.56
   03:43:47.709.20-May-2020 5064.01  522.55 69.03 8.00  46.81 2676.56
   03:43:47.909.20-May-2020 5064.01  499.45 69.03 8.00  47.01 2676.56
   03:43:48.109.20-May-2020 5064.01  498.96 69.02 8.00  47.21 2676.56
   03:43:48.309.20-May-2020 5064.01  494.01 69.02 8.00  47.41 2676.56
   03:43:48.509.20-May-2020 5064.01  485.97 69.01 8.00  47.61 2676.56
   03:43:48.710.20-May-2020 5064.01  478.39 69.01 8.00  47.81 2676.56
   03:43:48.910.20-May-2020 5064.01  476.51 69.00 8.00  48.01 2676.56
   03:43:49.110.20-May-2020 5064.01  476.51 69.00 8.00  48.21 2676.56
   03:43:49.310.20-May-2020 5064.01  467.36 69.00 8.00  48.41 2676.56
   03:43:49.510.20-May-2020 5064.01  461.70 68.99 8.00  48.61 2676.56
   03:43:49.710.20-May-2020 5064.01  454.18 68.99 8.00  48.81 2676.56
   03:43:49.910.20-May-2020 5064.01  456.34 68.98 8.00  49.01 2676.56
   03:43:50.110.20-May-2020 5064.01  459.15 68.98 8.00  49.21 2676.56
   03:43:50.310.20-May-2020 5064.01  461.78 68.98 8.00  49.41 2676.56
   03:43:50.510.20-May-2020 5064.01  462.24 68.97 8.00  49.61 2676.56
   03:43:50.710.20-May-2020 5064.01  455.47 68.97 8.00  49.81 2676.56
   03:43:50.910.20-May-2020 5064.01  456.56 68.96 8.00  50.01 2676.56
   03:43:51.110.20-May-2020 5064.01  456.56 68.96 8.00  50.21 2676.56
   03:43:51.310.20-May-2020 5064.01  455.05 68.96 8.00  50.41 2676.56
   03:43:51.510.20-May-2020 5064.01  448.27 68.95 8.00  50.61 2676.56
   03:43:51.710.20-May-2020 5064.01  439.94 68.95 8.00  50.81 2676.56
   03:43:51.910.20-May-2020 5064.01  433.24 68.95 8.00  51.01 2676.56
   03:43:52.110.20-May-2020 5064.01  425.37 68.95 8.00  51.21 2676.56
   03:43:52.311.20-May-2020 5064.01  418.52 68.94 8.00  51.41 2676.56
   03:43:52.511.20-May-2020 5064.01  412.59 68.94 8.00  51.61 2676.56
   03:43:52.711.20-May-2020 5064.01  410.15 68.94 8.00  51.81 2676.56
   03:43:52.911.20-May-2020 5064.01  409.01 68.94 8.00  52.01 2676.56
   03:43:53.111.20-May-2020 5064.01  409.01 68.93 8.00  52.21 2676.56
   03:43:53.311.20-May-2020 5064.01  406.80 68.93 8.00  52.41 2676.56
   03:43:53.511.20-May-2020 5064.01  407.24 68.93 8.00  52.61 2676.56
   03:43:53.711.20-May-2020 5064.01  408.75 68.93 8.00  52.81 2676.56
   03:43:53.911.20-May-2020 5064.01  410.46 68.93 8.00  53.01 2676.56
   03:43:54.111.20-May-2020 5064.01  412.45 68.92 8.00  53.22 2676.56
   03:43:54.311.20-May-2020 5064.01  414.46 68.92 8.00  53.42 2676.56
   03:43:54.511.20-May-2020 5064.01  415.91 68.92 8.00  53.62 2676.56
   03:43:54.711.20-May-2020 5064.01  417.02 68.92 8.00  53.82 2676.56
   03:43:54.911.20-May-2020 5064.01  418.25 68.92 8.00  54.02 2676.56
   03:43:55.111.20-May-2020 5064.01  418.25 68.92 8.00  54.22 2676.56
   03:43:55.311.20-May-2020 5064.01  420.63 68.91 8.00  54.42 2676.56
   03:43:55.511.20-May-2020 5064.01  420.95 68.91 8.00  54.62 2676.56
   03:43:55.712.20-May-2020 5064.01  421.59 68.91 8.00  54.82 2676.56
   03:43:55.912.20-May-2020 5064.01  422.60 68.91 8.00  55.02 2676.56
   03:43:56.112.20-May-2020 5064.01  422.60 68.91 8.00  55.22 2676.56
   03:43:56.312.20-May-2020 5064.01  424.26 68.91 8.00  55.42 2676.56
   03:43:56.512.20-May-2020 5064.01  425.07 68.91 8.00  55.62 2676.56
   03:43:56.712.20-May-2020 5064.01  425.66 68.91 8.00  55.82 2676.56
   03:43:56.912.20-May-2020 5064.01  426.70 68.91 8.00  56.02 2676.56
   03:43:57.112.20-May-2020 5064.01  426.70 68.91 8.00  56.22 2676.56
   03:43:57.312.20-May-2020 5064.01  428.01 68.90 8.00  56.42 2676.56
   03:43:57.512.20-May-2020 5064.01  428.58 68.90 8.00  56.62 2676.56
   03:43:57.712.20-May-2020 5064.01  429.07 68.90 8.00  56.82 2676.56
   03:43:57.912.20-May-2020 5064.01  429.91 68.90 8.00  57.02 2676.56
   03:43:58.112.20-May-2020 5064.01  429.91 68.90 8.00  57.22 2676.56
   03:43:58.312.20-May-2020 5064.01  430.80 68.90 8.00  57.42 2676.56
   03:43:58.512.20-May-2020 5064.01  430.90 68.90 8.00  57.62 2676.56
   03:43:58.712.20-May-2020 5064.01  430.51 68.90 8.00  57.82 2676.56
   03:43:58.912.20-May-2020 5064.01  430.20 68.90 8.00  58.02 2676.56
   03:43:59.112.20-May-2020 5064.01  430.20 68.90 8.00  58.22 2676.56
   03:43:59.313.20-May-2020 5064.01  415.26 68.90 8.00  58.42 2676.56
   03:43:59.513.20-May-2020 5064.01  406.83 68.90 8.00  58.62 2676.56
   03:43:59.713.20-May-2020 5064.01  397.56 68.90 8.00  58.82 2676.56
   03:43:59.913.20-May-2020 5064.01  389.89 68.90 8.00  59.02 2676.56
   03:44:00.113.20-May-2020 5064.01  389.89 68.90 8.00  59.22 2676.56
   03:44:00.313.20-May-2020 5064.01  383.45 68.90 8.00  59.42 2676.56
   03:44:00.513.20-May-2020 5064.01  384.06 68.90 8.00  59.62 2676.56
   03:44:00.713.20-May-2020 5064.01  384.88 68.90 8.00  59.82 2676.56
   03:44:00.913.20-May-2020 5064.01  385.86 68.90 8.00  60.02 2676.56
   03:44:01.113.20-May-2020 5064.01  385.86 68.90 8.00  60.22 2676.56
   03:44:01.313.20-May-2020 5064.01  387.18 68.90 8.00  60.42 2676.56
   03:44:01.513.20-May-2020 5064.01  387.98 68.90 8.00  60.62 2676.56
   03:44:01.713.20-May-2020 5064.01  388.90 68.90 8.00  60.82 2676.56
   03:44:01.913.20-May-2020 5064.01  389.90 68.90 8.00  61.02 2676.56
   03:44:02.113.20-May-2020 5064.01  390.56 68.90 8.00  61.22 2676.56
   03:44:02.313.20-May-2020 5064.01  390.94 68.90 8.00  61.42 2676.56
   03:44:02.513.20-May-2020 5064.01  391.36 68.90 8.00  61.62 2676.56
   03:44:02.713.20-May-2020 5064.01  391.85 68.90 8.00  61.82 2676.56
   03:44:02.914.20-May-2020 5064.01  392.53 68.90 8.00  62.02 2676.56
   03:44:03.114.20-May-2020 5064.01  392.53 68.90 8.00  62.22 2676.56
   03:44:03.314.20-May-2020 5064.01  393.31 68.90 8.00  62.42 2676.56
   03:44:03.514.20-May-2020 5064.01  393.45 68.90 8.00  62.62 2676.56
   03:44:03.714.20-May-2020 5064.01  394.13 68.90 8.00  62.82 2676.56
   03:44:03.914.20-May-2020 5064.01  394.90 68.90 8.00  63.02 2676.56
   03:44:04.114.20-May-2020 5064.01  394.90 68.90 8.00  63.22 2676.56
   03:44:04.314.20-May-2020 5064.01  395.35 68.90 8.00  63.42 2676.56
   03:44:04.514.20-May-2020 5064.01  395.57 68.90 8.00  63.62 2676.56
   03:44:04.714.20-May-2020 5064.01  396.01 68.90 8.00  63.82 2676.56
   03:44:04.914.20-May-2020 5064.01  395.75 68.90 8.00  64.02 2676.56
   03:44:05.114.20-May-2020 5064.01  395.75 68.90 8.00  64.22 2676.56
   03:44:05.314.20-May-2020 5064.01  394.64 68.90 8.00  64.42 2676.56
   03:44:05.514.20-May-2020 5064.01  390.20 68.90 8.00  64.62 2676.56
   03:44:05.714.20-May-2020 5064.01  386.17 68.90 8.00  64.82 2676.56
   03:44:05.914.20-May-2020 5064.01  383.84 68.90 8.00  65.02 2676.56
   03:44:06.114.20-May-2020 5064.01  383.84 68.90 8.00  65.22 2676.56
   03:44:06.315.20-May-2020 5064.01  382.36 68.90 8.00  65.42 2676.56
   03:44:06.515.20-May-2020 5064.01  380.26 68.90 8.00  65.62 2676.56
   03:44:06.715.20-May-2020 5064.01  378.23 68.90 8.00  65.82 2676.56
   03:44:06.915.20-May-2020 5064.01  376.76 68.90 8.00  66.02 2676.56
   03:44:07.115.20-May-2020 5064.01  376.76 68.90 8.00  66.22 2676.56
   03:44:07.315.20-May-2020 5064.01  376.31 68.91 8.00  66.42 2676.56
   03:44:07.515.20-May-2020 5064.01  376.78 68.91 8.00  66.62 2676.56
   03:44:07.715.20-May-2020 5064.01  377.74 68.91 8.00  66.82 2676.56
   03:44:07.915.20-May-2020 5064.01  378.42 68.91 8.00  67.02 2676.56
   03:44:08.115.20-May-2020 5064.01  378.42 68.91 8.00  67.22 2676.56
   03:44:08.315.20-May-2020 5064.01  379.74 68.91 8.00  67.42 2676.56
   03:44:08.515.20-May-2020 5064.01  380.65 68.91 8.00  67.62 2676.56
   03:44:08.715.20-May-2020 5064.01  381.52 68.91 8.00  67.82 2676.56
   03:44:08.915.20-May-2020 5064.01  382.32 68.91 8.00  68.02 2676.56
   03:44:09.115.20-May-2020 5064.01  382.32 68.91 8.00  68.22 2676.56
   03:44:09.315.20-May-2020 5064.01  383.46 68.91 8.00  68.42 2676.56
   03:44:09.515.20-May-2020 5064.01  384.09 68.91 8.00  68.62 2676.56
   03:44:09.715.20-May-2020 5064.01  385.09 68.91 8.00  68.82 2676.56
