~Version Information
 VERS.                  2.0:   CWLS log ASCII Standard -VERSION 2.0
 WRAP.                   NO:   One line per depth step
~Well Information Block
#MNEM.UNIT     VALUE/NAME     DESCRIPTION
#---------     -----------    ---------------------------
 STRT.S             22:24:43 19-May-20: START TIME 22:24:43 19-May-20
 STOP.S             22:33:01 19-May-20: STOP TIME  22:33:01 19-May-20
 STEP.S                   0.00: STEP TIME
 NULL.                 -999.25: NULL VALUE
 MDS .        Operator Entered:  MAG DATA SOURCE
 PDAT.          Mean Sea Level:  PERMANENT DATUM
 UNIT.                     N/A:  LOGGING EQUIPMENT ID
 DCON.         Sperry Drilling:  DIRECTNL CONTR
 DOE .                     N/A:  DOE NUMBER
 RIG .              East Azeri:  RIG NAME
 JOBN.        AZ-XX-0905856059:  JOB TICKET NUMB
 WELL.                     D36:  WELL NAME
 MWDS.                    Baku:  MWD SHOP
 SRVC.     Turan Drilling & Engineering:  CONTRACTOR
 FLD .                     ACG:  FIELD NAME
 CTRY.              Azerbaijan:  COUNTRY NAME
 PROV.                    Baku:  PROVINCE
 STAT.                    Baku:  STATE NAME
 REGN.                   EESSA:  REGION
 BASE.              Azerbaijan:  LOGGING EQUIPMENT BASE LOCATION
 UWI .                     N/A:  UNIQUE WELL IDENTIFIER
 API .                     N/A:  API NUMBER
 COMP.     BP Exploration (Caspian Sea) Ltd.:  COMPANY
 WTYP.                Deviated:  WELL TYPE
 SON .        AZ-XX-0905856059:  JOB NUMBER
 FTOP.          Formation Tops:  FORM TOPS DESC
 ILTD.               Lithology:  INTERP LTH DESC
 SVYD.                  Survey:  SURVEY DESC
 DMOD.             Drill Model:  DRILL MOD DESC
 HPTY.       Minimum Curvature:  HOLE POS TYPE
 NREF.                    Grid:  NORTH REFERENCE
 SPUD.               25-Feb-20:  SPUD DATE
 DATE.      08.55.28 01-May-20:  END TIME
 STIM.      08.55.28 25-Feb-20:  START TIME
 DMF .             Drill Floor:  DRILL MEAS FROM
 DFST.                        :  DIST FSL TEXT
 DFWT.                        :  DIST FWL TEXT
 CNTY.                        :  COUNTY
 LOC .                        :  LOCATION
 LMF .             Drill Floor:  LOG MEASURED FROM
 VSNS.m                   6.09:  VERT SEC N/S
 VSEW.m                 -10.79:  VERT SEC E/W
 AGAP.m                  43.60:  AIR GAP
 DEP .m                 388.24:  DEPTH
 APD .m                  43.60:  DEPTH ABOVE PD
 WDMS.m                 151.80:  WD ELEV
 EGL .m                   0.00:  GROUND ELEVATION
 EPD .m                   0.00:  ELEVATION
 AZTC.deg                 6.12:  AZM TOTAL CORR
 GRDC.deg                 0.30:  GRID CORRECTION
 MDEC.deg                 6.42:  MAGNETIC DECL
 MDIP.deg                59.42:  MAGNETIC DIP
 MFLD.nT              50256.00:  MAGNETIC FIELD
 GVFD.g                   1.00:  GRAVITY FIELD
 VSDR.deg               159.57:  VERT SEC DIRECT
 TDD .m                5000.01:  TOTAL DEPTH (DRILLER)
 SDEP.m                 397.00:  START DEPTH
 DFSL.m                   0.00:  DISTANCE FSL
 DFWL.m                   0.00:  DISTANCE FWL
 UTMY.m             4431880.20:  UTM Y
 UTMX.m              538763.98:  UTM X
 WHEW.m                 -10.79:  WELL HEAD E/W
 WHNS.m                   6.09:  WELL HEAD N/S
 LONG.deg                51.45:  LONGITUDE
 LATI.deg                40.02:  LATITUDE
 TVDS.m                  43.60:  TVDSS CORRECTN
 EKB .m                  43.60:  KB ELEVATION
 EDF .m                  43.60:  DF ELEVATION
 MAGU.                 1847640:  MAGUTM CHECKSUM
 VSC .                       0:  VS TO CLOSURE
~Parameter Information Block
#MNEM.UNIT       Value        Description
#---------     -----------    ---------------------------
 AV  .mps                 1.30:  Ann Velocity 
 AVMX.mps                 1.90:  Max Ann Veloc 
 AZIF.deg               115.68:  Azm, Final 
 BHAT.                   Other:  BHA Type 
 BROT.°/30m               0.74:  Build Rotating 
 BS  .in                  8.50:  Bit Size 
 BTPL.psig              430.00:  Bit Press Loss 
 CABU.                      No:  Customer Abuse 
 COMM.                     ”le:  Run Comments 1 
 TCS .hr                 51.31:  Time Ciculation Ended 
 CV  .mps                 2.52:  Crit Velocity 
 CVMX.mps                 2.62:  Max Crit Veloc 
 DD1 .          Teymur Aghayev:  Direct Drillr 1 
 DDSV.                   Other:  DD Service 
 DEFF.%                 100.00:  % Det Eff 
 DLRX.°/30m               1.62:  Dogleg Rot Max 
 DLSO.°/30m               0.74:  Dogleg Oriented 
 DLSX.°/30m               1.62:  Dogleg Str Max 
 DRET.      04.30.56 18-May-20:  Drill End Time 
 DRST.      04.30.56 18-May-20:  Drill Start Tim 
 DTIM.hr                  0.00:  Time Drilling 
 EDEP.m                5337.01:  End Depth 
 ENG1.      Artemiy Matviyanov:  Engineer 1 
 ENG2.      Bakhtiyar Jabbarli:  Engineer 2 
 ENG3.           Emil Huseynov:  Engineer 3 
 ETIM.      18.40.00 22-May-20:  End Time 
 FLOI.gpm               550.00:  Flow In 
 FLON.gpm               350.00:  Flow In Min 
 FLOS.cptm                0.00:  Fluid Loss 
 FLOX.gpm               600.00:  Flow In Max 
 HFLO.                      No:  High Flow 
 HPRE.                      No:  High Pressure 
 HTEM.                      No:  High Temp 
 HYDO.m                   1.80:  Hydro Offset 
 IFIN.deg                67.01:  Inc, Final 
 IMAX.deg                67.49:  Inc Max 
 IMIN.deg                66.50:  Inc Min 
 IMND.m                5144.79:  Inc Min Depth 
 IMXD.m                5116.12:  Inc Max Depth 
 JARR.                      No:  Jarring 
 LETM.      17.55.56 20-May-20:  Log End Time 
 LOST.hr                     0:  Lost Rig Time 
 LSTM.      04.30.56 18-May-20:  Log Start Time 
 MDCL.ppm            193153.00:  Mud Chlorides 
 MDES.     Inversion Oil/Synthetic:  Mud Desc 
 DFD .sg                  1.40:  Mud Density 
 MDMN.sg                  1.40:  Dens Mud Min 
 MDMX.sg                  1.41:  Dens Mud Max 
 MOIL.                      68:  Run Mud Oil % 
 MOWR.                   68:32:  Run Mud OWR 
 MSND.                     0.2:  Run Mud Sand % 
 MSOL.                    18.8:  Run Mud Solids% 
 DFV .spqt               80.00:  Mud Viscosity 
 MWOD.in                  6.75:  MWD Tool OD 
 MWSI.                      No:  Serv Intrp, MWD 
 OTIM.hr                104.84:  Time Operating 
 PMAX.psia            10690.93:  Press Op, Max 
 PV  .cP                 26.00:  Mud PV 
 RUN .                     900:  Run Number 
 ROPA.m/hr                0.00:  ROP Avg 
 ROPN.m/hr                0.00:  ROP Min 
 ROPX.m/hr                0.00:  ROP Max 
 RPMA.rpm               140.00:  RPM Surface Avg 
 RPMN.rpm                70.00:  RPM Surface Min 
 RPMX.rpm               140.00:  RPM Surface Max 
 RRUN.                    0900:  Rig Run Number 
 RTIM.hr                 36.00:  Time Reaming 
 SAZI.deg               115.72:  Azm, Start 
 SDEP.m                5337.01:  Start Depth 
 SIDD.                      No:  Serv Intrp, DD 
 SINC.deg                66.92:  Inc, Start 
 SPPA.psig             4400.00:  SPP Avg 
 SPPN.psig             1135.00:  SPP Min 
 SPPX.psig             4581.00:  SPP Max 
 STIM.      04.30.56 18-May-20:  Start Time 
 SVCS.                     MWD:  Services 
 SVER.                    9.20:  Sperry Version 
 TDAT.m                5337.01:  Tot Depth Attmp 
 TDDF.                      No:  Trip for DD 
 TFF .                      No:  Trip for Fail 
 TQAA.f-kp               23.00:  Torque Abs Avg 
 TQAN.f-kp               18.00:  Torque Abs Min 
 TQAX.f-kp               25.00:  Torque Abs Max 
 TRRT.°/30m               0.74:  Turn Rotating 
 MRT .                    HCIM:  Maximum Recorded Temperature 
 TTMX.degC               76.47:  Max Tool Temp 
 WBMN.klb                 0.00:  WOB Min 
 WITN.             Anar Khalil:  Customer Rep 
 WITN.      Kamran Keberlinski:  Customer Rep 2 
 WOBA.klb                 0.00:  WOB Avg 
 WOBX.klb                 0.00:  WOB Max 
 YP  .lhf2               27.00:  Yield Point 
~Curve Information Block
#MNEM.UNIT                 API CODE     Curve Description
#---------               -----------    ---------------------------
 TIME.HHMMSS            00 000 000 000:  GT Time & Date
 GTDEPTH.m              00 000 000 000:  GT Depth
 GTPQH.psia             00 000 000 000:  GT HR Quartz Pressure
 GTTQ.degC              00 000 000 000:  GT Quartz Temperature
 GTTN.NONE              00 000 000 000:  GT Test Number
 GTET.sec               00 000 000 000:  GT Elapsed Test Time
 GTTVD.m                00 000 000 000:  GT True Vertical Depth
#Other Information
#
#WARRANTY: Halliburton will use its best efforts to furnish customers with 
#accurate information and interpretations that are part of, and incident to, the services 
#provided.  However, Halliburton cannot and does not warrant the accuracy 
#or correctness of such information and interpretations.  Under no circumstances should any 
#such information or interpretation be relied upon as the sole basis for any drilling, 
#completion, production, or financial decision or any procedure involving any risk to the 
#safety of any drilling venture, drilling rig or its crew or any other third party.  The 
#Customer has full responsibility for all drilling, completion and production operation.  
#Halliburton makes no representations or warranties, either expressed or 
#implied, including, but not limited to, the implied warranties of merchantability or fitness 
#for a particular purpose, with respect to the services rendered.  In no event will 
#Halliburton be liable for failure to obtain any particular results or for 
#any damages, including, but not limited to, indirect, special or consequential damages, 
#resulting from the use of any information or interpretation provided by Halliburton.
#
~A           TIME           GTDEPTH  GTPQH  GTTQ  GTTN  GTET   GTTVD  
# ...
   22:31:37.108.19-May-2020 5137.01 6463.15 67.86 4.00 414.10 2705.05
   22:31:37.308.19-May-2020 5137.01 6463.15 67.86 4.00 414.30 2705.05
   22:31:37.508.19-May-2020 5137.01 6462.73 67.86 4.00 414.50 2705.05
   22:31:37.708.19-May-2020 5137.01 6465.31 67.86 4.00 414.70 2705.05
   22:31:37.908.19-May-2020 5137.01 6462.71 67.86 4.00 414.90 2705.05
   22:31:38.109.19-May-2020 5137.01 6468.69 67.86 4.00 415.10 2705.05
   22:31:38.309.19-May-2020 5137.01 6461.82 67.86 4.00 415.30 2705.05
   22:31:38.509.19-May-2020 5137.01 6465.05 67.86 4.00 415.50 2705.05
   22:31:38.709.19-May-2020 5137.01 6464.92 67.86 4.00 415.70 2705.05
   22:31:38.909.19-May-2020 5137.01 6468.17 67.86 4.00 415.90 2705.05
   22:31:39.109.19-May-2020 5137.01 6463.03 67.86 4.00 416.10 2705.05
   22:31:39.309.19-May-2020 5137.01 6463.03 67.86 4.00 416.30 2705.05
   22:31:39.509.19-May-2020 5137.01 6462.85 67.86 4.00 416.50 2705.05
   22:31:39.709.19-May-2020 5137.01 6466.84 67.86 4.00 416.70 2705.05
   22:31:39.909.19-May-2020 5137.01 6466.64 67.86 4.00 416.90 2705.05
   22:31:40.109.19-May-2020 5137.01 6463.98 67.86 4.00 417.10 2705.05
   22:31:40.309.19-May-2020 5137.01 6463.98 67.86 4.00 417.30 2705.05
   22:31:40.509.19-May-2020 5137.01 6464.96 67.86 4.00 417.50 2705.05
   22:31:40.709.19-May-2020 5137.01 6468.44 67.86 4.00 417.70 2705.05
   22:31:40.909.19-May-2020 5137.01 6464.40 67.86 4.00 417.90 2705.05
   22:31:41.109.19-May-2020 5137.01 6466.36 67.86 4.00 418.10 2705.05
   22:31:41.309.19-May-2020 5137.01 6466.36 67.86 4.00 418.30 2705.05
   22:31:41.509.19-May-2020 5137.01 6465.32 67.86 4.00 418.50 2705.05
   22:31:41.709.19-May-2020 5137.01 6463.77 67.86 4.00 418.70 2705.05
   22:31:41.909.19-May-2020 5137.01 6464.39 67.86 4.00 418.90 2705.05
   22:31:42.110.19-May-2020 5137.01 6463.30 67.86 4.00 419.10 2705.05
   22:31:42.310.19-May-2020 5137.01 6464.50 67.86 4.00 419.30 2705.05
   22:31:42.510.19-May-2020 5137.01 6463.07 67.86 4.00 419.50 2705.05
   22:31:42.710.19-May-2020 5137.01 6463.50 67.86 4.00 419.70 2705.05
   22:31:42.910.19-May-2020 5137.01 6463.22 67.86 4.00 419.90 2705.05
   22:31:43.110.19-May-2020 5137.01 6462.90 67.86 4.00 420.10 2705.05
   22:31:43.310.19-May-2020 5137.01 6462.90 67.86 4.00 420.30 2705.05
   22:31:43.510.19-May-2020 5137.01 6462.31 67.86 4.00 420.50 2705.05
   22:31:43.710.19-May-2020 5137.01 6466.68 67.86 4.00 420.70 2705.05
   22:31:43.910.19-May-2020 5137.01 6462.86 67.86 4.00 420.90 2705.05
   22:31:44.110.19-May-2020 5137.01 6464.59 67.86 4.00 421.10 2705.05
   22:31:44.310.19-May-2020 5137.01 6464.59 67.86 4.00 421.31 2705.05
   22:31:44.510.19-May-2020 5137.01 6467.66 67.86 4.00 421.51 2705.05
   22:31:44.710.19-May-2020 5137.01 6463.79 67.86 4.00 421.71 2705.05
   22:31:44.910.19-May-2020 5137.01 6465.51 67.86 4.00 421.91 2705.05
   22:31:45.110.19-May-2020 5137.01 6464.33 67.86 4.00 422.11 2705.05
   22:31:45.310.19-May-2020 5137.01 6464.33 67.86 4.00 422.31 2705.05
   22:31:45.510.19-May-2020 5137.01 6466.19 67.86 4.00 422.51 2705.05
   22:31:45.710.19-May-2020 5137.01 6464.86 67.86 4.00 422.71 2705.05
   22:31:45.910.19-May-2020 5137.01 6465.73 67.86 4.00 422.91 2705.05
   22:31:46.111.19-May-2020 5137.01 6465.13 67.86 4.00 423.11 2705.05
   22:31:46.311.19-May-2020 5137.01 6465.13 67.86 4.00 423.31 2705.05
   22:31:46.511.19-May-2020 5137.01 6466.81 67.86 4.00 423.51 2705.05
   22:31:46.711.19-May-2020 5137.01 6465.36 67.86 4.00 423.71 2705.05
   22:31:46.911.19-May-2020 5137.01 6466.05 67.86 4.00 423.91 2705.05
   22:31:47.111.19-May-2020 5137.01 6465.20 67.86 4.00 424.11 2705.05
   22:31:47.311.19-May-2020 5137.01 6465.20 67.86 4.00 424.31 2705.05
   22:31:47.511.19-May-2020 5137.01 6464.20 67.86 4.00 424.51 2705.05
   22:31:47.711.19-May-2020 5137.01 6466.67 67.86 4.00 424.71 2705.05
   22:31:47.911.19-May-2020 5137.01 6465.31 67.86 4.00 424.91 2705.05
   22:31:48.111.19-May-2020 5137.01 6464.70 67.86 4.00 425.11 2705.05
   22:31:48.311.19-May-2020 5137.01 6464.70 67.86 4.00 425.31 2705.05
   22:31:48.511.19-May-2020 5137.01 6463.42 67.86 4.00 425.51 2705.05
   22:31:48.711.19-May-2020 5137.01 6464.20 67.86 4.00 425.71 2705.05
   22:31:48.911.19-May-2020 5137.01 6463.70 67.86 4.00 425.91 2705.05
   22:31:49.111.19-May-2020 5137.01 6463.02 67.86 4.00 426.11 2705.05
   22:31:49.311.19-May-2020 5137.01 6463.02 67.86 4.00 426.31 2705.05
   22:31:49.511.19-May-2020 5137.01 6462.77 67.86 4.00 426.51 2705.05
   22:31:49.711.19-May-2020 5137.01 6463.33 67.86 4.00 426.71 2705.05
   22:31:49.911.19-May-2020 5137.01 6462.84 67.86 4.00 426.91 2705.05
   22:31:50.112.19-May-2020 5137.01 6462.25 67.86 4.00 427.11 2705.05
   22:31:50.312.19-May-2020 5137.01 6462.25 67.86 4.00 427.31 2705.05
   22:31:50.512.19-May-2020 5137.01 6464.28 67.86 4.00 427.51 2705.05
   22:31:50.712.19-May-2020 5137.01 6463.77 67.86 4.00 427.71 2705.05
   22:31:50.912.19-May-2020 5137.01 6464.59 67.86 4.00 427.91 2705.05
   22:31:51.112.19-May-2020 5137.01 6462.25 67.86 4.00 428.11 2705.05
   22:31:51.312.19-May-2020 5137.01 6462.25 67.86 4.00 428.31 2705.05
   22:31:51.512.19-May-2020 5137.01 6460.68 67.86 4.00 428.51 2705.05
   22:31:51.712.19-May-2020 5137.01 6466.28 67.86 4.00 428.71 2705.05
   22:31:51.912.19-May-2020 5137.01 6464.69 67.86 4.00 428.91 2705.05
   22:31:52.112.19-May-2020 5137.01 6464.27 67.86 4.00 429.11 2705.05
   22:31:52.312.19-May-2020 5137.01 6464.27 67.86 4.00 429.31 2705.05
   22:31:52.512.19-May-2020 5137.01 6462.34 67.86 4.00 429.51 2705.05
   22:31:52.712.19-May-2020 5137.01 6466.10 67.86 4.00 429.71 2705.05
   22:31:52.912.19-May-2020 5137.01 6465.00 67.86 4.00 429.91 2705.05
   22:31:53.112.19-May-2020 5137.01 6464.35 67.86 4.00 430.11 2705.05
   22:31:53.312.19-May-2020 5137.01 6464.35 67.86 4.00 430.31 2705.05
   22:31:53.512.19-May-2020 5137.01 6462.04 67.86 4.00 430.51 2705.05
   22:31:53.712.19-May-2020 5137.01 6466.52 67.86 4.00 430.71 2705.05
   22:31:53.912.19-May-2020 5137.01 6464.91 67.86 4.00 430.91 2705.05
   22:31:54.113.19-May-2020 5137.01 6469.40 67.86 4.00 431.11 2705.05
   22:31:54.313.19-May-2020 5137.01 6469.40 67.86 4.00 431.31 2705.05
   22:31:54.513.19-May-2020 5137.01 6466.03 67.86 4.00 431.51 2705.05
   22:31:54.713.19-May-2020 5137.01 6465.76 67.86 4.00 431.71 2705.05
   22:31:54.913.19-May-2020 5137.01 6464.88 67.86 4.00 431.91 2705.05
   22:31:55.113.19-May-2020 5137.01 6463.10 67.86 4.00 432.11 2705.05
   22:31:55.313.19-May-2020 5137.01 6463.10 67.86 4.00 432.31 2705.05
   22:31:55.513.19-May-2020 5137.01 6463.09 67.86 4.00 432.51 2705.05
   22:31:55.713.19-May-2020 5137.01 6464.00 67.86 4.00 432.71 2705.05
   22:31:55.913.19-May-2020 5137.01 6463.05 67.86 4.00 432.91 2705.05
   22:31:56.113.19-May-2020 5137.01 6462.99 67.86 4.00 433.11 2705.05
   22:31:56.313.19-May-2020 5137.01 6462.99 67.86 4.00 433.31 2705.05
   22:31:56.513.19-May-2020 5137.01 6462.35 67.86 4.00 433.51 2705.05
   22:31:56.713.19-May-2020 5137.01 6462.99 67.86 4.00 433.71 2705.05
   22:31:56.913.19-May-2020 5137.01 6462.79 67.86 4.00 433.91 2705.05
   22:31:57.113.19-May-2020 5137.01 6465.28 67.86 4.00 434.11 2705.05
   22:31:57.313.19-May-2020 5137.01 6465.28 67.86 4.00 434.31 2705.05
   22:31:57.513.19-May-2020 5137.01 6463.94 67.86 4.00 434.51 2705.05
   22:31:57.713.19-May-2020 5137.01 6464.62 67.86 4.00 434.71 2705.05
   22:31:57.913.19-May-2020 5137.01 6463.60 67.86 4.00 434.91 2705.05
   22:31:58.114.19-May-2020 5137.01 6466.50 67.86 4.00 435.11 2705.05
   22:31:58.314.19-May-2020 5137.01 6466.50 67.86 4.00 435.31 2705.05
   22:31:58.514.19-May-2020 5137.01 6465.42 67.86 4.00 435.51 2705.05
   22:31:58.714.19-May-2020 5137.01 6464.29 67.86 4.00 435.71 2705.05
   22:31:58.914.19-May-2020 5137.01 6464.96 67.86 4.00 435.91 2705.05
   22:31:59.114.19-May-2020 5137.01 6466.30 67.86 4.00 436.11 2705.05
   22:31:59.314.19-May-2020 5137.01 6466.30 67.86 4.00 436.31 2705.05
   22:31:59.514.19-May-2020 5137.01 6465.93 67.86 4.00 436.51 2705.05
   22:31:59.714.19-May-2020 5137.01 6464.97 67.86 4.00 436.71 2705.05
   22:31:59.914.19-May-2020 5137.01 6465.50 67.86 4.00 436.91 2705.05
