~Version Information
 VERS.                  2.0:   CWLS log ASCII Standard -VERSION 2.0
 WRAP.                   NO:   One line per depth step
~Well Information Block
#MNEM.UNIT     VALUE/NAME     DESCRIPTION
#---------     -----------    ---------------------------
 STRT.S             02:05:08 20-May-20: START TIME 02:05:08 20-May-20
 STOP.S             02:15:48 20-May-20: STOP TIME  02:15:48 20-May-20
 STEP.S                   0.00: STEP TIME
 NULL.                 -999.25: NULL VALUE
 MDS .        Operator Entered:  MAG DATA SOURCE
 PDAT.          Mean Sea Level:  PERMANENT DATUM
 UNIT.                     N/A:  LOGGING EQUIPMENT ID
 DCON.         Sperry Drilling:  DIRECTNL CONTR
 DOE .                     N/A:  DOE NUMBER
 RIG .              East Azeri:  RIG NAME
 JOBN.        AZ-XX-0905856059:  JOB TICKET NUMB
 WELL.                     D36:  WELL NAME
 MWDS.                    Baku:  MWD SHOP
 SRVC.     Turan Drilling & Engineering:  CONTRACTOR
 FLD .                     ACG:  FIELD NAME
 CTRY.              Azerbaijan:  COUNTRY NAME
 PROV.                    Baku:  PROVINCE
 STAT.                    Baku:  STATE NAME
 REGN.                   EESSA:  REGION
 BASE.              Azerbaijan:  LOGGING EQUIPMENT BASE LOCATION
 UWI .                     N/A:  UNIQUE WELL IDENTIFIER
 API .                     N/A:  API NUMBER
 COMP.     BP Exploration (Caspian Sea) Ltd.:  COMPANY
 WTYP.                Deviated:  WELL TYPE
 SON .        AZ-XX-0905856059:  JOB NUMBER
 FTOP.          Formation Tops:  FORM TOPS DESC
 ILTD.               Lithology:  INTERP LTH DESC
 SVYD.                  Survey:  SURVEY DESC
 DMOD.             Drill Model:  DRILL MOD DESC
 HPTY.       Minimum Curvature:  HOLE POS TYPE
 NREF.                    Grid:  NORTH REFERENCE
 SPUD.               25-Feb-20:  SPUD DATE
 DATE.      08.55.28 01-May-20:  END TIME
 STIM.      08.55.28 25-Feb-20:  START TIME
 DMF .             Drill Floor:  DRILL MEAS FROM
 DFST.                        :  DIST FSL TEXT
 DFWT.                        :  DIST FWL TEXT
 CNTY.                        :  COUNTY
 LOC .                        :  LOCATION
 LMF .             Drill Floor:  LOG MEASURED FROM
 VSNS.m                   6.09:  VERT SEC N/S
 VSEW.m                 -10.79:  VERT SEC E/W
 AGAP.m                  43.60:  AIR GAP
 DEP .m                 388.24:  DEPTH
 APD .m                  43.60:  DEPTH ABOVE PD
 WDMS.m                 151.80:  WD ELEV
 EGL .m                   0.00:  GROUND ELEVATION
 EPD .m                   0.00:  ELEVATION
 AZTC.deg                 6.12:  AZM TOTAL CORR
 GRDC.deg                 0.30:  GRID CORRECTION
 MDEC.deg                 6.42:  MAGNETIC DECL
 MDIP.deg                59.42:  MAGNETIC DIP
 MFLD.nT              50256.00:  MAGNETIC FIELD
 GVFD.g                   1.00:  GRAVITY FIELD
 VSDR.deg               159.57:  VERT SEC DIRECT
 TDD .m                5000.01:  TOTAL DEPTH (DRILLER)
 SDEP.m                 397.00:  START DEPTH
 DFSL.m                   0.00:  DISTANCE FSL
 DFWL.m                   0.00:  DISTANCE FWL
 UTMY.m             4431880.20:  UTM Y
 UTMX.m              538763.98:  UTM X
 WHEW.m                 -10.79:  WELL HEAD E/W
 WHNS.m                   6.09:  WELL HEAD N/S
 LONG.deg                51.45:  LONGITUDE
 LATI.deg                40.02:  LATITUDE
 TVDS.m                  43.60:  TVDSS CORRECTN
 EKB .m                  43.60:  KB ELEVATION
 EDF .m                  43.60:  DF ELEVATION
 MAGU.                 1847640:  MAGUTM CHECKSUM
 VSC .                       0:  VS TO CLOSURE
~Parameter Information Block
#MNEM.UNIT       Value        Description
#---------     -----------    ---------------------------
 AV  .mps                 1.30:  Ann Velocity 
 AVMX.mps                 1.90:  Max Ann Veloc 
 AZIF.deg               115.68:  Azm, Final 
 BHAT.                   Other:  BHA Type 
 BROT.°/30m               0.74:  Build Rotating 
 BS  .in                  8.50:  Bit Size 
 BTPL.psig              430.00:  Bit Press Loss 
 CABU.                      No:  Customer Abuse 
 TCS .hr                 51.31:  Time Ciculation Ended 
 CV  .mps                 2.52:  Crit Velocity 
 CVMX.mps                 2.62:  Max Crit Veloc 
 DD1 .          Teymur Aghayev:  Direct Drillr 1 
 DDSV.                   Other:  DD Service 
 DEFF.%                 100.00:  % Det Eff 
 DLRX.°/30m               1.62:  Dogleg Rot Max 
 DLSO.°/30m               0.74:  Dogleg Oriented 
 DLSX.°/30m               1.62:  Dogleg Str Max 
 DRET.      04.30.56 18-May-20:  Drill End Time 
 DRST.      04.30.56 18-May-20:  Drill Start Tim 
 DTIM.hr                  0.00:  Time Drilling 
 EDEP.m                5337.01:  End Depth 
 ENG1.      Artemiy Matviyanov:  Engineer 1 
 ENG2.      Bakhtiyar Jabbarli:  Engineer 2 
 ENG3.           Emil Huseynov:  Engineer 3 
 ETIM.      18.40.00 22-May-20:  End Time 
 FLOI.gpm               550.00:  Flow In 
 FLON.gpm               350.00:  Flow In Min 
 FLOS.cptm                0.00:  Fluid Loss 
 FLOX.gpm               600.00:  Flow In Max 
 HFLO.                      No:  High Flow 
 HPRE.                      No:  High Pressure 
 HTEM.                      No:  High Temp 
 HYDO.m                   1.80:  Hydro Offset 
 IFIN.deg                67.01:  Inc, Final 
 IMAX.deg                67.49:  Inc Max 
 IMIN.deg                66.50:  Inc Min 
 IMND.m                5144.79:  Inc Min Depth 
 IMXD.m                5116.12:  Inc Max Depth 
 JARR.                      No:  Jarring 
 LETM.      17.55.56 20-May-20:  Log End Time 
 LOST.hr                     0:  Lost Rig Time 
 LSTM.      04.30.56 18-May-20:  Log Start Time 
 MDCL.ppm            193153.00:  Mud Chlorides 
 MDES.     Inversion Oil/Synthetic:  Mud Desc 
 DFD .sg                  1.40:  Mud Density 
 MDMN.sg                  1.40:  Dens Mud Min 
 MDMX.sg                  1.41:  Dens Mud Max 
 MOIL.                      68:  Run Mud Oil % 
 MOWR.                   68:32:  Run Mud OWR 
 MSND.                     0.2:  Run Mud Sand % 
 MSOL.                    18.8:  Run Mud Solids% 
 DFV .spqt               80.00:  Mud Viscosity 
 MWOD.in                  6.75:  MWD Tool OD 
 MWSI.                      No:  Serv Intrp, MWD 
 OTIM.hr                104.84:  Time Operating 
 PMAX.psia            10690.93:  Press Op, Max 
 PV  .cP                 26.00:  Mud PV 
 RUN .                     900:  Run Number 
 ROPA.m/hr                0.00:  ROP Avg 
 ROPN.m/hr                0.00:  ROP Min 
 ROPX.m/hr                0.00:  ROP Max 
 RPMA.rpm               140.00:  RPM Surface Avg 
 RPMN.rpm                70.00:  RPM Surface Min 
 RPMX.rpm               140.00:  RPM Surface Max 
 RRUN.                    0900:  Rig Run Number 
 RTIM.hr                 36.00:  Time Reaming 
 SAZI.deg               115.72:  Azm, Start 
 SDEP.m                5337.01:  Start Depth 
 SIDD.                      No:  Serv Intrp, DD 
 SINC.deg                66.92:  Inc, Start 
 SPPA.psig             4400.00:  SPP Avg 
 SPPN.psig             1135.00:  SPP Min 
 SPPX.psig             4581.00:  SPP Max 
 STIM.      04.30.56 18-May-20:  Start Time 
 SVCS.                     MWD:  Services 
 SVER.                    9.20:  Sperry Version 
 TDAT.m                5337.01:  Tot Depth Attmp 
 TDDF.                      No:  Trip for DD 
 TFF .                      No:  Trip for Fail 
 TQAA.f-kp               23.00:  Torque Abs Avg 
 TQAN.f-kp               18.00:  Torque Abs Min 
 TQAX.f-kp               25.00:  Torque Abs Max 
 TRRT.°/30m               0.74:  Turn Rotating 
 MRT .                    HCIM:  Maximum Recorded Temperature 
 TTMX.degC               76.47:  Max Tool Temp 
 WBMN.klb                 0.00:  WOB Min 
 WITN.             Anar Khalil:  Customer Rep 
 WITN.      Kamran Keberlinski:  Customer Rep 2 
 WOBA.klb                 0.00:  WOB Avg 
 WOBX.klb                 0.00:  WOB Max 
 YP  .lhf2               27.00:  Yield Point 
~Curve Information Block
#MNEM.UNIT                 API CODE     Curve Description
#---------               -----------    ---------------------------
 TIME.HHMMSS            00 000 000 000:  GT Time & Date
 GTDEPTH.m              00 000 000 000:  GT Depth
 GTPQH.psia             00 000 000 000:  GT HR Quartz Pressure
 GTTQ.degC              00 000 000 000:  GT Quartz Temperature
 GTTN.NONE              00 000 000 000:  GT Test Number
 GTET.sec               00 000 000 000:  GT Elapsed Test Time
 GTTVD.m                00 000 000 000:  GT True Vertical Depth
#Other Information
#
#WARRANTY: Halliburton will use its best efforts to furnish customers with 
#accurate information and interpretations that are part of, and incident to, the services 
#provided.  However, Halliburton cannot and does not warrant the accuracy 
#or correctness of such information and interpretations.  Under no circumstances should any 
#such information or interpretation be relied upon as the sole basis for any drilling, 
#completion, production, or financial decision or any procedure involving any risk to the 
#safety of any drilling venture, drilling rig or its crew or any other third party.  The 
#Customer has full responsibility for all drilling, completion and production operation.  
#Halliburton makes no representations or warranties, either expressed or 
#implied, including, but not limited to, the implied warranties of merchantability or fitness 
#for a particular purpose, with respect to the services rendered.  In no event will 
#Halliburton be liable for failure to obtain any particular results or for 
#any damages, including, but not limited to, indirect, special or consequential damages, 
#resulting from the use of any information or interpretation provided by Halliburton.
#
~A           TIME           GTDEPTH  GTPQH  GTTQ  GTTN  GTET   GTTVD  
# ...
   02:12:02.000.20-May-2020 5070.01 2795.57 68.32 7.00 414.00 2678.90
   02:12:02.200.20-May-2020 5070.01 2795.57 68.32 7.00 414.20 2678.90
   02:12:02.400.20-May-2020 5070.01 2792.09 68.32 7.00 414.40 2678.90
   02:12:02.600.20-May-2020 5070.01 2794.07 68.32 7.00 414.60 2678.90
   02:12:02.800.20-May-2020 5070.01 2795.01 68.32 7.00 414.80 2678.90
   02:12:03.000.20-May-2020 5070.01 2792.84 68.32 7.00 415.00 2678.90
   02:12:03.200.20-May-2020 5070.01 2792.84 68.32 7.00 415.20 2678.90
   02:12:03.400.20-May-2020 5070.01 2791.34 68.32 7.00 415.40 2678.90
   02:12:03.600.20-May-2020 5070.01 2792.76 68.32 7.00 415.60 2678.90
   02:12:03.800.20-May-2020 5070.01 2788.52 68.32 7.00 415.80 2678.90
   02:12:04.000.20-May-2020 5070.01 2787.85 68.32 7.00 416.00 2678.90
   02:12:04.200.20-May-2020 5070.01 2787.85 68.32 7.00 416.20 2678.90
   02:12:04.400.20-May-2020 5070.01 2787.09 68.32 7.00 416.40 2678.90
   02:12:04.600.20-May-2020 5070.01 2787.51 68.32 7.00 416.60 2678.90
   02:12:04.800.20-May-2020 5070.01 2785.55 68.32 7.00 416.80 2678.90
   02:12:05.000.20-May-2020 5070.01 2785.69 68.32 7.00 417.00 2678.90
   02:12:05.200.20-May-2020 5070.01 2785.69 68.32 7.00 417.20 2678.90
   02:12:05.400.20-May-2020 5070.01 2784.10 68.32 7.00 417.40 2678.90
   02:12:05.600.20-May-2020 5070.01 2784.98 68.32 7.00 417.60 2678.90
   02:12:05.800.20-May-2020 5070.01 2783.35 68.32 7.00 417.80 2678.90
   02:12:06.000.20-May-2020 5070.01 2783.27 68.32 7.00 418.00 2678.90
   02:12:06.200.20-May-2020 5070.01 2783.27 68.32 7.00 418.20 2678.90
   02:12:06.400.20-May-2020 5070.01 2782.20 68.32 7.00 418.40 2678.90
   02:12:06.600.20-May-2020 5070.01 2782.66 68.32 7.00 418.60 2678.90
   02:12:06.800.20-May-2020 5070.01 2781.52 68.32 7.00 418.80 2678.90
   02:12:07.000.20-May-2020 5070.01 2781.56 68.32 7.00 419.00 2678.90
   02:12:07.200.20-May-2020 5070.01 2781.56 68.32 7.00 419.20 2678.90
   02:12:07.400.20-May-2020 5070.01 2780.23 68.32 7.00 419.40 2678.90
   02:12:07.600.20-May-2020 5070.01 2781.90 68.32 7.00 419.60 2678.90
   02:12:07.800.20-May-2020 5070.01 2778.49 68.32 7.00 419.80 2678.90
   02:12:08.000.20-May-2020 5070.01 2779.35 68.32 7.00 420.00 2678.90
   02:12:08.200.20-May-2020 5070.01 2779.35 68.32 7.00 420.20 2678.90
   02:12:08.400.20-May-2020 5070.01 2778.11 68.32 7.00 420.40 2678.90
   02:12:08.600.20-May-2020 5070.01 2777.68 68.32 7.00 420.60 2678.90
   02:12:08.800.20-May-2020 5070.01 2776.48 68.32 7.00 420.80 2678.90
   02:12:09.000.20-May-2020 5070.01 2777.83 68.32 7.00 421.00 2678.90
   02:12:09.200.20-May-2020 5070.01 2777.99 68.32 7.00 421.20 2678.90
   02:12:09.400.20-May-2020 5070.01 2776.81 68.32 7.00 421.40 2678.90
   02:12:09.600.20-May-2020 5070.01 2779.35 68.32 7.00 421.60 2678.90
   02:12:09.800.20-May-2020 5070.01 2776.27 68.32 7.00 421.80 2678.90
   02:12:10.000.20-May-2020 5070.01 2775.19 68.32 7.00 422.00 2678.90
   02:12:10.200.20-May-2020 5070.01 2774.34 68.32 7.00 422.20 2678.90
   02:12:10.400.20-May-2020 5070.01 2774.64 68.32 7.00 422.40 2678.90
   02:12:10.600.20-May-2020 5070.01 2776.14 68.32 7.00 422.60 2678.90
   02:12:10.800.20-May-2020 5070.01 2775.07 68.32 7.00 422.80 2678.90
   02:12:11.000.20-May-2020 5070.01 2774.28 68.32 7.00 423.00 2678.90
   02:12:11.200.20-May-2020 5070.01 2774.28 68.32 7.00 423.20 2678.90
   02:12:11.400.20-May-2020 5070.01 2773.55 68.32 7.00 423.40 2678.90
   02:12:11.600.20-May-2020 5070.01 2774.19 68.32 7.00 423.60 2678.90
   02:12:11.800.20-May-2020 5070.01 2770.87 68.32 7.00 423.80 2678.90
   02:12:12.000.20-May-2020 5070.01 2770.74 68.32 7.00 424.00 2678.90
   02:12:12.200.20-May-2020 5070.01 2770.74 68.32 7.00 424.20 2678.90
   02:12:12.400.20-May-2020 5070.01 2770.77 68.32 7.00 424.40 2678.90
   02:12:12.600.20-May-2020 5070.01 2771.89 68.32 7.00 424.60 2678.90
   02:12:12.800.20-May-2020 5070.01 2771.39 68.32 7.00 424.80 2678.90
   02:12:13.000.20-May-2020 5070.01 2772.25 68.32 7.00 425.00 2678.90
   02:12:13.200.20-May-2020 5070.01 2772.25 68.32 7.00 425.20 2678.90
   02:12:13.400.20-May-2020 5070.01 2770.79 68.32 7.00 425.40 2678.90
   02:12:13.600.20-May-2020 5070.01 2770.76 68.32 7.00 425.60 2678.90
   02:12:13.800.20-May-2020 5070.01 2769.01 68.32 7.00 425.80 2678.90
   02:12:14.000.20-May-2020 5070.01 2767.94 68.32 7.00 426.00 2678.90
   02:12:14.200.20-May-2020 5070.01 2767.64 68.32 7.00 426.20 2678.90
   02:12:14.400.20-May-2020 5070.01 2767.24 68.32 7.00 426.40 2678.90
   02:12:14.600.20-May-2020 5070.01 2768.04 68.32 7.00 426.60 2678.90
   02:12:14.800.20-May-2020 5070.01 2765.93 68.32 7.00 426.80 2678.90
   02:12:15.000.20-May-2020 5070.01 2767.38 68.32 7.00 427.00 2678.90
   02:12:15.200.20-May-2020 5070.01 2767.38 68.32 7.00 427.20 2678.90
   02:12:15.400.20-May-2020 5070.01 2766.95 68.32 7.00 427.40 2678.90
   02:12:15.600.20-May-2020 5070.01 2767.01 68.32 7.00 427.60 2678.90
   02:12:15.800.20-May-2020 5070.01 2766.53 68.32 7.00 427.80 2678.90
   02:12:16.000.20-May-2020 5070.01 2766.41 68.32 7.00 428.00 2678.90
   02:12:16.200.20-May-2020 5070.01 2766.41 68.32 7.00 428.20 2678.90
   02:12:16.400.20-May-2020 5070.01 2766.13 68.32 7.00 428.40 2678.90
   02:12:16.600.20-May-2020 5070.01 2765.23 68.32 7.00 428.60 2678.90
   02:12:16.800.20-May-2020 5070.01 2765.93 68.32 7.00 428.80 2678.90
   02:12:17.000.20-May-2020 5070.01 2767.50 68.32 7.00 429.00 2678.90
   02:12:17.200.20-May-2020 5070.01 2769.29 68.32 7.00 429.20 2678.90
   02:12:17.400.20-May-2020 5070.01 2797.02 68.32 7.00 429.40 2678.90
   02:12:17.600.20-May-2020 5070.01 2848.89 68.32 7.00 429.60 2678.90
   02:12:17.800.20-May-2020 5070.01 2883.22 68.32 7.00 429.80 2678.90
   02:12:18.000.20-May-2020 5070.01 2883.30 68.32 7.00 430.00 2678.90
   02:12:18.200.20-May-2020 5070.01 2842.83 68.32 7.00 430.20 2678.90
   02:12:18.400.20-May-2020 5070.01 2812.66 68.32 7.00 430.40 2678.90
   02:12:18.600.20-May-2020 5070.01 2792.93 68.32 7.00 430.60 2678.90
   02:12:18.800.20-May-2020 5070.01 2782.83 68.32 7.00 430.80 2678.90
   02:12:19.000.20-May-2020 5070.01 2775.98 68.32 7.00 431.00 2678.90
   02:12:19.200.20-May-2020 5070.01 2775.98 68.32 7.00 431.20 2678.90
   02:12:19.400.20-May-2020 5070.01 2771.23 68.32 7.00 431.40 2678.90
   02:12:19.600.20-May-2020 5070.01 2769.93 68.32 7.00 431.60 2678.90
   02:12:19.800.20-May-2020 5070.01 2767.02 68.32 7.00 431.80 2678.90
   02:12:20.000.20-May-2020 5070.01 2765.23 68.32 7.00 432.00 2678.90
   02:12:20.200.20-May-2020 5070.01 2765.23 68.32 7.00 432.20 2678.90
   02:12:20.400.20-May-2020 5070.01 2762.80 68.32 7.00 432.40 2678.90
   02:12:20.600.20-May-2020 5070.01 2761.64 68.32 7.00 432.60 2678.90
   02:12:20.800.20-May-2020 5070.01 2759.74 68.32 7.00 432.80 2678.90
   02:12:21.000.20-May-2020 5070.01 2759.18 68.32 7.00 433.00 2678.90
   02:12:21.200.20-May-2020 5070.01 2759.18 68.32 7.00 433.20 2678.90
   02:12:21.400.20-May-2020 5070.01 2759.27 68.32 7.00 433.40 2678.90
   02:12:21.600.20-May-2020 5070.01 2758.60 68.32 7.00 433.60 2678.90
   02:12:21.800.20-May-2020 5070.01 2757.53 68.32 7.00 433.80 2678.90
   02:12:22.000.20-May-2020 5070.01 2755.43 68.32 7.00 434.00 2678.90
   02:12:22.200.20-May-2020 5070.01 2753.17 68.32 7.00 434.20 2678.90
   02:12:22.400.20-May-2020 5070.01 2753.28 68.32 7.00 434.40 2678.90
   02:12:22.600.20-May-2020 5070.01 2757.73 68.32 7.00 434.60 2678.90
   02:12:22.800.20-May-2020 5070.01 2754.13 68.32 7.00 434.80 2678.90
   02:12:23.000.20-May-2020 5070.01 2754.80 68.31 7.00 435.00 2678.90
   02:12:23.200.20-May-2020 5070.01 2754.80 68.31 7.00 435.20 2678.90
   02:12:23.400.20-May-2020 5070.01 2757.25 68.31 7.00 435.40 2678.90
   02:12:23.600.20-May-2020 5070.01 2758.56 68.32 7.00 435.60 2678.90
   02:12:23.800.20-May-2020 5070.01 2754.47 68.31 7.00 435.80 2678.90
   02:12:24.000.20-May-2020 5070.01 2753.14 68.31 7.00 436.00 2678.90
   02:12:24.200.20-May-2020 5070.01 2753.14 68.31 7.00 436.20 2678.90
   02:12:24.400.20-May-2020 5070.01 2751.29 68.31 7.00 436.40 2678.90
   02:12:24.600.20-May-2020 5070.01 2752.10 68.31 7.00 436.60 2678.90
   02:12:24.800.20-May-2020 5070.01 2751.22 68.31 7.00 436.80 2678.90
