~Version Information
 VERS.                  2.0:   CWLS log ASCII Standard -VERSION 2.0
 WRAP.                   NO:   One line per depth step
~Well Information Block
#MNEM.UNIT     VALUE/NAME     DESCRIPTION
#---------     -----------    ---------------------------
 STRT.S             02:05:08 20-May-20: START TIME 02:05:08 20-May-20
 STOP.S             02:15:48 20-May-20: STOP TIME  02:15:48 20-May-20
 STEP.S                   0.00: STEP TIME
 NULL.                 -999.25: NULL VALUE
 MDS .        Operator Entered:  MAG DATA SOURCE
 PDAT.          Mean Sea Level:  PERMANENT DATUM
 UNIT.                     N/A:  LOGGING EQUIPMENT ID
 DCON.         Sperry Drilling:  DIRECTNL CONTR
 DOE .                     N/A:  DOE NUMBER
 RIG .              East Azeri:  RIG NAME
 JOBN.        AZ-XX-0905856059:  JOB TICKET NUMB
 WELL.                     D36:  WELL NAME
 MWDS.                    Baku:  MWD SHOP
 SRVC.     Turan Drilling & Engineering:  CONTRACTOR
 FLD .                     ACG:  FIELD NAME
 CTRY.              Azerbaijan:  COUNTRY NAME
 PROV.                    Baku:  PROVINCE
 STAT.                    Baku:  STATE NAME
 REGN.                   EESSA:  REGION
 BASE.              Azerbaijan:  LOGGING EQUIPMENT BASE LOCATION
 UWI .                     N/A:  UNIQUE WELL IDENTIFIER
 API .                     N/A:  API NUMBER
 COMP.     BP Exploration (Caspian Sea) Ltd.:  COMPANY
 WTYP.                Deviated:  WELL TYPE
 SON .        AZ-XX-0905856059:  JOB NUMBER
 FTOP.          Formation Tops:  FORM TOPS DESC
 ILTD.               Lithology:  INTERP LTH DESC
 SVYD.                  Survey:  SURVEY DESC
 DMOD.             Drill Model:  DRILL MOD DESC
 HPTY.       Minimum Curvature:  HOLE POS TYPE
 NREF.                    Grid:  NORTH REFERENCE
 SPUD.               25-Feb-20:  SPUD DATE
 DATE.      08.55.28 01-May-20:  END TIME
 STIM.      08.55.28 25-Feb-20:  START TIME
 DMF .             Drill Floor:  DRILL MEAS FROM
 DFST.                        :  DIST FSL TEXT
 DFWT.                        :  DIST FWL TEXT
 CNTY.                        :  COUNTY
 LOC .                        :  LOCATION
 LMF .             Drill Floor:  LOG MEASURED FROM
 VSNS.m                   6.09:  VERT SEC N/S
 VSEW.m                 -10.79:  VERT SEC E/W
 AGAP.m                  43.60:  AIR GAP
 DEP .m                 388.24:  DEPTH
 APD .m                  43.60:  DEPTH ABOVE PD
 WDMS.m                 151.80:  WD ELEV
 EGL .m                   0.00:  GROUND ELEVATION
 EPD .m                   0.00:  ELEVATION
 AZTC.deg                 6.12:  AZM TOTAL CORR
 GRDC.deg                 0.30:  GRID CORRECTION
 MDEC.deg                 6.42:  MAGNETIC DECL
 MDIP.deg                59.42:  MAGNETIC DIP
 MFLD.nT              50256.00:  MAGNETIC FIELD
 GVFD.g                   1.00:  GRAVITY FIELD
 VSDR.deg               159.57:  VERT SEC DIRECT
 TDD .m                5000.01:  TOTAL DEPTH (DRILLER)
 SDEP.m                 397.00:  START DEPTH
 DFSL.m                   0.00:  DISTANCE FSL
 DFWL.m                   0.00:  DISTANCE FWL
 UTMY.m             4431880.20:  UTM Y
 UTMX.m              538763.98:  UTM X
 WHEW.m                 -10.79:  WELL HEAD E/W
 WHNS.m                   6.09:  WELL HEAD N/S
 LONG.deg                51.45:  LONGITUDE
 LATI.deg                40.02:  LATITUDE
 TVDS.m                  43.60:  TVDSS CORRECTN
 EKB .m                  43.60:  KB ELEVATION
 EDF .m                  43.60:  DF ELEVATION
 MAGU.                 1847640:  MAGUTM CHECKSUM
 VSC .                       0:  VS TO CLOSURE
~Parameter Information Block
#MNEM.UNIT       Value        Description
#---------     -----------    ---------------------------
 AV  .mps                 1.30:  Ann Velocity 
 AVMX.mps                 1.90:  Max Ann Veloc 
 AZIF.deg               115.68:  Azm, Final 
 BHAT.                   Other:  BHA Type 
 BROT.°/30m               0.74:  Build Rotating 
 BS  .in                  8.50:  Bit Size 
 BTPL.psig              430.00:  Bit Press Loss 
 CABU.                      No:  Customer Abuse 
 TCS .hr                 51.31:  Time Ciculation Ended 
 CV  .mps                 2.52:  Crit Velocity 
 CVMX.mps                 2.62:  Max Crit Veloc 
 DD1 .          Teymur Aghayev:  Direct Drillr 1 
 DDSV.                   Other:  DD Service 
 DEFF.%                 100.00:  % Det Eff 
 DLRX.°/30m               1.62:  Dogleg Rot Max 
 DLSO.°/30m               0.74:  Dogleg Oriented 
 DLSX.°/30m               1.62:  Dogleg Str Max 
 DRET.      04.30.56 18-May-20:  Drill End Time 
 DRST.      04.30.56 18-May-20:  Drill Start Tim 
 DTIM.hr                  0.00:  Time Drilling 
 EDEP.m                5337.01:  End Depth 
 ENG1.      Artemiy Matviyanov:  Engineer 1 
 ENG2.      Bakhtiyar Jabbarli:  Engineer 2 
 ENG3.           Emil Huseynov:  Engineer 3 
 ETIM.      18.40.00 22-May-20:  End Time 
 FLOI.gpm               550.00:  Flow In 
 FLON.gpm               350.00:  Flow In Min 
 FLOS.cptm                0.00:  Fluid Loss 
 FLOX.gpm               600.00:  Flow In Max 
 HFLO.                      No:  High Flow 
 HPRE.                      No:  High Pressure 
 HTEM.                      No:  High Temp 
 HYDO.m                   1.80:  Hydro Offset 
 IFIN.deg                67.01:  Inc, Final 
 IMAX.deg                67.49:  Inc Max 
 IMIN.deg                66.50:  Inc Min 
 IMND.m                5144.79:  Inc Min Depth 
 IMXD.m                5116.12:  Inc Max Depth 
 JARR.                      No:  Jarring 
 LETM.      17.55.56 20-May-20:  Log End Time 
 LOST.hr                     0:  Lost Rig Time 
 LSTM.      04.30.56 18-May-20:  Log Start Time 
 MDCL.ppm            193153.00:  Mud Chlorides 
 MDES.     Inversion Oil/Synthetic:  Mud Desc 
 DFD .sg                  1.40:  Mud Density 
 MDMN.sg                  1.40:  Dens Mud Min 
 MDMX.sg                  1.41:  Dens Mud Max 
 MOIL.                      68:  Run Mud Oil % 
 MOWR.                   68:32:  Run Mud OWR 
 MSND.                     0.2:  Run Mud Sand % 
 MSOL.                    18.8:  Run Mud Solids% 
 DFV .spqt               80.00:  Mud Viscosity 
 MWOD.in                  6.75:  MWD Tool OD 
 MWSI.                      No:  Serv Intrp, MWD 
 OTIM.hr                104.84:  Time Operating 
 PMAX.psia            10690.93:  Press Op, Max 
 PV  .cP                 26.00:  Mud PV 
 RUN .                     900:  Run Number 
 ROPA.m/hr                0.00:  ROP Avg 
 ROPN.m/hr                0.00:  ROP Min 
 ROPX.m/hr                0.00:  ROP Max 
 RPMA.rpm               140.00:  RPM Surface Avg 
 RPMN.rpm                70.00:  RPM Surface Min 
 RPMX.rpm               140.00:  RPM Surface Max 
 RRUN.                    0900:  Rig Run Number 
 RTIM.hr                 36.00:  Time Reaming 
 SAZI.deg               115.72:  Azm, Start 
 SDEP.m                5337.01:  Start Depth 
 SIDD.                      No:  Serv Intrp, DD 
 SINC.deg                66.92:  Inc, Start 
 SPPA.psig             4400.00:  SPP Avg 
 SPPN.psig             1135.00:  SPP Min 
 SPPX.psig             4581.00:  SPP Max 
 STIM.      04.30.56 18-May-20:  Start Time 
 SVCS.                     MWD:  Services 
 SVER.                    9.20:  Sperry Version 
 TDAT.m                5337.01:  Tot Depth Attmp 
 TDDF.                      No:  Trip for DD 
 TFF .                      No:  Trip for Fail 
 TQAA.f-kp               23.00:  Torque Abs Avg 
 TQAN.f-kp               18.00:  Torque Abs Min 
 TQAX.f-kp               25.00:  Torque Abs Max 
 TRRT.°/30m               0.74:  Turn Rotating 
 MRT .                    HCIM:  Maximum Recorded Temperature 
 TTMX.degC               76.47:  Max Tool Temp 
 WBMN.klb                 0.00:  WOB Min 
 WITN.             Anar Khalil:  Customer Rep 
 WITN.      Kamran Keberlinski:  Customer Rep 2 
 WOBA.klb                 0.00:  WOB Avg 
 WOBX.klb                 0.00:  WOB Max 
 YP  .lhf2               27.00:  Yield Point 
~Curve Information Block
#MNEM.UNIT                 API CODE     Curve Description
#---------               -----------    ---------------------------
 TIME.HHMMSS            00 000 000 000:  GT Time & Date
 GTDEPTH.m              00 000 000 000:  GT Depth
 GTPQH.psia             00 000 000 000:  GT HR Quartz Pressure
 GTTQ.degC              00 000 000 000:  GT Quartz Temperature
 GTTN.NONE              00 000 000 000:  GT Test Number
 GTET.sec               00 000 000 000:  GT Elapsed Test Time
 GTTVD.m                00 000 000 000:  GT True Vertical Depth
#Other Information
#
#WARRANTY: Halliburton will use its best efforts to furnish customers with 
#accurate information and interpretations that are part of, and incident to, the services 
#provided.  However, Halliburton cannot and does not warrant the accuracy 
#or correctness of such information and interpretations.  Under no circumstances should any 
#such information or interpretation be relied upon as the sole basis for any drilling, 
#completion, production, or financial decision or any procedure involving any risk to the 
#safety of any drilling venture, drilling rig or its crew or any other third party.  The 
#Customer has full responsibility for all drilling, completion and production operation.  
#Halliburton makes no representations or warranties, either expressed or 
#implied, including, but not limited to, the implied warranties of merchantability or fitness 
#for a particular purpose, with respect to the services rendered.  In no event will 
#Halliburton be liable for failure to obtain any particular results or for 
#any damages, including, but not limited to, indirect, special or consequential damages, 
#resulting from the use of any information or interpretation provided by Halliburton.
#
~A           TIME           GTDEPTH  GTPQH  GTTQ  GTTN  GTET   GTTVD  
   02:05:08.000.20-May-2020 5070.01 6335.57 68.50 7.00   0.00 2678.90
   02:05:08.200.20-May-2020 5070.01 6335.57 68.50 7.00   0.20 2678.90
   02:05:08.400.20-May-2020 5070.01 6336.67 68.50 7.00   0.40 2678.90
   02:05:08.600.20-May-2020 5070.01 6334.89 68.50 7.00   0.60 2678.90
   02:05:08.800.20-May-2020 5070.01 6336.07 68.50 7.00   0.80 2678.90
   02:05:09.000.20-May-2020 5070.01 6340.70 68.50 7.00   1.00 2678.90
   02:05:09.200.20-May-2020 5070.01 6340.70 68.50 7.00   1.20 2678.90
   02:05:09.400.20-May-2020 5070.01 6336.55 68.50 7.00   1.40 2678.90
   02:05:09.600.20-May-2020 5070.01 6337.42 68.50 7.00   1.60 2678.90
   02:05:09.800.20-May-2020 5070.01 6338.13 68.50 7.00   1.80 2678.90
   02:05:10.000.20-May-2020 5070.01 6338.21 68.49 7.00   2.00 2678.90
   02:05:10.200.20-May-2020 5070.01 6341.37 68.49 7.00   2.20 2678.90
   02:05:10.400.20-May-2020 5070.01 6338.62 68.49 7.00   2.40 2678.90
   02:05:10.600.20-May-2020 5070.01 6338.05 68.49 7.00   2.60 2678.90
   02:05:10.800.20-May-2020 5070.01 6339.50 68.49 7.00   2.80 2678.90
   02:05:11.000.20-May-2020 5070.01 6341.38 68.49 7.00   3.00 2678.90
   02:05:11.200.20-May-2020 5070.01 6341.38 68.49 7.00   3.20 2678.90
   02:05:11.400.20-May-2020 5070.01 6341.38 68.49 7.00   3.40 2678.90
   02:05:11.600.20-May-2020 5070.01 6342.60 68.49 7.00   3.60 2678.90
   02:05:11.800.20-May-2020 5070.01 6342.24 68.49 7.00   3.80 2678.90
   02:05:12.000.20-May-2020 5070.01 6348.42 68.49 7.00   4.00 2678.90
   02:05:12.200.20-May-2020 5070.01 6348.42 68.49 7.00   4.20 2678.90
   02:05:12.400.20-May-2020 5070.01 6345.26 68.49 7.00   4.40 2678.90
   02:05:12.600.20-May-2020 5070.01 6346.56 68.49 7.00   4.60 2678.90
   02:05:12.800.20-May-2020 5070.01 6349.85 68.49 7.00   4.80 2678.90
   02:05:13.000.20-May-2020 5070.01 6350.37 68.49 7.00   5.00 2678.90
   02:05:13.200.20-May-2020 5070.01 6350.37 68.49 7.00   5.20 2678.90
   02:05:13.400.20-May-2020 5070.01 6349.38 68.49 7.00   5.40 2678.90
   02:05:13.600.20-May-2020 5070.01 6349.80 68.49 7.00   5.60 2678.90
   02:05:13.800.20-May-2020 5070.01 6349.21 68.49 7.00   5.80 2678.90
   02:05:14.000.20-May-2020 5070.01 6349.78 68.49 7.00   6.00 2678.90
   02:05:14.200.20-May-2020 5070.01 6348.98 68.49 7.00   6.20 2678.90
   02:05:14.400.20-May-2020 5070.01 6350.54 68.49 7.00   6.40 2678.90
   02:05:14.600.20-May-2020 5070.01 6350.12 68.49 7.00   6.60 2678.90
   02:05:14.800.20-May-2020 5070.01 6349.91 68.49 7.00   6.80 2678.90
   02:05:15.000.20-May-2020 5070.01 6351.29 68.49 7.00   7.00 2678.90
   02:05:15.200.20-May-2020 5070.01 6351.29 68.49 7.00   7.20 2678.90
   02:05:15.400.20-May-2020 5070.01 6351.74 68.49 7.00   7.40 2678.90
   02:05:15.600.20-May-2020 5070.01 6355.86 68.49 7.00   7.60 2678.90
   02:05:15.800.20-May-2020 5070.01 6352.37 68.49 7.00   7.80 2678.90
   02:05:16.000.20-May-2020 5070.01 6353.87 68.49 7.00   8.00 2678.90
   02:05:16.200.20-May-2020 5070.01 6353.87 68.49 7.00   8.20 2678.90
   02:05:16.400.20-May-2020 5070.01 6355.31 68.49 7.00   8.40 2678.90
   02:05:16.600.20-May-2020 5070.01 6354.37 68.49 7.00   8.60 2678.90
   02:05:16.800.20-May-2020 5070.01 6354.58 68.49 7.00   8.80 2678.90
   02:05:17.000.20-May-2020 5070.01 6356.83 68.49 7.00   9.00 2678.90
   02:05:17.200.20-May-2020 5070.01 6356.83 68.49 7.00   9.20 2678.90
   02:05:17.400.20-May-2020 5070.01 6356.79 68.49 7.00   9.40 2678.90
   02:05:17.600.20-May-2020 5070.01 6356.59 68.49 7.00   9.60 2678.90
   02:05:17.800.20-May-2020 5070.01 6356.95 68.49 7.00   9.80 2678.90
   02:05:18.000.20-May-2020 5070.01 6358.54 68.49 7.00  10.00 2678.90
   02:05:18.200.20-May-2020 5070.01 6357.31 68.49 7.00  10.20 2678.90
   02:05:18.400.20-May-2020 5070.01 6358.40 68.49 7.00  10.40 2678.90
   02:05:18.600.20-May-2020 5070.01 6362.59 68.49 7.00  10.60 2678.90
   02:05:18.800.20-May-2020 5070.01 6359.03 68.49 7.00  10.80 2678.90
   02:05:19.000.20-May-2020 5070.01 6360.39 68.49 7.00  11.00 2678.90
   02:05:19.200.20-May-2020 5070.01 6360.39 68.49 7.00  11.20 2678.90
   02:05:19.400.20-May-2020 5070.01 6364.66 68.49 7.00  11.40 2678.90
   02:05:19.600.20-May-2020 5070.01 6362.42 68.49 7.00  11.60 2678.90
   02:05:19.800.20-May-2020 5070.01 6361.69 68.49 7.00  11.80 2678.90
   02:05:20.000.20-May-2020 5070.01 6366.54 68.49 7.00  12.00 2678.90
   02:05:20.200.20-May-2020 5070.01 6366.54 68.49 7.00  12.20 2678.90
   02:05:20.400.20-May-2020 5070.01 6364.22 68.49 7.00  12.40 2678.90
   02:05:20.600.20-May-2020 5070.01 6364.81 68.49 7.00  12.60 2678.90
   02:05:20.800.20-May-2020 5070.01 6369.72 68.49 7.00  12.80 2678.90
   02:05:21.000.20-May-2020 5070.01 6367.88 68.49 7.00  13.00 2678.90
   02:05:21.200.20-May-2020 5070.01 6367.88 68.49 7.00  13.20 2678.90
   02:05:21.400.20-May-2020 5070.01 6367.37 68.49 7.00  13.40 2678.90
   02:05:21.600.20-May-2020 5070.01 6373.64 68.49 7.00  13.60 2678.90
   02:05:21.800.20-May-2020 5070.01 6367.63 68.49 7.00  13.80 2678.90
   02:05:22.000.20-May-2020 5070.01 6367.79 68.49 7.00  14.00 2678.90
   02:05:22.200.20-May-2020 5070.01 6368.99 68.49 7.00  14.20 2678.90
   02:05:22.400.20-May-2020 5070.01 6370.72 68.49 7.00  14.40 2678.90
   02:05:22.600.20-May-2020 5070.01 6369.36 68.49 7.00  14.60 2678.90
   02:05:22.800.20-May-2020 5070.01 6368.96 68.49 7.00  14.80 2678.90
   02:05:23.000.20-May-2020 5070.01 6371.17 68.49 7.00  15.00 2678.90
   02:05:23.200.20-May-2020 5070.01 6371.17 68.49 7.00  15.20 2678.90
   02:05:23.400.20-May-2020 5070.01 6371.27 68.49 7.00  15.40 2678.90
   02:05:23.600.20-May-2020 5070.01 6371.19 68.49 7.00  15.60 2678.90
   02:05:23.800.20-May-2020 5070.01 6371.24 68.49 7.00  15.80 2678.90
   02:05:24.000.20-May-2020 5070.01 6372.79 68.49 7.00  16.00 2678.90
   02:05:24.200.20-May-2020 5070.01 6372.79 68.49 7.00  16.20 2678.90
   02:05:24.400.20-May-2020 5070.01 6373.18 68.49 7.00  16.40 2678.90
   02:05:24.600.20-May-2020 5070.01 6376.71 68.49 7.00  16.60 2678.90
   02:05:24.800.20-May-2020 5070.01 6373.47 68.49 7.00  16.80 2678.90
   02:05:25.000.20-May-2020 5070.01 6374.42 68.49 7.00  17.00 2678.90
   02:05:25.200.20-May-2020 5070.01 6374.42 68.49 7.00  17.20 2678.90
   02:05:25.400.20-May-2020 5070.01 6375.83 68.49 7.00  17.40 2678.90
   02:05:25.600.20-May-2020 5070.01 6378.64 68.49 7.00  17.60 2678.90
   02:05:25.800.20-May-2020 5070.01 6374.72 68.49 7.00  17.80 2678.90
   02:05:26.000.20-May-2020 5070.01 6376.74 68.49 7.00  18.00 2678.90
   02:05:26.200.20-May-2020 5070.01 6376.74 68.49 7.00  18.20 2678.90
   02:05:26.400.20-May-2020 5070.01 6377.59 68.49 7.00  18.40 2678.90
   02:05:26.600.20-May-2020 5070.01 6381.02 68.49 7.00  18.60 2678.90
   02:05:26.800.20-May-2020 5070.01 6377.67 68.49 7.00  18.80 2678.90
   02:05:27.000.20-May-2020 5070.01 6378.58 68.49 7.00  19.00 2678.90
   02:05:27.200.20-May-2020 5070.01 6378.58 68.49 7.00  19.20 2678.90
   02:05:27.400.20-May-2020 5070.01 6380.05 68.49 7.00  19.40 2678.90
   02:05:27.600.20-May-2020 5070.01 6379.52 68.48 7.00  19.60 2678.90
   02:05:27.800.20-May-2020 5070.01 6383.16 68.49 7.00  19.80 2678.90
   02:05:28.000.20-May-2020 5070.01 6381.59 68.48 7.00  20.00 2678.90
   02:05:28.200.20-May-2020 5070.01 6381.59 68.48 7.00  20.20 2678.90
   02:05:28.400.20-May-2020 5070.01 6382.23 68.48 7.00  20.40 2678.90
   02:05:28.600.20-May-2020 5070.01 6381.87 68.48 7.00  20.60 2678.90
   02:05:28.800.20-May-2020 5070.01 6384.64 68.48 7.00  20.80 2678.90
   02:05:29.000.20-May-2020 5070.01 6384.55 68.48 7.00  21.00 2678.90
   02:05:29.200.20-May-2020 5070.01 6384.55 68.48 7.00  21.20 2678.90
   02:05:29.400.20-May-2020 5070.01 6384.33 68.48 7.00  21.40 2678.90
   02:05:29.600.20-May-2020 5070.01 6384.65 68.48 7.00  21.60 2678.90
   02:05:29.800.20-May-2020 5070.01 6383.39 68.48 7.00  21.80 2678.90
   02:05:30.000.20-May-2020 5070.01 6384.38 68.48 7.00  22.00 2678.90
   02:05:30.200.20-May-2020 5070.01 6384.38 68.48 7.00  22.20 2678.90
   02:05:30.400.20-May-2020 5070.01 6385.21 68.48 7.00  22.40 2678.90
   02:05:30.600.20-May-2020 5070.01 6384.82 68.48 7.00  22.60 2678.90
   02:05:30.800.20-May-2020 5070.01 6384.64 68.48 7.00  22.80 2678.90
