~Version Information
 VERS.                  2.0:   CWLS log ASCII Standard -VERSION 2.0
 WRAP.                   NO:   One line per depth step
~Well Information Block
#MNEM.UNIT     VALUE/NAME     DESCRIPTION
#---------     -----------    ---------------------------
 STRT.S             23:11:25 19-May-20: START TIME 23:11:25 19-May-20
 STOP.S             23:19:39 19-May-20: STOP TIME  23:19:39 19-May-20
 STEP.S                   0.00: STEP TIME
 NULL.                 -999.25: NULL VALUE
 MDS .        Operator Entered:  MAG DATA SOURCE
 PDAT.          Mean Sea Level:  PERMANENT DATUM
 UNIT.                     N/A:  LOGGING EQUIPMENT ID
 DCON.         Sperry Drilling:  DIRECTNL CONTR
 DOE .                     N/A:  DOE NUMBER
 RIG .              East Azeri:  RIG NAME
 JOBN.        AZ-XX-0905856059:  JOB TICKET NUMB
 WELL.                     D36:  WELL NAME
 MWDS.                    Baku:  MWD SHOP
 SRVC.     Turan Drilling & Engineering:  CONTRACTOR
 FLD .                     ACG:  FIELD NAME
 CTRY.              Azerbaijan:  COUNTRY NAME
 PROV.                    Baku:  PROVINCE
 STAT.                    Baku:  STATE NAME
 REGN.                   EESSA:  REGION
 BASE.              Azerbaijan:  LOGGING EQUIPMENT BASE LOCATION
 UWI .                     N/A:  UNIQUE WELL IDENTIFIER
 API .                     N/A:  API NUMBER
 COMP.     BP Exploration (Caspian Sea) Ltd.:  COMPANY
 WTYP.                Deviated:  WELL TYPE
 SON .        AZ-XX-0905856059:  JOB NUMBER
 FTOP.          Formation Tops:  FORM TOPS DESC
 ILTD.               Lithology:  INTERP LTH DESC
 SVYD.                  Survey:  SURVEY DESC
 DMOD.             Drill Model:  DRILL MOD DESC
 HPTY.       Minimum Curvature:  HOLE POS TYPE
 NREF.                    Grid:  NORTH REFERENCE
 SPUD.               25-Feb-20:  SPUD DATE
 DATE.      08.55.28 01-May-20:  END TIME
 STIM.      08.55.28 25-Feb-20:  START TIME
 DMF .             Drill Floor:  DRILL MEAS FROM
 DFST.                        :  DIST FSL TEXT
 DFWT.                        :  DIST FWL TEXT
 CNTY.                        :  COUNTY
 LOC .                        :  LOCATION
 LMF .             Drill Floor:  LOG MEASURED FROM
 VSNS.m                   6.09:  VERT SEC N/S
 VSEW.m                 -10.79:  VERT SEC E/W
 AGAP.m                  43.60:  AIR GAP
 DEP .m                 388.24:  DEPTH
 APD .m                  43.60:  DEPTH ABOVE PD
 WDMS.m                 151.80:  WD ELEV
 EGL .m                   0.00:  GROUND ELEVATION
 EPD .m                   0.00:  ELEVATION
 AZTC.deg                 6.12:  AZM TOTAL CORR
 GRDC.deg                 0.30:  GRID CORRECTION
 MDEC.deg                 6.42:  MAGNETIC DECL
 MDIP.deg                59.42:  MAGNETIC DIP
 MFLD.nT              50256.00:  MAGNETIC FIELD
 GVFD.g                   1.00:  GRAVITY FIELD
 VSDR.deg               159.57:  VERT SEC DIRECT
 TDD .m                5000.01:  TOTAL DEPTH (DRILLER)
 SDEP.m                 397.00:  START DEPTH
 DFSL.m                   0.00:  DISTANCE FSL
 DFWL.m                   0.00:  DISTANCE FWL
 UTMY.m             4431880.20:  UTM Y
 UTMX.m              538763.98:  UTM X
 WHEW.m                 -10.79:  WELL HEAD E/W
 WHNS.m                   6.09:  WELL HEAD N/S
 LONG.deg                51.45:  LONGITUDE
 LATI.deg                40.02:  LATITUDE
 TVDS.m                  43.60:  TVDSS CORRECTN
 EKB .m                  43.60:  KB ELEVATION
 EDF .m                  43.60:  DF ELEVATION
 MAGU.                 1847640:  MAGUTM CHECKSUM
 VSC .                       0:  VS TO CLOSURE
~Parameter Information Block
#MNEM.UNIT       Value        Description
#---------     -----------    ---------------------------
 AV  .mps                 1.30:  Ann Velocity 
 AVMX.mps                 1.90:  Max Ann Veloc 
 AZIF.deg               115.68:  Azm, Final 
 BHAT.                   Other:  BHA Type 
 BROT.°/30m               0.74:  Build Rotating 
 BS  .in                  8.50:  Bit Size 
 BTPL.psig              430.00:  Bit Press Loss 
 CABU.                      No:  Customer Abuse 
 COMM.                     Tr}:  Run Comments 1 
 TCS .hr                 51.31:  Time Ciculation Ended 
 CV  .mps                 2.52:  Crit Velocity 
 CVMX.mps                 2.62:  Max Crit Veloc 
 DD1 .          Teymur Aghayev:  Direct Drillr 1 
 DDSV.                   Other:  DD Service 
 DEFF.%                 100.00:  % Det Eff 
 DLRX.°/30m               1.62:  Dogleg Rot Max 
 DLSO.°/30m               0.74:  Dogleg Oriented 
 DLSX.°/30m               1.62:  Dogleg Str Max 
 DRET.      04.30.56 18-May-20:  Drill End Time 
 DRST.      04.30.56 18-May-20:  Drill Start Tim 
 DTIM.hr                  0.00:  Time Drilling 
 EDEP.m                5337.01:  End Depth 
 ENG1.      Artemiy Matviyanov:  Engineer 1 
 ENG2.      Bakhtiyar Jabbarli:  Engineer 2 
 ENG3.           Emil Huseynov:  Engineer 3 
 ETIM.      18.40.00 22-May-20:  End Time 
 FLOI.gpm               550.00:  Flow In 
 FLON.gpm               350.00:  Flow In Min 
 FLOS.cptm                0.00:  Fluid Loss 
 FLOX.gpm               600.00:  Flow In Max 
 HFLO.                      No:  High Flow 
 HPRE.                      No:  High Pressure 
 HTEM.                      No:  High Temp 
 HYDO.m                   1.80:  Hydro Offset 
 IFIN.deg                67.01:  Inc, Final 
 IMAX.deg                67.49:  Inc Max 
 IMIN.deg                66.50:  Inc Min 
 IMND.m                5144.79:  Inc Min Depth 
 IMXD.m                5116.12:  Inc Max Depth 
 JARR.                      No:  Jarring 
 LETM.      17.55.56 20-May-20:  Log End Time 
 LOST.hr                     0:  Lost Rig Time 
 LSTM.      04.30.56 18-May-20:  Log Start Time 
 MDCL.ppm            193153.00:  Mud Chlorides 
 MDES.     Inversion Oil/Synthetic:  Mud Desc 
 DFD .sg                  1.40:  Mud Density 
 MDMN.sg                  1.40:  Dens Mud Min 
 MDMX.sg                  1.41:  Dens Mud Max 
 MOIL.                      68:  Run Mud Oil % 
 MOWR.                   68:32:  Run Mud OWR 
 MSND.                     0.2:  Run Mud Sand % 
 MSOL.                    18.8:  Run Mud Solids% 
 DFV .spqt               80.00:  Mud Viscosity 
 MWOD.in                  6.75:  MWD Tool OD 
 MWSI.                      No:  Serv Intrp, MWD 
 OTIM.hr                104.84:  Time Operating 
 PMAX.psia            10690.93:  Press Op, Max 
 PV  .cP                 26.00:  Mud PV 
 RUN .                     900:  Run Number 
 ROPA.m/hr                0.00:  ROP Avg 
 ROPN.m/hr                0.00:  ROP Min 
 ROPX.m/hr                0.00:  ROP Max 
 RPMA.rpm               140.00:  RPM Surface Avg 
 RPMN.rpm                70.00:  RPM Surface Min 
 RPMX.rpm               140.00:  RPM Surface Max 
 RRUN.                    0900:  Rig Run Number 
 RTIM.hr                 36.00:  Time Reaming 
 SAZI.deg               115.72:  Azm, Start 
 SDEP.m                5337.01:  Start Depth 
 SIDD.                      No:  Serv Intrp, DD 
 SINC.deg                66.92:  Inc, Start 
 SPPA.psig             4400.00:  SPP Avg 
 SPPN.psig             1135.00:  SPP Min 
 SPPX.psig             4581.00:  SPP Max 
 STIM.      04.30.56 18-May-20:  Start Time 
 SVCS.                     MWD:  Services 
 SVER.                    9.20:  Sperry Version 
 TDAT.m                5337.01:  Tot Depth Attmp 
 TDDF.                      No:  Trip for DD 
 TFF .                      No:  Trip for Fail 
 TQAA.f-kp               23.00:  Torque Abs Avg 
 TQAN.f-kp               18.00:  Torque Abs Min 
 TQAX.f-kp               25.00:  Torque Abs Max 
 TRRT.°/30m               0.74:  Turn Rotating 
 MRT .                    HCIM:  Maximum Recorded Temperature 
 TTMX.degC               76.47:  Max Tool Temp 
 WBMN.klb                 0.00:  WOB Min 
 WITN.             Anar Khalil:  Customer Rep 
 WITN.      Kamran Keberlinski:  Customer Rep 2 
 WOBA.klb                 0.00:  WOB Avg 
 WOBX.klb                 0.00:  WOB Max 
 YP  .lhf2               27.00:  Yield Point 
~Curve Information Block
#MNEM.UNIT                 API CODE     Curve Description
#---------               -----------    ---------------------------
 TIME.HHMMSS            00 000 000 000:  GT Time & Date
 GTDEPTH.m              00 000 000 000:  GT Depth
 GTPQH.psia             00 000 000 000:  GT HR Quartz Pressure
 GTTQ.degC              00 000 000 000:  GT Quartz Temperature
 GTTN.NONE              00 000 000 000:  GT Test Number
 GTET.sec               00 000 000 000:  GT Elapsed Test Time
 GTTVD.m                00 000 000 000:  GT True Vertical Depth
#Other Information
#
#WARRANTY: Halliburton will use its best efforts to furnish customers with 
#accurate information and interpretations that are part of, and incident to, the services 
#provided.  However, Halliburton cannot and does not warrant the accuracy 
#or correctness of such information and interpretations.  Under no circumstances should any 
#such information or interpretation be relied upon as the sole basis for any drilling, 
#completion, production, or financial decision or any procedure involving any risk to the 
#safety of any drilling venture, drilling rig or its crew or any other third party.  The 
#Customer has full responsibility for all drilling, completion and production operation.  
#Halliburton makes no representations or warranties, either expressed or 
#implied, including, but not limited to, the implied warranties of merchantability or fitness 
#for a particular purpose, with respect to the services rendered.  In no event will 
#Halliburton be liable for failure to obtain any particular results or for 
#any damages, including, but not limited to, indirect, special or consequential damages, 
#resulting from the use of any information or interpretation provided by Halliburton.
#
~A           TIME           GTDEPTH  GTPQH  GTTQ  GTTN  GTET   GTTVD  
# ...
   23:19:05.818.19-May-2020 5121.01 6445.77 67.98 5.00 460.11 2698.81
   23:19:06.018.19-May-2020 5121.01 6445.77 67.98 5.00 460.31 2698.81
   23:19:06.218.19-May-2020 5121.01 6445.48 67.98 5.00 460.51 2698.81
   23:19:06.419.19-May-2020 5121.01 6446.07 67.99 5.00 460.71 2698.81
   23:19:06.619.19-May-2020 5121.01 6449.27 67.99 5.00 460.91 2698.81
   23:19:06.819.19-May-2020 5121.01 6447.10 67.99 5.00 461.11 2698.81
   23:19:07.019.19-May-2020 5121.01 6447.10 67.99 5.00 461.31 2698.81
   23:19:07.219.19-May-2020 5121.01 6447.60 67.99 5.00 461.52 2698.81
   23:19:07.419.19-May-2020 5121.01 6447.60 68.00 5.00 461.72 2698.81
   23:19:07.619.19-May-2020 5121.01 6451.98 68.00 5.00 461.92 2698.81
   23:19:07.819.19-May-2020 5121.01 6446.99 68.00 5.00 462.12 2698.81
   23:19:08.019.19-May-2020 5121.01 6446.99 68.00 5.00 462.32 2698.81
   23:19:08.219.19-May-2020 5121.01 6446.72 68.00 5.00 462.52 2698.81
   23:19:08.419.19-May-2020 5121.01 6450.44 68.00 5.00 462.72 2698.81
   23:19:08.619.19-May-2020 5121.01 6446.86 68.00 5.00 462.92 2698.81
   23:19:08.819.19-May-2020 5121.01 6452.67 68.01 5.00 463.12 2698.81
   23:19:09.019.19-May-2020 5121.01 6447.41 68.01 5.00 463.32 2698.81
   23:19:09.219.19-May-2020 5121.01 6449.07 68.01 5.00 463.52 2698.81
   23:19:09.419.19-May-2020 5121.01 6447.18 68.01 5.00 463.72 2698.81
   23:19:09.619.19-May-2020 5121.01 6449.81 68.01 5.00 463.92 2698.81
   23:19:09.819.19-May-2020 5121.01 6446.95 68.01 5.00 464.12 2698.81
   23:19:10.019.19-May-2020 5121.01 6446.95 68.01 5.00 464.32 2698.81
   23:19:10.219.19-May-2020 5121.01 6446.55 68.01 5.00 464.52 2698.81
   23:19:10.420.19-May-2020 5121.01 6449.63 68.01 5.00 464.72 2698.81
   23:19:10.620.19-May-2020 5121.01 6448.98 68.02 5.00 464.92 2698.81
   23:19:10.820.19-May-2020 5121.01 6449.16 68.02 5.00 465.12 2698.81
   23:19:11.020.19-May-2020 5121.01 6449.16 68.02 5.00 465.32 2698.81
   23:19:11.220.19-May-2020 5121.01 6452.67 68.02 5.00 465.52 2698.81
   23:19:11.420.19-May-2020 5121.01 6447.70 68.02 5.00 465.72 2698.81
   23:19:11.620.19-May-2020 5121.01 6449.03 68.02 5.00 465.92 2698.81
   23:19:11.820.19-May-2020 5121.01 6449.70 68.02 5.00 466.12 2698.81
   23:19:12.020.19-May-2020 5121.01 6449.70 68.02 5.00 466.32 2698.81
   23:19:12.220.19-May-2020 5121.01 6447.28 68.02 5.00 466.52 2698.81
   23:19:12.420.19-May-2020 5121.01 6448.81 68.02 5.00 466.72 2698.81
   23:19:12.620.19-May-2020 5121.01 6448.07 68.02 5.00 466.92 2698.81
   23:19:12.820.19-May-2020 5121.01 6447.79 68.02 5.00 467.12 2698.81
   23:19:13.020.19-May-2020 5121.01 6447.46 68.02 5.00 467.32 2698.81
   23:19:13.220.19-May-2020 5121.01 6447.42 68.02 5.00 467.52 2698.81
   23:19:13.420.19-May-2020 5121.01 6447.70 68.02 5.00 467.72 2698.81
   23:19:13.620.19-May-2020 5121.01 6447.12 68.02 5.00 467.92 2698.81
   23:19:13.820.19-May-2020 5121.01 6447.25 68.02 5.00 468.12 2698.81
   23:19:14.020.19-May-2020 5121.01 6447.25 68.02 5.00 468.32 2698.81
   23:19:14.220.19-May-2020 5121.01 6451.94 68.02 5.00 468.52 2698.81
   23:19:14.421.19-May-2020 5121.01 6445.18 68.02 5.00 468.72 2698.81
   23:19:14.621.19-May-2020 5121.01 6449.63 68.02 5.00 468.92 2698.81
   23:19:14.821.19-May-2020 5121.01 6449.15 68.02 5.00 469.12 2698.81
   23:19:15.021.19-May-2020 5121.01 6449.15 68.02 5.00 469.32 2698.81
   23:19:15.221.19-May-2020 5121.01 6451.67 68.02 5.00 469.52 2698.81
   23:19:15.421.19-May-2020 5121.01 6447.96 68.02 5.00 469.72 2698.81
   23:19:15.621.19-May-2020 5121.01 6448.68 68.03 5.00 469.92 2698.81
   23:19:15.821.19-May-2020 5121.01 6448.53 68.03 5.00 470.12 2698.81
   23:19:16.021.19-May-2020 5121.01 6448.53 68.03 5.00 470.32 2698.81
   23:19:16.221.19-May-2020 5121.01 6451.32 68.03 5.00 470.52 2698.81
   23:19:16.421.19-May-2020 5121.01 6448.81 68.03 5.00 470.72 2698.81
   23:19:16.621.19-May-2020 5121.01 6449.13 68.03 5.00 470.92 2698.81
   23:19:16.821.19-May-2020 5121.01 6449.09 68.02 5.00 471.12 2698.81
   23:19:17.021.19-May-2020 5121.01 6454.97 68.03 5.00 471.32 2698.81
   23:19:17.221.19-May-2020 5121.01 6446.91 68.02 5.00 471.52 2698.81
   23:19:17.421.19-May-2020 5121.01 6450.60 68.02 5.00 471.72 2698.81
   23:19:17.621.19-May-2020 5121.01 6450.20 68.02 5.00 471.92 2698.81
   23:19:17.821.19-May-2020 5121.01 6450.33 68.02 5.00 472.12 2698.81
   23:19:18.021.19-May-2020 5121.01 6450.33 68.02 5.00 472.32 2698.81
   23:19:18.221.19-May-2020 5121.01 6453.83 68.02 5.00 472.52 2698.81
   23:19:18.422.19-May-2020 5121.01 6448.96 68.02 5.00 472.72 2698.81
   23:19:18.622.19-May-2020 5121.01 6449.95 68.02 5.00 472.92 2698.81
   23:19:18.822.19-May-2020 5121.01 6448.66 68.02 5.00 473.12 2698.81
   23:19:19.022.19-May-2020 5121.01 6448.66 68.02 5.00 473.32 2698.81
   23:19:19.222.19-May-2020 5121.01 6447.79 68.02 5.00 473.52 2698.81
   23:19:19.422.19-May-2020 5121.01 6449.07 68.02 5.00 473.72 2698.81
   23:19:19.622.19-May-2020 5121.01 6448.20 68.02 5.00 473.92 2698.81
   23:19:19.822.19-May-2020 5121.01 6448.56 68.02 5.00 474.12 2698.81
   23:19:20.022.19-May-2020 5121.01 6448.56 68.02 5.00 474.32 2698.81
   23:19:20.222.19-May-2020 5121.01 6447.92 68.02 5.00 474.52 2698.81
   23:19:20.422.19-May-2020 5121.01 6448.04 68.02 5.00 474.72 2698.81
   23:19:20.622.19-May-2020 5121.01 6447.27 68.02 5.00 474.92 2698.81
   23:19:20.822.19-May-2020 5121.01 6447.52 68.02 5.00 475.12 2698.81
   23:19:21.022.19-May-2020 5121.01 6447.52 68.02 5.00 475.32 2698.81
   23:19:21.222.19-May-2020 5121.01 6451.50 68.02 5.00 475.52 2698.81
   23:19:21.422.19-May-2020 5121.01 6447.77 68.02 5.00 475.72 2698.81
   23:19:21.622.19-May-2020 5121.01 6448.33 68.02 5.00 475.92 2698.81
   23:19:21.822.19-May-2020 5121.01 6448.30 68.02 5.00 476.12 2698.81
   23:19:22.022.19-May-2020 5121.01 6448.30 68.02 5.00 476.32 2698.81
   23:19:22.222.19-May-2020 5121.01 6447.68 68.02 5.00 476.52 2698.81
   23:19:22.423.19-May-2020 5121.01 6450.26 68.02 5.00 476.72 2698.81
   23:19:22.623.19-May-2020 5121.01 6449.45 68.02 5.00 476.92 2698.81
   23:19:22.823.19-May-2020 5121.01 6448.78 68.02 5.00 477.12 2698.81
   23:19:23.023.19-May-2020 5121.01 6448.78 68.02 5.00 477.32 2698.81
   23:19:23.223.19-May-2020 5121.01 6448.90 68.02 5.00 477.52 2698.81
   23:19:23.423.19-May-2020 5121.01 6450.42 68.02 5.00 477.72 2698.81
   23:19:23.623.19-May-2020 5121.01 6449.55 68.02 5.00 477.92 2698.81
   23:19:23.823.19-May-2020 5121.01 6449.53 68.02 5.00 478.12 2698.81
   23:19:24.023.19-May-2020 5121.01 6449.53 68.02 5.00 478.32 2698.81
   23:19:24.223.19-May-2020 5121.01 6447.96 68.02 5.00 478.52 2698.81
   23:19:24.423.19-May-2020 5121.01 6450.55 68.02 5.00 478.72 2698.81
   23:19:24.623.19-May-2020 5121.01 6448.01 68.02 5.00 478.92 2698.81
   23:19:24.823.19-May-2020 5121.01 6451.31 68.02 5.00 479.12 2698.81
   23:19:25.023.19-May-2020 5121.01 6452.87 68.02 5.00 479.32 2698.81
   23:19:25.223.19-May-2020 5121.01 6446.14 68.02 5.00 479.52 2698.81
   23:19:25.423.19-May-2020 5121.01 6450.88 68.02 5.00 479.72 2698.81
   23:19:25.623.19-May-2020 5121.01 6450.23 68.02 5.00 479.92 2698.81
   23:19:25.823.19-May-2020 5121.01 6448.96 68.02 5.00 480.12 2698.81
   23:19:26.023.19-May-2020 5121.01 6448.96 68.02 5.00 480.32 2698.81
   23:19:26.223.19-May-2020 5121.01 6447.86 68.02 5.00 480.52 2698.81
   23:19:26.423.19-May-2020 5121.01 6448.36 68.02 5.00 480.72 2698.81
   23:19:26.624.19-May-2020 5121.01 6447.57 68.02 5.00 480.92 2698.81
   23:19:26.824.19-May-2020 5121.01 6447.91 68.01 5.00 481.12 2698.81
   23:19:27.024.19-May-2020 5121.01 6447.84 68.01 5.00 481.32 2698.81
   23:19:27.224.19-May-2020 5121.01 6447.16 68.01 5.00 481.52 2698.81
   23:19:27.424.19-May-2020 5121.01 6447.35 68.01 5.00 481.72 2698.81
   23:19:27.624.19-May-2020 5121.01 6447.00 68.01 5.00 481.92 2698.81
   23:19:27.824.19-May-2020 5121.01 6446.84 68.01 5.00 482.12 2698.81
   23:19:28.024.19-May-2020 5121.01 6446.84 68.01 5.00 482.32 2698.81
   23:19:28.224.19-May-2020 5121.01 6447.40 68.01 5.00 482.52 2698.81
   23:19:28.424.19-May-2020 5121.01 6448.61 68.01 5.00 482.72 2698.81
   23:19:28.624.19-May-2020 5121.01 6448.14 68.01 5.00 482.92 2698.81
