~Version Information
 VERS.                  2.0:   CWLS log ASCII Standard -VERSION 2.0
 WRAP.                   NO:   One line per depth step
~Well Information Block
#MNEM.UNIT     VALUE/NAME     DESCRIPTION
#---------     -----------    ---------------------------
 STRT.S             06:41:15 20-May-20: START TIME 06:41:15 20-May-20
 STOP.S             06:51:49 20-May-20: STOP TIME  06:51:49 20-May-20
 STEP.S                   0.00: STEP TIME
 NULL.                 -999.25: NULL VALUE
 MDS .        Operator Entered:  MAG DATA SOURCE
 PDAT.          Mean Sea Level:  PERMANENT DATUM
 UNIT.                     N/A:  LOGGING EQUIPMENT ID
 DCON.         Sperry Drilling:  DIRECTNL CONTR
 DOE .                     N/A:  DOE NUMBER
 RIG .              East Azeri:  RIG NAME
 JOBN.        AZ-XX-0905856059:  JOB TICKET NUMB
 WELL.                     D36:  WELL NAME
 MWDS.                    Baku:  MWD SHOP
 SRVC.     Turan Drilling & Engineering:  CONTRACTOR
 FLD .                     ACG:  FIELD NAME
 CTRY.              Azerbaijan:  COUNTRY NAME
 PROV.                    Baku:  PROVINCE
 STAT.                    Baku:  STATE NAME
 REGN.                   EESSA:  REGION
 BASE.              Azerbaijan:  LOGGING EQUIPMENT BASE LOCATION
 UWI .                     N/A:  UNIQUE WELL IDENTIFIER
 API .                     N/A:  API NUMBER
 COMP.     BP Exploration (Caspian Sea) Ltd.:  COMPANY
 WTYP.                Deviated:  WELL TYPE
 SON .        AZ-XX-0905856059:  JOB NUMBER
 FTOP.          Formation Tops:  FORM TOPS DESC
 ILTD.               Lithology:  INTERP LTH DESC
 SVYD.                  Survey:  SURVEY DESC
 DMOD.             Drill Model:  DRILL MOD DESC
 HPTY.       Minimum Curvature:  HOLE POS TYPE
 NREF.                    Grid:  NORTH REFERENCE
 SPUD.               25-Feb-20:  SPUD DATE
 DATE.      08.55.28 01-May-20:  END TIME
 STIM.      08.55.28 25-Feb-20:  START TIME
 DMF .             Drill Floor:  DRILL MEAS FROM
 DFST.                        :  DIST FSL TEXT
 DFWT.                        :  DIST FWL TEXT
 CNTY.                        :  COUNTY
 LOC .                        :  LOCATION
 LMF .             Drill Floor:  LOG MEASURED FROM
 VSNS.m                   6.09:  VERT SEC N/S
 VSEW.m                 -10.79:  VERT SEC E/W
 AGAP.m                  43.60:  AIR GAP
 DEP .m                 388.24:  DEPTH
 APD .m                  43.60:  DEPTH ABOVE PD
 WDMS.m                 151.80:  WD ELEV
 EGL .m                   0.00:  GROUND ELEVATION
 EPD .m                   0.00:  ELEVATION
 AZTC.deg                 6.12:  AZM TOTAL CORR
 GRDC.deg                 0.30:  GRID CORRECTION
 MDEC.deg                 6.42:  MAGNETIC DECL
 MDIP.deg                59.42:  MAGNETIC DIP
 MFLD.nT              50256.00:  MAGNETIC FIELD
 GVFD.g                   1.00:  GRAVITY FIELD
 VSDR.deg               159.57:  VERT SEC DIRECT
 TDD .m                5000.01:  TOTAL DEPTH (DRILLER)
 SDEP.m                 397.00:  START DEPTH
 DFSL.m                   0.00:  DISTANCE FSL
 DFWL.m                   0.00:  DISTANCE FWL
 UTMY.m             4431880.20:  UTM Y
 UTMX.m              538763.98:  UTM X
 WHEW.m                 -10.79:  WELL HEAD E/W
 WHNS.m                   6.09:  WELL HEAD N/S
 LONG.deg                51.45:  LONGITUDE
 LATI.deg                40.02:  LATITUDE
 TVDS.m                  43.60:  TVDSS CORRECTN
 EKB .m                  43.60:  KB ELEVATION
 EDF .m                  43.60:  DF ELEVATION
 MAGU.                 1847640:  MAGUTM CHECKSUM
 VSC .                       0:  VS TO CLOSURE
~Parameter Information Block
#MNEM.UNIT       Value        Description
#---------     -----------    ---------------------------
 AV  .mps                 1.30:  Ann Velocity 
 AVMX.mps                 1.90:  Max Ann Veloc 
 AZIF.deg               115.68:  Azm, Final 
 BHAT.                   Other:  BHA Type 
 BROT.°/30m               0.74:  Build Rotating 
 BS  .in                  8.50:  Bit Size 
 BTPL.psig              430.00:  Bit Press Loss 
 CABU.                      No:  Customer Abuse 
 COMM.                     œÿv:  Run Comments 1 
 TCS .hr                 51.31:  Time Ciculation Ended 
 CV  .mps                 2.52:  Crit Velocity 
 CVMX.mps                 2.62:  Max Crit Veloc 
 DD1 .          Teymur Aghayev:  Direct Drillr 1 
 DDSV.                   Other:  DD Service 
 DEFF.%                 100.00:  % Det Eff 
 DLRX.°/30m               1.62:  Dogleg Rot Max 
 DLSO.°/30m               0.74:  Dogleg Oriented 
 DLSX.°/30m               1.62:  Dogleg Str Max 
 DRET.      04.30.56 18-May-20:  Drill End Time 
 DRST.      04.30.56 18-May-20:  Drill Start Tim 
 DTIM.hr                  0.00:  Time Drilling 
 EDEP.m                5337.01:  End Depth 
 ENG1.      Artemiy Matviyanov:  Engineer 1 
 ENG2.      Bakhtiyar Jabbarli:  Engineer 2 
 ENG3.           Emil Huseynov:  Engineer 3 
 ETIM.      18.40.00 22-May-20:  End Time 
 FLOI.gpm               550.00:  Flow In 
 FLON.gpm               350.00:  Flow In Min 
 FLOS.cptm                0.00:  Fluid Loss 
 FLOX.gpm               600.00:  Flow In Max 
 HFLO.                      No:  High Flow 
 HPRE.                      No:  High Pressure 
 HTEM.                      No:  High Temp 
 HYDO.m                   1.80:  Hydro Offset 
 IFIN.deg                67.01:  Inc, Final 
 IMAX.deg                67.49:  Inc Max 
 IMIN.deg                66.50:  Inc Min 
 IMND.m                5144.79:  Inc Min Depth 
 IMXD.m                5116.12:  Inc Max Depth 
 JARR.                      No:  Jarring 
 LETM.      17.55.56 20-May-20:  Log End Time 
 LOST.hr                     0:  Lost Rig Time 
 LSTM.      04.30.56 18-May-20:  Log Start Time 
 MDCL.ppm            193153.00:  Mud Chlorides 
 MDES.     Inversion Oil/Synthetic:  Mud Desc 
 DFD .sg                  1.40:  Mud Density 
 MDMN.sg                  1.40:  Dens Mud Min 
 MDMX.sg                  1.41:  Dens Mud Max 
 MOIL.                      68:  Run Mud Oil % 
 MOWR.                   68:32:  Run Mud OWR 
 MSND.                     0.2:  Run Mud Sand % 
 MSOL.                    18.8:  Run Mud Solids% 
 DFV .spqt               80.00:  Mud Viscosity 
 MWOD.in                  6.75:  MWD Tool OD 
 MWSI.                      No:  Serv Intrp, MWD 
 OTIM.hr                104.84:  Time Operating 
 PMAX.psia            10690.93:  Press Op, Max 
 PV  .cP                 26.00:  Mud PV 
 RUN .                     900:  Run Number 
 ROPA.m/hr                0.00:  ROP Avg 
 ROPN.m/hr                0.00:  ROP Min 
 ROPX.m/hr                0.00:  ROP Max 
 RPMA.rpm               140.00:  RPM Surface Avg 
 RPMN.rpm                70.00:  RPM Surface Min 
 RPMX.rpm               140.00:  RPM Surface Max 
 RRUN.                    0900:  Rig Run Number 
 RTIM.hr                 36.00:  Time Reaming 
 SAZI.deg               115.72:  Azm, Start 
 SDEP.m                5337.01:  Start Depth 
 SIDD.                      No:  Serv Intrp, DD 
 SINC.deg                66.92:  Inc, Start 
 SPPA.psig             4400.00:  SPP Avg 
 SPPN.psig             1135.00:  SPP Min 
 SPPX.psig             4581.00:  SPP Max 
 STIM.      04.30.56 18-May-20:  Start Time 
 SVCS.                     MWD:  Services 
 SVER.                    9.20:  Sperry Version 
 TDAT.m                5337.01:  Tot Depth Attmp 
 TDDF.                      No:  Trip for DD 
 TFF .                      No:  Trip for Fail 
 TQAA.f-kp               23.00:  Torque Abs Avg 
 TQAN.f-kp               18.00:  Torque Abs Min 
 TQAX.f-kp               25.00:  Torque Abs Max 
 TRRT.°/30m               0.74:  Turn Rotating 
 MRT .                    HCIM:  Maximum Recorded Temperature 
 TTMX.degC               76.47:  Max Tool Temp 
 WBMN.klb                 0.00:  WOB Min 
 WITN.             Anar Khalil:  Customer Rep 
 WITN.      Kamran Keberlinski:  Customer Rep 2 
 WOBA.klb                 0.00:  WOB Avg 
 WOBX.klb                 0.00:  WOB Max 
 YP  .lhf2               27.00:  Yield Point 
~Curve Information Block
#MNEM.UNIT                 API CODE     Curve Description
#---------               -----------    ---------------------------
 TIME.HHMMSS            00 000 000 000:  GT Time & Date
 GTDEPTH.m              00 000 000 000:  GT Depth
 GTPQH.psia             00 000 000 000:  GT HR Quartz Pressure
 GTTQ.degC              00 000 000 000:  GT Quartz Temperature
 GTTN.NONE              00 000 000 000:  GT Test Number
 GTET.sec               00 000 000 000:  GT Elapsed Test Time
 GTTVD.m                00 000 000 000:  GT True Vertical Depth
#Other Information
#
#WARRANTY: Halliburton will use its best efforts to furnish customers with 
#accurate information and interpretations that are part of, and incident to, the services 
#provided.  However, Halliburton cannot and does not warrant the accuracy 
#or correctness of such information and interpretations.  Under no circumstances should any 
#such information or interpretation be relied upon as the sole basis for any drilling, 
#completion, production, or financial decision or any procedure involving any risk to the 
#safety of any drilling venture, drilling rig or its crew or any other third party.  The 
#Customer has full responsibility for all drilling, completion and production operation.  
#Halliburton makes no representations or warranties, either expressed or 
#implied, including, but not limited to, the implied warranties of merchantability or fitness 
#for a particular purpose, with respect to the services rendered.  In no event will 
#Halliburton be liable for failure to obtain any particular results or for 
#any damages, including, but not limited to, indirect, special or consequential damages, 
#resulting from the use of any information or interpretation provided by Halliburton.
#
~A           TIME           GTDEPTH  GTPQH  GTTQ  GTTN   GTET   GTTVD  
# ...
   06:51:26.293.20-May-2020 5012.01 6371.34 68.13 10.00 610.37 2656.39
   06:51:26.493.20-May-2020 5012.01 6369.59 68.13 10.00 610.57 2656.39
   06:51:26.693.20-May-2020 5012.01 6373.64 68.13 10.00 610.77 2656.39
   06:51:26.894.20-May-2020 5012.01 6369.67 68.13 10.00 610.97 2656.39
   06:51:27.094.20-May-2020 5012.01 6368.27 68.13 10.00 611.17 2656.39
   06:51:27.294.20-May-2020 5012.01 6368.27 68.13 10.00 611.37 2656.39
   06:51:27.494.20-May-2020 5012.01 6371.51 68.13 10.00 611.57 2656.39
   06:51:27.694.20-May-2020 5012.01 6375.34 68.13 10.00 611.77 2656.39
   06:51:27.894.20-May-2020 5012.01 6366.87 68.13 10.00 611.97 2656.39
   06:51:28.094.20-May-2020 5012.01 6368.84 68.13 10.00 612.17 2656.39
   06:51:28.294.20-May-2020 5012.01 6368.84 68.13 10.00 612.37 2656.39
   06:51:28.494.20-May-2020 5012.01 6372.15 68.13 10.00 612.57 2656.39
   06:51:28.694.20-May-2020 5012.01 6368.95 68.13 10.00 612.77 2656.39
   06:51:28.894.20-May-2020 5012.01 6373.82 68.13 10.00 612.97 2656.39
   06:51:29.094.20-May-2020 5012.01 6369.31 68.13 10.00 613.17 2656.39
   06:51:29.294.20-May-2020 5012.01 6369.31 68.13 10.00 613.37 2656.39
   06:51:29.494.20-May-2020 5012.01 6369.57 68.13 10.00 613.57 2656.39
   06:51:29.694.20-May-2020 5012.01 6371.34 68.13 10.00 613.77 2656.39
   06:51:29.894.20-May-2020 5012.01 6370.22 68.13 10.00 613.97 2656.39
   06:51:30.094.20-May-2020 5012.01 6368.33 68.13 10.00 614.17 2656.39
   06:51:30.295.20-May-2020 5012.01 6369.70 68.13 10.00 614.37 2656.39
   06:51:30.495.20-May-2020 5012.01 6368.98 68.13 10.00 614.57 2656.39
   06:51:30.695.20-May-2020 5012.01 6368.35 68.13 10.00 614.77 2656.39
   06:51:30.895.20-May-2020 5012.01 6368.58 68.13 10.00 614.97 2656.39
   06:51:31.095.20-May-2020 5012.01 6368.16 68.13 10.00 615.17 2656.39
   06:51:31.295.20-May-2020 5012.01 6368.16 68.13 10.00 615.37 2656.39
   06:51:31.495.20-May-2020 5012.01 6367.99 68.13 10.00 615.57 2656.39
   06:51:31.695.20-May-2020 5012.01 6367.86 68.13 10.00 615.77 2656.39
   06:51:31.895.20-May-2020 5012.01 6374.43 68.13 10.00 615.97 2656.39
   06:51:32.095.20-May-2020 5012.01 6366.70 68.13 10.00 616.17 2656.39
   06:51:32.295.20-May-2020 5012.01 6366.70 68.13 10.00 616.37 2656.39
   06:51:32.495.20-May-2020 5012.01 6368.79 68.13 10.00 616.57 2656.39
   06:51:32.695.20-May-2020 5012.01 6375.84 68.13 10.00 616.77 2656.39
   06:51:32.895.20-May-2020 5012.01 6368.00 68.13 10.00 616.97 2656.39
   06:51:33.095.20-May-2020 5012.01 6369.36 68.13 10.00 617.17 2656.39
   06:51:33.295.20-May-2020 5012.01 6369.36 68.13 10.00 617.37 2656.39
   06:51:33.495.20-May-2020 5012.01 6372.68 68.12 10.00 617.57 2656.39
   06:51:33.695.20-May-2020 5012.01 6368.10 68.12 10.00 617.77 2656.39
   06:51:33.896.20-May-2020 5012.01 6373.08 68.12 10.00 617.97 2656.39
   06:51:34.096.20-May-2020 5012.01 6368.45 68.12 10.00 618.17 2656.39
   06:51:34.296.20-May-2020 5012.01 6371.62 68.12 10.00 618.37 2656.39
   06:51:34.496.20-May-2020 5012.01 6368.34 68.12 10.00 618.57 2656.39
   06:51:34.696.20-May-2020 5012.01 6372.26 68.12 10.00 618.78 2656.39
   06:51:34.896.20-May-2020 5012.01 6370.20 68.12 10.00 618.98 2656.39
   06:51:35.096.20-May-2020 5012.01 6372.33 68.12 10.00 619.18 2656.39
   06:51:35.296.20-May-2020 5012.01 6372.33 68.12 10.00 619.38 2656.39
   06:51:35.496.20-May-2020 5012.01 6369.89 68.12 10.00 619.58 2656.39
   06:51:35.696.20-May-2020 5012.01 6370.65 68.12 10.00 619.78 2656.39
   06:51:35.896.20-May-2020 5012.01 6369.78 68.12 10.00 619.98 2656.39
   06:51:36.096.20-May-2020 5012.01 6374.39 68.12 10.00 620.18 2656.39
   06:51:36.296.20-May-2020 5012.01 6374.39 68.12 10.00 620.38 2656.39
   06:51:36.496.20-May-2020 5012.01 6371.37 68.12 10.00 620.58 2656.39
   06:51:36.696.20-May-2020 5012.01 6368.20 68.12 10.00 620.78 2656.39
   06:51:36.896.20-May-2020 5012.01 6372.20 68.12 10.00 620.98 2656.39
   06:51:37.096.20-May-2020 5012.01 6368.37 68.12 10.00 621.18 2656.39
   06:51:37.296.20-May-2020 5012.01 6368.37 68.12 10.00 621.38 2656.39
   06:51:37.497.20-May-2020 5012.01 6368.78 68.12 10.00 621.58 2656.39
   06:51:37.697.20-May-2020 5012.01 6369.25 68.12 10.00 621.78 2656.39
   06:51:37.897.20-May-2020 5012.01 6368.52 68.12 10.00 621.98 2656.39
   06:51:38.097.20-May-2020 5012.01 6367.96 68.12 10.00 622.18 2656.39
   06:51:38.297.20-May-2020 5012.01 6367.96 68.12 10.00 622.38 2656.39
   06:51:38.497.20-May-2020 5012.01 6367.95 68.12 10.00 622.58 2656.39
   06:51:38.697.20-May-2020 5012.01 6367.92 68.12 10.00 622.78 2656.39
   06:51:38.897.20-May-2020 5012.01 6368.02 68.12 10.00 622.98 2656.39
   06:51:39.097.20-May-2020 5012.01 6368.70 68.12 10.00 623.18 2656.39
   06:51:39.297.20-May-2020 5012.01 6368.70 68.12 10.00 623.38 2656.39
   06:51:39.497.20-May-2020 5012.01 6368.78 68.12 10.00 623.58 2656.39
   06:51:39.697.20-May-2020 5012.01 6367.74 68.12 10.00 623.78 2656.39
   06:51:39.897.20-May-2020 5012.01 6370.26 68.12 10.00 623.98 2656.39
   06:51:40.097.20-May-2020 5012.01 6374.90 68.12 10.00 624.18 2656.39
   06:51:40.297.20-May-2020 5012.01 6374.90 68.12 10.00 624.38 2656.39
   06:51:40.497.20-May-2020 5012.01 6367.46 68.12 10.00 624.58 2656.39
   06:51:40.697.20-May-2020 5012.01 6370.04 68.12 10.00 624.78 2656.39
   06:51:40.898.20-May-2020 5012.01 6372.15 68.12 10.00 624.98 2656.39
   06:51:41.098.20-May-2020 5012.01 6368.80 68.12 10.00 625.18 2656.39
   06:51:41.298.20-May-2020 5012.01 6368.80 68.12 10.00 625.38 2656.39
   06:51:41.498.20-May-2020 5012.01 6369.56 68.12 10.00 625.58 2656.39
   06:51:41.698.20-May-2020 5012.01 6368.76 68.12 10.00 625.78 2656.39
   06:51:41.898.20-May-2020 5012.01 6369.71 68.12 10.00 625.98 2656.39
   06:51:42.098.20-May-2020 5012.01 6371.91 68.12 10.00 626.18 2656.39
   06:51:42.298.20-May-2020 5012.01 6370.47 68.12 10.00 626.38 2656.39
   06:51:42.498.20-May-2020 5012.01 6372.94 68.12 10.00 626.58 2656.39
   06:51:42.698.20-May-2020 5012.01 6369.49 68.12 10.00 626.78 2656.39
   06:51:42.898.20-May-2020 5012.01 6371.50 68.12 10.00 626.98 2656.39
   06:51:43.098.20-May-2020 5012.01 6369.02 68.12 10.00 627.18 2656.39
   06:51:43.298.20-May-2020 5012.01 6369.02 68.12 10.00 627.38 2656.39
   06:51:43.498.20-May-2020 5012.01 6370.35 68.12 10.00 627.58 2656.39
   06:51:43.698.20-May-2020 5012.01 6372.64 68.12 10.00 627.78 2656.39
   06:51:43.898.20-May-2020 5012.01 6370.69 68.11 10.00 627.98 2656.39
   06:51:44.098.20-May-2020 5012.01 6369.94 68.11 10.00 628.18 2656.39
   06:51:44.298.20-May-2020 5012.01 6369.94 68.11 10.00 628.38 2656.39
   06:51:44.499.20-May-2020 5012.01 6370.08 68.11 10.00 628.58 2656.39
   06:51:44.699.20-May-2020 5012.01 6370.17 68.11 10.00 628.78 2656.39
   06:51:44.899.20-May-2020 5012.01 6369.17 68.11 10.00 628.98 2656.39
   06:51:45.099.20-May-2020 5012.01 6370.27 68.11 10.00 629.18 2656.39
   06:51:45.299.20-May-2020 5012.01 6370.27 68.11 10.00 629.38 2656.39
   06:51:45.499.20-May-2020 5012.01 6368.92 68.11 10.00 629.58 2656.39
   06:51:45.699.20-May-2020 5012.01 6368.59 68.11 10.00 629.78 2656.39
   06:51:45.899.20-May-2020 5012.01 6368.92 68.11 10.00 629.98 2656.39
   06:51:46.099.20-May-2020 5012.01 6368.33 68.11 10.00 630.18 2656.39
   06:51:46.299.20-May-2020 5012.01 6368.57 68.11 10.00 630.38 2656.39
   06:51:46.499.20-May-2020 5012.01 6368.32 68.11 10.00 630.58 2656.39
   06:51:46.699.20-May-2020 5012.01 6373.18 68.11 10.00 630.78 2656.39
   06:51:46.899.20-May-2020 5012.01 6368.38 68.11 10.00 630.98 2656.39
   06:51:47.099.20-May-2020 5012.01 6367.91 68.11 10.00 631.18 2656.39
   06:51:47.299.20-May-2020 5012.01 6367.91 68.11 10.00 631.38 2656.39
   06:51:47.499.20-May-2020 5012.01 6377.20 68.11 10.00 631.58 2656.39
   06:51:47.699.20-May-2020 5012.01 6367.01 68.11 10.00 631.78 2656.39
   06:51:47.899.20-May-2020 5012.01 6369.00 68.11 10.00 631.98 2656.39
   06:51:48.100.20-May-2020 5012.01 6369.71 68.11 10.00 632.18 2656.39
   06:51:48.300.20-May-2020 5012.01 6369.71 68.11 10.00 632.38 2656.39
   06:51:48.500.20-May-2020 5012.01 6369.03 68.11 10.00 632.58 2656.39
   06:51:48.700.20-May-2020 5012.01 6374.78 68.11 10.00 632.78 2656.39
