~Version Information
 VERS.                  2.0:   CWLS log ASCII Standard -VERSION 2.0
 WRAP.                   NO:   One line per depth step
~Well Information Block
#MNEM.UNIT     VALUE/NAME     DESCRIPTION
#---------     -----------    ---------------------------
 STRT.S             22:24:43 19-May-20: START TIME 22:24:43 19-May-20
 STOP.S             22:33:01 19-May-20: STOP TIME  22:33:01 19-May-20
 STEP.S                   0.00: STEP TIME
 NULL.                 -999.25: NULL VALUE
 MDS .        Operator Entered:  MAG DATA SOURCE
 PDAT.          Mean Sea Level:  PERMANENT DATUM
 UNIT.                     N/A:  LOGGING EQUIPMENT ID
 DCON.         Sperry Drilling:  DIRECTNL CONTR
 DOE .                     N/A:  DOE NUMBER
 RIG .              East Azeri:  RIG NAME
 JOBN.        AZ-XX-0905856059:  JOB TICKET NUMB
 WELL.                     D36:  WELL NAME
 MWDS.                    Baku:  MWD SHOP
 SRVC.     Turan Drilling & Engineering:  CONTRACTOR
 FLD .                     ACG:  FIELD NAME
 CTRY.              Azerbaijan:  COUNTRY NAME
 PROV.                    Baku:  PROVINCE
 STAT.                    Baku:  STATE NAME
 REGN.                   EESSA:  REGION
 BASE.              Azerbaijan:  LOGGING EQUIPMENT BASE LOCATION
 UWI .                     N/A:  UNIQUE WELL IDENTIFIER
 API .                     N/A:  API NUMBER
 COMP.     BP Exploration (Caspian Sea) Ltd.:  COMPANY
 WTYP.                Deviated:  WELL TYPE
 SON .        AZ-XX-0905856059:  JOB NUMBER
 FTOP.          Formation Tops:  FORM TOPS DESC
 ILTD.               Lithology:  INTERP LTH DESC
 SVYD.                  Survey:  SURVEY DESC
 DMOD.             Drill Model:  DRILL MOD DESC
 HPTY.       Minimum Curvature:  HOLE POS TYPE
 NREF.                    Grid:  NORTH REFERENCE
 SPUD.               25-Feb-20:  SPUD DATE
 DATE.      08.55.28 01-May-20:  END TIME
 STIM.      08.55.28 25-Feb-20:  START TIME
 DMF .             Drill Floor:  DRILL MEAS FROM
 DFST.                        :  DIST FSL TEXT
 DFWT.                        :  DIST FWL TEXT
 CNTY.                        :  COUNTY
 LOC .                        :  LOCATION
 LMF .             Drill Floor:  LOG MEASURED FROM
 VSNS.m                   6.09:  VERT SEC N/S
 VSEW.m                 -10.79:  VERT SEC E/W
 AGAP.m                  43.60:  AIR GAP
 DEP .m                 388.24:  DEPTH
 APD .m                  43.60:  DEPTH ABOVE PD
 WDMS.m                 151.80:  WD ELEV
 EGL .m                   0.00:  GROUND ELEVATION
 EPD .m                   0.00:  ELEVATION
 AZTC.deg                 6.12:  AZM TOTAL CORR
 GRDC.deg                 0.30:  GRID CORRECTION
 MDEC.deg                 6.42:  MAGNETIC DECL
 MDIP.deg                59.42:  MAGNETIC DIP
 MFLD.nT              50256.00:  MAGNETIC FIELD
 GVFD.g                   1.00:  GRAVITY FIELD
 VSDR.deg               159.57:  VERT SEC DIRECT
 TDD .m                5000.01:  TOTAL DEPTH (DRILLER)
 SDEP.m                 397.00:  START DEPTH
 DFSL.m                   0.00:  DISTANCE FSL
 DFWL.m                   0.00:  DISTANCE FWL
 UTMY.m             4431880.20:  UTM Y
 UTMX.m              538763.98:  UTM X
 WHEW.m                 -10.79:  WELL HEAD E/W
 WHNS.m                   6.09:  WELL HEAD N/S
 LONG.deg                51.45:  LONGITUDE
 LATI.deg                40.02:  LATITUDE
 TVDS.m                  43.60:  TVDSS CORRECTN
 EKB .m                  43.60:  KB ELEVATION
 EDF .m                  43.60:  DF ELEVATION
 MAGU.                 1847640:  MAGUTM CHECKSUM
 VSC .                       0:  VS TO CLOSURE
~Parameter Information Block
#MNEM.UNIT       Value        Description
#---------     -----------    ---------------------------
 AV  .mps                 1.30:  Ann Velocity 
 AVMX.mps                 1.90:  Max Ann Veloc 
 AZIF.deg               115.68:  Azm, Final 
 BHAT.                   Other:  BHA Type 
 BROT.°/30m               0.74:  Build Rotating 
 BS  .in                  8.50:  Bit Size 
 BTPL.psig              430.00:  Bit Press Loss 
 CABU.                      No:  Customer Abuse 
 COMM.                     ”le:  Run Comments 1 
 TCS .hr                 51.31:  Time Ciculation Ended 
 CV  .mps                 2.52:  Crit Velocity 
 CVMX.mps                 2.62:  Max Crit Veloc 
 DD1 .          Teymur Aghayev:  Direct Drillr 1 
 DDSV.                   Other:  DD Service 
 DEFF.%                 100.00:  % Det Eff 
 DLRX.°/30m               1.62:  Dogleg Rot Max 
 DLSO.°/30m               0.74:  Dogleg Oriented 
 DLSX.°/30m               1.62:  Dogleg Str Max 
 DRET.      04.30.56 18-May-20:  Drill End Time 
 DRST.      04.30.56 18-May-20:  Drill Start Tim 
 DTIM.hr                  0.00:  Time Drilling 
 EDEP.m                5337.01:  End Depth 
 ENG1.      Artemiy Matviyanov:  Engineer 1 
 ENG2.      Bakhtiyar Jabbarli:  Engineer 2 
 ENG3.           Emil Huseynov:  Engineer 3 
 ETIM.      18.40.00 22-May-20:  End Time 
 FLOI.gpm               550.00:  Flow In 
 FLON.gpm               350.00:  Flow In Min 
 FLOS.cptm                0.00:  Fluid Loss 
 FLOX.gpm               600.00:  Flow In Max 
 HFLO.                      No:  High Flow 
 HPRE.                      No:  High Pressure 
 HTEM.                      No:  High Temp 
 HYDO.m                   1.80:  Hydro Offset 
 IFIN.deg                67.01:  Inc, Final 
 IMAX.deg                67.49:  Inc Max 
 IMIN.deg                66.50:  Inc Min 
 IMND.m                5144.79:  Inc Min Depth 
 IMXD.m                5116.12:  Inc Max Depth 
 JARR.                      No:  Jarring 
 LETM.      17.55.56 20-May-20:  Log End Time 
 LOST.hr                     0:  Lost Rig Time 
 LSTM.      04.30.56 18-May-20:  Log Start Time 
 MDCL.ppm            193153.00:  Mud Chlorides 
 MDES.     Inversion Oil/Synthetic:  Mud Desc 
 DFD .sg                  1.40:  Mud Density 
 MDMN.sg                  1.40:  Dens Mud Min 
 MDMX.sg                  1.41:  Dens Mud Max 
 MOIL.                      68:  Run Mud Oil % 
 MOWR.                   68:32:  Run Mud OWR 
 MSND.                     0.2:  Run Mud Sand % 
 MSOL.                    18.8:  Run Mud Solids% 
 DFV .spqt               80.00:  Mud Viscosity 
 MWOD.in                  6.75:  MWD Tool OD 
 MWSI.                      No:  Serv Intrp, MWD 
 OTIM.hr                104.84:  Time Operating 
 PMAX.psia            10690.93:  Press Op, Max 
 PV  .cP                 26.00:  Mud PV 
 RUN .                     900:  Run Number 
 ROPA.m/hr                0.00:  ROP Avg 
 ROPN.m/hr                0.00:  ROP Min 
 ROPX.m/hr                0.00:  ROP Max 
 RPMA.rpm               140.00:  RPM Surface Avg 
 RPMN.rpm                70.00:  RPM Surface Min 
 RPMX.rpm               140.00:  RPM Surface Max 
 RRUN.                    0900:  Rig Run Number 
 RTIM.hr                 36.00:  Time Reaming 
 SAZI.deg               115.72:  Azm, Start 
 SDEP.m                5337.01:  Start Depth 
 SIDD.                      No:  Serv Intrp, DD 
 SINC.deg                66.92:  Inc, Start 
 SPPA.psig             4400.00:  SPP Avg 
 SPPN.psig             1135.00:  SPP Min 
 SPPX.psig             4581.00:  SPP Max 
 STIM.      04.30.56 18-May-20:  Start Time 
 SVCS.                     MWD:  Services 
 SVER.                    9.20:  Sperry Version 
 TDAT.m                5337.01:  Tot Depth Attmp 
 TDDF.                      No:  Trip for DD 
 TFF .                      No:  Trip for Fail 
 TQAA.f-kp               23.00:  Torque Abs Avg 
 TQAN.f-kp               18.00:  Torque Abs Min 
 TQAX.f-kp               25.00:  Torque Abs Max 
 TRRT.°/30m               0.74:  Turn Rotating 
 MRT .                    HCIM:  Maximum Recorded Temperature 
 TTMX.degC               76.47:  Max Tool Temp 
 WBMN.klb                 0.00:  WOB Min 
 WITN.             Anar Khalil:  Customer Rep 
 WITN.      Kamran Keberlinski:  Customer Rep 2 
 WOBA.klb                 0.00:  WOB Avg 
 WOBX.klb                 0.00:  WOB Max 
 YP  .lhf2               27.00:  Yield Point 
~Curve Information Block
#MNEM.UNIT                 API CODE     Curve Description
#---------               -----------    ---------------------------
 TIME.HHMMSS            00 000 000 000:  GT Time & Date
 GTDEPTH.m              00 000 000 000:  GT Depth
 GTPQH.psia             00 000 000 000:  GT HR Quartz Pressure
 GTTQ.degC              00 000 000 000:  GT Quartz Temperature
 GTTN.NONE              00 000 000 000:  GT Test Number
 GTET.sec               00 000 000 000:  GT Elapsed Test Time
 GTTVD.m                00 000 000 000:  GT True Vertical Depth
#Other Information
#
#WARRANTY: Halliburton will use its best efforts to furnish customers with 
#accurate information and interpretations that are part of, and incident to, the services 
#provided.  However, Halliburton cannot and does not warrant the accuracy 
#or correctness of such information and interpretations.  Under no circumstances should any 
#such information or interpretation be relied upon as the sole basis for any drilling, 
#completion, production, or financial decision or any procedure involving any risk to the 
#safety of any drilling venture, drilling rig or its crew or any other third party.  The 
#Customer has full responsibility for all drilling, completion and production operation.  
#Halliburton makes no representations or warranties, either expressed or 
#implied, including, but not limited to, the implied warranties of merchantability or fitness 
#for a particular purpose, with respect to the services rendered.  In no event will 
#Halliburton be liable for failure to obtain any particular results or for 
#any damages, including, but not limited to, indirect, special or consequential damages, 
#resulting from the use of any information or interpretation provided by Halliburton.
#
~A           TIME           GTDEPTH  GTPQH  GTTQ  GTTN  GTET   GTTVD  
# ...
   22:29:42.080.19-May-2020 5137.01 6465.69 67.87 4.00 299.07 2705.05
   22:29:42.280.19-May-2020 5137.01 6469.10 67.87 4.00 299.27 2705.05
   22:29:42.480.19-May-2020 5137.01 6465.09 67.87 4.00 299.47 2705.05
   22:29:42.680.19-May-2020 5137.01 6467.02 67.87 4.00 299.67 2705.05
   22:29:42.880.19-May-2020 5137.01 6465.46 67.87 4.00 299.87 2705.05
   22:29:43.080.19-May-2020 5137.01 6465.96 67.87 4.00 300.07 2705.05
   22:29:43.280.19-May-2020 5137.01 6465.96 67.87 4.00 300.27 2705.05
   22:29:43.480.19-May-2020 5137.01 6464.96 67.87 4.00 300.47 2705.05
   22:29:43.680.19-May-2020 5137.01 6464.10 67.87 4.00 300.67 2705.05
   22:29:43.880.19-May-2020 5137.01 6465.12 67.87 4.00 300.87 2705.05
   22:29:44.080.19-May-2020 5137.01 6463.73 67.87 4.00 301.08 2705.05
   22:29:44.280.19-May-2020 5137.01 6463.73 67.87 4.00 301.28 2705.05
   22:29:44.480.19-May-2020 5137.01 6463.88 67.87 4.00 301.48 2705.05
   22:29:44.680.19-May-2020 5137.01 6463.50 67.87 4.00 301.68 2705.05
   22:29:44.880.19-May-2020 5137.01 6463.97 67.87 4.00 301.88 2705.05
   22:29:45.080.19-May-2020 5137.01 6462.75 67.87 4.00 302.08 2705.05
   22:29:45.280.19-May-2020 5137.01 6462.75 67.87 4.00 302.28 2705.05
   22:29:45.480.19-May-2020 5137.01 6463.26 67.87 4.00 302.48 2705.05
   22:29:45.680.19-May-2020 5137.01 6464.92 67.87 4.00 302.68 2705.05
   22:29:45.881.19-May-2020 5137.01 6463.87 67.87 4.00 302.88 2705.05
   22:29:46.081.19-May-2020 5137.01 6467.90 67.87 4.00 303.08 2705.05
   22:29:46.281.19-May-2020 5137.01 6464.10 67.87 4.00 303.28 2705.05
   22:29:46.481.19-May-2020 5137.01 6465.94 67.87 4.00 303.48 2705.05
   22:29:46.681.19-May-2020 5137.01 6464.81 67.87 4.00 303.68 2705.05
   22:29:46.881.19-May-2020 5137.01 6465.85 67.87 4.00 303.88 2705.05
   22:29:47.081.19-May-2020 5137.01 6466.79 67.87 4.00 304.08 2705.05
   22:29:47.281.19-May-2020 5137.01 6466.79 67.87 4.00 304.28 2705.05
   22:29:47.481.19-May-2020 5137.01 6466.10 67.87 4.00 304.48 2705.05
   22:29:47.681.19-May-2020 5137.01 6465.60 67.87 4.00 304.68 2705.05
   22:29:47.881.19-May-2020 5137.01 6465.94 67.87 4.00 304.88 2705.05
   22:29:48.081.19-May-2020 5137.01 6467.35 67.87 4.00 305.08 2705.05
   22:29:48.281.19-May-2020 5137.01 6467.35 67.87 4.00 305.28 2705.05
   22:29:48.481.19-May-2020 5137.01 6466.33 67.87 4.00 305.48 2705.05
   22:29:48.681.19-May-2020 5137.01 6465.53 67.87 4.00 305.68 2705.05
   22:29:48.881.19-May-2020 5137.01 6469.24 67.87 4.00 305.88 2705.05
   22:29:49.081.19-May-2020 5137.01 6464.69 67.87 4.00 306.08 2705.05
   22:29:49.281.19-May-2020 5137.01 6464.69 67.87 4.00 306.28 2705.05
   22:29:49.481.19-May-2020 5137.01 6465.77 67.87 4.00 306.48 2705.05
   22:29:49.681.19-May-2020 5137.01 6465.28 67.87 4.00 306.68 2705.05
   22:29:49.882.19-May-2020 5137.01 6465.75 67.87 4.00 306.88 2705.05
   22:29:50.082.19-May-2020 5137.01 6464.17 67.87 4.00 307.08 2705.05
   22:29:50.282.19-May-2020 5137.01 6464.85 67.87 4.00 307.28 2705.05
   22:29:50.482.19-May-2020 5137.01 6464.35 67.87 4.00 307.48 2705.05
   22:29:50.682.19-May-2020 5137.01 6463.68 67.87 4.00 307.68 2705.05
   22:29:50.882.19-May-2020 5137.01 6464.56 67.87 4.00 307.88 2705.05
   22:29:51.082.19-May-2020 5137.01 6463.73 67.87 4.00 308.08 2705.05
   22:29:51.282.19-May-2020 5137.01 6463.73 67.87 4.00 308.28 2705.05
   22:29:51.482.19-May-2020 5137.01 6463.81 67.87 4.00 308.48 2705.05
   22:29:51.682.19-May-2020 5137.01 6463.10 67.87 4.00 308.68 2705.05
   22:29:51.882.19-May-2020 5137.01 6464.98 67.87 4.00 308.88 2705.05
   22:29:52.082.19-May-2020 5137.01 6465.30 67.87 4.00 309.08 2705.05
   22:29:52.282.19-May-2020 5137.01 6465.30 67.87 4.00 309.28 2705.05
   22:29:52.482.19-May-2020 5137.01 6465.43 67.87 4.00 309.48 2705.05
   22:29:52.682.19-May-2020 5137.01 6462.98 67.87 4.00 309.68 2705.05
   22:29:52.882.19-May-2020 5137.01 6470.47 67.87 4.00 309.88 2705.05
   22:29:53.082.19-May-2020 5137.01 6461.42 67.87 4.00 310.08 2705.05
   22:29:53.282.19-May-2020 5137.01 6461.42 67.87 4.00 310.28 2705.05
   22:29:53.482.19-May-2020 5137.01 6465.11 67.87 4.00 310.48 2705.05
   22:29:53.682.19-May-2020 5137.01 6468.40 67.87 4.00 310.68 2705.05
   22:29:53.883.19-May-2020 5137.01 6464.63 67.87 4.00 310.88 2705.05
   22:29:54.083.19-May-2020 5137.01 6466.38 67.87 4.00 311.08 2705.05
   22:29:54.283.19-May-2020 5137.01 6466.38 67.87 4.00 311.28 2705.05
   22:29:54.483.19-May-2020 5137.01 6466.55 67.87 4.00 311.48 2705.05
   22:29:54.683.19-May-2020 5137.01 6466.62 67.87 4.00 311.68 2705.05
   22:29:54.883.19-May-2020 5137.01 6465.58 67.87 4.00 311.88 2705.05
   22:29:55.083.19-May-2020 5137.01 6466.22 67.87 4.00 312.08 2705.05
   22:29:55.283.19-May-2020 5137.01 6466.22 67.87 4.00 312.28 2705.05
   22:29:55.483.19-May-2020 5137.01 6468.13 67.87 4.00 312.48 2705.05
   22:29:55.683.19-May-2020 5137.01 6464.80 67.87 4.00 312.68 2705.05
   22:29:55.883.19-May-2020 5137.01 6467.96 67.87 4.00 312.88 2705.05
   22:29:56.083.19-May-2020 5137.01 6464.34 67.87 4.00 313.08 2705.05
   22:29:56.283.19-May-2020 5137.01 6464.34 67.87 4.00 313.28 2705.05
   22:29:56.483.19-May-2020 5137.01 6463.99 67.87 4.00 313.48 2705.05
   22:29:56.683.19-May-2020 5137.01 6464.90 67.87 4.00 313.68 2705.05
   22:29:56.883.19-May-2020 5137.01 6465.06 67.87 4.00 313.88 2705.05
   22:29:57.083.19-May-2020 5137.01 6464.19 67.87 4.00 314.08 2705.05
   22:29:57.283.19-May-2020 5137.01 6464.19 67.87 4.00 314.28 2705.05
   22:29:57.483.19-May-2020 5137.01 6463.85 67.87 4.00 314.48 2705.05
   22:29:57.683.19-May-2020 5137.01 6463.50 67.87 4.00 314.68 2705.05
   22:29:57.884.19-May-2020 5137.01 6463.17 67.87 4.00 314.88 2705.05
   22:29:58.084.19-May-2020 5137.01 6462.05 67.87 4.00 315.08 2705.05
   22:29:58.284.19-May-2020 5137.01 6462.38 67.87 4.00 315.28 2705.05
   22:29:58.484.19-May-2020 5137.01 6465.65 67.87 4.00 315.48 2705.05
   22:29:58.684.19-May-2020 5137.01 6461.99 67.87 4.00 315.68 2705.05
   22:29:58.884.19-May-2020 5137.01 6464.92 67.87 4.00 315.88 2705.05
   22:29:59.084.19-May-2020 5137.01 6461.27 67.87 4.00 316.08 2705.05
   22:29:59.284.19-May-2020 5137.01 6461.27 67.87 4.00 316.28 2705.05
   22:29:59.484.19-May-2020 5137.01 6462.57 67.87 4.00 316.48 2705.05
   22:29:59.684.19-May-2020 5137.01 6464.74 67.87 4.00 316.68 2705.05
   22:29:59.884.19-May-2020 5137.01 6464.76 67.87 4.00 316.88 2705.05
   22:30:00.084.19-May-2020 5137.01 6467.32 67.87 4.00 317.08 2705.05
   22:30:00.284.19-May-2020 5137.01 6467.32 67.87 4.00 317.28 2705.05
   22:30:00.484.19-May-2020 5137.01 6466.30 67.87 4.00 317.48 2705.05
   22:30:00.684.19-May-2020 5137.01 6463.70 67.87 4.00 317.68 2705.05
   22:30:00.884.19-May-2020 5137.01 6466.06 67.87 4.00 317.88 2705.05
   22:30:01.084.19-May-2020 5137.01 6467.28 67.87 4.00 318.08 2705.05
   22:30:01.284.19-May-2020 5137.01 6467.28 67.87 4.00 318.28 2705.05
   22:30:01.484.19-May-2020 5137.01 6465.61 67.87 4.00 318.48 2705.05
   22:30:01.684.19-May-2020 5137.01 6464.91 67.87 4.00 318.68 2705.05
   22:30:01.885.19-May-2020 5137.01 6468.79 67.87 4.00 318.88 2705.05
   22:30:02.085.19-May-2020 5137.01 6463.07 67.87 4.00 319.08 2705.05
   22:30:02.285.19-May-2020 5137.01 6466.75 67.87 4.00 319.28 2705.05
   22:30:02.485.19-May-2020 5137.01 6463.47 67.87 4.00 319.48 2705.05
   22:30:02.685.19-May-2020 5137.01 6465.48 67.87 4.00 319.68 2705.05
   22:30:02.885.19-May-2020 5137.01 6463.63 67.87 4.00 319.88 2705.05
   22:30:03.085.19-May-2020 5137.01 6463.50 67.87 4.00 320.08 2705.05
   22:30:03.285.19-May-2020 5137.01 6463.50 67.87 4.00 320.28 2705.05
   22:30:03.485.19-May-2020 5137.01 6463.26 67.87 4.00 320.48 2705.05
   22:30:03.685.19-May-2020 5137.01 6462.71 67.87 4.00 320.68 2705.05
   22:30:03.885.19-May-2020 5137.01 6463.44 67.87 4.00 320.88 2705.05
   22:30:04.085.19-May-2020 5137.01 6461.92 67.87 4.00 321.08 2705.05
   22:30:04.285.19-May-2020 5137.01 6461.92 67.87 4.00 321.28 2705.05
   22:30:04.485.19-May-2020 5137.01 6462.19 67.87 4.00 321.48 2705.05
   22:30:04.685.19-May-2020 5137.01 6461.65 67.87 4.00 321.68 2705.05
   22:30:04.885.19-May-2020 5137.01 6465.98 67.87 4.00 321.88 2705.05
