~Version Information
 VERS.                  2.0:   CWLS log ASCII Standard -VERSION 2.0
 WRAP.                   NO:   One line per depth step
~Well Information Block
#MNEM.UNIT     VALUE/NAME     DESCRIPTION
#---------     -----------    ---------------------------
 STRT.S             06:41:15 20-May-20: START TIME 06:41:15 20-May-20
 STOP.S             06:51:49 20-May-20: STOP TIME  06:51:49 20-May-20
 STEP.S                   0.00: STEP TIME
 NULL.                 -999.25: NULL VALUE
 MDS .        Operator Entered:  MAG DATA SOURCE
 PDAT.          Mean Sea Level:  PERMANENT DATUM
 UNIT.                     N/A:  LOGGING EQUIPMENT ID
 DCON.         Sperry Drilling:  DIRECTNL CONTR
 DOE .                     N/A:  DOE NUMBER
 RIG .              East Azeri:  RIG NAME
 JOBN.        AZ-XX-0905856059:  JOB TICKET NUMB
 WELL.                     D36:  WELL NAME
 MWDS.                    Baku:  MWD SHOP
 SRVC.     Turan Drilling & Engineering:  CONTRACTOR
 FLD .                     ACG:  FIELD NAME
 CTRY.              Azerbaijan:  COUNTRY NAME
 PROV.                    Baku:  PROVINCE
 STAT.                    Baku:  STATE NAME
 REGN.                   EESSA:  REGION
 BASE.              Azerbaijan:  LOGGING EQUIPMENT BASE LOCATION
 UWI .                     N/A:  UNIQUE WELL IDENTIFIER
 API .                     N/A:  API NUMBER
 COMP.     BP Exploration (Caspian Sea) Ltd.:  COMPANY
 WTYP.                Deviated:  WELL TYPE
 SON .        AZ-XX-0905856059:  JOB NUMBER
 FTOP.          Formation Tops:  FORM TOPS DESC
 ILTD.               Lithology:  INTERP LTH DESC
 SVYD.                  Survey:  SURVEY DESC
 DMOD.             Drill Model:  DRILL MOD DESC
 HPTY.       Minimum Curvature:  HOLE POS TYPE
 NREF.                    Grid:  NORTH REFERENCE
 SPUD.               25-Feb-20:  SPUD DATE
 DATE.      08.55.28 01-May-20:  END TIME
 STIM.      08.55.28 25-Feb-20:  START TIME
 DMF .             Drill Floor:  DRILL MEAS FROM
 DFST.                        :  DIST FSL TEXT
 DFWT.                        :  DIST FWL TEXT
 CNTY.                        :  COUNTY
 LOC .                        :  LOCATION
 LMF .             Drill Floor:  LOG MEASURED FROM
 VSNS.m                   6.09:  VERT SEC N/S
 VSEW.m                 -10.79:  VERT SEC E/W
 AGAP.m                  43.60:  AIR GAP
 DEP .m                 388.24:  DEPTH
 APD .m                  43.60:  DEPTH ABOVE PD
 WDMS.m                 151.80:  WD ELEV
 EGL .m                   0.00:  GROUND ELEVATION
 EPD .m                   0.00:  ELEVATION
 AZTC.deg                 6.12:  AZM TOTAL CORR
 GRDC.deg                 0.30:  GRID CORRECTION
 MDEC.deg                 6.42:  MAGNETIC DECL
 MDIP.deg                59.42:  MAGNETIC DIP
 MFLD.nT              50256.00:  MAGNETIC FIELD
 GVFD.g                   1.00:  GRAVITY FIELD
 VSDR.deg               159.57:  VERT SEC DIRECT
 TDD .m                5000.01:  TOTAL DEPTH (DRILLER)
 SDEP.m                 397.00:  START DEPTH
 DFSL.m                   0.00:  DISTANCE FSL
 DFWL.m                   0.00:  DISTANCE FWL
 UTMY.m             4431880.20:  UTM Y
 UTMX.m              538763.98:  UTM X
 WHEW.m                 -10.79:  WELL HEAD E/W
 WHNS.m                   6.09:  WELL HEAD N/S
 LONG.deg                51.45:  LONGITUDE
 LATI.deg                40.02:  LATITUDE
 TVDS.m                  43.60:  TVDSS CORRECTN
 EKB .m                  43.60:  KB ELEVATION
 EDF .m                  43.60:  DF ELEVATION
 MAGU.                 1847640:  MAGUTM CHECKSUM
 VSC .                       0:  VS TO CLOSURE
~Parameter Information Block
#MNEM.UNIT       Value        Description
#---------     -----------    ---------------------------
 AV  .mps                 1.30:  Ann Velocity 
 AVMX.mps                 1.90:  Max Ann Veloc 
 AZIF.deg               115.68:  Azm, Final 
 BHAT.                   Other:  BHA Type 
 BROT.°/30m               0.74:  Build Rotating 
 BS  .in                  8.50:  Bit Size 
 BTPL.psig              430.00:  Bit Press Loss 
 CABU.                      No:  Customer Abuse 
 COMM.                     œÿv:  Run Comments 1 
 TCS .hr                 51.31:  Time Ciculation Ended 
 CV  .mps                 2.52:  Crit Velocity 
 CVMX.mps                 2.62:  Max Crit Veloc 
 DD1 .          Teymur Aghayev:  Direct Drillr 1 
 DDSV.                   Other:  DD Service 
 DEFF.%                 100.00:  % Det Eff 
 DLRX.°/30m               1.62:  Dogleg Rot Max 
 DLSO.°/30m               0.74:  Dogleg Oriented 
 DLSX.°/30m               1.62:  Dogleg Str Max 
 DRET.      04.30.56 18-May-20:  Drill End Time 
 DRST.      04.30.56 18-May-20:  Drill Start Tim 
 DTIM.hr                  0.00:  Time Drilling 
 EDEP.m                5337.01:  End Depth 
 ENG1.      Artemiy Matviyanov:  Engineer 1 
 ENG2.      Bakhtiyar Jabbarli:  Engineer 2 
 ENG3.           Emil Huseynov:  Engineer 3 
 ETIM.      18.40.00 22-May-20:  End Time 
 FLOI.gpm               550.00:  Flow In 
 FLON.gpm               350.00:  Flow In Min 
 FLOS.cptm                0.00:  Fluid Loss 
 FLOX.gpm               600.00:  Flow In Max 
 HFLO.                      No:  High Flow 
 HPRE.                      No:  High Pressure 
 HTEM.                      No:  High Temp 
 HYDO.m                   1.80:  Hydro Offset 
 IFIN.deg                67.01:  Inc, Final 
 IMAX.deg                67.49:  Inc Max 
 IMIN.deg                66.50:  Inc Min 
 IMND.m                5144.79:  Inc Min Depth 
 IMXD.m                5116.12:  Inc Max Depth 
 JARR.                      No:  Jarring 
 LETM.      17.55.56 20-May-20:  Log End Time 
 LOST.hr                     0:  Lost Rig Time 
 LSTM.      04.30.56 18-May-20:  Log Start Time 
 MDCL.ppm            193153.00:  Mud Chlorides 
 MDES.     Inversion Oil/Synthetic:  Mud Desc 
 DFD .sg                  1.40:  Mud Density 
 MDMN.sg                  1.40:  Dens Mud Min 
 MDMX.sg                  1.41:  Dens Mud Max 
 MOIL.                      68:  Run Mud Oil % 
 MOWR.                   68:32:  Run Mud OWR 
 MSND.                     0.2:  Run Mud Sand % 
 MSOL.                    18.8:  Run Mud Solids% 
 DFV .spqt               80.00:  Mud Viscosity 
 MWOD.in                  6.75:  MWD Tool OD 
 MWSI.                      No:  Serv Intrp, MWD 
 OTIM.hr                104.84:  Time Operating 
 PMAX.psia            10690.93:  Press Op, Max 
 PV  .cP                 26.00:  Mud PV 
 RUN .                     900:  Run Number 
 ROPA.m/hr                0.00:  ROP Avg 
 ROPN.m/hr                0.00:  ROP Min 
 ROPX.m/hr                0.00:  ROP Max 
 RPMA.rpm               140.00:  RPM Surface Avg 
 RPMN.rpm                70.00:  RPM Surface Min 
 RPMX.rpm               140.00:  RPM Surface Max 
 RRUN.                    0900:  Rig Run Number 
 RTIM.hr                 36.00:  Time Reaming 
 SAZI.deg               115.72:  Azm, Start 
 SDEP.m                5337.01:  Start Depth 
 SIDD.                      No:  Serv Intrp, DD 
 SINC.deg                66.92:  Inc, Start 
 SPPA.psig             4400.00:  SPP Avg 
 SPPN.psig             1135.00:  SPP Min 
 SPPX.psig             4581.00:  SPP Max 
 STIM.      04.30.56 18-May-20:  Start Time 
 SVCS.                     MWD:  Services 
 SVER.                    9.20:  Sperry Version 
 TDAT.m                5337.01:  Tot Depth Attmp 
 TDDF.                      No:  Trip for DD 
 TFF .                      No:  Trip for Fail 
 TQAA.f-kp               23.00:  Torque Abs Avg 
 TQAN.f-kp               18.00:  Torque Abs Min 
 TQAX.f-kp               25.00:  Torque Abs Max 
 TRRT.°/30m               0.74:  Turn Rotating 
 MRT .                    HCIM:  Maximum Recorded Temperature 
 TTMX.degC               76.47:  Max Tool Temp 
 WBMN.klb                 0.00:  WOB Min 
 WITN.             Anar Khalil:  Customer Rep 
 WITN.      Kamran Keberlinski:  Customer Rep 2 
 WOBA.klb                 0.00:  WOB Avg 
 WOBX.klb                 0.00:  WOB Max 
 YP  .lhf2               27.00:  Yield Point 
~Curve Information Block
#MNEM.UNIT                 API CODE     Curve Description
#---------               -----------    ---------------------------
 TIME.HHMMSS            00 000 000 000:  GT Time & Date
 GTDEPTH.m              00 000 000 000:  GT Depth
 GTPQH.psia             00 000 000 000:  GT HR Quartz Pressure
 GTTQ.degC              00 000 000 000:  GT Quartz Temperature
 GTTN.NONE              00 000 000 000:  GT Test Number
 GTET.sec               00 000 000 000:  GT Elapsed Test Time
 GTTVD.m                00 000 000 000:  GT True Vertical Depth
#Other Information
#
#WARRANTY: Halliburton will use its best efforts to furnish customers with 
#accurate information and interpretations that are part of, and incident to, the services 
#provided.  However, Halliburton cannot and does not warrant the accuracy 
#or correctness of such information and interpretations.  Under no circumstances should any 
#such information or interpretation be relied upon as the sole basis for any drilling, 
#completion, production, or financial decision or any procedure involving any risk to the 
#safety of any drilling venture, drilling rig or its crew or any other third party.  The 
#Customer has full responsibility for all drilling, completion and production operation.  
#Halliburton makes no representations or warranties, either expressed or 
#implied, including, but not limited to, the implied warranties of merchantability or fitness 
#for a particular purpose, with respect to the services rendered.  In no event will 
#Halliburton be liable for failure to obtain any particular results or for 
#any damages, including, but not limited to, indirect, special or consequential damages, 
#resulting from the use of any information or interpretation provided by Halliburton.
#
~A           TIME           GTDEPTH  GTPQH  GTTQ  GTTN   GTET   GTTVD  
# ...
   06:42:46.346.20-May-2020 5012.01 2886.07 68.09 10.00  90.43 2656.39
   06:42:46.546.20-May-2020 5012.01 2885.34 68.09 10.00  90.63 2656.39
   06:42:46.746.20-May-2020 5012.01 2885.25 68.09 10.00  90.83 2656.39
   06:42:46.947.20-May-2020 5012.01 2885.87 68.09 10.00  91.03 2656.39
   06:42:47.147.20-May-2020 5012.01 2885.87 68.09 10.00  91.23 2656.39
   06:42:47.347.20-May-2020 5012.01 2894.67 68.09 10.00  91.43 2656.39
   06:42:47.547.20-May-2020 5012.01 2901.57 68.09 10.00  91.63 2656.39
   06:42:47.747.20-May-2020 5012.01 2902.37 68.09 10.00  91.83 2656.39
   06:42:47.947.20-May-2020 5012.01 2902.98 68.09 10.00  92.03 2656.39
   06:42:48.147.20-May-2020 5012.01 2902.98 68.09 10.00  92.23 2656.39
   06:42:48.347.20-May-2020 5012.01 2902.73 68.09 10.00  92.43 2656.39
   06:42:48.547.20-May-2020 5012.01 2902.75 68.09 10.00  92.63 2656.39
   06:42:48.747.20-May-2020 5012.01 2902.91 68.09 10.00  92.83 2656.39
   06:42:48.947.20-May-2020 5012.01 2903.05 68.09 10.00  93.03 2656.39
   06:42:49.147.20-May-2020 5012.01 2903.05 68.09 10.00  93.23 2656.39
   06:42:49.347.20-May-2020 5012.01 2902.97 68.09 10.00  93.43 2656.39
   06:42:49.547.20-May-2020 5012.01 2903.19 68.09 10.00  93.63 2656.39
   06:42:49.747.20-May-2020 5012.01 2902.92 68.09 10.00  93.83 2656.39
   06:42:49.947.20-May-2020 5012.01 2903.26 68.09 10.00  94.03 2656.39
   06:42:50.147.20-May-2020 5012.01 2902.91 68.09 10.00  94.23 2656.39
   06:42:50.347.20-May-2020 5012.01 2903.03 68.09 10.00  94.43 2656.39
   06:42:50.548.20-May-2020 5012.01 2902.98 68.09 10.00  94.63 2656.39
   06:42:50.748.20-May-2020 5012.01 2903.21 68.09 10.00  94.83 2656.39
   06:42:50.948.20-May-2020 5012.01 2903.14 68.09 10.00  95.03 2656.39
   06:42:51.148.20-May-2020 5012.01 2903.14 68.09 10.00  95.23 2656.39
   06:42:51.348.20-May-2020 5012.01 2903.04 68.09 10.00  95.43 2656.39
   06:42:51.548.20-May-2020 5012.01 2903.08 68.09 10.00  95.63 2656.39
   06:42:51.748.20-May-2020 5012.01 2903.15 68.09 10.00  95.83 2656.39
   06:42:51.948.20-May-2020 5012.01 2903.04 68.09 10.00  96.03 2656.39
   06:42:52.148.20-May-2020 5012.01 2903.04 68.09 10.00  96.23 2656.39
   06:42:52.348.20-May-2020 5012.01 2903.10 68.09 10.00  96.43 2656.39
   06:42:52.548.20-May-2020 5012.01 2903.11 68.09 10.00  96.63 2656.39
   06:42:52.748.20-May-2020 5012.01 2903.11 68.09 10.00  96.83 2656.39
   06:42:52.948.20-May-2020 5012.01 2903.12 68.09 10.00  97.03 2656.39
   06:42:53.148.20-May-2020 5012.01 2903.12 68.09 10.00  97.23 2656.39
   06:42:53.348.20-May-2020 5012.01 2903.09 68.09 10.00  97.43 2656.39
   06:42:53.548.20-May-2020 5012.01 2903.15 68.09 10.00  97.63 2656.39
   06:42:53.748.20-May-2020 5012.01 2903.11 68.09 10.00  97.83 2656.39
   06:42:53.948.20-May-2020 5012.01 2903.34 68.09 10.00  98.03 2656.39
   06:42:54.149.20-May-2020 5012.01 2902.96 68.09 10.00  98.23 2656.39
   06:42:54.349.20-May-2020 5012.01 2902.98 68.09 10.00  98.43 2656.39
   06:42:54.549.20-May-2020 5012.01 2903.08 68.09 10.00  98.63 2656.39
   06:42:54.749.20-May-2020 5012.01 2903.55 68.09 10.00  98.83 2656.39
   06:42:54.949.20-May-2020 5012.01 2902.89 68.09 10.00  99.03 2656.39
   06:42:55.149.20-May-2020 5012.01 2902.89 68.09 10.00  99.23 2656.39
   06:42:55.349.20-May-2020 5012.01 2903.00 68.09 10.00  99.43 2656.39
   06:42:55.549.20-May-2020 5012.01 2903.52 68.09 10.00  99.63 2656.39
   06:42:55.749.20-May-2020 5012.01 2902.97 68.09 10.00  99.83 2656.39
   06:42:55.949.20-May-2020 5012.01 2902.95 68.09 10.00 100.03 2656.39
   06:42:56.149.20-May-2020 5012.01 2902.95 68.09 10.00 100.23 2656.39
   06:42:56.349.20-May-2020 5012.01 2903.13 68.10 10.00 100.43 2656.39
   06:42:56.549.20-May-2020 5012.01 2903.14 68.10 10.00 100.63 2656.39
   06:42:56.749.20-May-2020 5012.01 2903.12 68.10 10.00 100.83 2656.39
   06:42:56.949.20-May-2020 5012.01 2902.97 68.10 10.00 101.03 2656.39
   06:42:57.149.20-May-2020 5012.01 2902.97 68.10 10.00 101.23 2656.39
   06:42:57.349.20-May-2020 5012.01 2903.09 68.10 10.00 101.43 2656.39
   06:42:57.550.20-May-2020 5012.01 2903.25 68.10 10.00 101.63 2656.39
   06:42:57.750.20-May-2020 5012.01 2902.97 68.10 10.00 101.83 2656.39
   06:42:57.950.20-May-2020 5012.01 2903.07 68.10 10.00 102.03 2656.39
   06:42:58.150.20-May-2020 5012.01 2903.07 68.10 10.00 102.23 2656.39
   06:42:58.350.20-May-2020 5012.01 2903.04 68.10 10.00 102.43 2656.39
   06:42:58.550.20-May-2020 5012.01 2903.06 68.10 10.00 102.63 2656.39
   06:42:58.750.20-May-2020 5012.01 2903.09 68.10 10.00 102.83 2656.39
   06:42:58.950.20-May-2020 5012.01 2903.13 68.10 10.00 103.03 2656.39
   06:42:59.150.20-May-2020 5012.01 2903.13 68.10 10.00 103.23 2656.39
   06:42:59.350.20-May-2020 5012.01 2903.15 68.10 10.00 103.43 2656.39
   06:42:59.550.20-May-2020 5012.01 2903.16 68.10 10.00 103.63 2656.39
   06:42:59.750.20-May-2020 5012.01 2903.13 68.10 10.00 103.83 2656.39
   06:42:59.950.20-May-2020 5012.01 2903.15 68.10 10.00 104.03 2656.39
   06:43:00.150.20-May-2020 5012.01 2903.15 68.10 10.00 104.23 2656.39
   06:43:00.350.20-May-2020 5012.01 2903.15 68.10 10.00 104.43 2656.39
   06:43:00.550.20-May-2020 5012.01 2903.46 68.10 10.00 104.63 2656.39
   06:43:00.750.20-May-2020 5012.01 2902.92 68.10 10.00 104.83 2656.39
   06:43:00.950.20-May-2020 5012.01 2902.97 68.10 10.00 105.03 2656.39
   06:43:01.151.20-May-2020 5012.01 2902.97 68.10 10.00 105.23 2656.39
   06:43:01.351.20-May-2020 5012.01 2903.53 68.10 10.00 105.43 2656.39
   06:43:01.551.20-May-2020 5012.01 2902.98 68.10 10.00 105.63 2656.39
   06:43:01.751.20-May-2020 5012.01 2902.97 68.10 10.00 105.83 2656.39
   06:43:01.951.20-May-2020 5012.01 2902.92 68.10 10.00 106.03 2656.39
   06:43:02.151.20-May-2020 5012.01 2903.59 68.10 10.00 106.23 2656.39
   06:43:02.351.20-May-2020 5012.01 2902.98 68.10 10.00 106.43 2656.39
   06:43:02.551.20-May-2020 5012.01 2902.98 68.10 10.00 106.63 2656.39
   06:43:02.751.20-May-2020 5012.01 2903.12 68.10 10.00 106.83 2656.39
   06:43:02.951.20-May-2020 5012.01 2903.04 68.10 10.00 107.03 2656.39
   06:43:03.151.20-May-2020 5012.01 2903.04 68.10 10.00 107.23 2656.39
   06:43:03.351.20-May-2020 5012.01 2903.33 68.10 10.00 107.43 2656.39
   06:43:03.551.20-May-2020 5012.01 2903.03 68.10 10.00 107.63 2656.39
   06:43:03.751.20-May-2020 5012.01 2903.03 68.10 10.00 107.83 2656.39
   06:43:03.951.20-May-2020 5012.01 2903.09 68.10 10.00 108.03 2656.39
   06:43:04.151.20-May-2020 5012.01 2903.09 68.10 10.00 108.23 2656.39
   06:43:04.351.20-May-2020 5012.01 2902.92 68.10 10.00 108.43 2656.39
   06:43:04.551.20-May-2020 5012.01 2903.34 68.10 10.00 108.63 2656.39
   06:43:04.752.20-May-2020 5012.01 2903.00 68.10 10.00 108.83 2656.39
   06:43:04.952.20-May-2020 5012.01 2903.07 68.10 10.00 109.03 2656.39
   06:43:05.152.20-May-2020 5012.01 2903.07 68.10 10.00 109.23 2656.39
   06:43:05.352.20-May-2020 5012.01 2903.08 68.10 10.00 109.43 2656.39
   06:43:05.552.20-May-2020 5012.01 2903.05 68.10 10.00 109.63 2656.39
   06:43:05.752.20-May-2020 5012.01 2903.09 68.10 10.00 109.83 2656.39
   06:43:05.952.20-May-2020 5012.01 2903.17 68.10 10.00 110.03 2656.39
   06:43:06.152.20-May-2020 5012.01 2903.11 68.10 10.00 110.23 2656.39
   06:43:06.352.20-May-2020 5012.01 2903.14 68.10 10.00 110.43 2656.39
   06:43:06.552.20-May-2020 5012.01 2903.15 68.10 10.00 110.63 2656.39
   06:43:06.752.20-May-2020 5012.01 2903.15 68.10 10.00 110.83 2656.39
   06:43:06.952.20-May-2020 5012.01 2903.18 68.10 10.00 111.03 2656.39
   06:43:07.152.20-May-2020 5012.01 2903.18 68.10 10.00 111.23 2656.39
   06:43:07.352.20-May-2020 5012.01 2903.16 68.10 10.00 111.43 2656.39
   06:43:07.552.20-May-2020 5012.01 2903.47 68.10 10.00 111.63 2656.39
   06:43:07.752.20-May-2020 5012.01 2902.92 68.10 10.00 111.83 2656.39
   06:43:07.952.20-May-2020 5012.01 2902.99 68.10 10.00 112.03 2656.39
   06:43:08.153.20-May-2020 5012.01 2902.99 68.10 10.00 112.23 2656.39
   06:43:08.353.20-May-2020 5012.01 2903.53 68.10 10.00 112.43 2656.39
   06:43:08.553.20-May-2020 5012.01 2902.99 68.10 10.00 112.63 2656.39
   06:43:08.753.20-May-2020 5012.01 2902.97 68.10 10.00 112.83 2656.39
