~Version Information
 VERS.                  2.0:   CWLS log ASCII Standard -VERSION 2.0
 WRAP.                   NO:   One line per depth step
~Well Information Block
#MNEM.UNIT     VALUE/NAME     DESCRIPTION
#---------     -----------    ---------------------------
 STRT.S             17:37:07 19-May-20: START TIME 17:37:07 19-May-20
 STOP.S             17:43:47 19-May-20: STOP TIME  17:43:47 19-May-20
 STEP.S                   0.00: STEP TIME
 NULL.                 -999.25: NULL VALUE
 MDS .        Operator Entered:  MAG DATA SOURCE
 PDAT.          Mean Sea Level:  PERMANENT DATUM
 UNIT.                     N/A:  LOGGING EQUIPMENT ID
 DCON.         Sperry Drilling:  DIRECTNL CONTR
 DOE .                     N/A:  DOE NUMBER
 RIG .              East Azeri:  RIG NAME
 JOBN.        AZ-XX-0905856059:  JOB TICKET NUMB
 WELL.                     D36:  WELL NAME
 MWDS.                    Baku:  MWD SHOP
 SRVC.     Turan Drilling & Engineering:  CONTRACTOR
 FLD .                     ACG:  FIELD NAME
 CTRY.              Azerbaijan:  COUNTRY NAME
 PROV.                    Baku:  PROVINCE
 STAT.                    Baku:  STATE NAME
 REGN.                   EESSA:  REGION
 BASE.              Azerbaijan:  LOGGING EQUIPMENT BASE LOCATION
 UWI .                     N/A:  UNIQUE WELL IDENTIFIER
 API .                     N/A:  API NUMBER
 COMP.     BP Exploration (Caspian Sea) Ltd.:  COMPANY
 WTYP.                Deviated:  WELL TYPE
 SON .        AZ-XX-0905856059:  JOB NUMBER
 FTOP.          Formation Tops:  FORM TOPS DESC
 ILTD.               Lithology:  INTERP LTH DESC
 SVYD.                  Survey:  SURVEY DESC
 DMOD.             Drill Model:  DRILL MOD DESC
 HPTY.       Minimum Curvature:  HOLE POS TYPE
 NREF.                    Grid:  NORTH REFERENCE
 SPUD.               25-Feb-20:  SPUD DATE
 DATE.      08.55.28 01-May-20:  END TIME
 STIM.      08.55.28 25-Feb-20:  START TIME
 DMF .             Drill Floor:  DRILL MEAS FROM
 DFST.                        :  DIST FSL TEXT
 DFWT.                        :  DIST FWL TEXT
 CNTY.                        :  COUNTY
 LOC .                        :  LOCATION
 LMF .             Drill Floor:  LOG MEASURED FROM
 VSNS.m                   6.09:  VERT SEC N/S
 VSEW.m                 -10.79:  VERT SEC E/W
 AGAP.m                  43.60:  AIR GAP
 DEP .m                 388.24:  DEPTH
 APD .m                  43.60:  DEPTH ABOVE PD
 WDMS.m                 151.80:  WD ELEV
 EGL .m                   0.00:  GROUND ELEVATION
 EPD .m                   0.00:  ELEVATION
 AZTC.deg                 6.12:  AZM TOTAL CORR
 GRDC.deg                 0.30:  GRID CORRECTION
 MDEC.deg                 6.42:  MAGNETIC DECL
 MDIP.deg                59.42:  MAGNETIC DIP
 MFLD.nT              50256.00:  MAGNETIC FIELD
 GVFD.g                   1.00:  GRAVITY FIELD
 VSDR.deg               159.57:  VERT SEC DIRECT
 TDD .m                5000.01:  TOTAL DEPTH (DRILLER)
 SDEP.m                 397.00:  START DEPTH
 DFSL.m                   0.00:  DISTANCE FSL
 DFWL.m                   0.00:  DISTANCE FWL
 UTMY.m             4431880.20:  UTM Y
 UTMX.m              538763.98:  UTM X
 WHEW.m                 -10.79:  WELL HEAD E/W
 WHNS.m                   6.09:  WELL HEAD N/S
 LONG.deg                51.45:  LONGITUDE
 LATI.deg                40.02:  LATITUDE
 TVDS.m                  43.60:  TVDSS CORRECTN
 EKB .m                  43.60:  KB ELEVATION
 EDF .m                  43.60:  DF ELEVATION
 MAGU.                 1847640:  MAGUTM CHECKSUM
 VSC .                       0:  VS TO CLOSURE
~Parameter Information Block
#MNEM.UNIT       Value        Description
#---------     -----------    ---------------------------
 AV  .mps                 1.30:  Ann Velocity 
 AVMX.mps                 1.90:  Max Ann Veloc 
 AZIF.deg               115.68:  Azm, Final 
 BHAT.                   Other:  BHA Type 
 BROT.°/30m               0.74:  Build Rotating 
 BS  .in                  8.50:  Bit Size 
 BTPL.psig              430.00:  Bit Press Loss 
 CABU.                      No:  Customer Abuse 
 COMM.                     t9l:  Run Comments 1 
 TCS .hr                 51.31:  Time Ciculation Ended 
 CV  .mps                 2.52:  Crit Velocity 
 CVMX.mps                 2.62:  Max Crit Veloc 
 DD1 .          Teymur Aghayev:  Direct Drillr 1 
 DDSV.                   Other:  DD Service 
 DEFF.%                 100.00:  % Det Eff 
 DLRX.°/30m               1.62:  Dogleg Rot Max 
 DLSO.°/30m               0.74:  Dogleg Oriented 
 DLSX.°/30m               1.62:  Dogleg Str Max 
 DRET.      04.30.56 18-May-20:  Drill End Time 
 DRST.      04.30.56 18-May-20:  Drill Start Tim 
 DTIM.hr                  0.00:  Time Drilling 
 EDEP.m                5337.01:  End Depth 
 ENG1.      Artemiy Matviyanov:  Engineer 1 
 ENG2.      Bakhtiyar Jabbarli:  Engineer 2 
 ENG3.           Emil Huseynov:  Engineer 3 
 ETIM.      18.40.00 22-May-20:  End Time 
 FLOI.gpm               550.00:  Flow In 
 FLON.gpm               350.00:  Flow In Min 
 FLOS.cptm                0.00:  Fluid Loss 
 FLOX.gpm               600.00:  Flow In Max 
 HFLO.                      No:  High Flow 
 HPRE.                      No:  High Pressure 
 HTEM.                      No:  High Temp 
 HYDO.m                   1.80:  Hydro Offset 
 IFIN.deg                67.01:  Inc, Final 
 IMAX.deg                67.49:  Inc Max 
 IMIN.deg                66.50:  Inc Min 
 IMND.m                5144.79:  Inc Min Depth 
 IMXD.m                5116.12:  Inc Max Depth 
 JARR.                      No:  Jarring 
 LETM.      17.55.56 20-May-20:  Log End Time 
 LOST.hr                     0:  Lost Rig Time 
 LSTM.      04.30.56 18-May-20:  Log Start Time 
 MDCL.ppm            193153.00:  Mud Chlorides 
 MDES.     Inversion Oil/Synthetic:  Mud Desc 
 DFD .sg                  1.40:  Mud Density 
 MDMN.sg                  1.40:  Dens Mud Min 
 MDMX.sg                  1.41:  Dens Mud Max 
 MOIL.                      68:  Run Mud Oil % 
 MOWR.                   68:32:  Run Mud OWR 
 MSND.                     0.2:  Run Mud Sand % 
 MSOL.                    18.8:  Run Mud Solids% 
 DFV .spqt               80.00:  Mud Viscosity 
 MWOD.in                  6.75:  MWD Tool OD 
 MWSI.                      No:  Serv Intrp, MWD 
 OTIM.hr                104.84:  Time Operating 
 PMAX.psia            10690.93:  Press Op, Max 
 PV  .cP                 26.00:  Mud PV 
 RUN .                     900:  Run Number 
 ROPA.m/hr                0.00:  ROP Avg 
 ROPN.m/hr                0.00:  ROP Min 
 ROPX.m/hr                0.00:  ROP Max 
 RPMA.rpm               140.00:  RPM Surface Avg 
 RPMN.rpm                70.00:  RPM Surface Min 
 RPMX.rpm               140.00:  RPM Surface Max 
 RRUN.                    0900:  Rig Run Number 
 RTIM.hr                 36.00:  Time Reaming 
 SAZI.deg               115.72:  Azm, Start 
 SDEP.m                5337.01:  Start Depth 
 SIDD.                      No:  Serv Intrp, DD 
 SINC.deg                66.92:  Inc, Start 
 SPPA.psig             4400.00:  SPP Avg 
 SPPN.psig             1135.00:  SPP Min 
 SPPX.psig             4581.00:  SPP Max 
 STIM.      04.30.56 18-May-20:  Start Time 
 SVCS.                     MWD:  Services 
 SVER.                    9.20:  Sperry Version 
 TDAT.m                5337.01:  Tot Depth Attmp 
 TDDF.                      No:  Trip for DD 
 TFF .                      No:  Trip for Fail 
 TQAA.f-kp               23.00:  Torque Abs Avg 
 TQAN.f-kp               18.00:  Torque Abs Min 
 TQAX.f-kp               25.00:  Torque Abs Max 
 TRRT.°/30m               0.74:  Turn Rotating 
 MRT .                    HCIM:  Maximum Recorded Temperature 
 TTMX.degC               76.47:  Max Tool Temp 
 WBMN.klb                 0.00:  WOB Min 
 WITN.             Anar Khalil:  Customer Rep 
 WITN.      Kamran Keberlinski:  Customer Rep 2 
 WOBA.klb                 0.00:  WOB Avg 
 WOBX.klb                 0.00:  WOB Max 
 YP  .lhf2               27.00:  Yield Point 
~Curve Information Block
#MNEM.UNIT                 API CODE     Curve Description
#---------               -----------    ---------------------------
 TIME.HHMMSS            00 000 000 000:  GT Time & Date
 GTDEPTH.m              00 000 000 000:  GT Depth
 GTPQH.psia             00 000 000 000:  GT HR Quartz Pressure
 GTTQ.degC              00 000 000 000:  GT Quartz Temperature
 GTTN.NONE              00 000 000 000:  GT Test Number
 GTET.sec               00 000 000 000:  GT Elapsed Test Time
 GTTVD.m                00 000 000 000:  GT True Vertical Depth
#Other Information
#
#WARRANTY: Halliburton will use its best efforts to furnish customers with 
#accurate information and interpretations that are part of, and incident to, the services 
#provided.  However, Halliburton cannot and does not warrant the accuracy 
#or correctness of such information and interpretations.  Under no circumstances should any 
#such information or interpretation be relied upon as the sole basis for any drilling, 
#completion, production, or financial decision or any procedure involving any risk to the 
#safety of any drilling venture, drilling rig or its crew or any other third party.  The 
#Customer has full responsibility for all drilling, completion and production operation.  
#Halliburton makes no representations or warranties, either expressed or 
#implied, including, but not limited to, the implied warranties of merchantability or fitness 
#for a particular purpose, with respect to the services rendered.  In no event will 
#Halliburton be liable for failure to obtain any particular results or for 
#any damages, including, but not limited to, indirect, special or consequential damages, 
#resulting from the use of any information or interpretation provided by Halliburton.
#
~A           TIME           GTDEPTH  GTPQH  GTTQ  GTTN  GTET   GTTVD  
# ...
   17:43:15.170.19-May-2020 5195.01 6603.35 67.16 2.00 368.04 2727.85
   17:43:15.370.19-May-2020 5195.01 6603.35 67.16 2.00 368.24 2727.85
   17:43:15.570.19-May-2020 5195.01 6603.25 67.17 2.00 368.44 2727.85
   17:43:15.770.19-May-2020 5195.01 6603.54 67.17 2.00 368.64 2727.85
   17:43:15.970.19-May-2020 5195.01 6603.50 67.17 2.00 368.84 2727.85
   17:43:16.170.19-May-2020 5195.01 6602.78 67.18 2.00 369.04 2727.85
   17:43:16.370.19-May-2020 5195.01 6602.78 67.18 2.00 369.24 2727.85
   17:43:16.570.19-May-2020 5195.01 6603.28 67.18 2.00 369.44 2727.85
   17:43:16.770.19-May-2020 5195.01 6603.03 67.19 2.00 369.64 2727.85
   17:43:16.970.19-May-2020 5195.01 6602.77 67.19 2.00 369.84 2727.85
   17:43:17.170.19-May-2020 5195.01 6607.72 67.19 2.00 370.04 2727.85
   17:43:17.370.19-May-2020 5195.01 6607.72 67.19 2.00 370.24 2727.85
   17:43:17.570.19-May-2020 5195.01 6606.62 67.20 2.00 370.44 2727.85
   17:43:17.770.19-May-2020 5195.01 6605.53 67.20 2.00 370.64 2727.85
   17:43:17.970.19-May-2020 5195.01 6607.93 67.20 2.00 370.85 2727.85
   17:43:18.170.19-May-2020 5195.01 6604.80 67.20 2.00 371.05 2727.85
   17:43:18.370.19-May-2020 5195.01 6604.80 67.20 2.00 371.25 2727.85
   17:43:18.570.19-May-2020 5195.01 6605.69 67.21 2.00 371.45 2727.85
   17:43:18.770.19-May-2020 5195.01 6605.86 67.21 2.00 371.65 2727.85
   17:43:18.970.19-May-2020 5195.01 6605.69 67.21 2.00 371.85 2727.85
   17:43:19.170.19-May-2020 5195.01 6610.75 67.21 2.00 372.05 2727.85
   17:43:19.370.19-May-2020 5195.01 6610.75 67.21 2.00 372.25 2727.85
   17:43:19.570.19-May-2020 5195.01 6609.71 67.22 2.00 372.45 2727.85
   17:43:19.770.19-May-2020 5195.01 6606.47 67.22 2.00 372.65 2727.85
   17:43:19.970.19-May-2020 5195.01 6607.28 67.22 2.00 372.85 2727.85
   17:43:20.170.19-May-2020 5195.01 6608.33 67.22 2.00 373.05 2727.85
   17:43:20.370.19-May-2020 5195.01 6608.33 67.22 2.00 373.25 2727.85
   17:43:20.570.19-May-2020 5195.01 6605.75 67.22 2.00 373.45 2727.85
   17:43:20.770.19-May-2020 5195.01 6606.43 67.23 2.00 373.65 2727.85
   17:43:20.970.19-May-2020 5195.01 6609.35 67.23 2.00 373.85 2727.85
   17:43:21.170.19-May-2020 5195.01 6607.62 67.23 2.00 374.05 2727.85
   17:43:21.371.19-May-2020 5195.01 6607.62 67.23 2.00 374.25 2727.85
   17:43:21.571.19-May-2020 5195.01 6606.66 67.23 2.00 374.45 2727.85
   17:43:21.771.19-May-2020 5195.01 6606.34 67.23 2.00 374.65 2727.85
   17:43:21.971.19-May-2020 5195.01 6607.01 67.23 2.00 374.85 2727.85
   17:43:22.171.19-May-2020 5195.01 6605.68 67.23 2.00 375.05 2727.85
   17:43:22.371.19-May-2020 5195.01 6605.68 67.23 2.00 375.25 2727.85
   17:43:22.571.19-May-2020 5195.01 6605.52 67.23 2.00 375.45 2727.85
   17:43:22.771.19-May-2020 5195.01 6605.42 67.23 2.00 375.65 2727.85
   17:43:22.971.19-May-2020 5195.01 6605.12 67.23 2.00 375.85 2727.85
   17:43:23.171.19-May-2020 5195.01 6605.89 67.23 2.00 376.05 2727.85
   17:43:23.371.19-May-2020 5195.01 6605.89 67.23 2.00 376.25 2727.85
   17:43:23.571.19-May-2020 5195.01 6604.52 67.24 2.00 376.45 2727.85
   17:43:23.771.19-May-2020 5195.01 6604.88 67.24 2.00 376.65 2727.85
   17:43:23.971.19-May-2020 5195.01 6604.58 67.24 2.00 376.85 2727.85
   17:43:24.171.19-May-2020 5195.01 6609.15 67.24 2.00 377.05 2727.85
   17:43:24.371.19-May-2020 5195.01 6607.26 67.24 2.00 377.25 2727.85
   17:43:24.571.19-May-2020 5195.01 6607.03 67.24 2.00 377.45 2727.85
   17:43:24.771.19-May-2020 5195.01 6606.01 67.24 2.00 377.65 2727.85
   17:43:24.971.19-May-2020 5195.01 6611.06 67.24 2.00 377.85 2727.85
   17:43:25.171.19-May-2020 5195.01 6605.46 67.24 2.00 378.05 2727.85
   17:43:25.371.19-May-2020 5195.01 6605.46 67.24 2.00 378.25 2727.85
   17:43:25.571.19-May-2020 5195.01 6607.43 67.24 2.00 378.45 2727.85
   17:43:25.771.19-May-2020 5195.01 6606.62 67.24 2.00 378.65 2727.85
   17:43:25.971.19-May-2020 5195.01 6607.29 67.24 2.00 378.85 2727.85
   17:43:26.171.19-May-2020 5195.01 6611.70 67.24 2.00 379.05 2727.85
   17:43:26.371.19-May-2020 5195.01 6611.70 67.24 2.00 379.25 2727.85
   17:43:26.571.19-May-2020 5195.01 6610.12 67.24 2.00 379.45 2727.85
   17:43:26.771.19-May-2020 5195.01 6608.24 67.24 2.00 379.65 2727.85
   17:43:26.971.19-May-2020 5195.01 6607.19 67.24 2.00 379.85 2727.85
   17:43:27.171.19-May-2020 5195.01 6610.89 67.24 2.00 380.05 2727.85
   17:43:27.371.19-May-2020 5195.01 6610.89 67.24 2.00 380.25 2727.85
   17:43:27.571.19-May-2020 5195.01 6609.28 67.24 2.00 380.45 2727.85
   17:43:27.771.19-May-2020 5195.01 6607.94 67.24 2.00 380.65 2727.85
   17:43:27.971.19-May-2020 5195.01 6607.15 67.24 2.00 380.85 2727.85
   17:43:28.171.19-May-2020 5195.01 6607.44 67.24 2.00 381.05 2727.85
   17:43:28.371.19-May-2020 5195.01 6607.44 67.24 2.00 381.25 2727.85
   17:43:28.571.19-May-2020 5195.01 6609.96 67.24 2.00 381.45 2727.85
   17:43:28.771.19-May-2020 5195.01 6609.01 67.24 2.00 381.65 2727.85
   17:43:28.971.19-May-2020 5195.01 6607.67 67.24 2.00 381.85 2727.85
   17:43:29.171.19-May-2020 5195.01 6607.42 67.24 2.00 382.05 2727.85
   17:43:29.371.19-May-2020 5195.01 6607.42 67.24 2.00 382.25 2727.85
   17:43:29.572.19-May-2020 5195.01 6606.58 67.24 2.00 382.45 2727.85
   17:43:29.772.19-May-2020 5195.01 6606.52 67.24 2.00 382.65 2727.85
   17:43:29.972.19-May-2020 5195.01 6606.95 67.24 2.00 382.85 2727.85
   17:43:30.172.19-May-2020 5195.01 6606.09 67.24 2.00 383.05 2727.85
   17:43:30.372.19-May-2020 5195.01 6606.09 67.24 2.00 383.25 2727.85
   17:43:30.572.19-May-2020 5195.01 6605.85 67.24 2.00 383.45 2727.85
   17:43:30.772.19-May-2020 5195.01 6604.85 67.23 2.00 383.65 2727.85
   17:43:30.972.19-May-2020 5195.01 6605.52 67.23 2.00 383.85 2727.85
   17:43:31.172.19-May-2020 5195.01 6605.06 67.23 2.00 384.05 2727.85
   17:43:31.372.19-May-2020 5195.01 6605.06 67.23 2.00 384.25 2727.85
   17:43:31.572.19-May-2020 5195.01 6608.86 67.23 2.00 384.45 2727.85
   17:43:31.772.19-May-2020 5195.01 6606.33 67.23 2.00 384.65 2727.85
   17:43:31.972.19-May-2020 5195.01 6608.64 67.23 2.00 384.85 2727.85
   17:43:32.172.19-May-2020 5195.01 6607.05 67.23 2.00 385.05 2727.85
   17:43:32.372.19-May-2020 5195.01 6607.05 67.23 2.00 385.25 2727.85
   17:43:32.572.19-May-2020 5195.01 6608.41 67.23 2.00 385.45 2727.85
   17:43:32.772.19-May-2020 5195.01 6610.33 67.23 2.00 385.65 2727.85
   17:43:32.972.19-May-2020 5195.01 6606.72 67.23 2.00 385.85 2727.85
   17:43:33.172.19-May-2020 5195.01 6607.99 67.23 2.00 386.05 2727.85
   17:43:33.372.19-May-2020 5195.01 6607.99 67.23 2.00 386.25 2727.85
   17:43:33.572.19-May-2020 5195.01 6611.42 67.23 2.00 386.45 2727.85
   17:43:33.772.19-May-2020 5195.01 6606.05 67.23 2.00 386.65 2727.85
   17:43:33.972.19-May-2020 5195.01 6610.83 67.23 2.00 386.85 2727.85
   17:43:34.172.19-May-2020 5195.01 6608.70 67.23 2.00 387.05 2727.85
   17:43:34.372.19-May-2020 5195.01 6608.70 67.23 2.00 387.25 2727.85
   17:43:34.572.19-May-2020 5195.01 6607.44 67.23 2.00 387.45 2727.85
   17:43:34.772.19-May-2020 5195.01 6611.00 67.23 2.00 387.65 2727.85
   17:43:34.972.19-May-2020 5195.01 6607.49 67.23 2.00 387.85 2727.85
   17:43:35.172.19-May-2020 5195.01 6609.48 67.23 2.00 388.05 2727.85
   17:43:35.372.19-May-2020 5195.01 6609.48 67.23 2.00 388.25 2727.85
   17:43:35.572.19-May-2020 5195.01 6606.79 67.23 2.00 388.45 2727.85
   17:43:35.772.19-May-2020 5195.01 6606.20 67.23 2.00 388.65 2727.85
   17:43:35.972.19-May-2020 5195.01 6611.42 67.23 2.00 388.85 2727.85
   17:43:36.172.19-May-2020 5195.01 6607.16 67.23 2.00 389.05 2727.85
   17:43:36.372.19-May-2020 5195.01 6607.16 67.23 2.00 389.25 2727.85
   17:43:36.572.19-May-2020 5195.01 6607.93 67.23 2.00 389.45 2727.85
   17:43:36.772.19-May-2020 5195.01 6606.76 67.23 2.00 389.65 2727.85
   17:43:36.972.19-May-2020 5195.01 6606.45 67.23 2.00 389.85 2727.85
   17:43:37.172.19-May-2020 5195.01 6607.35 67.22 2.00 390.05 2727.85
   17:43:37.372.19-May-2020 5195.01 6607.35 67.22 2.00 390.25 2727.85
   17:43:37.572.19-May-2020 5195.01 6606.13 67.22 2.00 390.45 2727.85
   17:43:37.773.19-May-2020 5195.01 6606.66 67.22 2.00 390.65 2727.85
   17:43:37.973.19-May-2020 5195.01 6605.63 67.22 2.00 390.85 2727.85
