~Version Information
 VERS.                  2.0:   CWLS log ASCII Standard -VERSION 2.0
 WRAP.                   NO:   One line per depth step
~Well Information Block
#MNEM.UNIT     VALUE/NAME     DESCRIPTION
#---------     -----------    ---------------------------
 STRT.S             15:16:23 19-May-20: START TIME 15:16:23 19-May-20
 STOP.S             15:23:31 19-May-20: STOP TIME  15:23:31 19-May-20
 STEP.S                   0.00: STEP TIME
 NULL.                 -999.25: NULL VALUE
 MDS .        Operator Entered:  MAG DATA SOURCE
 PDAT.          Mean Sea Level:  PERMANENT DATUM
 UNIT.                     N/A:  LOGGING EQUIPMENT ID
 DCON.         Sperry Drilling:  DIRECTNL CONTR
 DOE .                     N/A:  DOE NUMBER
 RIG .              East Azeri:  RIG NAME
 JOBN.        AZ-XX-0905856059:  JOB TICKET NUMB
 WELL.                     D36:  WELL NAME
 MWDS.                    Baku:  MWD SHOP
 SRVC.     Turan Drilling & Engineering:  CONTRACTOR
 FLD .                     ACG:  FIELD NAME
 CTRY.              Azerbaijan:  COUNTRY NAME
 PROV.                    Baku:  PROVINCE
 STAT.                    Baku:  STATE NAME
 REGN.                   EESSA:  REGION
 BASE.              Azerbaijan:  LOGGING EQUIPMENT BASE LOCATION
 UWI .                     N/A:  UNIQUE WELL IDENTIFIER
 API .                     N/A:  API NUMBER
 COMP.     BP Exploration (Caspian Sea) Ltd.:  COMPANY
 WTYP.                Deviated:  WELL TYPE
 SON .        AZ-XX-0905856059:  JOB NUMBER
 FTOP.          Formation Tops:  FORM TOPS DESC
 ILTD.               Lithology:  INTERP LTH DESC
 SVYD.                  Survey:  SURVEY DESC
 DMOD.             Drill Model:  DRILL MOD DESC
 HPTY.       Minimum Curvature:  HOLE POS TYPE
 NREF.                    Grid:  NORTH REFERENCE
 SPUD.               25-Feb-20:  SPUD DATE
 DATE.      08.55.28 01-May-20:  END TIME
 STIM.      08.55.28 25-Feb-20:  START TIME
 DMF .             Drill Floor:  DRILL MEAS FROM
 DFST.                        :  DIST FSL TEXT
 DFWT.                        :  DIST FWL TEXT
 CNTY.                        :  COUNTY
 LOC .                        :  LOCATION
 LMF .             Drill Floor:  LOG MEASURED FROM
 VSNS.m                   6.09:  VERT SEC N/S
 VSEW.m                 -10.79:  VERT SEC E/W
 AGAP.m                  43.60:  AIR GAP
 DEP .m                 388.24:  DEPTH
 APD .m                  43.60:  DEPTH ABOVE PD
 WDMS.m                 151.80:  WD ELEV
 EGL .m                   0.00:  GROUND ELEVATION
 EPD .m                   0.00:  ELEVATION
 AZTC.deg                 6.12:  AZM TOTAL CORR
 GRDC.deg                 0.30:  GRID CORRECTION
 MDEC.deg                 6.42:  MAGNETIC DECL
 MDIP.deg                59.42:  MAGNETIC DIP
 MFLD.nT              50256.00:  MAGNETIC FIELD
 GVFD.g                   1.00:  GRAVITY FIELD
 VSDR.deg               159.57:  VERT SEC DIRECT
 TDD .m                5000.01:  TOTAL DEPTH (DRILLER)
 SDEP.m                 397.00:  START DEPTH
 DFSL.m                   0.00:  DISTANCE FSL
 DFWL.m                   0.00:  DISTANCE FWL
 UTMY.m             4431880.20:  UTM Y
 UTMX.m              538763.98:  UTM X
 WHEW.m                 -10.79:  WELL HEAD E/W
 WHNS.m                   6.09:  WELL HEAD N/S
 LONG.deg                51.45:  LONGITUDE
 LATI.deg                40.02:  LATITUDE
 TVDS.m                  43.60:  TVDSS CORRECTN
 EKB .m                  43.60:  KB ELEVATION
 EDF .m                  43.60:  DF ELEVATION
 MAGU.                 1847640:  MAGUTM CHECKSUM
 VSC .                       0:  VS TO CLOSURE
~Parameter Information Block
#MNEM.UNIT       Value        Description
#---------     -----------    ---------------------------
 AV  .mps                 1.30:  Ann Velocity 
 AVMX.mps                 1.90:  Max Ann Veloc 
 AZIF.deg               115.68:  Azm, Final 
 BHAT.                   Other:  BHA Type 
 BROT.°/30m               0.74:  Build Rotating 
 BS  .in                  8.50:  Bit Size 
 BTPL.psig              430.00:  Bit Press Loss 
 CABU.                      No:  Customer Abuse 
 TCS .hr                 51.31:  Time Ciculation Ended 
 CV  .mps                 2.52:  Crit Velocity 
 CVMX.mps                 2.62:  Max Crit Veloc 
 DD1 .          Teymur Aghayev:  Direct Drillr 1 
 DDSV.                   Other:  DD Service 
 DEFF.%                 100.00:  % Det Eff 
 DLRX.°/30m               1.62:  Dogleg Rot Max 
 DLSO.°/30m               0.74:  Dogleg Oriented 
 DLSX.°/30m               1.62:  Dogleg Str Max 
 DRET.      04.30.56 18-May-20:  Drill End Time 
 DRST.      04.30.56 18-May-20:  Drill Start Tim 
 DTIM.hr                  0.00:  Time Drilling 
 EDEP.m                5337.01:  End Depth 
 ENG1.      Artemiy Matviyanov:  Engineer 1 
 ENG2.      Bakhtiyar Jabbarli:  Engineer 2 
 ENG3.           Emil Huseynov:  Engineer 3 
 ETIM.      18.40.00 22-May-20:  End Time 
 FLOI.gpm               550.00:  Flow In 
 FLON.gpm               350.00:  Flow In Min 
 FLOS.cptm                0.00:  Fluid Loss 
 FLOX.gpm               600.00:  Flow In Max 
 HFLO.                      No:  High Flow 
 HPRE.                      No:  High Pressure 
 HTEM.                      No:  High Temp 
 HYDO.m                   1.80:  Hydro Offset 
 IFIN.deg                67.01:  Inc, Final 
 IMAX.deg                67.49:  Inc Max 
 IMIN.deg                66.50:  Inc Min 
 IMND.m                5144.79:  Inc Min Depth 
 IMXD.m                5116.12:  Inc Max Depth 
 JARR.                      No:  Jarring 
 LETM.      17.55.56 20-May-20:  Log End Time 
 LOST.hr                     0:  Lost Rig Time 
 LSTM.      04.30.56 18-May-20:  Log Start Time 
 MDCL.ppm            193153.00:  Mud Chlorides 
 MDES.     Inversion Oil/Synthetic:  Mud Desc 
 DFD .sg                  1.40:  Mud Density 
 MDMN.sg                  1.40:  Dens Mud Min 
 MDMX.sg                  1.41:  Dens Mud Max 
 MOIL.                      68:  Run Mud Oil % 
 MOWR.                   68:32:  Run Mud OWR 
 MSND.                     0.2:  Run Mud Sand % 
 MSOL.                    18.8:  Run Mud Solids% 
 DFV .spqt               80.00:  Mud Viscosity 
 MWOD.in                  6.75:  MWD Tool OD 
 MWSI.                      No:  Serv Intrp, MWD 
 OTIM.hr                104.84:  Time Operating 
 PMAX.psia            10690.93:  Press Op, Max 
 PV  .cP                 26.00:  Mud PV 
 RUN .                     900:  Run Number 
 ROPA.m/hr                0.00:  ROP Avg 
 ROPN.m/hr                0.00:  ROP Min 
 ROPX.m/hr                0.00:  ROP Max 
 RPMA.rpm               140.00:  RPM Surface Avg 
 RPMN.rpm                70.00:  RPM Surface Min 
 RPMX.rpm               140.00:  RPM Surface Max 
 RRUN.                    0900:  Rig Run Number 
 RTIM.hr                 36.00:  Time Reaming 
 SAZI.deg               115.72:  Azm, Start 
 SDEP.m                5337.01:  Start Depth 
 SIDD.                      No:  Serv Intrp, DD 
 SINC.deg                66.92:  Inc, Start 
 SPPA.psig             4400.00:  SPP Avg 
 SPPN.psig             1135.00:  SPP Min 
 SPPX.psig             4581.00:  SPP Max 
 STIM.      04.30.56 18-May-20:  Start Time 
 SVCS.                     MWD:  Services 
 SVER.                    9.20:  Sperry Version 
 TDAT.m                5337.01:  Tot Depth Attmp 
 TDDF.                      No:  Trip for DD 
 TFF .                      No:  Trip for Fail 
 TQAA.f-kp               23.00:  Torque Abs Avg 
 TQAN.f-kp               18.00:  Torque Abs Min 
 TQAX.f-kp               25.00:  Torque Abs Max 
 TRRT.°/30m               0.74:  Turn Rotating 
 MRT .                    HCIM:  Maximum Recorded Temperature 
 TTMX.degC               76.47:  Max Tool Temp 
 WBMN.klb                 0.00:  WOB Min 
 WITN.             Anar Khalil:  Customer Rep 
 WITN.      Kamran Keberlinski:  Customer Rep 2 
 WOBA.klb                 0.00:  WOB Avg 
 WOBX.klb                 0.00:  WOB Max 
 YP  .lhf2               27.00:  Yield Point 
~Curve Information Block
#MNEM.UNIT                 API CODE     Curve Description
#---------               -----------    ---------------------------
 TIME.HHMMSS            00 000 000 000:  GT Time & Date
 GTDEPTH.m              00 000 000 000:  GT Depth
 GTPQH.psia             00 000 000 000:  GT HR Quartz Pressure
 GTTQ.degC              00 000 000 000:  GT Quartz Temperature
 GTTN.NONE              00 000 000 000:  GT Test Number
 GTET.sec               00 000 000 000:  GT Elapsed Test Time
 GTTVD.m                00 000 000 000:  GT True Vertical Depth
#Other Information
#
#WARRANTY: Halliburton will use its best efforts to furnish customers with 
#accurate information and interpretations that are part of, and incident to, the services 
#provided.  However, Halliburton cannot and does not warrant the accuracy 
#or correctness of such information and interpretations.  Under no circumstances should any 
#such information or interpretation be relied upon as the sole basis for any drilling, 
#completion, production, or financial decision or any procedure involving any risk to the 
#safety of any drilling venture, drilling rig or its crew or any other third party.  The 
#Customer has full responsibility for all drilling, completion and production operation.  
#Halliburton makes no representations or warranties, either expressed or 
#implied, including, but not limited to, the implied warranties of merchantability or fitness 
#for a particular purpose, with respect to the services rendered.  In no event will 
#Halliburton be liable for failure to obtain any particular results or for 
#any damages, including, but not limited to, indirect, special or consequential damages, 
#resulting from the use of any information or interpretation provided by Halliburton.
#
~A           TIME           GTDEPTH  GTPQH  GTTQ  GTTN  GTET   GTTVD  
# ...
   15:17:55.334.19-May-2020 5277.61 3453.73 67.40 1.00  92.02 2760.35
   15:17:55.534.19-May-2020 5277.61 3453.78 67.40 1.00  92.22 2760.35
   15:17:55.734.19-May-2020 5277.61 3453.78 67.40 1.00  92.42 2760.35
   15:17:55.934.19-May-2020 5277.61 3454.28 67.40 1.00  92.62 2760.35
   15:17:56.134.19-May-2020 5277.61 3453.69 67.40 1.00  92.82 2760.35
   15:17:56.334.19-May-2020 5277.61 3453.64 67.40 1.00  93.02 2760.35
   15:17:56.534.19-May-2020 5277.61 3453.64 67.40 1.00  93.22 2760.35
   15:17:56.734.19-May-2020 5277.61 3453.97 67.40 1.00  93.42 2760.35
   15:17:56.934.19-May-2020 5277.61 3453.85 67.40 1.00  93.62 2760.35
   15:17:57.134.19-May-2020 5277.61 3453.96 67.40 1.00  93.82 2760.35
   15:17:57.334.19-May-2020 5277.61 3454.02 67.40 1.00  94.02 2760.35
   15:17:57.534.19-May-2020 5277.61 3454.02 67.40 1.00  94.22 2760.35
   15:17:57.734.19-May-2020 5277.61 3453.76 67.40 1.00  94.42 2760.35
   15:17:57.935.19-May-2020 5277.61 3453.72 67.40 1.00  94.62 2760.35
   15:17:58.135.19-May-2020 5277.61 3454.30 67.40 1.00  94.82 2760.35
   15:17:58.335.19-May-2020 5277.61 3453.74 67.40 1.00  95.02 2760.35
   15:17:58.535.19-May-2020 5277.61 3453.74 67.40 1.00  95.22 2760.35
   15:17:58.735.19-May-2020 5277.61 3453.95 67.40 1.00  95.42 2760.35
   15:17:58.935.19-May-2020 5277.61 3453.96 67.40 1.00  95.62 2760.35
   15:17:59.135.19-May-2020 5277.61 3453.87 67.40 1.00  95.82 2760.35
   15:17:59.335.19-May-2020 5277.61 3453.84 67.40 1.00  96.02 2760.35
   15:17:59.535.19-May-2020 5277.61 3453.86 67.40 1.00  96.22 2760.35
   15:17:59.735.19-May-2020 5277.61 3453.89 67.40 1.00  96.42 2760.35
   15:17:59.935.19-May-2020 5277.61 3453.91 67.40 1.00  96.62 2760.35
   15:18:00.135.19-May-2020 5277.61 3453.88 67.40 1.00  96.82 2760.35
   15:18:00.335.19-May-2020 5277.61 3453.90 67.40 1.00  97.02 2760.35
   15:18:00.535.19-May-2020 5277.61 3453.90 67.40 1.00  97.22 2760.35
   15:18:00.735.19-May-2020 5277.61 3453.98 67.40 1.00  97.42 2760.35
   15:18:00.935.19-May-2020 5277.61 3453.71 67.40 1.00  97.62 2760.35
   15:18:01.135.19-May-2020 5277.61 3454.35 67.40 1.00  97.82 2760.35
   15:18:01.335.19-May-2020 5277.61 3453.88 67.40 1.00  98.02 2760.35
   15:18:01.535.19-May-2020 5277.61 3453.88 67.40 1.00  98.22 2760.35
   15:18:01.735.19-May-2020 5277.61 3453.73 67.40 1.00  98.42 2760.35
   15:18:01.935.19-May-2020 5277.61 3454.24 67.40 1.00  98.62 2760.35
   15:18:02.136.19-May-2020 5277.61 3454.03 67.40 1.00  98.82 2760.35
   15:18:02.336.19-May-2020 5277.61 3453.74 67.40 1.00  99.02 2760.35
   15:18:02.536.19-May-2020 5277.61 3453.74 67.40 1.00  99.22 2760.35
   15:18:02.736.19-May-2020 5277.61 3453.76 67.40 1.00  99.42 2760.35
   15:18:02.936.19-May-2020 5277.61 3454.48 67.40 1.00  99.62 2760.35
   15:18:03.136.19-May-2020 5277.61 3453.87 67.40 1.00  99.82 2760.35
   15:18:03.336.19-May-2020 5277.61 3453.72 67.40 1.00 100.02 2760.35
   15:18:03.536.19-May-2020 5277.61 3453.72 67.40 1.00 100.22 2760.35
   15:18:03.736.19-May-2020 5277.61 3454.08 67.40 1.00 100.42 2760.35
   15:18:03.936.19-May-2020 5277.61 3453.97 67.40 1.00 100.62 2760.35
   15:18:04.136.19-May-2020 5277.61 3454.02 67.40 1.00 100.82 2760.35
   15:18:04.336.19-May-2020 5277.61 3454.02 67.40 1.00 101.02 2760.35
   15:18:04.536.19-May-2020 5277.61 3454.02 67.40 1.00 101.22 2760.35
   15:18:04.736.19-May-2020 5277.61 3453.88 67.40 1.00 101.42 2760.35
   15:18:04.936.19-May-2020 5277.61 3453.77 67.40 1.00 101.62 2760.35
   15:18:05.136.19-May-2020 5277.61 3454.43 67.40 1.00 101.82 2760.35
   15:18:05.336.19-May-2020 5277.61 3453.89 67.40 1.00 102.02 2760.35
   15:18:05.536.19-May-2020 5277.61 3453.89 67.40 1.00 102.22 2760.35
   15:18:05.736.19-May-2020 5277.61 3453.81 67.40 1.00 102.42 2760.35
   15:18:05.936.19-May-2020 5277.61 3453.96 67.40 1.00 102.62 2760.35
   15:18:06.136.19-May-2020 5277.61 3453.94 67.40 1.00 102.82 2760.35
   15:18:06.337.19-May-2020 5277.61 3453.94 67.40 1.00 103.02 2760.35
   15:18:06.537.19-May-2020 5277.61 3453.94 67.40 1.00 103.22 2760.35
   15:18:06.737.19-May-2020 5277.61 3453.98 67.40 1.00 103.42 2760.35
   15:18:06.937.19-May-2020 5277.61 3453.99 67.40 1.00 103.62 2760.35
   15:18:07.137.19-May-2020 5277.61 3453.98 67.40 1.00 103.82 2760.35
   15:18:07.337.19-May-2020 5277.61 3453.99 67.40 1.00 104.02 2760.35
   15:18:07.537.19-May-2020 5277.61 3454.00 67.40 1.00 104.22 2760.35
   15:18:07.737.19-May-2020 5277.61 3454.02 67.40 1.00 104.42 2760.35
   15:18:07.937.19-May-2020 5277.61 3453.87 67.40 1.00 104.62 2760.35
   15:18:08.137.19-May-2020 5277.61 3454.20 67.40 1.00 104.82 2760.35
   15:18:08.337.19-May-2020 5277.61 3454.04 67.40 1.00 105.02 2760.35
   15:18:08.537.19-May-2020 5277.61 3454.04 67.40 1.00 105.22 2760.35
   15:18:08.737.19-May-2020 5277.61 3453.91 67.40 1.00 105.43 2760.35
   15:18:08.937.19-May-2020 5277.61 3454.10 67.40 1.00 105.63 2760.35
   15:18:09.137.19-May-2020 5277.61 3454.11 67.40 1.00 105.83 2760.35
   15:18:09.337.19-May-2020 5277.61 3453.90 67.40 1.00 106.03 2760.35
   15:18:09.537.19-May-2020 5277.61 3453.90 67.40 1.00 106.23 2760.35
   15:18:09.737.19-May-2020 5277.61 3453.86 67.40 1.00 106.43 2760.35
   15:18:09.937.19-May-2020 5277.61 3454.30 67.40 1.00 106.63 2760.35
   15:18:10.137.19-May-2020 5277.61 3454.06 67.40 1.00 106.83 2760.35
   15:18:10.337.19-May-2020 5277.61 3453.87 67.41 1.00 107.03 2760.35
   15:18:10.538.19-May-2020 5277.61 3453.87 67.41 1.00 107.23 2760.35
   15:18:10.738.19-May-2020 5277.61 3454.06 67.41 1.00 107.43 2760.35
   15:18:10.938.19-May-2020 5277.61 3454.04 67.41 1.00 107.63 2760.35
   15:18:11.138.19-May-2020 5277.61 3453.89 67.41 1.00 107.83 2760.35
   15:18:11.338.19-May-2020 5277.61 3454.39 67.41 1.00 108.03 2760.35
   15:18:11.538.19-May-2020 5277.61 3453.86 67.41 1.00 108.23 2760.35
   15:18:11.738.19-May-2020 5277.61 3453.91 67.41 1.00 108.43 2760.35
   15:18:11.938.19-May-2020 5277.61 3453.87 67.41 1.00 108.63 2760.35
   15:18:12.138.19-May-2020 5277.61 3454.28 67.41 1.00 108.83 2760.35
   15:18:12.338.19-May-2020 5277.61 3454.02 67.41 1.00 109.03 2760.35
   15:18:12.538.19-May-2020 5277.61 3454.02 67.41 1.00 109.23 2760.35
   15:18:12.738.19-May-2020 5277.61 3453.94 67.41 1.00 109.43 2760.35
   15:18:12.938.19-May-2020 5277.61 3453.99 67.41 1.00 109.63 2760.35
   15:18:13.138.19-May-2020 5277.61 3454.00 67.41 1.00 109.83 2760.35
   15:18:13.338.19-May-2020 5277.61 3453.95 67.41 1.00 110.03 2760.35
   15:18:13.538.19-May-2020 5277.61 3453.95 67.41 1.00 110.23 2760.35
   15:18:13.738.19-May-2020 5277.61 3453.94 67.41 1.00 110.43 2760.35
   15:18:13.938.19-May-2020 5277.61 3454.01 67.41 1.00 110.63 2760.35
   15:18:14.138.19-May-2020 5277.61 3454.01 67.41 1.00 110.83 2760.35
   15:18:14.338.19-May-2020 5277.61 3454.02 67.41 1.00 111.03 2760.35
   15:18:14.538.19-May-2020 5277.61 3454.02 67.41 1.00 111.23 2760.35
   15:18:14.739.19-May-2020 5277.61 3454.10 67.41 1.00 111.43 2760.35
   15:18:14.939.19-May-2020 5277.61 3454.09 67.41 1.00 111.63 2760.35
   15:18:15.139.19-May-2020 5277.61 3454.17 67.41 1.00 111.83 2760.35
   15:18:15.339.19-May-2020 5277.61 3454.30 67.41 1.00 112.03 2760.35
   15:18:15.539.19-May-2020 5277.61 3454.04 67.41 1.00 112.23 2760.35
   15:18:15.739.19-May-2020 5277.61 3453.96 67.41 1.00 112.43 2760.35
   15:18:15.939.19-May-2020 5277.61 3454.22 67.41 1.00 112.63 2760.35
   15:18:16.139.19-May-2020 5277.61 3454.11 67.41 1.00 112.83 2760.35
   15:18:16.339.19-May-2020 5277.61 3453.84 67.41 1.00 113.03 2760.35
   15:18:16.539.19-May-2020 5277.61 3453.84 67.41 1.00 113.23 2760.35
   15:18:16.739.19-May-2020 5277.61 3454.02 67.41 1.00 113.43 2760.35
   15:18:16.939.19-May-2020 5277.61 3454.10 67.41 1.00 113.63 2760.35
   15:18:17.139.19-May-2020 5277.61 3454.13 67.41 1.00 113.83 2760.35
   15:18:17.339.19-May-2020 5277.61 3453.88 67.41 1.00 114.03 2760.35
   15:18:17.539.19-May-2020 5277.61 3453.88 67.41 1.00 114.23 2760.35
   15:18:17.739.19-May-2020 5277.61 3454.02 67.41 1.00 114.43 2760.35
   15:18:17.939.19-May-2020 5277.61 3454.06 67.41 1.00 114.63 2760.35
   15:18:18.139.19-May-2020 5277.61 3453.80 67.41 1.00 114.83 2760.35
