~Version Information
 VERS.                  2.0:   CWLS log ASCII Standard -VERSION 2.0
 WRAP.                   NO:   One line per depth step
~Well Information Block
#MNEM.UNIT     VALUE/NAME     DESCRIPTION
#---------     -----------    ---------------------------
 STRT.S             22:24:43 19-May-20: START TIME 22:24:43 19-May-20
 STOP.S             22:33:01 19-May-20: STOP TIME  22:33:01 19-May-20
 STEP.S                   0.00: STEP TIME
 NULL.                 -999.25: NULL VALUE
 MDS .        Operator Entered:  MAG DATA SOURCE
 PDAT.          Mean Sea Level:  PERMANENT DATUM
 UNIT.                     N/A:  LOGGING EQUIPMENT ID
 DCON.         Sperry Drilling:  DIRECTNL CONTR
 DOE .                     N/A:  DOE NUMBER
 RIG .              East Azeri:  RIG NAME
 JOBN.        AZ-XX-0905856059:  JOB TICKET NUMB
 WELL.                     D36:  WELL NAME
 MWDS.                    Baku:  MWD SHOP
 SRVC.     Turan Drilling & Engineering:  CONTRACTOR
 FLD .                     ACG:  FIELD NAME
 CTRY.              Azerbaijan:  COUNTRY NAME
 PROV.                    Baku:  PROVINCE
 STAT.                    Baku:  STATE NAME
 REGN.                   EESSA:  REGION
 BASE.              Azerbaijan:  LOGGING EQUIPMENT BASE LOCATION
 UWI .                     N/A:  UNIQUE WELL IDENTIFIER
 API .                     N/A:  API NUMBER
 COMP.     BP Exploration (Caspian Sea) Ltd.:  COMPANY
 WTYP.                Deviated:  WELL TYPE
 SON .        AZ-XX-0905856059:  JOB NUMBER
 FTOP.          Formation Tops:  FORM TOPS DESC
 ILTD.               Lithology:  INTERP LTH DESC
 SVYD.                  Survey:  SURVEY DESC
 DMOD.             Drill Model:  DRILL MOD DESC
 HPTY.       Minimum Curvature:  HOLE POS TYPE
 NREF.                    Grid:  NORTH REFERENCE
 SPUD.               25-Feb-20:  SPUD DATE
 DATE.      08.55.28 01-May-20:  END TIME
 STIM.      08.55.28 25-Feb-20:  START TIME
 DMF .             Drill Floor:  DRILL MEAS FROM
 DFST.                        :  DIST FSL TEXT
 DFWT.                        :  DIST FWL TEXT
 CNTY.                        :  COUNTY
 LOC .                        :  LOCATION
 LMF .             Drill Floor:  LOG MEASURED FROM
 VSNS.m                   6.09:  VERT SEC N/S
 VSEW.m                 -10.79:  VERT SEC E/W
 AGAP.m                  43.60:  AIR GAP
 DEP .m                 388.24:  DEPTH
 APD .m                  43.60:  DEPTH ABOVE PD
 WDMS.m                 151.80:  WD ELEV
 EGL .m                   0.00:  GROUND ELEVATION
 EPD .m                   0.00:  ELEVATION
 AZTC.deg                 6.12:  AZM TOTAL CORR
 GRDC.deg                 0.30:  GRID CORRECTION
 MDEC.deg                 6.42:  MAGNETIC DECL
 MDIP.deg                59.42:  MAGNETIC DIP
 MFLD.nT              50256.00:  MAGNETIC FIELD
 GVFD.g                   1.00:  GRAVITY FIELD
 VSDR.deg               159.57:  VERT SEC DIRECT
 TDD .m                5000.01:  TOTAL DEPTH (DRILLER)
 SDEP.m                 397.00:  START DEPTH
 DFSL.m                   0.00:  DISTANCE FSL
 DFWL.m                   0.00:  DISTANCE FWL
 UTMY.m             4431880.20:  UTM Y
 UTMX.m              538763.98:  UTM X
 WHEW.m                 -10.79:  WELL HEAD E/W
 WHNS.m                   6.09:  WELL HEAD N/S
 LONG.deg                51.45:  LONGITUDE
 LATI.deg                40.02:  LATITUDE
 TVDS.m                  43.60:  TVDSS CORRECTN
 EKB .m                  43.60:  KB ELEVATION
 EDF .m                  43.60:  DF ELEVATION
 MAGU.                 1847640:  MAGUTM CHECKSUM
 VSC .                       0:  VS TO CLOSURE
~Parameter Information Block
#MNEM.UNIT       Value        Description
#---------     -----------    ---------------------------
 AV  .mps                 1.30:  Ann Velocity 
 AVMX.mps                 1.90:  Max Ann Veloc 
 AZIF.deg               115.68:  Azm, Final 
 BHAT.                   Other:  BHA Type 
 BROT.°/30m               0.74:  Build Rotating 
 BS  .in                  8.50:  Bit Size 
 BTPL.psig              430.00:  Bit Press Loss 
 CABU.                      No:  Customer Abuse 
 COMM.                     ”le:  Run Comments 1 
 TCS .hr                 51.31:  Time Ciculation Ended 
 CV  .mps                 2.52:  Crit Velocity 
 CVMX.mps                 2.62:  Max Crit Veloc 
 DD1 .          Teymur Aghayev:  Direct Drillr 1 
 DDSV.                   Other:  DD Service 
 DEFF.%                 100.00:  % Det Eff 
 DLRX.°/30m               1.62:  Dogleg Rot Max 
 DLSO.°/30m               0.74:  Dogleg Oriented 
 DLSX.°/30m               1.62:  Dogleg Str Max 
 DRET.      04.30.56 18-May-20:  Drill End Time 
 DRST.      04.30.56 18-May-20:  Drill Start Tim 
 DTIM.hr                  0.00:  Time Drilling 
 EDEP.m                5337.01:  End Depth 
 ENG1.      Artemiy Matviyanov:  Engineer 1 
 ENG2.      Bakhtiyar Jabbarli:  Engineer 2 
 ENG3.           Emil Huseynov:  Engineer 3 
 ETIM.      18.40.00 22-May-20:  End Time 
 FLOI.gpm               550.00:  Flow In 
 FLON.gpm               350.00:  Flow In Min 
 FLOS.cptm                0.00:  Fluid Loss 
 FLOX.gpm               600.00:  Flow In Max 
 HFLO.                      No:  High Flow 
 HPRE.                      No:  High Pressure 
 HTEM.                      No:  High Temp 
 HYDO.m                   1.80:  Hydro Offset 
 IFIN.deg                67.01:  Inc, Final 
 IMAX.deg                67.49:  Inc Max 
 IMIN.deg                66.50:  Inc Min 
 IMND.m                5144.79:  Inc Min Depth 
 IMXD.m                5116.12:  Inc Max Depth 
 JARR.                      No:  Jarring 
 LETM.      17.55.56 20-May-20:  Log End Time 
 LOST.hr                     0:  Lost Rig Time 
 LSTM.      04.30.56 18-May-20:  Log Start Time 
 MDCL.ppm            193153.00:  Mud Chlorides 
 MDES.     Inversion Oil/Synthetic:  Mud Desc 
 DFD .sg                  1.40:  Mud Density 
 MDMN.sg                  1.40:  Dens Mud Min 
 MDMX.sg                  1.41:  Dens Mud Max 
 MOIL.                      68:  Run Mud Oil % 
 MOWR.                   68:32:  Run Mud OWR 
 MSND.                     0.2:  Run Mud Sand % 
 MSOL.                    18.8:  Run Mud Solids% 
 DFV .spqt               80.00:  Mud Viscosity 
 MWOD.in                  6.75:  MWD Tool OD 
 MWSI.                      No:  Serv Intrp, MWD 
 OTIM.hr                104.84:  Time Operating 
 PMAX.psia            10690.93:  Press Op, Max 
 PV  .cP                 26.00:  Mud PV 
 RUN .                     900:  Run Number 
 ROPA.m/hr                0.00:  ROP Avg 
 ROPN.m/hr                0.00:  ROP Min 
 ROPX.m/hr                0.00:  ROP Max 
 RPMA.rpm               140.00:  RPM Surface Avg 
 RPMN.rpm                70.00:  RPM Surface Min 
 RPMX.rpm               140.00:  RPM Surface Max 
 RRUN.                    0900:  Rig Run Number 
 RTIM.hr                 36.00:  Time Reaming 
 SAZI.deg               115.72:  Azm, Start 
 SDEP.m                5337.01:  Start Depth 
 SIDD.                      No:  Serv Intrp, DD 
 SINC.deg                66.92:  Inc, Start 
 SPPA.psig             4400.00:  SPP Avg 
 SPPN.psig             1135.00:  SPP Min 
 SPPX.psig             4581.00:  SPP Max 
 STIM.      04.30.56 18-May-20:  Start Time 
 SVCS.                     MWD:  Services 
 SVER.                    9.20:  Sperry Version 
 TDAT.m                5337.01:  Tot Depth Attmp 
 TDDF.                      No:  Trip for DD 
 TFF .                      No:  Trip for Fail 
 TQAA.f-kp               23.00:  Torque Abs Avg 
 TQAN.f-kp               18.00:  Torque Abs Min 
 TQAX.f-kp               25.00:  Torque Abs Max 
 TRRT.°/30m               0.74:  Turn Rotating 
 MRT .                    HCIM:  Maximum Recorded Temperature 
 TTMX.degC               76.47:  Max Tool Temp 
 WBMN.klb                 0.00:  WOB Min 
 WITN.             Anar Khalil:  Customer Rep 
 WITN.      Kamran Keberlinski:  Customer Rep 2 
 WOBA.klb                 0.00:  WOB Avg 
 WOBX.klb                 0.00:  WOB Max 
 YP  .lhf2               27.00:  Yield Point 
~Curve Information Block
#MNEM.UNIT                 API CODE     Curve Description
#---------               -----------    ---------------------------
 TIME.HHMMSS            00 000 000 000:  GT Time & Date
 GTDEPTH.m              00 000 000 000:  GT Depth
 GTPQH.psia             00 000 000 000:  GT HR Quartz Pressure
 GTTQ.degC              00 000 000 000:  GT Quartz Temperature
 GTTN.NONE              00 000 000 000:  GT Test Number
 GTET.sec               00 000 000 000:  GT Elapsed Test Time
 GTTVD.m                00 000 000 000:  GT True Vertical Depth
#Other Information
#
#WARRANTY: Halliburton will use its best efforts to furnish customers with 
#accurate information and interpretations that are part of, and incident to, the services 
#provided.  However, Halliburton cannot and does not warrant the accuracy 
#or correctness of such information and interpretations.  Under no circumstances should any 
#such information or interpretation be relied upon as the sole basis for any drilling, 
#completion, production, or financial decision or any procedure involving any risk to the 
#safety of any drilling venture, drilling rig or its crew or any other third party.  The 
#Customer has full responsibility for all drilling, completion and production operation.  
#Halliburton makes no representations or warranties, either expressed or 
#implied, including, but not limited to, the implied warranties of merchantability or fitness 
#for a particular purpose, with respect to the services rendered.  In no event will 
#Halliburton be liable for failure to obtain any particular results or for 
#any damages, including, but not limited to, indirect, special or consequential damages, 
#resulting from the use of any information or interpretation provided by Halliburton.
#
~A           TIME           GTDEPTH  GTPQH  GTTQ  GTTN  GTET   GTTVD  
# ...
   22:25:06.011.19-May-2020 5137.01 6425.63 67.95 4.00  23.01 2705.05
   22:25:06.211.19-May-2020 5137.01 6422.17 67.95 4.00  23.21 2705.05
   22:25:06.411.19-May-2020 5137.01 6424.82 67.95 4.00  23.41 2705.05
   22:25:06.611.19-May-2020 5137.01 6423.88 67.94 4.00  23.61 2705.05
   22:25:06.811.19-May-2020 5137.01 6427.92 67.95 4.00  23.81 2705.05
   22:25:07.011.19-May-2020 5137.01 6424.36 67.94 4.00  24.01 2705.05
   22:25:07.211.19-May-2020 5137.01 6424.36 67.94 4.00  24.21 2705.05
   22:25:07.411.19-May-2020 5137.01 6424.56 67.94 4.00  24.41 2705.05
   22:25:07.611.19-May-2020 5137.01 6430.62 67.94 4.00  24.61 2705.05
   22:25:07.811.19-May-2020 5137.01 6424.83 67.94 4.00  24.81 2705.05
   22:25:08.011.19-May-2020 5137.01 6428.20 67.94 4.00  25.01 2705.05
   22:25:08.211.19-May-2020 5137.01 6428.20 67.94 4.00  25.21 2705.05
   22:25:08.411.19-May-2020 5137.01 6430.18 67.94 4.00  25.41 2705.05
   22:25:08.611.19-May-2020 5137.01 6426.94 67.94 4.00  25.61 2705.05
   22:25:08.811.19-May-2020 5137.01 6428.88 67.94 4.00  25.81 2705.05
   22:25:09.012.19-May-2020 5137.01 6427.32 67.94 4.00  26.01 2705.05
   22:25:09.212.19-May-2020 5137.01 6427.32 67.94 4.00  26.21 2705.05
   22:25:09.412.19-May-2020 5137.01 6426.83 67.94 4.00  26.41 2705.05
   22:25:09.612.19-May-2020 5137.01 6428.09 67.94 4.00  26.61 2705.05
   22:25:09.812.19-May-2020 5137.01 6427.28 67.94 4.00  26.81 2705.05
   22:25:10.012.19-May-2020 5137.01 6428.42 67.94 4.00  27.01 2705.05
   22:25:10.212.19-May-2020 5137.01 6427.65 67.94 4.00  27.21 2705.05
   22:25:10.412.19-May-2020 5137.01 6427.90 67.94 4.00  27.41 2705.05
   22:25:10.612.19-May-2020 5137.01 6428.44 67.94 4.00  27.61 2705.05
   22:25:10.812.19-May-2020 5137.01 6428.02 67.94 4.00  27.81 2705.05
   22:25:11.012.19-May-2020 5137.01 6429.12 67.94 4.00  28.01 2705.05
   22:25:11.212.19-May-2020 5137.01 6429.12 67.94 4.00  28.21 2705.05
   22:25:11.412.19-May-2020 5137.01 6432.01 67.94 4.00  28.41 2705.05
   22:25:11.612.19-May-2020 5137.01 6429.76 67.94 4.00  28.61 2705.05
   22:25:11.812.19-May-2020 5137.01 6430.53 67.94 4.00  28.81 2705.05
   22:25:12.012.19-May-2020 5137.01 6429.99 67.94 4.00  29.01 2705.05
   22:25:12.212.19-May-2020 5137.01 6429.99 67.94 4.00  29.21 2705.05
   22:25:12.412.19-May-2020 5137.01 6430.19 67.94 4.00  29.41 2705.05
   22:25:12.612.19-May-2020 5137.01 6432.97 67.94 4.00  29.61 2705.05
   22:25:12.812.19-May-2020 5137.01 6431.53 67.94 4.00  29.81 2705.05
   22:25:13.013.19-May-2020 5137.01 6437.29 67.94 4.00  30.01 2705.05
   22:25:13.213.19-May-2020 5137.01 6437.29 67.94 4.00  30.21 2705.05
   22:25:13.413.19-May-2020 5137.01 6434.40 67.94 4.00  30.41 2705.05
   22:25:13.613.19-May-2020 5137.01 6433.63 67.94 4.00  30.61 2705.05
   22:25:13.813.19-May-2020 5137.01 6434.64 67.94 4.00  30.81 2705.05
   22:25:14.013.19-May-2020 5137.01 6435.33 67.94 4.00  31.01 2705.05
   22:25:14.213.19-May-2020 5137.01 6435.33 67.94 4.00  31.21 2705.05
   22:25:14.413.19-May-2020 5137.01 6435.20 67.94 4.00  31.41 2705.05
   22:25:14.613.19-May-2020 5137.01 6434.26 67.94 4.00  31.61 2705.05
   22:25:14.813.19-May-2020 5137.01 6434.98 67.94 4.00  31.81 2705.05
   22:25:15.013.19-May-2020 5137.01 6434.45 67.94 4.00  32.01 2705.05
   22:25:15.213.19-May-2020 5137.01 6434.45 67.94 4.00  32.21 2705.05
   22:25:15.413.19-May-2020 5137.01 6435.14 67.94 4.00  32.41 2705.05
   22:25:15.613.19-May-2020 5137.01 6437.32 67.94 4.00  32.61 2705.05
   22:25:15.813.19-May-2020 5137.01 6434.34 67.94 4.00  32.81 2705.05
   22:25:16.013.19-May-2020 5137.01 6437.69 67.94 4.00  33.01 2705.05
   22:25:16.213.19-May-2020 5137.01 6437.69 67.94 4.00  33.21 2705.05
   22:25:16.413.19-May-2020 5137.01 6436.08 67.94 4.00  33.41 2705.05
   22:25:16.613.19-May-2020 5137.01 6435.71 67.94 4.00  33.61 2705.05
   22:25:16.813.19-May-2020 5137.01 6435.33 67.94 4.00  33.81 2705.05
   22:25:17.014.19-May-2020 5137.01 6435.87 67.94 4.00  34.01 2705.05
   22:25:17.214.19-May-2020 5137.01 6435.87 67.94 4.00  34.21 2705.05
   22:25:17.414.19-May-2020 5137.01 6435.87 67.94 4.00  34.41 2705.05
   22:25:17.614.19-May-2020 5137.01 6436.42 67.94 4.00  34.61 2705.05
   22:25:17.814.19-May-2020 5137.01 6438.87 67.94 4.00  34.81 2705.05
   22:25:18.014.19-May-2020 5137.01 6436.71 67.94 4.00  35.01 2705.05
   22:25:18.214.19-May-2020 5137.01 6438.21 67.94 4.00  35.21 2705.05
   22:25:18.414.19-May-2020 5137.01 6436.86 67.94 4.00  35.41 2705.05
   22:25:18.614.19-May-2020 5137.01 6438.60 67.94 4.00  35.61 2705.05
   22:25:18.814.19-May-2020 5137.01 6436.27 67.94 4.00  35.81 2705.05
   22:25:19.014.19-May-2020 5137.01 6438.12 67.94 4.00  36.01 2705.05
   22:25:19.214.19-May-2020 5137.01 6438.12 67.94 4.00  36.21 2705.05
   22:25:19.414.19-May-2020 5137.01 6437.58 67.94 4.00  36.41 2705.05
   22:25:19.614.19-May-2020 5137.01 6437.98 67.94 4.00  36.61 2705.05
   22:25:19.814.19-May-2020 5137.01 6437.75 67.94 4.00  36.81 2705.05
   22:25:20.014.19-May-2020 5137.01 6438.61 67.94 4.00  37.01 2705.05
   22:25:20.214.19-May-2020 5137.01 6438.61 67.94 4.00  37.21 2705.05
   22:25:20.414.19-May-2020 5137.01 6438.60 67.94 4.00  37.41 2705.05
   22:25:20.614.19-May-2020 5137.01 6438.95 67.94 4.00  37.61 2705.05
   22:25:20.814.19-May-2020 5137.01 6441.63 67.94 4.00  37.81 2705.05
   22:25:21.015.19-May-2020 5137.01 6439.67 67.94 4.00  38.01 2705.05
   22:25:21.215.19-May-2020 5137.01 6439.67 67.94 4.00  38.21 2705.05
   22:25:21.415.19-May-2020 5137.01 6439.67 67.94 4.00  38.41 2705.05
   22:25:21.615.19-May-2020 5137.01 6445.45 67.94 4.00  38.61 2705.05
   22:25:21.815.19-May-2020 5137.01 6437.65 67.94 4.00  38.81 2705.05
   22:25:22.015.19-May-2020 5137.01 6442.95 67.94 4.00  39.01 2705.05
   22:25:22.215.19-May-2020 5137.01 6441.02 67.94 4.00  39.21 2705.05
   22:25:22.415.19-May-2020 5137.01 6445.44 67.94 4.00  39.41 2705.05
   22:25:22.615.19-May-2020 5137.01 6441.10 67.94 4.00  39.61 2705.05
   22:25:22.815.19-May-2020 5137.01 6443.16 67.94 4.00  39.81 2705.05
   22:25:23.015.19-May-2020 5137.01 6442.91 67.94 4.00  40.01 2705.05
   22:25:23.215.19-May-2020 5137.01 6442.91 67.94 4.00  40.21 2705.05
   22:25:23.415.19-May-2020 5137.01 6442.56 67.94 4.00  40.41 2705.05
   22:25:23.615.19-May-2020 5137.01 6445.03 67.94 4.00  40.61 2705.05
   22:25:23.815.19-May-2020 5137.01 6445.13 67.94 4.00  40.81 2705.05
   22:25:24.015.19-May-2020 5137.01 6445.50 67.94 4.00  41.01 2705.05
   22:25:24.215.19-May-2020 5137.01 6445.50 67.94 4.00  41.21 2705.05
   22:25:24.415.19-May-2020 5137.01 6443.69 67.94 4.00  41.41 2705.05
   22:25:24.615.19-May-2020 5137.01 6443.12 67.94 4.00  41.61 2705.05
   22:25:24.815.19-May-2020 5137.01 6442.16 67.94 4.00  41.81 2705.05
   22:25:25.016.19-May-2020 5137.01 6442.72 67.94 4.00  42.01 2705.05
   22:25:25.216.19-May-2020 5137.01 6442.72 67.94 4.00  42.21 2705.05
   22:25:25.416.19-May-2020 5137.01 6442.16 67.94 4.00  42.41 2705.05
   22:25:25.616.19-May-2020 5137.01 6442.45 67.94 4.00  42.61 2705.05
   22:25:25.816.19-May-2020 5137.01 6441.62 67.94 4.00  42.81 2705.05
   22:25:26.016.19-May-2020 5137.01 6442.41 67.94 4.00  43.01 2705.05
   22:25:26.216.19-May-2020 5137.01 6441.72 67.94 4.00  43.21 2705.05
   22:25:26.416.19-May-2020 5137.01 6442.21 67.94 4.00  43.41 2705.05
   22:25:26.616.19-May-2020 5137.01 6442.64 67.94 4.00  43.61 2705.05
   22:25:26.816.19-May-2020 5137.01 6443.17 67.94 4.00  43.81 2705.05
   22:25:27.016.19-May-2020 5137.01 6445.01 67.94 4.00  44.01 2705.05
   22:25:27.216.19-May-2020 5137.01 6445.01 67.94 4.00  44.21 2705.05
   22:25:27.416.19-May-2020 5137.01 6444.85 67.94 4.00  44.41 2705.05
   22:25:27.616.19-May-2020 5137.01 6442.99 67.93 4.00  44.61 2705.05
   22:25:27.816.19-May-2020 5137.01 6448.91 67.93 4.00  44.81 2705.05
   22:25:28.016.19-May-2020 5137.01 6442.20 67.93 4.00  45.01 2705.05
   22:25:28.216.19-May-2020 5137.01 6442.20 67.93 4.00  45.21 2705.05
   22:25:28.416.19-May-2020 5137.01 6445.37 67.93 4.00  45.41 2705.05
   22:25:28.616.19-May-2020 5137.01 6446.86 67.93 4.00  45.61 2705.05
   22:25:28.816.19-May-2020 5137.01 6446.23 67.93 4.00  45.81 2705.05
