~Version Information
 VERS.                  2.0:   CWLS log ASCII Standard -VERSION 2.0
 WRAP.                   NO:   One line per depth step
~Well Information Block
#MNEM.UNIT     VALUE/NAME     DESCRIPTION
#---------     -----------    ---------------------------
 STRT.S             00:06:39 20-May-20: START TIME 00:06:39 20-May-20
 STOP.S             00:17:12 20-May-20: STOP TIME  00:17:12 20-May-20
 STEP.S                   0.00: STEP TIME
 NULL.                 -999.25: NULL VALUE
 MDS .        Operator Entered:  MAG DATA SOURCE
 PDAT.          Mean Sea Level:  PERMANENT DATUM
 UNIT.                     N/A:  LOGGING EQUIPMENT ID
 DCON.         Sperry Drilling:  DIRECTNL CONTR
 DOE .                     N/A:  DOE NUMBER
 RIG .              East Azeri:  RIG NAME
 JOBN.        AZ-XX-0905856059:  JOB TICKET NUMB
 WELL.                     D36:  WELL NAME
 MWDS.                    Baku:  MWD SHOP
 SRVC.     Turan Drilling & Engineering:  CONTRACTOR
 FLD .                     ACG:  FIELD NAME
 CTRY.              Azerbaijan:  COUNTRY NAME
 PROV.                    Baku:  PROVINCE
 STAT.                    Baku:  STATE NAME
 REGN.                   EESSA:  REGION
 BASE.              Azerbaijan:  LOGGING EQUIPMENT BASE LOCATION
 UWI .                     N/A:  UNIQUE WELL IDENTIFIER
 API .                     N/A:  API NUMBER
 COMP.     BP Exploration (Caspian Sea) Ltd.:  COMPANY
 WTYP.                Deviated:  WELL TYPE
 SON .        AZ-XX-0905856059:  JOB NUMBER
 FTOP.          Formation Tops:  FORM TOPS DESC
 ILTD.               Lithology:  INTERP LTH DESC
 SVYD.                  Survey:  SURVEY DESC
 DMOD.             Drill Model:  DRILL MOD DESC
 HPTY.       Minimum Curvature:  HOLE POS TYPE
 NREF.                    Grid:  NORTH REFERENCE
 SPUD.               25-Feb-20:  SPUD DATE
 DATE.      08.55.28 01-May-20:  END TIME
 STIM.      08.55.28 25-Feb-20:  START TIME
 DMF .             Drill Floor:  DRILL MEAS FROM
 DFST.                        :  DIST FSL TEXT
 DFWT.                        :  DIST FWL TEXT
 CNTY.                        :  COUNTY
 LOC .                        :  LOCATION
 LMF .             Drill Floor:  LOG MEASURED FROM
 VSNS.m                   6.09:  VERT SEC N/S
 VSEW.m                 -10.79:  VERT SEC E/W
 AGAP.m                  43.60:  AIR GAP
 DEP .m                 388.24:  DEPTH
 APD .m                  43.60:  DEPTH ABOVE PD
 WDMS.m                 151.80:  WD ELEV
 EGL .m                   0.00:  GROUND ELEVATION
 EPD .m                   0.00:  ELEVATION
 AZTC.deg                 6.12:  AZM TOTAL CORR
 GRDC.deg                 0.30:  GRID CORRECTION
 MDEC.deg                 6.42:  MAGNETIC DECL
 MDIP.deg                59.42:  MAGNETIC DIP
 MFLD.nT              50256.00:  MAGNETIC FIELD
 GVFD.g                   1.00:  GRAVITY FIELD
 VSDR.deg               159.57:  VERT SEC DIRECT
 TDD .m                5000.01:  TOTAL DEPTH (DRILLER)
 SDEP.m                 397.00:  START DEPTH
 DFSL.m                   0.00:  DISTANCE FSL
 DFWL.m                   0.00:  DISTANCE FWL
 UTMY.m             4431880.20:  UTM Y
 UTMX.m              538763.98:  UTM X
 WHEW.m                 -10.79:  WELL HEAD E/W
 WHNS.m                   6.09:  WELL HEAD N/S
 LONG.deg                51.45:  LONGITUDE
 LATI.deg                40.02:  LATITUDE
 TVDS.m                  43.60:  TVDSS CORRECTN
 EKB .m                  43.60:  KB ELEVATION
 EDF .m                  43.60:  DF ELEVATION
 MAGU.                 1847640:  MAGUTM CHECKSUM
 VSC .                       0:  VS TO CLOSURE
~Parameter Information Block
#MNEM.UNIT       Value        Description
#---------     -----------    ---------------------------
 AV  .mps                 1.30:  Ann Velocity 
 AVMX.mps                 1.90:  Max Ann Veloc 
 AZIF.deg               115.68:  Azm, Final 
 BHAT.                   Other:  BHA Type 
 BROT.°/30m               0.74:  Build Rotating 
 BS  .in                  8.50:  Bit Size 
 BTPL.psig              430.00:  Bit Press Loss 
 CABU.                      No:  Customer Abuse 
 COMM.                     \õd:  Run Comments 1 
 TCS .hr                 51.31:  Time Ciculation Ended 
 CV  .mps                 2.52:  Crit Velocity 
 CVMX.mps                 2.62:  Max Crit Veloc 
 DD1 .          Teymur Aghayev:  Direct Drillr 1 
 DDSV.                   Other:  DD Service 
 DEFF.%                 100.00:  % Det Eff 
 DLRX.°/30m               1.62:  Dogleg Rot Max 
 DLSO.°/30m               0.74:  Dogleg Oriented 
 DLSX.°/30m               1.62:  Dogleg Str Max 
 DRET.      04.30.56 18-May-20:  Drill End Time 
 DRST.      04.30.56 18-May-20:  Drill Start Tim 
 DTIM.hr                  0.00:  Time Drilling 
 EDEP.m                5337.01:  End Depth 
 ENG1.      Artemiy Matviyanov:  Engineer 1 
 ENG2.      Bakhtiyar Jabbarli:  Engineer 2 
 ENG3.           Emil Huseynov:  Engineer 3 
 ETIM.      18.40.00 22-May-20:  End Time 
 FLOI.gpm               550.00:  Flow In 
 FLON.gpm               350.00:  Flow In Min 
 FLOS.cptm                0.00:  Fluid Loss 
 FLOX.gpm               600.00:  Flow In Max 
 HFLO.                      No:  High Flow 
 HPRE.                      No:  High Pressure 
 HTEM.                      No:  High Temp 
 HYDO.m                   1.80:  Hydro Offset 
 IFIN.deg                67.01:  Inc, Final 
 IMAX.deg                67.49:  Inc Max 
 IMIN.deg                66.50:  Inc Min 
 IMND.m                5144.79:  Inc Min Depth 
 IMXD.m                5116.12:  Inc Max Depth 
 JARR.                      No:  Jarring 
 LETM.      17.55.56 20-May-20:  Log End Time 
 LOST.hr                     0:  Lost Rig Time 
 LSTM.      04.30.56 18-May-20:  Log Start Time 
 MDCL.ppm            193153.00:  Mud Chlorides 
 MDES.     Inversion Oil/Synthetic:  Mud Desc 
 DFD .sg                  1.40:  Mud Density 
 MDMN.sg                  1.40:  Dens Mud Min 
 MDMX.sg                  1.41:  Dens Mud Max 
 MOIL.                      68:  Run Mud Oil % 
 MOWR.                   68:32:  Run Mud OWR 
 MSND.                     0.2:  Run Mud Sand % 
 MSOL.                    18.8:  Run Mud Solids% 
 DFV .spqt               80.00:  Mud Viscosity 
 MWOD.in                  6.75:  MWD Tool OD 
 MWSI.                      No:  Serv Intrp, MWD 
 OTIM.hr                104.84:  Time Operating 
 PMAX.psia            10690.93:  Press Op, Max 
 PV  .cP                 26.00:  Mud PV 
 RUN .                     900:  Run Number 
 ROPA.m/hr                0.00:  ROP Avg 
 ROPN.m/hr                0.00:  ROP Min 
 ROPX.m/hr                0.00:  ROP Max 
 RPMA.rpm               140.00:  RPM Surface Avg 
 RPMN.rpm                70.00:  RPM Surface Min 
 RPMX.rpm               140.00:  RPM Surface Max 
 RRUN.                    0900:  Rig Run Number 
 RTIM.hr                 36.00:  Time Reaming 
 SAZI.deg               115.72:  Azm, Start 
 SDEP.m                5337.01:  Start Depth 
 SIDD.                      No:  Serv Intrp, DD 
 SINC.deg                66.92:  Inc, Start 
 SPPA.psig             4400.00:  SPP Avg 
 SPPN.psig             1135.00:  SPP Min 
 SPPX.psig             4581.00:  SPP Max 
 STIM.      04.30.56 18-May-20:  Start Time 
 SVCS.                     MWD:  Services 
 SVER.                    9.20:  Sperry Version 
 TDAT.m                5337.01:  Tot Depth Attmp 
 TDDF.                      No:  Trip for DD 
 TFF .                      No:  Trip for Fail 
 TQAA.f-kp               23.00:  Torque Abs Avg 
 TQAN.f-kp               18.00:  Torque Abs Min 
 TQAX.f-kp               25.00:  Torque Abs Max 
 TRRT.°/30m               0.74:  Turn Rotating 
 MRT .                    HCIM:  Maximum Recorded Temperature 
 TTMX.degC               76.47:  Max Tool Temp 
 WBMN.klb                 0.00:  WOB Min 
 WITN.             Anar Khalil:  Customer Rep 
 WITN.      Kamran Keberlinski:  Customer Rep 2 
 WOBA.klb                 0.00:  WOB Avg 
 WOBX.klb                 0.00:  WOB Max 
 YP  .lhf2               27.00:  Yield Point 
~Curve Information Block
#MNEM.UNIT                 API CODE     Curve Description
#---------               -----------    ---------------------------
 TIME.HHMMSS            00 000 000 000:  GT Time & Date
 GTDEPTH.m              00 000 000 000:  GT Depth
 GTPQH.psia             00 000 000 000:  GT HR Quartz Pressure
 GTTQ.degC              00 000 000 000:  GT Quartz Temperature
 GTTN.NONE              00 000 000 000:  GT Test Number
 GTET.sec               00 000 000 000:  GT Elapsed Test Time
 GTTVD.m                00 000 000 000:  GT True Vertical Depth
#Other Information
#
#WARRANTY: Halliburton will use its best efforts to furnish customers with 
#accurate information and interpretations that are part of, and incident to, the services 
#provided.  However, Halliburton cannot and does not warrant the accuracy 
#or correctness of such information and interpretations.  Under no circumstances should any 
#such information or interpretation be relied upon as the sole basis for any drilling, 
#completion, production, or financial decision or any procedure involving any risk to the 
#safety of any drilling venture, drilling rig or its crew or any other third party.  The 
#Customer has full responsibility for all drilling, completion and production operation.  
#Halliburton makes no representations or warranties, either expressed or 
#implied, including, but not limited to, the implied warranties of merchantability or fitness 
#for a particular purpose, with respect to the services rendered.  In no event will 
#Halliburton be liable for failure to obtain any particular results or for 
#any damages, including, but not limited to, indirect, special or consequential damages, 
#resulting from the use of any information or interpretation provided by Halliburton.
#
~A           TIME           GTDEPTH  GTPQH  GTTQ  GTTN  GTET   GTTVD  
# ...
   00:13:33.633.20-May-2020 5121.01 3549.41 67.87 6.00 414.10 2698.81
   00:13:33.833.20-May-2020 5121.01 3549.41 67.87 6.00 414.30 2698.81
   00:13:34.033.20-May-2020 5121.01 3549.76 67.87 6.00 414.50 2698.81
   00:13:34.233.20-May-2020 5121.01 3550.07 67.87 6.00 414.70 2698.81
   00:13:34.433.20-May-2020 5121.01 3552.98 67.87 6.00 414.90 2698.81
   00:13:34.633.20-May-2020 5121.01 3567.81 67.87 6.00 415.10 2698.81
   00:13:34.833.20-May-2020 5121.01 3567.81 67.87 6.00 415.30 2698.81
   00:13:35.033.20-May-2020 5121.01 3572.09 67.87 6.00 415.50 2698.81
   00:13:35.233.20-May-2020 5121.01 3557.80 67.87 6.00 415.70 2698.81
   00:13:35.433.20-May-2020 5121.01 3550.38 67.87 6.00 415.90 2698.81
   00:13:35.633.20-May-2020 5121.01 3549.31 67.87 6.00 416.10 2698.81
   00:13:35.833.20-May-2020 5121.01 3549.31 67.87 6.00 416.30 2698.81
   00:13:36.034.20-May-2020 5121.01 3549.30 67.87 6.00 416.50 2698.81
   00:13:36.234.20-May-2020 5121.01 3549.56 67.87 6.00 416.70 2698.81
   00:13:36.434.20-May-2020 5121.01 3549.61 67.87 6.00 416.90 2698.81
   00:13:36.634.20-May-2020 5121.01 3549.16 67.87 6.00 417.10 2698.81
   00:13:36.834.20-May-2020 5121.01 3549.16 67.87 6.00 417.30 2698.81
   00:13:37.034.20-May-2020 5121.01 3548.76 67.87 6.00 417.50 2698.81
   00:13:37.234.20-May-2020 5121.01 3549.08 67.87 6.00 417.70 2698.81
   00:13:37.434.20-May-2020 5121.01 3549.20 67.87 6.00 417.90 2698.81
   00:13:37.634.20-May-2020 5121.01 3548.80 67.87 6.00 418.10 2698.81
   00:13:37.834.20-May-2020 5121.01 3548.80 67.87 6.00 418.30 2698.81
   00:13:38.034.20-May-2020 5121.01 3548.99 67.87 6.00 418.50 2698.81
   00:13:38.234.20-May-2020 5121.01 3549.49 67.87 6.00 418.70 2698.81
   00:13:38.434.20-May-2020 5121.01 3549.49 67.87 6.00 418.90 2698.81
   00:13:38.634.20-May-2020 5121.01 3548.20 67.87 6.00 419.10 2698.81
   00:13:38.834.20-May-2020 5121.01 3548.20 67.87 6.00 419.30 2698.81
   00:13:39.034.20-May-2020 5121.01 3548.72 67.87 6.00 419.50 2698.81
   00:13:39.234.20-May-2020 5121.01 3549.60 67.87 6.00 419.70 2698.81
   00:13:39.434.20-May-2020 5121.01 3547.77 67.87 6.00 419.90 2698.81
   00:13:39.634.20-May-2020 5121.01 3549.19 67.87 6.00 420.10 2698.81
   00:13:39.834.20-May-2020 5121.01 3549.19 67.87 6.00 420.30 2698.81
   00:13:40.035.20-May-2020 5121.01 3549.11 67.87 6.00 420.50 2698.81
   00:13:40.235.20-May-2020 5121.01 3549.43 67.87 6.00 420.70 2698.81
   00:13:40.435.20-May-2020 5121.01 3549.41 67.87 6.00 420.90 2698.81
   00:13:40.635.20-May-2020 5121.01 3549.24 67.87 6.00 421.10 2698.81
   00:13:40.835.20-May-2020 5121.01 3549.24 67.87 6.00 421.31 2698.81
   00:13:41.035.20-May-2020 5121.01 3548.95 67.87 6.00 421.51 2698.81
   00:13:41.235.20-May-2020 5121.01 3549.23 67.87 6.00 421.71 2698.81
   00:13:41.435.20-May-2020 5121.01 3549.12 67.87 6.00 421.91 2698.81
   00:13:41.635.20-May-2020 5121.01 3548.76 67.87 6.00 422.11 2698.81
   00:13:41.835.20-May-2020 5121.01 3548.76 67.87 6.00 422.31 2698.81
   00:13:42.035.20-May-2020 5121.01 3548.96 67.87 6.00 422.51 2698.81
   00:13:42.235.20-May-2020 5121.01 3549.02 67.87 6.00 422.71 2698.81
   00:13:42.435.20-May-2020 5121.01 3549.27 67.87 6.00 422.91 2698.81
   00:13:42.635.20-May-2020 5121.01 3548.76 67.87 6.00 423.11 2698.81
   00:13:42.835.20-May-2020 5121.01 3548.76 67.87 6.00 423.31 2698.81
   00:13:43.035.20-May-2020 5121.01 3548.70 67.87 6.00 423.51 2698.81
   00:13:43.235.20-May-2020 5121.01 3548.41 67.87 6.00 423.71 2698.81
   00:13:43.435.20-May-2020 5121.01 3548.77 67.87 6.00 423.91 2698.81
   00:13:43.635.20-May-2020 5121.01 3548.36 67.87 6.00 424.11 2698.81
   00:13:43.835.20-May-2020 5121.01 3548.36 67.87 6.00 424.31 2698.81
   00:13:44.036.20-May-2020 5121.01 3548.48 67.87 6.00 424.51 2698.81
   00:13:44.236.20-May-2020 5121.01 3548.83 67.87 6.00 424.71 2698.81
   00:13:44.436.20-May-2020 5121.01 3548.84 67.87 6.00 424.91 2698.81
   00:13:44.636.20-May-2020 5121.01 3548.67 67.87 6.00 425.11 2698.81
   00:13:44.836.20-May-2020 5121.01 3548.67 67.87 6.00 425.31 2698.81
   00:13:45.036.20-May-2020 5121.01 3548.92 67.87 6.00 425.51 2698.81
   00:13:45.236.20-May-2020 5121.01 3549.26 67.87 6.00 425.71 2698.81
   00:13:45.436.20-May-2020 5121.01 3549.13 67.87 6.00 425.91 2698.81
   00:13:45.636.20-May-2020 5121.01 3549.18 67.87 6.00 426.11 2698.81
   00:13:45.836.20-May-2020 5121.01 3548.65 67.87 6.00 426.31 2698.81
   00:13:46.036.20-May-2020 5121.01 3548.91 67.87 6.00 426.51 2698.81
   00:13:46.236.20-May-2020 5121.01 3549.70 67.87 6.00 426.71 2698.81
   00:13:46.436.20-May-2020 5121.01 3549.22 67.87 6.00 426.91 2698.81
   00:13:46.636.20-May-2020 5121.01 3549.90 67.87 6.00 427.11 2698.81
   00:13:46.836.20-May-2020 5121.01 3549.01 67.87 6.00 427.31 2698.81
   00:13:47.036.20-May-2020 5121.01 3549.76 67.87 6.00 427.51 2698.81
   00:13:47.236.20-May-2020 5121.01 3549.24 67.87 6.00 427.71 2698.81
   00:13:47.436.20-May-2020 5121.01 3549.81 67.87 6.00 427.91 2698.81
   00:13:47.636.20-May-2020 5121.01 3548.85 67.87 6.00 428.11 2698.81
   00:13:47.836.20-May-2020 5121.01 3548.85 67.87 6.00 428.31 2698.81
   00:13:48.037.20-May-2020 5121.01 3549.13 67.87 6.00 428.51 2698.81
   00:13:48.237.20-May-2020 5121.01 3549.35 67.87 6.00 428.71 2698.81
   00:13:48.437.20-May-2020 5121.01 3549.77 67.87 6.00 428.91 2698.81
   00:13:48.637.20-May-2020 5121.01 3549.50 67.87 6.00 429.11 2698.81
   00:13:48.837.20-May-2020 5121.01 3549.79 67.87 6.00 429.31 2698.81
   00:13:49.037.20-May-2020 5121.01 3549.25 67.87 6.00 429.51 2698.81
   00:13:49.237.20-May-2020 5121.01 3548.52 67.87 6.00 429.71 2698.81
   00:13:49.437.20-May-2020 5121.01 3549.52 67.87 6.00 429.91 2698.81
   00:13:49.637.20-May-2020 5121.01 3549.04 67.87 6.00 430.11 2698.81
   00:13:49.837.20-May-2020 5121.01 3549.04 67.87 6.00 430.31 2698.81
   00:13:50.037.20-May-2020 5121.01 3548.44 67.87 6.00 430.51 2698.81
   00:13:50.237.20-May-2020 5121.01 3549.36 67.87 6.00 430.71 2698.81
   00:13:50.437.20-May-2020 5121.01 3549.66 67.87 6.00 430.91 2698.81
   00:13:50.637.20-May-2020 5121.01 3549.05 67.87 6.00 431.11 2698.81
   00:13:50.837.20-May-2020 5121.01 3549.78 67.87 6.00 431.31 2698.81
   00:13:51.037.20-May-2020 5121.01 3549.13 67.87 6.00 431.51 2698.81
   00:13:51.237.20-May-2020 5121.01 3549.53 67.87 6.00 431.71 2698.81
   00:13:51.437.20-May-2020 5121.01 3549.14 67.87 6.00 431.91 2698.81
   00:13:51.637.20-May-2020 5121.01 3548.99 67.87 6.00 432.11 2698.81
   00:13:51.837.20-May-2020 5121.01 3548.99 67.87 6.00 432.31 2698.81
   00:13:52.038.20-May-2020 5121.01 3548.73 67.87 6.00 432.51 2698.81
   00:13:52.238.20-May-2020 5121.01 3549.42 67.87 6.00 432.71 2698.81
   00:13:52.438.20-May-2020 5121.01 3549.29 67.87 6.00 432.91 2698.81
   00:13:52.638.20-May-2020 5121.01 3549.33 67.87 6.00 433.11 2698.81
   00:13:52.838.20-May-2020 5121.01 3549.33 67.87 6.00 433.31 2698.81
   00:13:53.038.20-May-2020 5121.01 3548.85 67.87 6.00 433.51 2698.81
   00:13:53.238.20-May-2020 5121.01 3549.13 67.87 6.00 433.71 2698.81
   00:13:53.438.20-May-2020 5121.01 3549.23 67.87 6.00 433.91 2698.81
   00:13:53.638.20-May-2020 5121.01 3549.07 67.87 6.00 434.11 2698.81
   00:13:53.838.20-May-2020 5121.01 3549.07 67.87 6.00 434.31 2698.81
   00:13:54.038.20-May-2020 5121.01 3548.48 67.87 6.00 434.51 2698.81
   00:13:54.238.20-May-2020 5121.01 3549.21 67.87 6.00 434.71 2698.81
   00:13:54.438.20-May-2020 5121.01 3549.33 67.87 6.00 434.91 2698.81
   00:13:54.638.20-May-2020 5121.01 3549.45 67.87 6.00 435.11 2698.81
   00:13:54.838.20-May-2020 5121.01 3549.45 67.87 6.00 435.31 2698.81
   00:13:55.038.20-May-2020 5121.01 3549.45 67.87 6.00 435.51 2698.81
   00:13:55.238.20-May-2020 5121.01 3549.23 67.87 6.00 435.71 2698.81
   00:13:55.438.20-May-2020 5121.01 3549.55 67.87 6.00 435.91 2698.81
   00:13:55.638.20-May-2020 5121.01 3549.12 67.87 6.00 436.11 2698.81
   00:13:55.838.20-May-2020 5121.01 3549.12 67.87 6.00 436.31 2698.81
   00:13:56.039.20-May-2020 5121.01 3549.11 67.87 6.00 436.51 2698.81
   00:13:56.239.20-May-2020 5121.01 3549.23 67.87 6.00 436.71 2698.81
   00:13:56.439.20-May-2020 5121.01 3548.62 67.87 6.00 436.91 2698.81
