~Version Information
 VERS.                  2.0:   CWLS log ASCII Standard -VERSION 2.0
 WRAP.                   NO:   One line per depth step
~Well Information Block
#MNEM.UNIT     VALUE/NAME     DESCRIPTION
#---------     -----------    ---------------------------
 STRT.S             04:23:34 20-May-20: START TIME 04:23:34 20-May-20
 STOP.S             04:34:06 20-May-20: STOP TIME  04:34:06 20-May-20
 STEP.S                   0.00: STEP TIME
 NULL.                 -999.25: NULL VALUE
 MDS .        Operator Entered:  MAG DATA SOURCE
 PDAT.          Mean Sea Level:  PERMANENT DATUM
 UNIT.                     N/A:  LOGGING EQUIPMENT ID
 DCON.         Sperry Drilling:  DIRECTNL CONTR
 DOE .                     N/A:  DOE NUMBER
 RIG .              East Azeri:  RIG NAME
 JOBN.        AZ-XX-0905856059:  JOB TICKET NUMB
 WELL.                     D36:  WELL NAME
 MWDS.                    Baku:  MWD SHOP
 SRVC.     Turan Drilling & Engineering:  CONTRACTOR
 FLD .                     ACG:  FIELD NAME
 CTRY.              Azerbaijan:  COUNTRY NAME
 PROV.                    Baku:  PROVINCE
 STAT.                    Baku:  STATE NAME
 REGN.                   EESSA:  REGION
 BASE.              Azerbaijan:  LOGGING EQUIPMENT BASE LOCATION
 UWI .                     N/A:  UNIQUE WELL IDENTIFIER
 API .                     N/A:  API NUMBER
 COMP.     BP Exploration (Caspian Sea) Ltd.:  COMPANY
 WTYP.                Deviated:  WELL TYPE
 SON .        AZ-XX-0905856059:  JOB NUMBER
 FTOP.          Formation Tops:  FORM TOPS DESC
 ILTD.               Lithology:  INTERP LTH DESC
 SVYD.                  Survey:  SURVEY DESC
 DMOD.             Drill Model:  DRILL MOD DESC
 HPTY.       Minimum Curvature:  HOLE POS TYPE
 NREF.                    Grid:  NORTH REFERENCE
 SPUD.               25-Feb-20:  SPUD DATE
 DATE.      08.55.28 01-May-20:  END TIME
 STIM.      08.55.28 25-Feb-20:  START TIME
 DMF .             Drill Floor:  DRILL MEAS FROM
 DFST.                        :  DIST FSL TEXT
 DFWT.                        :  DIST FWL TEXT
 CNTY.                        :  COUNTY
 LOC .                        :  LOCATION
 LMF .             Drill Floor:  LOG MEASURED FROM
 VSNS.m                   6.09:  VERT SEC N/S
 VSEW.m                 -10.79:  VERT SEC E/W
 AGAP.m                  43.60:  AIR GAP
 DEP .m                 388.24:  DEPTH
 APD .m                  43.60:  DEPTH ABOVE PD
 WDMS.m                 151.80:  WD ELEV
 EGL .m                   0.00:  GROUND ELEVATION
 EPD .m                   0.00:  ELEVATION
 AZTC.deg                 6.12:  AZM TOTAL CORR
 GRDC.deg                 0.30:  GRID CORRECTION
 MDEC.deg                 6.42:  MAGNETIC DECL
 MDIP.deg                59.42:  MAGNETIC DIP
 MFLD.nT              50256.00:  MAGNETIC FIELD
 GVFD.g                   1.00:  GRAVITY FIELD
 VSDR.deg               159.57:  VERT SEC DIRECT
 TDD .m                5000.01:  TOTAL DEPTH (DRILLER)
 SDEP.m                 397.00:  START DEPTH
 DFSL.m                   0.00:  DISTANCE FSL
 DFWL.m                   0.00:  DISTANCE FWL
 UTMY.m             4431880.20:  UTM Y
 UTMX.m              538763.98:  UTM X
 WHEW.m                 -10.79:  WELL HEAD E/W
 WHNS.m                   6.09:  WELL HEAD N/S
 LONG.deg                51.45:  LONGITUDE
 LATI.deg                40.02:  LATITUDE
 TVDS.m                  43.60:  TVDSS CORRECTN
 EKB .m                  43.60:  KB ELEVATION
 EDF .m                  43.60:  DF ELEVATION
 MAGU.                 1847640:  MAGUTM CHECKSUM
 VSC .                       0:  VS TO CLOSURE
~Parameter Information Block
#MNEM.UNIT       Value        Description
#---------     -----------    ---------------------------
 AV  .mps                 1.30:  Ann Velocity 
 AVMX.mps                 1.90:  Max Ann Veloc 
 AZIF.deg               115.68:  Azm, Final 
 BHAT.                   Other:  BHA Type 
 BROT.°/30m               0.74:  Build Rotating 
 BS  .in                  8.50:  Bit Size 
 BTPL.psig              430.00:  Bit Press Loss 
 CABU.                      No:  Customer Abuse 
 TCS .hr                 51.31:  Time Ciculation Ended 
 CV  .mps                 2.52:  Crit Velocity 
 CVMX.mps                 2.62:  Max Crit Veloc 
 DD1 .          Teymur Aghayev:  Direct Drillr 1 
 DDSV.                   Other:  DD Service 
 DEFF.%                 100.00:  % Det Eff 
 DLRX.°/30m               1.62:  Dogleg Rot Max 
 DLSO.°/30m               0.74:  Dogleg Oriented 
 DLSX.°/30m               1.62:  Dogleg Str Max 
 DRET.      04.30.56 18-May-20:  Drill End Time 
 DRST.      04.30.56 18-May-20:  Drill Start Tim 
 DTIM.hr                  0.00:  Time Drilling 
 EDEP.m                5337.01:  End Depth 
 ENG1.      Artemiy Matviyanov:  Engineer 1 
 ENG2.      Bakhtiyar Jabbarli:  Engineer 2 
 ENG3.           Emil Huseynov:  Engineer 3 
 ETIM.      18.40.00 22-May-20:  End Time 
 FLOI.gpm               550.00:  Flow In 
 FLON.gpm               350.00:  Flow In Min 
 FLOS.cptm                0.00:  Fluid Loss 
 FLOX.gpm               600.00:  Flow In Max 
 HFLO.                      No:  High Flow 
 HPRE.                      No:  High Pressure 
 HTEM.                      No:  High Temp 
 HYDO.m                   1.80:  Hydro Offset 
 IFIN.deg                67.01:  Inc, Final 
 IMAX.deg                67.49:  Inc Max 
 IMIN.deg                66.50:  Inc Min 
 IMND.m                5144.79:  Inc Min Depth 
 IMXD.m                5116.12:  Inc Max Depth 
 JARR.                      No:  Jarring 
 LETM.      17.55.56 20-May-20:  Log End Time 
 LOST.hr                     0:  Lost Rig Time 
 LSTM.      04.30.56 18-May-20:  Log Start Time 
 MDCL.ppm            193153.00:  Mud Chlorides 
 MDES.     Inversion Oil/Synthetic:  Mud Desc 
 DFD .sg                  1.40:  Mud Density 
 MDMN.sg                  1.40:  Dens Mud Min 
 MDMX.sg                  1.41:  Dens Mud Max 
 MOIL.                      68:  Run Mud Oil % 
 MOWR.                   68:32:  Run Mud OWR 
 MSND.                     0.2:  Run Mud Sand % 
 MSOL.                    18.8:  Run Mud Solids% 
 DFV .spqt               80.00:  Mud Viscosity 
 MWOD.in                  6.75:  MWD Tool OD 
 MWSI.                      No:  Serv Intrp, MWD 
 OTIM.hr                104.84:  Time Operating 
 PMAX.psia            10690.93:  Press Op, Max 
 PV  .cP                 26.00:  Mud PV 
 RUN .                     900:  Run Number 
 ROPA.m/hr                0.00:  ROP Avg 
 ROPN.m/hr                0.00:  ROP Min 
 ROPX.m/hr                0.00:  ROP Max 
 RPMA.rpm               140.00:  RPM Surface Avg 
 RPMN.rpm                70.00:  RPM Surface Min 
 RPMX.rpm               140.00:  RPM Surface Max 
 RRUN.                    0900:  Rig Run Number 
 RTIM.hr                 36.00:  Time Reaming 
 SAZI.deg               115.72:  Azm, Start 
 SDEP.m                5337.01:  Start Depth 
 SIDD.                      No:  Serv Intrp, DD 
 SINC.deg                66.92:  Inc, Start 
 SPPA.psig             4400.00:  SPP Avg 
 SPPN.psig             1135.00:  SPP Min 
 SPPX.psig             4581.00:  SPP Max 
 STIM.      04.30.56 18-May-20:  Start Time 
 SVCS.                     MWD:  Services 
 SVER.                    9.20:  Sperry Version 
 TDAT.m                5337.01:  Tot Depth Attmp 
 TDDF.                      No:  Trip for DD 
 TFF .                      No:  Trip for Fail 
 TQAA.f-kp               23.00:  Torque Abs Avg 
 TQAN.f-kp               18.00:  Torque Abs Min 
 TQAX.f-kp               25.00:  Torque Abs Max 
 TRRT.°/30m               0.74:  Turn Rotating 
 MRT .                    HCIM:  Maximum Recorded Temperature 
 TTMX.degC               76.47:  Max Tool Temp 
 WBMN.klb                 0.00:  WOB Min 
 WITN.             Anar Khalil:  Customer Rep 
 WITN.      Kamran Keberlinski:  Customer Rep 2 
 WOBA.klb                 0.00:  WOB Avg 
 WOBX.klb                 0.00:  WOB Max 
 YP  .lhf2               27.00:  Yield Point 
~Curve Information Block
#MNEM.UNIT                 API CODE     Curve Description
#---------               -----------    ---------------------------
 TIME.HHMMSS            00 000 000 000:  GT Time & Date
 GTDEPTH.m              00 000 000 000:  GT Depth
 GTPQH.psia             00 000 000 000:  GT HR Quartz Pressure
 GTTQ.degC              00 000 000 000:  GT Quartz Temperature
 GTTN.NONE              00 000 000 000:  GT Test Number
 GTET.sec               00 000 000 000:  GT Elapsed Test Time
 GTTVD.m                00 000 000 000:  GT True Vertical Depth
#Other Information
#
#WARRANTY: Halliburton will use its best efforts to furnish customers with 
#accurate information and interpretations that are part of, and incident to, the services 
#provided.  However, Halliburton cannot and does not warrant the accuracy 
#or correctness of such information and interpretations.  Under no circumstances should any 
#such information or interpretation be relied upon as the sole basis for any drilling, 
#completion, production, or financial decision or any procedure involving any risk to the 
#safety of any drilling venture, drilling rig or its crew or any other third party.  The 
#Customer has full responsibility for all drilling, completion and production operation.  
#Halliburton makes no representations or warranties, either expressed or 
#implied, including, but not limited to, the implied warranties of merchantability or fitness 
#for a particular purpose, with respect to the services rendered.  In no event will 
#Halliburton be liable for failure to obtain any particular results or for 
#any damages, including, but not limited to, indirect, special or consequential damages, 
#resulting from the use of any information or interpretation provided by Halliburton.
#
~A           TIME           GTDEPTH  GTPQH  GTTQ  GTTN  GTET   GTTVD  
# ...
   04:28:10.662.20-May-2020 5064.29 2955.90 68.77 9.00 276.08 2676.66
   04:28:10.862.20-May-2020 5064.29 2955.90 68.77 9.00 276.28 2676.66
   04:28:11.062.20-May-2020 5064.29 2955.88 68.77 9.00 276.48 2676.66
   04:28:11.263.20-May-2020 5064.29 2955.92 68.77 9.00 276.68 2676.66
   04:28:11.463.20-May-2020 5064.29 2955.89 68.77 9.00 276.88 2676.66
   04:28:11.663.20-May-2020 5064.29 2955.92 68.77 9.00 277.08 2676.66
   04:28:11.863.20-May-2020 5064.29 2955.92 68.77 9.00 277.28 2676.66
   04:28:12.063.20-May-2020 5064.29 2956.02 68.77 9.00 277.48 2676.66
   04:28:12.263.20-May-2020 5064.29 2955.93 68.77 9.00 277.68 2676.66
   04:28:12.463.20-May-2020 5064.29 2955.93 68.77 9.00 277.88 2676.66
   04:28:12.663.20-May-2020 5064.29 2955.82 68.77 9.00 278.08 2676.66
   04:28:12.863.20-May-2020 5064.29 2955.82 68.77 9.00 278.28 2676.66
   04:28:13.063.20-May-2020 5064.29 2955.92 68.77 9.00 278.48 2676.66
   04:28:13.263.20-May-2020 5064.29 2955.99 68.77 9.00 278.68 2676.66
   04:28:13.463.20-May-2020 5064.29 2955.99 68.77 9.00 278.88 2676.66
   04:28:13.663.20-May-2020 5064.29 2955.96 68.77 9.00 279.08 2676.66
   04:28:13.863.20-May-2020 5064.29 2955.96 68.77 9.00 279.28 2676.66
   04:28:14.063.20-May-2020 5064.29 2955.94 68.77 9.00 279.48 2676.66
   04:28:14.263.20-May-2020 5064.29 2956.00 68.77 9.00 279.68 2676.66
   04:28:14.463.20-May-2020 5064.29 2955.82 68.77 9.00 279.88 2676.66
   04:28:14.664.20-May-2020 5064.29 2956.14 68.77 9.00 280.08 2676.66
   04:28:14.864.20-May-2020 5064.29 2956.14 68.77 9.00 280.28 2676.66
   04:28:15.064.20-May-2020 5064.29 2955.95 68.77 9.00 280.48 2676.66
   04:28:15.264.20-May-2020 5064.29 2956.10 68.77 9.00 280.68 2676.66
   04:28:15.464.20-May-2020 5064.29 2955.92 68.77 9.00 280.88 2676.66
   04:28:15.664.20-May-2020 5064.29 2955.82 68.77 9.00 281.08 2676.66
   04:28:15.864.20-May-2020 5064.29 2955.82 68.77 9.00 281.28 2676.66
   04:28:16.064.20-May-2020 5064.29 2955.97 68.77 9.00 281.48 2676.66
   04:28:16.264.20-May-2020 5064.29 2956.03 68.77 9.00 281.68 2676.66
   04:28:16.464.20-May-2020 5064.29 2956.03 68.77 9.00 281.88 2676.66
   04:28:16.664.20-May-2020 5064.29 2955.99 68.77 9.00 282.08 2676.66
   04:28:16.864.20-May-2020 5064.29 2955.99 68.77 9.00 282.28 2676.66
   04:28:17.064.20-May-2020 5064.29 2955.99 68.77 9.00 282.48 2676.66
   04:28:17.264.20-May-2020 5064.29 2956.03 68.77 9.00 282.68 2676.66
   04:28:17.464.20-May-2020 5064.29 2955.98 68.77 9.00 282.88 2676.66
   04:28:17.664.20-May-2020 5064.29 2956.04 68.77 9.00 283.08 2676.66
   04:28:17.864.20-May-2020 5064.29 2956.04 68.77 9.00 283.28 2676.66
   04:28:18.064.20-May-2020 5064.29 2955.98 68.78 9.00 283.48 2676.66
   04:28:18.265.20-May-2020 5064.29 2956.03 68.77 9.00 283.68 2676.66
   04:28:18.465.20-May-2020 5064.29 2955.98 68.77 9.00 283.88 2676.66
   04:28:18.665.20-May-2020 5064.29 2955.92 68.78 9.00 284.08 2676.66
   04:28:18.865.20-May-2020 5064.29 2955.92 68.78 9.00 284.28 2676.66
   04:28:19.065.20-May-2020 5064.29 2955.98 68.77 9.00 284.48 2676.66
   04:28:19.265.20-May-2020 5064.29 2956.05 68.78 9.00 284.68 2676.66
   04:28:19.465.20-May-2020 5064.29 2955.90 68.77 9.00 284.88 2676.66
   04:28:19.665.20-May-2020 5064.29 2956.17 68.78 9.00 285.08 2676.66
   04:28:19.865.20-May-2020 5064.29 2956.17 68.78 9.00 285.28 2676.66
   04:28:20.065.20-May-2020 5064.29 2956.04 68.77 9.00 285.48 2676.66
   04:28:20.265.20-May-2020 5064.29 2956.06 68.78 9.00 285.68 2676.66
   04:28:20.465.20-May-2020 5064.29 2956.00 68.77 9.00 285.88 2676.66
   04:28:20.665.20-May-2020 5064.29 2955.89 68.78 9.00 286.08 2676.66
   04:28:20.865.20-May-2020 5064.29 2955.89 68.78 9.00 286.28 2676.66
   04:28:21.065.20-May-2020 5064.29 2955.99 68.77 9.00 286.48 2676.66
   04:28:21.265.20-May-2020 5064.29 2956.08 68.78 9.00 286.68 2676.66
   04:28:21.465.20-May-2020 5064.29 2956.06 68.77 9.00 286.88 2676.66
   04:28:21.665.20-May-2020 5064.29 2956.01 68.78 9.00 287.08 2676.66
   04:28:21.866.20-May-2020 5064.29 2956.01 68.78 9.00 287.28 2676.66
   04:28:22.066.20-May-2020 5064.29 2956.07 68.77 9.00 287.48 2676.66
   04:28:22.266.20-May-2020 5064.29 2956.10 68.78 9.00 287.68 2676.66
   04:28:22.466.20-May-2020 5064.29 2955.98 68.78 9.00 287.88 2676.66
   04:28:22.666.20-May-2020 5064.29 2955.93 68.77 9.00 288.08 2676.66
   04:28:22.866.20-May-2020 5064.29 2955.93 68.77 9.00 288.28 2676.66
   04:28:23.066.20-May-2020 5064.29 2956.00 68.78 9.00 288.48 2676.66
   04:28:23.266.20-May-2020 5064.29 2956.11 68.77 9.00 288.68 2676.66
   04:28:23.466.20-May-2020 5064.29 2956.02 68.78 9.00 288.88 2676.66
   04:28:23.666.20-May-2020 5064.29 2956.05 68.78 9.00 289.08 2676.66
   04:28:23.866.20-May-2020 5064.29 2956.05 68.78 9.00 289.28 2676.66
   04:28:24.066.20-May-2020 5064.29 2956.04 68.77 9.00 289.48 2676.66
   04:28:24.266.20-May-2020 5064.29 2956.07 68.78 9.00 289.68 2676.66
   04:28:24.466.20-May-2020 5064.29 2956.03 68.78 9.00 289.88 2676.66
   04:28:24.666.20-May-2020 5064.29 2956.07 68.78 9.00 290.08 2676.66
   04:28:24.866.20-May-2020 5064.29 2956.07 68.78 9.00 290.28 2676.66
   04:28:25.066.20-May-2020 5064.29 2956.05 68.77 9.00 290.48 2676.66
   04:28:25.267.20-May-2020 5064.29 2956.07 68.78 9.00 290.68 2676.66
   04:28:25.467.20-May-2020 5064.29 2956.04 68.78 9.00 290.88 2676.66
   04:28:25.667.20-May-2020 5064.29 2956.07 68.78 9.00 291.08 2676.66
   04:28:25.867.20-May-2020 5064.29 2956.07 68.78 9.00 291.28 2676.66
   04:28:26.067.20-May-2020 5064.29 2956.03 68.77 9.00 291.48 2676.66
   04:28:26.267.20-May-2020 5064.29 2956.10 68.78 9.00 291.68 2676.66
   04:28:26.467.20-May-2020 5064.29 2955.91 68.78 9.00 291.88 2676.66
   04:28:26.667.20-May-2020 5064.29 2956.23 68.78 9.00 292.08 2676.66
   04:28:26.867.20-May-2020 5064.29 2956.23 68.78 9.00 292.28 2676.66
   04:28:27.067.20-May-2020 5064.29 2956.04 68.78 9.00 292.48 2676.66
   04:28:27.267.20-May-2020 5064.29 2956.16 68.78 9.00 292.68 2676.66
   04:28:27.467.20-May-2020 5064.29 2956.02 68.77 9.00 292.88 2676.66
   04:28:27.667.20-May-2020 5064.29 2955.91 68.78 9.00 293.08 2676.66
   04:28:27.867.20-May-2020 5064.29 2955.91 68.78 9.00 293.28 2676.66
   04:28:28.067.20-May-2020 5064.29 2956.04 68.78 9.00 293.48 2676.66
   04:28:28.267.20-May-2020 5064.29 2956.11 68.78 9.00 293.68 2676.66
   04:28:28.467.20-May-2020 5064.29 2955.91 68.78 9.00 293.88 2676.66
   04:28:28.667.20-May-2020 5064.29 2956.19 68.78 9.00 294.08 2676.66
   04:28:28.868.20-May-2020 5064.29 2956.19 68.78 9.00 294.28 2676.66
   04:28:29.068.20-May-2020 5064.29 2956.09 68.78 9.00 294.48 2676.66
   04:28:29.268.20-May-2020 5064.29 2956.13 68.77 9.00 294.68 2676.66
   04:28:29.468.20-May-2020 5064.29 2956.01 68.78 9.00 294.88 2676.66
   04:28:29.668.20-May-2020 5064.29 2955.91 68.78 9.00 295.08 2676.66
   04:28:29.868.20-May-2020 5064.29 2955.91 68.78 9.00 295.28 2676.66
   04:28:30.068.20-May-2020 5064.29 2956.06 68.77 9.00 295.48 2676.66
   04:28:30.268.20-May-2020 5064.29 2956.10 68.78 9.00 295.68 2676.66
   04:28:30.468.20-May-2020 5064.29 2956.08 68.78 9.00 295.88 2676.66
   04:28:30.668.20-May-2020 5064.29 2956.05 68.78 9.00 296.08 2676.66
   04:28:30.868.20-May-2020 5064.29 2956.05 68.78 9.00 296.28 2676.66
   04:28:31.068.20-May-2020 5064.29 2956.07 68.78 9.00 296.48 2676.66
   04:28:31.268.20-May-2020 5064.29 2956.07 68.78 9.00 296.68 2676.66
   04:28:31.468.20-May-2020 5064.29 2956.05 68.78 9.00 296.88 2676.66
   04:28:31.668.20-May-2020 5064.29 2956.11 68.78 9.00 297.08 2676.66
   04:28:31.868.20-May-2020 5064.29 2956.11 68.78 9.00 297.28 2676.66
   04:28:32.068.20-May-2020 5064.29 2956.07 68.78 9.00 297.48 2676.66
   04:28:32.268.20-May-2020 5064.29 2956.10 68.78 9.00 297.68 2676.66
   04:28:32.469.20-May-2020 5064.29 2956.05 68.78 9.00 297.88 2676.66
   04:28:32.669.20-May-2020 5064.29 2955.98 68.78 9.00 298.08 2676.66
   04:28:32.869.20-May-2020 5064.29 2955.98 68.78 9.00 298.28 2676.66
   04:28:33.069.20-May-2020 5064.29 2956.06 68.78 9.00 298.48 2676.66
   04:28:33.269.20-May-2020 5064.29 2956.10 68.78 9.00 298.68 2676.66
   04:28:33.469.20-May-2020 5064.29 2955.98 68.78 9.00 298.88 2676.66
