~Version Information
 VERS.                  2.0:   CWLS log ASCII Standard -VERSION 2.0
 WRAP.                   NO:   One line per depth step
~Well Information Block
#MNEM.UNIT     VALUE/NAME     DESCRIPTION
#---------     -----------    ---------------------------
 STRT.S             04:23:34 20-May-20: START TIME 04:23:34 20-May-20
 STOP.S             04:34:06 20-May-20: STOP TIME  04:34:06 20-May-20
 STEP.S                   0.00: STEP TIME
 NULL.                 -999.25: NULL VALUE
 MDS .        Operator Entered:  MAG DATA SOURCE
 PDAT.          Mean Sea Level:  PERMANENT DATUM
 UNIT.                     N/A:  LOGGING EQUIPMENT ID
 DCON.         Sperry Drilling:  DIRECTNL CONTR
 DOE .                     N/A:  DOE NUMBER
 RIG .              East Azeri:  RIG NAME
 JOBN.        AZ-XX-0905856059:  JOB TICKET NUMB
 WELL.                     D36:  WELL NAME
 MWDS.                    Baku:  MWD SHOP
 SRVC.     Turan Drilling & Engineering:  CONTRACTOR
 FLD .                     ACG:  FIELD NAME
 CTRY.              Azerbaijan:  COUNTRY NAME
 PROV.                    Baku:  PROVINCE
 STAT.                    Baku:  STATE NAME
 REGN.                   EESSA:  REGION
 BASE.              Azerbaijan:  LOGGING EQUIPMENT BASE LOCATION
 UWI .                     N/A:  UNIQUE WELL IDENTIFIER
 API .                     N/A:  API NUMBER
 COMP.     BP Exploration (Caspian Sea) Ltd.:  COMPANY
 WTYP.                Deviated:  WELL TYPE
 SON .        AZ-XX-0905856059:  JOB NUMBER
 FTOP.          Formation Tops:  FORM TOPS DESC
 ILTD.               Lithology:  INTERP LTH DESC
 SVYD.                  Survey:  SURVEY DESC
 DMOD.             Drill Model:  DRILL MOD DESC
 HPTY.       Minimum Curvature:  HOLE POS TYPE
 NREF.                    Grid:  NORTH REFERENCE
 SPUD.               25-Feb-20:  SPUD DATE
 DATE.      08.55.28 01-May-20:  END TIME
 STIM.      08.55.28 25-Feb-20:  START TIME
 DMF .             Drill Floor:  DRILL MEAS FROM
 DFST.                        :  DIST FSL TEXT
 DFWT.                        :  DIST FWL TEXT
 CNTY.                        :  COUNTY
 LOC .                        :  LOCATION
 LMF .             Drill Floor:  LOG MEASURED FROM
 VSNS.m                   6.09:  VERT SEC N/S
 VSEW.m                 -10.79:  VERT SEC E/W
 AGAP.m                  43.60:  AIR GAP
 DEP .m                 388.24:  DEPTH
 APD .m                  43.60:  DEPTH ABOVE PD
 WDMS.m                 151.80:  WD ELEV
 EGL .m                   0.00:  GROUND ELEVATION
 EPD .m                   0.00:  ELEVATION
 AZTC.deg                 6.12:  AZM TOTAL CORR
 GRDC.deg                 0.30:  GRID CORRECTION
 MDEC.deg                 6.42:  MAGNETIC DECL
 MDIP.deg                59.42:  MAGNETIC DIP
 MFLD.nT              50256.00:  MAGNETIC FIELD
 GVFD.g                   1.00:  GRAVITY FIELD
 VSDR.deg               159.57:  VERT SEC DIRECT
 TDD .m                5000.01:  TOTAL DEPTH (DRILLER)
 SDEP.m                 397.00:  START DEPTH
 DFSL.m                   0.00:  DISTANCE FSL
 DFWL.m                   0.00:  DISTANCE FWL
 UTMY.m             4431880.20:  UTM Y
 UTMX.m              538763.98:  UTM X
 WHEW.m                 -10.79:  WELL HEAD E/W
 WHNS.m                   6.09:  WELL HEAD N/S
 LONG.deg                51.45:  LONGITUDE
 LATI.deg                40.02:  LATITUDE
 TVDS.m                  43.60:  TVDSS CORRECTN
 EKB .m                  43.60:  KB ELEVATION
 EDF .m                  43.60:  DF ELEVATION
 MAGU.                 1847640:  MAGUTM CHECKSUM
 VSC .                       0:  VS TO CLOSURE
~Parameter Information Block
#MNEM.UNIT       Value        Description
#---------     -----------    ---------------------------
 AV  .mps                 1.30:  Ann Velocity 
 AVMX.mps                 1.90:  Max Ann Veloc 
 AZIF.deg               115.68:  Azm, Final 
 BHAT.                   Other:  BHA Type 
 BROT.°/30m               0.74:  Build Rotating 
 BS  .in                  8.50:  Bit Size 
 BTPL.psig              430.00:  Bit Press Loss 
 CABU.                      No:  Customer Abuse 
 TCS .hr                 51.31:  Time Ciculation Ended 
 CV  .mps                 2.52:  Crit Velocity 
 CVMX.mps                 2.62:  Max Crit Veloc 
 DD1 .          Teymur Aghayev:  Direct Drillr 1 
 DDSV.                   Other:  DD Service 
 DEFF.%                 100.00:  % Det Eff 
 DLRX.°/30m               1.62:  Dogleg Rot Max 
 DLSO.°/30m               0.74:  Dogleg Oriented 
 DLSX.°/30m               1.62:  Dogleg Str Max 
 DRET.      04.30.56 18-May-20:  Drill End Time 
 DRST.      04.30.56 18-May-20:  Drill Start Tim 
 DTIM.hr                  0.00:  Time Drilling 
 EDEP.m                5337.01:  End Depth 
 ENG1.      Artemiy Matviyanov:  Engineer 1 
 ENG2.      Bakhtiyar Jabbarli:  Engineer 2 
 ENG3.           Emil Huseynov:  Engineer 3 
 ETIM.      18.40.00 22-May-20:  End Time 
 FLOI.gpm               550.00:  Flow In 
 FLON.gpm               350.00:  Flow In Min 
 FLOS.cptm                0.00:  Fluid Loss 
 FLOX.gpm               600.00:  Flow In Max 
 HFLO.                      No:  High Flow 
 HPRE.                      No:  High Pressure 
 HTEM.                      No:  High Temp 
 HYDO.m                   1.80:  Hydro Offset 
 IFIN.deg                67.01:  Inc, Final 
 IMAX.deg                67.49:  Inc Max 
 IMIN.deg                66.50:  Inc Min 
 IMND.m                5144.79:  Inc Min Depth 
 IMXD.m                5116.12:  Inc Max Depth 
 JARR.                      No:  Jarring 
 LETM.      17.55.56 20-May-20:  Log End Time 
 LOST.hr                     0:  Lost Rig Time 
 LSTM.      04.30.56 18-May-20:  Log Start Time 
 MDCL.ppm            193153.00:  Mud Chlorides 
 MDES.     Inversion Oil/Synthetic:  Mud Desc 
 DFD .sg                  1.40:  Mud Density 
 MDMN.sg                  1.40:  Dens Mud Min 
 MDMX.sg                  1.41:  Dens Mud Max 
 MOIL.                      68:  Run Mud Oil % 
 MOWR.                   68:32:  Run Mud OWR 
 MSND.                     0.2:  Run Mud Sand % 
 MSOL.                    18.8:  Run Mud Solids% 
 DFV .spqt               80.00:  Mud Viscosity 
 MWOD.in                  6.75:  MWD Tool OD 
 MWSI.                      No:  Serv Intrp, MWD 
 OTIM.hr                104.84:  Time Operating 
 PMAX.psia            10690.93:  Press Op, Max 
 PV  .cP                 26.00:  Mud PV 
 RUN .                     900:  Run Number 
 ROPA.m/hr                0.00:  ROP Avg 
 ROPN.m/hr                0.00:  ROP Min 
 ROPX.m/hr                0.00:  ROP Max 
 RPMA.rpm               140.00:  RPM Surface Avg 
 RPMN.rpm                70.00:  RPM Surface Min 
 RPMX.rpm               140.00:  RPM Surface Max 
 RRUN.                    0900:  Rig Run Number 
 RTIM.hr                 36.00:  Time Reaming 
 SAZI.deg               115.72:  Azm, Start 
 SDEP.m                5337.01:  Start Depth 
 SIDD.                      No:  Serv Intrp, DD 
 SINC.deg                66.92:  Inc, Start 
 SPPA.psig             4400.00:  SPP Avg 
 SPPN.psig             1135.00:  SPP Min 
 SPPX.psig             4581.00:  SPP Max 
 STIM.      04.30.56 18-May-20:  Start Time 
 SVCS.                     MWD:  Services 
 SVER.                    9.20:  Sperry Version 
 TDAT.m                5337.01:  Tot Depth Attmp 
 TDDF.                      No:  Trip for DD 
 TFF .                      No:  Trip for Fail 
 TQAA.f-kp               23.00:  Torque Abs Avg 
 TQAN.f-kp               18.00:  Torque Abs Min 
 TQAX.f-kp               25.00:  Torque Abs Max 
 TRRT.°/30m               0.74:  Turn Rotating 
 MRT .                    HCIM:  Maximum Recorded Temperature 
 TTMX.degC               76.47:  Max Tool Temp 
 WBMN.klb                 0.00:  WOB Min 
 WITN.             Anar Khalil:  Customer Rep 
 WITN.      Kamran Keberlinski:  Customer Rep 2 
 WOBA.klb                 0.00:  WOB Avg 
 WOBX.klb                 0.00:  WOB Max 
 YP  .lhf2               27.00:  Yield Point 
~Curve Information Block
#MNEM.UNIT                 API CODE     Curve Description
#---------               -----------    ---------------------------
 TIME.HHMMSS            00 000 000 000:  GT Time & Date
 GTDEPTH.m              00 000 000 000:  GT Depth
 GTPQH.psia             00 000 000 000:  GT HR Quartz Pressure
 GTTQ.degC              00 000 000 000:  GT Quartz Temperature
 GTTN.NONE              00 000 000 000:  GT Test Number
 GTET.sec               00 000 000 000:  GT Elapsed Test Time
 GTTVD.m                00 000 000 000:  GT True Vertical Depth
#Other Information
#
#WARRANTY: Halliburton will use its best efforts to furnish customers with 
#accurate information and interpretations that are part of, and incident to, the services 
#provided.  However, Halliburton cannot and does not warrant the accuracy 
#or correctness of such information and interpretations.  Under no circumstances should any 
#such information or interpretation be relied upon as the sole basis for any drilling, 
#completion, production, or financial decision or any procedure involving any risk to the 
#safety of any drilling venture, drilling rig or its crew or any other third party.  The 
#Customer has full responsibility for all drilling, completion and production operation.  
#Halliburton makes no representations or warranties, either expressed or 
#implied, including, but not limited to, the implied warranties of merchantability or fitness 
#for a particular purpose, with respect to the services rendered.  In no event will 
#Halliburton be liable for failure to obtain any particular results or for 
#any damages, including, but not limited to, indirect, special or consequential damages, 
#resulting from the use of any information or interpretation provided by Halliburton.
#
~A           TIME           GTDEPTH  GTPQH  GTTQ  GTTN  GTET   GTTVD  
# ...
   04:24:20.597.20-May-2020 5064.29 6633.04 68.83 9.00  46.01 2676.66
   04:24:20.797.20-May-2020 5064.29 6633.04 68.83 9.00  46.21 2676.66
   04:24:20.997.20-May-2020 5064.29 6596.60 68.83 9.00  46.41 2676.66
   04:24:21.197.20-May-2020 5064.29 6579.91 68.83 9.00  46.61 2676.66
   04:24:21.398.20-May-2020 5064.29 6566.16 68.84 9.00  46.81 2676.66
   04:24:21.598.20-May-2020 5064.29 6553.14 68.84 9.00  47.01 2676.66
   04:24:21.798.20-May-2020 5064.29 6535.62 68.84 9.00  47.21 2676.66
   04:24:21.998.20-May-2020 5064.29 6363.59 68.84 9.00  47.41 2676.66
   04:24:22.198.20-May-2020 5064.29 6236.01 68.84 9.00  47.61 2676.66
   04:24:22.398.20-May-2020 5064.29 5937.79 68.84 9.00  47.81 2676.66
   04:24:22.598.20-May-2020 5064.29 5512.49 68.84 9.00  48.01 2676.66
   04:24:22.798.20-May-2020 5064.29 5512.49 68.84 9.00  48.21 2676.66
   04:24:22.998.20-May-2020 5064.29 4697.11 68.83 9.00  48.41 2676.66
   04:24:23.198.20-May-2020 5064.29 4513.97 68.83 9.00  48.61 2676.66
   04:24:23.398.20-May-2020 5064.29 4444.71 68.83 9.00  48.81 2676.66
   04:24:23.598.20-May-2020 5064.29 4306.13 68.83 9.00  49.01 2676.66
   04:24:23.798.20-May-2020 5064.29 4306.13 68.83 9.00  49.21 2676.66
   04:24:23.998.20-May-2020 5064.29 3859.30 68.83 9.00  49.41 2676.66
   04:24:24.198.20-May-2020 5064.29 3508.04 68.83 9.00  49.61 2676.66
   04:24:24.398.20-May-2020 5064.29 3199.58 68.83 9.00  49.81 2676.66
   04:24:24.598.20-May-2020 5064.29 2962.64 68.83 9.00  50.01 2676.66
   04:24:24.799.20-May-2020 5064.29 2962.64 68.83 9.00  50.21 2676.66
   04:24:24.999.20-May-2020 5064.29 2908.88 68.82 9.00  50.41 2676.66
   04:24:25.199.20-May-2020 5064.29 2883.32 68.82 9.00  50.61 2676.66
   04:24:25.399.20-May-2020 5064.29 2878.41 68.82 9.00  50.81 2676.66
   04:24:25.599.20-May-2020 5064.29 2879.47 68.82 9.00  51.01 2676.66
   04:24:25.799.20-May-2020 5064.29 2881.12 68.81 9.00  51.21 2676.66
   04:24:25.999.20-May-2020 5064.29 2881.04 68.81 9.00  51.41 2676.66
   04:24:26.199.20-May-2020 5064.29 2884.51 68.81 9.00  51.61 2676.66
   04:24:26.399.20-May-2020 5064.29 2888.00 68.80 9.00  51.81 2676.66
   04:24:26.599.20-May-2020 5064.29 2891.25 68.80 9.00  52.01 2676.66
   04:24:26.799.20-May-2020 5064.29 2891.25 68.80 9.00  52.21 2676.66
   04:24:26.999.20-May-2020 5064.29 2893.84 68.80 9.00  52.41 2676.66
   04:24:27.199.20-May-2020 5064.29 2895.28 68.79 9.00  52.61 2676.66
   04:24:27.399.20-May-2020 5064.29 2894.72 68.79 9.00  52.81 2676.66
   04:24:27.599.20-May-2020 5064.29 2893.40 68.79 9.00  53.01 2676.66
   04:24:27.799.20-May-2020 5064.29 2893.40 68.79 9.00  53.22 2676.66
   04:24:27.999.20-May-2020 5064.29 2892.11 68.78 9.00  53.42 2676.66
   04:24:28.199.20-May-2020 5064.29 2891.37 68.78 9.00  53.62 2676.66
   04:24:28.400.20-May-2020 5064.29 2893.45 68.78 9.00  53.82 2676.66
   04:24:28.600.20-May-2020 5064.29 2893.22 68.77 9.00  54.02 2676.66
   04:24:28.800.20-May-2020 5064.29 2893.22 68.77 9.00  54.22 2676.66
   04:24:29.000.20-May-2020 5064.29 2894.26 68.77 9.00  54.42 2676.66
   04:24:29.200.20-May-2020 5064.29 2893.01 68.77 9.00  54.62 2676.66
   04:24:29.400.20-May-2020 5064.29 2902.90 68.77 9.00  54.82 2676.66
   04:24:29.600.20-May-2020 5064.29 2936.30 68.76 9.00  55.02 2676.66
   04:24:29.800.20-May-2020 5064.29 2936.30 68.76 9.00  55.22 2676.66
   04:24:30.000.20-May-2020 5064.29 2894.19 68.76 9.00  55.42 2676.66
   04:24:30.200.20-May-2020 5064.29 2892.67 68.76 9.00  55.62 2676.66
   04:24:30.400.20-May-2020 5064.29 2890.53 68.76 9.00  55.82 2676.66
   04:24:30.600.20-May-2020 5064.29 2890.16 68.75 9.00  56.02 2676.66
   04:24:30.800.20-May-2020 5064.29 2890.16 68.75 9.00  56.22 2676.66
   04:24:31.000.20-May-2020 5064.29 2891.86 68.75 9.00  56.42 2676.66
   04:24:31.200.20-May-2020 5064.29 2892.37 68.75 9.00  56.62 2676.66
   04:24:31.400.20-May-2020 5064.29 2891.40 68.75 9.00  56.82 2676.66
   04:24:31.600.20-May-2020 5064.29 2889.68 68.75 9.00  57.02 2676.66
   04:24:31.800.20-May-2020 5064.29 2889.68 68.75 9.00  57.22 2676.66
   04:24:32.001.20-May-2020 5064.29 2889.19 68.74 9.00  57.42 2676.66
   04:24:32.201.20-May-2020 5064.29 2888.52 68.74 9.00  57.62 2676.66
   04:24:32.401.20-May-2020 5064.29 2888.39 68.74 9.00  57.82 2676.66
   04:24:32.601.20-May-2020 5064.29 2887.58 68.74 9.00  58.02 2676.66
   04:24:32.801.20-May-2020 5064.29 2887.58 68.74 9.00  58.22 2676.66
   04:24:33.001.20-May-2020 5064.29 2890.07 68.74 9.00  58.42 2676.66
   04:24:33.201.20-May-2020 5064.29 2889.39 68.74 9.00  58.62 2676.66
   04:24:33.401.20-May-2020 5064.29 2890.25 68.74 9.00  58.82 2676.66
   04:24:33.601.20-May-2020 5064.29 2887.54 68.74 9.00  59.02 2676.66
   04:24:33.801.20-May-2020 5064.29 2887.54 68.73 9.00  59.22 2676.66
   04:24:34.001.20-May-2020 5064.29 2887.79 68.73 9.00  59.42 2676.66
   04:24:34.201.20-May-2020 5064.29 2887.03 68.73 9.00  59.62 2676.66
   04:24:34.401.20-May-2020 5064.29 2887.69 68.73 9.00  59.82 2676.66
   04:24:34.601.20-May-2020 5064.29 2886.41 68.73 9.00  60.02 2676.66
   04:24:34.801.20-May-2020 5064.29 2886.41 68.73 9.00  60.22 2676.66
   04:24:35.001.20-May-2020 5064.29 2887.21 68.73 9.00  60.42 2676.66
   04:24:35.201.20-May-2020 5064.29 2888.64 68.73 9.00  60.62 2676.66
   04:24:35.401.20-May-2020 5064.29 2888.55 68.73 9.00  60.82 2676.66
   04:24:35.602.20-May-2020 5064.29 2886.93 68.73 9.00  61.02 2676.66
   04:24:35.802.20-May-2020 5064.29 2886.93 68.73 9.00  61.22 2676.66
   04:24:36.002.20-May-2020 5064.29 2887.21 68.73 9.00  61.42 2676.66
   04:24:36.202.20-May-2020 5064.29 2888.28 68.73 9.00  61.62 2676.66
   04:24:36.402.20-May-2020 5064.29 2888.39 68.73 9.00  61.82 2676.66
   04:24:36.602.20-May-2020 5064.29 2887.96 68.73 9.00  62.02 2676.66
   04:24:36.802.20-May-2020 5064.29 2887.96 68.73 9.00  62.22 2676.66
   04:24:37.002.20-May-2020 5064.29 2888.13 68.73 9.00  62.42 2676.66
   04:24:37.202.20-May-2020 5064.29 2889.33 68.73 9.00  62.62 2676.66
   04:24:37.402.20-May-2020 5064.29 2888.23 68.73 9.00  62.82 2676.66
   04:24:37.602.20-May-2020 5064.29 2887.03 68.73 9.00  63.02 2676.66
   04:24:37.802.20-May-2020 5064.29 2884.49 68.73 9.00  63.22 2676.66
   04:24:38.002.20-May-2020 5064.29 2885.45 68.73 9.00  63.42 2676.66
   04:24:38.202.20-May-2020 5064.29 2885.31 68.73 9.00  63.62 2676.66
   04:24:38.402.20-May-2020 5064.29 2885.33 68.73 9.00  63.82 2676.66
   04:24:38.602.20-May-2020 5064.29 2884.71 68.73 9.00  64.02 2676.66
   04:24:38.802.20-May-2020 5064.29 2884.71 68.73 9.00  64.22 2676.66
   04:24:39.003.20-May-2020 5064.29 2887.35 68.73 9.00  64.42 2676.66
   04:24:39.203.20-May-2020 5064.29 2887.50 68.73 9.00  64.62 2676.66
   04:24:39.403.20-May-2020 5064.29 2886.50 68.73 9.00  64.82 2676.66
   04:24:39.603.20-May-2020 5064.29 2885.53 68.73 9.00  65.02 2676.66
   04:24:39.803.20-May-2020 5064.29 2885.53 68.73 9.00  65.22 2676.66
   04:24:40.003.20-May-2020 5064.29 2885.60 68.73 9.00  65.42 2676.66
   04:24:40.203.20-May-2020 5064.29 2883.64 68.73 9.00  65.62 2676.66
   04:24:40.403.20-May-2020 5064.29 2884.20 68.73 9.00  65.82 2676.66
   04:24:40.603.20-May-2020 5064.29 2884.19 68.73 9.00  66.02 2676.66
   04:24:40.803.20-May-2020 5064.29 2884.19 68.73 9.00  66.22 2676.66
   04:24:41.003.20-May-2020 5064.29 2886.12 68.73 9.00  66.42 2676.66
   04:24:41.203.20-May-2020 5064.29 2887.10 68.73 9.00  66.62 2676.66
   04:24:41.403.20-May-2020 5064.29 2887.13 68.73 9.00  66.82 2676.66
   04:24:41.603.20-May-2020 5064.29 2885.66 68.73 9.00  67.02 2676.66
   04:24:41.803.20-May-2020 5064.29 2885.66 68.73 9.00  67.22 2676.66
   04:24:42.003.20-May-2020 5064.29 2883.79 68.73 9.00  67.42 2676.66
   04:24:42.203.20-May-2020 5064.29 2883.97 68.73 9.00  67.62 2676.66
   04:24:42.403.20-May-2020 5064.29 2883.99 68.73 9.00  67.82 2676.66
   04:24:42.604.20-May-2020 5064.29 2884.59 68.73 9.00  68.02 2676.66
   04:24:42.804.20-May-2020 5064.29 2884.59 68.73 9.00  68.22 2676.66
   04:24:43.004.20-May-2020 5064.29 2884.42 68.73 9.00  68.42 2676.66
   04:24:43.204.20-May-2020 5064.29 2885.76 68.73 9.00  68.62 2676.66
   04:24:43.404.20-May-2020 5064.29 2886.07 68.73 9.00  68.82 2676.66
