~Version Information
 VERS.                  2.0:   CWLS log ASCII Standard -VERSION 2.0
 WRAP.                   NO:   One line per depth step
~Well Information Block
#MNEM.UNIT     VALUE/NAME     DESCRIPTION
#---------     -----------    ---------------------------
 STRT.S             03:43:00 20-May-20: START TIME 03:43:00 20-May-20
 STOP.S             03:53:08 20-May-20: STOP TIME  03:53:08 20-May-20
 STEP.S                   0.00: STEP TIME
 NULL.                 -999.25: NULL VALUE
 MDS .        Operator Entered:  MAG DATA SOURCE
 PDAT.          Mean Sea Level:  PERMANENT DATUM
 UNIT.                     N/A:  LOGGING EQUIPMENT ID
 DCON.         Sperry Drilling:  DIRECTNL CONTR
 DOE .                     N/A:  DOE NUMBER
 RIG .              East Azeri:  RIG NAME
 JOBN.        AZ-XX-0905856059:  JOB TICKET NUMB
 WELL.                     D36:  WELL NAME
 MWDS.                    Baku:  MWD SHOP
 SRVC.     Turan Drilling & Engineering:  CONTRACTOR
 FLD .                     ACG:  FIELD NAME
 CTRY.              Azerbaijan:  COUNTRY NAME
 PROV.                    Baku:  PROVINCE
 STAT.                    Baku:  STATE NAME
 REGN.                   EESSA:  REGION
 BASE.              Azerbaijan:  LOGGING EQUIPMENT BASE LOCATION
 UWI .                     N/A:  UNIQUE WELL IDENTIFIER
 API .                     N/A:  API NUMBER
 COMP.     BP Exploration (Caspian Sea) Ltd.:  COMPANY
 WTYP.                Deviated:  WELL TYPE
 SON .        AZ-XX-0905856059:  JOB NUMBER
 FTOP.          Formation Tops:  FORM TOPS DESC
 ILTD.               Lithology:  INTERP LTH DESC
 SVYD.                  Survey:  SURVEY DESC
 DMOD.             Drill Model:  DRILL MOD DESC
 HPTY.       Minimum Curvature:  HOLE POS TYPE
 NREF.                    Grid:  NORTH REFERENCE
 SPUD.               25-Feb-20:  SPUD DATE
 DATE.      08.55.28 01-May-20:  END TIME
 STIM.      08.55.28 25-Feb-20:  START TIME
 DMF .             Drill Floor:  DRILL MEAS FROM
 DFST.                        :  DIST FSL TEXT
 DFWT.                        :  DIST FWL TEXT
 CNTY.                        :  COUNTY
 LOC .                        :  LOCATION
 LMF .             Drill Floor:  LOG MEASURED FROM
 VSNS.m                   6.09:  VERT SEC N/S
 VSEW.m                 -10.79:  VERT SEC E/W
 AGAP.m                  43.60:  AIR GAP
 DEP .m                 388.24:  DEPTH
 APD .m                  43.60:  DEPTH ABOVE PD
 WDMS.m                 151.80:  WD ELEV
 EGL .m                   0.00:  GROUND ELEVATION
 EPD .m                   0.00:  ELEVATION
 AZTC.deg                 6.12:  AZM TOTAL CORR
 GRDC.deg                 0.30:  GRID CORRECTION
 MDEC.deg                 6.42:  MAGNETIC DECL
 MDIP.deg                59.42:  MAGNETIC DIP
 MFLD.nT              50256.00:  MAGNETIC FIELD
 GVFD.g                   1.00:  GRAVITY FIELD
 VSDR.deg               159.57:  VERT SEC DIRECT
 TDD .m                5000.01:  TOTAL DEPTH (DRILLER)
 SDEP.m                 397.00:  START DEPTH
 DFSL.m                   0.00:  DISTANCE FSL
 DFWL.m                   0.00:  DISTANCE FWL
 UTMY.m             4431880.20:  UTM Y
 UTMX.m              538763.98:  UTM X
 WHEW.m                 -10.79:  WELL HEAD E/W
 WHNS.m                   6.09:  WELL HEAD N/S
 LONG.deg                51.45:  LONGITUDE
 LATI.deg                40.02:  LATITUDE
 TVDS.m                  43.60:  TVDSS CORRECTN
 EKB .m                  43.60:  KB ELEVATION
 EDF .m                  43.60:  DF ELEVATION
 MAGU.                 1847640:  MAGUTM CHECKSUM
 VSC .                       0:  VS TO CLOSURE
~Parameter Information Block
#MNEM.UNIT       Value        Description
#---------     -----------    ---------------------------
 AV  .mps                 1.30:  Ann Velocity 
 AVMX.mps                 1.90:  Max Ann Veloc 
 AZIF.deg               115.68:  Azm, Final 
 BHAT.                   Other:  BHA Type 
 BROT.°/30m               0.74:  Build Rotating 
 BS  .in                  8.50:  Bit Size 
 BTPL.psig              430.00:  Bit Press Loss 
 CABU.                      No:  Customer Abuse 
 COMM.                     ÌÍk:  Run Comments 1 
 TCS .hr                 51.31:  Time Ciculation Ended 
 CV  .mps                 2.52:  Crit Velocity 
 CVMX.mps                 2.62:  Max Crit Veloc 
 DD1 .          Teymur Aghayev:  Direct Drillr 1 
 DDSV.                   Other:  DD Service 
 DEFF.%                 100.00:  % Det Eff 
 DLRX.°/30m               1.62:  Dogleg Rot Max 
 DLSO.°/30m               0.74:  Dogleg Oriented 
 DLSX.°/30m               1.62:  Dogleg Str Max 
 DRET.      04.30.56 18-May-20:  Drill End Time 
 DRST.      04.30.56 18-May-20:  Drill Start Tim 
 DTIM.hr                  0.00:  Time Drilling 
 EDEP.m                5337.01:  End Depth 
 ENG1.      Artemiy Matviyanov:  Engineer 1 
 ENG2.      Bakhtiyar Jabbarli:  Engineer 2 
 ENG3.           Emil Huseynov:  Engineer 3 
 ETIM.      18.40.00 22-May-20:  End Time 
 FLOI.gpm               550.00:  Flow In 
 FLON.gpm               350.00:  Flow In Min 
 FLOS.cptm                0.00:  Fluid Loss 
 FLOX.gpm               600.00:  Flow In Max 
 HFLO.                      No:  High Flow 
 HPRE.                      No:  High Pressure 
 HTEM.                      No:  High Temp 
 HYDO.m                   1.80:  Hydro Offset 
 IFIN.deg                67.01:  Inc, Final 
 IMAX.deg                67.49:  Inc Max 
 IMIN.deg                66.50:  Inc Min 
 IMND.m                5144.79:  Inc Min Depth 
 IMXD.m                5116.12:  Inc Max Depth 
 JARR.                      No:  Jarring 
 LETM.      17.55.56 20-May-20:  Log End Time 
 LOST.hr                     0:  Lost Rig Time 
 LSTM.      04.30.56 18-May-20:  Log Start Time 
 MDCL.ppm            193153.00:  Mud Chlorides 
 MDES.     Inversion Oil/Synthetic:  Mud Desc 
 DFD .sg                  1.40:  Mud Density 
 MDMN.sg                  1.40:  Dens Mud Min 
 MDMX.sg                  1.41:  Dens Mud Max 
 MOIL.                      68:  Run Mud Oil % 
 MOWR.                   68:32:  Run Mud OWR 
 MSND.                     0.2:  Run Mud Sand % 
 MSOL.                    18.8:  Run Mud Solids% 
 DFV .spqt               80.00:  Mud Viscosity 
 MWOD.in                  6.75:  MWD Tool OD 
 MWSI.                      No:  Serv Intrp, MWD 
 OTIM.hr                104.84:  Time Operating 
 PMAX.psia            10690.93:  Press Op, Max 
 PV  .cP                 26.00:  Mud PV 
 RUN .                     900:  Run Number 
 ROPA.m/hr                0.00:  ROP Avg 
 ROPN.m/hr                0.00:  ROP Min 
 ROPX.m/hr                0.00:  ROP Max 
 RPMA.rpm               140.00:  RPM Surface Avg 
 RPMN.rpm                70.00:  RPM Surface Min 
 RPMX.rpm               140.00:  RPM Surface Max 
 RRUN.                    0900:  Rig Run Number 
 RTIM.hr                 36.00:  Time Reaming 
 SAZI.deg               115.72:  Azm, Start 
 SDEP.m                5337.01:  Start Depth 
 SIDD.                      No:  Serv Intrp, DD 
 SINC.deg                66.92:  Inc, Start 
 SPPA.psig             4400.00:  SPP Avg 
 SPPN.psig             1135.00:  SPP Min 
 SPPX.psig             4581.00:  SPP Max 
 STIM.      04.30.56 18-May-20:  Start Time 
 SVCS.                     MWD:  Services 
 SVER.                    9.20:  Sperry Version 
 TDAT.m                5337.01:  Tot Depth Attmp 
 TDDF.                      No:  Trip for DD 
 TFF .                      No:  Trip for Fail 
 TQAA.f-kp               23.00:  Torque Abs Avg 
 TQAN.f-kp               18.00:  Torque Abs Min 
 TQAX.f-kp               25.00:  Torque Abs Max 
 TRRT.°/30m               0.74:  Turn Rotating 
 MRT .                    HCIM:  Maximum Recorded Temperature 
 TTMX.degC               76.47:  Max Tool Temp 
 WBMN.klb                 0.00:  WOB Min 
 WITN.             Anar Khalil:  Customer Rep 
 WITN.      Kamran Keberlinski:  Customer Rep 2 
 WOBA.klb                 0.00:  WOB Avg 
 WOBX.klb                 0.00:  WOB Max 
 YP  .lhf2               27.00:  Yield Point 
~Curve Information Block
#MNEM.UNIT                 API CODE     Curve Description
#---------               -----------    ---------------------------
 TIME.HHMMSS            00 000 000 000:  GT Time & Date
 GTDEPTH.m              00 000 000 000:  GT Depth
 GTPQH.psia             00 000 000 000:  GT HR Quartz Pressure
 GTTQ.degC              00 000 000 000:  GT Quartz Temperature
 GTTN.NONE              00 000 000 000:  GT Test Number
 GTET.sec               00 000 000 000:  GT Elapsed Test Time
 GTTVD.m                00 000 000 000:  GT True Vertical Depth
#Other Information
#
#WARRANTY: Halliburton will use its best efforts to furnish customers with 
#accurate information and interpretations that are part of, and incident to, the services 
#provided.  However, Halliburton cannot and does not warrant the accuracy 
#or correctness of such information and interpretations.  Under no circumstances should any 
#such information or interpretation be relied upon as the sole basis for any drilling, 
#completion, production, or financial decision or any procedure involving any risk to the 
#safety of any drilling venture, drilling rig or its crew or any other third party.  The 
#Customer has full responsibility for all drilling, completion and production operation.  
#Halliburton makes no representations or warranties, either expressed or 
#implied, including, but not limited to, the implied warranties of merchantability or fitness 
#for a particular purpose, with respect to the services rendered.  In no event will 
#Halliburton be liable for failure to obtain any particular results or for 
#any damages, including, but not limited to, indirect, special or consequential damages, 
#resulting from the use of any information or interpretation provided by Halliburton.
#
~A           TIME           GTDEPTH  GTPQH  GTTQ  GTTN  GTET   GTTVD  
# ...
   03:51:50.046.20-May-2020 5064.01  524.95 68.93 8.00 529.15 2676.56
   03:51:50.246.20-May-2020 5064.01  524.82 68.93 8.00 529.35 2676.56
   03:51:50.446.20-May-2020 5064.01  525.50 68.93 8.00 529.55 2676.56
   03:51:50.646.20-May-2020 5064.01  525.78 68.93 8.00 529.75 2676.56
   03:51:50.846.20-May-2020 5064.01  526.14 68.93 8.00 529.95 2676.56
   03:51:51.046.20-May-2020 5064.01  526.56 68.93 8.00 530.15 2676.56
   03:51:51.246.20-May-2020 5064.01  526.56 68.93 8.00 530.35 2676.56
   03:51:51.446.20-May-2020 5064.01  527.01 68.93 8.00 530.55 2676.56
   03:51:51.646.20-May-2020 5064.01  527.42 68.93 8.00 530.75 2676.56
   03:51:51.846.20-May-2020 5064.01  527.75 68.93 8.00 530.95 2676.56
   03:51:52.046.20-May-2020 5064.01  528.13 68.93 8.00 531.15 2676.56
   03:51:52.246.20-May-2020 5064.01  528.13 68.93 8.00 531.35 2676.56
   03:51:52.446.20-May-2020 5064.01  528.86 68.93 8.00 531.55 2676.56
   03:51:52.646.20-May-2020 5064.01  529.18 68.93 8.00 531.75 2676.56
   03:51:52.846.20-May-2020 5064.01  529.12 68.93 8.00 531.95 2676.56
   03:51:53.047.20-May-2020 5064.01  529.81 68.93 8.00 532.15 2676.56
   03:51:53.247.20-May-2020 5064.01  529.81 68.93 8.00 532.35 2676.56
   03:51:53.447.20-May-2020 5064.01  530.38 68.93 8.00 532.55 2676.56
   03:51:53.647.20-May-2020 5064.01  530.79 68.93 8.00 532.75 2676.56
   03:51:53.847.20-May-2020 5064.01  530.63 68.93 8.00 532.95 2676.56
   03:51:54.047.20-May-2020 5064.01  531.28 68.93 8.00 533.15 2676.56
   03:51:54.247.20-May-2020 5064.01  531.28 68.93 8.00 533.35 2676.56
   03:51:54.447.20-May-2020 5064.01  531.91 68.93 8.00 533.55 2676.56
   03:51:54.647.20-May-2020 5064.01  532.36 68.93 8.00 533.75 2676.56
   03:51:54.847.20-May-2020 5064.01  532.68 68.93 8.00 533.95 2676.56
   03:51:55.047.20-May-2020 5064.01  533.04 68.93 8.00 534.15 2676.56
   03:51:55.247.20-May-2020 5064.01  533.04 68.93 8.00 534.35 2676.56
   03:51:55.447.20-May-2020 5064.01  533.74 68.93 8.00 534.55 2676.56
   03:51:55.647.20-May-2020 5064.01  534.10 68.93 8.00 534.75 2676.56
   03:51:55.847.20-May-2020 5064.01  534.53 68.93 8.00 534.95 2676.56
   03:51:56.047.20-May-2020 5064.01  534.90 68.93 8.00 535.15 2676.56
   03:51:56.247.20-May-2020 5064.01  534.90 68.93 8.00 535.35 2676.56
   03:51:56.447.20-May-2020 5064.01  535.67 68.93 8.00 535.55 2676.56
   03:51:56.648.20-May-2020 5064.01  536.04 68.93 8.00 535.75 2676.56
   03:51:56.848.20-May-2020 5064.01  535.97 68.93 8.00 535.95 2676.56
   03:51:57.048.20-May-2020 5064.01  536.63 68.93 8.00 536.15 2676.56
   03:51:57.248.20-May-2020 5064.01  536.63 68.93 8.00 536.35 2676.56
   03:51:57.448.20-May-2020 5064.01  536.94 68.93 8.00 536.55 2676.56
   03:51:57.648.20-May-2020 5064.01  537.56 68.93 8.00 536.75 2676.56
   03:51:57.848.20-May-2020 5064.01  537.80 68.93 8.00 536.95 2676.56
   03:51:58.048.20-May-2020 5064.01  538.19 68.93 8.00 537.15 2676.56
   03:51:58.248.20-May-2020 5064.01  538.19 68.93 8.00 537.35 2676.56
   03:51:58.448.20-May-2020 5064.01  538.73 68.93 8.00 537.55 2676.56
   03:51:58.648.20-May-2020 5064.01  539.09 68.93 8.00 537.75 2676.56
   03:51:58.848.20-May-2020 5064.01  539.44 68.93 8.00 537.95 2676.56
   03:51:59.048.20-May-2020 5064.01  539.36 68.93 8.00 538.15 2676.56
   03:51:59.248.20-May-2020 5064.01  539.36 68.93 8.00 538.35 2676.56
   03:51:59.448.20-May-2020 5064.01  540.20 68.93 8.00 538.55 2676.56
   03:51:59.648.20-May-2020 5064.01  540.57 68.93 8.00 538.75 2676.56
   03:51:59.848.20-May-2020 5064.01  540.69 68.93 8.00 538.95 2676.56
   03:52:00.048.20-May-2020 5064.01  541.06 68.93 8.00 539.15 2676.56
   03:52:00.249.20-May-2020 5064.01  541.06 68.93 8.00 539.35 2676.56
   03:52:00.449.20-May-2020 5064.01  541.84 68.93 8.00 539.55 2676.56
   03:52:00.649.20-May-2020 5064.01  542.13 68.93 8.00 539.75 2676.56
   03:52:00.849.20-May-2020 5064.01  542.46 68.93 8.00 539.95 2676.56
   03:52:01.049.20-May-2020 5064.01  542.83 68.93 8.00 540.15 2676.56
   03:52:01.249.20-May-2020 5064.01  542.83 68.93 8.00 540.35 2676.56
   03:52:01.449.20-May-2020 5064.01  543.59 68.93 8.00 540.55 2676.56
   03:52:01.649.20-May-2020 5064.01  544.01 68.93 8.00 540.75 2676.56
   03:52:01.849.20-May-2020 5064.01  544.36 68.93 8.00 540.95 2676.56
   03:52:02.049.20-May-2020 5064.01  544.72 68.93 8.00 541.15 2676.56
   03:52:02.249.20-May-2020 5064.01  544.72 68.93 8.00 541.35 2676.56
   03:52:02.449.20-May-2020 5064.01  545.48 68.93 8.00 541.55 2676.56
   03:52:02.649.20-May-2020 5064.01  545.87 68.93 8.00 541.75 2676.56
   03:52:02.849.20-May-2020 5064.01  545.98 68.93 8.00 541.95 2676.56
   03:52:03.049.20-May-2020 5064.01  546.39 68.93 8.00 542.15 2676.56
   03:52:03.249.20-May-2020 5064.01  546.39 68.93 8.00 542.35 2676.56
   03:52:03.449.20-May-2020 5064.01  547.23 68.93 8.00 542.55 2676.56
   03:52:03.650.20-May-2020 5064.01  547.11 68.93 8.00 542.75 2676.56
   03:52:03.850.20-May-2020 5064.01  547.75 68.93 8.00 542.95 2676.56
   03:52:04.050.20-May-2020 5064.01  548.01 68.93 8.00 543.15 2676.56
   03:52:04.250.20-May-2020 5064.01  548.35 68.93 8.00 543.35 2676.56
   03:52:04.450.20-May-2020 5064.01  548.32 68.93 8.00 543.55 2676.56
   03:52:04.650.20-May-2020 5064.01  548.86 68.93 8.00 543.75 2676.56
   03:52:04.850.20-May-2020 5064.01  549.23 68.93 8.00 543.95 2676.56
   03:52:05.050.20-May-2020 5064.01  549.57 68.93 8.00 544.15 2676.56
   03:52:05.250.20-May-2020 5064.01  549.69 68.93 8.00 544.35 2676.56
   03:52:05.450.20-May-2020 5064.01  550.05 68.93 8.00 544.55 2676.56
   03:52:05.650.20-May-2020 5064.01  550.41 68.93 8.00 544.75 2676.56
   03:52:05.850.20-May-2020 5064.01  550.75 68.93 8.00 544.95 2676.56
   03:52:06.050.20-May-2020 5064.01  551.11 68.93 8.00 545.15 2676.56
   03:52:06.250.20-May-2020 5064.01  551.11 68.93 8.00 545.35 2676.56
   03:52:06.450.20-May-2020 5064.01  551.67 68.93 8.00 545.55 2676.56
   03:52:06.650.20-May-2020 5064.01  551.91 68.93 8.00 545.75 2676.56
   03:52:06.850.20-May-2020 5064.01  552.32 68.93 8.00 545.95 2676.56
   03:52:07.050.20-May-2020 5064.01  552.75 68.93 8.00 546.15 2676.56
   03:52:07.251.20-May-2020 5064.01  552.75 68.93 8.00 546.35 2676.56
   03:52:07.451.20-May-2020 5064.01  553.39 68.93 8.00 546.55 2676.56
   03:52:07.651.20-May-2020 5064.01  553.77 68.93 8.00 546.75 2676.56
   03:52:07.851.20-May-2020 5064.01  554.15 68.93 8.00 546.95 2676.56
   03:52:08.051.20-May-2020 5064.01  554.54 68.93 8.00 547.15 2676.56
   03:52:08.251.20-May-2020 5064.01  554.54 68.93 8.00 547.35 2676.56
   03:52:08.451.20-May-2020 5064.01  555.29 68.93 8.00 547.55 2676.56
   03:52:08.651.20-May-2020 5064.01  555.66 68.93 8.00 547.75 2676.56
   03:52:08.851.20-May-2020 5064.01  556.02 68.93 8.00 547.95 2676.56
   03:52:09.051.20-May-2020 5064.01  556.42 68.93 8.00 548.16 2676.56
   03:52:09.251.20-May-2020 5064.01  556.42 68.93 8.00 548.36 2676.56
   03:52:09.451.20-May-2020 5064.01  556.95 68.93 8.00 548.56 2676.56
   03:52:09.651.20-May-2020 5064.01  557.29 68.93 8.00 548.76 2676.56
   03:52:09.851.20-May-2020 5064.01  557.45 68.93 8.00 548.96 2676.56
   03:52:10.051.20-May-2020 5064.01  557.86 68.93 8.00 549.16 2676.56
   03:52:10.251.20-May-2020 5064.01  557.86 68.93 8.00 549.36 2676.56
   03:52:10.451.20-May-2020 5064.01  558.57 68.93 8.00 549.56 2676.56
   03:52:10.651.20-May-2020 5064.01  558.90 68.93 8.00 549.76 2676.56
   03:52:10.852.20-May-2020 5064.01  558.80 68.93 8.00 549.96 2676.56
   03:52:11.052.20-May-2020 5064.01  559.36 68.93 8.00 550.16 2676.56
   03:52:11.252.20-May-2020 5064.01  559.36 68.93 8.00 550.36 2676.56
   03:52:11.452.20-May-2020 5064.01  559.99 68.93 8.00 550.56 2676.56
   03:52:11.652.20-May-2020 5064.01  560.21 68.93 8.00 550.76 2676.56
   03:52:11.852.20-May-2020 5064.01  560.57 68.93 8.00 550.96 2676.56
   03:52:12.052.20-May-2020 5064.01  560.96 68.93 8.00 551.16 2676.56
   03:52:12.252.20-May-2020 5064.01  560.96 68.93 8.00 551.36 2676.56
   03:52:12.452.20-May-2020 5064.01  561.66 68.93 8.00 551.56 2676.56
   03:52:12.652.20-May-2020 5064.01  562.02 68.93 8.00 551.76 2676.56
   03:52:12.852.20-May-2020 5064.01  561.90 68.93 8.00 551.96 2676.56
