~Version Information
 VERS.                  2.0:   CWLS log ASCII Standard -VERSION 2.0
 WRAP.                   NO:   One line per depth step
~Well Information Block
#MNEM.UNIT     VALUE/NAME     DESCRIPTION
#---------     -----------    ---------------------------
 STRT.S             21:41:59 19-May-20: START TIME 21:41:59 19-May-20
 STOP.S             21:48:44 19-May-20: STOP TIME  21:48:44 19-May-20
 STEP.S                   0.00: STEP TIME
 NULL.                 -999.25: NULL VALUE
 MDS .        Operator Entered:  MAG DATA SOURCE
 PDAT.          Mean Sea Level:  PERMANENT DATUM
 UNIT.                     N/A:  LOGGING EQUIPMENT ID
 DCON.         Sperry Drilling:  DIRECTNL CONTR
 DOE .                     N/A:  DOE NUMBER
 RIG .              East Azeri:  RIG NAME
 JOBN.        AZ-XX-0905856059:  JOB TICKET NUMB
 WELL.                     D36:  WELL NAME
 MWDS.                    Baku:  MWD SHOP
 SRVC.     Turan Drilling & Engineering:  CONTRACTOR
 FLD .                     ACG:  FIELD NAME
 CTRY.              Azerbaijan:  COUNTRY NAME
 PROV.                    Baku:  PROVINCE
 STAT.                    Baku:  STATE NAME
 REGN.                   EESSA:  REGION
 BASE.              Azerbaijan:  LOGGING EQUIPMENT BASE LOCATION
 UWI .                     N/A:  UNIQUE WELL IDENTIFIER
 API .                     N/A:  API NUMBER
 COMP.     BP Exploration (Caspian Sea) Ltd.:  COMPANY
 WTYP.                Deviated:  WELL TYPE
 SON .        AZ-XX-0905856059:  JOB NUMBER
 FTOP.          Formation Tops:  FORM TOPS DESC
 ILTD.               Lithology:  INTERP LTH DESC
 SVYD.                  Survey:  SURVEY DESC
 DMOD.             Drill Model:  DRILL MOD DESC
 HPTY.       Minimum Curvature:  HOLE POS TYPE
 NREF.                    Grid:  NORTH REFERENCE
 SPUD.               25-Feb-20:  SPUD DATE
 DATE.      08.55.28 01-May-20:  END TIME
 STIM.      08.55.28 25-Feb-20:  START TIME
 DMF .             Drill Floor:  DRILL MEAS FROM
 DFST.                        :  DIST FSL TEXT
 DFWT.                        :  DIST FWL TEXT
 CNTY.                        :  COUNTY
 LOC .                        :  LOCATION
 LMF .             Drill Floor:  LOG MEASURED FROM
 VSNS.m                   6.09:  VERT SEC N/S
 VSEW.m                 -10.79:  VERT SEC E/W
 AGAP.m                  43.60:  AIR GAP
 DEP .m                 388.24:  DEPTH
 APD .m                  43.60:  DEPTH ABOVE PD
 WDMS.m                 151.80:  WD ELEV
 EGL .m                   0.00:  GROUND ELEVATION
 EPD .m                   0.00:  ELEVATION
 AZTC.deg                 6.12:  AZM TOTAL CORR
 GRDC.deg                 0.30:  GRID CORRECTION
 MDEC.deg                 6.42:  MAGNETIC DECL
 MDIP.deg                59.42:  MAGNETIC DIP
 MFLD.nT              50256.00:  MAGNETIC FIELD
 GVFD.g                   1.00:  GRAVITY FIELD
 VSDR.deg               159.57:  VERT SEC DIRECT
 TDD .m                5000.01:  TOTAL DEPTH (DRILLER)
 SDEP.m                 397.00:  START DEPTH
 DFSL.m                   0.00:  DISTANCE FSL
 DFWL.m                   0.00:  DISTANCE FWL
 UTMY.m             4431880.20:  UTM Y
 UTMX.m              538763.98:  UTM X
 WHEW.m                 -10.79:  WELL HEAD E/W
 WHNS.m                   6.09:  WELL HEAD N/S
 LONG.deg                51.45:  LONGITUDE
 LATI.deg                40.02:  LATITUDE
 TVDS.m                  43.60:  TVDSS CORRECTN
 EKB .m                  43.60:  KB ELEVATION
 EDF .m                  43.60:  DF ELEVATION
 MAGU.                 1847640:  MAGUTM CHECKSUM
 VSC .                       0:  VS TO CLOSURE
~Parameter Information Block
#MNEM.UNIT       Value        Description
#---------     -----------    ---------------------------
 AV  .mps                 1.30:  Ann Velocity 
 AVMX.mps                 1.90:  Max Ann Veloc 
 AZIF.deg               115.68:  Azm, Final 
 BHAT.                   Other:  BHA Type 
 BROT.°/30m               0.74:  Build Rotating 
 BS  .in                  8.50:  Bit Size 
 BTPL.psig              430.00:  Bit Press Loss 
 CABU.                      No:  Customer Abuse 
 COMM.                     „äS:  Run Comments 1 
 TCS .hr                 51.31:  Time Ciculation Ended 
 CV  .mps                 2.52:  Crit Velocity 
 CVMX.mps                 2.62:  Max Crit Veloc 
 DD1 .          Teymur Aghayev:  Direct Drillr 1 
 DDSV.                   Other:  DD Service 
 DEFF.%                 100.00:  % Det Eff 
 DLRX.°/30m               1.62:  Dogleg Rot Max 
 DLSO.°/30m               0.74:  Dogleg Oriented 
 DLSX.°/30m               1.62:  Dogleg Str Max 
 DRET.      04.30.56 18-May-20:  Drill End Time 
 DRST.      04.30.56 18-May-20:  Drill Start Tim 
 DTIM.hr                  0.00:  Time Drilling 
 EDEP.m                5337.01:  End Depth 
 ENG1.      Artemiy Matviyanov:  Engineer 1 
 ENG2.      Bakhtiyar Jabbarli:  Engineer 2 
 ENG3.           Emil Huseynov:  Engineer 3 
 ETIM.      18.40.00 22-May-20:  End Time 
 FLOI.gpm               550.00:  Flow In 
 FLON.gpm               350.00:  Flow In Min 
 FLOS.cptm                0.00:  Fluid Loss 
 FLOX.gpm               600.00:  Flow In Max 
 HFLO.                      No:  High Flow 
 HPRE.                      No:  High Pressure 
 HTEM.                      No:  High Temp 
 HYDO.m                   1.80:  Hydro Offset 
 IFIN.deg                67.01:  Inc, Final 
 IMAX.deg                67.49:  Inc Max 
 IMIN.deg                66.50:  Inc Min 
 IMND.m                5144.79:  Inc Min Depth 
 IMXD.m                5116.12:  Inc Max Depth 
 JARR.                      No:  Jarring 
 LETM.      17.55.56 20-May-20:  Log End Time 
 LOST.hr                     0:  Lost Rig Time 
 LSTM.      04.30.56 18-May-20:  Log Start Time 
 MDCL.ppm            193153.00:  Mud Chlorides 
 MDES.     Inversion Oil/Synthetic:  Mud Desc 
 DFD .sg                  1.40:  Mud Density 
 MDMN.sg                  1.40:  Dens Mud Min 
 MDMX.sg                  1.41:  Dens Mud Max 
 MOIL.                      68:  Run Mud Oil % 
 MOWR.                   68:32:  Run Mud OWR 
 MSND.                     0.2:  Run Mud Sand % 
 MSOL.                    18.8:  Run Mud Solids% 
 DFV .spqt               80.00:  Mud Viscosity 
 MWOD.in                  6.75:  MWD Tool OD 
 MWSI.                      No:  Serv Intrp, MWD 
 OTIM.hr                104.84:  Time Operating 
 PMAX.psia            10690.93:  Press Op, Max 
 PV  .cP                 26.00:  Mud PV 
 RUN .                     900:  Run Number 
 ROPA.m/hr                0.00:  ROP Avg 
 ROPN.m/hr                0.00:  ROP Min 
 ROPX.m/hr                0.00:  ROP Max 
 RPMA.rpm               140.00:  RPM Surface Avg 
 RPMN.rpm                70.00:  RPM Surface Min 
 RPMX.rpm               140.00:  RPM Surface Max 
 RRUN.                    0900:  Rig Run Number 
 RTIM.hr                 36.00:  Time Reaming 
 SAZI.deg               115.72:  Azm, Start 
 SDEP.m                5337.01:  Start Depth 
 SIDD.                      No:  Serv Intrp, DD 
 SINC.deg                66.92:  Inc, Start 
 SPPA.psig             4400.00:  SPP Avg 
 SPPN.psig             1135.00:  SPP Min 
 SPPX.psig             4581.00:  SPP Max 
 STIM.      04.30.56 18-May-20:  Start Time 
 SVCS.                     MWD:  Services 
 SVER.                    9.20:  Sperry Version 
 TDAT.m                5337.01:  Tot Depth Attmp 
 TDDF.                      No:  Trip for DD 
 TFF .                      No:  Trip for Fail 
 TQAA.f-kp               23.00:  Torque Abs Avg 
 TQAN.f-kp               18.00:  Torque Abs Min 
 TQAX.f-kp               25.00:  Torque Abs Max 
 TRRT.°/30m               0.74:  Turn Rotating 
 MRT .                    HCIM:  Maximum Recorded Temperature 
 TTMX.degC               76.47:  Max Tool Temp 
 WBMN.klb                 0.00:  WOB Min 
 WITN.             Anar Khalil:  Customer Rep 
 WITN.      Kamran Keberlinski:  Customer Rep 2 
 WOBA.klb                 0.00:  WOB Avg 
 WOBX.klb                 0.00:  WOB Max 
 YP  .lhf2               27.00:  Yield Point 
~Curve Information Block
#MNEM.UNIT                 API CODE     Curve Description
#---------               -----------    ---------------------------
 TIME.HHMMSS            00 000 000 000:  GT Time & Date
 GTDEPTH.m              00 000 000 000:  GT Depth
 GTPQH.psia             00 000 000 000:  GT HR Quartz Pressure
 GTTQ.degC              00 000 000 000:  GT Quartz Temperature
 GTTN.NONE              00 000 000 000:  GT Test Number
 GTET.sec               00 000 000 000:  GT Elapsed Test Time
 GTTVD.m                00 000 000 000:  GT True Vertical Depth
#Other Information
#
#WARRANTY: Halliburton will use its best efforts to furnish customers with 
#accurate information and interpretations that are part of, and incident to, the services 
#provided.  However, Halliburton cannot and does not warrant the accuracy 
#or correctness of such information and interpretations.  Under no circumstances should any 
#such information or interpretation be relied upon as the sole basis for any drilling, 
#completion, production, or financial decision or any procedure involving any risk to the 
#safety of any drilling venture, drilling rig or its crew or any other third party.  The 
#Customer has full responsibility for all drilling, completion and production operation.  
#Halliburton makes no representations or warranties, either expressed or 
#implied, including, but not limited to, the implied warranties of merchantability or fitness 
#for a particular purpose, with respect to the services rendered.  In no event will 
#Halliburton be liable for failure to obtain any particular results or for 
#any damages, including, but not limited to, indirect, special or consequential damages, 
#resulting from the use of any information or interpretation provided by Halliburton.
#
~A           TIME           GTDEPTH  GTPQH  GTTQ  GTTN  GTET   GTTVD  
# ...
   21:44:17.400.19-May-2020 5137.01 4071.53 67.52 3.00 138.03 2705.05
   21:44:17.600.19-May-2020 5137.01 4071.53 67.52 3.00 138.23 2705.05
   21:44:17.801.19-May-2020 5137.01 4073.53 67.52 3.00 138.43 2705.05
   21:44:18.001.19-May-2020 5137.01 4073.92 67.52 3.00 138.63 2705.05
   21:44:18.201.19-May-2020 5137.01 4075.68 67.52 3.00 138.83 2705.05
   21:44:18.401.19-May-2020 5137.01 4076.61 67.52 3.00 139.03 2705.05
   21:44:18.601.19-May-2020 5137.01 4076.61 67.52 3.00 139.23 2705.05
   21:44:18.801.19-May-2020 5137.01 4078.74 67.52 3.00 139.43 2705.05
   21:44:19.001.19-May-2020 5137.01 4079.74 67.52 3.00 139.63 2705.05
   21:44:19.201.19-May-2020 5137.01 4079.97 67.52 3.00 139.83 2705.05
   21:44:19.401.19-May-2020 5137.01 4081.78 67.52 3.00 140.03 2705.05
   21:44:19.601.19-May-2020 5137.01 4081.78 67.52 3.00 140.23 2705.05
   21:44:19.801.19-May-2020 5137.01 4083.78 67.52 3.00 140.44 2705.05
   21:44:20.001.19-May-2020 5137.01 4084.65 67.52 3.00 140.64 2705.05
   21:44:20.201.19-May-2020 5137.01 4084.98 67.52 3.00 140.84 2705.05
   21:44:20.401.19-May-2020 5137.01 4086.65 67.52 3.00 141.04 2705.05
   21:44:20.601.19-May-2020 5137.01 4086.65 67.52 3.00 141.24 2705.05
   21:44:20.801.19-May-2020 5137.01 4088.61 67.52 3.00 141.44 2705.05
   21:44:21.001.19-May-2020 5137.01 4088.82 67.52 3.00 141.64 2705.05
   21:44:21.201.19-May-2020 5137.01 4090.51 67.52 3.00 141.84 2705.05
   21:44:21.401.19-May-2020 5137.01 4091.47 67.52 3.00 142.04 2705.05
   21:44:21.601.19-May-2020 5137.01 4091.47 67.52 3.00 142.24 2705.05
   21:44:21.802.19-May-2020 5137.01 4093.38 67.52 3.00 142.44 2705.05
   21:44:22.002.19-May-2020 5137.01 4094.30 67.52 3.00 142.64 2705.05
   21:44:22.202.19-May-2020 5137.01 4095.23 67.52 3.00 142.84 2705.05
   21:44:22.402.19-May-2020 5137.01 4096.13 67.52 3.00 143.04 2705.05
   21:44:22.602.19-May-2020 5137.01 4096.13 67.52 3.00 143.24 2705.05
   21:44:22.802.19-May-2020 5137.01 4098.01 67.52 3.00 143.44 2705.05
   21:44:23.002.19-May-2020 5137.01 4098.93 67.52 3.00 143.64 2705.05
   21:44:23.202.19-May-2020 5137.01 4099.82 67.52 3.00 143.84 2705.05
   21:44:23.402.19-May-2020 5137.01 4100.68 67.52 3.00 144.04 2705.05
   21:44:23.602.19-May-2020 5137.01 4100.68 67.52 3.00 144.24 2705.05
   21:44:23.802.19-May-2020 5137.01 4102.54 67.52 3.00 144.44 2705.05
   21:44:24.002.19-May-2020 5137.01 4102.70 67.52 3.00 144.64 2705.05
   21:44:24.202.19-May-2020 5137.01 4104.38 67.52 3.00 144.84 2705.05
   21:44:24.402.19-May-2020 5137.01 4105.14 67.52 3.00 145.04 2705.05
   21:44:24.602.19-May-2020 5137.01 4105.14 67.52 3.00 145.24 2705.05
   21:44:24.802.19-May-2020 5137.01 4106.38 67.52 3.00 145.44 2705.05
   21:44:25.002.19-May-2020 5137.01 4107.57 67.52 3.00 145.64 2705.05
   21:44:25.202.19-May-2020 5137.01 4108.62 67.52 3.00 145.84 2705.05
   21:44:25.402.19-May-2020 5137.01 4109.48 67.52 3.00 146.04 2705.05
   21:44:25.602.19-May-2020 5137.01 4109.48 67.52 3.00 146.24 2705.05
   21:44:25.803.19-May-2020 5137.01 4111.16 67.52 3.00 146.44 2705.05
   21:44:26.003.19-May-2020 5137.01 4111.23 67.52 3.00 146.64 2705.05
   21:44:26.203.19-May-2020 5137.01 4113.06 67.52 3.00 146.84 2705.05
   21:44:26.403.19-May-2020 5137.01 4113.69 67.52 3.00 147.04 2705.05
   21:44:26.603.19-May-2020 5137.01 4113.69 67.52 3.00 147.24 2705.05
   21:44:26.803.19-May-2020 5137.01 4115.47 67.52 3.00 147.44 2705.05
   21:44:27.003.19-May-2020 5137.01 4116.24 67.52 3.00 147.64 2705.05
   21:44:27.203.19-May-2020 5137.01 4117.05 67.52 3.00 147.84 2705.05
   21:44:27.403.19-May-2020 5137.01 4117.20 67.52 3.00 148.04 2705.05
   21:44:27.603.19-May-2020 5137.01 4117.20 67.52 3.00 148.24 2705.05
   21:44:27.803.19-May-2020 5137.01 4118.78 67.52 3.00 148.44 2705.05
   21:44:28.003.19-May-2020 5137.01 4120.32 67.52 3.00 148.64 2705.05
   21:44:28.203.19-May-2020 5137.01 4120.69 67.52 3.00 148.84 2705.05
   21:44:28.403.19-May-2020 5137.01 4121.74 67.52 3.00 149.04 2705.05
   21:44:28.603.19-May-2020 5137.01 4121.74 67.52 3.00 149.24 2705.05
   21:44:28.803.19-May-2020 5137.01 4123.57 67.52 3.00 149.44 2705.05
   21:44:29.003.19-May-2020 5137.01 4124.37 67.52 3.00 149.64 2705.05
   21:44:29.203.19-May-2020 5137.01 4125.11 67.52 3.00 149.84 2705.05
   21:44:29.403.19-May-2020 5137.01 4125.88 67.52 3.00 150.04 2705.05
   21:44:29.603.19-May-2020 5137.01 4125.88 67.52 3.00 150.24 2705.05
   21:44:29.804.19-May-2020 5137.01 4127.49 67.52 3.00 150.44 2705.05
   21:44:30.004.19-May-2020 5137.01 4128.26 67.52 3.00 150.64 2705.05
   21:44:30.204.19-May-2020 5137.01 4128.99 67.52 3.00 150.84 2705.05
   21:44:30.404.19-May-2020 5137.01 4129.79 67.52 3.00 151.04 2705.05
   21:44:30.604.19-May-2020 5137.01 4129.79 67.52 3.00 151.24 2705.05
   21:44:30.804.19-May-2020 5137.01 4131.31 67.52 3.00 151.44 2705.05
   21:44:31.004.19-May-2020 5137.01 4132.07 67.52 3.00 151.64 2705.05
   21:44:31.204.19-May-2020 5137.01 4132.15 67.52 3.00 151.84 2705.05
   21:44:31.404.19-May-2020 5137.01 4016.25 67.52 3.00 152.04 2705.05
   21:44:31.604.19-May-2020 5137.01 4016.25 67.52 3.00 152.24 2705.05
   21:44:31.804.19-May-2020 5137.01 2283.79 67.52 3.00 152.44 2705.05
   21:44:32.004.19-May-2020 5137.01 1528.65 67.52 3.00 152.64 2705.05
   21:44:32.204.19-May-2020 5137.01  892.96 67.52 3.00 152.84 2705.05
   21:44:32.404.19-May-2020 5137.01  609.40 67.52 3.00 153.04 2705.05
   21:44:32.604.19-May-2020 5137.01  609.40 67.52 3.00 153.24 2705.05
   21:44:32.804.19-May-2020 5137.01  523.38 67.52 3.00 153.44 2705.05
   21:44:33.004.19-May-2020 5137.01  523.08 67.52 3.00 153.64 2705.05
   21:44:33.204.19-May-2020 5137.01  523.31 67.52 3.00 153.84 2705.05
   21:44:33.404.19-May-2020 5137.01  520.89 67.51 3.00 154.04 2705.05
   21:44:33.604.19-May-2020 5137.01  520.89 67.51 3.00 154.24 2705.05
   21:44:33.805.19-May-2020 5137.01  518.78 67.51 3.00 154.44 2705.05
   21:44:34.005.19-May-2020 5137.01  517.23 67.51 3.00 154.64 2705.05
   21:44:34.205.19-May-2020 5137.01  514.23 67.50 3.00 154.84 2705.05
   21:44:34.405.19-May-2020 5137.01  505.99 67.50 3.00 155.04 2705.05
   21:44:34.605.19-May-2020 5137.01  505.99 67.50 3.00 155.24 2705.05
   21:44:34.805.19-May-2020 5137.01  501.98 67.50 3.00 155.44 2705.05
   21:44:35.005.19-May-2020 5137.01  504.95 67.49 3.00 155.64 2705.05
   21:44:35.205.19-May-2020 5137.01  515.68 67.49 3.00 155.84 2705.05
   21:44:35.405.19-May-2020 5137.01  514.56 67.49 3.00 156.04 2705.05
   21:44:35.605.19-May-2020 5137.01  514.56 67.49 3.00 156.24 2705.05
   21:44:35.805.19-May-2020 5137.01  512.81 67.48 3.00 156.44 2705.05
   21:44:36.005.19-May-2020 5137.01  512.72 67.48 3.00 156.64 2705.05
   21:44:36.205.19-May-2020 5137.01  514.95 67.48 3.00 156.84 2705.05
   21:44:36.405.19-May-2020 5137.01  513.46 67.47 3.00 157.04 2705.05
   21:44:36.605.19-May-2020 5137.01  513.46 67.47 3.00 157.24 2705.05
   21:44:36.805.19-May-2020 5137.01  505.34 67.47 3.00 157.44 2705.05
   21:44:37.005.19-May-2020 5137.01  500.36 67.47 3.00 157.64 2705.05
   21:44:37.205.19-May-2020 5137.01  496.71 67.46 3.00 157.84 2705.05
   21:44:37.405.19-May-2020 5137.01  490.83 67.46 3.00 158.04 2705.05
   21:44:37.605.19-May-2020 5137.01  487.92 67.46 3.00 158.24 2705.05
   21:44:37.806.19-May-2020 5137.01  492.27 67.46 3.00 158.44 2705.05
   21:44:38.006.19-May-2020 5137.01  491.66 67.45 3.00 158.64 2705.05
   21:44:38.206.19-May-2020 5137.01  491.10 67.45 3.00 158.84 2705.05
   21:44:38.406.19-May-2020 5137.01  488.29 67.45 3.00 159.04 2705.05
   21:44:38.606.19-May-2020 5137.01  481.77 67.45 3.00 159.24 2705.05
   21:44:38.806.19-May-2020 5137.01  483.92 67.45 3.00 159.44 2705.05
   21:44:39.006.19-May-2020 5137.01  502.12 67.44 3.00 159.64 2705.05
   21:44:39.206.19-May-2020 5137.01  511.02 67.44 3.00 159.84 2705.05
   21:44:39.406.19-May-2020 5137.01  517.44 67.44 3.00 160.04 2705.05
   21:44:39.606.19-May-2020 5137.01  517.44 67.44 3.00 160.24 2705.05
   21:44:39.806.19-May-2020 5137.01  511.68 67.44 3.00 160.44 2705.05
   21:44:40.006.19-May-2020 5137.01  505.75 67.44 3.00 160.64 2705.05
   21:44:40.206.19-May-2020 5137.01  499.72 67.43 3.00 160.84 2705.05
