~Version Information
 VERS.                  2.0:   CWLS log ASCII Standard -VERSION 2.0
 WRAP.                   NO:   One line per depth step
~Well Information Block
#MNEM.UNIT     VALUE/NAME     DESCRIPTION
#---------     -----------    ---------------------------
 STRT.S             17:37:07 19-May-20: START TIME 17:37:07 19-May-20
 STOP.S             17:43:47 19-May-20: STOP TIME  17:43:47 19-May-20
 STEP.S                   0.00: STEP TIME
 NULL.                 -999.25: NULL VALUE
 MDS .        Operator Entered:  MAG DATA SOURCE
 PDAT.          Mean Sea Level:  PERMANENT DATUM
 UNIT.                     N/A:  LOGGING EQUIPMENT ID
 DCON.         Sperry Drilling:  DIRECTNL CONTR
 DOE .                     N/A:  DOE NUMBER
 RIG .              East Azeri:  RIG NAME
 JOBN.        AZ-XX-0905856059:  JOB TICKET NUMB
 WELL.                     D36:  WELL NAME
 MWDS.                    Baku:  MWD SHOP
 SRVC.     Turan Drilling & Engineering:  CONTRACTOR
 FLD .                     ACG:  FIELD NAME
 CTRY.              Azerbaijan:  COUNTRY NAME
 PROV.                    Baku:  PROVINCE
 STAT.                    Baku:  STATE NAME
 REGN.                   EESSA:  REGION
 BASE.              Azerbaijan:  LOGGING EQUIPMENT BASE LOCATION
 UWI .                     N/A:  UNIQUE WELL IDENTIFIER
 API .                     N/A:  API NUMBER
 COMP.     BP Exploration (Caspian Sea) Ltd.:  COMPANY
 WTYP.                Deviated:  WELL TYPE
 SON .        AZ-XX-0905856059:  JOB NUMBER
 FTOP.          Formation Tops:  FORM TOPS DESC
 ILTD.               Lithology:  INTERP LTH DESC
 SVYD.                  Survey:  SURVEY DESC
 DMOD.             Drill Model:  DRILL MOD DESC
 HPTY.       Minimum Curvature:  HOLE POS TYPE
 NREF.                    Grid:  NORTH REFERENCE
 SPUD.               25-Feb-20:  SPUD DATE
 DATE.      08.55.28 01-May-20:  END TIME
 STIM.      08.55.28 25-Feb-20:  START TIME
 DMF .             Drill Floor:  DRILL MEAS FROM
 DFST.                        :  DIST FSL TEXT
 DFWT.                        :  DIST FWL TEXT
 CNTY.                        :  COUNTY
 LOC .                        :  LOCATION
 LMF .             Drill Floor:  LOG MEASURED FROM
 VSNS.m                   6.09:  VERT SEC N/S
 VSEW.m                 -10.79:  VERT SEC E/W
 AGAP.m                  43.60:  AIR GAP
 DEP .m                 388.24:  DEPTH
 APD .m                  43.60:  DEPTH ABOVE PD
 WDMS.m                 151.80:  WD ELEV
 EGL .m                   0.00:  GROUND ELEVATION
 EPD .m                   0.00:  ELEVATION
 AZTC.deg                 6.12:  AZM TOTAL CORR
 GRDC.deg                 0.30:  GRID CORRECTION
 MDEC.deg                 6.42:  MAGNETIC DECL
 MDIP.deg                59.42:  MAGNETIC DIP
 MFLD.nT              50256.00:  MAGNETIC FIELD
 GVFD.g                   1.00:  GRAVITY FIELD
 VSDR.deg               159.57:  VERT SEC DIRECT
 TDD .m                5000.01:  TOTAL DEPTH (DRILLER)
 SDEP.m                 397.00:  START DEPTH
 DFSL.m                   0.00:  DISTANCE FSL
 DFWL.m                   0.00:  DISTANCE FWL
 UTMY.m             4431880.20:  UTM Y
 UTMX.m              538763.98:  UTM X
 WHEW.m                 -10.79:  WELL HEAD E/W
 WHNS.m                   6.09:  WELL HEAD N/S
 LONG.deg                51.45:  LONGITUDE
 LATI.deg                40.02:  LATITUDE
 TVDS.m                  43.60:  TVDSS CORRECTN
 EKB .m                  43.60:  KB ELEVATION
 EDF .m                  43.60:  DF ELEVATION
 MAGU.                 1847640:  MAGUTM CHECKSUM
 VSC .                       0:  VS TO CLOSURE
~Parameter Information Block
#MNEM.UNIT       Value        Description
#---------     -----------    ---------------------------
 AV  .mps                 1.30:  Ann Velocity 
 AVMX.mps                 1.90:  Max Ann Veloc 
 AZIF.deg               115.68:  Azm, Final 
 BHAT.                   Other:  BHA Type 
 BROT.°/30m               0.74:  Build Rotating 
 BS  .in                  8.50:  Bit Size 
 BTPL.psig              430.00:  Bit Press Loss 
 CABU.                      No:  Customer Abuse 
 COMM.                     t9l:  Run Comments 1 
 TCS .hr                 51.31:  Time Ciculation Ended 
 CV  .mps                 2.52:  Crit Velocity 
 CVMX.mps                 2.62:  Max Crit Veloc 
 DD1 .          Teymur Aghayev:  Direct Drillr 1 
 DDSV.                   Other:  DD Service 
 DEFF.%                 100.00:  % Det Eff 
 DLRX.°/30m               1.62:  Dogleg Rot Max 
 DLSO.°/30m               0.74:  Dogleg Oriented 
 DLSX.°/30m               1.62:  Dogleg Str Max 
 DRET.      04.30.56 18-May-20:  Drill End Time 
 DRST.      04.30.56 18-May-20:  Drill Start Tim 
 DTIM.hr                  0.00:  Time Drilling 
 EDEP.m                5337.01:  End Depth 
 ENG1.      Artemiy Matviyanov:  Engineer 1 
 ENG2.      Bakhtiyar Jabbarli:  Engineer 2 
 ENG3.           Emil Huseynov:  Engineer 3 
 ETIM.      18.40.00 22-May-20:  End Time 
 FLOI.gpm               550.00:  Flow In 
 FLON.gpm               350.00:  Flow In Min 
 FLOS.cptm                0.00:  Fluid Loss 
 FLOX.gpm               600.00:  Flow In Max 
 HFLO.                      No:  High Flow 
 HPRE.                      No:  High Pressure 
 HTEM.                      No:  High Temp 
 HYDO.m                   1.80:  Hydro Offset 
 IFIN.deg                67.01:  Inc, Final 
 IMAX.deg                67.49:  Inc Max 
 IMIN.deg                66.50:  Inc Min 
 IMND.m                5144.79:  Inc Min Depth 
 IMXD.m                5116.12:  Inc Max Depth 
 JARR.                      No:  Jarring 
 LETM.      17.55.56 20-May-20:  Log End Time 
 LOST.hr                     0:  Lost Rig Time 
 LSTM.      04.30.56 18-May-20:  Log Start Time 
 MDCL.ppm            193153.00:  Mud Chlorides 
 MDES.     Inversion Oil/Synthetic:  Mud Desc 
 DFD .sg                  1.40:  Mud Density 
 MDMN.sg                  1.40:  Dens Mud Min 
 MDMX.sg                  1.41:  Dens Mud Max 
 MOIL.                      68:  Run Mud Oil % 
 MOWR.                   68:32:  Run Mud OWR 
 MSND.                     0.2:  Run Mud Sand % 
 MSOL.                    18.8:  Run Mud Solids% 
 DFV .spqt               80.00:  Mud Viscosity 
 MWOD.in                  6.75:  MWD Tool OD 
 MWSI.                      No:  Serv Intrp, MWD 
 OTIM.hr                104.84:  Time Operating 
 PMAX.psia            10690.93:  Press Op, Max 
 PV  .cP                 26.00:  Mud PV 
 RUN .                     900:  Run Number 
 ROPA.m/hr                0.00:  ROP Avg 
 ROPN.m/hr                0.00:  ROP Min 
 ROPX.m/hr                0.00:  ROP Max 
 RPMA.rpm               140.00:  RPM Surface Avg 
 RPMN.rpm                70.00:  RPM Surface Min 
 RPMX.rpm               140.00:  RPM Surface Max 
 RRUN.                    0900:  Rig Run Number 
 RTIM.hr                 36.00:  Time Reaming 
 SAZI.deg               115.72:  Azm, Start 
 SDEP.m                5337.01:  Start Depth 
 SIDD.                      No:  Serv Intrp, DD 
 SINC.deg                66.92:  Inc, Start 
 SPPA.psig             4400.00:  SPP Avg 
 SPPN.psig             1135.00:  SPP Min 
 SPPX.psig             4581.00:  SPP Max 
 STIM.      04.30.56 18-May-20:  Start Time 
 SVCS.                     MWD:  Services 
 SVER.                    9.20:  Sperry Version 
 TDAT.m                5337.01:  Tot Depth Attmp 
 TDDF.                      No:  Trip for DD 
 TFF .                      No:  Trip for Fail 
 TQAA.f-kp               23.00:  Torque Abs Avg 
 TQAN.f-kp               18.00:  Torque Abs Min 
 TQAX.f-kp               25.00:  Torque Abs Max 
 TRRT.°/30m               0.74:  Turn Rotating 
 MRT .                    HCIM:  Maximum Recorded Temperature 
 TTMX.degC               76.47:  Max Tool Temp 
 WBMN.klb                 0.00:  WOB Min 
 WITN.             Anar Khalil:  Customer Rep 
 WITN.      Kamran Keberlinski:  Customer Rep 2 
 WOBA.klb                 0.00:  WOB Avg 
 WOBX.klb                 0.00:  WOB Max 
 YP  .lhf2               27.00:  Yield Point 
~Curve Information Block
#MNEM.UNIT                 API CODE     Curve Description
#---------               -----------    ---------------------------
 TIME.HHMMSS            00 000 000 000:  GT Time & Date
 GTDEPTH.m              00 000 000 000:  GT Depth
 GTPQH.psia             00 000 000 000:  GT HR Quartz Pressure
 GTTQ.degC              00 000 000 000:  GT Quartz Temperature
 GTTN.NONE              00 000 000 000:  GT Test Number
 GTET.sec               00 000 000 000:  GT Elapsed Test Time
 GTTVD.m                00 000 000 000:  GT True Vertical Depth
#Other Information
#
#WARRANTY: Halliburton will use its best efforts to furnish customers with 
#accurate information and interpretations that are part of, and incident to, the services 
#provided.  However, Halliburton cannot and does not warrant the accuracy 
#or correctness of such information and interpretations.  Under no circumstances should any 
#such information or interpretation be relied upon as the sole basis for any drilling, 
#completion, production, or financial decision or any procedure involving any risk to the 
#safety of any drilling venture, drilling rig or its crew or any other third party.  The 
#Customer has full responsibility for all drilling, completion and production operation.  
#Halliburton makes no representations or warranties, either expressed or 
#implied, including, but not limited to, the implied warranties of merchantability or fitness 
#for a particular purpose, with respect to the services rendered.  In no event will 
#Halliburton be liable for failure to obtain any particular results or for 
#any damages, including, but not limited to, indirect, special or consequential damages, 
#resulting from the use of any information or interpretation provided by Halliburton.
#
~A           TIME           GTDEPTH  GTPQH  GTTQ  GTTN  GTET   GTTVD  
# ...
   17:38:16.133.19-May-2020 5195.01 1190.81 66.93 2.00  69.01 2727.85
   17:38:16.334.19-May-2020 5195.01 1195.90 66.93 2.00  69.21 2727.85
   17:38:16.534.19-May-2020 5195.01 1200.88 66.93 2.00  69.41 2727.85
   17:38:16.734.19-May-2020 5195.01 1205.82 66.93 2.00  69.61 2727.85
   17:38:16.934.19-May-2020 5195.01 1210.72 66.93 2.00  69.81 2727.85
   17:38:17.134.19-May-2020 5195.01 1215.57 66.93 2.00  70.01 2727.85
   17:38:17.334.19-May-2020 5195.01 1215.57 66.93 2.00  70.21 2727.85
   17:38:17.534.19-May-2020 5195.01 1224.91 66.93 2.00  70.41 2727.85
   17:38:17.734.19-May-2020 5195.01 1230.07 66.93 2.00  70.61 2727.85
   17:38:17.934.19-May-2020 5195.01 1234.84 66.93 2.00  70.81 2727.85
   17:38:18.134.19-May-2020 5195.01 1239.40 66.93 2.00  71.01 2727.85
   17:38:18.334.19-May-2020 5195.01 1239.40 66.93 2.00  71.21 2727.85
   17:38:18.534.19-May-2020 5195.01 1249.31 66.94 2.00  71.41 2727.85
   17:38:18.734.19-May-2020 5195.01 1254.09 66.94 2.00  71.61 2727.85
   17:38:18.934.19-May-2020 5195.01 1258.78 66.94 2.00  71.81 2727.85
   17:38:19.134.19-May-2020 5195.01 1263.57 66.94 2.00  72.01 2727.85
   17:38:19.334.19-May-2020 5195.01 1263.57 66.94 2.00  72.21 2727.85
   17:38:19.534.19-May-2020 5195.01 1272.73 66.94 2.00  72.41 2727.85
   17:38:19.734.19-May-2020 5195.01 1277.72 66.94 2.00  72.61 2727.85
   17:38:19.934.19-May-2020 5195.01 1282.59 66.94 2.00  72.81 2727.85
   17:38:20.134.19-May-2020 5195.01 1287.41 66.94 2.00  73.01 2727.85
   17:38:20.334.19-May-2020 5195.01 1292.18 66.94 2.00  73.21 2727.85
   17:38:20.534.19-May-2020 5195.01 1296.85 66.94 2.00  73.41 2727.85
   17:38:20.734.19-May-2020 5195.01 1300.99 66.94 2.00  73.61 2727.85
   17:38:20.934.19-May-2020 5195.01 1306.40 66.94 2.00  73.81 2727.85
   17:38:21.134.19-May-2020 5195.01 1311.26 66.94 2.00  74.01 2727.85
   17:38:21.334.19-May-2020 5195.01 1311.26 66.94 2.00  74.21 2727.85
   17:38:21.534.19-May-2020 5195.01 1320.92 66.94 2.00  74.41 2727.85
   17:38:21.734.19-May-2020 5195.01 1325.43 66.94 2.00  74.61 2727.85
   17:38:21.934.19-May-2020 5195.01 1330.54 66.95 2.00  74.81 2727.85
   17:38:22.134.19-May-2020 5195.01 1335.46 66.95 2.00  75.01 2727.85
   17:38:22.334.19-May-2020 5195.01 1335.46 66.95 2.00  75.21 2727.85
   17:38:22.534.19-May-2020 5195.01 1345.01 66.95 2.00  75.41 2727.85
   17:38:22.734.19-May-2020 5195.01 1349.93 66.95 2.00  75.61 2727.85
   17:38:22.934.19-May-2020 5195.01 1354.55 66.95 2.00  75.81 2727.85
   17:38:23.134.19-May-2020 5195.01 1359.16 66.95 2.00  76.01 2727.85
   17:38:23.334.19-May-2020 5195.01 1359.16 66.95 2.00  76.21 2727.85
   17:38:23.534.19-May-2020 5195.01 1368.11 66.95 2.00  76.41 2727.85
   17:38:23.734.19-May-2020 5195.01 1372.58 66.95 2.00  76.61 2727.85
   17:38:23.934.19-May-2020 5195.01 1377.01 66.95 2.00  76.81 2727.85
   17:38:24.134.19-May-2020 5195.01 1381.43 66.95 2.00  77.01 2727.85
   17:38:24.334.19-May-2020 5195.01 1385.71 66.95 2.00  77.21 2727.85
   17:38:24.535.19-May-2020 5195.01 1390.07 66.95 2.00  77.41 2727.85
   17:38:24.735.19-May-2020 5195.01 1393.84 66.95 2.00  77.61 2727.85
   17:38:24.935.19-May-2020 5195.01 1398.61 66.95 2.00  77.81 2727.85
   17:38:25.135.19-May-2020 5195.01 1402.96 66.95 2.00  78.01 2727.85
   17:38:25.335.19-May-2020 5195.01 1402.96 66.95 2.00  78.21 2727.85
   17:38:25.535.19-May-2020 5195.01 1410.95 66.95 2.00  78.41 2727.85
   17:38:25.735.19-May-2020 5195.01 1415.91 66.96 2.00  78.61 2727.85
   17:38:25.935.19-May-2020 5195.01 1420.67 66.96 2.00  78.81 2727.85
   17:38:26.135.19-May-2020 5195.01 1425.03 66.96 2.00  79.01 2727.85
   17:38:26.335.19-May-2020 5195.01 1425.03 66.96 2.00  79.21 2727.85
   17:38:26.535.19-May-2020 5195.01 1433.85 66.96 2.00  79.41 2727.85
   17:38:26.735.19-May-2020 5195.01 1438.23 66.96 2.00  79.61 2727.85
   17:38:26.935.19-May-2020 5195.01 1442.25 66.96 2.00  79.81 2727.85
   17:38:27.135.19-May-2020 5195.01 1448.70 66.96 2.00  80.01 2727.85
   17:38:27.335.19-May-2020 5195.01 1448.70 66.96 2.00  80.21 2727.85
   17:38:27.535.19-May-2020 5195.01 1461.57 66.96 2.00  80.41 2727.85
   17:38:27.735.19-May-2020 5195.01 1465.66 66.96 2.00  80.61 2727.85
   17:38:27.935.19-May-2020 5195.01 1470.63 66.96 2.00  80.81 2727.85
   17:38:28.135.19-May-2020 5195.01 1475.26 66.96 2.00  81.01 2727.85
   17:38:28.335.19-May-2020 5195.01 1475.26 66.96 2.00  81.21 2727.85
   17:38:28.535.19-May-2020 5195.01 1483.92 66.96 2.00  81.41 2727.85
   17:38:28.735.19-May-2020 5195.01 1488.13 66.96 2.00  81.61 2727.85
   17:38:28.935.19-May-2020 5195.01 1492.31 66.96 2.00  81.81 2727.85
   17:38:29.135.19-May-2020 5195.01 1496.35 66.96 2.00  82.01 2727.85
   17:38:29.335.19-May-2020 5195.01 1496.35 66.96 2.00  82.21 2727.85
   17:38:29.535.19-May-2020 5195.01 1506.18 66.96 2.00  82.41 2727.85
   17:38:29.735.19-May-2020 5195.01 1510.25 66.96 2.00  82.61 2727.85
   17:38:29.935.19-May-2020 5195.01 1514.60 66.96 2.00  82.81 2727.85
   17:38:30.135.19-May-2020 5195.01 1518.66 66.97 2.00  83.01 2727.85
   17:38:30.335.19-May-2020 5195.01 1518.66 66.97 2.00  83.21 2727.85
   17:38:30.535.19-May-2020 5195.01 1526.99 66.97 2.00  83.41 2727.85
   17:38:30.735.19-May-2020 5195.01 1531.05 66.97 2.00  83.61 2727.85
   17:38:30.935.19-May-2020 5195.01 1535.12 66.97 2.00  83.81 2727.85
   17:38:31.135.19-May-2020 5195.01 1539.02 66.97 2.00  84.01 2727.85
   17:38:31.335.19-May-2020 5195.01 1539.02 66.97 2.00  84.21 2727.85
   17:38:31.535.19-May-2020 5195.01 1546.96 66.97 2.00  84.41 2727.85
   17:38:31.735.19-May-2020 5195.01 1550.87 66.97 2.00  84.61 2727.85
   17:38:31.935.19-May-2020 5195.01 1554.54 66.97 2.00  84.81 2727.85
   17:38:32.135.19-May-2020 5195.01 1558.17 66.97 2.00  85.01 2727.85
   17:38:32.335.19-May-2020 5195.01 1562.21 66.97 2.00  85.21 2727.85
   17:38:32.535.19-May-2020 5195.01 1565.97 66.97 2.00  85.41 2727.85
   17:38:32.735.19-May-2020 5195.01 1569.87 66.97 2.00  85.61 2727.85
   17:38:32.936.19-May-2020 5195.01 1573.27 66.97 2.00  85.81 2727.85
   17:38:33.136.19-May-2020 5195.01 1577.45 66.97 2.00  86.01 2727.85
   17:38:33.336.19-May-2020 5195.01 1577.45 66.97 2.00  86.21 2727.85
   17:38:33.536.19-May-2020 5195.01 1585.13 66.97 2.00  86.41 2727.85
   17:38:33.736.19-May-2020 5195.01 1588.55 66.97 2.00  86.61 2727.85
   17:38:33.936.19-May-2020 5195.01 1592.64 66.97 2.00  86.81 2727.85
   17:38:34.136.19-May-2020 5195.01 1596.52 66.97 2.00  87.01 2727.85
   17:38:34.336.19-May-2020 5195.01 1596.52 66.97 2.00  87.21 2727.85
   17:38:34.536.19-May-2020 5195.01 1604.03 66.97 2.00  87.41 2727.85
   17:38:34.736.19-May-2020 5195.01 1607.51 66.97 2.00  87.61 2727.85
   17:38:34.936.19-May-2020 5195.01 1611.25 66.98 2.00  87.81 2727.85
   17:38:35.136.19-May-2020 5195.01 1615.21 66.98 2.00  88.01 2727.85
   17:38:35.336.19-May-2020 5195.01 1615.21 66.98 2.00  88.21 2727.85
   17:38:35.536.19-May-2020 5195.01 1622.56 66.98 2.00  88.41 2727.85
   17:38:35.736.19-May-2020 5195.01 1626.16 66.98 2.00  88.61 2727.85
   17:38:35.936.19-May-2020 5195.01 1630.23 66.98 2.00  88.81 2727.85
   17:38:36.136.19-May-2020 5195.01 1633.94 66.98 2.00  89.01 2727.85
   17:38:36.336.19-May-2020 5195.01 1637.77 66.98 2.00  89.21 2727.85
   17:38:36.536.19-May-2020 5195.01 1641.65 66.98 2.00  89.41 2727.85
   17:38:36.736.19-May-2020 5195.01 1645.53 66.98 2.00  89.61 2727.85
   17:38:36.936.19-May-2020 5195.01 1649.29 66.98 2.00  89.81 2727.85
   17:38:37.136.19-May-2020 5195.01 1652.88 66.98 2.00  90.01 2727.85
   17:38:37.336.19-May-2020 5195.01 1652.88 66.98 2.00  90.21 2727.85
   17:38:37.536.19-May-2020 5195.01 1660.03 66.98 2.00  90.41 2727.85
   17:38:37.736.19-May-2020 5195.01 1663.64 66.98 2.00  90.61 2727.85
   17:38:37.936.19-May-2020 5195.01 1667.12 66.98 2.00  90.81 2727.85
   17:38:38.136.19-May-2020 5195.01 1670.67 66.98 2.00  91.01 2727.85
   17:38:38.336.19-May-2020 5195.01 1670.67 66.98 2.00  91.21 2727.85
   17:38:38.536.19-May-2020 5195.01 1677.42 66.98 2.00  91.41 2727.85
   17:38:38.736.19-May-2020 5195.01 1680.88 66.98 2.00  91.61 2727.85
   17:38:38.936.19-May-2020 5195.01 1684.59 66.98 2.00  91.81 2727.85
