~Version Information
 VERS.                  2.0:   CWLS log ASCII Standard -VERSION 2.0
 WRAP.                   NO:   One line per depth step
~Well Information Block
#MNEM.UNIT     VALUE/NAME     DESCRIPTION
#---------     -----------    ---------------------------
 STRT.S             23:11:25 19-May-20: START TIME 23:11:25 19-May-20
 STOP.S             23:19:39 19-May-20: STOP TIME  23:19:39 19-May-20
 STEP.S                   0.00: STEP TIME
 NULL.                 -999.25: NULL VALUE
 MDS .        Operator Entered:  MAG DATA SOURCE
 PDAT.          Mean Sea Level:  PERMANENT DATUM
 UNIT.                     N/A:  LOGGING EQUIPMENT ID
 DCON.         Sperry Drilling:  DIRECTNL CONTR
 DOE .                     N/A:  DOE NUMBER
 RIG .              East Azeri:  RIG NAME
 JOBN.        AZ-XX-0905856059:  JOB TICKET NUMB
 WELL.                     D36:  WELL NAME
 MWDS.                    Baku:  MWD SHOP
 SRVC.     Turan Drilling & Engineering:  CONTRACTOR
 FLD .                     ACG:  FIELD NAME
 CTRY.              Azerbaijan:  COUNTRY NAME
 PROV.                    Baku:  PROVINCE
 STAT.                    Baku:  STATE NAME
 REGN.                   EESSA:  REGION
 BASE.              Azerbaijan:  LOGGING EQUIPMENT BASE LOCATION
 UWI .                     N/A:  UNIQUE WELL IDENTIFIER
 API .                     N/A:  API NUMBER
 COMP.     BP Exploration (Caspian Sea) Ltd.:  COMPANY
 WTYP.                Deviated:  WELL TYPE
 SON .        AZ-XX-0905856059:  JOB NUMBER
 FTOP.          Formation Tops:  FORM TOPS DESC
 ILTD.               Lithology:  INTERP LTH DESC
 SVYD.                  Survey:  SURVEY DESC
 DMOD.             Drill Model:  DRILL MOD DESC
 HPTY.       Minimum Curvature:  HOLE POS TYPE
 NREF.                    Grid:  NORTH REFERENCE
 SPUD.               25-Feb-20:  SPUD DATE
 DATE.      08.55.28 01-May-20:  END TIME
 STIM.      08.55.28 25-Feb-20:  START TIME
 DMF .             Drill Floor:  DRILL MEAS FROM
 DFST.                        :  DIST FSL TEXT
 DFWT.                        :  DIST FWL TEXT
 CNTY.                        :  COUNTY
 LOC .                        :  LOCATION
 LMF .             Drill Floor:  LOG MEASURED FROM
 VSNS.m                   6.09:  VERT SEC N/S
 VSEW.m                 -10.79:  VERT SEC E/W
 AGAP.m                  43.60:  AIR GAP
 DEP .m                 388.24:  DEPTH
 APD .m                  43.60:  DEPTH ABOVE PD
 WDMS.m                 151.80:  WD ELEV
 EGL .m                   0.00:  GROUND ELEVATION
 EPD .m                   0.00:  ELEVATION
 AZTC.deg                 6.12:  AZM TOTAL CORR
 GRDC.deg                 0.30:  GRID CORRECTION
 MDEC.deg                 6.42:  MAGNETIC DECL
 MDIP.deg                59.42:  MAGNETIC DIP
 MFLD.nT              50256.00:  MAGNETIC FIELD
 GVFD.g                   1.00:  GRAVITY FIELD
 VSDR.deg               159.57:  VERT SEC DIRECT
 TDD .m                5000.01:  TOTAL DEPTH (DRILLER)
 SDEP.m                 397.00:  START DEPTH
 DFSL.m                   0.00:  DISTANCE FSL
 DFWL.m                   0.00:  DISTANCE FWL
 UTMY.m             4431880.20:  UTM Y
 UTMX.m              538763.98:  UTM X
 WHEW.m                 -10.79:  WELL HEAD E/W
 WHNS.m                   6.09:  WELL HEAD N/S
 LONG.deg                51.45:  LONGITUDE
 LATI.deg                40.02:  LATITUDE
 TVDS.m                  43.60:  TVDSS CORRECTN
 EKB .m                  43.60:  KB ELEVATION
 EDF .m                  43.60:  DF ELEVATION
 MAGU.                 1847640:  MAGUTM CHECKSUM
 VSC .                       0:  VS TO CLOSURE
~Parameter Information Block
#MNEM.UNIT       Value        Description
#---------     -----------    ---------------------------
 AV  .mps                 1.30:  Ann Velocity 
 AVMX.mps                 1.90:  Max Ann Veloc 
 AZIF.deg               115.68:  Azm, Final 
 BHAT.                   Other:  BHA Type 
 BROT.°/30m               0.74:  Build Rotating 
 BS  .in                  8.50:  Bit Size 
 BTPL.psig              430.00:  Bit Press Loss 
 CABU.                      No:  Customer Abuse 
 COMM.                     Tr}:  Run Comments 1 
 TCS .hr                 51.31:  Time Ciculation Ended 
 CV  .mps                 2.52:  Crit Velocity 
 CVMX.mps                 2.62:  Max Crit Veloc 
 DD1 .          Teymur Aghayev:  Direct Drillr 1 
 DDSV.                   Other:  DD Service 
 DEFF.%                 100.00:  % Det Eff 
 DLRX.°/30m               1.62:  Dogleg Rot Max 
 DLSO.°/30m               0.74:  Dogleg Oriented 
 DLSX.°/30m               1.62:  Dogleg Str Max 
 DRET.      04.30.56 18-May-20:  Drill End Time 
 DRST.      04.30.56 18-May-20:  Drill Start Tim 
 DTIM.hr                  0.00:  Time Drilling 
 EDEP.m                5337.01:  End Depth 
 ENG1.      Artemiy Matviyanov:  Engineer 1 
 ENG2.      Bakhtiyar Jabbarli:  Engineer 2 
 ENG3.           Emil Huseynov:  Engineer 3 
 ETIM.      18.40.00 22-May-20:  End Time 
 FLOI.gpm               550.00:  Flow In 
 FLON.gpm               350.00:  Flow In Min 
 FLOS.cptm                0.00:  Fluid Loss 
 FLOX.gpm               600.00:  Flow In Max 
 HFLO.                      No:  High Flow 
 HPRE.                      No:  High Pressure 
 HTEM.                      No:  High Temp 
 HYDO.m                   1.80:  Hydro Offset 
 IFIN.deg                67.01:  Inc, Final 
 IMAX.deg                67.49:  Inc Max 
 IMIN.deg                66.50:  Inc Min 
 IMND.m                5144.79:  Inc Min Depth 
 IMXD.m                5116.12:  Inc Max Depth 
 JARR.                      No:  Jarring 
 LETM.      17.55.56 20-May-20:  Log End Time 
 LOST.hr                     0:  Lost Rig Time 
 LSTM.      04.30.56 18-May-20:  Log Start Time 
 MDCL.ppm            193153.00:  Mud Chlorides 
 MDES.     Inversion Oil/Synthetic:  Mud Desc 
 DFD .sg                  1.40:  Mud Density 
 MDMN.sg                  1.40:  Dens Mud Min 
 MDMX.sg                  1.41:  Dens Mud Max 
 MOIL.                      68:  Run Mud Oil % 
 MOWR.                   68:32:  Run Mud OWR 
 MSND.                     0.2:  Run Mud Sand % 
 MSOL.                    18.8:  Run Mud Solids% 
 DFV .spqt               80.00:  Mud Viscosity 
 MWOD.in                  6.75:  MWD Tool OD 
 MWSI.                      No:  Serv Intrp, MWD 
 OTIM.hr                104.84:  Time Operating 
 PMAX.psia            10690.93:  Press Op, Max 
 PV  .cP                 26.00:  Mud PV 
 RUN .                     900:  Run Number 
 ROPA.m/hr                0.00:  ROP Avg 
 ROPN.m/hr                0.00:  ROP Min 
 ROPX.m/hr                0.00:  ROP Max 
 RPMA.rpm               140.00:  RPM Surface Avg 
 RPMN.rpm                70.00:  RPM Surface Min 
 RPMX.rpm               140.00:  RPM Surface Max 
 RRUN.                    0900:  Rig Run Number 
 RTIM.hr                 36.00:  Time Reaming 
 SAZI.deg               115.72:  Azm, Start 
 SDEP.m                5337.01:  Start Depth 
 SIDD.                      No:  Serv Intrp, DD 
 SINC.deg                66.92:  Inc, Start 
 SPPA.psig             4400.00:  SPP Avg 
 SPPN.psig             1135.00:  SPP Min 
 SPPX.psig             4581.00:  SPP Max 
 STIM.      04.30.56 18-May-20:  Start Time 
 SVCS.                     MWD:  Services 
 SVER.                    9.20:  Sperry Version 
 TDAT.m                5337.01:  Tot Depth Attmp 
 TDDF.                      No:  Trip for DD 
 TFF .                      No:  Trip for Fail 
 TQAA.f-kp               23.00:  Torque Abs Avg 
 TQAN.f-kp               18.00:  Torque Abs Min 
 TQAX.f-kp               25.00:  Torque Abs Max 
 TRRT.°/30m               0.74:  Turn Rotating 
 MRT .                    HCIM:  Maximum Recorded Temperature 
 TTMX.degC               76.47:  Max Tool Temp 
 WBMN.klb                 0.00:  WOB Min 
 WITN.             Anar Khalil:  Customer Rep 
 WITN.      Kamran Keberlinski:  Customer Rep 2 
 WOBA.klb                 0.00:  WOB Avg 
 WOBX.klb                 0.00:  WOB Max 
 YP  .lhf2               27.00:  Yield Point 
~Curve Information Block
#MNEM.UNIT                 API CODE     Curve Description
#---------               -----------    ---------------------------
 TIME.HHMMSS            00 000 000 000:  GT Time & Date
 GTDEPTH.m              00 000 000 000:  GT Depth
 GTPQH.psia             00 000 000 000:  GT HR Quartz Pressure
 GTTQ.degC              00 000 000 000:  GT Quartz Temperature
 GTTN.NONE              00 000 000 000:  GT Test Number
 GTET.sec               00 000 000 000:  GT Elapsed Test Time
 GTTVD.m                00 000 000 000:  GT True Vertical Depth
#Other Information
#
#WARRANTY: Halliburton will use its best efforts to furnish customers with 
#accurate information and interpretations that are part of, and incident to, the services 
#provided.  However, Halliburton cannot and does not warrant the accuracy 
#or correctness of such information and interpretations.  Under no circumstances should any 
#such information or interpretation be relied upon as the sole basis for any drilling, 
#completion, production, or financial decision or any procedure involving any risk to the 
#safety of any drilling venture, drilling rig or its crew or any other third party.  The 
#Customer has full responsibility for all drilling, completion and production operation.  
#Halliburton makes no representations or warranties, either expressed or 
#implied, including, but not limited to, the implied warranties of merchantability or fitness 
#for a particular purpose, with respect to the services rendered.  In no event will 
#Halliburton be liable for failure to obtain any particular results or for 
#any damages, including, but not limited to, indirect, special or consequential damages, 
#resulting from the use of any information or interpretation provided by Halliburton.
#
~A           TIME           GTDEPTH  GTPQH  GTTQ  GTTN  GTET   GTTVD  
# ...
   23:18:42.813.19-May-2020 5121.01 3572.15 67.96 5.00 437.11 2698.81
   23:18:43.013.19-May-2020 5121.01 3572.15 67.96 5.00 437.31 2698.81
   23:18:43.213.19-May-2020 5121.01 3572.13 67.96 5.00 437.51 2698.81
   23:18:43.413.19-May-2020 5121.01 3572.13 67.96 5.00 437.71 2698.81
   23:18:43.613.19-May-2020 5121.01 3572.12 67.96 5.00 437.91 2698.81
   23:18:43.813.19-May-2020 5121.01 3572.13 67.96 5.00 438.11 2698.81
   23:18:44.013.19-May-2020 5121.01 3572.13 67.96 5.00 438.31 2698.81
   23:18:44.213.19-May-2020 5121.01 3572.13 67.96 5.00 438.51 2698.81
   23:18:44.413.19-May-2020 5121.01 3572.24 67.96 5.00 438.71 2698.81
   23:18:44.613.19-May-2020 5121.01 3572.18 67.96 5.00 438.91 2698.81
   23:18:44.813.19-May-2020 5121.01 3572.18 67.96 5.00 439.11 2698.81
   23:18:45.013.19-May-2020 5121.01 3572.17 67.96 5.00 439.31 2698.81
   23:18:45.213.19-May-2020 5121.01 3572.21 67.96 5.00 439.51 2698.81
   23:18:45.413.19-May-2020 5121.01 3572.20 67.96 5.00 439.71 2698.81
   23:18:45.613.19-May-2020 5121.01 3572.15 67.96 5.00 439.91 2698.81
   23:18:45.813.19-May-2020 5121.01 3572.17 67.96 5.00 440.11 2698.81
   23:18:46.013.19-May-2020 5121.01 3572.17 67.96 5.00 440.31 2698.81
   23:18:46.213.19-May-2020 5121.01 3572.25 67.96 5.00 440.51 2698.81
   23:18:46.414.19-May-2020 5121.01 3572.20 67.95 5.00 440.71 2698.81
   23:18:46.614.19-May-2020 5121.01 3572.17 67.95 5.00 440.91 2698.81
   23:18:46.814.19-May-2020 5121.01 3572.17 67.95 5.00 441.11 2698.81
   23:18:47.014.19-May-2020 5121.01 3572.17 67.95 5.00 441.31 2698.81
   23:18:47.214.19-May-2020 5121.01 3572.12 67.95 5.00 441.51 2698.81
   23:18:47.414.19-May-2020 5121.01 3572.26 67.95 5.00 441.71 2698.81
   23:18:47.614.19-May-2020 5121.01 3572.18 67.95 5.00 441.91 2698.81
   23:18:47.814.19-May-2020 5121.01 3572.18 67.95 5.00 442.11 2698.81
   23:18:48.014.19-May-2020 5121.01 3572.18 67.95 5.00 442.31 2698.81
   23:18:48.214.19-May-2020 5121.01 3572.17 67.95 5.00 442.51 2698.81
   23:18:48.414.19-May-2020 5121.01 3572.13 67.95 5.00 442.71 2698.81
   23:18:48.614.19-May-2020 5121.01 3572.26 67.95 5.00 442.91 2698.81
   23:18:48.814.19-May-2020 5121.01 3572.20 67.95 5.00 443.11 2698.81
   23:18:49.014.19-May-2020 5121.01 3572.17 67.95 5.00 443.31 2698.81
   23:18:49.214.19-May-2020 5121.01 3572.16 67.95 5.00 443.51 2698.81
   23:18:49.414.19-May-2020 5121.01 3572.19 67.95 5.00 443.71 2698.81
   23:18:49.614.19-May-2020 5121.01 3572.15 67.95 5.00 443.91 2698.81
   23:18:49.814.19-May-2020 5121.01 3572.17 67.95 5.00 444.11 2698.81
   23:18:50.014.19-May-2020 5121.01 3572.17 67.95 5.00 444.31 2698.81
   23:18:50.214.19-May-2020 5121.01 3572.15 67.95 5.00 444.51 2698.81
   23:18:50.415.19-May-2020 5121.01 3572.16 67.95 5.00 444.71 2698.81
   23:18:50.615.19-May-2020 5121.01 3572.14 67.95 5.00 444.91 2698.81
   23:18:50.815.19-May-2020 5121.01 3572.14 67.95 5.00 445.11 2698.81
   23:18:51.015.19-May-2020 5121.01 3572.14 67.95 5.00 445.31 2698.81
   23:18:51.215.19-May-2020 5121.01 3572.13 67.95 5.00 445.51 2698.81
   23:18:51.415.19-May-2020 5121.01 3572.13 67.95 5.00 445.71 2698.81
   23:18:51.615.19-May-2020 5121.01 3572.14 67.95 5.00 445.91 2698.81
   23:18:51.815.19-May-2020 5121.01 3572.19 67.95 5.00 446.11 2698.81
   23:18:52.015.19-May-2020 5121.01 3572.19 67.95 5.00 446.31 2698.81
   23:18:52.215.19-May-2020 5121.01 3572.13 67.95 5.00 446.51 2698.81
   23:18:52.415.19-May-2020 5121.01 3572.34 67.95 5.00 446.71 2698.81
   23:18:52.615.19-May-2020 5121.01 3572.02 67.95 5.00 446.91 2698.81
   23:18:52.815.19-May-2020 5121.01 3572.23 67.95 5.00 447.11 2698.81
   23:18:53.015.19-May-2020 5121.01 3572.16 67.95 5.00 447.31 2698.81
   23:18:53.215.19-May-2020 5121.01 3572.21 67.95 5.00 447.51 2698.81
   23:18:53.415.19-May-2020 5121.01 3572.15 67.95 5.00 447.71 2698.81
   23:18:53.615.19-May-2020 5121.01 3572.32 67.95 5.00 447.91 2698.81
   23:18:53.815.19-May-2020 5121.01 3572.05 67.95 5.00 448.11 2698.81
   23:18:54.015.19-May-2020 5121.01 3572.05 67.95 5.00 448.31 2698.81
   23:18:54.215.19-May-2020 5121.01 3572.15 67.95 5.00 448.51 2698.81
   23:18:54.416.19-May-2020 5121.01 3572.23 67.95 5.00 448.71 2698.81
   23:18:54.616.19-May-2020 5121.01 3572.13 67.95 5.00 448.91 2698.81
   23:18:54.816.19-May-2020 5121.01 3572.17 67.95 5.00 449.11 2698.81
   23:18:55.016.19-May-2020 5121.01 3572.17 67.95 5.00 449.31 2698.81
   23:18:55.216.19-May-2020 5121.01 3572.20 67.95 5.00 449.51 2698.81
   23:18:55.416.19-May-2020 5121.01 3572.21 67.95 5.00 449.71 2698.81
   23:18:55.616.19-May-2020 5121.01 3572.15 67.95 5.00 449.91 2698.81
   23:18:55.816.19-May-2020 5121.01 3572.18 67.95 5.00 450.11 2698.81
   23:18:56.016.19-May-2020 5121.01 3572.18 67.95 5.00 450.31 2698.81
   23:18:56.216.19-May-2020 5121.01 3572.24 67.95 5.00 450.51 2698.81
   23:18:56.416.19-May-2020 5121.01 3572.20 67.95 5.00 450.71 2698.81
   23:18:56.616.19-May-2020 5121.01 3572.19 67.95 5.00 450.91 2698.81
   23:18:56.816.19-May-2020 5121.01 3572.18 67.95 5.00 451.11 2698.81
   23:18:57.016.19-May-2020 5121.01 3572.17 67.95 5.00 451.31 2698.81
   23:18:57.216.19-May-2020 5121.01 3572.18 67.95 5.00 451.51 2698.81
   23:18:57.416.19-May-2020 5121.01 3572.17 67.95 5.00 451.71 2698.81
   23:18:57.616.19-May-2020 5121.01 3572.15 67.95 5.00 451.91 2698.81
   23:18:57.816.19-May-2020 5121.01 3572.16 67.95 5.00 452.11 2698.81
   23:18:58.016.19-May-2020 5121.01 3572.16 67.95 5.00 452.31 2698.81
   23:18:58.216.19-May-2020 5121.01 3572.15 67.95 5.00 452.51 2698.81
   23:18:58.417.19-May-2020 5121.01 3572.15 67.95 5.00 452.71 2698.81
   23:18:58.617.19-May-2020 5121.01 3572.14 67.95 5.00 452.91 2698.81
   23:18:58.817.19-May-2020 5121.01 3572.15 67.95 5.00 453.11 2698.81
   23:18:59.017.19-May-2020 5121.01 3572.15 67.95 5.00 453.31 2698.81
   23:18:59.217.19-May-2020 5121.01 3572.25 67.95 5.00 453.51 2698.81
   23:18:59.417.19-May-2020 5121.01 3572.19 67.95 5.00 453.71 2698.81
   23:18:59.617.19-May-2020 5121.01 3572.16 67.95 5.00 453.91 2698.81
   23:18:59.817.19-May-2020 5121.01 3572.17 67.95 5.00 454.11 2698.81
   23:19:00.017.19-May-2020 5121.01 3572.17 67.95 5.00 454.31 2698.81
   23:19:00.217.19-May-2020 5121.01 3572.17 67.95 5.00 454.51 2698.81
   23:19:00.417.19-May-2020 5121.01 3572.21 67.95 5.00 454.71 2698.81
   23:19:00.617.19-May-2020 5121.01 3572.13 67.95 5.00 454.91 2698.81
   23:19:00.817.19-May-2020 5121.01 3572.23 67.95 5.00 455.11 2698.81
   23:19:01.017.19-May-2020 5121.01 3572.23 67.95 5.00 455.31 2698.81
   23:19:01.217.19-May-2020 5121.01 3574.99 67.95 5.00 455.51 2698.81
   23:19:01.417.19-May-2020 5121.01 3599.99 67.95 5.00 455.71 2698.81
   23:19:01.617.19-May-2020 5121.01 3664.79 67.95 5.00 455.91 2698.81
   23:19:01.817.19-May-2020 5121.01 3908.27 67.95 5.00 456.11 2698.81
   23:19:02.017.19-May-2020 5121.01 3908.27 67.95 5.00 456.31 2698.81
   23:19:02.217.19-May-2020 5121.01 6441.26 67.95 5.00 456.51 2698.81
   23:19:02.418.19-May-2020 5121.01 6448.04 67.95 5.00 456.71 2698.81
   23:19:02.618.19-May-2020 5121.01 6439.28 67.95 5.00 456.91 2698.81
   23:19:02.818.19-May-2020 5121.01 6443.92 67.95 5.00 457.11 2698.81
   23:19:03.018.19-May-2020 5121.01 6443.92 67.95 5.00 457.31 2698.81
   23:19:03.218.19-May-2020 5121.01 6442.08 67.95 5.00 457.51 2698.81
   23:19:03.418.19-May-2020 5121.01 6442.29 67.96 5.00 457.71 2698.81
   23:19:03.618.19-May-2020 5121.01 6447.56 67.96 5.00 457.91 2698.81
   23:19:03.818.19-May-2020 5121.01 6441.24 67.96 5.00 458.11 2698.81
   23:19:04.018.19-May-2020 5121.01 6441.24 67.96 5.00 458.31 2698.81
   23:19:04.218.19-May-2020 5121.01 6445.18 67.96 5.00 458.51 2698.81
   23:19:04.418.19-May-2020 5121.01 6445.57 67.97 5.00 458.71 2698.81
   23:19:04.618.19-May-2020 5121.01 6444.46 67.97 5.00 458.91 2698.81
   23:19:04.818.19-May-2020 5121.01 6445.23 67.97 5.00 459.11 2698.81
   23:19:05.018.19-May-2020 5121.01 6445.23 67.97 5.00 459.31 2698.81
   23:19:05.218.19-May-2020 5121.01 6444.79 67.97 5.00 459.51 2698.81
   23:19:05.418.19-May-2020 5121.01 6445.89 67.98 5.00 459.71 2698.81
   23:19:05.618.19-May-2020 5121.01 6445.56 67.98 5.00 459.91 2698.81
