~Version Information
 VERS.                  2.0:   CWLS log ASCII Standard -VERSION 2.0
 WRAP.                   NO:   One line per depth step
~Well Information Block
#MNEM.UNIT     VALUE/NAME     DESCRIPTION
#---------     -----------    ---------------------------
 STRT.S             04:23:34 20-May-20: START TIME 04:23:34 20-May-20
 STOP.S             04:34:06 20-May-20: STOP TIME  04:34:06 20-May-20
 STEP.S                   0.00: STEP TIME
 NULL.                 -999.25: NULL VALUE
 MDS .        Operator Entered:  MAG DATA SOURCE
 PDAT.          Mean Sea Level:  PERMANENT DATUM
 UNIT.                     N/A:  LOGGING EQUIPMENT ID
 DCON.         Sperry Drilling:  DIRECTNL CONTR
 DOE .                     N/A:  DOE NUMBER
 RIG .              East Azeri:  RIG NAME
 JOBN.        AZ-XX-0905856059:  JOB TICKET NUMB
 WELL.                     D36:  WELL NAME
 MWDS.                    Baku:  MWD SHOP
 SRVC.     Turan Drilling & Engineering:  CONTRACTOR
 FLD .                     ACG:  FIELD NAME
 CTRY.              Azerbaijan:  COUNTRY NAME
 PROV.                    Baku:  PROVINCE
 STAT.                    Baku:  STATE NAME
 REGN.                   EESSA:  REGION
 BASE.              Azerbaijan:  LOGGING EQUIPMENT BASE LOCATION
 UWI .                     N/A:  UNIQUE WELL IDENTIFIER
 API .                     N/A:  API NUMBER
 COMP.     BP Exploration (Caspian Sea) Ltd.:  COMPANY
 WTYP.                Deviated:  WELL TYPE
 SON .        AZ-XX-0905856059:  JOB NUMBER
 FTOP.          Formation Tops:  FORM TOPS DESC
 ILTD.               Lithology:  INTERP LTH DESC
 SVYD.                  Survey:  SURVEY DESC
 DMOD.             Drill Model:  DRILL MOD DESC
 HPTY.       Minimum Curvature:  HOLE POS TYPE
 NREF.                    Grid:  NORTH REFERENCE
 SPUD.               25-Feb-20:  SPUD DATE
 DATE.      08.55.28 01-May-20:  END TIME
 STIM.      08.55.28 25-Feb-20:  START TIME
 DMF .             Drill Floor:  DRILL MEAS FROM
 DFST.                        :  DIST FSL TEXT
 DFWT.                        :  DIST FWL TEXT
 CNTY.                        :  COUNTY
 LOC .                        :  LOCATION
 LMF .             Drill Floor:  LOG MEASURED FROM
 VSNS.m                   6.09:  VERT SEC N/S
 VSEW.m                 -10.79:  VERT SEC E/W
 AGAP.m                  43.60:  AIR GAP
 DEP .m                 388.24:  DEPTH
 APD .m                  43.60:  DEPTH ABOVE PD
 WDMS.m                 151.80:  WD ELEV
 EGL .m                   0.00:  GROUND ELEVATION
 EPD .m                   0.00:  ELEVATION
 AZTC.deg                 6.12:  AZM TOTAL CORR
 GRDC.deg                 0.30:  GRID CORRECTION
 MDEC.deg                 6.42:  MAGNETIC DECL
 MDIP.deg                59.42:  MAGNETIC DIP
 MFLD.nT              50256.00:  MAGNETIC FIELD
 GVFD.g                   1.00:  GRAVITY FIELD
 VSDR.deg               159.57:  VERT SEC DIRECT
 TDD .m                5000.01:  TOTAL DEPTH (DRILLER)
 SDEP.m                 397.00:  START DEPTH
 DFSL.m                   0.00:  DISTANCE FSL
 DFWL.m                   0.00:  DISTANCE FWL
 UTMY.m             4431880.20:  UTM Y
 UTMX.m              538763.98:  UTM X
 WHEW.m                 -10.79:  WELL HEAD E/W
 WHNS.m                   6.09:  WELL HEAD N/S
 LONG.deg                51.45:  LONGITUDE
 LATI.deg                40.02:  LATITUDE
 TVDS.m                  43.60:  TVDSS CORRECTN
 EKB .m                  43.60:  KB ELEVATION
 EDF .m                  43.60:  DF ELEVATION
 MAGU.                 1847640:  MAGUTM CHECKSUM
 VSC .                       0:  VS TO CLOSURE
~Parameter Information Block
#MNEM.UNIT       Value        Description
#---------     -----------    ---------------------------
 AV  .mps                 1.30:  Ann Velocity 
 AVMX.mps                 1.90:  Max Ann Veloc 
 AZIF.deg               115.68:  Azm, Final 
 BHAT.                   Other:  BHA Type 
 BROT.°/30m               0.74:  Build Rotating 
 BS  .in                  8.50:  Bit Size 
 BTPL.psig              430.00:  Bit Press Loss 
 CABU.                      No:  Customer Abuse 
 TCS .hr                 51.31:  Time Ciculation Ended 
 CV  .mps                 2.52:  Crit Velocity 
 CVMX.mps                 2.62:  Max Crit Veloc 
 DD1 .          Teymur Aghayev:  Direct Drillr 1 
 DDSV.                   Other:  DD Service 
 DEFF.%                 100.00:  % Det Eff 
 DLRX.°/30m               1.62:  Dogleg Rot Max 
 DLSO.°/30m               0.74:  Dogleg Oriented 
 DLSX.°/30m               1.62:  Dogleg Str Max 
 DRET.      04.30.56 18-May-20:  Drill End Time 
 DRST.      04.30.56 18-May-20:  Drill Start Tim 
 DTIM.hr                  0.00:  Time Drilling 
 EDEP.m                5337.01:  End Depth 
 ENG1.      Artemiy Matviyanov:  Engineer 1 
 ENG2.      Bakhtiyar Jabbarli:  Engineer 2 
 ENG3.           Emil Huseynov:  Engineer 3 
 ETIM.      18.40.00 22-May-20:  End Time 
 FLOI.gpm               550.00:  Flow In 
 FLON.gpm               350.00:  Flow In Min 
 FLOS.cptm                0.00:  Fluid Loss 
 FLOX.gpm               600.00:  Flow In Max 
 HFLO.                      No:  High Flow 
 HPRE.                      No:  High Pressure 
 HTEM.                      No:  High Temp 
 HYDO.m                   1.80:  Hydro Offset 
 IFIN.deg                67.01:  Inc, Final 
 IMAX.deg                67.49:  Inc Max 
 IMIN.deg                66.50:  Inc Min 
 IMND.m                5144.79:  Inc Min Depth 
 IMXD.m                5116.12:  Inc Max Depth 
 JARR.                      No:  Jarring 
 LETM.      17.55.56 20-May-20:  Log End Time 
 LOST.hr                     0:  Lost Rig Time 
 LSTM.      04.30.56 18-May-20:  Log Start Time 
 MDCL.ppm            193153.00:  Mud Chlorides 
 MDES.     Inversion Oil/Synthetic:  Mud Desc 
 DFD .sg                  1.40:  Mud Density 
 MDMN.sg                  1.40:  Dens Mud Min 
 MDMX.sg                  1.41:  Dens Mud Max 
 MOIL.                      68:  Run Mud Oil % 
 MOWR.                   68:32:  Run Mud OWR 
 MSND.                     0.2:  Run Mud Sand % 
 MSOL.                    18.8:  Run Mud Solids% 
 DFV .spqt               80.00:  Mud Viscosity 
 MWOD.in                  6.75:  MWD Tool OD 
 MWSI.                      No:  Serv Intrp, MWD 
 OTIM.hr                104.84:  Time Operating 
 PMAX.psia            10690.93:  Press Op, Max 
 PV  .cP                 26.00:  Mud PV 
 RUN .                     900:  Run Number 
 ROPA.m/hr                0.00:  ROP Avg 
 ROPN.m/hr                0.00:  ROP Min 
 ROPX.m/hr                0.00:  ROP Max 
 RPMA.rpm               140.00:  RPM Surface Avg 
 RPMN.rpm                70.00:  RPM Surface Min 
 RPMX.rpm               140.00:  RPM Surface Max 
 RRUN.                    0900:  Rig Run Number 
 RTIM.hr                 36.00:  Time Reaming 
 SAZI.deg               115.72:  Azm, Start 
 SDEP.m                5337.01:  Start Depth 
 SIDD.                      No:  Serv Intrp, DD 
 SINC.deg                66.92:  Inc, Start 
 SPPA.psig             4400.00:  SPP Avg 
 SPPN.psig             1135.00:  SPP Min 
 SPPX.psig             4581.00:  SPP Max 
 STIM.      04.30.56 18-May-20:  Start Time 
 SVCS.                     MWD:  Services 
 SVER.                    9.20:  Sperry Version 
 TDAT.m                5337.01:  Tot Depth Attmp 
 TDDF.                      No:  Trip for DD 
 TFF .                      No:  Trip for Fail 
 TQAA.f-kp               23.00:  Torque Abs Avg 
 TQAN.f-kp               18.00:  Torque Abs Min 
 TQAX.f-kp               25.00:  Torque Abs Max 
 TRRT.°/30m               0.74:  Turn Rotating 
 MRT .                    HCIM:  Maximum Recorded Temperature 
 TTMX.degC               76.47:  Max Tool Temp 
 WBMN.klb                 0.00:  WOB Min 
 WITN.             Anar Khalil:  Customer Rep 
 WITN.      Kamran Keberlinski:  Customer Rep 2 
 WOBA.klb                 0.00:  WOB Avg 
 WOBX.klb                 0.00:  WOB Max 
 YP  .lhf2               27.00:  Yield Point 
~Curve Information Block
#MNEM.UNIT                 API CODE     Curve Description
#---------               -----------    ---------------------------
 TIME.HHMMSS            00 000 000 000:  GT Time & Date
 GTDEPTH.m              00 000 000 000:  GT Depth
 GTPQH.psia             00 000 000 000:  GT HR Quartz Pressure
 GTTQ.degC              00 000 000 000:  GT Quartz Temperature
 GTTN.NONE              00 000 000 000:  GT Test Number
 GTET.sec               00 000 000 000:  GT Elapsed Test Time
 GTTVD.m                00 000 000 000:  GT True Vertical Depth
#Other Information
#
#WARRANTY: Halliburton will use its best efforts to furnish customers with 
#accurate information and interpretations that are part of, and incident to, the services 
#provided.  However, Halliburton cannot and does not warrant the accuracy 
#or correctness of such information and interpretations.  Under no circumstances should any 
#such information or interpretation be relied upon as the sole basis for any drilling, 
#completion, production, or financial decision or any procedure involving any risk to the 
#safety of any drilling venture, drilling rig or its crew or any other third party.  The 
#Customer has full responsibility for all drilling, completion and production operation.  
#Halliburton makes no representations or warranties, either expressed or 
#implied, including, but not limited to, the implied warranties of merchantability or fitness 
#for a particular purpose, with respect to the services rendered.  In no event will 
#Halliburton be liable for failure to obtain any particular results or for 
#any damages, including, but not limited to, indirect, special or consequential damages, 
#resulting from the use of any information or interpretation provided by Halliburton.
#
~A           TIME           GTDEPTH  GTPQH  GTTQ  GTTN  GTET   GTTVD  
   04:23:34.584.20-May-2020 5064.29 6329.94 68.85 9.00   0.00 2676.66
   04:23:34.784.20-May-2020 5064.29 6329.94 68.85 9.00   0.20 2676.66
   04:23:34.984.20-May-2020 5064.29 6324.95 68.85 9.00   0.40 2676.66
   04:23:35.184.20-May-2020 5064.29 6325.94 68.85 9.00   0.60 2676.66
   04:23:35.385.20-May-2020 5064.29 6327.39 68.85 9.00   0.80 2676.66
   04:23:35.585.20-May-2020 5064.29 6326.14 68.85 9.00   1.00 2676.66
   04:23:35.785.20-May-2020 5064.29 6326.14 68.85 9.00   1.20 2676.66
   04:23:35.985.20-May-2020 5064.29 6331.04 68.85 9.00   1.40 2676.66
   04:23:36.185.20-May-2020 5064.29 6326.85 68.85 9.00   1.60 2676.66
   04:23:36.385.20-May-2020 5064.29 6327.62 68.85 9.00   1.80 2676.66
   04:23:36.585.20-May-2020 5064.29 6328.59 68.85 9.00   2.00 2676.66
   04:23:36.785.20-May-2020 5064.29 6328.59 68.85 9.00   2.20 2676.66
   04:23:36.985.20-May-2020 5064.29 6330.71 68.85 9.00   2.40 2676.66
   04:23:37.185.20-May-2020 5064.29 6328.08 68.85 9.00   2.60 2676.66
   04:23:37.385.20-May-2020 5064.29 6331.56 68.85 9.00   2.80 2676.66
   04:23:37.585.20-May-2020 5064.29 6334.86 68.85 9.00   3.00 2676.66
   04:23:37.785.20-May-2020 5064.29 6332.48 68.85 9.00   3.20 2676.66
   04:23:37.985.20-May-2020 5064.29 6332.72 68.85 9.00   3.40 2676.66
   04:23:38.185.20-May-2020 5064.29 6334.20 68.85 9.00   3.60 2676.66
   04:23:38.385.20-May-2020 5064.29 6336.04 68.85 9.00   3.80 2676.66
   04:23:38.585.20-May-2020 5064.29 6335.23 68.85 9.00   4.00 2676.66
   04:23:38.785.20-May-2020 5064.29 6335.23 68.85 9.00   4.20 2676.66
   04:23:38.986.20-May-2020 5064.29 6338.05 68.85 9.00   4.40 2676.66
   04:23:39.186.20-May-2020 5064.29 6337.13 68.85 9.00   4.60 2676.66
   04:23:39.386.20-May-2020 5064.29 6342.05 68.85 9.00   4.80 2676.66
   04:23:39.586.20-May-2020 5064.29 6340.10 68.85 9.00   5.00 2676.66
   04:23:39.786.20-May-2020 5064.29 6340.10 68.85 9.00   5.20 2676.66
   04:23:39.986.20-May-2020 5064.29 6340.25 68.85 9.00   5.40 2676.66
   04:23:40.186.20-May-2020 5064.29 6343.78 68.85 9.00   5.60 2676.66
   04:23:40.386.20-May-2020 5064.29 6341.93 68.85 9.00   5.80 2676.66
   04:23:40.586.20-May-2020 5064.29 6340.02 68.85 9.00   6.00 2676.66
   04:23:40.786.20-May-2020 5064.29 6340.02 68.85 9.00   6.20 2676.66
   04:23:40.986.20-May-2020 5064.29 6346.29 68.85 9.00   6.40 2676.66
   04:23:41.186.20-May-2020 5064.29 6340.50 68.85 9.00   6.60 2676.66
   04:23:41.386.20-May-2020 5064.29 6342.52 68.85 9.00   6.80 2676.66
   04:23:41.586.20-May-2020 5064.29 6344.23 68.85 9.00   7.00 2676.66
   04:23:41.786.20-May-2020 5064.29 6344.23 68.84 9.00   7.20 2676.66
   04:23:41.986.20-May-2020 5064.29 6345.73 68.84 9.00   7.40 2676.66
   04:23:42.186.20-May-2020 5064.29 6346.08 68.84 9.00   7.60 2676.66
   04:23:42.387.20-May-2020 5064.29 6345.70 68.84 9.00   7.80 2676.66
   04:23:42.587.20-May-2020 5064.29 6346.16 68.84 9.00   8.00 2676.66
   04:23:42.787.20-May-2020 5064.29 6346.16 68.84 9.00   8.20 2676.66
   04:23:42.987.20-May-2020 5064.29 6347.93 68.84 9.00   8.40 2676.66
   04:23:43.187.20-May-2020 5064.29 6346.73 68.84 9.00   8.60 2676.66
   04:23:43.387.20-May-2020 5064.29 6348.51 68.84 9.00   8.80 2676.66
   04:23:43.587.20-May-2020 5064.29 6348.79 68.84 9.00   9.00 2676.66
   04:23:43.787.20-May-2020 5064.29 6348.79 68.84 9.00   9.20 2676.66
   04:23:43.987.20-May-2020 5064.29 6349.31 68.84 9.00   9.40 2676.66
   04:23:44.187.20-May-2020 5064.29 6348.83 68.84 9.00   9.60 2676.66
   04:23:44.387.20-May-2020 5064.29 6349.95 68.84 9.00   9.80 2676.66
   04:23:44.587.20-May-2020 5064.29 6349.85 68.84 9.00  10.00 2676.66
   04:23:44.787.20-May-2020 5064.29 6349.85 68.84 9.00  10.20 2676.66
   04:23:44.987.20-May-2020 5064.29 6351.84 68.84 9.00  10.40 2676.66
   04:23:45.187.20-May-2020 5064.29 6350.38 68.84 9.00  10.60 2676.66
   04:23:45.387.20-May-2020 5064.29 6352.88 68.84 9.00  10.80 2676.66
   04:23:45.587.20-May-2020 5064.29 6353.06 68.84 9.00  11.00 2676.66
   04:23:45.787.20-May-2020 5064.29 6352.04 68.84 9.00  11.20 2676.66
   04:23:45.988.20-May-2020 5064.29 6353.30 68.84 9.00  11.40 2676.66
   04:23:46.188.20-May-2020 5064.29 6353.26 68.84 9.00  11.60 2676.66
   04:23:46.388.20-May-2020 5064.29 6354.51 68.84 9.00  11.80 2676.66
   04:23:46.588.20-May-2020 5064.29 6354.24 68.84 9.00  12.00 2676.66
   04:23:46.788.20-May-2020 5064.29 6354.24 68.84 9.00  12.20 2676.66
   04:23:46.988.20-May-2020 5064.29 6355.54 68.84 9.00  12.40 2676.66
   04:23:47.188.20-May-2020 5064.29 6354.82 68.84 9.00  12.60 2676.66
   04:23:47.388.20-May-2020 5064.29 6356.20 68.84 9.00  12.80 2676.66
   04:23:47.588.20-May-2020 5064.29 6356.20 68.84 9.00  13.00 2676.66
   04:23:47.788.20-May-2020 5064.29 6356.20 68.84 9.00  13.20 2676.66
   04:23:47.988.20-May-2020 5064.29 6357.94 68.84 9.00  13.40 2676.66
   04:23:48.188.20-May-2020 5064.29 6357.03 68.84 9.00  13.60 2676.66
   04:23:48.388.20-May-2020 5064.29 6359.31 68.84 9.00  13.80 2676.66
   04:23:48.588.20-May-2020 5064.29 6361.80 68.84 9.00  14.00 2676.66
   04:23:48.788.20-May-2020 5064.29 6361.80 68.84 9.00  14.20 2676.66
   04:23:48.988.20-May-2020 5064.29 6359.41 68.84 9.00  14.40 2676.66
   04:23:49.188.20-May-2020 5064.29 6361.35 68.84 9.00  14.60 2676.66
   04:23:49.388.20-May-2020 5064.29 6364.07 68.84 9.00  14.80 2676.66
   04:23:49.589.20-May-2020 5064.29 6359.33 68.84 9.00  15.00 2676.66
   04:23:49.789.20-May-2020 5064.29 6359.33 68.84 9.00  15.20 2676.66
   04:23:49.989.20-May-2020 5064.29 6359.33 68.84 9.00  15.40 2676.66
   04:23:50.189.20-May-2020 5064.29 6361.58 68.84 9.00  15.60 2676.66
   04:23:50.389.20-May-2020 5064.29 6361.49 68.84 9.00  15.80 2676.66
   04:23:50.589.20-May-2020 5064.29 6361.92 68.84 9.00  16.00 2676.66
   04:23:50.789.20-May-2020 5064.29 6361.92 68.84 9.00  16.20 2676.66
   04:23:50.989.20-May-2020 5064.29 6363.09 68.84 9.00  16.40 2676.66
   04:23:51.189.20-May-2020 5064.29 6361.16 68.84 9.00  16.60 2676.66
   04:23:51.389.20-May-2020 5064.29 6364.76 68.84 9.00  16.80 2676.66
   04:23:51.589.20-May-2020 5064.29 6365.78 68.84 9.00  17.00 2676.66
   04:23:51.789.20-May-2020 5064.29 6365.78 68.84 9.00  17.20 2676.66
   04:23:51.989.20-May-2020 5064.29 6364.68 68.84 9.00  17.40 2676.66
   04:23:52.189.20-May-2020 5064.29 6364.52 68.84 9.00  17.60 2676.66
   04:23:52.389.20-May-2020 5064.29 6366.18 68.84 9.00  17.81 2676.66
   04:23:52.589.20-May-2020 5064.29 6365.30 68.84 9.00  18.01 2676.66
   04:23:52.789.20-May-2020 5064.29 6365.30 68.84 9.00  18.21 2676.66
   04:23:52.990.20-May-2020 5064.29 6366.59 68.84 9.00  18.41 2676.66
   04:23:53.190.20-May-2020 5064.29 6365.64 68.84 9.00  18.61 2676.66
   04:23:53.390.20-May-2020 5064.29 6366.96 68.84 9.00  18.81 2676.66
   04:23:53.590.20-May-2020 5064.29 6366.83 68.84 9.00  19.01 2676.66
   04:23:53.790.20-May-2020 5064.29 6370.17 68.84 9.00  19.21 2676.66
   04:23:53.990.20-May-2020 5064.29 6368.67 68.84 9.00  19.41 2676.66
   04:23:54.190.20-May-2020 5064.29 6366.96 68.84 9.00  19.61 2676.66
   04:23:54.390.20-May-2020 5064.29 6369.23 68.84 9.00  19.81 2676.66
   04:23:54.590.20-May-2020 5064.29 6370.14 68.84 9.00  20.01 2676.66
   04:23:54.790.20-May-2020 5064.29 6370.14 68.84 9.00  20.21 2676.66
   04:23:54.990.20-May-2020 5064.29 6370.03 68.84 9.00  20.41 2676.66
   04:23:55.190.20-May-2020 5064.29 6369.28 68.84 9.00  20.61 2676.66
   04:23:55.390.20-May-2020 5064.29 6372.04 68.84 9.00  20.81 2676.66
   04:23:55.590.20-May-2020 5064.29 6371.13 68.84 9.00  21.01 2676.66
   04:23:55.790.20-May-2020 5064.29 6371.13 68.84 9.00  21.21 2676.66
   04:23:55.990.20-May-2020 5064.29 6373.59 68.84 9.00  21.41 2676.66
   04:23:56.190.20-May-2020 5064.29 6371.50 68.84 9.00  21.61 2676.66
   04:23:56.390.20-May-2020 5064.29 6374.02 68.84 9.00  21.81 2676.66
   04:23:56.591.20-May-2020 5064.29 6374.17 68.84 9.00  22.01 2676.66
   04:23:56.791.20-May-2020 5064.29 6374.17 68.84 9.00  22.21 2676.66
   04:23:56.991.20-May-2020 5064.29 6378.54 68.84 9.00  22.41 2676.66
   04:23:57.191.20-May-2020 5064.29 6374.05 68.84 9.00  22.61 2676.66
   04:23:57.391.20-May-2020 5064.29 6375.39 68.84 9.00  22.81 2676.66
