~Version Information
 VERS.                  2.0:   CWLS log ASCII Standard -VERSION 2.0
 WRAP.                   NO:   One line per depth step
~Well Information Block
#MNEM.UNIT     VALUE/NAME     DESCRIPTION
#---------     -----------    ---------------------------
 STRT.S             21:41:59 19-May-20: START TIME 21:41:59 19-May-20
 STOP.S             21:48:44 19-May-20: STOP TIME  21:48:44 19-May-20
 STEP.S                   0.00: STEP TIME
 NULL.                 -999.25: NULL VALUE
 MDS .        Operator Entered:  MAG DATA SOURCE
 PDAT.          Mean Sea Level:  PERMANENT DATUM
 UNIT.                     N/A:  LOGGING EQUIPMENT ID
 DCON.         Sperry Drilling:  DIRECTNL CONTR
 DOE .                     N/A:  DOE NUMBER
 RIG .              East Azeri:  RIG NAME
 JOBN.        AZ-XX-0905856059:  JOB TICKET NUMB
 WELL.                     D36:  WELL NAME
 MWDS.                    Baku:  MWD SHOP
 SRVC.     Turan Drilling & Engineering:  CONTRACTOR
 FLD .                     ACG:  FIELD NAME
 CTRY.              Azerbaijan:  COUNTRY NAME
 PROV.                    Baku:  PROVINCE
 STAT.                    Baku:  STATE NAME
 REGN.                   EESSA:  REGION
 BASE.              Azerbaijan:  LOGGING EQUIPMENT BASE LOCATION
 UWI .                     N/A:  UNIQUE WELL IDENTIFIER
 API .                     N/A:  API NUMBER
 COMP.     BP Exploration (Caspian Sea) Ltd.:  COMPANY
 WTYP.                Deviated:  WELL TYPE
 SON .        AZ-XX-0905856059:  JOB NUMBER
 FTOP.          Formation Tops:  FORM TOPS DESC
 ILTD.               Lithology:  INTERP LTH DESC
 SVYD.                  Survey:  SURVEY DESC
 DMOD.             Drill Model:  DRILL MOD DESC
 HPTY.       Minimum Curvature:  HOLE POS TYPE
 NREF.                    Grid:  NORTH REFERENCE
 SPUD.               25-Feb-20:  SPUD DATE
 DATE.      08.55.28 01-May-20:  END TIME
 STIM.      08.55.28 25-Feb-20:  START TIME
 DMF .             Drill Floor:  DRILL MEAS FROM
 DFST.                        :  DIST FSL TEXT
 DFWT.                        :  DIST FWL TEXT
 CNTY.                        :  COUNTY
 LOC .                        :  LOCATION
 LMF .             Drill Floor:  LOG MEASURED FROM
 VSNS.m                   6.09:  VERT SEC N/S
 VSEW.m                 -10.79:  VERT SEC E/W
 AGAP.m                  43.60:  AIR GAP
 DEP .m                 388.24:  DEPTH
 APD .m                  43.60:  DEPTH ABOVE PD
 WDMS.m                 151.80:  WD ELEV
 EGL .m                   0.00:  GROUND ELEVATION
 EPD .m                   0.00:  ELEVATION
 AZTC.deg                 6.12:  AZM TOTAL CORR
 GRDC.deg                 0.30:  GRID CORRECTION
 MDEC.deg                 6.42:  MAGNETIC DECL
 MDIP.deg                59.42:  MAGNETIC DIP
 MFLD.nT              50256.00:  MAGNETIC FIELD
 GVFD.g                   1.00:  GRAVITY FIELD
 VSDR.deg               159.57:  VERT SEC DIRECT
 TDD .m                5000.01:  TOTAL DEPTH (DRILLER)
 SDEP.m                 397.00:  START DEPTH
 DFSL.m                   0.00:  DISTANCE FSL
 DFWL.m                   0.00:  DISTANCE FWL
 UTMY.m             4431880.20:  UTM Y
 UTMX.m              538763.98:  UTM X
 WHEW.m                 -10.79:  WELL HEAD E/W
 WHNS.m                   6.09:  WELL HEAD N/S
 LONG.deg                51.45:  LONGITUDE
 LATI.deg                40.02:  LATITUDE
 TVDS.m                  43.60:  TVDSS CORRECTN
 EKB .m                  43.60:  KB ELEVATION
 EDF .m                  43.60:  DF ELEVATION
 MAGU.                 1847640:  MAGUTM CHECKSUM
 VSC .                       0:  VS TO CLOSURE
~Parameter Information Block
#MNEM.UNIT       Value        Description
#---------     -----------    ---------------------------
 AV  .mps                 1.30:  Ann Velocity 
 AVMX.mps                 1.90:  Max Ann Veloc 
 AZIF.deg               115.68:  Azm, Final 
 BHAT.                   Other:  BHA Type 
 BROT.°/30m               0.74:  Build Rotating 
 BS  .in                  8.50:  Bit Size 
 BTPL.psig              430.00:  Bit Press Loss 
 CABU.                      No:  Customer Abuse 
 COMM.                     „äS:  Run Comments 1 
 TCS .hr                 51.31:  Time Ciculation Ended 
 CV  .mps                 2.52:  Crit Velocity 
 CVMX.mps                 2.62:  Max Crit Veloc 
 DD1 .          Teymur Aghayev:  Direct Drillr 1 
 DDSV.                   Other:  DD Service 
 DEFF.%                 100.00:  % Det Eff 
 DLRX.°/30m               1.62:  Dogleg Rot Max 
 DLSO.°/30m               0.74:  Dogleg Oriented 
 DLSX.°/30m               1.62:  Dogleg Str Max 
 DRET.      04.30.56 18-May-20:  Drill End Time 
 DRST.      04.30.56 18-May-20:  Drill Start Tim 
 DTIM.hr                  0.00:  Time Drilling 
 EDEP.m                5337.01:  End Depth 
 ENG1.      Artemiy Matviyanov:  Engineer 1 
 ENG2.      Bakhtiyar Jabbarli:  Engineer 2 
 ENG3.           Emil Huseynov:  Engineer 3 
 ETIM.      18.40.00 22-May-20:  End Time 
 FLOI.gpm               550.00:  Flow In 
 FLON.gpm               350.00:  Flow In Min 
 FLOS.cptm                0.00:  Fluid Loss 
 FLOX.gpm               600.00:  Flow In Max 
 HFLO.                      No:  High Flow 
 HPRE.                      No:  High Pressure 
 HTEM.                      No:  High Temp 
 HYDO.m                   1.80:  Hydro Offset 
 IFIN.deg                67.01:  Inc, Final 
 IMAX.deg                67.49:  Inc Max 
 IMIN.deg                66.50:  Inc Min 
 IMND.m                5144.79:  Inc Min Depth 
 IMXD.m                5116.12:  Inc Max Depth 
 JARR.                      No:  Jarring 
 LETM.      17.55.56 20-May-20:  Log End Time 
 LOST.hr                     0:  Lost Rig Time 
 LSTM.      04.30.56 18-May-20:  Log Start Time 
 MDCL.ppm            193153.00:  Mud Chlorides 
 MDES.     Inversion Oil/Synthetic:  Mud Desc 
 DFD .sg                  1.40:  Mud Density 
 MDMN.sg                  1.40:  Dens Mud Min 
 MDMX.sg                  1.41:  Dens Mud Max 
 MOIL.                      68:  Run Mud Oil % 
 MOWR.                   68:32:  Run Mud OWR 
 MSND.                     0.2:  Run Mud Sand % 
 MSOL.                    18.8:  Run Mud Solids% 
 DFV .spqt               80.00:  Mud Viscosity 
 MWOD.in                  6.75:  MWD Tool OD 
 MWSI.                      No:  Serv Intrp, MWD 
 OTIM.hr                104.84:  Time Operating 
 PMAX.psia            10690.93:  Press Op, Max 
 PV  .cP                 26.00:  Mud PV 
 RUN .                     900:  Run Number 
 ROPA.m/hr                0.00:  ROP Avg 
 ROPN.m/hr                0.00:  ROP Min 
 ROPX.m/hr                0.00:  ROP Max 
 RPMA.rpm               140.00:  RPM Surface Avg 
 RPMN.rpm                70.00:  RPM Surface Min 
 RPMX.rpm               140.00:  RPM Surface Max 
 RRUN.                    0900:  Rig Run Number 
 RTIM.hr                 36.00:  Time Reaming 
 SAZI.deg               115.72:  Azm, Start 
 SDEP.m                5337.01:  Start Depth 
 SIDD.                      No:  Serv Intrp, DD 
 SINC.deg                66.92:  Inc, Start 
 SPPA.psig             4400.00:  SPP Avg 
 SPPN.psig             1135.00:  SPP Min 
 SPPX.psig             4581.00:  SPP Max 
 STIM.      04.30.56 18-May-20:  Start Time 
 SVCS.                     MWD:  Services 
 SVER.                    9.20:  Sperry Version 
 TDAT.m                5337.01:  Tot Depth Attmp 
 TDDF.                      No:  Trip for DD 
 TFF .                      No:  Trip for Fail 
 TQAA.f-kp               23.00:  Torque Abs Avg 
 TQAN.f-kp               18.00:  Torque Abs Min 
 TQAX.f-kp               25.00:  Torque Abs Max 
 TRRT.°/30m               0.74:  Turn Rotating 
 MRT .                    HCIM:  Maximum Recorded Temperature 
 TTMX.degC               76.47:  Max Tool Temp 
 WBMN.klb                 0.00:  WOB Min 
 WITN.             Anar Khalil:  Customer Rep 
 WITN.      Kamran Keberlinski:  Customer Rep 2 
 WOBA.klb                 0.00:  WOB Avg 
 WOBX.klb                 0.00:  WOB Max 
 YP  .lhf2               27.00:  Yield Point 
~Curve Information Block
#MNEM.UNIT                 API CODE     Curve Description
#---------               -----------    ---------------------------
 TIME.HHMMSS            00 000 000 000:  GT Time & Date
 GTDEPTH.m              00 000 000 000:  GT Depth
 GTPQH.psia             00 000 000 000:  GT HR Quartz Pressure
 GTTQ.degC              00 000 000 000:  GT Quartz Temperature
 GTTN.NONE              00 000 000 000:  GT Test Number
 GTET.sec               00 000 000 000:  GT Elapsed Test Time
 GTTVD.m                00 000 000 000:  GT True Vertical Depth
#Other Information
#
#WARRANTY: Halliburton will use its best efforts to furnish customers with 
#accurate information and interpretations that are part of, and incident to, the services 
#provided.  However, Halliburton cannot and does not warrant the accuracy 
#or correctness of such information and interpretations.  Under no circumstances should any 
#such information or interpretation be relied upon as the sole basis for any drilling, 
#completion, production, or financial decision or any procedure involving any risk to the 
#safety of any drilling venture, drilling rig or its crew or any other third party.  The 
#Customer has full responsibility for all drilling, completion and production operation.  
#Halliburton makes no representations or warranties, either expressed or 
#implied, including, but not limited to, the implied warranties of merchantability or fitness 
#for a particular purpose, with respect to the services rendered.  In no event will 
#Halliburton be liable for failure to obtain any particular results or for 
#any damages, including, but not limited to, indirect, special or consequential damages, 
#resulting from the use of any information or interpretation provided by Halliburton.
#
~A           TIME           GTDEPTH  GTPQH  GTTQ  GTTN  GTET   GTTVD  
# ...
   21:42:45.377.19-May-2020 5137.01 4772.10 67.57 3.00  46.01 2705.05
   21:42:45.578.19-May-2020 5137.01 4772.10 67.57 3.00  46.21 2705.05
   21:42:45.778.19-May-2020 5137.01 4086.36 67.56 3.00  46.41 2705.05
   21:42:45.978.19-May-2020 5137.01 3806.55 67.56 3.00  46.61 2705.05
   21:42:46.178.19-May-2020 5137.01 3286.07 67.56 3.00  46.81 2705.05
   21:42:46.378.19-May-2020 5137.01 2547.77 67.56 3.00  47.01 2705.05
   21:42:46.578.19-May-2020 5137.01 2547.77 67.56 3.00  47.21 2705.05
   21:42:46.778.19-May-2020 5137.01 1226.01 67.56 3.00  47.41 2705.05
   21:42:46.978.19-May-2020 5137.01  728.96 67.56 3.00  47.61 2705.05
   21:42:47.178.19-May-2020 5137.01  578.33 67.55 3.00  47.81 2705.05
   21:42:47.378.19-May-2020 5137.01  543.42 67.55 3.00  48.01 2705.05
   21:42:47.578.19-May-2020 5137.01  543.42 67.55 3.00  48.21 2705.05
   21:42:47.778.19-May-2020 5137.01  526.08 67.54 3.00  48.41 2705.05
   21:42:47.978.19-May-2020 5137.01  520.26 67.54 3.00  48.61 2705.05
   21:42:48.178.19-May-2020 5137.01  516.50 67.54 3.00  48.81 2705.05
   21:42:48.378.19-May-2020 5137.01  514.25 67.53 3.00  49.01 2705.05
   21:42:48.578.19-May-2020 5137.01  514.25 67.53 3.00  49.21 2705.05
   21:42:48.778.19-May-2020 5137.01  509.18 67.52 3.00  49.41 2705.05
   21:42:48.978.19-May-2020 5137.01  506.86 67.52 3.00  49.61 2705.05
   21:42:49.178.19-May-2020 5137.01  509.47 67.52 3.00  49.81 2705.05
   21:42:49.378.19-May-2020 5137.01  509.87 67.51 3.00  50.01 2705.05
   21:42:49.579.19-May-2020 5137.01  509.87 67.51 3.00  50.21 2705.05
   21:42:49.779.19-May-2020 5137.01  506.90 67.50 3.00  50.41 2705.05
   21:42:49.979.19-May-2020 5137.01  504.10 67.50 3.00  50.61 2705.05
   21:42:50.179.19-May-2020 5137.01  507.36 67.49 3.00  50.81 2705.05
   21:42:50.379.19-May-2020 5137.01  511.23 67.49 3.00  51.01 2705.05
   21:42:50.579.19-May-2020 5137.01  511.36 67.48 3.00  51.21 2705.05
   21:42:50.779.19-May-2020 5137.01  509.49 67.48 3.00  51.41 2705.05
   21:42:50.979.19-May-2020 5137.01  510.51 67.47 3.00  51.61 2705.05
   21:42:51.179.19-May-2020 5137.01  507.53 67.47 3.00  51.81 2705.05
   21:42:51.379.19-May-2020 5137.01  507.19 67.47 3.00  52.01 2705.05
   21:42:51.579.19-May-2020 5137.01  507.19 67.46 3.00  52.21 2705.05
   21:42:51.779.19-May-2020 5137.01  505.91 67.46 3.00  52.41 2705.05
   21:42:51.979.19-May-2020 5137.01  504.06 67.45 3.00  52.61 2705.05
   21:42:52.179.19-May-2020 5137.01  500.78 67.45 3.00  52.81 2705.05
   21:42:52.379.19-May-2020 5137.01  496.34 67.45 3.00  53.01 2705.05
   21:42:52.579.19-May-2020 5137.01  496.34 67.44 3.00  53.21 2705.05
   21:42:52.779.19-May-2020 5137.01  492.55 67.44 3.00  53.41 2705.05
   21:42:52.979.19-May-2020 5137.01  492.06 67.44 3.00  53.61 2705.05
   21:42:53.179.19-May-2020 5137.01  488.69 67.43 3.00  53.81 2705.05
   21:42:53.379.19-May-2020 5137.01  488.70 67.43 3.00  54.01 2705.05
   21:42:53.580.19-May-2020 5137.01  488.70 67.43 3.00  54.21 2705.05
   21:42:53.780.19-May-2020 5137.01  475.86 67.43 3.00  54.41 2705.05
   21:42:53.980.19-May-2020 5137.01  487.58 67.42 3.00  54.61 2705.05
   21:42:54.180.19-May-2020 5137.01  494.41 67.42 3.00  54.81 2705.05
   21:42:54.380.19-May-2020 5137.01  501.79 67.42 3.00  55.01 2705.05
   21:42:54.580.19-May-2020 5137.01  501.79 67.42 3.00  55.21 2705.05
   21:42:54.780.19-May-2020 5137.01  543.77 67.42 3.00  55.41 2705.05
   21:42:54.980.19-May-2020 5137.01  592.40 67.41 3.00  55.61 2705.05
   21:42:55.180.19-May-2020 5137.01  636.38 67.41 3.00  55.81 2705.05
   21:42:55.380.19-May-2020 5137.01  679.28 67.41 3.00  56.01 2705.05
   21:42:55.580.19-May-2020 5137.01  679.28 67.41 3.00  56.21 2705.05
   21:42:55.780.19-May-2020 5137.01  760.27 67.41 3.00  56.41 2705.05
   21:42:55.980.19-May-2020 5137.01  799.64 67.40 3.00  56.61 2705.05
   21:42:56.180.19-May-2020 5137.01  837.70 67.40 3.00  56.81 2705.05
   21:42:56.380.19-May-2020 5137.01  876.25 67.40 3.00  57.01 2705.05
   21:42:56.580.19-May-2020 5137.01  876.25 67.40 3.00  57.21 2705.05
   21:42:56.780.19-May-2020 5137.01  950.52 67.40 3.00  57.41 2705.05
   21:42:56.980.19-May-2020 5137.01  986.29 67.40 3.00  57.61 2705.05
   21:42:57.180.19-May-2020 5137.01 1022.15 67.40 3.00  57.81 2705.05
   21:42:57.380.19-May-2020 5137.01 1057.37 67.40 3.00  58.01 2705.05
   21:42:57.581.19-May-2020 5137.01 1057.37 67.40 3.00  58.21 2705.05
   21:42:57.781.19-May-2020 5137.01 1126.06 67.40 3.00  58.41 2705.05
   21:42:57.981.19-May-2020 5137.01 1159.17 67.40 3.00  58.61 2705.05
   21:42:58.181.19-May-2020 5137.01 1192.35 67.40 3.00  58.81 2705.05
   21:42:58.381.19-May-2020 5137.01 1225.00 67.40 3.00  59.01 2705.05
   21:42:58.581.19-May-2020 5137.01 1225.00 67.40 3.00  59.21 2705.05
   21:42:58.781.19-May-2020 5137.01 1288.81 67.40 3.00  59.41 2705.05
   21:42:58.981.19-May-2020 5137.01 1319.95 67.40 3.00  59.61 2705.05
   21:42:59.181.19-May-2020 5137.01 1349.94 67.40 3.00  59.81 2705.05
   21:42:59.381.19-May-2020 5137.01 1380.84 67.40 3.00  60.01 2705.05
   21:42:59.581.19-May-2020 5137.01 1380.84 67.40 3.00  60.22 2705.05
   21:42:59.781.19-May-2020 5137.01 1440.11 67.40 3.00  60.42 2705.05
   21:42:59.981.19-May-2020 5137.01 1469.18 67.40 3.00  60.62 2705.05
   21:43:00.181.19-May-2020 5137.01 1497.78 67.40 3.00  60.82 2705.05
   21:43:00.381.19-May-2020 5137.01 1525.99 67.40 3.00  61.02 2705.05
   21:43:00.581.19-May-2020 5137.01 1525.99 67.40 3.00  61.22 2705.05
   21:43:00.781.19-May-2020 5137.01 1581.29 67.40 3.00  61.42 2705.05
   21:43:00.981.19-May-2020 5137.01 1608.35 67.40 3.00  61.62 2705.05
   21:43:01.181.19-May-2020 5137.01 1635.07 67.40 3.00  61.82 2705.05
   21:43:01.381.19-May-2020 5137.01 1661.44 67.40 3.00  62.02 2705.05
   21:43:01.582.19-May-2020 5137.01 1661.44 67.40 3.00  62.22 2705.05
   21:43:01.782.19-May-2020 5137.01 1713.06 67.40 3.00  62.42 2705.05
   21:43:01.982.19-May-2020 5137.01 1738.38 67.40 3.00  62.62 2705.05
   21:43:02.182.19-May-2020 5137.01 1762.69 67.40 3.00  62.82 2705.05
   21:43:02.382.19-May-2020 5137.01 1787.76 67.40 3.00  63.02 2705.05
   21:43:02.582.19-May-2020 5137.01 1787.76 67.40 3.00  63.22 2705.05
   21:43:02.782.19-May-2020 5137.01 1836.27 67.41 3.00  63.42 2705.05
   21:43:02.982.19-May-2020 5137.01 1859.37 67.41 3.00  63.62 2705.05
   21:43:03.182.19-May-2020 5137.01 1883.30 67.41 3.00  63.82 2705.05
   21:43:03.382.19-May-2020 5137.01 1906.42 67.41 3.00  64.02 2705.05
   21:43:03.582.19-May-2020 5137.01 1906.42 67.41 3.00  64.22 2705.05
   21:43:03.782.19-May-2020 5137.01 1951.77 67.41 3.00  64.42 2705.05
   21:43:03.982.19-May-2020 5137.01 1974.06 67.41 3.00  64.62 2705.05
   21:43:04.182.19-May-2020 5137.01 1995.30 67.41 3.00  64.82 2705.05
   21:43:04.382.19-May-2020 5137.01 2017.53 67.41 3.00  65.02 2705.05
   21:43:04.582.19-May-2020 5137.01 2017.53 67.41 3.00  65.22 2705.05
   21:43:04.782.19-May-2020 5137.01 2060.11 67.42 3.00  65.42 2705.05
   21:43:04.982.19-May-2020 5137.01 2080.91 67.42 3.00  65.62 2705.05
   21:43:05.182.19-May-2020 5137.01 2101.61 67.42 3.00  65.82 2705.05
   21:43:05.382.19-May-2020 5137.01 2121.23 67.42 3.00  66.02 2705.05
   21:43:05.583.19-May-2020 5137.01 2121.23 67.42 3.00  66.22 2705.05
   21:43:05.783.19-May-2020 5137.01 2161.66 67.42 3.00  66.42 2705.05
   21:43:05.983.19-May-2020 5137.01 2181.43 67.42 3.00  66.62 2705.05
   21:43:06.183.19-May-2020 5137.01 2200.78 67.42 3.00  66.82 2705.05
   21:43:06.383.19-May-2020 5137.01 2219.27 67.42 3.00  67.02 2705.05
   21:43:06.583.19-May-2020 5137.01 2219.27 67.42 3.00  67.22 2705.05
   21:43:06.783.19-May-2020 5137.01 2257.39 67.43 3.00  67.42 2705.05
   21:43:06.983.19-May-2020 5137.01 2275.95 67.43 3.00  67.62 2705.05
   21:43:07.183.19-May-2020 5137.01 2294.13 67.43 3.00  67.82 2705.05
   21:43:07.383.19-May-2020 5137.01 2312.16 67.43 3.00  68.02 2705.05
   21:43:07.583.19-May-2020 5137.01 2312.16 67.43 3.00  68.22 2705.05
   21:43:07.783.19-May-2020 5137.01 2330.01 67.43 3.00  68.42 2705.05
   21:43:07.983.19-May-2020 5137.01 2364.99 67.43 3.00  68.62 2705.05
   21:43:08.183.19-May-2020 5137.01 2382.16 67.43 3.00  68.82 2705.05
