~Version Information
 VERS.                  2.0:   CWLS log ASCII Standard -VERSION 2.0
 WRAP.                   NO:   One line per depth step
~Well Information Block
#MNEM.UNIT     VALUE/NAME     DESCRIPTION
#---------     -----------    ---------------------------
 STRT.S             06:41:15 20-May-20: START TIME 06:41:15 20-May-20
 STOP.S             06:51:49 20-May-20: STOP TIME  06:51:49 20-May-20
 STEP.S                   0.00: STEP TIME
 NULL.                 -999.25: NULL VALUE
 MDS .        Operator Entered:  MAG DATA SOURCE
 PDAT.          Mean Sea Level:  PERMANENT DATUM
 UNIT.                     N/A:  LOGGING EQUIPMENT ID
 DCON.         Sperry Drilling:  DIRECTNL CONTR
 DOE .                     N/A:  DOE NUMBER
 RIG .              East Azeri:  RIG NAME
 JOBN.        AZ-XX-0905856059:  JOB TICKET NUMB
 WELL.                     D36:  WELL NAME
 MWDS.                    Baku:  MWD SHOP
 SRVC.     Turan Drilling & Engineering:  CONTRACTOR
 FLD .                     ACG:  FIELD NAME
 CTRY.              Azerbaijan:  COUNTRY NAME
 PROV.                    Baku:  PROVINCE
 STAT.                    Baku:  STATE NAME
 REGN.                   EESSA:  REGION
 BASE.              Azerbaijan:  LOGGING EQUIPMENT BASE LOCATION
 UWI .                     N/A:  UNIQUE WELL IDENTIFIER
 API .                     N/A:  API NUMBER
 COMP.     BP Exploration (Caspian Sea) Ltd.:  COMPANY
 WTYP.                Deviated:  WELL TYPE
 SON .        AZ-XX-0905856059:  JOB NUMBER
 FTOP.          Formation Tops:  FORM TOPS DESC
 ILTD.               Lithology:  INTERP LTH DESC
 SVYD.                  Survey:  SURVEY DESC
 DMOD.             Drill Model:  DRILL MOD DESC
 HPTY.       Minimum Curvature:  HOLE POS TYPE
 NREF.                    Grid:  NORTH REFERENCE
 SPUD.               25-Feb-20:  SPUD DATE
 DATE.      08.55.28 01-May-20:  END TIME
 STIM.      08.55.28 25-Feb-20:  START TIME
 DMF .             Drill Floor:  DRILL MEAS FROM
 DFST.                        :  DIST FSL TEXT
 DFWT.                        :  DIST FWL TEXT
 CNTY.                        :  COUNTY
 LOC .                        :  LOCATION
 LMF .             Drill Floor:  LOG MEASURED FROM
 VSNS.m                   6.09:  VERT SEC N/S
 VSEW.m                 -10.79:  VERT SEC E/W
 AGAP.m                  43.60:  AIR GAP
 DEP .m                 388.24:  DEPTH
 APD .m                  43.60:  DEPTH ABOVE PD
 WDMS.m                 151.80:  WD ELEV
 EGL .m                   0.00:  GROUND ELEVATION
 EPD .m                   0.00:  ELEVATION
 AZTC.deg                 6.12:  AZM TOTAL CORR
 GRDC.deg                 0.30:  GRID CORRECTION
 MDEC.deg                 6.42:  MAGNETIC DECL
 MDIP.deg                59.42:  MAGNETIC DIP
 MFLD.nT              50256.00:  MAGNETIC FIELD
 GVFD.g                   1.00:  GRAVITY FIELD
 VSDR.deg               159.57:  VERT SEC DIRECT
 TDD .m                5000.01:  TOTAL DEPTH (DRILLER)
 SDEP.m                 397.00:  START DEPTH
 DFSL.m                   0.00:  DISTANCE FSL
 DFWL.m                   0.00:  DISTANCE FWL
 UTMY.m             4431880.20:  UTM Y
 UTMX.m              538763.98:  UTM X
 WHEW.m                 -10.79:  WELL HEAD E/W
 WHNS.m                   6.09:  WELL HEAD N/S
 LONG.deg                51.45:  LONGITUDE
 LATI.deg                40.02:  LATITUDE
 TVDS.m                  43.60:  TVDSS CORRECTN
 EKB .m                  43.60:  KB ELEVATION
 EDF .m                  43.60:  DF ELEVATION
 MAGU.                 1847640:  MAGUTM CHECKSUM
 VSC .                       0:  VS TO CLOSURE
~Parameter Information Block
#MNEM.UNIT       Value        Description
#---------     -----------    ---------------------------
 AV  .mps                 1.30:  Ann Velocity 
 AVMX.mps                 1.90:  Max Ann Veloc 
 AZIF.deg               115.68:  Azm, Final 
 BHAT.                   Other:  BHA Type 
 BROT.°/30m               0.74:  Build Rotating 
 BS  .in                  8.50:  Bit Size 
 BTPL.psig              430.00:  Bit Press Loss 
 CABU.                      No:  Customer Abuse 
 COMM.                     œÿv:  Run Comments 1 
 TCS .hr                 51.31:  Time Ciculation Ended 
 CV  .mps                 2.52:  Crit Velocity 
 CVMX.mps                 2.62:  Max Crit Veloc 
 DD1 .          Teymur Aghayev:  Direct Drillr 1 
 DDSV.                   Other:  DD Service 
 DEFF.%                 100.00:  % Det Eff 
 DLRX.°/30m               1.62:  Dogleg Rot Max 
 DLSO.°/30m               0.74:  Dogleg Oriented 
 DLSX.°/30m               1.62:  Dogleg Str Max 
 DRET.      04.30.56 18-May-20:  Drill End Time 
 DRST.      04.30.56 18-May-20:  Drill Start Tim 
 DTIM.hr                  0.00:  Time Drilling 
 EDEP.m                5337.01:  End Depth 
 ENG1.      Artemiy Matviyanov:  Engineer 1 
 ENG2.      Bakhtiyar Jabbarli:  Engineer 2 
 ENG3.           Emil Huseynov:  Engineer 3 
 ETIM.      18.40.00 22-May-20:  End Time 
 FLOI.gpm               550.00:  Flow In 
 FLON.gpm               350.00:  Flow In Min 
 FLOS.cptm                0.00:  Fluid Loss 
 FLOX.gpm               600.00:  Flow In Max 
 HFLO.                      No:  High Flow 
 HPRE.                      No:  High Pressure 
 HTEM.                      No:  High Temp 
 HYDO.m                   1.80:  Hydro Offset 
 IFIN.deg                67.01:  Inc, Final 
 IMAX.deg                67.49:  Inc Max 
 IMIN.deg                66.50:  Inc Min 
 IMND.m                5144.79:  Inc Min Depth 
 IMXD.m                5116.12:  Inc Max Depth 
 JARR.                      No:  Jarring 
 LETM.      17.55.56 20-May-20:  Log End Time 
 LOST.hr                     0:  Lost Rig Time 
 LSTM.      04.30.56 18-May-20:  Log Start Time 
 MDCL.ppm            193153.00:  Mud Chlorides 
 MDES.     Inversion Oil/Synthetic:  Mud Desc 
 DFD .sg                  1.40:  Mud Density 
 MDMN.sg                  1.40:  Dens Mud Min 
 MDMX.sg                  1.41:  Dens Mud Max 
 MOIL.                      68:  Run Mud Oil % 
 MOWR.                   68:32:  Run Mud OWR 
 MSND.                     0.2:  Run Mud Sand % 
 MSOL.                    18.8:  Run Mud Solids% 
 DFV .spqt               80.00:  Mud Viscosity 
 MWOD.in                  6.75:  MWD Tool OD 
 MWSI.                      No:  Serv Intrp, MWD 
 OTIM.hr                104.84:  Time Operating 
 PMAX.psia            10690.93:  Press Op, Max 
 PV  .cP                 26.00:  Mud PV 
 RUN .                     900:  Run Number 
 ROPA.m/hr                0.00:  ROP Avg 
 ROPN.m/hr                0.00:  ROP Min 
 ROPX.m/hr                0.00:  ROP Max 
 RPMA.rpm               140.00:  RPM Surface Avg 
 RPMN.rpm                70.00:  RPM Surface Min 
 RPMX.rpm               140.00:  RPM Surface Max 
 RRUN.                    0900:  Rig Run Number 
 RTIM.hr                 36.00:  Time Reaming 
 SAZI.deg               115.72:  Azm, Start 
 SDEP.m                5337.01:  Start Depth 
 SIDD.                      No:  Serv Intrp, DD 
 SINC.deg                66.92:  Inc, Start 
 SPPA.psig             4400.00:  SPP Avg 
 SPPN.psig             1135.00:  SPP Min 
 SPPX.psig             4581.00:  SPP Max 
 STIM.      04.30.56 18-May-20:  Start Time 
 SVCS.                     MWD:  Services 
 SVER.                    9.20:  Sperry Version 
 TDAT.m                5337.01:  Tot Depth Attmp 
 TDDF.                      No:  Trip for DD 
 TFF .                      No:  Trip for Fail 
 TQAA.f-kp               23.00:  Torque Abs Avg 
 TQAN.f-kp               18.00:  Torque Abs Min 
 TQAX.f-kp               25.00:  Torque Abs Max 
 TRRT.°/30m               0.74:  Turn Rotating 
 MRT .                    HCIM:  Maximum Recorded Temperature 
 TTMX.degC               76.47:  Max Tool Temp 
 WBMN.klb                 0.00:  WOB Min 
 WITN.             Anar Khalil:  Customer Rep 
 WITN.      Kamran Keberlinski:  Customer Rep 2 
 WOBA.klb                 0.00:  WOB Avg 
 WOBX.klb                 0.00:  WOB Max 
 YP  .lhf2               27.00:  Yield Point 
~Curve Information Block
#MNEM.UNIT                 API CODE     Curve Description
#---------               -----------    ---------------------------
 TIME.HHMMSS            00 000 000 000:  GT Time & Date
 GTDEPTH.m              00 000 000 000:  GT Depth
 GTPQH.psia             00 000 000 000:  GT HR Quartz Pressure
 GTTQ.degC              00 000 000 000:  GT Quartz Temperature
 GTTN.NONE              00 000 000 000:  GT Test Number
 GTET.sec               00 000 000 000:  GT Elapsed Test Time
 GTTVD.m                00 000 000 000:  GT True Vertical Depth
#Other Information
#
#WARRANTY: Halliburton will use its best efforts to furnish customers with 
#accurate information and interpretations that are part of, and incident to, the services 
#provided.  However, Halliburton cannot and does not warrant the accuracy 
#or correctness of such information and interpretations.  Under no circumstances should any 
#such information or interpretation be relied upon as the sole basis for any drilling, 
#completion, production, or financial decision or any procedure involving any risk to the 
#safety of any drilling venture, drilling rig or its crew or any other third party.  The 
#Customer has full responsibility for all drilling, completion and production operation.  
#Halliburton makes no representations or warranties, either expressed or 
#implied, including, but not limited to, the implied warranties of merchantability or fitness 
#for a particular purpose, with respect to the services rendered.  In no event will 
#Halliburton be liable for failure to obtain any particular results or for 
#any damages, including, but not limited to, indirect, special or consequential damages, 
#resulting from the use of any information or interpretation provided by Halliburton.
#
~A           TIME           GTDEPTH  GTPQH  GTTQ  GTTN   GTET   GTTVD  
# ...
   06:50:41.081.20-May-2020 5012.01 2902.25 68.06 10.00 565.16 2656.39
   06:50:41.281.20-May-2020 5012.01 2902.25 68.06 10.00 565.36 2656.39
   06:50:41.481.20-May-2020 5012.01 2902.37 68.06 10.00 565.56 2656.39
   06:50:41.681.20-May-2020 5012.01 2902.31 68.06 10.00 565.76 2656.39
   06:50:41.881.20-May-2020 5012.01 2902.36 68.06 10.00 565.96 2656.39
   06:50:42.081.20-May-2020 5012.01 2902.31 68.06 10.00 566.16 2656.39
   06:50:42.281.20-May-2020 5012.01 2902.35 68.06 10.00 566.36 2656.39
   06:50:42.481.20-May-2020 5012.01 2902.34 68.06 10.00 566.56 2656.39
   06:50:42.681.20-May-2020 5012.01 2902.37 68.06 10.00 566.76 2656.39
   06:50:42.881.20-May-2020 5012.01 2902.26 68.06 10.00 566.96 2656.39
   06:50:43.081.20-May-2020 5012.01 2902.33 68.06 10.00 567.16 2656.39
   06:50:43.281.20-May-2020 5012.01 2902.33 68.06 10.00 567.36 2656.39
   06:50:43.481.20-May-2020 5012.01 2902.48 68.06 10.00 567.56 2656.39
   06:50:43.681.20-May-2020 5012.01 2902.32 68.06 10.00 567.76 2656.39
   06:50:43.881.20-May-2020 5012.01 2902.24 68.06 10.00 567.96 2656.39
   06:50:44.081.20-May-2020 5012.01 2902.46 68.06 10.00 568.16 2656.39
   06:50:44.282.20-May-2020 5012.01 2902.46 68.06 10.00 568.36 2656.39
   06:50:44.482.20-May-2020 5012.01 2902.30 68.06 10.00 568.56 2656.39
   06:50:44.682.20-May-2020 5012.01 2902.38 68.06 10.00 568.76 2656.39
   06:50:44.882.20-May-2020 5012.01 2902.33 68.06 10.00 568.96 2656.39
   06:50:45.082.20-May-2020 5012.01 2902.28 68.06 10.00 569.16 2656.39
   06:50:45.282.20-May-2020 5012.01 2902.28 68.06 10.00 569.36 2656.39
   06:50:45.482.20-May-2020 5012.01 2902.36 68.06 10.00 569.56 2656.39
   06:50:45.682.20-May-2020 5012.01 2902.36 68.06 10.00 569.76 2656.39
   06:50:45.882.20-May-2020 5012.01 2902.39 68.06 10.00 569.96 2656.39
   06:50:46.082.20-May-2020 5012.01 2902.30 68.06 10.00 570.16 2656.39
   06:50:46.282.20-May-2020 5012.01 2902.37 68.06 10.00 570.36 2656.39
   06:50:46.482.20-May-2020 5012.01 2902.32 68.06 10.00 570.56 2656.39
   06:50:46.682.20-May-2020 5012.01 2902.35 68.06 10.00 570.76 2656.39
   06:50:46.882.20-May-2020 5012.01 2902.35 68.06 10.00 570.96 2656.39
   06:50:47.082.20-May-2020 5012.01 2902.32 68.06 10.00 571.16 2656.39
   06:50:47.282.20-May-2020 5012.01 2902.32 68.06 10.00 571.36 2656.39
   06:50:47.482.20-May-2020 5012.01 2902.33 68.06 10.00 571.56 2656.39
   06:50:47.682.20-May-2020 5012.01 2902.34 68.06 10.00 571.76 2656.39
   06:50:47.883.20-May-2020 5012.01 2902.35 68.06 10.00 571.96 2656.39
   06:50:48.083.20-May-2020 5012.01 2902.33 68.06 10.00 572.16 2656.39
   06:50:48.283.20-May-2020 5012.01 2902.33 68.06 10.00 572.36 2656.39
   06:50:48.483.20-May-2020 5012.01 2902.34 68.06 10.00 572.56 2656.39
   06:50:48.683.20-May-2020 5012.01 2902.34 68.06 10.00 572.76 2656.39
   06:50:48.883.20-May-2020 5012.01 2902.24 68.06 10.00 572.96 2656.39
   06:50:49.083.20-May-2020 5012.01 2902.43 68.06 10.00 573.16 2656.39
   06:50:49.283.20-May-2020 5012.01 2902.43 68.06 10.00 573.36 2656.39
   06:50:49.483.20-May-2020 5012.01 2902.29 68.06 10.00 573.56 2656.39
   06:50:49.683.20-May-2020 5012.01 2902.37 68.06 10.00 573.76 2656.39
   06:50:49.883.20-May-2020 5012.01 2902.35 68.06 10.00 573.96 2656.39
   06:50:50.083.20-May-2020 5012.01 2902.34 68.06 10.00 574.16 2656.39
   06:50:50.283.20-May-2020 5012.01 2902.36 68.06 10.00 574.36 2656.39
   06:50:50.483.20-May-2020 5012.01 2902.42 68.06 10.00 574.56 2656.39
   06:50:50.683.20-May-2020 5012.01 2902.30 68.06 10.00 574.76 2656.39
   06:50:50.883.20-May-2020 5012.01 2902.34 68.06 10.00 574.96 2656.39
   06:50:51.083.20-May-2020 5012.01 2902.32 68.06 10.00 575.16 2656.39
   06:50:51.283.20-May-2020 5012.01 2902.32 68.06 10.00 575.36 2656.39
   06:50:51.484.20-May-2020 5012.01 2902.32 68.06 10.00 575.56 2656.39
   06:50:51.684.20-May-2020 5012.01 2902.29 68.06 10.00 575.76 2656.39
   06:50:51.884.20-May-2020 5012.01 2903.67 68.06 10.00 575.96 2656.39
   06:50:52.084.20-May-2020 5012.01 2914.91 68.06 10.00 576.16 2656.39
   06:50:52.284.20-May-2020 5012.01 2914.91 68.06 10.00 576.36 2656.39
   06:50:52.484.20-May-2020 5012.01 5966.41 68.06 10.00 576.56 2656.39
   06:50:52.684.20-May-2020 5012.01 6360.14 68.06 10.00 576.76 2656.39
   06:50:52.884.20-May-2020 5012.01 6361.66 68.06 10.00 576.96 2656.39
   06:50:53.084.20-May-2020 5012.01 6360.16 68.06 10.00 577.16 2656.39
   06:50:53.284.20-May-2020 5012.01 6360.16 68.06 10.00 577.36 2656.39
   06:50:53.484.20-May-2020 5012.01 6360.24 68.06 10.00 577.56 2656.39
   06:50:53.684.20-May-2020 5012.01 6361.35 68.07 10.00 577.76 2656.39
   06:50:53.884.20-May-2020 5012.01 6361.66 68.07 10.00 577.96 2656.39
   06:50:54.084.20-May-2020 5012.01 6362.04 68.07 10.00 578.16 2656.39
   06:50:54.284.20-May-2020 5012.01 6362.47 68.07 10.00 578.36 2656.39
   06:50:54.484.20-May-2020 5012.01 6363.15 68.07 10.00 578.56 2656.39
   06:50:54.684.20-May-2020 5012.01 6363.12 68.08 10.00 578.76 2656.39
   06:50:54.885.20-May-2020 5012.01 6364.19 68.08 10.00 578.96 2656.39
   06:50:55.085.20-May-2020 5012.01 6364.15 68.08 10.00 579.16 2656.39
   06:50:55.285.20-May-2020 5012.01 6364.15 68.08 10.00 579.36 2656.39
   06:50:55.485.20-May-2020 5012.01 6364.17 68.09 10.00 579.56 2656.39
   06:50:55.685.20-May-2020 5012.01 6364.85 68.09 10.00 579.76 2656.39
   06:50:55.885.20-May-2020 5012.01 6366.67 68.09 10.00 579.96 2656.39
   06:50:56.085.20-May-2020 5012.01 6374.46 68.09 10.00 580.16 2656.39
   06:50:56.285.20-May-2020 5012.01 6374.46 68.09 10.00 580.36 2656.39
   06:50:56.485.20-May-2020 5012.01 6365.56 68.10 10.00 580.56 2656.39
   06:50:56.685.20-May-2020 5012.01 6368.94 68.10 10.00 580.76 2656.39
   06:50:56.885.20-May-2020 5012.01 6373.73 68.11 10.00 580.96 2656.39
   06:50:57.085.20-May-2020 5012.01 6369.10 68.11 10.00 581.16 2656.39
   06:50:57.285.20-May-2020 5012.01 6369.10 68.11 10.00 581.36 2656.39
   06:50:57.485.20-May-2020 5012.01 6370.52 68.11 10.00 581.56 2656.39
   06:50:57.685.20-May-2020 5012.01 6369.33 68.12 10.00 581.76 2656.39
   06:50:57.885.20-May-2020 5012.01 6369.11 68.12 10.00 581.96 2656.39
   06:50:58.085.20-May-2020 5012.01 6373.23 68.12 10.00 582.16 2656.39
   06:50:58.285.20-May-2020 5012.01 6373.23 68.12 10.00 582.36 2656.39
   06:50:58.486.20-May-2020 5012.01 6367.67 68.12 10.00 582.56 2656.39
   06:50:58.686.20-May-2020 5012.01 6368.52 68.13 10.00 582.76 2656.39
   06:50:58.886.20-May-2020 5012.01 6372.19 68.13 10.00 582.96 2656.39
   06:50:59.086.20-May-2020 5012.01 6369.09 68.13 10.00 583.16 2656.39
   06:50:59.286.20-May-2020 5012.01 6369.09 68.13 10.00 583.36 2656.39
   06:50:59.486.20-May-2020 5012.01 6368.78 68.13 10.00 583.57 2656.39
   06:50:59.686.20-May-2020 5012.01 6368.42 68.13 10.00 583.77 2656.39
   06:50:59.886.20-May-2020 5012.01 6369.61 68.14 10.00 583.97 2656.39
   06:51:00.086.20-May-2020 5012.01 6370.44 68.14 10.00 584.17 2656.39
   06:51:00.286.20-May-2020 5012.01 6370.44 68.14 10.00 584.37 2656.39
   06:51:00.486.20-May-2020 5012.01 6367.73 68.14 10.00 584.57 2656.39
   06:51:00.686.20-May-2020 5012.01 6368.19 68.14 10.00 584.77 2656.39
   06:51:00.886.20-May-2020 5012.01 6368.06 68.14 10.00 584.97 2656.39
   06:51:01.086.20-May-2020 5012.01 6367.70 68.14 10.00 585.17 2656.39
   06:51:01.286.20-May-2020 5012.01 6367.70 68.14 10.00 585.37 2656.39
   06:51:01.486.20-May-2020 5012.01 6367.44 68.15 10.00 585.57 2656.39
   06:51:01.686.20-May-2020 5012.01 6366.89 68.15 10.00 585.77 2656.39
   06:51:01.886.20-May-2020 5012.01 6367.55 68.15 10.00 585.97 2656.39
   06:51:02.087.20-May-2020 5012.01 6367.13 68.15 10.00 586.17 2656.39
   06:51:02.287.20-May-2020 5012.01 6373.56 68.15 10.00 586.37 2656.39
   06:51:02.487.20-May-2020 5012.01 6366.24 68.15 10.00 586.57 2656.39
   06:51:02.687.20-May-2020 5012.01 6366.77 68.15 10.00 586.77 2656.39
   06:51:02.887.20-May-2020 5012.01 6368.39 68.15 10.00 586.97 2656.39
   06:51:03.087.20-May-2020 5012.01 6375.19 68.15 10.00 587.17 2656.39
   06:51:03.287.20-May-2020 5012.01 6375.19 68.15 10.00 587.37 2656.39
   06:51:03.487.20-May-2020 5012.01 6369.05 68.15 10.00 587.57 2656.39
