~Version Information
 VERS.                  2.0:   CWLS log ASCII Standard -VERSION 2.0
 WRAP.                   NO:   One line per depth step
~Well Information Block
#MNEM.UNIT     VALUE/NAME     DESCRIPTION
#---------     -----------    ---------------------------
 STRT.S             23:11:25 19-May-20: START TIME 23:11:25 19-May-20
 STOP.S             23:19:39 19-May-20: STOP TIME  23:19:39 19-May-20
 STEP.S                   0.00: STEP TIME
 NULL.                 -999.25: NULL VALUE
 MDS .        Operator Entered:  MAG DATA SOURCE
 PDAT.          Mean Sea Level:  PERMANENT DATUM
 UNIT.                     N/A:  LOGGING EQUIPMENT ID
 DCON.         Sperry Drilling:  DIRECTNL CONTR
 DOE .                     N/A:  DOE NUMBER
 RIG .              East Azeri:  RIG NAME
 JOBN.        AZ-XX-0905856059:  JOB TICKET NUMB
 WELL.                     D36:  WELL NAME
 MWDS.                    Baku:  MWD SHOP
 SRVC.     Turan Drilling & Engineering:  CONTRACTOR
 FLD .                     ACG:  FIELD NAME
 CTRY.              Azerbaijan:  COUNTRY NAME
 PROV.                    Baku:  PROVINCE
 STAT.                    Baku:  STATE NAME
 REGN.                   EESSA:  REGION
 BASE.              Azerbaijan:  LOGGING EQUIPMENT BASE LOCATION
 UWI .                     N/A:  UNIQUE WELL IDENTIFIER
 API .                     N/A:  API NUMBER
 COMP.     BP Exploration (Caspian Sea) Ltd.:  COMPANY
 WTYP.                Deviated:  WELL TYPE
 SON .        AZ-XX-0905856059:  JOB NUMBER
 FTOP.          Formation Tops:  FORM TOPS DESC
 ILTD.               Lithology:  INTERP LTH DESC
 SVYD.                  Survey:  SURVEY DESC
 DMOD.             Drill Model:  DRILL MOD DESC
 HPTY.       Minimum Curvature:  HOLE POS TYPE
 NREF.                    Grid:  NORTH REFERENCE
 SPUD.               25-Feb-20:  SPUD DATE
 DATE.      08.55.28 01-May-20:  END TIME
 STIM.      08.55.28 25-Feb-20:  START TIME
 DMF .             Drill Floor:  DRILL MEAS FROM
 DFST.                        :  DIST FSL TEXT
 DFWT.                        :  DIST FWL TEXT
 CNTY.                        :  COUNTY
 LOC .                        :  LOCATION
 LMF .             Drill Floor:  LOG MEASURED FROM
 VSNS.m                   6.09:  VERT SEC N/S
 VSEW.m                 -10.79:  VERT SEC E/W
 AGAP.m                  43.60:  AIR GAP
 DEP .m                 388.24:  DEPTH
 APD .m                  43.60:  DEPTH ABOVE PD
 WDMS.m                 151.80:  WD ELEV
 EGL .m                   0.00:  GROUND ELEVATION
 EPD .m                   0.00:  ELEVATION
 AZTC.deg                 6.12:  AZM TOTAL CORR
 GRDC.deg                 0.30:  GRID CORRECTION
 MDEC.deg                 6.42:  MAGNETIC DECL
 MDIP.deg                59.42:  MAGNETIC DIP
 MFLD.nT              50256.00:  MAGNETIC FIELD
 GVFD.g                   1.00:  GRAVITY FIELD
 VSDR.deg               159.57:  VERT SEC DIRECT
 TDD .m                5000.01:  TOTAL DEPTH (DRILLER)
 SDEP.m                 397.00:  START DEPTH
 DFSL.m                   0.00:  DISTANCE FSL
 DFWL.m                   0.00:  DISTANCE FWL
 UTMY.m             4431880.20:  UTM Y
 UTMX.m              538763.98:  UTM X
 WHEW.m                 -10.79:  WELL HEAD E/W
 WHNS.m                   6.09:  WELL HEAD N/S
 LONG.deg                51.45:  LONGITUDE
 LATI.deg                40.02:  LATITUDE
 TVDS.m                  43.60:  TVDSS CORRECTN
 EKB .m                  43.60:  KB ELEVATION
 EDF .m                  43.60:  DF ELEVATION
 MAGU.                 1847640:  MAGUTM CHECKSUM
 VSC .                       0:  VS TO CLOSURE
~Parameter Information Block
#MNEM.UNIT       Value        Description
#---------     -----------    ---------------------------
 AV  .mps                 1.30:  Ann Velocity 
 AVMX.mps                 1.90:  Max Ann Veloc 
 AZIF.deg               115.68:  Azm, Final 
 BHAT.                   Other:  BHA Type 
 BROT.°/30m               0.74:  Build Rotating 
 BS  .in                  8.50:  Bit Size 
 BTPL.psig              430.00:  Bit Press Loss 
 CABU.                      No:  Customer Abuse 
 COMM.                     Tr}:  Run Comments 1 
 TCS .hr                 51.31:  Time Ciculation Ended 
 CV  .mps                 2.52:  Crit Velocity 
 CVMX.mps                 2.62:  Max Crit Veloc 
 DD1 .          Teymur Aghayev:  Direct Drillr 1 
 DDSV.                   Other:  DD Service 
 DEFF.%                 100.00:  % Det Eff 
 DLRX.°/30m               1.62:  Dogleg Rot Max 
 DLSO.°/30m               0.74:  Dogleg Oriented 
 DLSX.°/30m               1.62:  Dogleg Str Max 
 DRET.      04.30.56 18-May-20:  Drill End Time 
 DRST.      04.30.56 18-May-20:  Drill Start Tim 
 DTIM.hr                  0.00:  Time Drilling 
 EDEP.m                5337.01:  End Depth 
 ENG1.      Artemiy Matviyanov:  Engineer 1 
 ENG2.      Bakhtiyar Jabbarli:  Engineer 2 
 ENG3.           Emil Huseynov:  Engineer 3 
 ETIM.      18.40.00 22-May-20:  End Time 
 FLOI.gpm               550.00:  Flow In 
 FLON.gpm               350.00:  Flow In Min 
 FLOS.cptm                0.00:  Fluid Loss 
 FLOX.gpm               600.00:  Flow In Max 
 HFLO.                      No:  High Flow 
 HPRE.                      No:  High Pressure 
 HTEM.                      No:  High Temp 
 HYDO.m                   1.80:  Hydro Offset 
 IFIN.deg                67.01:  Inc, Final 
 IMAX.deg                67.49:  Inc Max 
 IMIN.deg                66.50:  Inc Min 
 IMND.m                5144.79:  Inc Min Depth 
 IMXD.m                5116.12:  Inc Max Depth 
 JARR.                      No:  Jarring 
 LETM.      17.55.56 20-May-20:  Log End Time 
 LOST.hr                     0:  Lost Rig Time 
 LSTM.      04.30.56 18-May-20:  Log Start Time 
 MDCL.ppm            193153.00:  Mud Chlorides 
 MDES.     Inversion Oil/Synthetic:  Mud Desc 
 DFD .sg                  1.40:  Mud Density 
 MDMN.sg                  1.40:  Dens Mud Min 
 MDMX.sg                  1.41:  Dens Mud Max 
 MOIL.                      68:  Run Mud Oil % 
 MOWR.                   68:32:  Run Mud OWR 
 MSND.                     0.2:  Run Mud Sand % 
 MSOL.                    18.8:  Run Mud Solids% 
 DFV .spqt               80.00:  Mud Viscosity 
 MWOD.in                  6.75:  MWD Tool OD 
 MWSI.                      No:  Serv Intrp, MWD 
 OTIM.hr                104.84:  Time Operating 
 PMAX.psia            10690.93:  Press Op, Max 
 PV  .cP                 26.00:  Mud PV 
 RUN .                     900:  Run Number 
 ROPA.m/hr                0.00:  ROP Avg 
 ROPN.m/hr                0.00:  ROP Min 
 ROPX.m/hr                0.00:  ROP Max 
 RPMA.rpm               140.00:  RPM Surface Avg 
 RPMN.rpm                70.00:  RPM Surface Min 
 RPMX.rpm               140.00:  RPM Surface Max 
 RRUN.                    0900:  Rig Run Number 
 RTIM.hr                 36.00:  Time Reaming 
 SAZI.deg               115.72:  Azm, Start 
 SDEP.m                5337.01:  Start Depth 
 SIDD.                      No:  Serv Intrp, DD 
 SINC.deg                66.92:  Inc, Start 
 SPPA.psig             4400.00:  SPP Avg 
 SPPN.psig             1135.00:  SPP Min 
 SPPX.psig             4581.00:  SPP Max 
 STIM.      04.30.56 18-May-20:  Start Time 
 SVCS.                     MWD:  Services 
 SVER.                    9.20:  Sperry Version 
 TDAT.m                5337.01:  Tot Depth Attmp 
 TDDF.                      No:  Trip for DD 
 TFF .                      No:  Trip for Fail 
 TQAA.f-kp               23.00:  Torque Abs Avg 
 TQAN.f-kp               18.00:  Torque Abs Min 
 TQAX.f-kp               25.00:  Torque Abs Max 
 TRRT.°/30m               0.74:  Turn Rotating 
 MRT .                    HCIM:  Maximum Recorded Temperature 
 TTMX.degC               76.47:  Max Tool Temp 
 WBMN.klb                 0.00:  WOB Min 
 WITN.             Anar Khalil:  Customer Rep 
 WITN.      Kamran Keberlinski:  Customer Rep 2 
 WOBA.klb                 0.00:  WOB Avg 
 WOBX.klb                 0.00:  WOB Max 
 YP  .lhf2               27.00:  Yield Point 
~Curve Information Block
#MNEM.UNIT                 API CODE     Curve Description
#---------               -----------    ---------------------------
 TIME.HHMMSS            00 000 000 000:  GT Time & Date
 GTDEPTH.m              00 000 000 000:  GT Depth
 GTPQH.psia             00 000 000 000:  GT HR Quartz Pressure
 GTTQ.degC              00 000 000 000:  GT Quartz Temperature
 GTTN.NONE              00 000 000 000:  GT Test Number
 GTET.sec               00 000 000 000:  GT Elapsed Test Time
 GTTVD.m                00 000 000 000:  GT True Vertical Depth
#Other Information
#
#WARRANTY: Halliburton will use its best efforts to furnish customers with 
#accurate information and interpretations that are part of, and incident to, the services 
#provided.  However, Halliburton cannot and does not warrant the accuracy 
#or correctness of such information and interpretations.  Under no circumstances should any 
#such information or interpretation be relied upon as the sole basis for any drilling, 
#completion, production, or financial decision or any procedure involving any risk to the 
#safety of any drilling venture, drilling rig or its crew or any other third party.  The 
#Customer has full responsibility for all drilling, completion and production operation.  
#Halliburton makes no representations or warranties, either expressed or 
#implied, including, but not limited to, the implied warranties of merchantability or fitness 
#for a particular purpose, with respect to the services rendered.  In no event will 
#Halliburton be liable for failure to obtain any particular results or for 
#any damages, including, but not limited to, indirect, special or consequential damages, 
#resulting from the use of any information or interpretation provided by Halliburton.
#
~A           TIME           GTDEPTH  GTPQH  GTTQ  GTTN  GTET   GTTVD  
# ...
   23:13:20.732.19-May-2020 5121.01 1955.45 67.94 5.00 115.03 2698.81
   23:13:20.932.19-May-2020 5121.01 1955.45 67.94 5.00 115.23 2698.81
   23:13:21.132.19-May-2020 5121.01 1960.96 67.94 5.00 115.43 2698.81
   23:13:21.332.19-May-2020 5121.01 1963.68 67.94 5.00 115.63 2698.81
   23:13:21.533.19-May-2020 5121.01 1966.39 67.94 5.00 115.83 2698.81
   23:13:21.733.19-May-2020 5121.01 1969.10 67.94 5.00 116.03 2698.81
   23:13:21.933.19-May-2020 5121.01 1969.10 67.94 5.00 116.23 2698.81
   23:13:22.133.19-May-2020 5121.01 1974.45 67.94 5.00 116.43 2698.81
   23:13:22.333.19-May-2020 5121.01 1977.08 67.94 5.00 116.63 2698.81
   23:13:22.533.19-May-2020 5121.01 1979.78 67.94 5.00 116.83 2698.81
   23:13:22.733.19-May-2020 5121.01 1982.36 67.94 5.00 117.03 2698.81
   23:13:22.933.19-May-2020 5121.01 1982.36 67.94 5.00 117.23 2698.81
   23:13:23.133.19-May-2020 5121.01 1987.55 67.94 5.00 117.43 2698.81
   23:13:23.333.19-May-2020 5121.01 1990.32 67.94 5.00 117.63 2698.81
   23:13:23.533.19-May-2020 5121.01 1993.13 67.94 5.00 117.83 2698.81
   23:13:23.733.19-May-2020 5121.01 1995.44 67.94 5.00 118.03 2698.81
   23:13:23.933.19-May-2020 5121.01 1998.24 67.94 5.00 118.23 2698.81
   23:13:24.133.19-May-2020 5121.01 2001.27 67.94 5.00 118.43 2698.81
   23:13:24.333.19-May-2020 5121.01 2004.02 67.94 5.00 118.63 2698.81
   23:13:24.533.19-May-2020 5121.01 2006.23 67.94 5.00 118.83 2698.81
   23:13:24.733.19-May-2020 5121.01 2009.29 67.94 5.00 119.03 2698.81
   23:13:24.933.19-May-2020 5121.01 2011.95 67.94 5.00 119.23 2698.81
   23:13:25.133.19-May-2020 5121.01 2014.76 67.94 5.00 119.43 2698.81
   23:13:25.333.19-May-2020 5121.01 2017.38 67.94 5.00 119.63 2698.81
   23:13:25.534.19-May-2020 5121.01 2020.15 67.95 5.00 119.83 2698.81
   23:13:25.734.19-May-2020 5121.01 2022.49 67.94 5.00 120.03 2698.81
   23:13:25.934.19-May-2020 5121.01 2022.49 67.94 5.00 120.23 2698.81
   23:13:26.134.19-May-2020 5121.01 2028.08 67.95 5.00 120.43 2698.81
   23:13:26.334.19-May-2020 5121.01 2030.81 67.95 5.00 120.63 2698.81
   23:13:26.534.19-May-2020 5121.01 2033.46 67.95 5.00 120.83 2698.81
   23:13:26.734.19-May-2020 5121.01 2036.20 67.95 5.00 121.03 2698.81
   23:13:26.934.19-May-2020 5121.01 2036.20 67.95 5.00 121.23 2698.81
   23:13:27.134.19-May-2020 5121.01 2041.13 67.95 5.00 121.43 2698.81
   23:13:27.334.19-May-2020 5121.01 2044.00 67.95 5.00 121.63 2698.81
   23:13:27.534.19-May-2020 5121.01 2046.92 67.95 5.00 121.83 2698.81
   23:13:27.734.19-May-2020 5121.01 2049.53 67.95 5.00 122.03 2698.81
   23:13:27.934.19-May-2020 5121.01 2052.39 67.95 5.00 122.23 2698.81
   23:13:28.134.19-May-2020 5121.01 2055.03 67.95 5.00 122.43 2698.81
   23:13:28.334.19-May-2020 5121.01 2057.62 67.95 5.00 122.63 2698.81
   23:13:28.534.19-May-2020 5121.01 2060.35 67.95 5.00 122.83 2698.81
   23:13:28.734.19-May-2020 5121.01 2063.02 67.95 5.00 123.03 2698.81
   23:13:28.934.19-May-2020 5121.01 2065.60 67.95 5.00 123.23 2698.81
   23:13:29.134.19-May-2020 5121.01 2068.28 67.95 5.00 123.43 2698.81
   23:13:29.334.19-May-2020 5121.01 2070.84 67.95 5.00 123.63 2698.81
   23:13:29.535.19-May-2020 5121.01 2073.54 67.95 5.00 123.83 2698.81
   23:13:29.735.19-May-2020 5121.01 2076.16 67.95 5.00 124.03 2698.81
   23:13:29.935.19-May-2020 5121.01 2076.16 67.95 5.00 124.23 2698.81
   23:13:30.135.19-May-2020 5121.01 2081.08 67.95 5.00 124.43 2698.81
   23:13:30.335.19-May-2020 5121.01 2084.02 67.95 5.00 124.63 2698.81
   23:13:30.535.19-May-2020 5121.01 2086.98 67.95 5.00 124.83 2698.81
   23:13:30.735.19-May-2020 5121.01 2089.60 67.95 5.00 125.03 2698.81
   23:13:30.935.19-May-2020 5121.01 2089.60 67.95 5.00 125.23 2698.81
   23:13:31.135.19-May-2020 5121.01 2094.92 67.95 5.00 125.43 2698.81
   23:13:31.335.19-May-2020 5121.01 2097.71 67.95 5.00 125.63 2698.81
   23:13:31.535.19-May-2020 5121.01 2100.42 67.95 5.00 125.83 2698.81
   23:13:31.735.19-May-2020 5121.01 2103.16 67.95 5.00 126.03 2698.81
   23:13:31.935.19-May-2020 5121.01 2105.65 67.95 5.00 126.23 2698.81
   23:13:32.135.19-May-2020 5121.01 2108.25 67.95 5.00 126.43 2698.81
   23:13:32.335.19-May-2020 5121.01 2110.46 67.95 5.00 126.63 2698.81
   23:13:32.535.19-May-2020 5121.01 2113.39 67.95 5.00 126.83 2698.81
   23:13:32.735.19-May-2020 5121.01 2116.06 67.95 5.00 127.03 2698.81
   23:13:32.935.19-May-2020 5121.01 2116.06 67.95 5.00 127.23 2698.81
   23:13:33.135.19-May-2020 5121.01 2120.93 67.95 5.00 127.43 2698.81
   23:13:33.335.19-May-2020 5121.01 2123.83 67.95 5.00 127.63 2698.81
   23:13:33.536.19-May-2020 5121.01 2126.65 67.95 5.00 127.83 2698.81
   23:13:33.736.19-May-2020 5121.01 2129.36 67.95 5.00 128.03 2698.81
   23:13:33.936.19-May-2020 5121.01 2129.36 67.95 5.00 128.23 2698.81
   23:13:34.136.19-May-2020 5121.01 2134.38 67.95 5.00 128.43 2698.81
   23:13:34.336.19-May-2020 5121.01 2137.40 67.95 5.00 128.63 2698.81
   23:13:34.536.19-May-2020 5121.01 2140.41 67.95 5.00 128.83 2698.81
   23:13:34.736.19-May-2020 5121.01 2143.10 67.95 5.00 129.03 2698.81
   23:13:34.936.19-May-2020 5121.01 2143.10 67.95 5.00 129.23 2698.81
   23:13:35.136.19-May-2020 5121.01 2148.95 67.95 5.00 129.43 2698.81
   23:13:35.336.19-May-2020 5121.01 2151.65 67.95 5.00 129.63 2698.81
   23:13:35.536.19-May-2020 5121.01 2154.57 67.95 5.00 129.83 2698.81
   23:13:35.736.19-May-2020 5121.01 2157.56 67.95 5.00 130.03 2698.81
   23:13:35.936.19-May-2020 5121.01 2157.56 67.95 5.00 130.23 2698.81
   23:13:36.136.19-May-2020 5121.01 2163.18 67.95 5.00 130.43 2698.81
   23:13:36.336.19-May-2020 5121.01 2165.89 67.95 5.00 130.63 2698.81
   23:13:36.536.19-May-2020 5121.01 2168.72 67.95 5.00 130.83 2698.81
   23:13:36.736.19-May-2020 5121.01 2171.50 67.95 5.00 131.03 2698.81
   23:13:36.936.19-May-2020 5121.01 2171.50 67.95 5.00 131.23 2698.81
   23:13:37.136.19-May-2020 5121.01 2176.61 67.95 5.00 131.43 2698.81
   23:13:37.336.19-May-2020 5121.01 2180.44 67.95 5.00 131.63 2698.81
   23:13:37.537.19-May-2020 5121.01 2184.94 67.95 5.00 131.83 2698.81
   23:13:37.737.19-May-2020 5121.01 2187.32 67.95 5.00 132.03 2698.81
   23:13:37.937.19-May-2020 5121.01 2187.32 67.95 5.00 132.23 2698.81
   23:13:38.137.19-May-2020 5121.01 2193.19 67.95 5.00 132.43 2698.81
   23:13:38.337.19-May-2020 5121.01 2196.06 67.95 5.00 132.63 2698.81
   23:13:38.537.19-May-2020 5121.01 2198.62 67.95 5.00 132.83 2698.81
   23:13:38.737.19-May-2020 5121.01 2201.67 67.95 5.00 133.03 2698.81
   23:13:38.937.19-May-2020 5121.01 2201.67 67.95 5.00 133.23 2698.81
   23:13:39.137.19-May-2020 5121.01 2207.71 67.95 5.00 133.43 2698.81
   23:13:39.337.19-May-2020 5121.01 2210.32 67.95 5.00 133.63 2698.81
   23:13:39.537.19-May-2020 5121.01 2212.98 67.95 5.00 133.83 2698.81
   23:13:39.737.19-May-2020 5121.01 2216.09 67.95 5.00 134.03 2698.81
   23:13:39.937.19-May-2020 5121.01 2216.09 67.95 5.00 134.23 2698.81
   23:13:40.137.19-May-2020 5121.01 2231.74 67.95 5.00 134.43 2698.81
   23:13:40.337.19-May-2020 5121.01 2238.63 67.95 5.00 134.63 2698.81
   23:13:40.537.19-May-2020 5121.01 2247.31 67.95 5.00 134.83 2698.81
   23:13:40.737.19-May-2020 5121.01 2255.59 67.95 5.00 135.03 2698.81
   23:13:40.937.19-May-2020 5121.01 2255.59 67.95 5.00 135.23 2698.81
   23:13:41.137.19-May-2020 5121.01 2269.33 67.95 5.00 135.43 2698.81
   23:13:41.337.19-May-2020 5121.01 2275.13 67.95 5.00 135.63 2698.81
   23:13:41.538.19-May-2020 5121.01 2280.99 67.95 5.00 135.83 2698.81
   23:13:41.738.19-May-2020 5121.01 2286.37 67.95 5.00 136.03 2698.81
   23:13:41.938.19-May-2020 5121.01 2286.37 67.95 5.00 136.23 2698.81
   23:13:42.138.19-May-2020 5121.01 2297.04 67.95 5.00 136.43 2698.81
   23:13:42.338.19-May-2020 5121.01 2302.13 67.95 5.00 136.63 2698.81
   23:13:42.538.19-May-2020 5121.01 2307.37 67.95 5.00 136.83 2698.81
   23:13:42.738.19-May-2020 5121.01 2312.49 67.95 5.00 137.03 2698.81
   23:13:42.938.19-May-2020 5121.01 2312.49 67.95 5.00 137.23 2698.81
   23:13:43.138.19-May-2020 5121.01 2322.33 67.95 5.00 137.43 2698.81
   23:13:43.338.19-May-2020 5121.01 2327.32 67.95 5.00 137.63 2698.81
   23:13:43.538.19-May-2020 5121.01 2332.17 67.95 5.00 137.83 2698.81
