~Version Information
 VERS.                  2.0:   CWLS log ASCII Standard -VERSION 2.0
 WRAP.                   NO:   One line per depth step
~Well Information Block
#MNEM.UNIT     VALUE/NAME     DESCRIPTION
#---------     -----------    ---------------------------
 STRT.S             15:16:23 19-May-20: START TIME 15:16:23 19-May-20
 STOP.S             15:23:31 19-May-20: STOP TIME  15:23:31 19-May-20
 STEP.S                   0.00: STEP TIME
 NULL.                 -999.25: NULL VALUE
 MDS .        Operator Entered:  MAG DATA SOURCE
 PDAT.          Mean Sea Level:  PERMANENT DATUM
 UNIT.                     N/A:  LOGGING EQUIPMENT ID
 DCON.         Sperry Drilling:  DIRECTNL CONTR
 DOE .                     N/A:  DOE NUMBER
 RIG .              East Azeri:  RIG NAME
 JOBN.        AZ-XX-0905856059:  JOB TICKET NUMB
 WELL.                     D36:  WELL NAME
 MWDS.                    Baku:  MWD SHOP
 SRVC.     Turan Drilling & Engineering:  CONTRACTOR
 FLD .                     ACG:  FIELD NAME
 CTRY.              Azerbaijan:  COUNTRY NAME
 PROV.                    Baku:  PROVINCE
 STAT.                    Baku:  STATE NAME
 REGN.                   EESSA:  REGION
 BASE.              Azerbaijan:  LOGGING EQUIPMENT BASE LOCATION
 UWI .                     N/A:  UNIQUE WELL IDENTIFIER
 API .                     N/A:  API NUMBER
 COMP.     BP Exploration (Caspian Sea) Ltd.:  COMPANY
 WTYP.                Deviated:  WELL TYPE
 SON .        AZ-XX-0905856059:  JOB NUMBER
 FTOP.          Formation Tops:  FORM TOPS DESC
 ILTD.               Lithology:  INTERP LTH DESC
 SVYD.                  Survey:  SURVEY DESC
 DMOD.             Drill Model:  DRILL MOD DESC
 HPTY.       Minimum Curvature:  HOLE POS TYPE
 NREF.                    Grid:  NORTH REFERENCE
 SPUD.               25-Feb-20:  SPUD DATE
 DATE.      08.55.28 01-May-20:  END TIME
 STIM.      08.55.28 25-Feb-20:  START TIME
 DMF .             Drill Floor:  DRILL MEAS FROM
 DFST.                        :  DIST FSL TEXT
 DFWT.                        :  DIST FWL TEXT
 CNTY.                        :  COUNTY
 LOC .                        :  LOCATION
 LMF .             Drill Floor:  LOG MEASURED FROM
 VSNS.m                   6.09:  VERT SEC N/S
 VSEW.m                 -10.79:  VERT SEC E/W
 AGAP.m                  43.60:  AIR GAP
 DEP .m                 388.24:  DEPTH
 APD .m                  43.60:  DEPTH ABOVE PD
 WDMS.m                 151.80:  WD ELEV
 EGL .m                   0.00:  GROUND ELEVATION
 EPD .m                   0.00:  ELEVATION
 AZTC.deg                 6.12:  AZM TOTAL CORR
 GRDC.deg                 0.30:  GRID CORRECTION
 MDEC.deg                 6.42:  MAGNETIC DECL
 MDIP.deg                59.42:  MAGNETIC DIP
 MFLD.nT              50256.00:  MAGNETIC FIELD
 GVFD.g                   1.00:  GRAVITY FIELD
 VSDR.deg               159.57:  VERT SEC DIRECT
 TDD .m                5000.01:  TOTAL DEPTH (DRILLER)
 SDEP.m                 397.00:  START DEPTH
 DFSL.m                   0.00:  DISTANCE FSL
 DFWL.m                   0.00:  DISTANCE FWL
 UTMY.m             4431880.20:  UTM Y
 UTMX.m              538763.98:  UTM X
 WHEW.m                 -10.79:  WELL HEAD E/W
 WHNS.m                   6.09:  WELL HEAD N/S
 LONG.deg                51.45:  LONGITUDE
 LATI.deg                40.02:  LATITUDE
 TVDS.m                  43.60:  TVDSS CORRECTN
 EKB .m                  43.60:  KB ELEVATION
 EDF .m                  43.60:  DF ELEVATION
 MAGU.                 1847640:  MAGUTM CHECKSUM
 VSC .                       0:  VS TO CLOSURE
~Parameter Information Block
#MNEM.UNIT       Value        Description
#---------     -----------    ---------------------------
 AV  .mps                 1.30:  Ann Velocity 
 AVMX.mps                 1.90:  Max Ann Veloc 
 AZIF.deg               115.68:  Azm, Final 
 BHAT.                   Other:  BHA Type 
 BROT.°/30m               0.74:  Build Rotating 
 BS  .in                  8.50:  Bit Size 
 BTPL.psig              430.00:  Bit Press Loss 
 CABU.                      No:  Customer Abuse 
 TCS .hr                 51.31:  Time Ciculation Ended 
 CV  .mps                 2.52:  Crit Velocity 
 CVMX.mps                 2.62:  Max Crit Veloc 
 DD1 .          Teymur Aghayev:  Direct Drillr 1 
 DDSV.                   Other:  DD Service 
 DEFF.%                 100.00:  % Det Eff 
 DLRX.°/30m               1.62:  Dogleg Rot Max 
 DLSO.°/30m               0.74:  Dogleg Oriented 
 DLSX.°/30m               1.62:  Dogleg Str Max 
 DRET.      04.30.56 18-May-20:  Drill End Time 
 DRST.      04.30.56 18-May-20:  Drill Start Tim 
 DTIM.hr                  0.00:  Time Drilling 
 EDEP.m                5337.01:  End Depth 
 ENG1.      Artemiy Matviyanov:  Engineer 1 
 ENG2.      Bakhtiyar Jabbarli:  Engineer 2 
 ENG3.           Emil Huseynov:  Engineer 3 
 ETIM.      18.40.00 22-May-20:  End Time 
 FLOI.gpm               550.00:  Flow In 
 FLON.gpm               350.00:  Flow In Min 
 FLOS.cptm                0.00:  Fluid Loss 
 FLOX.gpm               600.00:  Flow In Max 
 HFLO.                      No:  High Flow 
 HPRE.                      No:  High Pressure 
 HTEM.                      No:  High Temp 
 HYDO.m                   1.80:  Hydro Offset 
 IFIN.deg                67.01:  Inc, Final 
 IMAX.deg                67.49:  Inc Max 
 IMIN.deg                66.50:  Inc Min 
 IMND.m                5144.79:  Inc Min Depth 
 IMXD.m                5116.12:  Inc Max Depth 
 JARR.                      No:  Jarring 
 LETM.      17.55.56 20-May-20:  Log End Time 
 LOST.hr                     0:  Lost Rig Time 
 LSTM.      04.30.56 18-May-20:  Log Start Time 
 MDCL.ppm            193153.00:  Mud Chlorides 
 MDES.     Inversion Oil/Synthetic:  Mud Desc 
 DFD .sg                  1.40:  Mud Density 
 MDMN.sg                  1.40:  Dens Mud Min 
 MDMX.sg                  1.41:  Dens Mud Max 
 MOIL.                      68:  Run Mud Oil % 
 MOWR.                   68:32:  Run Mud OWR 
 MSND.                     0.2:  Run Mud Sand % 
 MSOL.                    18.8:  Run Mud Solids% 
 DFV .spqt               80.00:  Mud Viscosity 
 MWOD.in                  6.75:  MWD Tool OD 
 MWSI.                      No:  Serv Intrp, MWD 
 OTIM.hr                104.84:  Time Operating 
 PMAX.psia            10690.93:  Press Op, Max 
 PV  .cP                 26.00:  Mud PV 
 RUN .                     900:  Run Number 
 ROPA.m/hr                0.00:  ROP Avg 
 ROPN.m/hr                0.00:  ROP Min 
 ROPX.m/hr                0.00:  ROP Max 
 RPMA.rpm               140.00:  RPM Surface Avg 
 RPMN.rpm                70.00:  RPM Surface Min 
 RPMX.rpm               140.00:  RPM Surface Max 
 RRUN.                    0900:  Rig Run Number 
 RTIM.hr                 36.00:  Time Reaming 
 SAZI.deg               115.72:  Azm, Start 
 SDEP.m                5337.01:  Start Depth 
 SIDD.                      No:  Serv Intrp, DD 
 SINC.deg                66.92:  Inc, Start 
 SPPA.psig             4400.00:  SPP Avg 
 SPPN.psig             1135.00:  SPP Min 
 SPPX.psig             4581.00:  SPP Max 
 STIM.      04.30.56 18-May-20:  Start Time 
 SVCS.                     MWD:  Services 
 SVER.                    9.20:  Sperry Version 
 TDAT.m                5337.01:  Tot Depth Attmp 
 TDDF.                      No:  Trip for DD 
 TFF .                      No:  Trip for Fail 
 TQAA.f-kp               23.00:  Torque Abs Avg 
 TQAN.f-kp               18.00:  Torque Abs Min 
 TQAX.f-kp               25.00:  Torque Abs Max 
 TRRT.°/30m               0.74:  Turn Rotating 
 MRT .                    HCIM:  Maximum Recorded Temperature 
 TTMX.degC               76.47:  Max Tool Temp 
 WBMN.klb                 0.00:  WOB Min 
 WITN.             Anar Khalil:  Customer Rep 
 WITN.      Kamran Keberlinski:  Customer Rep 2 
 WOBA.klb                 0.00:  WOB Avg 
 WOBX.klb                 0.00:  WOB Max 
 YP  .lhf2               27.00:  Yield Point 
~Curve Information Block
#MNEM.UNIT                 API CODE     Curve Description
#---------               -----------    ---------------------------
 TIME.HHMMSS            00 000 000 000:  GT Time & Date
 GTDEPTH.m              00 000 000 000:  GT Depth
 GTPQH.psia             00 000 000 000:  GT HR Quartz Pressure
 GTTQ.degC              00 000 000 000:  GT Quartz Temperature
 GTTN.NONE              00 000 000 000:  GT Test Number
 GTET.sec               00 000 000 000:  GT Elapsed Test Time
 GTTVD.m                00 000 000 000:  GT True Vertical Depth
#Other Information
#
#WARRANTY: Halliburton will use its best efforts to furnish customers with 
#accurate information and interpretations that are part of, and incident to, the services 
#provided.  However, Halliburton cannot and does not warrant the accuracy 
#or correctness of such information and interpretations.  Under no circumstances should any 
#such information or interpretation be relied upon as the sole basis for any drilling, 
#completion, production, or financial decision or any procedure involving any risk to the 
#safety of any drilling venture, drilling rig or its crew or any other third party.  The 
#Customer has full responsibility for all drilling, completion and production operation.  
#Halliburton makes no representations or warranties, either expressed or 
#implied, including, but not limited to, the implied warranties of merchantability or fitness 
#for a particular purpose, with respect to the services rendered.  In no event will 
#Halliburton be liable for failure to obtain any particular results or for 
#any damages, including, but not limited to, indirect, special or consequential damages, 
#resulting from the use of any information or interpretation provided by Halliburton.
#
~A           TIME           GTDEPTH  GTPQH  GTTQ  GTTN  GTET   GTTVD  
# ...
   15:21:22.383.19-May-2020 5277.61 3453.82 67.45 1.00 299.07 2760.35
   15:21:22.583.19-May-2020 5277.61 3453.82 67.45 1.00 299.27 2760.35
   15:21:22.783.19-May-2020 5277.61 3453.88 67.45 1.00 299.47 2760.35
   15:21:22.983.19-May-2020 5277.61 3453.97 67.45 1.00 299.67 2760.35
   15:21:23.183.19-May-2020 5277.61 3454.04 67.45 1.00 299.87 2760.35
   15:21:23.383.19-May-2020 5277.61 3453.82 67.45 1.00 300.07 2760.35
   15:21:23.583.19-May-2020 5277.61 3453.82 67.45 1.00 300.27 2760.35
   15:21:23.783.19-May-2020 5277.61 3453.77 67.45 1.00 300.47 2760.35
   15:21:23.983.19-May-2020 5277.61 3454.20 67.45 1.00 300.67 2760.35
   15:21:24.183.19-May-2020 5277.61 3453.78 67.45 1.00 300.87 2760.35
   15:21:24.383.19-May-2020 5277.61 3453.77 67.45 1.00 301.07 2760.35
   15:21:24.584.19-May-2020 5277.61 3453.77 67.45 1.00 301.27 2760.35
   15:21:24.784.19-May-2020 5277.61 3453.99 67.45 1.00 301.47 2760.35
   15:21:24.984.19-May-2020 5277.61 3453.98 67.45 1.00 301.67 2760.35
   15:21:25.184.19-May-2020 5277.61 3453.80 67.45 1.00 301.87 2760.35
   15:21:25.384.19-May-2020 5277.61 3453.79 67.45 1.00 302.07 2760.35
   15:21:25.584.19-May-2020 5277.61 3453.79 67.45 1.00 302.27 2760.35
   15:21:25.784.19-May-2020 5277.61 3453.96 67.45 1.00 302.47 2760.35
   15:21:25.984.19-May-2020 5277.61 3453.80 67.45 1.00 302.67 2760.35
   15:21:26.184.19-May-2020 5277.61 3454.00 67.45 1.00 302.87 2760.35
   15:21:26.384.19-May-2020 5277.61 3454.04 67.45 1.00 303.07 2760.35
   15:21:26.584.19-May-2020 5277.61 3454.04 67.45 1.00 303.27 2760.35
   15:21:26.784.19-May-2020 5277.61 3453.87 67.45 1.00 303.47 2760.35
   15:21:26.984.19-May-2020 5277.61 3453.98 67.45 1.00 303.67 2760.35
   15:21:27.184.19-May-2020 5277.61 3454.03 67.45 1.00 303.87 2760.35
   15:21:27.384.19-May-2020 5277.61 3453.81 67.45 1.00 304.07 2760.35
   15:21:27.584.19-May-2020 5277.61 3453.81 67.45 1.00 304.27 2760.35
   15:21:27.784.19-May-2020 5277.61 3453.89 67.45 1.00 304.47 2760.35
   15:21:27.984.19-May-2020 5277.61 3453.92 67.45 1.00 304.67 2760.35
   15:21:28.184.19-May-2020 5277.61 3453.88 67.45 1.00 304.87 2760.35
   15:21:28.384.19-May-2020 5277.61 3453.86 67.45 1.00 305.07 2760.35
   15:21:28.584.19-May-2020 5277.61 3453.86 67.45 1.00 305.27 2760.35
   15:21:28.785.19-May-2020 5277.61 3453.93 67.45 1.00 305.47 2760.35
   15:21:28.985.19-May-2020 5277.61 3453.92 67.45 1.00 305.67 2760.35
   15:21:29.185.19-May-2020 5277.61 3453.90 67.45 1.00 305.87 2760.35
   15:21:29.385.19-May-2020 5277.61 3453.87 67.45 1.00 306.07 2760.35
   15:21:29.585.19-May-2020 5277.61 3453.87 67.45 1.00 306.27 2760.35
   15:21:29.785.19-May-2020 5277.61 3453.92 67.45 1.00 306.47 2760.35
   15:21:29.985.19-May-2020 5277.61 3453.75 67.45 1.00 306.67 2760.35
   15:21:30.185.19-May-2020 5277.61 3454.30 67.45 1.00 306.87 2760.35
   15:21:30.385.19-May-2020 5277.61 3453.87 67.45 1.00 307.07 2760.35
   15:21:30.585.19-May-2020 5277.61 3453.87 67.45 1.00 307.27 2760.35
   15:21:30.785.19-May-2020 5277.61 3453.81 67.45 1.00 307.47 2760.35
   15:21:30.985.19-May-2020 5277.61 3454.34 67.45 1.00 307.67 2760.35
   15:21:31.185.19-May-2020 5277.61 3453.96 67.45 1.00 307.87 2760.35
   15:21:31.385.19-May-2020 5277.61 3453.79 67.45 1.00 308.07 2760.35
   15:21:31.585.19-May-2020 5277.61 3453.79 67.45 1.00 308.27 2760.35
   15:21:31.785.19-May-2020 5277.61 3453.82 67.45 1.00 308.47 2760.35
   15:21:31.985.19-May-2020 5277.61 3454.30 67.45 1.00 308.67 2760.35
   15:21:32.185.19-May-2020 5277.61 3453.84 67.45 1.00 308.87 2760.35
   15:21:32.385.19-May-2020 5277.61 3453.81 67.45 1.00 309.07 2760.35
   15:21:32.585.19-May-2020 5277.61 3453.81 67.45 1.00 309.27 2760.35
   15:21:32.785.19-May-2020 5277.61 3454.02 67.45 1.00 309.47 2760.35
   15:21:32.986.19-May-2020 5277.61 3453.96 67.45 1.00 309.67 2760.35
   15:21:33.186.19-May-2020 5277.61 3453.96 67.45 1.00 309.87 2760.35
   15:21:33.386.19-May-2020 5277.61 3454.11 67.45 1.00 310.07 2760.35
   15:21:33.586.19-May-2020 5277.61 3454.11 67.45 1.00 310.27 2760.35
   15:21:33.786.19-May-2020 5277.61 3453.88 67.45 1.00 310.47 2760.35
   15:21:33.986.19-May-2020 5277.61 3453.80 67.45 1.00 310.67 2760.35
   15:21:34.186.19-May-2020 5277.61 3454.28 67.45 1.00 310.87 2760.35
   15:21:34.386.19-May-2020 5277.61 3453.80 67.45 1.00 311.07 2760.35
   15:21:34.586.19-May-2020 5277.61 3453.80 67.45 1.00 311.27 2760.35
   15:21:34.786.19-May-2020 5277.61 3453.93 67.45 1.00 311.47 2760.35
   15:21:34.986.19-May-2020 5277.61 3453.97 67.45 1.00 311.67 2760.35
   15:21:35.186.19-May-2020 5277.61 3453.95 67.45 1.00 311.87 2760.35
   15:21:35.386.19-May-2020 5277.61 3453.92 67.45 1.00 312.07 2760.35
   15:21:35.586.19-May-2020 5277.61 3453.92 67.45 1.00 312.27 2760.35
   15:21:35.786.19-May-2020 5277.61 3453.95 67.45 1.00 312.47 2760.35
   15:21:35.986.19-May-2020 5277.61 3453.98 67.45 1.00 312.67 2760.35
   15:21:36.186.19-May-2020 5277.61 3453.95 67.45 1.00 312.87 2760.35
   15:21:36.386.19-May-2020 5277.61 3453.92 67.45 1.00 313.07 2760.35
   15:21:36.586.19-May-2020 5277.61 3453.92 67.45 1.00 313.27 2760.35
   15:21:36.786.19-May-2020 5277.61 3453.97 67.45 1.00 313.47 2760.35
   15:21:36.986.19-May-2020 5277.61 3453.81 67.45 1.00 313.67 2760.35
   15:21:37.187.19-May-2020 5277.61 3454.34 67.45 1.00 313.87 2760.35
   15:21:37.387.19-May-2020 5277.61 3454.02 67.45 1.00 314.07 2760.35
   15:21:37.587.19-May-2020 5277.61 3454.02 67.45 1.00 314.27 2760.35
   15:21:37.787.19-May-2020 5277.61 3453.79 67.45 1.00 314.47 2760.35
   15:21:37.987.19-May-2020 5277.61 3454.18 67.45 1.00 314.67 2760.35
   15:21:38.187.19-May-2020 5277.61 3454.06 67.45 1.00 314.87 2760.35
   15:21:38.387.19-May-2020 5277.61 3453.87 67.45 1.00 315.07 2760.35
   15:21:38.587.19-May-2020 5277.61 3453.87 67.45 1.00 315.27 2760.35
   15:21:38.787.19-May-2020 5277.61 3453.82 67.45 1.00 315.47 2760.35
   15:21:38.987.19-May-2020 5277.61 3454.33 67.45 1.00 315.67 2760.35
   15:21:39.187.19-May-2020 5277.61 3453.96 67.45 1.00 315.87 2760.35
   15:21:39.387.19-May-2020 5277.61 3453.81 67.45 1.00 316.07 2760.35
   15:21:39.587.19-May-2020 5277.61 3453.90 67.45 1.00 316.28 2760.35
   15:21:39.787.19-May-2020 5277.61 3454.06 67.45 1.00 316.48 2760.35
   15:21:39.987.19-May-2020 5277.61 3453.99 67.45 1.00 316.68 2760.35
   15:21:40.187.19-May-2020 5277.61 3454.01 67.45 1.00 316.88 2760.35
   15:21:40.387.19-May-2020 5277.61 3454.06 67.45 1.00 317.08 2760.35
   15:21:40.587.19-May-2020 5277.61 3454.06 67.45 1.00 317.28 2760.35
   15:21:40.787.19-May-2020 5277.61 3453.93 67.45 1.00 317.48 2760.35
   15:21:40.987.19-May-2020 5277.61 3453.87 67.45 1.00 317.68 2760.35
   15:21:41.187.19-May-2020 5277.61 3454.40 67.45 1.00 317.88 2760.35
   15:21:41.388.19-May-2020 5277.61 3453.96 67.45 1.00 318.08 2760.35
   15:21:41.588.19-May-2020 5277.61 3453.96 67.45 1.00 318.28 2760.35
   15:21:41.788.19-May-2020 5277.61 3453.89 67.45 1.00 318.48 2760.35
   15:21:41.988.19-May-2020 5277.61 3454.00 67.45 1.00 318.68 2760.35
   15:21:42.188.19-May-2020 5277.61 3453.98 67.45 1.00 318.88 2760.35
   15:21:42.388.19-May-2020 5277.61 3453.93 67.45 1.00 319.08 2760.35
   15:21:42.588.19-May-2020 5277.61 3453.93 67.45 1.00 319.28 2760.35
   15:21:42.788.19-May-2020 5277.61 3453.97 67.45 1.00 319.48 2760.35
   15:21:42.988.19-May-2020 5277.61 3453.99 67.45 1.00 319.68 2760.35
   15:21:43.188.19-May-2020 5277.61 3453.95 67.45 1.00 319.88 2760.35
   15:21:43.388.19-May-2020 5277.61 3453.91 67.45 1.00 320.08 2760.35
   15:21:43.588.19-May-2020 5277.61 3453.91 67.45 1.00 320.28 2760.35
   15:21:43.788.19-May-2020 5277.61 3453.98 67.45 1.00 320.48 2760.35
   15:21:43.988.19-May-2020 5277.61 3453.87 67.45 1.00 320.68 2760.35
   15:21:44.188.19-May-2020 5277.61 3454.14 67.45 1.00 320.88 2760.35
   15:21:44.388.19-May-2020 5277.61 3454.13 67.45 1.00 321.08 2760.35
   15:21:44.588.19-May-2020 5277.61 3454.13 67.45 1.00 321.28 2760.35
   15:21:44.788.19-May-2020 5277.61 3453.98 67.45 1.00 321.48 2760.35
   15:21:44.988.19-May-2020 5277.61 3454.08 67.45 1.00 321.68 2760.35
   15:21:45.188.19-May-2020 5277.61 3454.19 67.45 1.00 321.88 2760.35
