~Version Information
 VERS.                  2.0:   CWLS log ASCII Standard -VERSION 2.0
 WRAP.                   NO:   One line per depth step
~Well Information Block
#MNEM.UNIT     VALUE/NAME     DESCRIPTION
#---------     -----------    ---------------------------
 STRT.S             15:16:23 19-May-20: START TIME 15:16:23 19-May-20
 STOP.S             15:23:31 19-May-20: STOP TIME  15:23:31 19-May-20
 STEP.S                   0.00: STEP TIME
 NULL.                 -999.25: NULL VALUE
 MDS .        Operator Entered:  MAG DATA SOURCE
 PDAT.          Mean Sea Level:  PERMANENT DATUM
 UNIT.                     N/A:  LOGGING EQUIPMENT ID
 DCON.         Sperry Drilling:  DIRECTNL CONTR
 DOE .                     N/A:  DOE NUMBER
 RIG .              East Azeri:  RIG NAME
 JOBN.        AZ-XX-0905856059:  JOB TICKET NUMB
 WELL.                     D36:  WELL NAME
 MWDS.                    Baku:  MWD SHOP
 SRVC.     Turan Drilling & Engineering:  CONTRACTOR
 FLD .                     ACG:  FIELD NAME
 CTRY.              Azerbaijan:  COUNTRY NAME
 PROV.                    Baku:  PROVINCE
 STAT.                    Baku:  STATE NAME
 REGN.                   EESSA:  REGION
 BASE.              Azerbaijan:  LOGGING EQUIPMENT BASE LOCATION
 UWI .                     N/A:  UNIQUE WELL IDENTIFIER
 API .                     N/A:  API NUMBER
 COMP.     BP Exploration (Caspian Sea) Ltd.:  COMPANY
 WTYP.                Deviated:  WELL TYPE
 SON .        AZ-XX-0905856059:  JOB NUMBER
 FTOP.          Formation Tops:  FORM TOPS DESC
 ILTD.               Lithology:  INTERP LTH DESC
 SVYD.                  Survey:  SURVEY DESC
 DMOD.             Drill Model:  DRILL MOD DESC
 HPTY.       Minimum Curvature:  HOLE POS TYPE
 NREF.                    Grid:  NORTH REFERENCE
 SPUD.               25-Feb-20:  SPUD DATE
 DATE.      08.55.28 01-May-20:  END TIME
 STIM.      08.55.28 25-Feb-20:  START TIME
 DMF .             Drill Floor:  DRILL MEAS FROM
 DFST.                        :  DIST FSL TEXT
 DFWT.                        :  DIST FWL TEXT
 CNTY.                        :  COUNTY
 LOC .                        :  LOCATION
 LMF .             Drill Floor:  LOG MEASURED FROM
 VSNS.m                   6.09:  VERT SEC N/S
 VSEW.m                 -10.79:  VERT SEC E/W
 AGAP.m                  43.60:  AIR GAP
 DEP .m                 388.24:  DEPTH
 APD .m                  43.60:  DEPTH ABOVE PD
 WDMS.m                 151.80:  WD ELEV
 EGL .m                   0.00:  GROUND ELEVATION
 EPD .m                   0.00:  ELEVATION
 AZTC.deg                 6.12:  AZM TOTAL CORR
 GRDC.deg                 0.30:  GRID CORRECTION
 MDEC.deg                 6.42:  MAGNETIC DECL
 MDIP.deg                59.42:  MAGNETIC DIP
 MFLD.nT              50256.00:  MAGNETIC FIELD
 GVFD.g                   1.00:  GRAVITY FIELD
 VSDR.deg               159.57:  VERT SEC DIRECT
 TDD .m                5000.01:  TOTAL DEPTH (DRILLER)
 SDEP.m                 397.00:  START DEPTH
 DFSL.m                   0.00:  DISTANCE FSL
 DFWL.m                   0.00:  DISTANCE FWL
 UTMY.m             4431880.20:  UTM Y
 UTMX.m              538763.98:  UTM X
 WHEW.m                 -10.79:  WELL HEAD E/W
 WHNS.m                   6.09:  WELL HEAD N/S
 LONG.deg                51.45:  LONGITUDE
 LATI.deg                40.02:  LATITUDE
 TVDS.m                  43.60:  TVDSS CORRECTN
 EKB .m                  43.60:  KB ELEVATION
 EDF .m                  43.60:  DF ELEVATION
 MAGU.                 1847640:  MAGUTM CHECKSUM
 VSC .                       0:  VS TO CLOSURE
~Parameter Information Block
#MNEM.UNIT       Value        Description
#---------     -----------    ---------------------------
 AV  .mps                 1.30:  Ann Velocity 
 AVMX.mps                 1.90:  Max Ann Veloc 
 AZIF.deg               115.68:  Azm, Final 
 BHAT.                   Other:  BHA Type 
 BROT.°/30m               0.74:  Build Rotating 
 BS  .in                  8.50:  Bit Size 
 BTPL.psig              430.00:  Bit Press Loss 
 CABU.                      No:  Customer Abuse 
 TCS .hr                 51.31:  Time Ciculation Ended 
 CV  .mps                 2.52:  Crit Velocity 
 CVMX.mps                 2.62:  Max Crit Veloc 
 DD1 .          Teymur Aghayev:  Direct Drillr 1 
 DDSV.                   Other:  DD Service 
 DEFF.%                 100.00:  % Det Eff 
 DLRX.°/30m               1.62:  Dogleg Rot Max 
 DLSO.°/30m               0.74:  Dogleg Oriented 
 DLSX.°/30m               1.62:  Dogleg Str Max 
 DRET.      04.30.56 18-May-20:  Drill End Time 
 DRST.      04.30.56 18-May-20:  Drill Start Tim 
 DTIM.hr                  0.00:  Time Drilling 
 EDEP.m                5337.01:  End Depth 
 ENG1.      Artemiy Matviyanov:  Engineer 1 
 ENG2.      Bakhtiyar Jabbarli:  Engineer 2 
 ENG3.           Emil Huseynov:  Engineer 3 
 ETIM.      18.40.00 22-May-20:  End Time 
 FLOI.gpm               550.00:  Flow In 
 FLON.gpm               350.00:  Flow In Min 
 FLOS.cptm                0.00:  Fluid Loss 
 FLOX.gpm               600.00:  Flow In Max 
 HFLO.                      No:  High Flow 
 HPRE.                      No:  High Pressure 
 HTEM.                      No:  High Temp 
 HYDO.m                   1.80:  Hydro Offset 
 IFIN.deg                67.01:  Inc, Final 
 IMAX.deg                67.49:  Inc Max 
 IMIN.deg                66.50:  Inc Min 
 IMND.m                5144.79:  Inc Min Depth 
 IMXD.m                5116.12:  Inc Max Depth 
 JARR.                      No:  Jarring 
 LETM.      17.55.56 20-May-20:  Log End Time 
 LOST.hr                     0:  Lost Rig Time 
 LSTM.      04.30.56 18-May-20:  Log Start Time 
 MDCL.ppm            193153.00:  Mud Chlorides 
 MDES.     Inversion Oil/Synthetic:  Mud Desc 
 DFD .sg                  1.40:  Mud Density 
 MDMN.sg                  1.40:  Dens Mud Min 
 MDMX.sg                  1.41:  Dens Mud Max 
 MOIL.                      68:  Run Mud Oil % 
 MOWR.                   68:32:  Run Mud OWR 
 MSND.                     0.2:  Run Mud Sand % 
 MSOL.                    18.8:  Run Mud Solids% 
 DFV .spqt               80.00:  Mud Viscosity 
 MWOD.in                  6.75:  MWD Tool OD 
 MWSI.                      No:  Serv Intrp, MWD 
 OTIM.hr                104.84:  Time Operating 
 PMAX.psia            10690.93:  Press Op, Max 
 PV  .cP                 26.00:  Mud PV 
 RUN .                     900:  Run Number 
 ROPA.m/hr                0.00:  ROP Avg 
 ROPN.m/hr                0.00:  ROP Min 
 ROPX.m/hr                0.00:  ROP Max 
 RPMA.rpm               140.00:  RPM Surface Avg 
 RPMN.rpm                70.00:  RPM Surface Min 
 RPMX.rpm               140.00:  RPM Surface Max 
 RRUN.                    0900:  Rig Run Number 
 RTIM.hr                 36.00:  Time Reaming 
 SAZI.deg               115.72:  Azm, Start 
 SDEP.m                5337.01:  Start Depth 
 SIDD.                      No:  Serv Intrp, DD 
 SINC.deg                66.92:  Inc, Start 
 SPPA.psig             4400.00:  SPP Avg 
 SPPN.psig             1135.00:  SPP Min 
 SPPX.psig             4581.00:  SPP Max 
 STIM.      04.30.56 18-May-20:  Start Time 
 SVCS.                     MWD:  Services 
 SVER.                    9.20:  Sperry Version 
 TDAT.m                5337.01:  Tot Depth Attmp 
 TDDF.                      No:  Trip for DD 
 TFF .                      No:  Trip for Fail 
 TQAA.f-kp               23.00:  Torque Abs Avg 
 TQAN.f-kp               18.00:  Torque Abs Min 
 TQAX.f-kp               25.00:  Torque Abs Max 
 TRRT.°/30m               0.74:  Turn Rotating 
 MRT .                    HCIM:  Maximum Recorded Temperature 
 TTMX.degC               76.47:  Max Tool Temp 
 WBMN.klb                 0.00:  WOB Min 
 WITN.             Anar Khalil:  Customer Rep 
 WITN.      Kamran Keberlinski:  Customer Rep 2 
 WOBA.klb                 0.00:  WOB Avg 
 WOBX.klb                 0.00:  WOB Max 
 YP  .lhf2               27.00:  Yield Point 
~Curve Information Block
#MNEM.UNIT                 API CODE     Curve Description
#---------               -----------    ---------------------------
 TIME.HHMMSS            00 000 000 000:  GT Time & Date
 GTDEPTH.m              00 000 000 000:  GT Depth
 GTPQH.psia             00 000 000 000:  GT HR Quartz Pressure
 GTTQ.degC              00 000 000 000:  GT Quartz Temperature
 GTTN.NONE              00 000 000 000:  GT Test Number
 GTET.sec               00 000 000 000:  GT Elapsed Test Time
 GTTVD.m                00 000 000 000:  GT True Vertical Depth
#Other Information
#
#WARRANTY: Halliburton will use its best efforts to furnish customers with 
#accurate information and interpretations that are part of, and incident to, the services 
#provided.  However, Halliburton cannot and does not warrant the accuracy 
#or correctness of such information and interpretations.  Under no circumstances should any 
#such information or interpretation be relied upon as the sole basis for any drilling, 
#completion, production, or financial decision or any procedure involving any risk to the 
#safety of any drilling venture, drilling rig or its crew or any other third party.  The 
#Customer has full responsibility for all drilling, completion and production operation.  
#Halliburton makes no representations or warranties, either expressed or 
#implied, including, but not limited to, the implied warranties of merchantability or fitness 
#for a particular purpose, with respect to the services rendered.  In no event will 
#Halliburton be liable for failure to obtain any particular results or for 
#any damages, including, but not limited to, indirect, special or consequential damages, 
#resulting from the use of any information or interpretation provided by Halliburton.
#
~A           TIME           GTDEPTH  GTPQH  GTTQ  GTTN  GTET   GTTVD  
   15:16:23.312.19-May-2020 5277.61 -999.25 67.48 1.00   0.00 2760.35
   15:16:23.512.19-May-2020 5277.61    0.00 67.48 1.00   0.20 2760.35
   15:16:23.712.19-May-2020 5277.61    0.00 67.48 1.00   0.40 2760.35
   15:16:23.912.19-May-2020 5277.61 6554.19 67.48 1.00   0.60 2760.35
   15:16:24.112.19-May-2020 5277.61 6557.82 67.48 1.00   0.80 2760.35
   15:16:24.312.19-May-2020 5277.61 6557.60 67.48 1.00   1.00 2760.35
   15:16:24.512.19-May-2020 5277.61 6557.60 67.48 1.00   1.20 2760.35
   15:16:24.712.19-May-2020 5277.61 6555.53 67.48 1.00   1.40 2760.35
   15:16:24.912.19-May-2020 5277.61 6560.65 67.48 1.00   1.60 2760.35
   15:16:25.113.19-May-2020 5277.61 6558.85 67.48 1.00   1.80 2760.35
   15:16:25.313.19-May-2020 5277.61 6555.44 67.48 1.00   2.00 2760.35
   15:16:25.513.19-May-2020 5277.61 6555.44 67.48 1.00   2.20 2760.35
   15:16:25.713.19-May-2020 5277.61 6555.44 67.48 1.00   2.40 2760.35
   15:16:25.913.19-May-2020 5277.61 6555.84 67.48 1.00   2.60 2760.35
   15:16:26.113.19-May-2020 5277.61 6560.43 67.48 1.00   2.80 2760.35
   15:16:26.313.19-May-2020 5277.61 6558.88 67.48 1.00   3.00 2760.35
   15:16:26.513.19-May-2020 5277.61 6558.88 67.48 1.00   3.20 2760.35
   15:16:26.713.19-May-2020 5277.61 6557.39 67.48 1.00   3.40 2760.35
   15:16:26.913.19-May-2020 5277.61 6561.20 67.48 1.00   3.60 2760.35
   15:16:27.113.19-May-2020 5277.61 6561.28 67.48 1.00   3.80 2760.35
   15:16:27.313.19-May-2020 5277.61 6559.04 67.48 1.00   4.00 2760.35
   15:16:27.513.19-May-2020 5277.61 6563.25 67.48 1.00   4.20 2760.35
   15:16:27.713.19-May-2020 5277.61 6565.12 67.48 1.00   4.40 2760.35
   15:16:27.913.19-May-2020 5277.61 6563.38 67.48 1.00   4.60 2760.35
   15:16:28.113.19-May-2020 5277.61 6562.28 67.48 1.00   4.80 2760.35
   15:16:28.313.19-May-2020 5277.61 6567.53 67.48 1.00   5.00 2760.35
   15:16:28.513.19-May-2020 5277.61 6567.53 67.48 1.00   5.20 2760.35
   15:16:28.713.19-May-2020 5277.61 6567.04 67.48 1.00   5.40 2760.35
   15:16:28.913.19-May-2020 5277.61 6566.32 67.48 1.00   5.60 2760.35
   15:16:29.113.19-May-2020 5277.61 6567.76 67.48 1.00   5.80 2760.35
   15:16:29.314.19-May-2020 5277.61 6570.16 67.48 1.00   6.00 2760.35
   15:16:29.514.19-May-2020 5277.61 6570.16 67.48 1.00   6.20 2760.35
   15:16:29.714.19-May-2020 5277.61 6571.95 67.48 1.00   6.40 2760.35
   15:16:29.914.19-May-2020 5277.61 6568.86 67.48 1.00   6.60 2760.35
   15:16:30.114.19-May-2020 5277.61 6568.92 67.48 1.00   6.80 2760.35
   15:16:30.314.19-May-2020 5277.61 6568.37 67.48 1.00   7.00 2760.35
   15:16:30.514.19-May-2020 5277.61 6568.37 67.48 1.00   7.20 2760.35
   15:16:30.714.19-May-2020 5277.61 6569.73 67.48 1.00   7.40 2760.35
   15:16:30.914.19-May-2020 5277.61 6568.90 67.48 1.00   7.60 2760.35
   15:16:31.114.19-May-2020 5277.61 6569.30 67.48 1.00   7.80 2760.35
   15:16:31.314.19-May-2020 5277.61 6568.97 67.48 1.00   8.00 2760.35
   15:16:31.514.19-May-2020 5277.61 6570.22 67.48 1.00   8.20 2760.35
   15:16:31.714.19-May-2020 5277.61 6571.08 67.48 1.00   8.40 2760.35
   15:16:31.914.19-May-2020 5277.61 6571.44 67.48 1.00   8.60 2760.35
   15:16:32.114.19-May-2020 5277.61 6575.50 67.48 1.00   8.80 2760.35
   15:16:32.314.19-May-2020 5277.61 6574.59 67.48 1.00   9.00 2760.35
   15:16:32.514.19-May-2020 5277.61 6574.59 67.48 1.00   9.20 2760.35
   15:16:32.714.19-May-2020 5277.61 6574.37 67.48 1.00   9.40 2760.35
   15:16:32.914.19-May-2020 5277.61 6575.40 67.48 1.00   9.60 2760.35
   15:16:33.114.19-May-2020 5277.61 6575.58 67.48 1.00   9.80 2760.35
   15:16:33.314.19-May-2020 5277.61 6575.46 67.48 1.00  10.00 2760.35
   15:16:33.515.19-May-2020 5277.61 6575.46 67.48 1.00  10.20 2760.35
   15:16:33.715.19-May-2020 5277.61 6575.91 67.48 1.00  10.40 2760.35
   15:16:33.915.19-May-2020 5277.61 6577.04 67.48 1.00  10.60 2760.35
   15:16:34.115.19-May-2020 5277.61 6576.65 67.48 1.00  10.80 2760.35
   15:16:34.315.19-May-2020 5277.61 6577.50 67.48 1.00  11.00 2760.35
   15:16:34.515.19-May-2020 5277.61 6577.50 67.48 1.00  11.20 2760.35
   15:16:34.715.19-May-2020 5277.61 6577.49 67.48 1.00  11.40 2760.35
   15:16:34.915.19-May-2020 5277.61 6577.64 67.48 1.00  11.60 2760.35
   15:16:35.115.19-May-2020 5277.61 6581.73 67.48 1.00  11.80 2760.35
   15:16:35.315.19-May-2020 5277.61 6582.57 67.48 1.00  12.00 2760.35
   15:16:35.515.19-May-2020 5277.61 6579.27 67.48 1.00  12.20 2760.35
   15:16:35.715.19-May-2020 5277.61 6580.35 67.48 1.00  12.40 2760.35
   15:16:35.915.19-May-2020 5277.61 6585.97 67.48 1.00  12.60 2760.35
   15:16:36.115.19-May-2020 5277.61 6584.59 67.48 1.00  12.80 2760.35
   15:16:36.315.19-May-2020 5277.61 6581.05 67.48 1.00  13.00 2760.35
   15:16:36.515.19-May-2020 5277.61 6581.05 67.48 1.00  13.20 2760.35
   15:16:36.715.19-May-2020 5277.61 6588.46 67.48 1.00  13.40 2760.35
   15:16:36.915.19-May-2020 5277.61 6588.15 67.48 1.00  13.60 2760.35
   15:16:37.115.19-May-2020 5277.61 6584.29 67.48 1.00  13.80 2760.35
   15:16:37.315.19-May-2020 5277.61 6585.46 67.48 1.00  14.00 2760.35
   15:16:37.515.19-May-2020 5277.61 6585.46 67.48 1.00  14.20 2760.35
   15:16:37.716.19-May-2020 5277.61 6588.97 67.48 1.00  14.40 2760.35
   15:16:37.916.19-May-2020 5277.61 6585.79 67.48 1.00  14.60 2760.35
   15:16:38.116.19-May-2020 5277.61 6589.59 67.48 1.00  14.80 2760.35
   15:16:38.316.19-May-2020 5277.61 6592.75 67.48 1.00  15.00 2760.35
   15:16:38.516.19-May-2020 5277.61 6592.75 67.48 1.00  15.20 2760.35
   15:16:38.716.19-May-2020 5277.61 6587.49 67.48 1.00  15.40 2760.35
   15:16:38.916.19-May-2020 5277.61 6589.27 67.48 1.00  15.60 2760.35
   15:16:39.116.19-May-2020 5277.61 6589.92 67.48 1.00  15.80 2760.35
   15:16:39.316.19-May-2020 5277.61 6589.97 67.48 1.00  16.00 2760.35
   15:16:39.516.19-May-2020 5277.61 6589.19 67.48 1.00  16.20 2760.35
   15:16:39.716.19-May-2020 5277.61 6589.58 67.48 1.00  16.40 2760.35
   15:16:39.916.19-May-2020 5277.61 6590.01 67.48 1.00  16.60 2760.35
   15:16:40.116.19-May-2020 5277.61 6590.05 67.48 1.00  16.80 2760.35
   15:16:40.316.19-May-2020 5277.61 6590.65 67.48 1.00  17.00 2760.35
   15:16:40.516.19-May-2020 5277.61 6590.65 67.48 1.00  17.20 2760.35
   15:16:40.716.19-May-2020 5277.61 6591.27 67.48 1.00  17.40 2760.35
   15:16:40.916.19-May-2020 5277.61 6591.33 67.48 1.00  17.60 2760.35
   15:16:41.116.19-May-2020 5277.61 6593.50 67.48 1.00  17.80 2760.35
   15:16:41.316.19-May-2020 5277.61 6596.78 67.48 1.00  18.00 2760.35
   15:16:41.516.19-May-2020 5277.61 6596.78 67.48 1.00  18.20 2760.35
   15:16:41.716.19-May-2020 5277.61 6592.39 67.48 1.00  18.40 2760.35
   15:16:41.917.19-May-2020 5277.61 6593.88 67.48 1.00  18.60 2760.35
   15:16:42.117.19-May-2020 5277.61 6600.68 67.48 1.00  18.80 2760.35
   15:16:42.317.19-May-2020 5277.61 6597.19 67.48 1.00  19.00 2760.35
   15:16:42.517.19-May-2020 5277.61 6597.19 67.48 1.00  19.20 2760.35
   15:16:42.717.19-May-2020 5277.61 6595.67 67.48 1.00  19.40 2760.35
   15:16:42.917.19-May-2020 5277.61 6596.43 67.48 1.00  19.60 2760.35
   15:16:43.117.19-May-2020 5277.61 6596.90 67.48 1.00  19.80 2760.35
   15:16:43.317.19-May-2020 5277.61 6596.56 67.48 1.00  20.00 2760.35
   15:16:43.517.19-May-2020 5277.61 6596.56 67.48 1.00  20.20 2760.35
   15:16:43.717.19-May-2020 5277.61 6600.50 67.48 1.00  20.40 2760.35
   15:16:43.917.19-May-2020 5277.61 6598.33 67.48 1.00  20.60 2760.35
   15:16:44.117.19-May-2020 5277.61 6598.40 67.48 1.00  20.80 2760.35
   15:16:44.317.19-May-2020 5277.61 6602.77 67.48 1.00  21.00 2760.35
   15:16:44.517.19-May-2020 5277.61 6602.77 67.48 1.00  21.21 2760.35
   15:16:44.717.19-May-2020 5277.61 6600.01 67.48 1.00  21.41 2760.35
   15:16:44.917.19-May-2020 5277.61 6601.00 67.48 1.00  21.61 2760.35
   15:16:45.117.19-May-2020 5277.61 6601.17 67.48 1.00  21.81 2760.35
   15:16:45.317.19-May-2020 5277.61 6606.50 67.48 1.00  22.01 2760.35
   15:16:45.517.19-May-2020 5277.61 6606.50 67.48 1.00  22.21 2760.35
   15:16:45.717.19-May-2020 5277.61 6601.60 67.48 1.00  22.41 2760.35
   15:16:45.917.19-May-2020 5277.61 6602.18 67.48 1.00  22.61 2760.35
   15:16:46.118.19-May-2020 5277.61 6602.48 67.48 1.00  22.81 2760.35
