~Version Information
 VERS.                  2.0:   CWLS log ASCII Standard -VERSION 2.0
 WRAP.                   NO:   One line per depth step
~Well Information Block
#MNEM.UNIT     VALUE/NAME     DESCRIPTION
#---------     -----------    ---------------------------
 STRT.S             15:16:23 19-May-20: START TIME 15:16:23 19-May-20
 STOP.S             15:23:31 19-May-20: STOP TIME  15:23:31 19-May-20
 STEP.S                   0.00: STEP TIME
 NULL.                 -999.25: NULL VALUE
 MDS .        Operator Entered:  MAG DATA SOURCE
 PDAT.          Mean Sea Level:  PERMANENT DATUM
 UNIT.                     N/A:  LOGGING EQUIPMENT ID
 DCON.         Sperry Drilling:  DIRECTNL CONTR
 DOE .                     N/A:  DOE NUMBER
 RIG .              East Azeri:  RIG NAME
 JOBN.        AZ-XX-0905856059:  JOB TICKET NUMB
 WELL.                     D36:  WELL NAME
 MWDS.                    Baku:  MWD SHOP
 SRVC.     Turan Drilling & Engineering:  CONTRACTOR
 FLD .                     ACG:  FIELD NAME
 CTRY.              Azerbaijan:  COUNTRY NAME
 PROV.                    Baku:  PROVINCE
 STAT.                    Baku:  STATE NAME
 REGN.                   EESSA:  REGION
 BASE.              Azerbaijan:  LOGGING EQUIPMENT BASE LOCATION
 UWI .                     N/A:  UNIQUE WELL IDENTIFIER
 API .                     N/A:  API NUMBER
 COMP.     BP Exploration (Caspian Sea) Ltd.:  COMPANY
 WTYP.                Deviated:  WELL TYPE
 SON .        AZ-XX-0905856059:  JOB NUMBER
 FTOP.          Formation Tops:  FORM TOPS DESC
 ILTD.               Lithology:  INTERP LTH DESC
 SVYD.                  Survey:  SURVEY DESC
 DMOD.             Drill Model:  DRILL MOD DESC
 HPTY.       Minimum Curvature:  HOLE POS TYPE
 NREF.                    Grid:  NORTH REFERENCE
 SPUD.               25-Feb-20:  SPUD DATE
 DATE.      08.55.28 01-May-20:  END TIME
 STIM.      08.55.28 25-Feb-20:  START TIME
 DMF .             Drill Floor:  DRILL MEAS FROM
 DFST.                        :  DIST FSL TEXT
 DFWT.                        :  DIST FWL TEXT
 CNTY.                        :  COUNTY
 LOC .                        :  LOCATION
 LMF .             Drill Floor:  LOG MEASURED FROM
 VSNS.m                   6.09:  VERT SEC N/S
 VSEW.m                 -10.79:  VERT SEC E/W
 AGAP.m                  43.60:  AIR GAP
 DEP .m                 388.24:  DEPTH
 APD .m                  43.60:  DEPTH ABOVE PD
 WDMS.m                 151.80:  WD ELEV
 EGL .m                   0.00:  GROUND ELEVATION
 EPD .m                   0.00:  ELEVATION
 AZTC.deg                 6.12:  AZM TOTAL CORR
 GRDC.deg                 0.30:  GRID CORRECTION
 MDEC.deg                 6.42:  MAGNETIC DECL
 MDIP.deg                59.42:  MAGNETIC DIP
 MFLD.nT              50256.00:  MAGNETIC FIELD
 GVFD.g                   1.00:  GRAVITY FIELD
 VSDR.deg               159.57:  VERT SEC DIRECT
 TDD .m                5000.01:  TOTAL DEPTH (DRILLER)
 SDEP.m                 397.00:  START DEPTH
 DFSL.m                   0.00:  DISTANCE FSL
 DFWL.m                   0.00:  DISTANCE FWL
 UTMY.m             4431880.20:  UTM Y
 UTMX.m              538763.98:  UTM X
 WHEW.m                 -10.79:  WELL HEAD E/W
 WHNS.m                   6.09:  WELL HEAD N/S
 LONG.deg                51.45:  LONGITUDE
 LATI.deg                40.02:  LATITUDE
 TVDS.m                  43.60:  TVDSS CORRECTN
 EKB .m                  43.60:  KB ELEVATION
 EDF .m                  43.60:  DF ELEVATION
 MAGU.                 1847640:  MAGUTM CHECKSUM
 VSC .                       0:  VS TO CLOSURE
~Parameter Information Block
#MNEM.UNIT       Value        Description
#---------     -----------    ---------------------------
 AV  .mps                 1.30:  Ann Velocity 
 AVMX.mps                 1.90:  Max Ann Veloc 
 AZIF.deg               115.68:  Azm, Final 
 BHAT.                   Other:  BHA Type 
 BROT.°/30m               0.74:  Build Rotating 
 BS  .in                  8.50:  Bit Size 
 BTPL.psig              430.00:  Bit Press Loss 
 CABU.                      No:  Customer Abuse 
 TCS .hr                 51.31:  Time Ciculation Ended 
 CV  .mps                 2.52:  Crit Velocity 
 CVMX.mps                 2.62:  Max Crit Veloc 
 DD1 .          Teymur Aghayev:  Direct Drillr 1 
 DDSV.                   Other:  DD Service 
 DEFF.%                 100.00:  % Det Eff 
 DLRX.°/30m               1.62:  Dogleg Rot Max 
 DLSO.°/30m               0.74:  Dogleg Oriented 
 DLSX.°/30m               1.62:  Dogleg Str Max 
 DRET.      04.30.56 18-May-20:  Drill End Time 
 DRST.      04.30.56 18-May-20:  Drill Start Tim 
 DTIM.hr                  0.00:  Time Drilling 
 EDEP.m                5337.01:  End Depth 
 ENG1.      Artemiy Matviyanov:  Engineer 1 
 ENG2.      Bakhtiyar Jabbarli:  Engineer 2 
 ENG3.           Emil Huseynov:  Engineer 3 
 ETIM.      18.40.00 22-May-20:  End Time 
 FLOI.gpm               550.00:  Flow In 
 FLON.gpm               350.00:  Flow In Min 
 FLOS.cptm                0.00:  Fluid Loss 
 FLOX.gpm               600.00:  Flow In Max 
 HFLO.                      No:  High Flow 
 HPRE.                      No:  High Pressure 
 HTEM.                      No:  High Temp 
 HYDO.m                   1.80:  Hydro Offset 
 IFIN.deg                67.01:  Inc, Final 
 IMAX.deg                67.49:  Inc Max 
 IMIN.deg                66.50:  Inc Min 
 IMND.m                5144.79:  Inc Min Depth 
 IMXD.m                5116.12:  Inc Max Depth 
 JARR.                      No:  Jarring 
 LETM.      17.55.56 20-May-20:  Log End Time 
 LOST.hr                     0:  Lost Rig Time 
 LSTM.      04.30.56 18-May-20:  Log Start Time 
 MDCL.ppm            193153.00:  Mud Chlorides 
 MDES.     Inversion Oil/Synthetic:  Mud Desc 
 DFD .sg                  1.40:  Mud Density 
 MDMN.sg                  1.40:  Dens Mud Min 
 MDMX.sg                  1.41:  Dens Mud Max 
 MOIL.                      68:  Run Mud Oil % 
 MOWR.                   68:32:  Run Mud OWR 
 MSND.                     0.2:  Run Mud Sand % 
 MSOL.                    18.8:  Run Mud Solids% 
 DFV .spqt               80.00:  Mud Viscosity 
 MWOD.in                  6.75:  MWD Tool OD 
 MWSI.                      No:  Serv Intrp, MWD 
 OTIM.hr                104.84:  Time Operating 
 PMAX.psia            10690.93:  Press Op, Max 
 PV  .cP                 26.00:  Mud PV 
 RUN .                     900:  Run Number 
 ROPA.m/hr                0.00:  ROP Avg 
 ROPN.m/hr                0.00:  ROP Min 
 ROPX.m/hr                0.00:  ROP Max 
 RPMA.rpm               140.00:  RPM Surface Avg 
 RPMN.rpm                70.00:  RPM Surface Min 
 RPMX.rpm               140.00:  RPM Surface Max 
 RRUN.                    0900:  Rig Run Number 
 RTIM.hr                 36.00:  Time Reaming 
 SAZI.deg               115.72:  Azm, Start 
 SDEP.m                5337.01:  Start Depth 
 SIDD.                      No:  Serv Intrp, DD 
 SINC.deg                66.92:  Inc, Start 
 SPPA.psig             4400.00:  SPP Avg 
 SPPN.psig             1135.00:  SPP Min 
 SPPX.psig             4581.00:  SPP Max 
 STIM.      04.30.56 18-May-20:  Start Time 
 SVCS.                     MWD:  Services 
 SVER.                    9.20:  Sperry Version 
 TDAT.m                5337.01:  Tot Depth Attmp 
 TDDF.                      No:  Trip for DD 
 TFF .                      No:  Trip for Fail 
 TQAA.f-kp               23.00:  Torque Abs Avg 
 TQAN.f-kp               18.00:  Torque Abs Min 
 TQAX.f-kp               25.00:  Torque Abs Max 
 TRRT.°/30m               0.74:  Turn Rotating 
 MRT .                    HCIM:  Maximum Recorded Temperature 
 TTMX.degC               76.47:  Max Tool Temp 
 WBMN.klb                 0.00:  WOB Min 
 WITN.             Anar Khalil:  Customer Rep 
 WITN.      Kamran Keberlinski:  Customer Rep 2 
 WOBA.klb                 0.00:  WOB Avg 
 WOBX.klb                 0.00:  WOB Max 
 YP  .lhf2               27.00:  Yield Point 
~Curve Information Block
#MNEM.UNIT                 API CODE     Curve Description
#---------               -----------    ---------------------------
 TIME.HHMMSS            00 000 000 000:  GT Time & Date
 GTDEPTH.m              00 000 000 000:  GT Depth
 GTPQH.psia             00 000 000 000:  GT HR Quartz Pressure
 GTTQ.degC              00 000 000 000:  GT Quartz Temperature
 GTTN.NONE              00 000 000 000:  GT Test Number
 GTET.sec               00 000 000 000:  GT Elapsed Test Time
 GTTVD.m                00 000 000 000:  GT True Vertical Depth
#Other Information
#
#WARRANTY: Halliburton will use its best efforts to furnish customers with 
#accurate information and interpretations that are part of, and incident to, the services 
#provided.  However, Halliburton cannot and does not warrant the accuracy 
#or correctness of such information and interpretations.  Under no circumstances should any 
#such information or interpretation be relied upon as the sole basis for any drilling, 
#completion, production, or financial decision or any procedure involving any risk to the 
#safety of any drilling venture, drilling rig or its crew or any other third party.  The 
#Customer has full responsibility for all drilling, completion and production operation.  
#Halliburton makes no representations or warranties, either expressed or 
#implied, including, but not limited to, the implied warranties of merchantability or fitness 
#for a particular purpose, with respect to the services rendered.  In no event will 
#Halliburton be liable for failure to obtain any particular results or for 
#any damages, including, but not limited to, indirect, special or consequential damages, 
#resulting from the use of any information or interpretation provided by Halliburton.
#
~A           TIME           GTDEPTH  GTPQH  GTTQ  GTTN  GTET   GTTVD  
# ...
   15:22:31.399.19-May-2020 5277.61 3454.02 67.46 1.00 368.09 2760.35
   15:22:31.599.19-May-2020 5277.61 3454.00 67.46 1.00 368.29 2760.35
   15:22:31.799.19-May-2020 5277.61 3453.98 67.46 1.00 368.49 2760.35
   15:22:32.000.19-May-2020 5277.61 3454.03 67.46 1.00 368.69 2760.35
   15:22:32.200.19-May-2020 5277.61 3454.05 67.46 1.00 368.89 2760.35
   15:22:32.400.19-May-2020 5277.61 3454.03 67.46 1.00 369.09 2760.35
   15:22:32.600.19-May-2020 5277.61 3454.02 67.46 1.00 369.29 2760.35
   15:22:32.800.19-May-2020 5277.61 3454.06 67.46 1.00 369.49 2760.35
   15:22:33.000.19-May-2020 5277.61 3454.10 67.46 1.00 369.69 2760.35
   15:22:33.200.19-May-2020 5277.61 3454.13 67.46 1.00 369.89 2760.35
   15:22:33.400.19-May-2020 5277.61 3454.26 67.46 1.00 370.09 2760.35
   15:22:33.600.19-May-2020 5277.61 3454.26 67.46 1.00 370.29 2760.35
   15:22:33.800.19-May-2020 5277.61 3454.02 67.46 1.00 370.49 2760.35
   15:22:34.000.19-May-2020 5277.61 3454.19 67.46 1.00 370.69 2760.35
   15:22:34.200.19-May-2020 5277.61 3454.16 67.46 1.00 370.89 2760.35
   15:22:34.400.19-May-2020 5277.61 3453.94 67.46 1.00 371.09 2760.35
   15:22:34.600.19-May-2020 5277.61 3453.93 67.46 1.00 371.29 2760.35
   15:22:34.800.19-May-2020 5277.61 3462.40 67.46 1.00 371.49 2760.35
   15:22:35.000.19-May-2020 5277.61 3512.93 67.46 1.00 371.69 2760.35
   15:22:35.200.19-May-2020 5277.61 4488.69 67.46 1.00 371.89 2760.35
   15:22:35.400.19-May-2020 5277.61 6646.47 67.46 1.00 372.09 2760.35
   15:22:35.600.19-May-2020 5277.61 6644.57 67.46 1.00 372.29 2760.35
   15:22:35.800.19-May-2020 5277.61 6645.20 67.46 1.00 372.49 2760.35
   15:22:36.000.19-May-2020 5277.61 6645.31 67.46 1.00 372.69 2760.35
   15:22:36.201.19-May-2020 5277.61 6648.70 67.46 1.00 372.89 2760.35
   15:22:36.401.19-May-2020 5277.61 6650.20 67.46 1.00 373.09 2760.35
   15:22:36.601.19-May-2020 5277.61 6646.60 67.47 1.00 373.29 2760.35
   15:22:36.801.19-May-2020 5277.61 6646.73 67.47 1.00 373.49 2760.35
   15:22:37.001.19-May-2020 5277.61 6651.25 67.47 1.00 373.69 2760.35
   15:22:37.201.19-May-2020 5277.61 6655.30 67.47 1.00 373.89 2760.35
   15:22:37.401.19-May-2020 5277.61 6649.22 67.47 1.00 374.09 2760.35
   15:22:37.601.19-May-2020 5277.61 6649.22 67.47 1.00 374.29 2760.35
   15:22:37.801.19-May-2020 5277.61 6649.89 67.48 1.00 374.49 2760.35
   15:22:38.001.19-May-2020 5277.61 6652.00 67.48 1.00 374.69 2760.35
   15:22:38.201.19-May-2020 5277.61 6650.53 67.48 1.00 374.89 2760.35
   15:22:38.401.19-May-2020 5277.61 6650.01 67.49 1.00 375.09 2760.35
   15:22:38.601.19-May-2020 5277.61 6650.01 67.49 1.00 375.29 2760.35
   15:22:38.801.19-May-2020 5277.61 6649.50 67.49 1.00 375.49 2760.35
   15:22:39.001.19-May-2020 5277.61 6651.01 67.49 1.00 375.69 2760.35
   15:22:39.201.19-May-2020 5277.61 6650.27 67.50 1.00 375.89 2760.35
   15:22:39.401.19-May-2020 5277.61 6650.50 67.50 1.00 376.09 2760.35
   15:22:39.601.19-May-2020 5277.61 6649.80 67.50 1.00 376.29 2760.35
   15:22:39.801.19-May-2020 5277.61 6650.59 67.50 1.00 376.49 2760.35
   15:22:40.001.19-May-2020 5277.61 6651.71 67.50 1.00 376.69 2760.35
   15:22:40.201.19-May-2020 5277.61 6654.94 67.51 1.00 376.89 2760.35
   15:22:40.402.19-May-2020 5277.61 6654.20 67.51 1.00 377.09 2760.35
   15:22:40.602.19-May-2020 5277.61 6654.20 67.51 1.00 377.29 2760.35
   15:22:40.802.19-May-2020 5277.61 6651.39 67.51 1.00 377.49 2760.35
   15:22:41.002.19-May-2020 5277.61 6656.80 67.52 1.00 377.69 2760.35
   15:22:41.202.19-May-2020 5277.61 6656.01 67.52 1.00 377.89 2760.35
   15:22:41.402.19-May-2020 5277.61 6651.78 67.52 1.00 378.09 2760.35
   15:22:41.602.19-May-2020 5277.61 6651.78 67.52 1.00 378.29 2760.35
   15:22:41.802.19-May-2020 5277.61 6652.29 67.52 1.00 378.49 2760.35
   15:22:42.002.19-May-2020 5277.61 6656.77 67.52 1.00 378.69 2760.35
   15:22:42.202.19-May-2020 5277.61 6656.95 67.53 1.00 378.89 2760.35
   15:22:42.402.19-May-2020 5277.61 6651.70 67.53 1.00 379.09 2760.35
   15:22:42.602.19-May-2020 5277.61 6651.70 67.53 1.00 379.29 2760.35
   15:22:42.802.19-May-2020 5277.61 6651.78 67.53 1.00 379.49 2760.35
   15:22:43.002.19-May-2020 5277.61 6653.42 67.53 1.00 379.69 2760.35
   15:22:43.202.19-May-2020 5277.61 6657.74 67.53 1.00 379.89 2760.35
   15:22:43.402.19-May-2020 5277.61 6654.10 67.53 1.00 380.09 2760.35
   15:22:43.602.19-May-2020 5277.61 6651.42 67.54 1.00 380.29 2760.35
   15:22:43.802.19-May-2020 5277.61 6652.31 67.54 1.00 380.49 2760.35
   15:22:44.002.19-May-2020 5277.61 6658.44 67.54 1.00 380.69 2760.35
   15:22:44.202.19-May-2020 5277.61 6655.73 67.54 1.00 380.89 2760.35
   15:22:44.402.19-May-2020 5277.61 6651.78 67.54 1.00 381.09 2760.35
   15:22:44.603.19-May-2020 5277.61 6651.78 67.54 1.00 381.29 2760.35
   15:22:44.803.19-May-2020 5277.61 6653.30 67.54 1.00 381.49 2760.35
   15:22:45.003.19-May-2020 5277.61 6653.89 67.54 1.00 381.69 2760.35
   15:22:45.203.19-May-2020 5277.61 6652.25 67.54 1.00 381.89 2760.35
   15:22:45.403.19-May-2020 5277.61 6652.84 67.54 1.00 382.09 2760.35
   15:22:45.603.19-May-2020 5277.61 6652.84 67.54 1.00 382.29 2760.35
   15:22:45.803.19-May-2020 5277.61 6652.23 67.54 1.00 382.49 2760.35
   15:22:46.003.19-May-2020 5277.61 6651.89 67.55 1.00 382.69 2760.35
   15:22:46.203.19-May-2020 5277.61 6652.12 67.55 1.00 382.89 2760.35
   15:22:46.403.19-May-2020 5277.61 6651.41 67.55 1.00 383.09 2760.35
   15:22:46.603.19-May-2020 5277.61 6651.41 67.55 1.00 383.29 2760.35
   15:22:46.803.19-May-2020 5277.61 6652.05 67.55 1.00 383.49 2760.35
   15:22:47.003.19-May-2020 5277.61 6654.05 67.55 1.00 383.69 2760.35
   15:22:47.203.19-May-2020 5277.61 6656.04 67.55 1.00 383.89 2760.35
   15:22:47.403.19-May-2020 5277.61 6651.46 67.55 1.00 384.09 2760.35
   15:22:47.603.19-May-2020 5277.61 6651.17 67.55 1.00 384.29 2760.35
   15:22:47.803.19-May-2020 5277.61 6652.31 67.55 1.00 384.49 2760.35
   15:22:48.003.19-May-2020 5277.61 6657.15 67.55 1.00 384.69 2760.35
   15:22:48.203.19-May-2020 5277.61 6655.65 67.55 1.00 384.89 2760.35
   15:22:48.403.19-May-2020 5277.61 6651.84 67.55 1.00 385.09 2760.35
   15:22:48.603.19-May-2020 5277.61 6651.84 67.55 1.00 385.29 2760.35
   15:22:48.804.19-May-2020 5277.61 6652.57 67.55 1.00 385.49 2760.35
   15:22:49.004.19-May-2020 5277.61 6653.39 67.55 1.00 385.69 2760.35
   15:22:49.204.19-May-2020 5277.61 6655.30 67.55 1.00 385.89 2760.35
   15:22:49.404.19-May-2020 5277.61 6656.96 67.55 1.00 386.09 2760.35
   15:22:49.604.19-May-2020 5277.61 6656.96 67.55 1.00 386.29 2760.35
   15:22:49.804.19-May-2020 5277.61 6651.28 67.55 1.00 386.49 2760.35
   15:22:50.004.19-May-2020 5277.61 6653.75 67.55 1.00 386.69 2760.35
   15:22:50.204.19-May-2020 5277.61 6653.46 67.55 1.00 386.89 2760.35
   15:22:50.404.19-May-2020 5277.61 6653.47 67.55 1.00 387.09 2760.35
   15:22:50.604.19-May-2020 5277.61 6653.47 67.55 1.00 387.29 2760.35
   15:22:50.804.19-May-2020 5277.61 6655.77 67.55 1.00 387.49 2760.35
   15:22:51.004.19-May-2020 5277.61 6651.44 67.55 1.00 387.69 2760.35
   15:22:51.204.19-May-2020 5277.61 6655.67 67.55 1.00 387.89 2760.35
   15:22:51.404.19-May-2020 5277.61 6658.03 67.55 1.00 388.09 2760.35
   15:22:51.604.19-May-2020 5277.61 6653.26 67.55 1.00 388.29 2760.35
   15:22:51.804.19-May-2020 5277.61 6652.00 67.55 1.00 388.49 2760.35
   15:22:52.004.19-May-2020 5277.61 6652.38 67.55 1.00 388.69 2760.35
   15:22:52.204.19-May-2020 5277.61 6655.00 67.55 1.00 388.89 2760.35
   15:22:52.404.19-May-2020 5277.61 6652.60 67.55 1.00 389.09 2760.35
   15:22:52.604.19-May-2020 5277.61 6652.60 67.55 1.00 389.29 2760.35
   15:22:52.804.19-May-2020 5277.61 6651.62 67.55 1.00 389.49 2760.35
   15:22:53.005.19-May-2020 5277.61 6652.91 67.55 1.00 389.69 2760.35
   15:22:53.205.19-May-2020 5277.61 6652.70 67.55 1.00 389.89 2760.35
   15:22:53.405.19-May-2020 5277.61 6651.57 67.55 1.00 390.09 2760.35
   15:22:53.605.19-May-2020 5277.61 6651.57 67.55 1.00 390.29 2760.35
   15:22:53.805.19-May-2020 5277.61 6651.41 67.55 1.00 390.49 2760.35
   15:22:54.005.19-May-2020 5277.61 6651.85 67.55 1.00 390.69 2760.35
   15:22:54.205.19-May-2020 5277.61 6651.55 67.55 1.00 390.89 2760.35
