~Version Information
 VERS.                  2.0:   CWLS log ASCII Standard -VERSION 2.0
 WRAP.                   NO:   One line per depth step
~Well Information Block
#MNEM.UNIT     VALUE/NAME     DESCRIPTION
#---------     -----------    ---------------------------
 STRT.S             03:43:00 20-May-20: START TIME 03:43:00 20-May-20
 STOP.S             03:53:08 20-May-20: STOP TIME  03:53:08 20-May-20
 STEP.S                   0.00: STEP TIME
 NULL.                 -999.25: NULL VALUE
 MDS .        Operator Entered:  MAG DATA SOURCE
 PDAT.          Mean Sea Level:  PERMANENT DATUM
 UNIT.                     N/A:  LOGGING EQUIPMENT ID
 DCON.         Sperry Drilling:  DIRECTNL CONTR
 DOE .                     N/A:  DOE NUMBER
 RIG .              East Azeri:  RIG NAME
 JOBN.        AZ-XX-0905856059:  JOB TICKET NUMB
 WELL.                     D36:  WELL NAME
 MWDS.                    Baku:  MWD SHOP
 SRVC.     Turan Drilling & Engineering:  CONTRACTOR
 FLD .                     ACG:  FIELD NAME
 CTRY.              Azerbaijan:  COUNTRY NAME
 PROV.                    Baku:  PROVINCE
 STAT.                    Baku:  STATE NAME
 REGN.                   EESSA:  REGION
 BASE.              Azerbaijan:  LOGGING EQUIPMENT BASE LOCATION
 UWI .                     N/A:  UNIQUE WELL IDENTIFIER
 API .                     N/A:  API NUMBER
 COMP.     BP Exploration (Caspian Sea) Ltd.:  COMPANY
 WTYP.                Deviated:  WELL TYPE
 SON .        AZ-XX-0905856059:  JOB NUMBER
 FTOP.          Formation Tops:  FORM TOPS DESC
 ILTD.               Lithology:  INTERP LTH DESC
 SVYD.                  Survey:  SURVEY DESC
 DMOD.             Drill Model:  DRILL MOD DESC
 HPTY.       Minimum Curvature:  HOLE POS TYPE
 NREF.                    Grid:  NORTH REFERENCE
 SPUD.               25-Feb-20:  SPUD DATE
 DATE.      08.55.28 01-May-20:  END TIME
 STIM.      08.55.28 25-Feb-20:  START TIME
 DMF .             Drill Floor:  DRILL MEAS FROM
 DFST.                        :  DIST FSL TEXT
 DFWT.                        :  DIST FWL TEXT
 CNTY.                        :  COUNTY
 LOC .                        :  LOCATION
 LMF .             Drill Floor:  LOG MEASURED FROM
 VSNS.m                   6.09:  VERT SEC N/S
 VSEW.m                 -10.79:  VERT SEC E/W
 AGAP.m                  43.60:  AIR GAP
 DEP .m                 388.24:  DEPTH
 APD .m                  43.60:  DEPTH ABOVE PD
 WDMS.m                 151.80:  WD ELEV
 EGL .m                   0.00:  GROUND ELEVATION
 EPD .m                   0.00:  ELEVATION
 AZTC.deg                 6.12:  AZM TOTAL CORR
 GRDC.deg                 0.30:  GRID CORRECTION
 MDEC.deg                 6.42:  MAGNETIC DECL
 MDIP.deg                59.42:  MAGNETIC DIP
 MFLD.nT              50256.00:  MAGNETIC FIELD
 GVFD.g                   1.00:  GRAVITY FIELD
 VSDR.deg               159.57:  VERT SEC DIRECT
 TDD .m                5000.01:  TOTAL DEPTH (DRILLER)
 SDEP.m                 397.00:  START DEPTH
 DFSL.m                   0.00:  DISTANCE FSL
 DFWL.m                   0.00:  DISTANCE FWL
 UTMY.m             4431880.20:  UTM Y
 UTMX.m              538763.98:  UTM X
 WHEW.m                 -10.79:  WELL HEAD E/W
 WHNS.m                   6.09:  WELL HEAD N/S
 LONG.deg                51.45:  LONGITUDE
 LATI.deg                40.02:  LATITUDE
 TVDS.m                  43.60:  TVDSS CORRECTN
 EKB .m                  43.60:  KB ELEVATION
 EDF .m                  43.60:  DF ELEVATION
 MAGU.                 1847640:  MAGUTM CHECKSUM
 VSC .                       0:  VS TO CLOSURE
~Parameter Information Block
#MNEM.UNIT       Value        Description
#---------     -----------    ---------------------------
 AV  .mps                 1.30:  Ann Velocity 
 AVMX.mps                 1.90:  Max Ann Veloc 
 AZIF.deg               115.68:  Azm, Final 
 BHAT.                   Other:  BHA Type 
 BROT.°/30m               0.74:  Build Rotating 
 BS  .in                  8.50:  Bit Size 
 BTPL.psig              430.00:  Bit Press Loss 
 CABU.                      No:  Customer Abuse 
 COMM.                     ÌÍk:  Run Comments 1 
 TCS .hr                 51.31:  Time Ciculation Ended 
 CV  .mps                 2.52:  Crit Velocity 
 CVMX.mps                 2.62:  Max Crit Veloc 
 DD1 .          Teymur Aghayev:  Direct Drillr 1 
 DDSV.                   Other:  DD Service 
 DEFF.%                 100.00:  % Det Eff 
 DLRX.°/30m               1.62:  Dogleg Rot Max 
 DLSO.°/30m               0.74:  Dogleg Oriented 
 DLSX.°/30m               1.62:  Dogleg Str Max 
 DRET.      04.30.56 18-May-20:  Drill End Time 
 DRST.      04.30.56 18-May-20:  Drill Start Tim 
 DTIM.hr                  0.00:  Time Drilling 
 EDEP.m                5337.01:  End Depth 
 ENG1.      Artemiy Matviyanov:  Engineer 1 
 ENG2.      Bakhtiyar Jabbarli:  Engineer 2 
 ENG3.           Emil Huseynov:  Engineer 3 
 ETIM.      18.40.00 22-May-20:  End Time 
 FLOI.gpm               550.00:  Flow In 
 FLON.gpm               350.00:  Flow In Min 
 FLOS.cptm                0.00:  Fluid Loss 
 FLOX.gpm               600.00:  Flow In Max 
 HFLO.                      No:  High Flow 
 HPRE.                      No:  High Pressure 
 HTEM.                      No:  High Temp 
 HYDO.m                   1.80:  Hydro Offset 
 IFIN.deg                67.01:  Inc, Final 
 IMAX.deg                67.49:  Inc Max 
 IMIN.deg                66.50:  Inc Min 
 IMND.m                5144.79:  Inc Min Depth 
 IMXD.m                5116.12:  Inc Max Depth 
 JARR.                      No:  Jarring 
 LETM.      17.55.56 20-May-20:  Log End Time 
 LOST.hr                     0:  Lost Rig Time 
 LSTM.      04.30.56 18-May-20:  Log Start Time 
 MDCL.ppm            193153.00:  Mud Chlorides 
 MDES.     Inversion Oil/Synthetic:  Mud Desc 
 DFD .sg                  1.40:  Mud Density 
 MDMN.sg                  1.40:  Dens Mud Min 
 MDMX.sg                  1.41:  Dens Mud Max 
 MOIL.                      68:  Run Mud Oil % 
 MOWR.                   68:32:  Run Mud OWR 
 MSND.                     0.2:  Run Mud Sand % 
 MSOL.                    18.8:  Run Mud Solids% 
 DFV .spqt               80.00:  Mud Viscosity 
 MWOD.in                  6.75:  MWD Tool OD 
 MWSI.                      No:  Serv Intrp, MWD 
 OTIM.hr                104.84:  Time Operating 
 PMAX.psia            10690.93:  Press Op, Max 
 PV  .cP                 26.00:  Mud PV 
 RUN .                     900:  Run Number 
 ROPA.m/hr                0.00:  ROP Avg 
 ROPN.m/hr                0.00:  ROP Min 
 ROPX.m/hr                0.00:  ROP Max 
 RPMA.rpm               140.00:  RPM Surface Avg 
 RPMN.rpm                70.00:  RPM Surface Min 
 RPMX.rpm               140.00:  RPM Surface Max 
 RRUN.                    0900:  Rig Run Number 
 RTIM.hr                 36.00:  Time Reaming 
 SAZI.deg               115.72:  Azm, Start 
 SDEP.m                5337.01:  Start Depth 
 SIDD.                      No:  Serv Intrp, DD 
 SINC.deg                66.92:  Inc, Start 
 SPPA.psig             4400.00:  SPP Avg 
 SPPN.psig             1135.00:  SPP Min 
 SPPX.psig             4581.00:  SPP Max 
 STIM.      04.30.56 18-May-20:  Start Time 
 SVCS.                     MWD:  Services 
 SVER.                    9.20:  Sperry Version 
 TDAT.m                5337.01:  Tot Depth Attmp 
 TDDF.                      No:  Trip for DD 
 TFF .                      No:  Trip for Fail 
 TQAA.f-kp               23.00:  Torque Abs Avg 
 TQAN.f-kp               18.00:  Torque Abs Min 
 TQAX.f-kp               25.00:  Torque Abs Max 
 TRRT.°/30m               0.74:  Turn Rotating 
 MRT .                    HCIM:  Maximum Recorded Temperature 
 TTMX.degC               76.47:  Max Tool Temp 
 WBMN.klb                 0.00:  WOB Min 
 WITN.             Anar Khalil:  Customer Rep 
 WITN.      Kamran Keberlinski:  Customer Rep 2 
 WOBA.klb                 0.00:  WOB Avg 
 WOBX.klb                 0.00:  WOB Max 
 YP  .lhf2               27.00:  Yield Point 
~Curve Information Block
#MNEM.UNIT                 API CODE     Curve Description
#---------               -----------    ---------------------------
 TIME.HHMMSS            00 000 000 000:  GT Time & Date
 GTDEPTH.m              00 000 000 000:  GT Depth
 GTPQH.psia             00 000 000 000:  GT HR Quartz Pressure
 GTTQ.degC              00 000 000 000:  GT Quartz Temperature
 GTTN.NONE              00 000 000 000:  GT Test Number
 GTET.sec               00 000 000 000:  GT Elapsed Test Time
 GTTVD.m                00 000 000 000:  GT True Vertical Depth
#Other Information
#
#WARRANTY: Halliburton will use its best efforts to furnish customers with 
#accurate information and interpretations that are part of, and incident to, the services 
#provided.  However, Halliburton cannot and does not warrant the accuracy 
#or correctness of such information and interpretations.  Under no circumstances should any 
#such information or interpretation be relied upon as the sole basis for any drilling, 
#completion, production, or financial decision or any procedure involving any risk to the 
#safety of any drilling venture, drilling rig or its crew or any other third party.  The 
#Customer has full responsibility for all drilling, completion and production operation.  
#Halliburton makes no representations or warranties, either expressed or 
#implied, including, but not limited to, the implied warranties of merchantability or fitness 
#for a particular purpose, with respect to the services rendered.  In no event will 
#Halliburton be liable for failure to obtain any particular results or for 
#any damages, including, but not limited to, indirect, special or consequential damages, 
#resulting from the use of any information or interpretation provided by Halliburton.
#
~A           TIME           GTDEPTH  GTPQH  GTTQ  GTTN  GTET   GTTVD  
# ...
   03:45:41.942.20-May-2020 5064.01  611.41 68.97 8.00 161.05 2676.56
   03:45:42.142.20-May-2020 5064.01  611.41 68.97 8.00 161.25 2676.56
   03:45:42.342.20-May-2020 5064.01  611.90 68.97 8.00 161.45 2676.56
   03:45:42.542.20-May-2020 5064.01  612.66 68.97 8.00 161.65 2676.56
   03:45:42.742.20-May-2020 5064.01  613.01 68.97 8.00 161.85 2676.56
   03:45:42.942.20-May-2020 5064.01  613.45 68.97 8.00 162.05 2676.56
   03:45:43.142.20-May-2020 5064.01  613.45 68.97 8.00 162.25 2676.56
   03:45:43.342.20-May-2020 5064.01  614.37 68.97 8.00 162.45 2676.56
   03:45:43.542.20-May-2020 5064.01  614.73 68.97 8.00 162.65 2676.56
   03:45:43.742.20-May-2020 5064.01  615.28 68.97 8.00 162.85 2676.56
   03:45:43.942.20-May-2020 5064.01  615.67 68.97 8.00 163.05 2676.56
   03:45:44.142.20-May-2020 5064.01  615.67 68.97 8.00 163.25 2676.56
   03:45:44.342.20-May-2020 5064.01  616.38 68.97 8.00 163.45 2676.56
   03:45:44.542.20-May-2020 5064.01  617.09 68.97 8.00 163.65 2676.56
   03:45:44.742.20-May-2020 5064.01  617.52 68.97 8.00 163.85 2676.56
   03:45:44.942.20-May-2020 5064.01  618.02 68.97 8.00 164.05 2676.56
   03:45:45.142.20-May-2020 5064.01  618.02 68.97 8.00 164.25 2676.56
   03:45:45.343.20-May-2020 5064.01  618.76 68.97 8.00 164.45 2676.56
   03:45:45.543.20-May-2020 5064.01  619.21 68.97 8.00 164.65 2676.56
   03:45:45.743.20-May-2020 5064.01  619.68 68.97 8.00 164.85 2676.56
   03:45:45.943.20-May-2020 5064.01  620.24 68.97 8.00 165.05 2676.56
   03:45:46.143.20-May-2020 5064.01  620.24 68.97 8.00 165.25 2676.56
   03:45:46.343.20-May-2020 5064.01  621.26 68.97 8.00 165.45 2676.56
   03:45:46.543.20-May-2020 5064.01  621.74 68.97 8.00 165.65 2676.56
   03:45:46.743.20-May-2020 5064.01  622.26 68.97 8.00 165.85 2676.56
   03:45:46.943.20-May-2020 5064.01  622.81 68.97 8.00 166.05 2676.56
   03:45:47.143.20-May-2020 5064.01  622.81 68.97 8.00 166.25 2676.56
   03:45:47.343.20-May-2020 5064.01  623.81 68.97 8.00 166.45 2676.56
   03:45:47.543.20-May-2020 5064.01  624.34 68.97 8.00 166.65 2676.56
   03:45:47.743.20-May-2020 5064.01  624.83 68.97 8.00 166.85 2676.56
   03:45:47.943.20-May-2020 5064.01  625.32 68.97 8.00 167.05 2676.56
   03:45:48.143.20-May-2020 5064.01  625.32 68.97 8.00 167.25 2676.56
   03:45:48.343.20-May-2020 5064.01  626.23 68.97 8.00 167.45 2676.56
   03:45:48.543.20-May-2020 5064.01  626.67 68.97 8.00 167.65 2676.56
   03:45:48.743.20-May-2020 5064.01  626.73 68.97 8.00 167.85 2676.56
   03:45:48.944.20-May-2020 5064.01  627.44 68.97 8.00 168.05 2676.56
   03:45:49.144.20-May-2020 5064.01  627.44 68.97 8.00 168.25 2676.56
   03:45:49.344.20-May-2020 5064.01  628.30 68.97 8.00 168.45 2676.56
   03:45:49.544.20-May-2020 5064.01  628.47 68.97 8.00 168.65 2676.56
   03:45:49.744.20-May-2020 5064.01  629.06 68.97 8.00 168.85 2676.56
   03:45:49.944.20-May-2020 5064.01  629.50 68.97 8.00 169.05 2676.56
   03:45:50.144.20-May-2020 5064.01  629.50 68.97 8.00 169.25 2676.56
   03:45:50.344.20-May-2020 5064.01  630.44 68.97 8.00 169.45 2676.56
   03:45:50.544.20-May-2020 5064.01  630.89 68.97 8.00 169.65 2676.56
   03:45:50.744.20-May-2020 5064.01  631.37 68.97 8.00 169.85 2676.56
   03:45:50.944.20-May-2020 5064.01  631.47 68.97 8.00 170.05 2676.56
   03:45:51.144.20-May-2020 5064.01  631.47 68.97 8.00 170.25 2676.56
   03:45:51.344.20-May-2020 5064.01  632.72 68.97 8.00 170.45 2676.56
   03:45:51.544.20-May-2020 5064.01  633.16 68.97 8.00 170.65 2676.56
   03:45:51.744.20-May-2020 5064.01  633.72 68.97 8.00 170.85 2676.56
   03:45:51.944.20-May-2020 5064.01  634.10 68.97 8.00 171.05 2676.56
   03:45:52.144.20-May-2020 5064.01  634.10 68.97 8.00 171.25 2676.56
   03:45:52.344.20-May-2020 5064.01  634.89 68.97 8.00 171.45 2676.56
   03:45:52.545.20-May-2020 5064.01  635.28 68.97 8.00 171.65 2676.56
   03:45:52.745.20-May-2020 5064.01  635.79 68.97 8.00 171.85 2676.56
   03:45:52.945.20-May-2020 5064.01  636.30 68.97 8.00 172.05 2676.56
   03:45:53.145.20-May-2020 5064.01  636.30 68.97 8.00 172.25 2676.56
   03:45:53.345.20-May-2020 5064.01  637.24 68.97 8.00 172.45 2676.56
   03:45:53.545.20-May-2020 5064.01  637.71 68.97 8.00 172.65 2676.56
   03:45:53.745.20-May-2020 5064.01  638.25 68.97 8.00 172.85 2676.56
   03:45:53.945.20-May-2020 5064.01  638.72 68.97 8.00 173.05 2676.56
   03:45:54.145.20-May-2020 5064.01  638.72 68.97 8.00 173.25 2676.56
   03:45:54.345.20-May-2020 5064.01  639.71 68.97 8.00 173.45 2676.56
   03:45:54.545.20-May-2020 5064.01  640.23 68.97 8.00 173.65 2676.56
   03:45:54.745.20-May-2020 5064.01  640.77 68.97 8.00 173.85 2676.56
   03:45:54.945.20-May-2020 5064.01  641.24 68.97 8.00 174.05 2676.56
   03:45:55.145.20-May-2020 5064.01  641.24 68.97 8.00 174.25 2676.56
   03:45:55.345.20-May-2020 5064.01  642.10 68.97 8.00 174.45 2676.56
   03:45:55.545.20-May-2020 5064.01  642.50 68.97 8.00 174.65 2676.56
   03:45:55.745.20-May-2020 5064.01  642.70 68.97 8.00 174.85 2676.56
   03:45:55.946.20-May-2020 5064.01  643.20 68.97 8.00 175.05 2676.56
   03:45:56.146.20-May-2020 5064.01  643.20 68.97 8.00 175.25 2676.56
   03:45:56.346.20-May-2020 5064.01  644.10 68.97 8.00 175.45 2676.56
   03:45:56.546.20-May-2020 5064.01  644.55 68.97 8.00 175.65 2676.56
   03:45:56.746.20-May-2020 5064.01  644.66 68.97 8.00 175.85 2676.56
   03:45:56.946.20-May-2020 5064.01  645.35 68.97 8.00 176.05 2676.56
   03:45:57.146.20-May-2020 5064.01  645.35 68.97 8.00 176.25 2676.56
   03:45:57.346.20-May-2020 5064.01  646.24 68.97 8.00 176.45 2676.56
   03:45:57.546.20-May-2020 5064.01  646.75 68.97 8.00 176.65 2676.56
   03:45:57.746.20-May-2020 5064.01  647.22 68.97 8.00 176.85 2676.56
   03:45:57.946.20-May-2020 5064.01  647.29 68.97 8.00 177.05 2676.56
   03:45:58.146.20-May-2020 5064.01  647.98 68.97 8.00 177.25 2676.56
   03:45:58.346.20-May-2020 5064.01  648.44 68.97 8.00 177.45 2676.56
   03:45:58.546.20-May-2020 5064.01  648.63 68.97 8.00 177.65 2676.56
   03:45:58.746.20-May-2020 5064.01  649.14 68.97 8.00 177.85 2676.56
   03:45:58.946.20-May-2020 5064.01  649.54 68.97 8.00 178.05 2676.56
   03:45:59.146.20-May-2020 5064.01  649.54 68.97 8.00 178.25 2676.56
   03:45:59.346.20-May-2020 5064.01  650.49 68.97 8.00 178.45 2676.56
   03:45:59.547.20-May-2020 5064.01  650.90 68.97 8.00 178.65 2676.56
   03:45:59.747.20-May-2020 5064.01  651.42 68.97 8.00 178.85 2676.56
   03:45:59.947.20-May-2020 5064.01  651.92 68.97 8.00 179.05 2676.56
   03:46:00.147.20-May-2020 5064.01  652.39 68.97 8.00 179.25 2676.56
   03:46:00.347.20-May-2020 5064.01  652.91 68.97 8.00 179.45 2676.56
   03:46:00.547.20-May-2020 5064.01  653.41 68.97 8.00 179.65 2676.56
   03:46:00.747.20-May-2020 5064.01  653.92 68.97 8.00 179.85 2676.56
   03:46:00.947.20-May-2020 5064.01  654.39 68.97 8.00 180.05 2676.56
   03:46:01.147.20-May-2020 5064.01  654.39 68.97 8.00 180.25 2676.56
   03:46:01.347.20-May-2020 5064.01  655.36 68.97 8.00 180.45 2676.56
   03:46:01.547.20-May-2020 5064.01  655.60 68.97 8.00 180.65 2676.56
   03:46:01.747.20-May-2020 5064.01  656.18 68.97 8.00 180.85 2676.56
   03:46:01.947.20-May-2020 5064.01  656.61 68.97 8.00 181.05 2676.56
   03:46:02.147.20-May-2020 5064.01  657.09 68.97 8.00 181.25 2676.56
   03:46:02.347.20-May-2020 5064.01  657.08 68.97 8.00 181.45 2676.56
   03:46:02.547.20-May-2020 5064.01  657.81 68.97 8.00 181.65 2676.56
   03:46:02.747.20-May-2020 5064.01  658.14 68.97 8.00 181.85 2676.56
   03:46:02.947.20-May-2020 5064.01  658.59 68.97 8.00 182.05 2676.56
   03:46:03.148.20-May-2020 5064.01  658.59 68.97 8.00 182.25 2676.56
   03:46:03.348.20-May-2020 5064.01  659.00 68.97 8.00 182.45 2676.56
   03:46:03.548.20-May-2020 5064.01  659.77 68.97 8.00 182.65 2676.56
   03:46:03.748.20-May-2020 5064.01  660.19 68.97 8.00 182.85 2676.56
   03:46:03.948.20-May-2020 5064.01  660.58 68.97 8.00 183.05 2676.56
   03:46:04.148.20-May-2020 5064.01  660.58 68.97 8.00 183.25 2676.56
   03:46:04.348.20-May-2020 5064.01  661.51 68.97 8.00 183.45 2676.56
   03:46:04.548.20-May-2020 5064.01  661.71 68.97 8.00 183.65 2676.56
   03:46:04.748.20-May-2020 5064.01  662.30 68.97 8.00 183.85 2676.56
