~Version Information
 VERS.                  2.0:   CWLS log ASCII Standard -VERSION 2.0
 WRAP.                   NO:   One line per depth step
~Well Information Block
#MNEM.UNIT     VALUE/NAME     DESCRIPTION
#---------     -----------    ---------------------------
 STRT.S             21:41:59 19-May-20: START TIME 21:41:59 19-May-20
 STOP.S             21:48:44 19-May-20: STOP TIME  21:48:44 19-May-20
 STEP.S                   0.00: STEP TIME
 NULL.                 -999.25: NULL VALUE
 MDS .        Operator Entered:  MAG DATA SOURCE
 PDAT.          Mean Sea Level:  PERMANENT DATUM
 UNIT.                     N/A:  LOGGING EQUIPMENT ID
 DCON.         Sperry Drilling:  DIRECTNL CONTR
 DOE .                     N/A:  DOE NUMBER
 RIG .              East Azeri:  RIG NAME
 JOBN.        AZ-XX-0905856059:  JOB TICKET NUMB
 WELL.                     D36:  WELL NAME
 MWDS.                    Baku:  MWD SHOP
 SRVC.     Turan Drilling & Engineering:  CONTRACTOR
 FLD .                     ACG:  FIELD NAME
 CTRY.              Azerbaijan:  COUNTRY NAME
 PROV.                    Baku:  PROVINCE
 STAT.                    Baku:  STATE NAME
 REGN.                   EESSA:  REGION
 BASE.              Azerbaijan:  LOGGING EQUIPMENT BASE LOCATION
 UWI .                     N/A:  UNIQUE WELL IDENTIFIER
 API .                     N/A:  API NUMBER
 COMP.     BP Exploration (Caspian Sea) Ltd.:  COMPANY
 WTYP.                Deviated:  WELL TYPE
 SON .        AZ-XX-0905856059:  JOB NUMBER
 FTOP.          Formation Tops:  FORM TOPS DESC
 ILTD.               Lithology:  INTERP LTH DESC
 SVYD.                  Survey:  SURVEY DESC
 DMOD.             Drill Model:  DRILL MOD DESC
 HPTY.       Minimum Curvature:  HOLE POS TYPE
 NREF.                    Grid:  NORTH REFERENCE
 SPUD.               25-Feb-20:  SPUD DATE
 DATE.      08.55.28 01-May-20:  END TIME
 STIM.      08.55.28 25-Feb-20:  START TIME
 DMF .             Drill Floor:  DRILL MEAS FROM
 DFST.                        :  DIST FSL TEXT
 DFWT.                        :  DIST FWL TEXT
 CNTY.                        :  COUNTY
 LOC .                        :  LOCATION
 LMF .             Drill Floor:  LOG MEASURED FROM
 VSNS.m                   6.09:  VERT SEC N/S
 VSEW.m                 -10.79:  VERT SEC E/W
 AGAP.m                  43.60:  AIR GAP
 DEP .m                 388.24:  DEPTH
 APD .m                  43.60:  DEPTH ABOVE PD
 WDMS.m                 151.80:  WD ELEV
 EGL .m                   0.00:  GROUND ELEVATION
 EPD .m                   0.00:  ELEVATION
 AZTC.deg                 6.12:  AZM TOTAL CORR
 GRDC.deg                 0.30:  GRID CORRECTION
 MDEC.deg                 6.42:  MAGNETIC DECL
 MDIP.deg                59.42:  MAGNETIC DIP
 MFLD.nT              50256.00:  MAGNETIC FIELD
 GVFD.g                   1.00:  GRAVITY FIELD
 VSDR.deg               159.57:  VERT SEC DIRECT
 TDD .m                5000.01:  TOTAL DEPTH (DRILLER)
 SDEP.m                 397.00:  START DEPTH
 DFSL.m                   0.00:  DISTANCE FSL
 DFWL.m                   0.00:  DISTANCE FWL
 UTMY.m             4431880.20:  UTM Y
 UTMX.m              538763.98:  UTM X
 WHEW.m                 -10.79:  WELL HEAD E/W
 WHNS.m                   6.09:  WELL HEAD N/S
 LONG.deg                51.45:  LONGITUDE
 LATI.deg                40.02:  LATITUDE
 TVDS.m                  43.60:  TVDSS CORRECTN
 EKB .m                  43.60:  KB ELEVATION
 EDF .m                  43.60:  DF ELEVATION
 MAGU.                 1847640:  MAGUTM CHECKSUM
 VSC .                       0:  VS TO CLOSURE
~Parameter Information Block
#MNEM.UNIT       Value        Description
#---------     -----------    ---------------------------
 AV  .mps                 1.30:  Ann Velocity 
 AVMX.mps                 1.90:  Max Ann Veloc 
 AZIF.deg               115.68:  Azm, Final 
 BHAT.                   Other:  BHA Type 
 BROT.°/30m               0.74:  Build Rotating 
 BS  .in                  8.50:  Bit Size 
 BTPL.psig              430.00:  Bit Press Loss 
 CABU.                      No:  Customer Abuse 
 COMM.                     „äS:  Run Comments 1 
 TCS .hr                 51.31:  Time Ciculation Ended 
 CV  .mps                 2.52:  Crit Velocity 
 CVMX.mps                 2.62:  Max Crit Veloc 
 DD1 .          Teymur Aghayev:  Direct Drillr 1 
 DDSV.                   Other:  DD Service 
 DEFF.%                 100.00:  % Det Eff 
 DLRX.°/30m               1.62:  Dogleg Rot Max 
 DLSO.°/30m               0.74:  Dogleg Oriented 
 DLSX.°/30m               1.62:  Dogleg Str Max 
 DRET.      04.30.56 18-May-20:  Drill End Time 
 DRST.      04.30.56 18-May-20:  Drill Start Tim 
 DTIM.hr                  0.00:  Time Drilling 
 EDEP.m                5337.01:  End Depth 
 ENG1.      Artemiy Matviyanov:  Engineer 1 
 ENG2.      Bakhtiyar Jabbarli:  Engineer 2 
 ENG3.           Emil Huseynov:  Engineer 3 
 ETIM.      18.40.00 22-May-20:  End Time 
 FLOI.gpm               550.00:  Flow In 
 FLON.gpm               350.00:  Flow In Min 
 FLOS.cptm                0.00:  Fluid Loss 
 FLOX.gpm               600.00:  Flow In Max 
 HFLO.                      No:  High Flow 
 HPRE.                      No:  High Pressure 
 HTEM.                      No:  High Temp 
 HYDO.m                   1.80:  Hydro Offset 
 IFIN.deg                67.01:  Inc, Final 
 IMAX.deg                67.49:  Inc Max 
 IMIN.deg                66.50:  Inc Min 
 IMND.m                5144.79:  Inc Min Depth 
 IMXD.m                5116.12:  Inc Max Depth 
 JARR.                      No:  Jarring 
 LETM.      17.55.56 20-May-20:  Log End Time 
 LOST.hr                     0:  Lost Rig Time 
 LSTM.      04.30.56 18-May-20:  Log Start Time 
 MDCL.ppm            193153.00:  Mud Chlorides 
 MDES.     Inversion Oil/Synthetic:  Mud Desc 
 DFD .sg                  1.40:  Mud Density 
 MDMN.sg                  1.40:  Dens Mud Min 
 MDMX.sg                  1.41:  Dens Mud Max 
 MOIL.                      68:  Run Mud Oil % 
 MOWR.                   68:32:  Run Mud OWR 
 MSND.                     0.2:  Run Mud Sand % 
 MSOL.                    18.8:  Run Mud Solids% 
 DFV .spqt               80.00:  Mud Viscosity 
 MWOD.in                  6.75:  MWD Tool OD 
 MWSI.                      No:  Serv Intrp, MWD 
 OTIM.hr                104.84:  Time Operating 
 PMAX.psia            10690.93:  Press Op, Max 
 PV  .cP                 26.00:  Mud PV 
 RUN .                     900:  Run Number 
 ROPA.m/hr                0.00:  ROP Avg 
 ROPN.m/hr                0.00:  ROP Min 
 ROPX.m/hr                0.00:  ROP Max 
 RPMA.rpm               140.00:  RPM Surface Avg 
 RPMN.rpm                70.00:  RPM Surface Min 
 RPMX.rpm               140.00:  RPM Surface Max 
 RRUN.                    0900:  Rig Run Number 
 RTIM.hr                 36.00:  Time Reaming 
 SAZI.deg               115.72:  Azm, Start 
 SDEP.m                5337.01:  Start Depth 
 SIDD.                      No:  Serv Intrp, DD 
 SINC.deg                66.92:  Inc, Start 
 SPPA.psig             4400.00:  SPP Avg 
 SPPN.psig             1135.00:  SPP Min 
 SPPX.psig             4581.00:  SPP Max 
 STIM.      04.30.56 18-May-20:  Start Time 
 SVCS.                     MWD:  Services 
 SVER.                    9.20:  Sperry Version 
 TDAT.m                5337.01:  Tot Depth Attmp 
 TDDF.                      No:  Trip for DD 
 TFF .                      No:  Trip for Fail 
 TQAA.f-kp               23.00:  Torque Abs Avg 
 TQAN.f-kp               18.00:  Torque Abs Min 
 TQAX.f-kp               25.00:  Torque Abs Max 
 TRRT.°/30m               0.74:  Turn Rotating 
 MRT .                    HCIM:  Maximum Recorded Temperature 
 TTMX.degC               76.47:  Max Tool Temp 
 WBMN.klb                 0.00:  WOB Min 
 WITN.             Anar Khalil:  Customer Rep 
 WITN.      Kamran Keberlinski:  Customer Rep 2 
 WOBA.klb                 0.00:  WOB Avg 
 WOBX.klb                 0.00:  WOB Max 
 YP  .lhf2               27.00:  Yield Point 
~Curve Information Block
#MNEM.UNIT                 API CODE     Curve Description
#---------               -----------    ---------------------------
 TIME.HHMMSS            00 000 000 000:  GT Time & Date
 GTDEPTH.m              00 000 000 000:  GT Depth
 GTPQH.psia             00 000 000 000:  GT HR Quartz Pressure
 GTTQ.degC              00 000 000 000:  GT Quartz Temperature
 GTTN.NONE              00 000 000 000:  GT Test Number
 GTET.sec               00 000 000 000:  GT Elapsed Test Time
 GTTVD.m                00 000 000 000:  GT True Vertical Depth
#Other Information
#
#WARRANTY: Halliburton will use its best efforts to furnish customers with 
#accurate information and interpretations that are part of, and incident to, the services 
#provided.  However, Halliburton cannot and does not warrant the accuracy 
#or correctness of such information and interpretations.  Under no circumstances should any 
#such information or interpretation be relied upon as the sole basis for any drilling, 
#completion, production, or financial decision or any procedure involving any risk to the 
#safety of any drilling venture, drilling rig or its crew or any other third party.  The 
#Customer has full responsibility for all drilling, completion and production operation.  
#Halliburton makes no representations or warranties, either expressed or 
#implied, including, but not limited to, the implied warranties of merchantability or fitness 
#for a particular purpose, with respect to the services rendered.  In no event will 
#Halliburton be liable for failure to obtain any particular results or for 
#any damages, including, but not limited to, indirect, special or consequential damages, 
#resulting from the use of any information or interpretation provided by Halliburton.
#
~A           TIME           GTDEPTH  GTPQH  GTTQ  GTTN  GTET   GTTVD  
# ...
   21:46:12.429.19-May-2020 5137.01 4083.18 67.52 3.00 253.06 2705.05
   21:46:12.629.19-May-2020 5137.01 4083.18 67.52 3.00 253.26 2705.05
   21:46:12.829.19-May-2020 5137.01 4085.28 67.52 3.00 253.46 2705.05
   21:46:13.029.19-May-2020 5137.01 4086.36 67.52 3.00 253.66 2705.05
   21:46:13.229.19-May-2020 5137.01 4087.37 67.52 3.00 253.86 2705.05
   21:46:13.429.19-May-2020 5137.01 4088.39 67.52 3.00 254.06 2705.05
   21:46:13.629.19-May-2020 5137.01 4088.39 67.52 3.00 254.26 2705.05
   21:46:13.829.19-May-2020 5137.01 4090.46 67.52 3.00 254.46 2705.05
   21:46:14.029.19-May-2020 5137.01 4091.05 67.52 3.00 254.66 2705.05
   21:46:14.230.19-May-2020 5137.01 4092.22 67.52 3.00 254.86 2705.05
   21:46:14.430.19-May-2020 5137.01 4093.43 67.52 3.00 255.06 2705.05
   21:46:14.630.19-May-2020 5137.01 4093.43 67.52 3.00 255.26 2705.05
   21:46:14.830.19-May-2020 5137.01 4095.40 67.52 3.00 255.46 2705.05
   21:46:15.030.19-May-2020 5137.01 4095.73 67.52 3.00 255.66 2705.05
   21:46:15.230.19-May-2020 5137.01 4097.41 67.52 3.00 255.86 2705.05
   21:46:15.430.19-May-2020 5137.01 4098.33 67.52 3.00 256.06 2705.05
   21:46:15.630.19-May-2020 5137.01 4098.33 67.52 3.00 256.26 2705.05
   21:46:15.830.19-May-2020 5137.01 4100.25 67.52 3.00 256.46 2705.05
   21:46:16.030.19-May-2020 5137.01 4100.61 67.52 3.00 256.66 2705.05
   21:46:16.230.19-May-2020 5137.01 4102.18 67.52 3.00 256.86 2705.05
   21:46:16.430.19-May-2020 5137.01 4103.16 67.52 3.00 257.06 2705.05
   21:46:16.630.19-May-2020 5137.01 4103.16 67.52 3.00 257.26 2705.05
   21:46:16.830.19-May-2020 5137.01 4105.08 67.52 3.00 257.46 2705.05
   21:46:17.030.19-May-2020 5137.01 4106.01 67.52 3.00 257.66 2705.05
   21:46:17.230.19-May-2020 5137.01 4106.08 67.52 3.00 257.86 2705.05
   21:46:17.430.19-May-2020 5137.01 4107.94 67.52 3.00 258.06 2705.05
   21:46:17.630.19-May-2020 5137.01 4107.94 67.52 3.00 258.26 2705.05
   21:46:17.830.19-May-2020 5137.01 4109.67 67.52 3.00 258.46 2705.05
   21:46:18.030.19-May-2020 5137.01 4110.70 67.52 3.00 258.66 2705.05
   21:46:18.231.19-May-2020 5137.01 4111.53 67.52 3.00 258.86 2705.05
   21:46:18.431.19-May-2020 5137.01 4017.24 67.52 3.00 259.06 2705.05
   21:46:18.631.19-May-2020 5137.01 4017.24 67.52 3.00 259.26 2705.05
   21:46:18.831.19-May-2020 5137.01 2308.93 67.52 3.00 259.46 2705.05
   21:46:19.031.19-May-2020 5137.01 1564.46 67.52 3.00 259.66 2705.05
   21:46:19.231.19-May-2020 5137.01  923.13 67.52 3.00 259.86 2705.05
   21:46:19.431.19-May-2020 5137.01  611.23 67.52 3.00 260.06 2705.05
   21:46:19.631.19-May-2020 5137.01  611.23 67.52 3.00 260.26 2705.05
   21:46:19.831.19-May-2020 5137.01  520.26 67.52 3.00 260.46 2705.05
   21:46:20.031.19-May-2020 5137.01  513.27 67.52 3.00 260.66 2705.05
   21:46:20.231.19-May-2020 5137.01  509.04 67.51 3.00 260.87 2705.05
   21:46:20.431.19-May-2020 5137.01  507.14 67.51 3.00 261.07 2705.05
   21:46:20.631.19-May-2020 5137.01  507.14 67.51 3.00 261.27 2705.05
   21:46:20.831.19-May-2020 5137.01  502.41 67.51 3.00 261.47 2705.05
   21:46:21.031.19-May-2020 5137.01  502.83 67.51 3.00 261.67 2705.05
   21:46:21.231.19-May-2020 5137.01  499.14 67.50 3.00 261.87 2705.05
   21:46:21.431.19-May-2020 5137.01  497.83 67.50 3.00 262.07 2705.05
   21:46:21.631.19-May-2020 5137.01  497.83 67.50 3.00 262.27 2705.05
   21:46:21.831.19-May-2020 5137.01  514.12 67.49 3.00 262.47 2705.05
   21:46:22.031.19-May-2020 5137.01  516.79 67.49 3.00 262.67 2705.05
   21:46:22.232.19-May-2020 5137.01  514.76 67.49 3.00 262.87 2705.05
   21:46:22.432.19-May-2020 5137.01  515.60 67.49 3.00 263.07 2705.05
   21:46:22.632.19-May-2020 5137.01  515.60 67.49 3.00 263.27 2705.05
   21:46:22.832.19-May-2020 5137.01  514.27 67.48 3.00 263.47 2705.05
   21:46:23.032.19-May-2020 5137.01  514.71 67.48 3.00 263.67 2705.05
   21:46:23.232.19-May-2020 5137.01  513.33 67.47 3.00 263.87 2705.05
   21:46:23.432.19-May-2020 5137.01  507.17 67.47 3.00 264.07 2705.05
   21:46:23.632.19-May-2020 5137.01  507.17 67.47 3.00 264.27 2705.05
   21:46:23.832.19-May-2020 5137.01  504.00 67.47 3.00 264.47 2705.05
   21:46:24.032.19-May-2020 5137.01  504.59 67.46 3.00 264.67 2705.05
   21:46:24.232.19-May-2020 5137.01  505.01 67.46 3.00 264.87 2705.05
   21:46:24.432.19-May-2020 5137.01  501.81 67.46 3.00 265.07 2705.05
   21:46:24.632.19-May-2020 5137.01  501.81 67.46 3.00 265.27 2705.05
   21:46:24.832.19-May-2020 5137.01  493.80 67.45 3.00 265.47 2705.05
   21:46:25.032.19-May-2020 5137.01  497.36 67.45 3.00 265.67 2705.05
   21:46:25.232.19-May-2020 5137.01  500.49 67.45 3.00 265.87 2705.05
   21:46:25.432.19-May-2020 5137.01  501.31 67.45 3.00 266.07 2705.05
   21:46:25.632.19-May-2020 5137.01  501.31 67.45 3.00 266.27 2705.05
   21:46:25.832.19-May-2020 5137.01  497.38 67.44 3.00 266.47 2705.05
   21:46:26.032.19-May-2020 5137.01  496.48 67.44 3.00 266.67 2705.05
   21:46:26.233.19-May-2020 5137.01  493.30 67.44 3.00 266.87 2705.05
   21:46:26.433.19-May-2020 5137.01  489.24 67.44 3.00 267.07 2705.05
   21:46:26.633.19-May-2020 5137.01  489.24 67.44 3.00 267.27 2705.05
   21:46:26.833.19-May-2020 5137.01  483.02 67.44 3.00 267.47 2705.05
   21:46:27.033.19-May-2020 5137.01  480.18 67.43 3.00 267.67 2705.05
   21:46:27.233.19-May-2020 5137.01  477.38 67.43 3.00 267.87 2705.05
   21:46:27.433.19-May-2020 5137.01  472.94 67.43 3.00 268.07 2705.05
   21:46:27.633.19-May-2020 5137.01  472.94 67.43 3.00 268.27 2705.05
   21:46:27.833.19-May-2020 5137.01  468.97 67.43 3.00 268.47 2705.05
   21:46:28.033.19-May-2020 5137.01  465.58 67.43 3.00 268.67 2705.05
   21:46:28.233.19-May-2020 5137.01  465.20 67.43 3.00 268.87 2705.05
   21:46:28.433.19-May-2020 5137.01  464.82 67.43 3.00 269.07 2705.05
   21:46:28.633.19-May-2020 5137.01  464.82 67.43 3.00 269.27 2705.05
   21:46:28.833.19-May-2020 5137.01  509.93 67.42 3.00 269.47 2705.05
   21:46:29.033.19-May-2020 5137.01  549.24 67.42 3.00 269.67 2705.05
   21:46:29.233.19-May-2020 5137.01  584.38 67.42 3.00 269.87 2705.05
   21:46:29.433.19-May-2020 5137.01  618.55 67.42 3.00 270.07 2705.05
   21:46:29.633.19-May-2020 5137.01  618.55 67.42 3.00 270.27 2705.05
   21:46:29.833.19-May-2020 5137.01  684.89 67.42 3.00 270.47 2705.05
   21:46:30.033.19-May-2020 5137.01  716.76 67.42 3.00 270.67 2705.05
   21:46:30.234.19-May-2020 5137.01  748.28 67.42 3.00 270.87 2705.05
   21:46:30.434.19-May-2020 5137.01  779.41 67.42 3.00 271.07 2705.05
   21:46:30.634.19-May-2020 5137.01  779.41 67.42 3.00 271.27 2705.05
   21:46:30.834.19-May-2020 5137.01  840.27 67.42 3.00 271.47 2705.05
   21:46:31.034.19-May-2020 5137.01  870.20 67.42 3.00 271.67 2705.05
   21:46:31.234.19-May-2020 5137.01  899.72 67.42 3.00 271.87 2705.05
   21:46:31.434.19-May-2020 5137.01  929.06 67.42 3.00 272.07 2705.05
   21:46:31.634.19-May-2020 5137.01  929.06 67.42 3.00 272.27 2705.05
   21:46:31.834.19-May-2020 5137.01  985.75 67.42 3.00 272.47 2705.05
   21:46:32.034.19-May-2020 5137.01 1014.57 67.42 3.00 272.67 2705.05
   21:46:32.234.19-May-2020 5137.01 1042.34 67.42 3.00 272.87 2705.05
   21:46:32.434.19-May-2020 5137.01 1069.88 67.42 3.00 273.07 2705.05
   21:46:32.634.19-May-2020 5137.01 1069.88 67.42 3.00 273.27 2705.05
   21:46:32.834.19-May-2020 5137.01 1123.88 67.42 3.00 273.47 2705.05
   21:46:33.034.19-May-2020 5137.01 1150.50 67.42 3.00 273.67 2705.05
   21:46:33.234.19-May-2020 5137.01 1176.91 67.42 3.00 273.87 2705.05
   21:46:33.434.19-May-2020 5137.01 1202.80 67.42 3.00 274.07 2705.05
   21:46:33.634.19-May-2020 5137.01 1202.80 67.42 3.00 274.27 2705.05
   21:46:33.834.19-May-2020 5137.01 1253.96 67.42 3.00 274.47 2705.05
   21:46:34.034.19-May-2020 5137.01 1279.09 67.42 3.00 274.67 2705.05
   21:46:34.235.19-May-2020 5137.01 1303.94 67.42 3.00 274.87 2705.05
   21:46:34.435.19-May-2020 5137.01 1328.56 67.42 3.00 275.07 2705.05
   21:46:34.635.19-May-2020 5137.01 1328.56 67.42 3.00 275.27 2705.05
   21:46:34.835.19-May-2020 5137.01 1376.86 67.42 3.00 275.47 2705.05
   21:46:35.035.19-May-2020 5137.01 1400.69 67.42 3.00 275.67 2705.05
   21:46:35.235.19-May-2020 5137.01 1424.20 67.42 3.00 275.87 2705.05
