~Version Information
 VERS.                  2.0:   CWLS log ASCII Standard -VERSION 2.0
 WRAP.                   NO:   One line per depth step
~Well Information Block
#MNEM.UNIT     VALUE/NAME     DESCRIPTION
#---------     -----------    ---------------------------
 STRT.S             06:41:15 20-May-20: START TIME 06:41:15 20-May-20
 STOP.S             06:51:49 20-May-20: STOP TIME  06:51:49 20-May-20
 STEP.S                   0.00: STEP TIME
 NULL.                 -999.25: NULL VALUE
 MDS .        Operator Entered:  MAG DATA SOURCE
 PDAT.          Mean Sea Level:  PERMANENT DATUM
 UNIT.                     N/A:  LOGGING EQUIPMENT ID
 DCON.         Sperry Drilling:  DIRECTNL CONTR
 DOE .                     N/A:  DOE NUMBER
 RIG .              East Azeri:  RIG NAME
 JOBN.        AZ-XX-0905856059:  JOB TICKET NUMB
 WELL.                     D36:  WELL NAME
 MWDS.                    Baku:  MWD SHOP
 SRVC.     Turan Drilling & Engineering:  CONTRACTOR
 FLD .                     ACG:  FIELD NAME
 CTRY.              Azerbaijan:  COUNTRY NAME
 PROV.                    Baku:  PROVINCE
 STAT.                    Baku:  STATE NAME
 REGN.                   EESSA:  REGION
 BASE.              Azerbaijan:  LOGGING EQUIPMENT BASE LOCATION
 UWI .                     N/A:  UNIQUE WELL IDENTIFIER
 API .                     N/A:  API NUMBER
 COMP.     BP Exploration (Caspian Sea) Ltd.:  COMPANY
 WTYP.                Deviated:  WELL TYPE
 SON .        AZ-XX-0905856059:  JOB NUMBER
 FTOP.          Formation Tops:  FORM TOPS DESC
 ILTD.               Lithology:  INTERP LTH DESC
 SVYD.                  Survey:  SURVEY DESC
 DMOD.             Drill Model:  DRILL MOD DESC
 HPTY.       Minimum Curvature:  HOLE POS TYPE
 NREF.                    Grid:  NORTH REFERENCE
 SPUD.               25-Feb-20:  SPUD DATE
 DATE.      08.55.28 01-May-20:  END TIME
 STIM.      08.55.28 25-Feb-20:  START TIME
 DMF .             Drill Floor:  DRILL MEAS FROM
 DFST.                        :  DIST FSL TEXT
 DFWT.                        :  DIST FWL TEXT
 CNTY.                        :  COUNTY
 LOC .                        :  LOCATION
 LMF .             Drill Floor:  LOG MEASURED FROM
 VSNS.m                   6.09:  VERT SEC N/S
 VSEW.m                 -10.79:  VERT SEC E/W
 AGAP.m                  43.60:  AIR GAP
 DEP .m                 388.24:  DEPTH
 APD .m                  43.60:  DEPTH ABOVE PD
 WDMS.m                 151.80:  WD ELEV
 EGL .m                   0.00:  GROUND ELEVATION
 EPD .m                   0.00:  ELEVATION
 AZTC.deg                 6.12:  AZM TOTAL CORR
 GRDC.deg                 0.30:  GRID CORRECTION
 MDEC.deg                 6.42:  MAGNETIC DECL
 MDIP.deg                59.42:  MAGNETIC DIP
 MFLD.nT              50256.00:  MAGNETIC FIELD
 GVFD.g                   1.00:  GRAVITY FIELD
 VSDR.deg               159.57:  VERT SEC DIRECT
 TDD .m                5000.01:  TOTAL DEPTH (DRILLER)
 SDEP.m                 397.00:  START DEPTH
 DFSL.m                   0.00:  DISTANCE FSL
 DFWL.m                   0.00:  DISTANCE FWL
 UTMY.m             4431880.20:  UTM Y
 UTMX.m              538763.98:  UTM X
 WHEW.m                 -10.79:  WELL HEAD E/W
 WHNS.m                   6.09:  WELL HEAD N/S
 LONG.deg                51.45:  LONGITUDE
 LATI.deg                40.02:  LATITUDE
 TVDS.m                  43.60:  TVDSS CORRECTN
 EKB .m                  43.60:  KB ELEVATION
 EDF .m                  43.60:  DF ELEVATION
 MAGU.                 1847640:  MAGUTM CHECKSUM
 VSC .                       0:  VS TO CLOSURE
~Parameter Information Block
#MNEM.UNIT       Value        Description
#---------     -----------    ---------------------------
 AV  .mps                 1.30:  Ann Velocity 
 AVMX.mps                 1.90:  Max Ann Veloc 
 AZIF.deg               115.68:  Azm, Final 
 BHAT.                   Other:  BHA Type 
 BROT.°/30m               0.74:  Build Rotating 
 BS  .in                  8.50:  Bit Size 
 BTPL.psig              430.00:  Bit Press Loss 
 CABU.                      No:  Customer Abuse 
 COMM.                     œÿv:  Run Comments 1 
 TCS .hr                 51.31:  Time Ciculation Ended 
 CV  .mps                 2.52:  Crit Velocity 
 CVMX.mps                 2.62:  Max Crit Veloc 
 DD1 .          Teymur Aghayev:  Direct Drillr 1 
 DDSV.                   Other:  DD Service 
 DEFF.%                 100.00:  % Det Eff 
 DLRX.°/30m               1.62:  Dogleg Rot Max 
 DLSO.°/30m               0.74:  Dogleg Oriented 
 DLSX.°/30m               1.62:  Dogleg Str Max 
 DRET.      04.30.56 18-May-20:  Drill End Time 
 DRST.      04.30.56 18-May-20:  Drill Start Tim 
 DTIM.hr                  0.00:  Time Drilling 
 EDEP.m                5337.01:  End Depth 
 ENG1.      Artemiy Matviyanov:  Engineer 1 
 ENG2.      Bakhtiyar Jabbarli:  Engineer 2 
 ENG3.           Emil Huseynov:  Engineer 3 
 ETIM.      18.40.00 22-May-20:  End Time 
 FLOI.gpm               550.00:  Flow In 
 FLON.gpm               350.00:  Flow In Min 
 FLOS.cptm                0.00:  Fluid Loss 
 FLOX.gpm               600.00:  Flow In Max 
 HFLO.                      No:  High Flow 
 HPRE.                      No:  High Pressure 
 HTEM.                      No:  High Temp 
 HYDO.m                   1.80:  Hydro Offset 
 IFIN.deg                67.01:  Inc, Final 
 IMAX.deg                67.49:  Inc Max 
 IMIN.deg                66.50:  Inc Min 
 IMND.m                5144.79:  Inc Min Depth 
 IMXD.m                5116.12:  Inc Max Depth 
 JARR.                      No:  Jarring 
 LETM.      17.55.56 20-May-20:  Log End Time 
 LOST.hr                     0:  Lost Rig Time 
 LSTM.      04.30.56 18-May-20:  Log Start Time 
 MDCL.ppm            193153.00:  Mud Chlorides 
 MDES.     Inversion Oil/Synthetic:  Mud Desc 
 DFD .sg                  1.40:  Mud Density 
 MDMN.sg                  1.40:  Dens Mud Min 
 MDMX.sg                  1.41:  Dens Mud Max 
 MOIL.                      68:  Run Mud Oil % 
 MOWR.                   68:32:  Run Mud OWR 
 MSND.                     0.2:  Run Mud Sand % 
 MSOL.                    18.8:  Run Mud Solids% 
 DFV .spqt               80.00:  Mud Viscosity 
 MWOD.in                  6.75:  MWD Tool OD 
 MWSI.                      No:  Serv Intrp, MWD 
 OTIM.hr                104.84:  Time Operating 
 PMAX.psia            10690.93:  Press Op, Max 
 PV  .cP                 26.00:  Mud PV 
 RUN .                     900:  Run Number 
 ROPA.m/hr                0.00:  ROP Avg 
 ROPN.m/hr                0.00:  ROP Min 
 ROPX.m/hr                0.00:  ROP Max 
 RPMA.rpm               140.00:  RPM Surface Avg 
 RPMN.rpm                70.00:  RPM Surface Min 
 RPMX.rpm               140.00:  RPM Surface Max 
 RRUN.                    0900:  Rig Run Number 
 RTIM.hr                 36.00:  Time Reaming 
 SAZI.deg               115.72:  Azm, Start 
 SDEP.m                5337.01:  Start Depth 
 SIDD.                      No:  Serv Intrp, DD 
 SINC.deg                66.92:  Inc, Start 
 SPPA.psig             4400.00:  SPP Avg 
 SPPN.psig             1135.00:  SPP Min 
 SPPX.psig             4581.00:  SPP Max 
 STIM.      04.30.56 18-May-20:  Start Time 
 SVCS.                     MWD:  Services 
 SVER.                    9.20:  Sperry Version 
 TDAT.m                5337.01:  Tot Depth Attmp 
 TDDF.                      No:  Trip for DD 
 TFF .                      No:  Trip for Fail 
 TQAA.f-kp               23.00:  Torque Abs Avg 
 TQAN.f-kp               18.00:  Torque Abs Min 
 TQAX.f-kp               25.00:  Torque Abs Max 
 TRRT.°/30m               0.74:  Turn Rotating 
 MRT .                    HCIM:  Maximum Recorded Temperature 
 TTMX.degC               76.47:  Max Tool Temp 
 WBMN.klb                 0.00:  WOB Min 
 WITN.             Anar Khalil:  Customer Rep 
 WITN.      Kamran Keberlinski:  Customer Rep 2 
 WOBA.klb                 0.00:  WOB Avg 
 WOBX.klb                 0.00:  WOB Max 
 YP  .lhf2               27.00:  Yield Point 
~Curve Information Block
#MNEM.UNIT                 API CODE     Curve Description
#---------               -----------    ---------------------------
 TIME.HHMMSS            00 000 000 000:  GT Time & Date
 GTDEPTH.m              00 000 000 000:  GT Depth
 GTPQH.psia             00 000 000 000:  GT HR Quartz Pressure
 GTTQ.degC              00 000 000 000:  GT Quartz Temperature
 GTTN.NONE              00 000 000 000:  GT Test Number
 GTET.sec               00 000 000 000:  GT Elapsed Test Time
 GTTVD.m                00 000 000 000:  GT True Vertical Depth
#Other Information
#
#WARRANTY: Halliburton will use its best efforts to furnish customers with 
#accurate information and interpretations that are part of, and incident to, the services 
#provided.  However, Halliburton cannot and does not warrant the accuracy 
#or correctness of such information and interpretations.  Under no circumstances should any 
#such information or interpretation be relied upon as the sole basis for any drilling, 
#completion, production, or financial decision or any procedure involving any risk to the 
#safety of any drilling venture, drilling rig or its crew or any other third party.  The 
#Customer has full responsibility for all drilling, completion and production operation.  
#Halliburton makes no representations or warranties, either expressed or 
#implied, including, but not limited to, the implied warranties of merchantability or fitness 
#for a particular purpose, with respect to the services rendered.  In no event will 
#Halliburton be liable for failure to obtain any particular results or for 
#any damages, including, but not limited to, indirect, special or consequential damages, 
#resulting from the use of any information or interpretation provided by Halliburton.
#
~A           TIME           GTDEPTH  GTPQH  GTTQ  GTTN   GTET   GTTVD  
# ...
   06:49:55.868.20-May-2020 5012.01 2902.39 68.07 10.00 519.95 2656.39
   06:49:56.068.20-May-2020 5012.01 2902.25 68.07 10.00 520.15 2656.39
   06:49:56.268.20-May-2020 5012.01 2902.25 68.07 10.00 520.35 2656.39
   06:49:56.468.20-May-2020 5012.01 2902.31 68.07 10.00 520.55 2656.39
   06:49:56.668.20-May-2020 5012.01 2902.40 68.07 10.00 520.75 2656.39
   06:49:56.868.20-May-2020 5012.01 2902.35 68.07 10.00 520.95 2656.39
   06:49:57.068.20-May-2020 5012.01 2902.32 68.07 10.00 521.15 2656.39
   06:49:57.268.20-May-2020 5012.01 2902.32 68.07 10.00 521.35 2656.39
   06:49:57.468.20-May-2020 5012.01 2902.34 68.07 10.00 521.55 2656.39
   06:49:57.668.20-May-2020 5012.01 2902.33 68.07 10.00 521.75 2656.39
   06:49:57.868.20-May-2020 5012.01 2902.34 68.07 10.00 521.95 2656.39
   06:49:58.068.20-May-2020 5012.01 2902.34 68.07 10.00 522.15 2656.39
   06:49:58.268.20-May-2020 5012.01 2902.35 68.07 10.00 522.35 2656.39
   06:49:58.469.20-May-2020 5012.01 2902.34 68.07 10.00 522.55 2656.39
   06:49:58.669.20-May-2020 5012.01 2902.34 68.07 10.00 522.75 2656.39
   06:49:58.869.20-May-2020 5012.01 2902.30 68.07 10.00 522.95 2656.39
   06:49:59.069.20-May-2020 5012.01 2902.38 68.07 10.00 523.15 2656.39
   06:49:59.269.20-May-2020 5012.01 2902.38 68.07 10.00 523.35 2656.39
   06:49:59.469.20-May-2020 5012.01 2902.35 68.07 10.00 523.55 2656.39
   06:49:59.669.20-May-2020 5012.01 2902.35 68.07 10.00 523.75 2656.39
   06:49:59.869.20-May-2020 5012.01 2902.25 68.07 10.00 523.95 2656.39
   06:50:00.069.20-May-2020 5012.01 2902.35 68.07 10.00 524.15 2656.39
   06:50:00.269.20-May-2020 5012.01 2902.35 68.07 10.00 524.35 2656.39
   06:50:00.469.20-May-2020 5012.01 2902.53 68.07 10.00 524.55 2656.39
   06:50:00.669.20-May-2020 5012.01 2902.19 68.07 10.00 524.75 2656.39
   06:50:00.869.20-May-2020 5012.01 2902.30 68.07 10.00 524.95 2656.39
   06:50:01.069.20-May-2020 5012.01 2902.35 68.07 10.00 525.15 2656.39
   06:50:01.269.20-May-2020 5012.01 2902.35 68.07 10.00 525.35 2656.39
   06:50:01.469.20-May-2020 5012.01 2902.30 68.07 10.00 525.55 2656.39
   06:50:01.669.20-May-2020 5012.01 2902.26 68.07 10.00 525.75 2656.39
   06:50:01.870.20-May-2020 5012.01 2902.42 68.07 10.00 525.95 2656.39
   06:50:02.070.20-May-2020 5012.01 2902.33 68.07 10.00 526.15 2656.39
   06:50:02.270.20-May-2020 5012.01 2902.37 68.07 10.00 526.35 2656.39
   06:50:02.470.20-May-2020 5012.01 2902.39 68.07 10.00 526.55 2656.39
   06:50:02.670.20-May-2020 5012.01 2902.33 68.07 10.00 526.75 2656.39
   06:50:02.870.20-May-2020 5012.01 2902.32 68.07 10.00 526.95 2656.39
   06:50:03.070.20-May-2020 5012.01 2902.30 68.07 10.00 527.15 2656.39
   06:50:03.270.20-May-2020 5012.01 2902.30 68.07 10.00 527.35 2656.39
   06:50:03.470.20-May-2020 5012.01 2902.34 68.07 10.00 527.55 2656.39
   06:50:03.670.20-May-2020 5012.01 2902.40 68.07 10.00 527.75 2656.39
   06:50:03.870.20-May-2020 5012.01 2902.34 68.07 10.00 527.95 2656.39
   06:50:04.070.20-May-2020 5012.01 2902.31 68.07 10.00 528.15 2656.39
   06:50:04.270.20-May-2020 5012.01 2902.31 68.07 10.00 528.35 2656.39
   06:50:04.470.20-May-2020 5012.01 2902.35 68.07 10.00 528.55 2656.39
   06:50:04.670.20-May-2020 5012.01 2902.34 68.07 10.00 528.75 2656.39
   06:50:04.870.20-May-2020 5012.01 2902.34 68.07 10.00 528.95 2656.39
   06:50:05.070.20-May-2020 5012.01 2902.35 68.07 10.00 529.15 2656.39
   06:50:05.270.20-May-2020 5012.01 2902.35 68.07 10.00 529.35 2656.39
   06:50:05.471.20-May-2020 5012.01 2902.32 68.07 10.00 529.55 2656.39
   06:50:05.671.20-May-2020 5012.01 2902.32 68.07 10.00 529.75 2656.39
   06:50:05.871.20-May-2020 5012.01 2902.26 68.07 10.00 529.95 2656.39
   06:50:06.071.20-May-2020 5012.01 2902.42 68.07 10.00 530.15 2656.39
   06:50:06.271.20-May-2020 5012.01 2902.36 68.07 10.00 530.35 2656.39
   06:50:06.471.20-May-2020 5012.01 2902.32 68.07 10.00 530.55 2656.39
   06:50:06.671.20-May-2020 5012.01 2902.35 68.07 10.00 530.75 2656.39
   06:50:06.871.20-May-2020 5012.01 2902.35 68.07 10.00 530.95 2656.39
   06:50:07.071.20-May-2020 5012.01 2902.33 68.07 10.00 531.15 2656.39
   06:50:07.271.20-May-2020 5012.01 2902.33 68.07 10.00 531.35 2656.39
   06:50:07.471.20-May-2020 5012.01 2902.38 68.07 10.00 531.55 2656.39
   06:50:07.671.20-May-2020 5012.01 2902.24 68.07 10.00 531.75 2656.39
   06:50:07.871.20-May-2020 5012.01 2902.35 68.07 10.00 531.95 2656.39
   06:50:08.071.20-May-2020 5012.01 2902.33 68.07 10.00 532.15 2656.39
   06:50:08.271.20-May-2020 5012.01 2902.33 68.07 10.00 532.35 2656.39
   06:50:08.471.20-May-2020 5012.01 2902.30 68.07 10.00 532.55 2656.39
   06:50:08.671.20-May-2020 5012.01 2902.21 68.07 10.00 532.75 2656.39
   06:50:08.871.20-May-2020 5012.01 2902.48 68.07 10.00 532.95 2656.39
   06:50:09.072.20-May-2020 5012.01 2902.36 68.07 10.00 533.15 2656.39
   06:50:09.272.20-May-2020 5012.01 2902.36 68.07 10.00 533.35 2656.39
   06:50:09.472.20-May-2020 5012.01 2902.39 68.07 10.00 533.55 2656.39
   06:50:09.672.20-May-2020 5012.01 2902.30 68.07 10.00 533.75 2656.39
   06:50:09.872.20-May-2020 5012.01 2902.30 68.07 10.00 533.95 2656.39
   06:50:10.072.20-May-2020 5012.01 2902.35 68.07 10.00 534.15 2656.39
   06:50:10.272.20-May-2020 5012.01 2902.38 68.07 10.00 534.35 2656.39
   06:50:10.472.20-May-2020 5012.01 2902.34 68.07 10.00 534.55 2656.39
   06:50:10.672.20-May-2020 5012.01 2902.36 68.07 10.00 534.75 2656.39
   06:50:10.872.20-May-2020 5012.01 2902.30 68.07 10.00 534.95 2656.39
   06:50:11.072.20-May-2020 5012.01 2902.34 68.07 10.00 535.15 2656.39
   06:50:11.272.20-May-2020 5012.01 2902.34 68.07 10.00 535.35 2656.39
   06:50:11.472.20-May-2020 5012.01 2902.35 68.07 10.00 535.55 2656.39
   06:50:11.672.20-May-2020 5012.01 2902.33 68.07 10.00 535.75 2656.39
   06:50:11.872.20-May-2020 5012.01 2902.35 68.07 10.00 535.95 2656.39
   06:50:12.072.20-May-2020 5012.01 2902.34 68.07 10.00 536.15 2656.39
   06:50:12.272.20-May-2020 5012.01 2902.34 68.07 10.00 536.35 2656.39
   06:50:12.473.20-May-2020 5012.01 2902.34 68.07 10.00 536.55 2656.39
   06:50:12.673.20-May-2020 5012.01 2902.35 68.07 10.00 536.75 2656.39
   06:50:12.873.20-May-2020 5012.01 2902.34 68.07 10.00 536.95 2656.39
   06:50:13.073.20-May-2020 5012.01 2902.33 68.07 10.00 537.15 2656.39
   06:50:13.273.20-May-2020 5012.01 2902.33 68.07 10.00 537.35 2656.39
   06:50:13.473.20-May-2020 5012.01 2902.33 68.07 10.00 537.55 2656.39
   06:50:13.673.20-May-2020 5012.01 2902.22 68.07 10.00 537.75 2656.39
   06:50:13.873.20-May-2020 5012.01 2902.46 68.07 10.00 537.95 2656.39
   06:50:14.073.20-May-2020 5012.01 2902.35 68.07 10.00 538.15 2656.39
   06:50:14.273.20-May-2020 5012.01 2902.30 68.07 10.00 538.35 2656.39
   06:50:14.473.20-May-2020 5012.01 2902.38 68.07 10.00 538.55 2656.39
   06:50:14.673.20-May-2020 5012.01 2902.32 68.07 10.00 538.75 2656.39
   06:50:14.873.20-May-2020 5012.01 2902.35 68.07 10.00 538.95 2656.39
   06:50:15.073.20-May-2020 5012.01 2902.34 68.07 10.00 539.15 2656.39
   06:50:15.273.20-May-2020 5012.01 2902.34 68.07 10.00 539.35 2656.39
   06:50:15.473.20-May-2020 5012.01 2902.30 68.07 10.00 539.55 2656.39
   06:50:15.673.20-May-2020 5012.01 2902.33 68.07 10.00 539.75 2656.39
   06:50:15.873.20-May-2020 5012.01 2902.35 68.07 10.00 539.95 2656.39
   06:50:16.074.20-May-2020 5012.01 2902.37 68.07 10.00 540.15 2656.39
   06:50:16.274.20-May-2020 5012.01 2902.37 68.07 10.00 540.35 2656.39
   06:50:16.474.20-May-2020 5012.01 2902.30 68.07 10.00 540.55 2656.39
   06:50:16.674.20-May-2020 5012.01 2902.40 68.07 10.00 540.75 2656.39
   06:50:16.874.20-May-2020 5012.01 2902.27 68.07 10.00 540.95 2656.39
   06:50:17.074.20-May-2020 5012.01 2902.39 68.07 10.00 541.15 2656.39
   06:50:17.274.20-May-2020 5012.01 2902.39 68.07 10.00 541.35 2656.39
   06:50:17.474.20-May-2020 5012.01 2902.32 68.07 10.00 541.55 2656.39
   06:50:17.674.20-May-2020 5012.01 2902.41 68.07 10.00 541.75 2656.39
   06:50:17.874.20-May-2020 5012.01 2902.30 68.07 10.00 541.95 2656.39
   06:50:18.074.20-May-2020 5012.01 2902.35 68.07 10.00 542.15 2656.39
   06:50:18.274.20-May-2020 5012.01 2902.34 68.06 10.00 542.35 2656.39
