~Version Information
 VERS.                  2.0:   CWLS log ASCII Standard -VERSION 2.0
 WRAP.                   NO:   One line per depth step
~Well Information Block
#MNEM.UNIT     VALUE/NAME     DESCRIPTION
#---------     -----------    ---------------------------
 STRT.S             04:23:34 20-May-20: START TIME 04:23:34 20-May-20
 STOP.S             04:34:06 20-May-20: STOP TIME  04:34:06 20-May-20
 STEP.S                   0.00: STEP TIME
 NULL.                 -999.25: NULL VALUE
 MDS .        Operator Entered:  MAG DATA SOURCE
 PDAT.          Mean Sea Level:  PERMANENT DATUM
 UNIT.                     N/A:  LOGGING EQUIPMENT ID
 DCON.         Sperry Drilling:  DIRECTNL CONTR
 DOE .                     N/A:  DOE NUMBER
 RIG .              East Azeri:  RIG NAME
 JOBN.        AZ-XX-0905856059:  JOB TICKET NUMB
 WELL.                     D36:  WELL NAME
 MWDS.                    Baku:  MWD SHOP
 SRVC.     Turan Drilling & Engineering:  CONTRACTOR
 FLD .                     ACG:  FIELD NAME
 CTRY.              Azerbaijan:  COUNTRY NAME
 PROV.                    Baku:  PROVINCE
 STAT.                    Baku:  STATE NAME
 REGN.                   EESSA:  REGION
 BASE.              Azerbaijan:  LOGGING EQUIPMENT BASE LOCATION
 UWI .                     N/A:  UNIQUE WELL IDENTIFIER
 API .                     N/A:  API NUMBER
 COMP.     BP Exploration (Caspian Sea) Ltd.:  COMPANY
 WTYP.                Deviated:  WELL TYPE
 SON .        AZ-XX-0905856059:  JOB NUMBER
 FTOP.          Formation Tops:  FORM TOPS DESC
 ILTD.               Lithology:  INTERP LTH DESC
 SVYD.                  Survey:  SURVEY DESC
 DMOD.             Drill Model:  DRILL MOD DESC
 HPTY.       Minimum Curvature:  HOLE POS TYPE
 NREF.                    Grid:  NORTH REFERENCE
 SPUD.               25-Feb-20:  SPUD DATE
 DATE.      08.55.28 01-May-20:  END TIME
 STIM.      08.55.28 25-Feb-20:  START TIME
 DMF .             Drill Floor:  DRILL MEAS FROM
 DFST.                        :  DIST FSL TEXT
 DFWT.                        :  DIST FWL TEXT
 CNTY.                        :  COUNTY
 LOC .                        :  LOCATION
 LMF .             Drill Floor:  LOG MEASURED FROM
 VSNS.m                   6.09:  VERT SEC N/S
 VSEW.m                 -10.79:  VERT SEC E/W
 AGAP.m                  43.60:  AIR GAP
 DEP .m                 388.24:  DEPTH
 APD .m                  43.60:  DEPTH ABOVE PD
 WDMS.m                 151.80:  WD ELEV
 EGL .m                   0.00:  GROUND ELEVATION
 EPD .m                   0.00:  ELEVATION
 AZTC.deg                 6.12:  AZM TOTAL CORR
 GRDC.deg                 0.30:  GRID CORRECTION
 MDEC.deg                 6.42:  MAGNETIC DECL
 MDIP.deg                59.42:  MAGNETIC DIP
 MFLD.nT              50256.00:  MAGNETIC FIELD
 GVFD.g                   1.00:  GRAVITY FIELD
 VSDR.deg               159.57:  VERT SEC DIRECT
 TDD .m                5000.01:  TOTAL DEPTH (DRILLER)
 SDEP.m                 397.00:  START DEPTH
 DFSL.m                   0.00:  DISTANCE FSL
 DFWL.m                   0.00:  DISTANCE FWL
 UTMY.m             4431880.20:  UTM Y
 UTMX.m              538763.98:  UTM X
 WHEW.m                 -10.79:  WELL HEAD E/W
 WHNS.m                   6.09:  WELL HEAD N/S
 LONG.deg                51.45:  LONGITUDE
 LATI.deg                40.02:  LATITUDE
 TVDS.m                  43.60:  TVDSS CORRECTN
 EKB .m                  43.60:  KB ELEVATION
 EDF .m                  43.60:  DF ELEVATION
 MAGU.                 1847640:  MAGUTM CHECKSUM
 VSC .                       0:  VS TO CLOSURE
~Parameter Information Block
#MNEM.UNIT       Value        Description
#---------     -----------    ---------------------------
 AV  .mps                 1.30:  Ann Velocity 
 AVMX.mps                 1.90:  Max Ann Veloc 
 AZIF.deg               115.68:  Azm, Final 
 BHAT.                   Other:  BHA Type 
 BROT.°/30m               0.74:  Build Rotating 
 BS  .in                  8.50:  Bit Size 
 BTPL.psig              430.00:  Bit Press Loss 
 CABU.                      No:  Customer Abuse 
 TCS .hr                 51.31:  Time Ciculation Ended 
 CV  .mps                 2.52:  Crit Velocity 
 CVMX.mps                 2.62:  Max Crit Veloc 
 DD1 .          Teymur Aghayev:  Direct Drillr 1 
 DDSV.                   Other:  DD Service 
 DEFF.%                 100.00:  % Det Eff 
 DLRX.°/30m               1.62:  Dogleg Rot Max 
 DLSO.°/30m               0.74:  Dogleg Oriented 
 DLSX.°/30m               1.62:  Dogleg Str Max 
 DRET.      04.30.56 18-May-20:  Drill End Time 
 DRST.      04.30.56 18-May-20:  Drill Start Tim 
 DTIM.hr                  0.00:  Time Drilling 
 EDEP.m                5337.01:  End Depth 
 ENG1.      Artemiy Matviyanov:  Engineer 1 
 ENG2.      Bakhtiyar Jabbarli:  Engineer 2 
 ENG3.           Emil Huseynov:  Engineer 3 
 ETIM.      18.40.00 22-May-20:  End Time 
 FLOI.gpm               550.00:  Flow In 
 FLON.gpm               350.00:  Flow In Min 
 FLOS.cptm                0.00:  Fluid Loss 
 FLOX.gpm               600.00:  Flow In Max 
 HFLO.                      No:  High Flow 
 HPRE.                      No:  High Pressure 
 HTEM.                      No:  High Temp 
 HYDO.m                   1.80:  Hydro Offset 
 IFIN.deg                67.01:  Inc, Final 
 IMAX.deg                67.49:  Inc Max 
 IMIN.deg                66.50:  Inc Min 
 IMND.m                5144.79:  Inc Min Depth 
 IMXD.m                5116.12:  Inc Max Depth 
 JARR.                      No:  Jarring 
 LETM.      17.55.56 20-May-20:  Log End Time 
 LOST.hr                     0:  Lost Rig Time 
 LSTM.      04.30.56 18-May-20:  Log Start Time 
 MDCL.ppm            193153.00:  Mud Chlorides 
 MDES.     Inversion Oil/Synthetic:  Mud Desc 
 DFD .sg                  1.40:  Mud Density 
 MDMN.sg                  1.40:  Dens Mud Min 
 MDMX.sg                  1.41:  Dens Mud Max 
 MOIL.                      68:  Run Mud Oil % 
 MOWR.                   68:32:  Run Mud OWR 
 MSND.                     0.2:  Run Mud Sand % 
 MSOL.                    18.8:  Run Mud Solids% 
 DFV .spqt               80.00:  Mud Viscosity 
 MWOD.in                  6.75:  MWD Tool OD 
 MWSI.                      No:  Serv Intrp, MWD 
 OTIM.hr                104.84:  Time Operating 
 PMAX.psia            10690.93:  Press Op, Max 
 PV  .cP                 26.00:  Mud PV 
 RUN .                     900:  Run Number 
 ROPA.m/hr                0.00:  ROP Avg 
 ROPN.m/hr                0.00:  ROP Min 
 ROPX.m/hr                0.00:  ROP Max 
 RPMA.rpm               140.00:  RPM Surface Avg 
 RPMN.rpm                70.00:  RPM Surface Min 
 RPMX.rpm               140.00:  RPM Surface Max 
 RRUN.                    0900:  Rig Run Number 
 RTIM.hr                 36.00:  Time Reaming 
 SAZI.deg               115.72:  Azm, Start 
 SDEP.m                5337.01:  Start Depth 
 SIDD.                      No:  Serv Intrp, DD 
 SINC.deg                66.92:  Inc, Start 
 SPPA.psig             4400.00:  SPP Avg 
 SPPN.psig             1135.00:  SPP Min 
 SPPX.psig             4581.00:  SPP Max 
 STIM.      04.30.56 18-May-20:  Start Time 
 SVCS.                     MWD:  Services 
 SVER.                    9.20:  Sperry Version 
 TDAT.m                5337.01:  Tot Depth Attmp 
 TDDF.                      No:  Trip for DD 
 TFF .                      No:  Trip for Fail 
 TQAA.f-kp               23.00:  Torque Abs Avg 
 TQAN.f-kp               18.00:  Torque Abs Min 
 TQAX.f-kp               25.00:  Torque Abs Max 
 TRRT.°/30m               0.74:  Turn Rotating 
 MRT .                    HCIM:  Maximum Recorded Temperature 
 TTMX.degC               76.47:  Max Tool Temp 
 WBMN.klb                 0.00:  WOB Min 
 WITN.             Anar Khalil:  Customer Rep 
 WITN.      Kamran Keberlinski:  Customer Rep 2 
 WOBA.klb                 0.00:  WOB Avg 
 WOBX.klb                 0.00:  WOB Max 
 YP  .lhf2               27.00:  Yield Point 
~Curve Information Block
#MNEM.UNIT                 API CODE     Curve Description
#---------               -----------    ---------------------------
 TIME.HHMMSS            00 000 000 000:  GT Time & Date
 GTDEPTH.m              00 000 000 000:  GT Depth
 GTPQH.psia             00 000 000 000:  GT HR Quartz Pressure
 GTTQ.degC              00 000 000 000:  GT Quartz Temperature
 GTTN.NONE              00 000 000 000:  GT Test Number
 GTET.sec               00 000 000 000:  GT Elapsed Test Time
 GTTVD.m                00 000 000 000:  GT True Vertical Depth
#Other Information
#
#WARRANTY: Halliburton will use its best efforts to furnish customers with 
#accurate information and interpretations that are part of, and incident to, the services 
#provided.  However, Halliburton cannot and does not warrant the accuracy 
#or correctness of such information and interpretations.  Under no circumstances should any 
#such information or interpretation be relied upon as the sole basis for any drilling, 
#completion, production, or financial decision or any procedure involving any risk to the 
#safety of any drilling venture, drilling rig or its crew or any other third party.  The 
#Customer has full responsibility for all drilling, completion and production operation.  
#Halliburton makes no representations or warranties, either expressed or 
#implied, including, but not limited to, the implied warranties of merchantability or fitness 
#for a particular purpose, with respect to the services rendered.  In no event will 
#Halliburton be liable for failure to obtain any particular results or for 
#any damages, including, but not limited to, indirect, special or consequential damages, 
#resulting from the use of any information or interpretation provided by Halliburton.
#
~A           TIME           GTDEPTH  GTPQH  GTTQ  GTTN  GTET   GTTVD  
# ...
   04:30:51.708.20-May-2020 5064.29 2903.34 68.78 9.00 437.12 2676.66
   04:30:51.908.20-May-2020 5064.29 2903.34 68.78 9.00 437.32 2676.66
   04:30:52.108.20-May-2020 5064.29 2902.46 68.78 9.00 437.52 2676.66
   04:30:52.308.20-May-2020 5064.29 2902.41 68.78 9.00 437.72 2676.66
   04:30:52.508.20-May-2020 5064.29 2903.15 68.78 9.00 437.92 2676.66
   04:30:52.708.20-May-2020 5064.29 2903.97 68.78 9.00 438.12 2676.66
   04:30:52.908.20-May-2020 5064.29 2903.97 68.78 9.00 438.32 2676.66
   04:30:53.108.20-May-2020 5064.29 2903.34 68.78 9.00 438.52 2676.66
   04:30:53.308.20-May-2020 5064.29 2903.51 68.78 9.00 438.72 2676.66
   04:30:53.508.20-May-2020 5064.29 2904.05 68.78 9.00 438.92 2676.66
   04:30:53.708.20-May-2020 5064.29 2902.87 68.78 9.00 439.12 2676.66
   04:30:53.909.20-May-2020 5064.29 2902.87 68.78 9.00 439.32 2676.66
   04:30:54.109.20-May-2020 5064.29 2904.58 68.78 9.00 439.52 2676.66
   04:30:54.309.20-May-2020 5064.29 2903.86 68.78 9.00 439.72 2676.66
   04:30:54.509.20-May-2020 5064.29 2903.32 68.78 9.00 439.92 2676.66
   04:30:54.709.20-May-2020 5064.29 2903.52 68.78 9.00 440.12 2676.66
   04:30:54.909.20-May-2020 5064.29 2903.52 68.78 9.00 440.32 2676.66
   04:30:55.109.20-May-2020 5064.29 2904.41 68.78 9.00 440.52 2676.66
   04:30:55.309.20-May-2020 5064.29 2903.64 68.78 9.00 440.72 2676.66
   04:30:55.509.20-May-2020 5064.29 2904.22 68.78 9.00 440.92 2676.66
   04:30:55.709.20-May-2020 5064.29 2901.88 68.78 9.00 441.12 2676.66
   04:30:55.909.20-May-2020 5064.29 2901.88 68.78 9.00 441.32 2676.66
   04:30:56.109.20-May-2020 5064.29 2905.09 68.78 9.00 441.52 2676.66
   04:30:56.309.20-May-2020 5064.29 2904.49 68.78 9.00 441.72 2676.66
   04:30:56.509.20-May-2020 5064.29 2903.68 68.78 9.00 441.92 2676.66
   04:30:56.709.20-May-2020 5064.29 2904.22 68.78 9.00 442.13 2676.66
   04:30:56.909.20-May-2020 5064.29 2904.22 68.78 9.00 442.33 2676.66
   04:30:57.109.20-May-2020 5064.29 2904.74 68.78 9.00 442.53 2676.66
   04:30:57.310.20-May-2020 5064.29 2904.73 68.78 9.00 442.73 2676.66
   04:30:57.510.20-May-2020 5064.29 2904.25 68.78 9.00 442.93 2676.66
   04:30:57.710.20-May-2020 5064.29 2904.67 68.78 9.00 443.13 2676.66
   04:30:57.910.20-May-2020 5064.29 2904.67 68.78 9.00 443.33 2676.66
   04:30:58.110.20-May-2020 5064.29 2904.07 68.78 9.00 443.53 2676.66
   04:30:58.310.20-May-2020 5064.29 2904.43 68.78 9.00 443.73 2676.66
   04:30:58.510.20-May-2020 5064.29 2904.42 68.78 9.00 443.93 2676.66
   04:30:58.710.20-May-2020 5064.29 2904.21 68.78 9.00 444.13 2676.66
   04:30:58.910.20-May-2020 5064.29 2904.21 68.78 9.00 444.33 2676.66
   04:30:59.110.20-May-2020 5064.29 2930.83 68.78 9.00 444.53 2676.66
   04:30:59.310.20-May-2020 5064.29 2932.86 68.78 9.00 444.73 2676.66
   04:30:59.510.20-May-2020 5064.29 2911.80 68.78 9.00 444.93 2676.66
   04:30:59.710.20-May-2020 5064.29 2907.28 68.78 9.00 445.13 2676.66
   04:30:59.910.20-May-2020 5064.29 2907.28 68.78 9.00 445.33 2676.66
   04:31:00.110.20-May-2020 5064.29 2905.73 68.78 9.00 445.53 2676.66
   04:31:00.310.20-May-2020 5064.29 2903.77 68.78 9.00 445.73 2676.66
   04:31:00.510.20-May-2020 5064.29 2904.55 68.78 9.00 445.93 2676.66
   04:31:00.710.20-May-2020 5064.29 2905.75 68.78 9.00 446.13 2676.66
   04:31:00.911.20-May-2020 5064.29 2905.75 68.78 9.00 446.33 2676.66
   04:31:01.111.20-May-2020 5064.29 2946.84 68.78 9.00 446.53 2676.66
   04:31:01.311.20-May-2020 5064.29 2954.00 68.78 9.00 446.73 2676.66
   04:31:01.511.20-May-2020 5064.29 2954.96 68.78 9.00 446.93 2676.66
   04:31:01.711.20-May-2020 5064.29 2955.19 68.78 9.00 447.13 2676.66
   04:31:01.911.20-May-2020 5064.29 2955.19 68.78 9.00 447.33 2676.66
   04:31:02.111.20-May-2020 5064.29 2955.40 68.78 9.00 447.53 2676.66
   04:31:02.311.20-May-2020 5064.29 2955.48 68.78 9.00 447.73 2676.66
   04:31:02.511.20-May-2020 5064.29 2955.35 68.78 9.00 447.93 2676.66
   04:31:02.711.20-May-2020 5064.29 2955.61 68.78 9.00 448.13 2676.66
   04:31:02.911.20-May-2020 5064.29 2955.61 68.78 9.00 448.33 2676.66
   04:31:03.111.20-May-2020 5064.29 2955.66 68.78 9.00 448.53 2676.66
   04:31:03.311.20-May-2020 5064.29 2955.68 68.78 9.00 448.73 2676.66
   04:31:03.511.20-May-2020 5064.29 2955.64 68.78 9.00 448.93 2676.66
   04:31:03.711.20-May-2020 5064.29 2955.68 68.78 9.00 449.13 2676.66
   04:31:03.911.20-May-2020 5064.29 2955.68 68.78 9.00 449.33 2676.66
   04:31:04.111.20-May-2020 5064.29 2955.75 68.78 9.00 449.53 2676.66
   04:31:04.311.20-May-2020 5064.29 2955.69 68.78 9.00 449.73 2676.66
   04:31:04.512.20-May-2020 5064.29 2955.74 68.78 9.00 449.93 2676.66
   04:31:04.712.20-May-2020 5064.29 2955.74 68.78 9.00 450.13 2676.66
   04:31:04.912.20-May-2020 5064.29 2955.74 68.78 9.00 450.33 2676.66
   04:31:05.112.20-May-2020 5064.29 2955.80 68.78 9.00 450.53 2676.66
   04:31:05.312.20-May-2020 5064.29 2955.76 68.78 9.00 450.73 2676.66
   04:31:05.512.20-May-2020 5064.29 2955.70 68.78 9.00 450.93 2676.66
   04:31:05.712.20-May-2020 5064.29 2955.93 68.78 9.00 451.13 2676.66
   04:31:05.912.20-May-2020 5064.29 2955.93 68.78 9.00 451.33 2676.66
   04:31:06.112.20-May-2020 5064.29 2955.89 68.78 9.00 451.53 2676.66
   04:31:06.312.20-May-2020 5064.29 2955.79 68.78 9.00 451.73 2676.66
   04:31:06.512.20-May-2020 5064.29 2955.97 68.78 9.00 451.93 2676.66
   04:31:06.712.20-May-2020 5064.29 2955.86 68.78 9.00 452.13 2676.66
   04:31:06.912.20-May-2020 5064.29 2955.86 68.78 9.00 452.33 2676.66
   04:31:07.112.20-May-2020 5064.29 2955.86 68.78 9.00 452.53 2676.66
   04:31:07.312.20-May-2020 5064.29 2955.99 68.78 9.00 452.73 2676.66
   04:31:07.512.20-May-2020 5064.29 2955.86 68.78 9.00 452.93 2676.66
   04:31:07.712.20-May-2020 5064.29 2955.95 68.78 9.00 453.13 2676.66
   04:31:07.913.20-May-2020 5064.29 2955.95 68.78 9.00 453.33 2676.66
   04:31:08.113.20-May-2020 5064.29 2955.94 68.78 9.00 453.53 2676.66
   04:31:08.313.20-May-2020 5064.29 2955.78 68.78 9.00 453.73 2676.66
   04:31:08.513.20-May-2020 5064.29 2956.05 68.78 9.00 453.93 2676.66
   04:31:08.713.20-May-2020 5064.29 2955.95 68.78 9.00 454.13 2676.66
   04:31:08.913.20-May-2020 5064.29 2955.95 68.78 9.00 454.33 2676.66
   04:31:09.113.20-May-2020 5064.29 2955.89 68.78 9.00 454.53 2676.66
   04:31:09.313.20-May-2020 5064.29 2956.01 68.78 9.00 454.73 2676.66
   04:31:09.513.20-May-2020 5064.29 2955.94 68.78 9.00 454.93 2676.66
   04:31:09.713.20-May-2020 5064.29 2955.98 68.78 9.00 455.13 2676.66
   04:31:09.913.20-May-2020 5064.29 2955.98 68.78 9.00 455.33 2676.66
   04:31:10.113.20-May-2020 5064.29 2955.98 68.78 9.00 455.53 2676.66
   04:31:10.313.20-May-2020 5064.29 2955.93 68.78 9.00 455.73 2676.66
   04:31:10.513.20-May-2020 5064.29 2955.97 68.78 9.00 455.93 2676.66
   04:31:10.713.20-May-2020 5064.29 2955.98 68.78 9.00 456.13 2676.66
   04:31:10.913.20-May-2020 5064.29 2955.98 68.78 9.00 456.33 2676.66
   04:31:11.113.20-May-2020 5064.29 2955.99 68.78 9.00 456.53 2676.66
   04:31:11.313.20-May-2020 5064.29 2955.95 68.78 9.00 456.73 2676.66
   04:31:11.514.20-May-2020 5064.29 2955.98 68.78 9.00 456.93 2676.66
   04:31:11.714.20-May-2020 5064.29 2955.97 68.78 9.00 457.13 2676.66
   04:31:11.914.20-May-2020 5064.29 2955.97 68.78 9.00 457.33 2676.66
   04:31:12.114.20-May-2020 5064.29 2956.01 68.78 9.00 457.53 2676.66
   04:31:12.314.20-May-2020 5064.29 2955.98 68.78 9.00 457.73 2676.66
   04:31:12.514.20-May-2020 5064.29 2955.97 68.78 9.00 457.93 2676.66
   04:31:12.714.20-May-2020 5064.29 2955.99 68.78 9.00 458.13 2676.66
   04:31:12.914.20-May-2020 5064.29 2955.99 68.78 9.00 458.33 2676.66
   04:31:13.114.20-May-2020 5064.29 2956.09 68.78 9.00 458.53 2676.66
   04:31:13.314.20-May-2020 5064.29 2955.94 68.78 9.00 458.73 2676.66
   04:31:13.514.20-May-2020 5064.29 2956.03 68.78 9.00 458.93 2676.66
   04:31:13.714.20-May-2020 5064.29 2956.03 68.78 9.00 459.13 2676.66
   04:31:13.914.20-May-2020 5064.29 2956.03 68.78 9.00 459.33 2676.66
   04:31:14.114.20-May-2020 5064.29 2955.94 68.78 9.00 459.53 2676.66
   04:31:14.314.20-May-2020 5064.29 2956.10 68.78 9.00 459.73 2676.66
   04:31:14.514.20-May-2020 5064.29 2956.02 68.78 9.00 459.93 2676.66
