~Version Information
 VERS.                  2.0:   CWLS log ASCII Standard -VERSION 2.0
 WRAP.                   NO:   One line per depth step
~Well Information Block
#MNEM.UNIT     VALUE/NAME     DESCRIPTION
#---------     -----------    ---------------------------
 STRT.S             23:11:25 19-May-20: START TIME 23:11:25 19-May-20
 STOP.S             23:19:39 19-May-20: STOP TIME  23:19:39 19-May-20
 STEP.S                   0.00: STEP TIME
 NULL.                 -999.25: NULL VALUE
 MDS .        Operator Entered:  MAG DATA SOURCE
 PDAT.          Mean Sea Level:  PERMANENT DATUM
 UNIT.                     N/A:  LOGGING EQUIPMENT ID
 DCON.         Sperry Drilling:  DIRECTNL CONTR
 DOE .                     N/A:  DOE NUMBER
 RIG .              East Azeri:  RIG NAME
 JOBN.        AZ-XX-0905856059:  JOB TICKET NUMB
 WELL.                     D36:  WELL NAME
 MWDS.                    Baku:  MWD SHOP
 SRVC.     Turan Drilling & Engineering:  CONTRACTOR
 FLD .                     ACG:  FIELD NAME
 CTRY.              Azerbaijan:  COUNTRY NAME
 PROV.                    Baku:  PROVINCE
 STAT.                    Baku:  STATE NAME
 REGN.                   EESSA:  REGION
 BASE.              Azerbaijan:  LOGGING EQUIPMENT BASE LOCATION
 UWI .                     N/A:  UNIQUE WELL IDENTIFIER
 API .                     N/A:  API NUMBER
 COMP.     BP Exploration (Caspian Sea) Ltd.:  COMPANY
 WTYP.                Deviated:  WELL TYPE
 SON .        AZ-XX-0905856059:  JOB NUMBER
 FTOP.          Formation Tops:  FORM TOPS DESC
 ILTD.               Lithology:  INTERP LTH DESC
 SVYD.                  Survey:  SURVEY DESC
 DMOD.             Drill Model:  DRILL MOD DESC
 HPTY.       Minimum Curvature:  HOLE POS TYPE
 NREF.                    Grid:  NORTH REFERENCE
 SPUD.               25-Feb-20:  SPUD DATE
 DATE.      08.55.28 01-May-20:  END TIME
 STIM.      08.55.28 25-Feb-20:  START TIME
 DMF .             Drill Floor:  DRILL MEAS FROM
 DFST.                        :  DIST FSL TEXT
 DFWT.                        :  DIST FWL TEXT
 CNTY.                        :  COUNTY
 LOC .                        :  LOCATION
 LMF .             Drill Floor:  LOG MEASURED FROM
 VSNS.m                   6.09:  VERT SEC N/S
 VSEW.m                 -10.79:  VERT SEC E/W
 AGAP.m                  43.60:  AIR GAP
 DEP .m                 388.24:  DEPTH
 APD .m                  43.60:  DEPTH ABOVE PD
 WDMS.m                 151.80:  WD ELEV
 EGL .m                   0.00:  GROUND ELEVATION
 EPD .m                   0.00:  ELEVATION
 AZTC.deg                 6.12:  AZM TOTAL CORR
 GRDC.deg                 0.30:  GRID CORRECTION
 MDEC.deg                 6.42:  MAGNETIC DECL
 MDIP.deg                59.42:  MAGNETIC DIP
 MFLD.nT              50256.00:  MAGNETIC FIELD
 GVFD.g                   1.00:  GRAVITY FIELD
 VSDR.deg               159.57:  VERT SEC DIRECT
 TDD .m                5000.01:  TOTAL DEPTH (DRILLER)
 SDEP.m                 397.00:  START DEPTH
 DFSL.m                   0.00:  DISTANCE FSL
 DFWL.m                   0.00:  DISTANCE FWL
 UTMY.m             4431880.20:  UTM Y
 UTMX.m              538763.98:  UTM X
 WHEW.m                 -10.79:  WELL HEAD E/W
 WHNS.m                   6.09:  WELL HEAD N/S
 LONG.deg                51.45:  LONGITUDE
 LATI.deg                40.02:  LATITUDE
 TVDS.m                  43.60:  TVDSS CORRECTN
 EKB .m                  43.60:  KB ELEVATION
 EDF .m                  43.60:  DF ELEVATION
 MAGU.                 1847640:  MAGUTM CHECKSUM
 VSC .                       0:  VS TO CLOSURE
~Parameter Information Block
#MNEM.UNIT       Value        Description
#---------     -----------    ---------------------------
 AV  .mps                 1.30:  Ann Velocity 
 AVMX.mps                 1.90:  Max Ann Veloc 
 AZIF.deg               115.68:  Azm, Final 
 BHAT.                   Other:  BHA Type 
 BROT.°/30m               0.74:  Build Rotating 
 BS  .in                  8.50:  Bit Size 
 BTPL.psig              430.00:  Bit Press Loss 
 CABU.                      No:  Customer Abuse 
 COMM.                     Tr}:  Run Comments 1 
 TCS .hr                 51.31:  Time Ciculation Ended 
 CV  .mps                 2.52:  Crit Velocity 
 CVMX.mps                 2.62:  Max Crit Veloc 
 DD1 .          Teymur Aghayev:  Direct Drillr 1 
 DDSV.                   Other:  DD Service 
 DEFF.%                 100.00:  % Det Eff 
 DLRX.°/30m               1.62:  Dogleg Rot Max 
 DLSO.°/30m               0.74:  Dogleg Oriented 
 DLSX.°/30m               1.62:  Dogleg Str Max 
 DRET.      04.30.56 18-May-20:  Drill End Time 
 DRST.      04.30.56 18-May-20:  Drill Start Tim 
 DTIM.hr                  0.00:  Time Drilling 
 EDEP.m                5337.01:  End Depth 
 ENG1.      Artemiy Matviyanov:  Engineer 1 
 ENG2.      Bakhtiyar Jabbarli:  Engineer 2 
 ENG3.           Emil Huseynov:  Engineer 3 
 ETIM.      18.40.00 22-May-20:  End Time 
 FLOI.gpm               550.00:  Flow In 
 FLON.gpm               350.00:  Flow In Min 
 FLOS.cptm                0.00:  Fluid Loss 
 FLOX.gpm               600.00:  Flow In Max 
 HFLO.                      No:  High Flow 
 HPRE.                      No:  High Pressure 
 HTEM.                      No:  High Temp 
 HYDO.m                   1.80:  Hydro Offset 
 IFIN.deg                67.01:  Inc, Final 
 IMAX.deg                67.49:  Inc Max 
 IMIN.deg                66.50:  Inc Min 
 IMND.m                5144.79:  Inc Min Depth 
 IMXD.m                5116.12:  Inc Max Depth 
 JARR.                      No:  Jarring 
 LETM.      17.55.56 20-May-20:  Log End Time 
 LOST.hr                     0:  Lost Rig Time 
 LSTM.      04.30.56 18-May-20:  Log Start Time 
 MDCL.ppm            193153.00:  Mud Chlorides 
 MDES.     Inversion Oil/Synthetic:  Mud Desc 
 DFD .sg                  1.40:  Mud Density 
 MDMN.sg                  1.40:  Dens Mud Min 
 MDMX.sg                  1.41:  Dens Mud Max 
 MOIL.                      68:  Run Mud Oil % 
 MOWR.                   68:32:  Run Mud OWR 
 MSND.                     0.2:  Run Mud Sand % 
 MSOL.                    18.8:  Run Mud Solids% 
 DFV .spqt               80.00:  Mud Viscosity 
 MWOD.in                  6.75:  MWD Tool OD 
 MWSI.                      No:  Serv Intrp, MWD 
 OTIM.hr                104.84:  Time Operating 
 PMAX.psia            10690.93:  Press Op, Max 
 PV  .cP                 26.00:  Mud PV 
 RUN .                     900:  Run Number 
 ROPA.m/hr                0.00:  ROP Avg 
 ROPN.m/hr                0.00:  ROP Min 
 ROPX.m/hr                0.00:  ROP Max 
 RPMA.rpm               140.00:  RPM Surface Avg 
 RPMN.rpm                70.00:  RPM Surface Min 
 RPMX.rpm               140.00:  RPM Surface Max 
 RRUN.                    0900:  Rig Run Number 
 RTIM.hr                 36.00:  Time Reaming 
 SAZI.deg               115.72:  Azm, Start 
 SDEP.m                5337.01:  Start Depth 
 SIDD.                      No:  Serv Intrp, DD 
 SINC.deg                66.92:  Inc, Start 
 SPPA.psig             4400.00:  SPP Avg 
 SPPN.psig             1135.00:  SPP Min 
 SPPX.psig             4581.00:  SPP Max 
 STIM.      04.30.56 18-May-20:  Start Time 
 SVCS.                     MWD:  Services 
 SVER.                    9.20:  Sperry Version 
 TDAT.m                5337.01:  Tot Depth Attmp 
 TDDF.                      No:  Trip for DD 
 TFF .                      No:  Trip for Fail 
 TQAA.f-kp               23.00:  Torque Abs Avg 
 TQAN.f-kp               18.00:  Torque Abs Min 
 TQAX.f-kp               25.00:  Torque Abs Max 
 TRRT.°/30m               0.74:  Turn Rotating 
 MRT .                    HCIM:  Maximum Recorded Temperature 
 TTMX.degC               76.47:  Max Tool Temp 
 WBMN.klb                 0.00:  WOB Min 
 WITN.             Anar Khalil:  Customer Rep 
 WITN.      Kamran Keberlinski:  Customer Rep 2 
 WOBA.klb                 0.00:  WOB Avg 
 WOBX.klb                 0.00:  WOB Max 
 YP  .lhf2               27.00:  Yield Point 
~Curve Information Block
#MNEM.UNIT                 API CODE     Curve Description
#---------               -----------    ---------------------------
 TIME.HHMMSS            00 000 000 000:  GT Time & Date
 GTDEPTH.m              00 000 000 000:  GT Depth
 GTPQH.psia             00 000 000 000:  GT HR Quartz Pressure
 GTTQ.degC              00 000 000 000:  GT Quartz Temperature
 GTTN.NONE              00 000 000 000:  GT Test Number
 GTET.sec               00 000 000 000:  GT Elapsed Test Time
 GTTVD.m                00 000 000 000:  GT True Vertical Depth
#Other Information
#
#WARRANTY: Halliburton will use its best efforts to furnish customers with 
#accurate information and interpretations that are part of, and incident to, the services 
#provided.  However, Halliburton cannot and does not warrant the accuracy 
#or correctness of such information and interpretations.  Under no circumstances should any 
#such information or interpretation be relied upon as the sole basis for any drilling, 
#completion, production, or financial decision or any procedure involving any risk to the 
#safety of any drilling venture, drilling rig or its crew or any other third party.  The 
#Customer has full responsibility for all drilling, completion and production operation.  
#Halliburton makes no representations or warranties, either expressed or 
#implied, including, but not limited to, the implied warranties of merchantability or fitness 
#for a particular purpose, with respect to the services rendered.  In no event will 
#Halliburton be liable for failure to obtain any particular results or for 
#any damages, including, but not limited to, indirect, special or consequential damages, 
#resulting from the use of any information or interpretation provided by Halliburton.
#
~A           TIME           GTDEPTH  GTPQH  GTTQ  GTTN  GTET   GTTVD  
# ...
   23:14:29.750.19-May-2020 5121.01  552.29 67.97 5.00 184.05 2698.81
   23:14:29.950.19-May-2020 5121.01  552.29 67.97 5.00 184.25 2698.81
   23:14:30.150.19-May-2020 5121.01  513.69 67.96 5.00 184.45 2698.81
   23:14:30.350.19-May-2020 5121.01  499.37 67.96 5.00 184.65 2698.81
   23:14:30.550.19-May-2020 5121.01  500.39 67.96 5.00 184.85 2698.81
   23:14:30.750.19-May-2020 5121.01  512.32 67.96 5.00 185.05 2698.81
   23:14:30.950.19-May-2020 5121.01  512.32 67.96 5.00 185.25 2698.81
   23:14:31.150.19-May-2020 5121.01  506.55 67.95 5.00 185.45 2698.81
   23:14:31.350.19-May-2020 5121.01  498.98 67.95 5.00 185.65 2698.81
   23:14:31.550.19-May-2020 5121.01  508.28 67.95 5.00 185.85 2698.81
   23:14:31.750.19-May-2020 5121.01  509.79 67.94 5.00 186.05 2698.81
   23:14:31.950.19-May-2020 5121.01  501.36 67.94 5.00 186.25 2698.81
   23:14:32.150.19-May-2020 5121.01  489.44 67.94 5.00 186.45 2698.81
   23:14:32.350.19-May-2020 5121.01  477.42 67.94 5.00 186.65 2698.81
   23:14:32.550.19-May-2020 5121.01  476.48 67.94 5.00 186.85 2698.81
   23:14:32.750.19-May-2020 5121.01  486.39 67.93 5.00 187.05 2698.81
   23:14:32.950.19-May-2020 5121.01  501.47 67.93 5.00 187.25 2698.81
   23:14:33.150.19-May-2020 5121.01  512.89 67.93 5.00 187.45 2698.81
   23:14:33.350.19-May-2020 5121.01  517.76 67.93 5.00 187.65 2698.81
   23:14:33.550.19-May-2020 5121.01  523.40 67.93 5.00 187.85 2698.81
   23:14:33.751.19-May-2020 5121.01  523.24 67.92 5.00 188.05 2698.81
   23:14:33.951.19-May-2020 5121.01  523.24 67.92 5.00 188.25 2698.81
   23:14:34.151.19-May-2020 5121.01  531.24 67.92 5.00 188.45 2698.81
   23:14:34.351.19-May-2020 5121.01  527.57 67.92 5.00 188.65 2698.81
   23:14:34.551.19-May-2020 5121.01  521.20 67.92 5.00 188.85 2698.81
   23:14:34.751.19-May-2020 5121.01  515.45 67.92 5.00 189.05 2698.81
   23:14:34.951.19-May-2020 5121.01  515.45 67.92 5.00 189.25 2698.81
   23:14:35.151.19-May-2020 5121.01  508.25 67.91 5.00 189.45 2698.81
   23:14:35.351.19-May-2020 5121.01  511.16 67.91 5.00 189.65 2698.81
   23:14:35.551.19-May-2020 5121.01  515.02 67.91 5.00 189.85 2698.81
   23:14:35.751.19-May-2020 5121.01  510.92 67.91 5.00 190.05 2698.81
   23:14:35.951.19-May-2020 5121.01  510.92 67.91 5.00 190.25 2698.81
   23:14:36.151.19-May-2020 5121.01  552.83 67.91 5.00 190.45 2698.81
   23:14:36.351.19-May-2020 5121.01  589.38 67.91 5.00 190.65 2698.81
   23:14:36.551.19-May-2020 5121.01  625.11 67.91 5.00 190.85 2698.81
   23:14:36.751.19-May-2020 5121.01  657.10 67.90 5.00 191.05 2698.81
   23:14:36.951.19-May-2020 5121.01  680.42 67.90 5.00 191.25 2698.81
   23:14:37.151.19-May-2020 5121.01  700.45 67.90 5.00 191.45 2698.81
   23:14:37.351.19-May-2020 5121.01  719.63 67.90 5.00 191.65 2698.81
   23:14:37.551.19-May-2020 5121.01  737.89 67.90 5.00 191.85 2698.81
   23:14:37.752.19-May-2020 5121.01  754.97 67.90 5.00 192.05 2698.81
   23:14:37.952.19-May-2020 5121.01  754.97 67.90 5.00 192.25 2698.81
   23:14:38.152.19-May-2020 5121.01  787.41 67.90 5.00 192.45 2698.81
   23:14:38.352.19-May-2020 5121.01  804.47 67.90 5.00 192.65 2698.81
   23:14:38.552.19-May-2020 5121.01  821.84 67.90 5.00 192.85 2698.81
   23:14:38.752.19-May-2020 5121.01  837.71 67.90 5.00 193.05 2698.81
   23:14:38.952.19-May-2020 5121.01  837.71 67.90 5.00 193.25 2698.81
   23:14:39.152.19-May-2020 5121.01  887.89 67.90 5.00 193.45 2698.81
   23:14:39.352.19-May-2020 5121.01  920.64 67.90 5.00 193.65 2698.81
   23:14:39.552.19-May-2020 5121.01  950.88 67.90 5.00 193.85 2698.81
   23:14:39.752.19-May-2020 5121.01  977.09 67.90 5.00 194.05 2698.81
   23:14:39.952.19-May-2020 5121.01  977.09 67.90 5.00 194.25 2698.81
   23:14:40.152.19-May-2020 5121.01 1018.23 67.90 5.00 194.45 2698.81
   23:14:40.352.19-May-2020 5121.01 1035.89 67.90 5.00 194.65 2698.81
   23:14:40.552.19-May-2020 5121.01 1052.69 67.90 5.00 194.85 2698.81
   23:14:40.752.19-May-2020 5121.01 1068.11 67.90 5.00 195.05 2698.81
   23:14:40.952.19-May-2020 5121.01 1068.11 67.90 5.00 195.25 2698.81
   23:14:41.152.19-May-2020 5121.01 1097.87 67.90 5.00 195.45 2698.81
   23:14:41.352.19-May-2020 5121.01 1111.87 67.90 5.00 195.65 2698.81
   23:14:41.552.19-May-2020 5121.01 1126.26 67.90 5.00 195.85 2698.81
   23:14:41.753.19-May-2020 5121.01 1140.43 67.90 5.00 196.05 2698.81
   23:14:41.953.19-May-2020 5121.01 1140.43 67.90 5.00 196.25 2698.81
   23:14:42.153.19-May-2020 5121.01 1167.66 67.90 5.00 196.45 2698.81
   23:14:42.353.19-May-2020 5121.01 1180.72 67.90 5.00 196.65 2698.81
   23:14:42.553.19-May-2020 5121.01 1193.33 67.90 5.00 196.85 2698.81
   23:14:42.753.19-May-2020 5121.01 1206.82 67.90 5.00 197.05 2698.81
   23:14:42.953.19-May-2020 5121.01 1206.82 67.90 5.00 197.25 2698.81
   23:14:43.153.19-May-2020 5121.01 1233.29 67.90 5.00 197.45 2698.81
   23:14:43.353.19-May-2020 5121.01 1246.22 67.90 5.00 197.65 2698.81
   23:14:43.553.19-May-2020 5121.01 1259.41 67.90 5.00 197.85 2698.81
   23:14:43.753.19-May-2020 5121.01 1272.28 67.90 5.00 198.05 2698.81
   23:14:43.953.19-May-2020 5121.01 1272.28 67.90 5.00 198.25 2698.81
   23:14:44.153.19-May-2020 5121.01 1296.93 67.90 5.00 198.45 2698.81
   23:14:44.353.19-May-2020 5121.01 1309.17 67.90 5.00 198.65 2698.81
   23:14:44.553.19-May-2020 5121.01 1321.21 67.90 5.00 198.85 2698.81
   23:14:44.753.19-May-2020 5121.01 1333.06 67.90 5.00 199.05 2698.81
   23:14:44.953.19-May-2020 5121.01 1344.82 67.90 5.00 199.25 2698.81
   23:14:45.153.19-May-2020 5121.01 1356.63 67.90 5.00 199.45 2698.81
   23:14:45.353.19-May-2020 5121.01 1368.17 67.90 5.00 199.65 2698.81
   23:14:45.553.19-May-2020 5121.01 1379.28 67.91 5.00 199.85 2698.81
   23:14:45.754.19-May-2020 5121.01 1391.64 67.91 5.00 200.05 2698.81
   23:14:45.954.19-May-2020 5121.01 1391.64 67.91 5.00 200.25 2698.81
   23:14:46.154.19-May-2020 5121.01 1417.65 67.91 5.00 200.45 2698.81
   23:14:46.354.19-May-2020 5121.01 1429.49 67.91 5.00 200.65 2698.81
   23:14:46.554.19-May-2020 5121.01 1441.96 67.91 5.00 200.85 2698.81
   23:14:46.754.19-May-2020 5121.01 1453.88 67.91 5.00 201.05 2698.81
   23:14:46.954.19-May-2020 5121.01 1453.88 67.91 5.00 201.25 2698.81
   23:14:47.154.19-May-2020 5121.01 1476.97 67.91 5.00 201.45 2698.81
   23:14:47.354.19-May-2020 5121.01 1488.16 67.91 5.00 201.65 2698.81
   23:14:47.554.19-May-2020 5121.01 1499.04 67.91 5.00 201.85 2698.81
   23:14:47.754.19-May-2020 5121.01 1510.67 67.91 5.00 202.05 2698.81
   23:14:47.954.19-May-2020 5121.01 1510.67 67.91 5.00 202.25 2698.81
   23:14:48.154.19-May-2020 5121.01 1532.88 67.91 5.00 202.45 2698.81
   23:14:48.354.19-May-2020 5121.01 1543.72 67.91 5.00 202.65 2698.81
   23:14:48.554.19-May-2020 5121.01 1553.75 67.91 5.00 202.85 2698.81
   23:14:48.754.19-May-2020 5121.01 1564.45 67.91 5.00 203.05 2698.81
   23:14:48.954.19-May-2020 5121.01 1575.01 67.91 5.00 203.25 2698.81
   23:14:49.154.19-May-2020 5121.01 1585.61 67.91 5.00 203.45 2698.81
   23:14:49.354.19-May-2020 5121.01 1595.86 67.92 5.00 203.65 2698.81
   23:14:49.554.19-May-2020 5121.01 1605.79 67.92 5.00 203.85 2698.81
   23:14:49.755.19-May-2020 5121.01 1615.97 67.92 5.00 204.05 2698.81
   23:14:49.955.19-May-2020 5121.01 1615.97 67.92 5.00 204.25 2698.81
   23:14:50.155.19-May-2020 5121.01 1636.84 67.92 5.00 204.45 2698.81
   23:14:50.355.19-May-2020 5121.01 1646.50 67.92 5.00 204.65 2698.81
   23:14:50.555.19-May-2020 5121.01 1656.38 67.92 5.00 204.85 2698.81
   23:14:50.755.19-May-2020 5121.01 1665.94 67.92 5.00 205.05 2698.81
   23:14:50.955.19-May-2020 5121.01 1665.94 67.92 5.00 205.25 2698.81
   23:14:51.155.19-May-2020 5121.01 1685.16 67.92 5.00 205.45 2698.81
   23:14:51.355.19-May-2020 5121.01 1694.82 67.92 5.00 205.65 2698.81
   23:14:51.555.19-May-2020 5121.01 1704.33 67.92 5.00 205.85 2698.81
   23:14:51.755.19-May-2020 5121.01 1713.64 67.92 5.00 206.05 2698.81
   23:14:51.955.19-May-2020 5121.01 1722.94 67.92 5.00 206.25 2698.81
   23:14:52.155.19-May-2020 5121.01 1732.35 67.92 5.00 206.45 2698.81
   23:14:52.355.19-May-2020 5121.01 1741.57 67.92 5.00 206.65 2698.81
   23:14:52.555.19-May-2020 5121.01 1750.40 67.92 5.00 206.85 2698.81
