~Version Information
 VERS.                  2.0:   CWLS log ASCII Standard -VERSION 2.0
 WRAP.                   NO:   One line per depth step
~Well Information Block
#MNEM.UNIT     VALUE/NAME     DESCRIPTION
#---------     -----------    ---------------------------
 STRT.S             17:37:07 19-May-20: START TIME 17:37:07 19-May-20
 STOP.S             17:43:47 19-May-20: STOP TIME  17:43:47 19-May-20
 STEP.S                   0.00: STEP TIME
 NULL.                 -999.25: NULL VALUE
 MDS .        Operator Entered:  MAG DATA SOURCE
 PDAT.          Mean Sea Level:  PERMANENT DATUM
 UNIT.                     N/A:  LOGGING EQUIPMENT ID
 DCON.         Sperry Drilling:  DIRECTNL CONTR
 DOE .                     N/A:  DOE NUMBER
 RIG .              East Azeri:  RIG NAME
 JOBN.        AZ-XX-0905856059:  JOB TICKET NUMB
 WELL.                     D36:  WELL NAME
 MWDS.                    Baku:  MWD SHOP
 SRVC.     Turan Drilling & Engineering:  CONTRACTOR
 FLD .                     ACG:  FIELD NAME
 CTRY.              Azerbaijan:  COUNTRY NAME
 PROV.                    Baku:  PROVINCE
 STAT.                    Baku:  STATE NAME
 REGN.                   EESSA:  REGION
 BASE.              Azerbaijan:  LOGGING EQUIPMENT BASE LOCATION
 UWI .                     N/A:  UNIQUE WELL IDENTIFIER
 API .                     N/A:  API NUMBER
 COMP.     BP Exploration (Caspian Sea) Ltd.:  COMPANY
 WTYP.                Deviated:  WELL TYPE
 SON .        AZ-XX-0905856059:  JOB NUMBER
 FTOP.          Formation Tops:  FORM TOPS DESC
 ILTD.               Lithology:  INTERP LTH DESC
 SVYD.                  Survey:  SURVEY DESC
 DMOD.             Drill Model:  DRILL MOD DESC
 HPTY.       Minimum Curvature:  HOLE POS TYPE
 NREF.                    Grid:  NORTH REFERENCE
 SPUD.               25-Feb-20:  SPUD DATE
 DATE.      08.55.28 01-May-20:  END TIME
 STIM.      08.55.28 25-Feb-20:  START TIME
 DMF .             Drill Floor:  DRILL MEAS FROM
 DFST.                        :  DIST FSL TEXT
 DFWT.                        :  DIST FWL TEXT
 CNTY.                        :  COUNTY
 LOC .                        :  LOCATION
 LMF .             Drill Floor:  LOG MEASURED FROM
 VSNS.m                   6.09:  VERT SEC N/S
 VSEW.m                 -10.79:  VERT SEC E/W
 AGAP.m                  43.60:  AIR GAP
 DEP .m                 388.24:  DEPTH
 APD .m                  43.60:  DEPTH ABOVE PD
 WDMS.m                 151.80:  WD ELEV
 EGL .m                   0.00:  GROUND ELEVATION
 EPD .m                   0.00:  ELEVATION
 AZTC.deg                 6.12:  AZM TOTAL CORR
 GRDC.deg                 0.30:  GRID CORRECTION
 MDEC.deg                 6.42:  MAGNETIC DECL
 MDIP.deg                59.42:  MAGNETIC DIP
 MFLD.nT              50256.00:  MAGNETIC FIELD
 GVFD.g                   1.00:  GRAVITY FIELD
 VSDR.deg               159.57:  VERT SEC DIRECT
 TDD .m                5000.01:  TOTAL DEPTH (DRILLER)
 SDEP.m                 397.00:  START DEPTH
 DFSL.m                   0.00:  DISTANCE FSL
 DFWL.m                   0.00:  DISTANCE FWL
 UTMY.m             4431880.20:  UTM Y
 UTMX.m              538763.98:  UTM X
 WHEW.m                 -10.79:  WELL HEAD E/W
 WHNS.m                   6.09:  WELL HEAD N/S
 LONG.deg                51.45:  LONGITUDE
 LATI.deg                40.02:  LATITUDE
 TVDS.m                  43.60:  TVDSS CORRECTN
 EKB .m                  43.60:  KB ELEVATION
 EDF .m                  43.60:  DF ELEVATION
 MAGU.                 1847640:  MAGUTM CHECKSUM
 VSC .                       0:  VS TO CLOSURE
~Parameter Information Block
#MNEM.UNIT       Value        Description
#---------     -----------    ---------------------------
 AV  .mps                 1.30:  Ann Velocity 
 AVMX.mps                 1.90:  Max Ann Veloc 
 AZIF.deg               115.68:  Azm, Final 
 BHAT.                   Other:  BHA Type 
 BROT.°/30m               0.74:  Build Rotating 
 BS  .in                  8.50:  Bit Size 
 BTPL.psig              430.00:  Bit Press Loss 
 CABU.                      No:  Customer Abuse 
 COMM.                     t9l:  Run Comments 1 
 TCS .hr                 51.31:  Time Ciculation Ended 
 CV  .mps                 2.52:  Crit Velocity 
 CVMX.mps                 2.62:  Max Crit Veloc 
 DD1 .          Teymur Aghayev:  Direct Drillr 1 
 DDSV.                   Other:  DD Service 
 DEFF.%                 100.00:  % Det Eff 
 DLRX.°/30m               1.62:  Dogleg Rot Max 
 DLSO.°/30m               0.74:  Dogleg Oriented 
 DLSX.°/30m               1.62:  Dogleg Str Max 
 DRET.      04.30.56 18-May-20:  Drill End Time 
 DRST.      04.30.56 18-May-20:  Drill Start Tim 
 DTIM.hr                  0.00:  Time Drilling 
 EDEP.m                5337.01:  End Depth 
 ENG1.      Artemiy Matviyanov:  Engineer 1 
 ENG2.      Bakhtiyar Jabbarli:  Engineer 2 
 ENG3.           Emil Huseynov:  Engineer 3 
 ETIM.      18.40.00 22-May-20:  End Time 
 FLOI.gpm               550.00:  Flow In 
 FLON.gpm               350.00:  Flow In Min 
 FLOS.cptm                0.00:  Fluid Loss 
 FLOX.gpm               600.00:  Flow In Max 
 HFLO.                      No:  High Flow 
 HPRE.                      No:  High Pressure 
 HTEM.                      No:  High Temp 
 HYDO.m                   1.80:  Hydro Offset 
 IFIN.deg                67.01:  Inc, Final 
 IMAX.deg                67.49:  Inc Max 
 IMIN.deg                66.50:  Inc Min 
 IMND.m                5144.79:  Inc Min Depth 
 IMXD.m                5116.12:  Inc Max Depth 
 JARR.                      No:  Jarring 
 LETM.      17.55.56 20-May-20:  Log End Time 
 LOST.hr                     0:  Lost Rig Time 
 LSTM.      04.30.56 18-May-20:  Log Start Time 
 MDCL.ppm            193153.00:  Mud Chlorides 
 MDES.     Inversion Oil/Synthetic:  Mud Desc 
 DFD .sg                  1.40:  Mud Density 
 MDMN.sg                  1.40:  Dens Mud Min 
 MDMX.sg                  1.41:  Dens Mud Max 
 MOIL.                      68:  Run Mud Oil % 
 MOWR.                   68:32:  Run Mud OWR 
 MSND.                     0.2:  Run Mud Sand % 
 MSOL.                    18.8:  Run Mud Solids% 
 DFV .spqt               80.00:  Mud Viscosity 
 MWOD.in                  6.75:  MWD Tool OD 
 MWSI.                      No:  Serv Intrp, MWD 
 OTIM.hr                104.84:  Time Operating 
 PMAX.psia            10690.93:  Press Op, Max 
 PV  .cP                 26.00:  Mud PV 
 RUN .                     900:  Run Number 
 ROPA.m/hr                0.00:  ROP Avg 
 ROPN.m/hr                0.00:  ROP Min 
 ROPX.m/hr                0.00:  ROP Max 
 RPMA.rpm               140.00:  RPM Surface Avg 
 RPMN.rpm                70.00:  RPM Surface Min 
 RPMX.rpm               140.00:  RPM Surface Max 
 RRUN.                    0900:  Rig Run Number 
 RTIM.hr                 36.00:  Time Reaming 
 SAZI.deg               115.72:  Azm, Start 
 SDEP.m                5337.01:  Start Depth 
 SIDD.                      No:  Serv Intrp, DD 
 SINC.deg                66.92:  Inc, Start 
 SPPA.psig             4400.00:  SPP Avg 
 SPPN.psig             1135.00:  SPP Min 
 SPPX.psig             4581.00:  SPP Max 
 STIM.      04.30.56 18-May-20:  Start Time 
 SVCS.                     MWD:  Services 
 SVER.                    9.20:  Sperry Version 
 TDAT.m                5337.01:  Tot Depth Attmp 
 TDDF.                      No:  Trip for DD 
 TFF .                      No:  Trip for Fail 
 TQAA.f-kp               23.00:  Torque Abs Avg 
 TQAN.f-kp               18.00:  Torque Abs Min 
 TQAX.f-kp               25.00:  Torque Abs Max 
 TRRT.°/30m               0.74:  Turn Rotating 
 MRT .                    HCIM:  Maximum Recorded Temperature 
 TTMX.degC               76.47:  Max Tool Temp 
 WBMN.klb                 0.00:  WOB Min 
 WITN.             Anar Khalil:  Customer Rep 
 WITN.      Kamran Keberlinski:  Customer Rep 2 
 WOBA.klb                 0.00:  WOB Avg 
 WOBX.klb                 0.00:  WOB Max 
 YP  .lhf2               27.00:  Yield Point 
~Curve Information Block
#MNEM.UNIT                 API CODE     Curve Description
#---------               -----------    ---------------------------
 TIME.HHMMSS            00 000 000 000:  GT Time & Date
 GTDEPTH.m              00 000 000 000:  GT Depth
 GTPQH.psia             00 000 000 000:  GT HR Quartz Pressure
 GTTQ.degC              00 000 000 000:  GT Quartz Temperature
 GTTN.NONE              00 000 000 000:  GT Test Number
 GTET.sec               00 000 000 000:  GT Elapsed Test Time
 GTTVD.m                00 000 000 000:  GT True Vertical Depth
#Other Information
#
#WARRANTY: Halliburton will use its best efforts to furnish customers with 
#accurate information and interpretations that are part of, and incident to, the services 
#provided.  However, Halliburton cannot and does not warrant the accuracy 
#or correctness of such information and interpretations.  Under no circumstances should any 
#such information or interpretation be relied upon as the sole basis for any drilling, 
#completion, production, or financial decision or any procedure involving any risk to the 
#safety of any drilling venture, drilling rig or its crew or any other third party.  The 
#Customer has full responsibility for all drilling, completion and production operation.  
#Halliburton makes no representations or warranties, either expressed or 
#implied, including, but not limited to, the implied warranties of merchantability or fitness 
#for a particular purpose, with respect to the services rendered.  In no event will 
#Halliburton be liable for failure to obtain any particular results or for 
#any damages, including, but not limited to, indirect, special or consequential damages, 
#resulting from the use of any information or interpretation provided by Halliburton.
#
~A           TIME           GTDEPTH  GTPQH  GTTQ  GTTN  GTET   GTTVD  
# ...
   17:42:52.167.19-May-2020 5195.01 1781.33 67.10 2.00 345.04 2727.85
   17:42:52.367.19-May-2020 5195.01 1781.33 67.10 2.00 345.24 2727.85
   17:42:52.567.19-May-2020 5195.01 1785.20 67.10 2.00 345.44 2727.85
   17:42:52.767.19-May-2020 5195.01 1787.44 67.10 2.00 345.64 2727.85
   17:42:52.967.19-May-2020 5195.01 1789.35 67.10 2.00 345.84 2727.85
   17:42:53.167.19-May-2020 5195.01 1791.13 67.10 2.00 346.04 2727.85
   17:42:53.367.19-May-2020 5195.01 1791.13 67.10 2.00 346.24 2727.85
   17:42:53.567.19-May-2020 5195.01 1795.57 67.10 2.00 346.44 2727.85
   17:42:53.767.19-May-2020 5195.01 1797.35 67.10 2.00 346.64 2727.85
   17:42:53.967.19-May-2020 5195.01 1799.26 67.10 2.00 346.84 2727.85
   17:42:54.167.19-May-2020 5195.01 1801.26 67.10 2.00 347.04 2727.85
   17:42:54.367.19-May-2020 5195.01 1801.26 67.10 2.00 347.24 2727.85
   17:42:54.567.19-May-2020 5195.01 1805.54 67.10 2.00 347.44 2727.85
   17:42:54.767.19-May-2020 5195.01 1807.38 67.10 2.00 347.64 2727.85
   17:42:54.967.19-May-2020 5195.01 1809.52 67.10 2.00 347.84 2727.85
   17:42:55.167.19-May-2020 5195.01 1811.47 67.10 2.00 348.04 2727.85
   17:42:55.367.19-May-2020 5195.01 1811.47 67.10 2.00 348.24 2727.85
   17:42:55.567.19-May-2020 5195.01 1815.53 67.10 2.00 348.44 2727.85
   17:42:55.767.19-May-2020 5195.01 1817.53 67.10 2.00 348.64 2727.85
   17:42:55.967.19-May-2020 5195.01 1819.51 67.10 2.00 348.84 2727.85
   17:42:56.167.19-May-2020 5195.01 1821.52 67.10 2.00 349.04 2727.85
   17:42:56.367.19-May-2020 5195.01 1821.52 67.10 2.00 349.24 2727.85
   17:42:56.568.19-May-2020 5195.01 1825.43 67.10 2.00 349.44 2727.85
   17:42:56.768.19-May-2020 5195.01 1827.50 67.10 2.00 349.64 2727.85
   17:42:56.968.19-May-2020 5195.01 1829.13 67.10 2.00 349.84 2727.85
   17:42:57.168.19-May-2020 5195.01 1831.28 67.10 2.00 350.04 2727.85
   17:42:57.368.19-May-2020 5195.01 1831.28 67.10 2.00 350.24 2727.85
   17:42:57.568.19-May-2020 5195.01 1835.34 67.10 2.00 350.44 2727.85
   17:42:57.768.19-May-2020 5195.01 1837.03 67.10 2.00 350.64 2727.85
   17:42:57.968.19-May-2020 5195.01 1839.14 67.10 2.00 350.84 2727.85
   17:42:58.168.19-May-2020 5195.01 1841.36 67.10 2.00 351.04 2727.85
   17:42:58.368.19-May-2020 5195.01 1841.36 67.10 2.00 351.24 2727.85
   17:42:58.568.19-May-2020 5195.01 1845.25 67.10 2.00 351.44 2727.85
   17:42:58.768.19-May-2020 5195.01 1847.24 67.10 2.00 351.64 2727.85
   17:42:58.968.19-May-2020 5195.01 1848.86 67.10 2.00 351.84 2727.85
   17:42:59.168.19-May-2020 5195.01 1851.15 67.10 2.00 352.04 2727.85
   17:42:59.368.19-May-2020 5195.01 1851.15 67.10 2.00 352.24 2727.85
   17:42:59.568.19-May-2020 5195.01 1855.07 67.10 2.00 352.44 2727.85
   17:42:59.768.19-May-2020 5195.01 1857.07 67.10 2.00 352.64 2727.85
   17:42:59.968.19-May-2020 5195.01 1859.09 67.10 2.00 352.84 2727.85
   17:43:00.168.19-May-2020 5195.01 1860.53 67.10 2.00 353.04 2727.85
   17:43:00.368.19-May-2020 5195.01 1860.53 67.10 2.00 353.24 2727.85
   17:43:00.568.19-May-2020 5195.01 1864.82 67.10 2.00 353.44 2727.85
   17:43:00.768.19-May-2020 5195.01 1866.71 67.10 2.00 353.64 2727.85
   17:43:00.968.19-May-2020 5195.01 1868.70 67.10 2.00 353.84 2727.85
   17:43:01.168.19-May-2020 5195.01 1870.41 67.10 2.00 354.04 2727.85
   17:43:01.368.19-May-2020 5195.01 1870.41 67.10 2.00 354.24 2727.85
   17:43:01.568.19-May-2020 5195.01 1874.52 67.10 2.00 354.44 2727.85
   17:43:01.768.19-May-2020 5195.01 1876.56 67.10 2.00 354.64 2727.85
   17:43:01.968.19-May-2020 5195.01 1878.48 67.10 2.00 354.84 2727.85
   17:43:02.168.19-May-2020 5195.01 1880.44 67.10 2.00 355.04 2727.85
   17:43:02.368.19-May-2020 5195.01 1880.44 67.10 2.00 355.24 2727.85
   17:43:02.568.19-May-2020 5195.01 1884.29 67.10 2.00 355.44 2727.85
   17:43:02.768.19-May-2020 5195.01 1886.28 67.10 2.00 355.64 2727.85
   17:43:02.968.19-May-2020 5195.01 1888.11 67.10 2.00 355.84 2727.85
   17:43:03.168.19-May-2020 5195.01 1890.12 67.10 2.00 356.04 2727.85
   17:43:03.368.19-May-2020 5195.01 1890.12 67.10 2.00 356.24 2727.85
   17:43:03.568.19-May-2020 5195.01 1893.95 67.10 2.00 356.44 2727.85
   17:43:03.768.19-May-2020 5195.01 1895.79 67.10 2.00 356.64 2727.85
   17:43:03.968.19-May-2020 5195.01 1897.58 67.10 2.00 356.84 2727.85
   17:43:04.168.19-May-2020 5195.01 1899.34 67.10 2.00 357.04 2727.85
   17:43:04.368.19-May-2020 5195.01 1899.34 67.10 2.00 357.24 2727.85
   17:43:04.568.19-May-2020 5195.01 1903.43 67.10 2.00 357.44 2727.85
   17:43:04.769.19-May-2020 5195.01 1905.28 67.10 2.00 357.64 2727.85
   17:43:04.969.19-May-2020 5195.01 1906.88 67.10 2.00 357.84 2727.85
   17:43:05.169.19-May-2020 5195.01 1909.08 67.10 2.00 358.04 2727.85
   17:43:05.369.19-May-2020 5195.01 1909.08 67.10 2.00 358.24 2727.85
   17:43:05.569.19-May-2020 5195.01 1912.89 67.10 2.00 358.44 2727.85
   17:43:05.769.19-May-2020 5195.01 1914.59 67.10 2.00 358.64 2727.85
   17:43:05.969.19-May-2020 5195.01 1916.79 67.10 2.00 358.84 2727.85
   17:43:06.169.19-May-2020 5195.01 1918.72 67.10 2.00 359.04 2727.85
   17:43:06.369.19-May-2020 5195.01 1918.72 67.10 2.00 359.24 2727.85
   17:43:06.569.19-May-2020 5195.01 1922.37 67.10 2.00 359.44 2727.85
   17:43:06.769.19-May-2020 5195.01 1924.17 67.10 2.00 359.64 2727.85
   17:43:06.969.19-May-2020 5195.01 1926.25 67.10 2.00 359.84 2727.85
   17:43:07.169.19-May-2020 5195.01 1928.12 67.10 2.00 360.04 2727.85
   17:43:07.369.19-May-2020 5195.01 1928.12 67.10 2.00 360.24 2727.85
   17:43:07.569.19-May-2020 5195.01 1931.74 67.10 2.00 360.44 2727.85
   17:43:07.769.19-May-2020 5195.01 1933.45 67.10 2.00 360.64 2727.85
   17:43:07.969.19-May-2020 5195.01 1935.53 67.10 2.00 360.84 2727.85
   17:43:08.169.19-May-2020 5195.01 1937.47 67.10 2.00 361.04 2727.85
   17:43:08.369.19-May-2020 5195.01 1937.47 67.10 2.00 361.24 2727.85
   17:43:08.569.19-May-2020 5195.01 1941.24 67.10 2.00 361.44 2727.85
   17:43:08.769.19-May-2020 5195.01 1943.05 67.10 2.00 361.64 2727.85
   17:43:08.969.19-May-2020 5195.01 1944.94 67.10 2.00 361.84 2727.85
   17:43:09.169.19-May-2020 5195.01 1946.81 67.10 2.00 362.04 2727.85
   17:43:09.369.19-May-2020 5195.01 1946.81 67.10 2.00 362.24 2727.85
   17:43:09.569.19-May-2020 5195.01 1950.55 67.10 2.00 362.44 2727.85
   17:43:09.769.19-May-2020 5195.01 1952.30 67.10 2.00 362.64 2727.85
   17:43:09.969.19-May-2020 5195.01 1954.26 67.10 2.00 362.84 2727.85
   17:43:10.169.19-May-2020 5195.01 1956.04 67.10 2.00 363.04 2727.85
   17:43:10.369.19-May-2020 5195.01 1956.04 67.10 2.00 363.24 2727.85
   17:43:10.569.19-May-2020 5195.01 2035.84 67.10 2.00 363.44 2727.85
   17:43:10.769.19-May-2020 5195.01 2199.31 67.10 2.00 363.64 2727.85
   17:43:10.969.19-May-2020 5195.01 2696.45 67.10 2.00 363.84 2727.85
   17:43:11.169.19-May-2020 5195.01 6596.08 67.10 2.00 364.04 2727.85
   17:43:11.369.19-May-2020 5195.01 6596.08 67.10 2.00 364.24 2727.85
   17:43:11.569.19-May-2020 5195.01 6597.27 67.11 2.00 364.44 2727.85
   17:43:11.769.19-May-2020 5195.01 6594.56 67.11 2.00 364.64 2727.85
   17:43:11.969.19-May-2020 5195.01 6594.54 67.11 2.00 364.84 2727.85
   17:43:12.169.19-May-2020 5195.01 6595.59 67.11 2.00 365.04 2727.85
   17:43:12.369.19-May-2020 5195.01 6595.59 67.11 2.00 365.24 2727.85
   17:43:12.569.19-May-2020 5195.01 6595.23 67.12 2.00 365.44 2727.85
   17:43:12.769.19-May-2020 5195.01 6601.92 67.12 2.00 365.64 2727.85
   17:43:12.970.19-May-2020 5195.01 6600.06 67.12 2.00 365.84 2727.85
   17:43:13.170.19-May-2020 5195.01 6599.81 67.12 2.00 366.04 2727.85
   17:43:13.370.19-May-2020 5195.01 6599.81 67.12 2.00 366.24 2727.85
   17:43:13.570.19-May-2020 5195.01 6601.90 67.13 2.00 366.44 2727.85
   17:43:13.770.19-May-2020 5195.01 6604.17 67.13 2.00 366.64 2727.85
   17:43:13.970.19-May-2020 5195.01 6602.91 67.14 2.00 366.84 2727.85
   17:43:14.170.19-May-2020 5195.01 6608.15 67.14 2.00 367.04 2727.85
   17:43:14.370.19-May-2020 5195.01 6608.15 67.14 2.00 367.24 2727.85
   17:43:14.570.19-May-2020 5195.01 6607.32 67.15 2.00 367.44 2727.85
   17:43:14.770.19-May-2020 5195.01 6604.68 67.15 2.00 367.64 2727.85
   17:43:14.970.19-May-2020 5195.01 6604.21 67.16 2.00 367.84 2727.85
