~Version Information
 VERS.                  2.0:   CWLS log ASCII Standard -VERSION 2.0
 WRAP.                   NO:   One line per depth step
~Well Information Block
#MNEM.UNIT     VALUE/NAME     DESCRIPTION
#---------     -----------    ---------------------------
 STRT.S             17:37:07 19-May-20: START TIME 17:37:07 19-May-20
 STOP.S             17:43:47 19-May-20: STOP TIME  17:43:47 19-May-20
 STEP.S                   0.00: STEP TIME
 NULL.                 -999.25: NULL VALUE
 MDS .        Operator Entered:  MAG DATA SOURCE
 PDAT.          Mean Sea Level:  PERMANENT DATUM
 UNIT.                     N/A:  LOGGING EQUIPMENT ID
 DCON.         Sperry Drilling:  DIRECTNL CONTR
 DOE .                     N/A:  DOE NUMBER
 RIG .              East Azeri:  RIG NAME
 JOBN.        AZ-XX-0905856059:  JOB TICKET NUMB
 WELL.                     D36:  WELL NAME
 MWDS.                    Baku:  MWD SHOP
 SRVC.     Turan Drilling & Engineering:  CONTRACTOR
 FLD .                     ACG:  FIELD NAME
 CTRY.              Azerbaijan:  COUNTRY NAME
 PROV.                    Baku:  PROVINCE
 STAT.                    Baku:  STATE NAME
 REGN.                   EESSA:  REGION
 BASE.              Azerbaijan:  LOGGING EQUIPMENT BASE LOCATION
 UWI .                     N/A:  UNIQUE WELL IDENTIFIER
 API .                     N/A:  API NUMBER
 COMP.     BP Exploration (Caspian Sea) Ltd.:  COMPANY
 WTYP.                Deviated:  WELL TYPE
 SON .        AZ-XX-0905856059:  JOB NUMBER
 FTOP.          Formation Tops:  FORM TOPS DESC
 ILTD.               Lithology:  INTERP LTH DESC
 SVYD.                  Survey:  SURVEY DESC
 DMOD.             Drill Model:  DRILL MOD DESC
 HPTY.       Minimum Curvature:  HOLE POS TYPE
 NREF.                    Grid:  NORTH REFERENCE
 SPUD.               25-Feb-20:  SPUD DATE
 DATE.      08.55.28 01-May-20:  END TIME
 STIM.      08.55.28 25-Feb-20:  START TIME
 DMF .             Drill Floor:  DRILL MEAS FROM
 DFST.                        :  DIST FSL TEXT
 DFWT.                        :  DIST FWL TEXT
 CNTY.                        :  COUNTY
 LOC .                        :  LOCATION
 LMF .             Drill Floor:  LOG MEASURED FROM
 VSNS.m                   6.09:  VERT SEC N/S
 VSEW.m                 -10.79:  VERT SEC E/W
 AGAP.m                  43.60:  AIR GAP
 DEP .m                 388.24:  DEPTH
 APD .m                  43.60:  DEPTH ABOVE PD
 WDMS.m                 151.80:  WD ELEV
 EGL .m                   0.00:  GROUND ELEVATION
 EPD .m                   0.00:  ELEVATION
 AZTC.deg                 6.12:  AZM TOTAL CORR
 GRDC.deg                 0.30:  GRID CORRECTION
 MDEC.deg                 6.42:  MAGNETIC DECL
 MDIP.deg                59.42:  MAGNETIC DIP
 MFLD.nT              50256.00:  MAGNETIC FIELD
 GVFD.g                   1.00:  GRAVITY FIELD
 VSDR.deg               159.57:  VERT SEC DIRECT
 TDD .m                5000.01:  TOTAL DEPTH (DRILLER)
 SDEP.m                 397.00:  START DEPTH
 DFSL.m                   0.00:  DISTANCE FSL
 DFWL.m                   0.00:  DISTANCE FWL
 UTMY.m             4431880.20:  UTM Y
 UTMX.m              538763.98:  UTM X
 WHEW.m                 -10.79:  WELL HEAD E/W
 WHNS.m                   6.09:  WELL HEAD N/S
 LONG.deg                51.45:  LONGITUDE
 LATI.deg                40.02:  LATITUDE
 TVDS.m                  43.60:  TVDSS CORRECTN
 EKB .m                  43.60:  KB ELEVATION
 EDF .m                  43.60:  DF ELEVATION
 MAGU.                 1847640:  MAGUTM CHECKSUM
 VSC .                       0:  VS TO CLOSURE
~Parameter Information Block
#MNEM.UNIT       Value        Description
#---------     -----------    ---------------------------
 AV  .mps                 1.30:  Ann Velocity 
 AVMX.mps                 1.90:  Max Ann Veloc 
 AZIF.deg               115.68:  Azm, Final 
 BHAT.                   Other:  BHA Type 
 BROT.°/30m               0.74:  Build Rotating 
 BS  .in                  8.50:  Bit Size 
 BTPL.psig              430.00:  Bit Press Loss 
 CABU.                      No:  Customer Abuse 
 COMM.                     t9l:  Run Comments 1 
 TCS .hr                 51.31:  Time Ciculation Ended 
 CV  .mps                 2.52:  Crit Velocity 
 CVMX.mps                 2.62:  Max Crit Veloc 
 DD1 .          Teymur Aghayev:  Direct Drillr 1 
 DDSV.                   Other:  DD Service 
 DEFF.%                 100.00:  % Det Eff 
 DLRX.°/30m               1.62:  Dogleg Rot Max 
 DLSO.°/30m               0.74:  Dogleg Oriented 
 DLSX.°/30m               1.62:  Dogleg Str Max 
 DRET.      04.30.56 18-May-20:  Drill End Time 
 DRST.      04.30.56 18-May-20:  Drill Start Tim 
 DTIM.hr                  0.00:  Time Drilling 
 EDEP.m                5337.01:  End Depth 
 ENG1.      Artemiy Matviyanov:  Engineer 1 
 ENG2.      Bakhtiyar Jabbarli:  Engineer 2 
 ENG3.           Emil Huseynov:  Engineer 3 
 ETIM.      18.40.00 22-May-20:  End Time 
 FLOI.gpm               550.00:  Flow In 
 FLON.gpm               350.00:  Flow In Min 
 FLOS.cptm                0.00:  Fluid Loss 
 FLOX.gpm               600.00:  Flow In Max 
 HFLO.                      No:  High Flow 
 HPRE.                      No:  High Pressure 
 HTEM.                      No:  High Temp 
 HYDO.m                   1.80:  Hydro Offset 
 IFIN.deg                67.01:  Inc, Final 
 IMAX.deg                67.49:  Inc Max 
 IMIN.deg                66.50:  Inc Min 
 IMND.m                5144.79:  Inc Min Depth 
 IMXD.m                5116.12:  Inc Max Depth 
 JARR.                      No:  Jarring 
 LETM.      17.55.56 20-May-20:  Log End Time 
 LOST.hr                     0:  Lost Rig Time 
 LSTM.      04.30.56 18-May-20:  Log Start Time 
 MDCL.ppm            193153.00:  Mud Chlorides 
 MDES.     Inversion Oil/Synthetic:  Mud Desc 
 DFD .sg                  1.40:  Mud Density 
 MDMN.sg                  1.40:  Dens Mud Min 
 MDMX.sg                  1.41:  Dens Mud Max 
 MOIL.                      68:  Run Mud Oil % 
 MOWR.                   68:32:  Run Mud OWR 
 MSND.                     0.2:  Run Mud Sand % 
 MSOL.                    18.8:  Run Mud Solids% 
 DFV .spqt               80.00:  Mud Viscosity 
 MWOD.in                  6.75:  MWD Tool OD 
 MWSI.                      No:  Serv Intrp, MWD 
 OTIM.hr                104.84:  Time Operating 
 PMAX.psia            10690.93:  Press Op, Max 
 PV  .cP                 26.00:  Mud PV 
 RUN .                     900:  Run Number 
 ROPA.m/hr                0.00:  ROP Avg 
 ROPN.m/hr                0.00:  ROP Min 
 ROPX.m/hr                0.00:  ROP Max 
 RPMA.rpm               140.00:  RPM Surface Avg 
 RPMN.rpm                70.00:  RPM Surface Min 
 RPMX.rpm               140.00:  RPM Surface Max 
 RRUN.                    0900:  Rig Run Number 
 RTIM.hr                 36.00:  Time Reaming 
 SAZI.deg               115.72:  Azm, Start 
 SDEP.m                5337.01:  Start Depth 
 SIDD.                      No:  Serv Intrp, DD 
 SINC.deg                66.92:  Inc, Start 
 SPPA.psig             4400.00:  SPP Avg 
 SPPN.psig             1135.00:  SPP Min 
 SPPX.psig             4581.00:  SPP Max 
 STIM.      04.30.56 18-May-20:  Start Time 
 SVCS.                     MWD:  Services 
 SVER.                    9.20:  Sperry Version 
 TDAT.m                5337.01:  Tot Depth Attmp 
 TDDF.                      No:  Trip for DD 
 TFF .                      No:  Trip for Fail 
 TQAA.f-kp               23.00:  Torque Abs Avg 
 TQAN.f-kp               18.00:  Torque Abs Min 
 TQAX.f-kp               25.00:  Torque Abs Max 
 TRRT.°/30m               0.74:  Turn Rotating 
 MRT .                    HCIM:  Maximum Recorded Temperature 
 TTMX.degC               76.47:  Max Tool Temp 
 WBMN.klb                 0.00:  WOB Min 
 WITN.             Anar Khalil:  Customer Rep 
 WITN.      Kamran Keberlinski:  Customer Rep 2 
 WOBA.klb                 0.00:  WOB Avg 
 WOBX.klb                 0.00:  WOB Max 
 YP  .lhf2               27.00:  Yield Point 
~Curve Information Block
#MNEM.UNIT                 API CODE     Curve Description
#---------               -----------    ---------------------------
 TIME.HHMMSS            00 000 000 000:  GT Time & Date
 GTDEPTH.m              00 000 000 000:  GT Depth
 GTPQH.psia             00 000 000 000:  GT HR Quartz Pressure
 GTTQ.degC              00 000 000 000:  GT Quartz Temperature
 GTTN.NONE              00 000 000 000:  GT Test Number
 GTET.sec               00 000 000 000:  GT Elapsed Test Time
 GTTVD.m                00 000 000 000:  GT True Vertical Depth
#Other Information
#
#WARRANTY: Halliburton will use its best efforts to furnish customers with 
#accurate information and interpretations that are part of, and incident to, the services 
#provided.  However, Halliburton cannot and does not warrant the accuracy 
#or correctness of such information and interpretations.  Under no circumstances should any 
#such information or interpretation be relied upon as the sole basis for any drilling, 
#completion, production, or financial decision or any procedure involving any risk to the 
#safety of any drilling venture, drilling rig or its crew or any other third party.  The 
#Customer has full responsibility for all drilling, completion and production operation.  
#Halliburton makes no representations or warranties, either expressed or 
#implied, including, but not limited to, the implied warranties of merchantability or fitness 
#for a particular purpose, with respect to the services rendered.  In no event will 
#Halliburton be liable for failure to obtain any particular results or for 
#any damages, including, but not limited to, indirect, special or consequential damages, 
#resulting from the use of any information or interpretation provided by Halliburton.
#
~A           TIME           GTDEPTH  GTPQH  GTTQ  GTTN  GTET   GTTVD  
# ...
   17:41:20.156.19-May-2020 5195.01 2380.92 67.08 2.00 253.03 2727.85
   17:41:20.356.19-May-2020 5195.01 2380.92 67.08 2.00 253.23 2727.85
   17:41:20.556.19-May-2020 5195.01 2384.78 67.08 2.00 253.43 2727.85
   17:41:20.756.19-May-2020 5195.01 2387.01 67.08 2.00 253.63 2727.85
   17:41:20.956.19-May-2020 5195.01 2388.86 67.08 2.00 253.83 2727.85
   17:41:21.156.19-May-2020 5195.01 2390.92 67.08 2.00 254.03 2727.85
   17:41:21.356.19-May-2020 5195.01 2390.92 67.08 2.00 254.23 2727.85
   17:41:21.556.19-May-2020 5195.01 2394.90 67.08 2.00 254.43 2727.85
   17:41:21.756.19-May-2020 5195.01 2396.89 67.08 2.00 254.63 2727.85
   17:41:21.956.19-May-2020 5195.01 2398.87 67.08 2.00 254.83 2727.85
   17:41:22.156.19-May-2020 5195.01 2400.84 67.08 2.00 255.03 2727.85
   17:41:22.356.19-May-2020 5195.01 2400.84 67.08 2.00 255.23 2727.85
   17:41:22.556.19-May-2020 5195.01 2404.80 67.08 2.00 255.43 2727.85
   17:41:22.756.19-May-2020 5195.01 2406.67 67.08 2.00 255.63 2727.85
   17:41:22.956.19-May-2020 5195.01 2408.32 67.08 2.00 255.83 2727.85
   17:41:23.156.19-May-2020 5195.01 2410.30 67.08 2.00 256.03 2727.85
   17:41:23.356.19-May-2020 5195.01 2410.30 67.08 2.00 256.23 2727.85
   17:41:23.556.19-May-2020 5195.01 2118.36 67.08 2.00 256.43 2727.85
   17:41:23.756.19-May-2020 5195.01 1373.86 67.08 2.00 256.63 2727.85
   17:41:23.956.19-May-2020 5195.01  872.99 67.08 2.00 256.83 2727.85
   17:41:24.156.19-May-2020 5195.01  698.45 67.08 2.00 257.03 2727.85
   17:41:24.356.19-May-2020 5195.01  698.45 67.08 2.00 257.23 2727.85
   17:41:24.556.19-May-2020 5195.01  624.53 67.08 2.00 257.43 2727.85
   17:41:24.756.19-May-2020 5195.01  621.90 67.08 2.00 257.63 2727.85
   17:41:24.956.19-May-2020 5195.01  613.53 67.08 2.00 257.83 2727.85
   17:41:25.156.19-May-2020 5195.01  604.64 67.08 2.00 258.03 2727.85
   17:41:25.356.19-May-2020 5195.01  604.64 67.08 2.00 258.23 2727.85
   17:41:25.556.19-May-2020 5195.01  597.23 67.07 2.00 258.43 2727.85
   17:41:25.756.19-May-2020 5195.01  601.76 67.07 2.00 258.63 2727.85
   17:41:25.957.19-May-2020 5195.01  602.36 67.07 2.00 258.83 2727.85
   17:41:26.157.19-May-2020 5195.01  603.42 67.07 2.00 259.03 2727.85
   17:41:26.357.19-May-2020 5195.01  603.42 67.07 2.00 259.23 2727.85
   17:41:26.557.19-May-2020 5195.01  604.21 67.07 2.00 259.43 2727.85
   17:41:26.757.19-May-2020 5195.01  606.54 67.07 2.00 259.63 2727.85
   17:41:26.957.19-May-2020 5195.01  605.53 67.06 2.00 259.83 2727.85
   17:41:27.157.19-May-2020 5195.01  604.47 67.06 2.00 260.03 2727.85
   17:41:27.357.19-May-2020 5195.01  604.47 67.06 2.00 260.23 2727.85
   17:41:27.557.19-May-2020 5195.01  603.10 67.06 2.00 260.43 2727.85
   17:41:27.757.19-May-2020 5195.01  601.18 67.06 2.00 260.63 2727.85
   17:41:27.957.19-May-2020 5195.01  599.23 67.06 2.00 260.83 2727.85
   17:41:28.157.19-May-2020 5195.01  597.34 67.06 2.00 261.03 2727.85
   17:41:28.357.19-May-2020 5195.01  597.34 67.06 2.00 261.23 2727.85
   17:41:28.557.19-May-2020 5195.01  593.08 67.05 2.00 261.43 2727.85
   17:41:28.757.19-May-2020 5195.01  590.83 67.05 2.00 261.63 2727.85
   17:41:28.957.19-May-2020 5195.01  589.02 67.05 2.00 261.83 2727.85
   17:41:29.157.19-May-2020 5195.01  585.48 67.05 2.00 262.03 2727.85
   17:41:29.357.19-May-2020 5195.01  585.48 67.05 2.00 262.23 2727.85
   17:41:29.557.19-May-2020 5195.01  587.14 67.05 2.00 262.43 2727.85
   17:41:29.757.19-May-2020 5195.01  592.91 67.05 2.00 262.63 2727.85
   17:41:29.957.19-May-2020 5195.01  598.48 67.05 2.00 262.83 2727.85
   17:41:30.157.19-May-2020 5195.01  601.67 67.04 2.00 263.03 2727.85
   17:41:30.357.19-May-2020 5195.01  601.67 67.04 2.00 263.23 2727.85
   17:41:30.557.19-May-2020 5195.01  609.29 67.04 2.00 263.43 2727.85
   17:41:30.757.19-May-2020 5195.01  612.07 67.04 2.00 263.63 2727.85
   17:41:30.957.19-May-2020 5195.01  610.95 67.04 2.00 263.83 2727.85
   17:41:31.157.19-May-2020 5195.01  611.57 67.04 2.00 264.03 2727.85
   17:41:31.357.19-May-2020 5195.01  611.57 67.04 2.00 264.23 2727.85
   17:41:31.557.19-May-2020 5195.01  607.82 67.04 2.00 264.43 2727.85
   17:41:31.757.19-May-2020 5195.01  604.06 67.04 2.00 264.63 2727.85
   17:41:31.957.19-May-2020 5195.01  600.41 67.04 2.00 264.83 2727.85
   17:41:32.157.19-May-2020 5195.01  597.19 67.04 2.00 265.03 2727.85
   17:41:32.357.19-May-2020 5195.01  597.19 67.04 2.00 265.23 2727.85
   17:41:32.557.19-May-2020 5195.01  600.14 67.04 2.00 265.43 2727.85
   17:41:32.757.19-May-2020 5195.01  600.70 67.03 2.00 265.63 2727.85
   17:41:32.957.19-May-2020 5195.01  600.99 67.03 2.00 265.83 2727.85
   17:41:33.157.19-May-2020 5195.01  600.44 67.03 2.00 266.03 2727.85
   17:41:33.357.19-May-2020 5195.01  600.44 67.03 2.00 266.23 2727.85
   17:41:33.557.19-May-2020 5195.01  599.47 67.03 2.00 266.43 2727.85
   17:41:33.757.19-May-2020 5195.01  604.25 67.03 2.00 266.63 2727.85
   17:41:33.957.19-May-2020 5195.01  611.95 67.03 2.00 266.83 2727.85
   17:41:34.158.19-May-2020 5195.01  619.57 67.03 2.00 267.03 2727.85
   17:41:34.358.19-May-2020 5195.01  619.57 67.03 2.00 267.23 2727.85
   17:41:34.558.19-May-2020 5195.01  630.34 67.03 2.00 267.43 2727.85
   17:41:34.758.19-May-2020 5195.01  635.67 67.03 2.00 267.63 2727.85
   17:41:34.958.19-May-2020 5195.01  640.99 67.03 2.00 267.83 2727.85
   17:41:35.158.19-May-2020 5195.01  646.23 67.03 2.00 268.03 2727.85
   17:41:35.358.19-May-2020 5195.01  646.23 67.03 2.00 268.23 2727.85
   17:41:35.558.19-May-2020 5195.01  656.57 67.03 2.00 268.43 2727.85
   17:41:35.758.19-May-2020 5195.01  661.78 67.03 2.00 268.63 2727.85
   17:41:35.958.19-May-2020 5195.01  666.84 67.03 2.00 268.83 2727.85
   17:41:36.158.19-May-2020 5195.01  671.94 67.03 2.00 269.03 2727.85
   17:41:36.358.19-May-2020 5195.01  671.94 67.03 2.00 269.23 2727.85
   17:41:36.558.19-May-2020 5195.01  680.81 67.03 2.00 269.43 2727.85
   17:41:36.758.19-May-2020 5195.01  685.91 67.03 2.00 269.63 2727.85
   17:41:36.958.19-May-2020 5195.01  690.58 67.03 2.00 269.83 2727.85
   17:41:37.158.19-May-2020 5195.01  695.15 67.03 2.00 270.03 2727.85
   17:41:37.358.19-May-2020 5195.01  695.15 67.03 2.00 270.23 2727.85
   17:41:37.558.19-May-2020 5195.01  704.89 67.03 2.00 270.43 2727.85
   17:41:37.758.19-May-2020 5195.01  709.63 67.03 2.00 270.63 2727.85
   17:41:37.958.19-May-2020 5195.01  714.06 67.03 2.00 270.83 2727.85
   17:41:38.158.19-May-2020 5195.01  718.98 67.03 2.00 271.03 2727.85
   17:41:38.358.19-May-2020 5195.01  718.98 67.03 2.00 271.23 2727.85
   17:41:38.558.19-May-2020 5195.01  728.55 67.03 2.00 271.43 2727.85
   17:41:38.758.19-May-2020 5195.01  733.35 67.03 2.00 271.63 2727.85
   17:41:38.958.19-May-2020 5195.01  737.81 67.03 2.00 271.83 2727.85
   17:41:39.158.19-May-2020 5195.01  742.25 67.03 2.00 272.03 2727.85
   17:41:39.358.19-May-2020 5195.01  742.25 67.03 2.00 272.23 2727.85
   17:41:39.558.19-May-2020 5195.01  751.59 67.03 2.00 272.43 2727.85
   17:41:39.758.19-May-2020 5195.01  755.69 67.03 2.00 272.63 2727.85
   17:41:39.958.19-May-2020 5195.01  760.22 67.03 2.00 272.83 2727.85
   17:41:40.158.19-May-2020 5195.01  764.54 67.03 2.00 273.03 2727.85
   17:41:40.358.19-May-2020 5195.01  764.54 67.03 2.00 273.23 2727.85
   17:41:40.558.19-May-2020 5195.01  773.15 67.03 2.00 273.43 2727.85
   17:41:40.758.19-May-2020 5195.01  777.56 67.03 2.00 273.63 2727.85
   17:41:40.958.19-May-2020 5195.01  781.90 67.03 2.00 273.83 2727.85
   17:41:41.158.19-May-2020 5195.01  786.30 67.03 2.00 274.03 2727.85
   17:41:41.358.19-May-2020 5195.01  786.30 67.03 2.00 274.23 2727.85
   17:41:41.558.19-May-2020 5195.01  794.86 67.03 2.00 274.43 2727.85
   17:41:41.758.19-May-2020 5195.01  799.25 67.03 2.00 274.63 2727.85
   17:41:41.958.19-May-2020 5195.01  803.49 67.03 2.00 274.83 2727.85
   17:41:42.158.19-May-2020 5195.01  807.81 67.03 2.00 275.03 2727.85
   17:41:42.359.19-May-2020 5195.01  807.81 67.03 2.00 275.23 2727.85
   17:41:42.559.19-May-2020 5195.01  816.22 67.03 2.00 275.43 2727.85
   17:41:42.759.19-May-2020 5195.01  819.86 67.03 2.00 275.63 2727.85
   17:41:42.959.19-May-2020 5195.01  824.22 67.03 2.00 275.83 2727.85
