~Version Information
 VERS.                  2.0:   CWLS log ASCII Standard -VERSION 2.0
 WRAP.                   NO:   One line per depth step
~Well Information Block
#MNEM.UNIT     VALUE/NAME     DESCRIPTION
#---------     -----------    ---------------------------
 STRT.S             17:37:07 19-May-20: START TIME 17:37:07 19-May-20
 STOP.S             17:43:47 19-May-20: STOP TIME  17:43:47 19-May-20
 STEP.S                   0.00: STEP TIME
 NULL.                 -999.25: NULL VALUE
 MDS .        Operator Entered:  MAG DATA SOURCE
 PDAT.          Mean Sea Level:  PERMANENT DATUM
 UNIT.                     N/A:  LOGGING EQUIPMENT ID
 DCON.         Sperry Drilling:  DIRECTNL CONTR
 DOE .                     N/A:  DOE NUMBER
 RIG .              East Azeri:  RIG NAME
 JOBN.        AZ-XX-0905856059:  JOB TICKET NUMB
 WELL.                     D36:  WELL NAME
 MWDS.                    Baku:  MWD SHOP
 SRVC.     Turan Drilling & Engineering:  CONTRACTOR
 FLD .                     ACG:  FIELD NAME
 CTRY.              Azerbaijan:  COUNTRY NAME
 PROV.                    Baku:  PROVINCE
 STAT.                    Baku:  STATE NAME
 REGN.                   EESSA:  REGION
 BASE.              Azerbaijan:  LOGGING EQUIPMENT BASE LOCATION
 UWI .                     N/A:  UNIQUE WELL IDENTIFIER
 API .                     N/A:  API NUMBER
 COMP.     BP Exploration (Caspian Sea) Ltd.:  COMPANY
 WTYP.                Deviated:  WELL TYPE
 SON .        AZ-XX-0905856059:  JOB NUMBER
 FTOP.          Formation Tops:  FORM TOPS DESC
 ILTD.               Lithology:  INTERP LTH DESC
 SVYD.                  Survey:  SURVEY DESC
 DMOD.             Drill Model:  DRILL MOD DESC
 HPTY.       Minimum Curvature:  HOLE POS TYPE
 NREF.                    Grid:  NORTH REFERENCE
 SPUD.               25-Feb-20:  SPUD DATE
 DATE.      08.55.28 01-May-20:  END TIME
 STIM.      08.55.28 25-Feb-20:  START TIME
 DMF .             Drill Floor:  DRILL MEAS FROM
 DFST.                        :  DIST FSL TEXT
 DFWT.                        :  DIST FWL TEXT
 CNTY.                        :  COUNTY
 LOC .                        :  LOCATION
 LMF .             Drill Floor:  LOG MEASURED FROM
 VSNS.m                   6.09:  VERT SEC N/S
 VSEW.m                 -10.79:  VERT SEC E/W
 AGAP.m                  43.60:  AIR GAP
 DEP .m                 388.24:  DEPTH
 APD .m                  43.60:  DEPTH ABOVE PD
 WDMS.m                 151.80:  WD ELEV
 EGL .m                   0.00:  GROUND ELEVATION
 EPD .m                   0.00:  ELEVATION
 AZTC.deg                 6.12:  AZM TOTAL CORR
 GRDC.deg                 0.30:  GRID CORRECTION
 MDEC.deg                 6.42:  MAGNETIC DECL
 MDIP.deg                59.42:  MAGNETIC DIP
 MFLD.nT              50256.00:  MAGNETIC FIELD
 GVFD.g                   1.00:  GRAVITY FIELD
 VSDR.deg               159.57:  VERT SEC DIRECT
 TDD .m                5000.01:  TOTAL DEPTH (DRILLER)
 SDEP.m                 397.00:  START DEPTH
 DFSL.m                   0.00:  DISTANCE FSL
 DFWL.m                   0.00:  DISTANCE FWL
 UTMY.m             4431880.20:  UTM Y
 UTMX.m              538763.98:  UTM X
 WHEW.m                 -10.79:  WELL HEAD E/W
 WHNS.m                   6.09:  WELL HEAD N/S
 LONG.deg                51.45:  LONGITUDE
 LATI.deg                40.02:  LATITUDE
 TVDS.m                  43.60:  TVDSS CORRECTN
 EKB .m                  43.60:  KB ELEVATION
 EDF .m                  43.60:  DF ELEVATION
 MAGU.                 1847640:  MAGUTM CHECKSUM
 VSC .                       0:  VS TO CLOSURE
~Parameter Information Block
#MNEM.UNIT       Value        Description
#---------     -----------    ---------------------------
 AV  .mps                 1.30:  Ann Velocity 
 AVMX.mps                 1.90:  Max Ann Veloc 
 AZIF.deg               115.68:  Azm, Final 
 BHAT.                   Other:  BHA Type 
 BROT.°/30m               0.74:  Build Rotating 
 BS  .in                  8.50:  Bit Size 
 BTPL.psig              430.00:  Bit Press Loss 
 CABU.                      No:  Customer Abuse 
 COMM.                     t9l:  Run Comments 1 
 TCS .hr                 51.31:  Time Ciculation Ended 
 CV  .mps                 2.52:  Crit Velocity 
 CVMX.mps                 2.62:  Max Crit Veloc 
 DD1 .          Teymur Aghayev:  Direct Drillr 1 
 DDSV.                   Other:  DD Service 
 DEFF.%                 100.00:  % Det Eff 
 DLRX.°/30m               1.62:  Dogleg Rot Max 
 DLSO.°/30m               0.74:  Dogleg Oriented 
 DLSX.°/30m               1.62:  Dogleg Str Max 
 DRET.      04.30.56 18-May-20:  Drill End Time 
 DRST.      04.30.56 18-May-20:  Drill Start Tim 
 DTIM.hr                  0.00:  Time Drilling 
 EDEP.m                5337.01:  End Depth 
 ENG1.      Artemiy Matviyanov:  Engineer 1 
 ENG2.      Bakhtiyar Jabbarli:  Engineer 2 
 ENG3.           Emil Huseynov:  Engineer 3 
 ETIM.      18.40.00 22-May-20:  End Time 
 FLOI.gpm               550.00:  Flow In 
 FLON.gpm               350.00:  Flow In Min 
 FLOS.cptm                0.00:  Fluid Loss 
 FLOX.gpm               600.00:  Flow In Max 
 HFLO.                      No:  High Flow 
 HPRE.                      No:  High Pressure 
 HTEM.                      No:  High Temp 
 HYDO.m                   1.80:  Hydro Offset 
 IFIN.deg                67.01:  Inc, Final 
 IMAX.deg                67.49:  Inc Max 
 IMIN.deg                66.50:  Inc Min 
 IMND.m                5144.79:  Inc Min Depth 
 IMXD.m                5116.12:  Inc Max Depth 
 JARR.                      No:  Jarring 
 LETM.      17.55.56 20-May-20:  Log End Time 
 LOST.hr                     0:  Lost Rig Time 
 LSTM.      04.30.56 18-May-20:  Log Start Time 
 MDCL.ppm            193153.00:  Mud Chlorides 
 MDES.     Inversion Oil/Synthetic:  Mud Desc 
 DFD .sg                  1.40:  Mud Density 
 MDMN.sg                  1.40:  Dens Mud Min 
 MDMX.sg                  1.41:  Dens Mud Max 
 MOIL.                      68:  Run Mud Oil % 
 MOWR.                   68:32:  Run Mud OWR 
 MSND.                     0.2:  Run Mud Sand % 
 MSOL.                    18.8:  Run Mud Solids% 
 DFV .spqt               80.00:  Mud Viscosity 
 MWOD.in                  6.75:  MWD Tool OD 
 MWSI.                      No:  Serv Intrp, MWD 
 OTIM.hr                104.84:  Time Operating 
 PMAX.psia            10690.93:  Press Op, Max 
 PV  .cP                 26.00:  Mud PV 
 RUN .                     900:  Run Number 
 ROPA.m/hr                0.00:  ROP Avg 
 ROPN.m/hr                0.00:  ROP Min 
 ROPX.m/hr                0.00:  ROP Max 
 RPMA.rpm               140.00:  RPM Surface Avg 
 RPMN.rpm                70.00:  RPM Surface Min 
 RPMX.rpm               140.00:  RPM Surface Max 
 RRUN.                    0900:  Rig Run Number 
 RTIM.hr                 36.00:  Time Reaming 
 SAZI.deg               115.72:  Azm, Start 
 SDEP.m                5337.01:  Start Depth 
 SIDD.                      No:  Serv Intrp, DD 
 SINC.deg                66.92:  Inc, Start 
 SPPA.psig             4400.00:  SPP Avg 
 SPPN.psig             1135.00:  SPP Min 
 SPPX.psig             4581.00:  SPP Max 
 STIM.      04.30.56 18-May-20:  Start Time 
 SVCS.                     MWD:  Services 
 SVER.                    9.20:  Sperry Version 
 TDAT.m                5337.01:  Tot Depth Attmp 
 TDDF.                      No:  Trip for DD 
 TFF .                      No:  Trip for Fail 
 TQAA.f-kp               23.00:  Torque Abs Avg 
 TQAN.f-kp               18.00:  Torque Abs Min 
 TQAX.f-kp               25.00:  Torque Abs Max 
 TRRT.°/30m               0.74:  Turn Rotating 
 MRT .                    HCIM:  Maximum Recorded Temperature 
 TTMX.degC               76.47:  Max Tool Temp 
 WBMN.klb                 0.00:  WOB Min 
 WITN.             Anar Khalil:  Customer Rep 
 WITN.      Kamran Keberlinski:  Customer Rep 2 
 WOBA.klb                 0.00:  WOB Avg 
 WOBX.klb                 0.00:  WOB Max 
 YP  .lhf2               27.00:  Yield Point 
~Curve Information Block
#MNEM.UNIT                 API CODE     Curve Description
#---------               -----------    ---------------------------
 TIME.HHMMSS            00 000 000 000:  GT Time & Date
 GTDEPTH.m              00 000 000 000:  GT Depth
 GTPQH.psia             00 000 000 000:  GT HR Quartz Pressure
 GTTQ.degC              00 000 000 000:  GT Quartz Temperature
 GTTN.NONE              00 000 000 000:  GT Test Number
 GTET.sec               00 000 000 000:  GT Elapsed Test Time
 GTTVD.m                00 000 000 000:  GT True Vertical Depth
#Other Information
#
#WARRANTY: Halliburton will use its best efforts to furnish customers with 
#accurate information and interpretations that are part of, and incident to, the services 
#provided.  However, Halliburton cannot and does not warrant the accuracy 
#or correctness of such information and interpretations.  Under no circumstances should any 
#such information or interpretation be relied upon as the sole basis for any drilling, 
#completion, production, or financial decision or any procedure involving any risk to the 
#safety of any drilling venture, drilling rig or its crew or any other third party.  The 
#Customer has full responsibility for all drilling, completion and production operation.  
#Halliburton makes no representations or warranties, either expressed or 
#implied, including, but not limited to, the implied warranties of merchantability or fitness 
#for a particular purpose, with respect to the services rendered.  In no event will 
#Halliburton be liable for failure to obtain any particular results or for 
#any damages, including, but not limited to, indirect, special or consequential damages, 
#resulting from the use of any information or interpretation provided by Halliburton.
#
~A           TIME           GTDEPTH  GTPQH  GTTQ  GTTN  GTET   GTTVD  
# ...
   17:40:34.150.19-May-2020 5195.01 1817.42 67.05 2.00 207.03 2727.85
   17:40:34.350.19-May-2020 5195.01 1817.42 67.05 2.00 207.23 2727.85
   17:40:34.550.19-May-2020 5195.01 1823.67 67.05 2.00 207.43 2727.85
   17:40:34.750.19-May-2020 5195.01 1826.88 67.05 2.00 207.63 2727.85
   17:40:34.950.19-May-2020 5195.01 1829.86 67.05 2.00 207.83 2727.85
   17:40:35.150.19-May-2020 5195.01 1833.00 67.05 2.00 208.03 2727.85
   17:40:35.350.19-May-2020 5195.01 1833.00 67.05 2.00 208.23 2727.85
   17:40:35.550.19-May-2020 5195.01 1838.75 67.05 2.00 208.43 2727.85
   17:40:35.750.19-May-2020 5195.01 1842.14 67.05 2.00 208.63 2727.85
   17:40:35.950.19-May-2020 5195.01 1845.23 67.05 2.00 208.83 2727.85
   17:40:36.150.19-May-2020 5195.01 1848.22 67.05 2.00 209.03 2727.85
   17:40:36.350.19-May-2020 5195.01 1848.22 67.05 2.00 209.23 2727.85
   17:40:36.551.19-May-2020 5195.01 1854.38 67.05 2.00 209.43 2727.85
   17:40:36.751.19-May-2020 5195.01 1857.42 67.05 2.00 209.63 2727.85
   17:40:36.951.19-May-2020 5195.01 1860.36 67.05 2.00 209.83 2727.85
   17:40:37.151.19-May-2020 5195.01 1863.47 67.05 2.00 210.03 2727.85
   17:40:37.351.19-May-2020 5195.01 1863.47 67.05 2.00 210.23 2727.85
   17:40:37.551.19-May-2020 5195.01 1869.11 67.05 2.00 210.43 2727.85
   17:40:37.751.19-May-2020 5195.01 1872.36 67.05 2.00 210.63 2727.85
   17:40:37.951.19-May-2020 5195.01 1875.49 67.05 2.00 210.83 2727.85
   17:40:38.151.19-May-2020 5195.01 1878.23 67.05 2.00 211.03 2727.85
   17:40:38.351.19-May-2020 5195.01 1878.23 67.05 2.00 211.23 2727.85
   17:40:38.551.19-May-2020 5195.01 1883.96 67.05 2.00 211.43 2727.85
   17:40:38.751.19-May-2020 5195.01 1887.13 67.05 2.00 211.63 2727.85
   17:40:38.951.19-May-2020 5195.01 1890.03 67.05 2.00 211.83 2727.85
   17:40:39.151.19-May-2020 5195.01 1892.91 67.05 2.00 212.03 2727.85
   17:40:39.351.19-May-2020 5195.01 1892.91 67.05 2.00 212.23 2727.85
   17:40:39.551.19-May-2020 5195.01 1898.60 67.05 2.00 212.43 2727.85
   17:40:39.751.19-May-2020 5195.01 1901.66 67.05 2.00 212.63 2727.85
   17:40:39.951.19-May-2020 5195.01 1904.49 67.05 2.00 212.83 2727.85
   17:40:40.151.19-May-2020 5195.01 1907.39 67.06 2.00 213.03 2727.85
   17:40:40.351.19-May-2020 5195.01 1907.39 67.06 2.00 213.23 2727.85
   17:40:40.551.19-May-2020 5195.01 1913.18 67.06 2.00 213.43 2727.85
   17:40:40.751.19-May-2020 5195.01 1916.01 67.06 2.00 213.63 2727.85
   17:40:40.951.19-May-2020 5195.01 1918.81 67.06 2.00 213.83 2727.85
   17:40:41.151.19-May-2020 5195.01 1921.78 67.06 2.00 214.03 2727.85
   17:40:41.351.19-May-2020 5195.01 1921.78 67.06 2.00 214.23 2727.85
   17:40:41.551.19-May-2020 5195.01 1927.46 67.06 2.00 214.43 2727.85
   17:40:41.751.19-May-2020 5195.01 1930.21 67.06 2.00 214.63 2727.85
   17:40:41.951.19-May-2020 5195.01 1933.12 67.06 2.00 214.83 2727.85
   17:40:42.151.19-May-2020 5195.01 1935.95 67.06 2.00 215.03 2727.85
   17:40:42.351.19-May-2020 5195.01 1935.95 67.06 2.00 215.23 2727.85
   17:40:42.551.19-May-2020 5195.01 1941.41 67.06 2.00 215.43 2727.85
   17:40:42.751.19-May-2020 5195.01 1944.22 67.06 2.00 215.63 2727.85
   17:40:42.951.19-May-2020 5195.01 1947.13 67.06 2.00 215.83 2727.85
   17:40:43.151.19-May-2020 5195.01 1949.62 67.06 2.00 216.03 2727.85
   17:40:43.351.19-May-2020 5195.01 1949.62 67.06 2.00 216.23 2727.85
   17:40:43.551.19-May-2020 5195.01 1955.46 67.06 2.00 216.43 2727.85
   17:40:43.751.19-May-2020 5195.01 1958.21 67.06 2.00 216.63 2727.85
   17:40:43.951.19-May-2020 5195.01 1960.70 67.06 2.00 216.83 2727.85
   17:40:44.151.19-May-2020 5195.01 1963.60 67.06 2.00 217.03 2727.85
   17:40:44.351.19-May-2020 5195.01 1963.60 67.06 2.00 217.23 2727.85
   17:40:44.551.19-May-2020 5195.01 1969.19 67.06 2.00 217.43 2727.85
   17:40:44.752.19-May-2020 5195.01 1971.97 67.06 2.00 217.63 2727.85
   17:40:44.952.19-May-2020 5195.01 1974.27 67.06 2.00 217.83 2727.85
   17:40:45.152.19-May-2020 5195.01 1977.46 67.06 2.00 218.03 2727.85
   17:40:45.352.19-May-2020 5195.01 1977.46 67.06 2.00 218.23 2727.85
   17:40:45.552.19-May-2020 5195.01 1982.80 67.06 2.00 218.43 2727.85
   17:40:45.752.19-May-2020 5195.01 1985.58 67.06 2.00 218.63 2727.85
   17:40:45.952.19-May-2020 5195.01 1988.04 67.06 2.00 218.83 2727.85
   17:40:46.152.19-May-2020 5195.01 1990.80 67.06 2.00 219.03 2727.85
   17:40:46.352.19-May-2020 5195.01 1990.80 67.06 2.00 219.23 2727.85
   17:40:46.552.19-May-2020 5195.01 1996.36 67.06 2.00 219.43 2727.85
   17:40:46.752.19-May-2020 5195.01 1998.97 67.06 2.00 219.63 2727.85
   17:40:46.952.19-May-2020 5195.01 2001.73 67.06 2.00 219.83 2727.85
   17:40:47.152.19-May-2020 5195.01 2004.38 67.06 2.00 220.03 2727.85
   17:40:47.352.19-May-2020 5195.01 2004.38 67.06 2.00 220.23 2727.85
   17:40:47.552.19-May-2020 5195.01 2009.78 67.06 2.00 220.43 2727.85
   17:40:47.752.19-May-2020 5195.01 2012.36 67.06 2.00 220.63 2727.85
   17:40:47.952.19-May-2020 5195.01 2015.14 67.06 2.00 220.83 2727.85
   17:40:48.152.19-May-2020 5195.01 2017.74 67.06 2.00 221.03 2727.85
   17:40:48.352.19-May-2020 5195.01 2017.74 67.06 2.00 221.23 2727.85
   17:40:48.552.19-May-2020 5195.01 2023.05 67.06 2.00 221.43 2727.85
   17:40:48.752.19-May-2020 5195.01 2025.72 67.06 2.00 221.63 2727.85
   17:40:48.952.19-May-2020 5195.01 2028.24 67.06 2.00 221.83 2727.85
   17:40:49.152.19-May-2020 5195.01 2030.67 67.06 2.00 222.03 2727.85
   17:40:49.352.19-May-2020 5195.01 2030.67 67.06 2.00 222.23 2727.85
   17:40:49.552.19-May-2020 5195.01 2036.07 67.06 2.00 222.43 2727.85
   17:40:49.752.19-May-2020 5195.01 2038.85 67.06 2.00 222.63 2727.85
   17:40:49.952.19-May-2020 5195.01 2041.04 67.06 2.00 222.83 2727.85
   17:40:50.152.19-May-2020 5195.01 2044.02 67.06 2.00 223.03 2727.85
   17:40:50.352.19-May-2020 5195.01 2044.02 67.06 2.00 223.23 2727.85
   17:40:50.552.19-May-2020 5195.01 2049.17 67.06 2.00 223.43 2727.85
   17:40:50.752.19-May-2020 5195.01 2051.93 67.06 2.00 223.63 2727.85
   17:40:50.952.19-May-2020 5195.01 2053.99 67.06 2.00 223.83 2727.85
   17:40:51.152.19-May-2020 5195.01 2056.83 67.06 2.00 224.03 2727.85
   17:40:51.352.19-May-2020 5195.01 2056.83 67.06 2.00 224.23 2727.85
   17:40:51.552.19-May-2020 5195.01 2062.06 67.06 2.00 224.43 2727.85
   17:40:51.752.19-May-2020 5195.01 2064.23 67.06 2.00 224.63 2727.85
   17:40:51.952.19-May-2020 5195.01 2067.07 67.06 2.00 224.83 2727.85
   17:40:52.152.19-May-2020 5195.01 2069.77 67.06 2.00 225.03 2727.85
   17:40:52.352.19-May-2020 5195.01 2069.77 67.06 2.00 225.23 2727.85
   17:40:52.552.19-May-2020 5195.01 2074.61 67.06 2.00 225.43 2727.85
   17:40:52.752.19-May-2020 5195.01 2077.25 67.06 2.00 225.63 2727.85
   17:40:52.953.19-May-2020 5195.01 2079.88 67.06 2.00 225.83 2727.85
   17:40:53.153.19-May-2020 5195.01 2082.33 67.06 2.00 226.03 2727.85
   17:40:53.353.19-May-2020 5195.01 2082.33 67.06 2.00 226.23 2727.85
   17:40:53.553.19-May-2020 5195.01 2087.41 67.06 2.00 226.43 2727.85
   17:40:53.753.19-May-2020 5195.01 2089.96 67.06 2.00 226.63 2727.85
   17:40:53.953.19-May-2020 5195.01 2092.52 67.06 2.00 226.83 2727.85
   17:40:54.153.19-May-2020 5195.01 2094.96 67.06 2.00 227.03 2727.85
   17:40:54.353.19-May-2020 5195.01 2094.96 67.06 2.00 227.23 2727.85
   17:40:54.553.19-May-2020 5195.01 2100.00 67.06 2.00 227.43 2727.85
   17:40:54.753.19-May-2020 5195.01 2102.60 67.06 2.00 227.63 2727.85
   17:40:54.953.19-May-2020 5195.01 2105.06 67.06 2.00 227.83 2727.85
   17:40:55.153.19-May-2020 5195.01 2107.56 67.06 2.00 228.03 2727.85
   17:40:55.353.19-May-2020 5195.01 2107.56 67.06 2.00 228.23 2727.85
   17:40:55.553.19-May-2020 5195.01 2112.27 67.06 2.00 228.43 2727.85
   17:40:55.753.19-May-2020 5195.01 2115.03 67.06 2.00 228.63 2727.85
   17:40:55.953.19-May-2020 5195.01 2117.37 67.07 2.00 228.83 2727.85
   17:40:56.153.19-May-2020 5195.01 2119.96 67.06 2.00 229.03 2727.85
   17:40:56.353.19-May-2020 5195.01 2119.96 67.06 2.00 229.23 2727.85
   17:40:56.553.19-May-2020 5195.01 2124.78 67.07 2.00 229.43 2727.85
   17:40:56.753.19-May-2020 5195.01 2127.29 67.07 2.00 229.63 2727.85
   17:40:56.953.19-May-2020 5195.01 2129.64 67.07 2.00 229.83 2727.85
