~Version Information
 VERS.                  2.0:   CWLS log ASCII Standard -VERSION 2.0
 WRAP.                   NO:   One line per depth step
~Well Information Block
#MNEM.UNIT     VALUE/NAME     DESCRIPTION
#---------     -----------    ---------------------------
 STRT.S             15:16:23 19-May-20: START TIME 15:16:23 19-May-20
 STOP.S             15:23:31 19-May-20: STOP TIME  15:23:31 19-May-20
 STEP.S                   0.00: STEP TIME
 NULL.                 -999.25: NULL VALUE
 MDS .        Operator Entered:  MAG DATA SOURCE
 PDAT.          Mean Sea Level:  PERMANENT DATUM
 UNIT.                     N/A:  LOGGING EQUIPMENT ID
 DCON.         Sperry Drilling:  DIRECTNL CONTR
 DOE .                     N/A:  DOE NUMBER
 RIG .              East Azeri:  RIG NAME
 JOBN.        AZ-XX-0905856059:  JOB TICKET NUMB
 WELL.                     D36:  WELL NAME
 MWDS.                    Baku:  MWD SHOP
 SRVC.     Turan Drilling & Engineering:  CONTRACTOR
 FLD .                     ACG:  FIELD NAME
 CTRY.              Azerbaijan:  COUNTRY NAME
 PROV.                    Baku:  PROVINCE
 STAT.                    Baku:  STATE NAME
 REGN.                   EESSA:  REGION
 BASE.              Azerbaijan:  LOGGING EQUIPMENT BASE LOCATION
 UWI .                     N/A:  UNIQUE WELL IDENTIFIER
 API .                     N/A:  API NUMBER
 COMP.     BP Exploration (Caspian Sea) Ltd.:  COMPANY
 WTYP.                Deviated:  WELL TYPE
 SON .        AZ-XX-0905856059:  JOB NUMBER
 FTOP.          Formation Tops:  FORM TOPS DESC
 ILTD.               Lithology:  INTERP LTH DESC
 SVYD.                  Survey:  SURVEY DESC
 DMOD.             Drill Model:  DRILL MOD DESC
 HPTY.       Minimum Curvature:  HOLE POS TYPE
 NREF.                    Grid:  NORTH REFERENCE
 SPUD.               25-Feb-20:  SPUD DATE
 DATE.      08.55.28 01-May-20:  END TIME
 STIM.      08.55.28 25-Feb-20:  START TIME
 DMF .             Drill Floor:  DRILL MEAS FROM
 DFST.                        :  DIST FSL TEXT
 DFWT.                        :  DIST FWL TEXT
 CNTY.                        :  COUNTY
 LOC .                        :  LOCATION
 LMF .             Drill Floor:  LOG MEASURED FROM
 VSNS.m                   6.09:  VERT SEC N/S
 VSEW.m                 -10.79:  VERT SEC E/W
 AGAP.m                  43.60:  AIR GAP
 DEP .m                 388.24:  DEPTH
 APD .m                  43.60:  DEPTH ABOVE PD
 WDMS.m                 151.80:  WD ELEV
 EGL .m                   0.00:  GROUND ELEVATION
 EPD .m                   0.00:  ELEVATION
 AZTC.deg                 6.12:  AZM TOTAL CORR
 GRDC.deg                 0.30:  GRID CORRECTION
 MDEC.deg                 6.42:  MAGNETIC DECL
 MDIP.deg                59.42:  MAGNETIC DIP
 MFLD.nT              50256.00:  MAGNETIC FIELD
 GVFD.g                   1.00:  GRAVITY FIELD
 VSDR.deg               159.57:  VERT SEC DIRECT
 TDD .m                5000.01:  TOTAL DEPTH (DRILLER)
 SDEP.m                 397.00:  START DEPTH
 DFSL.m                   0.00:  DISTANCE FSL
 DFWL.m                   0.00:  DISTANCE FWL
 UTMY.m             4431880.20:  UTM Y
 UTMX.m              538763.98:  UTM X
 WHEW.m                 -10.79:  WELL HEAD E/W
 WHNS.m                   6.09:  WELL HEAD N/S
 LONG.deg                51.45:  LONGITUDE
 LATI.deg                40.02:  LATITUDE
 TVDS.m                  43.60:  TVDSS CORRECTN
 EKB .m                  43.60:  KB ELEVATION
 EDF .m                  43.60:  DF ELEVATION
 MAGU.                 1847640:  MAGUTM CHECKSUM
 VSC .                       0:  VS TO CLOSURE
~Parameter Information Block
#MNEM.UNIT       Value        Description
#---------     -----------    ---------------------------
 AV  .mps                 1.30:  Ann Velocity 
 AVMX.mps                 1.90:  Max Ann Veloc 
 AZIF.deg               115.68:  Azm, Final 
 BHAT.                   Other:  BHA Type 
 BROT.°/30m               0.74:  Build Rotating 
 BS  .in                  8.50:  Bit Size 
 BTPL.psig              430.00:  Bit Press Loss 
 CABU.                      No:  Customer Abuse 
 TCS .hr                 51.31:  Time Ciculation Ended 
 CV  .mps                 2.52:  Crit Velocity 
 CVMX.mps                 2.62:  Max Crit Veloc 
 DD1 .          Teymur Aghayev:  Direct Drillr 1 
 DDSV.                   Other:  DD Service 
 DEFF.%                 100.00:  % Det Eff 
 DLRX.°/30m               1.62:  Dogleg Rot Max 
 DLSO.°/30m               0.74:  Dogleg Oriented 
 DLSX.°/30m               1.62:  Dogleg Str Max 
 DRET.      04.30.56 18-May-20:  Drill End Time 
 DRST.      04.30.56 18-May-20:  Drill Start Tim 
 DTIM.hr                  0.00:  Time Drilling 
 EDEP.m                5337.01:  End Depth 
 ENG1.      Artemiy Matviyanov:  Engineer 1 
 ENG2.      Bakhtiyar Jabbarli:  Engineer 2 
 ENG3.           Emil Huseynov:  Engineer 3 
 ETIM.      18.40.00 22-May-20:  End Time 
 FLOI.gpm               550.00:  Flow In 
 FLON.gpm               350.00:  Flow In Min 
 FLOS.cptm                0.00:  Fluid Loss 
 FLOX.gpm               600.00:  Flow In Max 
 HFLO.                      No:  High Flow 
 HPRE.                      No:  High Pressure 
 HTEM.                      No:  High Temp 
 HYDO.m                   1.80:  Hydro Offset 
 IFIN.deg                67.01:  Inc, Final 
 IMAX.deg                67.49:  Inc Max 
 IMIN.deg                66.50:  Inc Min 
 IMND.m                5144.79:  Inc Min Depth 
 IMXD.m                5116.12:  Inc Max Depth 
 JARR.                      No:  Jarring 
 LETM.      17.55.56 20-May-20:  Log End Time 
 LOST.hr                     0:  Lost Rig Time 
 LSTM.      04.30.56 18-May-20:  Log Start Time 
 MDCL.ppm            193153.00:  Mud Chlorides 
 MDES.     Inversion Oil/Synthetic:  Mud Desc 
 DFD .sg                  1.40:  Mud Density 
 MDMN.sg                  1.40:  Dens Mud Min 
 MDMX.sg                  1.41:  Dens Mud Max 
 MOIL.                      68:  Run Mud Oil % 
 MOWR.                   68:32:  Run Mud OWR 
 MSND.                     0.2:  Run Mud Sand % 
 MSOL.                    18.8:  Run Mud Solids% 
 DFV .spqt               80.00:  Mud Viscosity 
 MWOD.in                  6.75:  MWD Tool OD 
 MWSI.                      No:  Serv Intrp, MWD 
 OTIM.hr                104.84:  Time Operating 
 PMAX.psia            10690.93:  Press Op, Max 
 PV  .cP                 26.00:  Mud PV 
 RUN .                     900:  Run Number 
 ROPA.m/hr                0.00:  ROP Avg 
 ROPN.m/hr                0.00:  ROP Min 
 ROPX.m/hr                0.00:  ROP Max 
 RPMA.rpm               140.00:  RPM Surface Avg 
 RPMN.rpm                70.00:  RPM Surface Min 
 RPMX.rpm               140.00:  RPM Surface Max 
 RRUN.                    0900:  Rig Run Number 
 RTIM.hr                 36.00:  Time Reaming 
 SAZI.deg               115.72:  Azm, Start 
 SDEP.m                5337.01:  Start Depth 
 SIDD.                      No:  Serv Intrp, DD 
 SINC.deg                66.92:  Inc, Start 
 SPPA.psig             4400.00:  SPP Avg 
 SPPN.psig             1135.00:  SPP Min 
 SPPX.psig             4581.00:  SPP Max 
 STIM.      04.30.56 18-May-20:  Start Time 
 SVCS.                     MWD:  Services 
 SVER.                    9.20:  Sperry Version 
 TDAT.m                5337.01:  Tot Depth Attmp 
 TDDF.                      No:  Trip for DD 
 TFF .                      No:  Trip for Fail 
 TQAA.f-kp               23.00:  Torque Abs Avg 
 TQAN.f-kp               18.00:  Torque Abs Min 
 TQAX.f-kp               25.00:  Torque Abs Max 
 TRRT.°/30m               0.74:  Turn Rotating 
 MRT .                    HCIM:  Maximum Recorded Temperature 
 TTMX.degC               76.47:  Max Tool Temp 
 WBMN.klb                 0.00:  WOB Min 
 WITN.             Anar Khalil:  Customer Rep 
 WITN.      Kamran Keberlinski:  Customer Rep 2 
 WOBA.klb                 0.00:  WOB Avg 
 WOBX.klb                 0.00:  WOB Max 
 YP  .lhf2               27.00:  Yield Point 
~Curve Information Block
#MNEM.UNIT                 API CODE     Curve Description
#---------               -----------    ---------------------------
 TIME.HHMMSS            00 000 000 000:  GT Time & Date
 GTDEPTH.m              00 000 000 000:  GT Depth
 GTPQH.psia             00 000 000 000:  GT HR Quartz Pressure
 GTTQ.degC              00 000 000 000:  GT Quartz Temperature
 GTTN.NONE              00 000 000 000:  GT Test Number
 GTET.sec               00 000 000 000:  GT Elapsed Test Time
 GTTVD.m                00 000 000 000:  GT True Vertical Depth
#Other Information
#
#WARRANTY: Halliburton will use its best efforts to furnish customers with 
#accurate information and interpretations that are part of, and incident to, the services 
#provided.  However, Halliburton cannot and does not warrant the accuracy 
#or correctness of such information and interpretations.  Under no circumstances should any 
#such information or interpretation be relied upon as the sole basis for any drilling, 
#completion, production, or financial decision or any procedure involving any risk to the 
#safety of any drilling venture, drilling rig or its crew or any other third party.  The 
#Customer has full responsibility for all drilling, completion and production operation.  
#Halliburton makes no representations or warranties, either expressed or 
#implied, including, but not limited to, the implied warranties of merchantability or fitness 
#for a particular purpose, with respect to the services rendered.  In no event will 
#Halliburton be liable for failure to obtain any particular results or for 
#any damages, including, but not limited to, indirect, special or consequential damages, 
#resulting from the use of any information or interpretation provided by Halliburton.
#
~A           TIME           GTDEPTH  GTPQH  GTTQ  GTTN  GTET   GTTVD  
# ...
   15:17:09.323.19-May-2020 5277.61 6629.90 67.47 1.00  46.01 2760.35
   15:17:09.523.19-May-2020 5277.61 6629.90 67.47 1.00  46.21 2760.35
   15:17:09.723.19-May-2020 5277.61 6629.73 67.47 1.00  46.41 2760.35
   15:17:09.923.19-May-2020 5277.61 6629.77 67.47 1.00  46.61 2760.35
   15:17:10.123.19-May-2020 5277.61 6629.71 67.47 1.00  46.81 2760.35
   15:17:10.323.19-May-2020 5277.61 6630.01 67.47 1.00  47.01 2760.35
   15:17:10.523.19-May-2020 5277.61 6630.01 67.47 1.00  47.21 2760.35
   15:17:10.723.19-May-2020 5277.61 6630.03 67.47 1.00  47.41 2760.35
   15:17:10.923.19-May-2020 5277.61 6629.46 67.47 1.00  47.61 2760.35
   15:17:11.123.19-May-2020 5277.61 6630.18 67.47 1.00  47.81 2760.35
   15:17:11.323.19-May-2020 5277.61 6630.26 67.47 1.00  48.01 2760.35
   15:17:11.524.19-May-2020 5277.61 6635.56 67.47 1.00  48.21 2760.35
   15:17:11.724.19-May-2020 5277.61 6633.07 67.47 1.00  48.41 2760.35
   15:17:11.924.19-May-2020 5277.61 6629.08 67.47 1.00  48.61 2760.35
   15:17:12.124.19-May-2020 5277.61 6631.50 67.47 1.00  48.81 2760.35
   15:17:12.324.19-May-2020 5277.61 6631.21 67.47 1.00  49.01 2760.35
   15:17:12.524.19-May-2020 5277.61 6631.21 67.47 1.00  49.21 2760.35
   15:17:12.724.19-May-2020 5277.61 6634.21 67.47 1.00  49.41 2760.35
   15:17:12.924.19-May-2020 5277.61 6631.37 67.47 1.00  49.61 2760.35
   15:17:13.124.19-May-2020 5277.61 6631.68 67.47 1.00  49.81 2760.35
   15:17:13.324.19-May-2020 5277.61 6631.60 67.47 1.00  50.01 2760.35
   15:17:13.524.19-May-2020 5277.61 6631.60 67.47 1.00  50.21 2760.35
   15:17:13.724.19-May-2020 5277.61 6636.90 67.47 1.00  50.41 2760.35
   15:17:13.924.19-May-2020 5277.61 6627.83 67.47 1.00  50.61 2760.35
   15:17:14.124.19-May-2020 5277.61 6619.18 67.47 1.00  50.81 2760.35
   15:17:14.324.19-May-2020 5277.61 6621.60 67.47 1.00  51.01 2760.35
   15:17:14.524.19-May-2020 5277.61 6621.60 67.47 1.00  51.21 2760.35
   15:17:14.724.19-May-2020 5277.61 6626.55 67.47 1.00  51.41 2760.35
   15:17:14.924.19-May-2020 5277.61 6625.92 67.47 1.00  51.61 2760.35
   15:17:15.124.19-May-2020 5277.61 6623.81 67.47 1.00  51.81 2760.35
   15:17:15.324.19-May-2020 5277.61 6625.39 67.47 1.00  52.01 2760.35
   15:17:15.524.19-May-2020 5277.61 6629.77 67.47 1.00  52.21 2760.35
   15:17:15.725.19-May-2020 5277.61 6627.27 67.47 1.00  52.41 2760.35
   15:17:15.925.19-May-2020 5277.61 6621.52 67.47 1.00  52.61 2760.35
   15:17:16.125.19-May-2020 5277.61 6623.22 67.47 1.00  52.81 2760.35
   15:17:16.325.19-May-2020 5277.61 6621.28 67.47 1.00  53.01 2760.35
   15:17:16.525.19-May-2020 5277.61 6621.28 67.47 1.00  53.21 2760.35
   15:17:16.725.19-May-2020 5277.61 6619.37 67.47 1.00  53.41 2760.35
   15:17:16.925.19-May-2020 5277.61 6614.38 67.47 1.00  53.61 2760.35
   15:17:17.125.19-May-2020 5277.61 6607.07 67.47 1.00  53.81 2760.35
   15:17:17.325.19-May-2020 5277.61 6595.55 67.47 1.00  54.01 2760.35
   15:17:17.525.19-May-2020 5277.61 6595.55 67.47 1.00  54.21 2760.35
   15:17:17.725.19-May-2020 5277.61 6385.60 67.47 1.00  54.41 2760.35
   15:17:17.925.19-May-2020 5277.61 6120.58 67.47 1.00  54.61 2760.35
   15:17:18.125.19-May-2020 5277.61 5723.48 67.47 1.00  54.81 2760.35
   15:17:18.325.19-May-2020 5277.61 5205.07 67.47 1.00  55.01 2760.35
   15:17:18.525.19-May-2020 5277.61 5205.07 67.47 1.00  55.21 2760.35
   15:17:18.725.19-May-2020 5277.61 3974.49 67.47 1.00  55.41 2760.35
   15:17:18.925.19-May-2020 5277.61 3417.69 67.46 1.00  55.61 2760.35
   15:17:19.125.19-May-2020 5277.61 3127.29 67.46 1.00  55.81 2760.35
   15:17:19.325.19-May-2020 5277.61 3045.71 67.46 1.00  56.01 2760.35
   15:17:19.525.19-May-2020 5277.61 3007.44 67.46 1.00  56.21 2760.35
   15:17:19.725.19-May-2020 5277.61 3064.34 67.46 1.00  56.41 2760.35
   15:17:19.926.19-May-2020 5277.61 3070.42 67.46 1.00  56.61 2760.35
   15:17:20.126.19-May-2020 5277.61 3042.27 67.46 1.00  56.81 2760.35
   15:17:20.326.19-May-2020 5277.61 3032.00 67.45 1.00  57.01 2760.35
   15:17:20.526.19-May-2020 5277.61 3032.00 67.45 1.00  57.21 2760.35
   15:17:20.726.19-May-2020 5277.61 3031.32 67.45 1.00  57.41 2760.35
   15:17:20.926.19-May-2020 5277.61 3019.13 67.45 1.00  57.61 2760.35
   15:17:21.126.19-May-2020 5277.61 3009.14 67.44 1.00  57.81 2760.35
   15:17:21.326.19-May-2020 5277.61 3005.16 67.44 1.00  58.01 2760.35
   15:17:21.526.19-May-2020 5277.61 3005.16 67.44 1.00  58.21 2760.35
   15:17:21.726.19-May-2020 5277.61 3006.99 67.44 1.00  58.41 2760.35
   15:17:21.926.19-May-2020 5277.61 3023.21 67.43 1.00  58.61 2760.35
   15:17:22.126.19-May-2020 5277.61 3012.44 67.43 1.00  58.81 2760.35
   15:17:22.326.19-May-2020 5277.61 3005.86 67.43 1.00  59.01 2760.35
   15:17:22.526.19-May-2020 5277.61 3005.86 67.42 1.00  59.21 2760.35
   15:17:22.726.19-May-2020 5277.61 3001.15 67.42 1.00  59.41 2760.35
   15:17:22.926.19-May-2020 5277.61 2996.70 67.42 1.00  59.61 2760.35
   15:17:23.126.19-May-2020 5277.61 2994.70 67.42 1.00  59.81 2760.35
   15:17:23.326.19-May-2020 5277.61 2995.46 67.41 1.00  60.01 2760.35
   15:17:23.526.19-May-2020 5277.61 2995.46 67.41 1.00  60.21 2760.35
   15:17:23.726.19-May-2020 5277.61 3152.64 67.41 1.00  60.41 2760.35
   15:17:23.926.19-May-2020 5277.61 3367.36 67.41 1.00  60.61 2760.35
   15:17:24.127.19-May-2020 5277.61 3428.57 67.40 1.00  60.81 2760.35
   15:17:24.327.19-May-2020 5277.61 3445.45 67.40 1.00  61.01 2760.35
   15:17:24.527.19-May-2020 5277.61 3445.45 67.40 1.00  61.21 2760.35
   15:17:24.727.19-May-2020 5277.61 3452.09 67.40 1.00  61.41 2760.35
   15:17:24.927.19-May-2020 5277.61 3452.98 67.40 1.00  61.61 2760.35
   15:17:25.127.19-May-2020 5277.61 3453.57 67.40 1.00  61.81 2760.35
   15:17:25.327.19-May-2020 5277.61 3454.08 67.39 1.00  62.01 2760.35
   15:17:25.527.19-May-2020 5277.61 3454.08 67.39 1.00  62.21 2760.35
   15:17:25.727.19-May-2020 5277.61 3454.68 67.39 1.00  62.41 2760.35
   15:17:25.927.19-May-2020 5277.61 3455.19 67.39 1.00  62.61 2760.35
   15:17:26.127.19-May-2020 5277.61 3455.16 67.39 1.00  62.81 2760.35
   15:17:26.327.19-May-2020 5277.61 3455.35 67.39 1.00  63.01 2760.35
   15:17:26.527.19-May-2020 5277.61 3455.35 67.39 1.00  63.21 2760.35
   15:17:26.727.19-May-2020 5277.61 3455.71 67.38 1.00  63.42 2760.35
   15:17:26.927.19-May-2020 5277.61 3456.00 67.38 1.00  63.62 2760.35
   15:17:27.127.19-May-2020 5277.61 3455.80 67.38 1.00  63.82 2760.35
   15:17:27.327.19-May-2020 5277.61 3455.85 67.38 1.00  64.02 2760.35
   15:17:27.527.19-May-2020 5277.61 3455.85 67.38 1.00  64.22 2760.35
   15:17:27.727.19-May-2020 5277.61 3456.37 67.38 1.00  64.42 2760.35
   15:17:27.927.19-May-2020 5277.61 3456.04 67.38 1.00  64.62 2760.35
   15:17:28.127.19-May-2020 5277.61 3456.09 67.38 1.00  64.82 2760.35
   15:17:28.328.19-May-2020 5277.61 3456.28 67.38 1.00  65.02 2760.35
   15:17:28.528.19-May-2020 5277.61 3456.28 67.38 1.00  65.22 2760.35
   15:17:28.728.19-May-2020 5277.61 3456.04 67.38 1.00  65.42 2760.35
   15:17:28.928.19-May-2020 5277.61 3456.89 67.38 1.00  65.62 2760.35
   15:17:29.128.19-May-2020 5277.61 3456.25 67.38 1.00  65.82 2760.35
   15:17:29.328.19-May-2020 5277.61 3456.19 67.38 1.00  66.02 2760.35
   15:17:29.528.19-May-2020 5277.61 3456.19 67.38 1.00  66.22 2760.35
   15:17:29.728.19-May-2020 5277.61 3456.37 67.38 1.00  66.42 2760.35
   15:17:29.928.19-May-2020 5277.61 3455.98 67.38 1.00  66.62 2760.35
   15:17:30.128.19-May-2020 5277.61 3456.72 67.38 1.00  66.82 2760.35
   15:17:30.328.19-May-2020 5277.61 3456.11 67.38 1.00  67.02 2760.35
   15:17:30.528.19-May-2020 5277.61 3456.11 67.38 1.00  67.22 2760.35
   15:17:30.728.19-May-2020 5277.61 3456.20 67.38 1.00  67.42 2760.35
   15:17:30.928.19-May-2020 5277.61 3456.17 67.38 1.00  67.62 2760.35
   15:17:31.128.19-May-2020 5277.61 3456.01 67.38 1.00  67.82 2760.35
   15:17:31.328.19-May-2020 5277.61 3455.88 67.38 1.00  68.02 2760.35
   15:17:31.528.19-May-2020 5277.61 3455.88 67.38 1.00  68.22 2760.35
   15:17:31.728.19-May-2020 5277.61 3455.65 67.38 1.00  68.42 2760.35
   15:17:31.928.19-May-2020 5277.61 3455.38 67.38 1.00  68.62 2760.35
   15:17:32.128.19-May-2020 5277.61 3455.02 67.38 1.00  68.82 2760.35
