~Version Information
 VERS.                  2.0:   CWLS log ASCII Standard -VERSION 2.0
 WRAP.                   NO:   One line per depth step
~Well Information Block
#MNEM.UNIT     VALUE/NAME     DESCRIPTION
#---------     -----------    ---------------------------
 STRT.S             03:43:00 20-May-20: START TIME 03:43:00 20-May-20
 STOP.S             03:53:08 20-May-20: STOP TIME  03:53:08 20-May-20
 STEP.S                   0.00: STEP TIME
 NULL.                 -999.25: NULL VALUE
 MDS .        Operator Entered:  MAG DATA SOURCE
 PDAT.          Mean Sea Level:  PERMANENT DATUM
 UNIT.                     N/A:  LOGGING EQUIPMENT ID
 DCON.         Sperry Drilling:  DIRECTNL CONTR
 DOE .                     N/A:  DOE NUMBER
 RIG .              East Azeri:  RIG NAME
 JOBN.        AZ-XX-0905856059:  JOB TICKET NUMB
 WELL.                     D36:  WELL NAME
 MWDS.                    Baku:  MWD SHOP
 SRVC.     Turan Drilling & Engineering:  CONTRACTOR
 FLD .                     ACG:  FIELD NAME
 CTRY.              Azerbaijan:  COUNTRY NAME
 PROV.                    Baku:  PROVINCE
 STAT.                    Baku:  STATE NAME
 REGN.                   EESSA:  REGION
 BASE.              Azerbaijan:  LOGGING EQUIPMENT BASE LOCATION
 UWI .                     N/A:  UNIQUE WELL IDENTIFIER
 API .                     N/A:  API NUMBER
 COMP.     BP Exploration (Caspian Sea) Ltd.:  COMPANY
 WTYP.                Deviated:  WELL TYPE
 SON .        AZ-XX-0905856059:  JOB NUMBER
 FTOP.          Formation Tops:  FORM TOPS DESC
 ILTD.               Lithology:  INTERP LTH DESC
 SVYD.                  Survey:  SURVEY DESC
 DMOD.             Drill Model:  DRILL MOD DESC
 HPTY.       Minimum Curvature:  HOLE POS TYPE
 NREF.                    Grid:  NORTH REFERENCE
 SPUD.               25-Feb-20:  SPUD DATE
 DATE.      08.55.28 01-May-20:  END TIME
 STIM.      08.55.28 25-Feb-20:  START TIME
 DMF .             Drill Floor:  DRILL MEAS FROM
 DFST.                        :  DIST FSL TEXT
 DFWT.                        :  DIST FWL TEXT
 CNTY.                        :  COUNTY
 LOC .                        :  LOCATION
 LMF .             Drill Floor:  LOG MEASURED FROM
 VSNS.m                   6.09:  VERT SEC N/S
 VSEW.m                 -10.79:  VERT SEC E/W
 AGAP.m                  43.60:  AIR GAP
 DEP .m                 388.24:  DEPTH
 APD .m                  43.60:  DEPTH ABOVE PD
 WDMS.m                 151.80:  WD ELEV
 EGL .m                   0.00:  GROUND ELEVATION
 EPD .m                   0.00:  ELEVATION
 AZTC.deg                 6.12:  AZM TOTAL CORR
 GRDC.deg                 0.30:  GRID CORRECTION
 MDEC.deg                 6.42:  MAGNETIC DECL
 MDIP.deg                59.42:  MAGNETIC DIP
 MFLD.nT              50256.00:  MAGNETIC FIELD
 GVFD.g                   1.00:  GRAVITY FIELD
 VSDR.deg               159.57:  VERT SEC DIRECT
 TDD .m                5000.01:  TOTAL DEPTH (DRILLER)
 SDEP.m                 397.00:  START DEPTH
 DFSL.m                   0.00:  DISTANCE FSL
 DFWL.m                   0.00:  DISTANCE FWL
 UTMY.m             4431880.20:  UTM Y
 UTMX.m              538763.98:  UTM X
 WHEW.m                 -10.79:  WELL HEAD E/W
 WHNS.m                   6.09:  WELL HEAD N/S
 LONG.deg                51.45:  LONGITUDE
 LATI.deg                40.02:  LATITUDE
 TVDS.m                  43.60:  TVDSS CORRECTN
 EKB .m                  43.60:  KB ELEVATION
 EDF .m                  43.60:  DF ELEVATION
 MAGU.                 1847640:  MAGUTM CHECKSUM
 VSC .                       0:  VS TO CLOSURE
~Parameter Information Block
#MNEM.UNIT       Value        Description
#---------     -----------    ---------------------------
 AV  .mps                 1.30:  Ann Velocity 
 AVMX.mps                 1.90:  Max Ann Veloc 
 AZIF.deg               115.68:  Azm, Final 
 BHAT.                   Other:  BHA Type 
 BROT.°/30m               0.74:  Build Rotating 
 BS  .in                  8.50:  Bit Size 
 BTPL.psig              430.00:  Bit Press Loss 
 CABU.                      No:  Customer Abuse 
 COMM.                     ÌÍk:  Run Comments 1 
 TCS .hr                 51.31:  Time Ciculation Ended 
 CV  .mps                 2.52:  Crit Velocity 
 CVMX.mps                 2.62:  Max Crit Veloc 
 DD1 .          Teymur Aghayev:  Direct Drillr 1 
 DDSV.                   Other:  DD Service 
 DEFF.%                 100.00:  % Det Eff 
 DLRX.°/30m               1.62:  Dogleg Rot Max 
 DLSO.°/30m               0.74:  Dogleg Oriented 
 DLSX.°/30m               1.62:  Dogleg Str Max 
 DRET.      04.30.56 18-May-20:  Drill End Time 
 DRST.      04.30.56 18-May-20:  Drill Start Tim 
 DTIM.hr                  0.00:  Time Drilling 
 EDEP.m                5337.01:  End Depth 
 ENG1.      Artemiy Matviyanov:  Engineer 1 
 ENG2.      Bakhtiyar Jabbarli:  Engineer 2 
 ENG3.           Emil Huseynov:  Engineer 3 
 ETIM.      18.40.00 22-May-20:  End Time 
 FLOI.gpm               550.00:  Flow In 
 FLON.gpm               350.00:  Flow In Min 
 FLOS.cptm                0.00:  Fluid Loss 
 FLOX.gpm               600.00:  Flow In Max 
 HFLO.                      No:  High Flow 
 HPRE.                      No:  High Pressure 
 HTEM.                      No:  High Temp 
 HYDO.m                   1.80:  Hydro Offset 
 IFIN.deg                67.01:  Inc, Final 
 IMAX.deg                67.49:  Inc Max 
 IMIN.deg                66.50:  Inc Min 
 IMND.m                5144.79:  Inc Min Depth 
 IMXD.m                5116.12:  Inc Max Depth 
 JARR.                      No:  Jarring 
 LETM.      17.55.56 20-May-20:  Log End Time 
 LOST.hr                     0:  Lost Rig Time 
 LSTM.      04.30.56 18-May-20:  Log Start Time 
 MDCL.ppm            193153.00:  Mud Chlorides 
 MDES.     Inversion Oil/Synthetic:  Mud Desc 
 DFD .sg                  1.40:  Mud Density 
 MDMN.sg                  1.40:  Dens Mud Min 
 MDMX.sg                  1.41:  Dens Mud Max 
 MOIL.                      68:  Run Mud Oil % 
 MOWR.                   68:32:  Run Mud OWR 
 MSND.                     0.2:  Run Mud Sand % 
 MSOL.                    18.8:  Run Mud Solids% 
 DFV .spqt               80.00:  Mud Viscosity 
 MWOD.in                  6.75:  MWD Tool OD 
 MWSI.                      No:  Serv Intrp, MWD 
 OTIM.hr                104.84:  Time Operating 
 PMAX.psia            10690.93:  Press Op, Max 
 PV  .cP                 26.00:  Mud PV 
 RUN .                     900:  Run Number 
 ROPA.m/hr                0.00:  ROP Avg 
 ROPN.m/hr                0.00:  ROP Min 
 ROPX.m/hr                0.00:  ROP Max 
 RPMA.rpm               140.00:  RPM Surface Avg 
 RPMN.rpm                70.00:  RPM Surface Min 
 RPMX.rpm               140.00:  RPM Surface Max 
 RRUN.                    0900:  Rig Run Number 
 RTIM.hr                 36.00:  Time Reaming 
 SAZI.deg               115.72:  Azm, Start 
 SDEP.m                5337.01:  Start Depth 
 SIDD.                      No:  Serv Intrp, DD 
 SINC.deg                66.92:  Inc, Start 
 SPPA.psig             4400.00:  SPP Avg 
 SPPN.psig             1135.00:  SPP Min 
 SPPX.psig             4581.00:  SPP Max 
 STIM.      04.30.56 18-May-20:  Start Time 
 SVCS.                     MWD:  Services 
 SVER.                    9.20:  Sperry Version 
 TDAT.m                5337.01:  Tot Depth Attmp 
 TDDF.                      No:  Trip for DD 
 TFF .                      No:  Trip for Fail 
 TQAA.f-kp               23.00:  Torque Abs Avg 
 TQAN.f-kp               18.00:  Torque Abs Min 
 TQAX.f-kp               25.00:  Torque Abs Max 
 TRRT.°/30m               0.74:  Turn Rotating 
 MRT .                    HCIM:  Maximum Recorded Temperature 
 TTMX.degC               76.47:  Max Tool Temp 
 WBMN.klb                 0.00:  WOB Min 
 WITN.             Anar Khalil:  Customer Rep 
 WITN.      Kamran Keberlinski:  Customer Rep 2 
 WOBA.klb                 0.00:  WOB Avg 
 WOBX.klb                 0.00:  WOB Max 
 YP  .lhf2               27.00:  Yield Point 
~Curve Information Block
#MNEM.UNIT                 API CODE     Curve Description
#---------               -----------    ---------------------------
 TIME.HHMMSS            00 000 000 000:  GT Time & Date
 GTDEPTH.m              00 000 000 000:  GT Depth
 GTPQH.psia             00 000 000 000:  GT HR Quartz Pressure
 GTTQ.degC              00 000 000 000:  GT Quartz Temperature
 GTTN.NONE              00 000 000 000:  GT Test Number
 GTET.sec               00 000 000 000:  GT Elapsed Test Time
 GTTVD.m                00 000 000 000:  GT True Vertical Depth
#Other Information
#
#WARRANTY: Halliburton will use its best efforts to furnish customers with 
#accurate information and interpretations that are part of, and incident to, the services 
#provided.  However, Halliburton cannot and does not warrant the accuracy 
#or correctness of such information and interpretations.  Under no circumstances should any 
#such information or interpretation be relied upon as the sole basis for any drilling, 
#completion, production, or financial decision or any procedure involving any risk to the 
#safety of any drilling venture, drilling rig or its crew or any other third party.  The 
#Customer has full responsibility for all drilling, completion and production operation.  
#Halliburton makes no representations or warranties, either expressed or 
#implied, including, but not limited to, the implied warranties of merchantability or fitness 
#for a particular purpose, with respect to the services rendered.  In no event will 
#Halliburton be liable for failure to obtain any particular results or for 
#any damages, including, but not limited to, indirect, special or consequential damages, 
#resulting from the use of any information or interpretation provided by Halliburton.
#
~A           TIME           GTDEPTH  GTPQH  GTTQ  GTTN  GTET   GTTVD  
   03:43:00.896.20-May-2020 5064.01 6322.77 69.10 8.00   0.00 2676.56
   03:43:01.096.20-May-2020 5064.01 6322.77 69.10 8.00   0.20 2676.56
   03:43:01.296.20-May-2020 5064.01 6319.05 69.10 8.00   0.40 2676.56
   03:43:01.496.20-May-2020 5064.01 6320.53 69.10 8.00   0.60 2676.56
   03:43:01.696.20-May-2020 5064.01 6321.54 69.10 8.00   0.80 2676.56
   03:43:01.896.20-May-2020 5064.01 6325.51 69.10 8.00   1.00 2676.56
   03:43:02.096.20-May-2020 5064.01 6325.51 69.10 8.00   1.20 2676.56
   03:43:02.296.20-May-2020 5064.01 6320.37 69.10 8.00   1.40 2676.56
   03:43:02.496.20-May-2020 5064.01 6322.48 69.10 8.00   1.60 2676.56
   03:43:02.697.20-May-2020 5064.01 6322.73 69.10 8.00   1.80 2676.56
   03:43:02.897.20-May-2020 5064.01 6322.37 69.10 8.00   2.00 2676.56
   03:43:03.097.20-May-2020 5064.01 6322.37 69.10 8.00   2.20 2676.56
   03:43:03.297.20-May-2020 5064.01 6322.72 69.10 8.00   2.40 2676.56
   03:43:03.497.20-May-2020 5064.01 6323.57 69.10 8.00   2.60 2676.56
   03:43:03.697.20-May-2020 5064.01 6323.92 69.10 8.00   2.80 2676.56
   03:43:03.897.20-May-2020 5064.01 6328.89 69.10 8.00   3.00 2676.56
   03:43:04.097.20-May-2020 5064.01 6328.89 69.10 8.00   3.20 2676.56
   03:43:04.297.20-May-2020 5064.01 6325.55 69.10 8.00   3.40 2676.56
   03:43:04.497.20-May-2020 5064.01 6327.32 69.10 8.00   3.60 2676.56
   03:43:04.697.20-May-2020 5064.01 6328.87 69.10 8.00   3.80 2676.56
   03:43:04.897.20-May-2020 5064.01 6332.81 69.10 8.00   4.00 2676.56
   03:43:05.097.20-May-2020 5064.01 6332.81 69.10 8.00   4.20 2676.56
   03:43:05.297.20-May-2020 5064.01 6329.87 69.10 8.00   4.40 2676.56
   03:43:05.497.20-May-2020 5064.01 6331.28 69.10 8.00   4.60 2676.56
   03:43:05.697.20-May-2020 5064.01 6331.37 69.10 8.00   4.80 2676.56
   03:43:05.897.20-May-2020 5064.01 6331.35 69.10 8.00   5.00 2676.56
   03:43:06.097.20-May-2020 5064.01 6331.35 69.10 8.00   5.20 2676.56
   03:43:06.298.20-May-2020 5064.01 6332.55 69.10 8.00   5.40 2676.56
   03:43:06.498.20-May-2020 5064.01 6332.58 69.10 8.00   5.60 2676.56
   03:43:06.698.20-May-2020 5064.01 6332.84 69.10 8.00   5.80 2676.56
   03:43:06.898.20-May-2020 5064.01 6334.13 69.10 8.00   6.00 2676.56
   03:43:07.098.20-May-2020 5064.01 6337.63 69.10 8.00   6.20 2676.56
   03:43:07.298.20-May-2020 5064.01 6333.80 69.10 8.00   6.40 2676.56
   03:43:07.498.20-May-2020 5064.01 6335.22 69.10 8.00   6.60 2676.56
   03:43:07.698.20-May-2020 5064.01 6335.28 69.10 8.00   6.80 2676.56
   03:43:07.898.20-May-2020 5064.01 6340.48 69.10 8.00   7.00 2676.56
   03:43:08.098.20-May-2020 5064.01 6340.48 69.10 8.00   7.20 2676.56
   03:43:08.298.20-May-2020 5064.01 6335.91 69.10 8.00   7.40 2676.56
   03:43:08.498.20-May-2020 5064.01 6337.81 69.10 8.00   7.60 2676.56
   03:43:08.698.20-May-2020 5064.01 6338.20 69.10 8.00   7.80 2676.56
   03:43:08.898.20-May-2020 5064.01 6342.01 69.10 8.00   8.00 2676.56
   03:43:09.098.20-May-2020 5064.01 6342.01 69.10 8.00   8.20 2676.56
   03:43:09.298.20-May-2020 5064.01 6342.01 69.10 8.00   8.40 2676.56
   03:43:09.498.20-May-2020 5064.01 6342.44 69.10 8.00   8.60 2676.56
   03:43:09.698.20-May-2020 5064.01 6343.26 69.10 8.00   8.80 2676.56
   03:43:09.899.20-May-2020 5064.01 6340.33 69.10 8.00   9.00 2676.56
   03:43:10.099.20-May-2020 5064.01 6340.33 69.10 8.00   9.20 2676.56
   03:43:10.299.20-May-2020 5064.01 6346.33 69.10 8.00   9.40 2676.56
   03:43:10.499.20-May-2020 5064.01 6342.69 69.10 8.00   9.60 2676.56
   03:43:10.699.20-May-2020 5064.01 6341.72 69.10 8.00   9.80 2676.56
   03:43:10.899.20-May-2020 5064.01 6343.16 69.10 8.00  10.00 2676.56
   03:43:11.099.20-May-2020 5064.01 6343.16 69.10 8.00  10.20 2676.56
   03:43:11.299.20-May-2020 5064.01 6343.75 69.10 8.00  10.40 2676.56
   03:43:11.499.20-May-2020 5064.01 6344.22 69.10 8.00  10.60 2676.56
   03:43:11.699.20-May-2020 5064.01 6344.67 69.10 8.00  10.80 2676.56
   03:43:11.899.20-May-2020 5064.01 6350.56 69.09 8.00  11.00 2676.56
   03:43:12.099.20-May-2020 5064.01 6350.56 69.09 8.00  11.20 2676.56
   03:43:12.299.20-May-2020 5064.01 6345.43 69.09 8.00  11.40 2676.56
   03:43:12.499.20-May-2020 5064.01 6347.37 69.09 8.00  11.60 2676.56
   03:43:12.699.20-May-2020 5064.01 6347.91 69.09 8.00  11.80 2676.56
   03:43:12.899.20-May-2020 5064.01 6347.53 69.09 8.00  12.00 2676.56
   03:43:13.099.20-May-2020 5064.01 6347.53 69.09 8.00  12.20 2676.56
   03:43:13.300.20-May-2020 5064.01 6347.69 69.09 8.00  12.40 2676.56
   03:43:13.500.20-May-2020 5064.01 6348.36 69.09 8.00  12.60 2676.56
   03:43:13.700.20-May-2020 5064.01 6348.15 69.09 8.00  12.80 2676.56
   03:43:13.900.20-May-2020 5064.01 6349.05 69.09 8.00  13.00 2676.56
   03:43:14.100.20-May-2020 5064.01 6349.05 69.09 8.00  13.20 2676.56
   03:43:14.300.20-May-2020 5064.01 6349.15 69.09 8.00  13.40 2676.56
   03:43:14.500.20-May-2020 5064.01 6353.75 69.09 8.00  13.60 2676.56
   03:43:14.700.20-May-2020 5064.01 6350.53 69.09 8.00  13.80 2676.56
   03:43:14.900.20-May-2020 5064.01 6350.60 69.09 8.00  14.00 2676.56
   03:43:15.100.20-May-2020 5064.01 6350.60 69.09 8.00  14.20 2676.56
   03:43:15.300.20-May-2020 5064.01 6352.35 69.09 8.00  14.40 2676.56
   03:43:15.500.20-May-2020 5064.01 6351.78 69.09 8.00  14.60 2676.56
   03:43:15.700.20-May-2020 5064.01 6351.65 69.09 8.00  14.80 2676.56
   03:43:15.900.20-May-2020 5064.01 6352.71 69.09 8.00  15.00 2676.56
   03:43:16.100.20-May-2020 5064.01 6352.71 69.09 8.00  15.20 2676.56
   03:43:16.300.20-May-2020 5064.01 6353.09 69.09 8.00  15.40 2676.56
   03:43:16.500.20-May-2020 5064.01 6353.64 69.09 8.00  15.60 2676.56
   03:43:16.700.20-May-2020 5064.01 6353.62 69.09 8.00  15.80 2676.56
   03:43:16.901.20-May-2020 5064.01 6354.31 69.09 8.00  16.00 2676.56
   03:43:17.101.20-May-2020 5064.01 6354.31 69.09 8.00  16.20 2676.56
   03:43:17.301.20-May-2020 5064.01 6354.02 69.09 8.00  16.40 2676.56
   03:43:17.501.20-May-2020 5064.01 6358.81 69.09 8.00  16.60 2676.56
   03:43:17.701.20-May-2020 5064.01 6355.62 69.09 8.00  16.80 2676.56
   03:43:17.901.20-May-2020 5064.01 6355.55 69.09 8.00  17.00 2676.56
   03:43:18.101.20-May-2020 5064.01 6355.55 69.09 8.00  17.20 2676.56
   03:43:18.301.20-May-2020 5064.01 6359.97 69.09 8.00  17.40 2676.56
   03:43:18.501.20-May-2020 5064.01 6359.37 69.09 8.00  17.60 2676.56
   03:43:18.701.20-May-2020 5064.01 6355.80 69.09 8.00  17.81 2676.56
   03:43:18.901.20-May-2020 5064.01 6357.91 69.09 8.00  18.01 2676.56
   03:43:19.101.20-May-2020 5064.01 6357.91 69.09 8.00  18.21 2676.56
   03:43:19.301.20-May-2020 5064.01 6359.15 69.09 8.00  18.41 2676.56
   03:43:19.501.20-May-2020 5064.01 6358.30 69.09 8.00  18.61 2676.56
   03:43:19.701.20-May-2020 5064.01 6359.37 69.09 8.00  18.81 2676.56
   03:43:19.901.20-May-2020 5064.01 6365.94 69.09 8.00  19.01 2676.56
   03:43:20.101.20-May-2020 5064.01 6365.94 69.09 8.00  19.21 2676.56
   03:43:20.301.20-May-2020 5064.01 6359.64 69.09 8.00  19.41 2676.56
   03:43:20.502.20-May-2020 5064.01 6361.96 69.09 8.00  19.61 2676.56
   03:43:20.702.20-May-2020 5064.01 6366.88 69.09 8.00  19.81 2676.56
   03:43:20.902.20-May-2020 5064.01 6362.36 69.09 8.00  20.01 2676.56
   03:43:21.102.20-May-2020 5064.01 6362.36 69.09 8.00  20.21 2676.56
   03:43:21.302.20-May-2020 5064.01 6363.63 69.09 8.00  20.41 2676.56
   03:43:21.502.20-May-2020 5064.01 6364.24 69.09 8.00  20.61 2676.56
   03:43:21.702.20-May-2020 5064.01 6362.74 69.09 8.00  20.81 2676.56
   03:43:21.902.20-May-2020 5064.01 6363.66 69.09 8.00  21.01 2676.56
   03:43:22.102.20-May-2020 5064.01 6363.66 69.09 8.00  21.21 2676.56
   03:43:22.302.20-May-2020 5064.01 6364.22 69.09 8.00  21.41 2676.56
   03:43:22.502.20-May-2020 5064.01 6364.66 69.09 8.00  21.61 2676.56
   03:43:22.702.20-May-2020 5064.01 6364.37 69.09 8.00  21.81 2676.56
   03:43:22.902.20-May-2020 5064.01 6365.29 69.09 8.00  22.01 2676.56
   03:43:23.102.20-May-2020 5064.01 6365.29 69.09 8.00  22.21 2676.56
   03:43:23.302.20-May-2020 5064.01 6365.49 69.09 8.00  22.41 2676.56
   03:43:23.502.20-May-2020 5064.01 6365.97 69.09 8.00  22.61 2676.56
   03:43:23.702.20-May-2020 5064.01 6369.90 69.09 8.00  22.81 2676.56
