~Version Information
 VERS.                  2.0:   CWLS log ASCII Standard -VERSION 2.0
 WRAP.                   NO:   One line per depth step
~Well Information Block
#MNEM.UNIT     VALUE/NAME     DESCRIPTION
#---------     -----------    ---------------------------
 STRT.S             15:16:23 19-May-20: START TIME 15:16:23 19-May-20
 STOP.S             15:23:31 19-May-20: STOP TIME  15:23:31 19-May-20
 STEP.S                   0.00: STEP TIME
 NULL.                 -999.25: NULL VALUE
 MDS .        Operator Entered:  MAG DATA SOURCE
 PDAT.          Mean Sea Level:  PERMANENT DATUM
 UNIT.                     N/A:  LOGGING EQUIPMENT ID
 DCON.         Sperry Drilling:  DIRECTNL CONTR
 DOE .                     N/A:  DOE NUMBER
 RIG .              East Azeri:  RIG NAME
 JOBN.        AZ-XX-0905856059:  JOB TICKET NUMB
 WELL.                     D36:  WELL NAME
 MWDS.                    Baku:  MWD SHOP
 SRVC.     Turan Drilling & Engineering:  CONTRACTOR
 FLD .                     ACG:  FIELD NAME
 CTRY.              Azerbaijan:  COUNTRY NAME
 PROV.                    Baku:  PROVINCE
 STAT.                    Baku:  STATE NAME
 REGN.                   EESSA:  REGION
 BASE.              Azerbaijan:  LOGGING EQUIPMENT BASE LOCATION
 UWI .                     N/A:  UNIQUE WELL IDENTIFIER
 API .                     N/A:  API NUMBER
 COMP.     BP Exploration (Caspian Sea) Ltd.:  COMPANY
 WTYP.                Deviated:  WELL TYPE
 SON .        AZ-XX-0905856059:  JOB NUMBER
 FTOP.          Formation Tops:  FORM TOPS DESC
 ILTD.               Lithology:  INTERP LTH DESC
 SVYD.                  Survey:  SURVEY DESC
 DMOD.             Drill Model:  DRILL MOD DESC
 HPTY.       Minimum Curvature:  HOLE POS TYPE
 NREF.                    Grid:  NORTH REFERENCE
 SPUD.               25-Feb-20:  SPUD DATE
 DATE.      08.55.28 01-May-20:  END TIME
 STIM.      08.55.28 25-Feb-20:  START TIME
 DMF .             Drill Floor:  DRILL MEAS FROM
 DFST.                        :  DIST FSL TEXT
 DFWT.                        :  DIST FWL TEXT
 CNTY.                        :  COUNTY
 LOC .                        :  LOCATION
 LMF .             Drill Floor:  LOG MEASURED FROM
 VSNS.m                   6.09:  VERT SEC N/S
 VSEW.m                 -10.79:  VERT SEC E/W
 AGAP.m                  43.60:  AIR GAP
 DEP .m                 388.24:  DEPTH
 APD .m                  43.60:  DEPTH ABOVE PD
 WDMS.m                 151.80:  WD ELEV
 EGL .m                   0.00:  GROUND ELEVATION
 EPD .m                   0.00:  ELEVATION
 AZTC.deg                 6.12:  AZM TOTAL CORR
 GRDC.deg                 0.30:  GRID CORRECTION
 MDEC.deg                 6.42:  MAGNETIC DECL
 MDIP.deg                59.42:  MAGNETIC DIP
 MFLD.nT              50256.00:  MAGNETIC FIELD
 GVFD.g                   1.00:  GRAVITY FIELD
 VSDR.deg               159.57:  VERT SEC DIRECT
 TDD .m                5000.01:  TOTAL DEPTH (DRILLER)
 SDEP.m                 397.00:  START DEPTH
 DFSL.m                   0.00:  DISTANCE FSL
 DFWL.m                   0.00:  DISTANCE FWL
 UTMY.m             4431880.20:  UTM Y
 UTMX.m              538763.98:  UTM X
 WHEW.m                 -10.79:  WELL HEAD E/W
 WHNS.m                   6.09:  WELL HEAD N/S
 LONG.deg                51.45:  LONGITUDE
 LATI.deg                40.02:  LATITUDE
 TVDS.m                  43.60:  TVDSS CORRECTN
 EKB .m                  43.60:  KB ELEVATION
 EDF .m                  43.60:  DF ELEVATION
 MAGU.                 1847640:  MAGUTM CHECKSUM
 VSC .                       0:  VS TO CLOSURE
~Parameter Information Block
#MNEM.UNIT       Value        Description
#---------     -----------    ---------------------------
 AV  .mps                 1.30:  Ann Velocity 
 AVMX.mps                 1.90:  Max Ann Veloc 
 AZIF.deg               115.68:  Azm, Final 
 BHAT.                   Other:  BHA Type 
 BROT.°/30m               0.74:  Build Rotating 
 BS  .in                  8.50:  Bit Size 
 BTPL.psig              430.00:  Bit Press Loss 
 CABU.                      No:  Customer Abuse 
 TCS .hr                 51.31:  Time Ciculation Ended 
 CV  .mps                 2.52:  Crit Velocity 
 CVMX.mps                 2.62:  Max Crit Veloc 
 DD1 .          Teymur Aghayev:  Direct Drillr 1 
 DDSV.                   Other:  DD Service 
 DEFF.%                 100.00:  % Det Eff 
 DLRX.°/30m               1.62:  Dogleg Rot Max 
 DLSO.°/30m               0.74:  Dogleg Oriented 
 DLSX.°/30m               1.62:  Dogleg Str Max 
 DRET.      04.30.56 18-May-20:  Drill End Time 
 DRST.      04.30.56 18-May-20:  Drill Start Tim 
 DTIM.hr                  0.00:  Time Drilling 
 EDEP.m                5337.01:  End Depth 
 ENG1.      Artemiy Matviyanov:  Engineer 1 
 ENG2.      Bakhtiyar Jabbarli:  Engineer 2 
 ENG3.           Emil Huseynov:  Engineer 3 
 ETIM.      18.40.00 22-May-20:  End Time 
 FLOI.gpm               550.00:  Flow In 
 FLON.gpm               350.00:  Flow In Min 
 FLOS.cptm                0.00:  Fluid Loss 
 FLOX.gpm               600.00:  Flow In Max 
 HFLO.                      No:  High Flow 
 HPRE.                      No:  High Pressure 
 HTEM.                      No:  High Temp 
 HYDO.m                   1.80:  Hydro Offset 
 IFIN.deg                67.01:  Inc, Final 
 IMAX.deg                67.49:  Inc Max 
 IMIN.deg                66.50:  Inc Min 
 IMND.m                5144.79:  Inc Min Depth 
 IMXD.m                5116.12:  Inc Max Depth 
 JARR.                      No:  Jarring 
 LETM.      17.55.56 20-May-20:  Log End Time 
 LOST.hr                     0:  Lost Rig Time 
 LSTM.      04.30.56 18-May-20:  Log Start Time 
 MDCL.ppm            193153.00:  Mud Chlorides 
 MDES.     Inversion Oil/Synthetic:  Mud Desc 
 DFD .sg                  1.40:  Mud Density 
 MDMN.sg                  1.40:  Dens Mud Min 
 MDMX.sg                  1.41:  Dens Mud Max 
 MOIL.                      68:  Run Mud Oil % 
 MOWR.                   68:32:  Run Mud OWR 
 MSND.                     0.2:  Run Mud Sand % 
 MSOL.                    18.8:  Run Mud Solids% 
 DFV .spqt               80.00:  Mud Viscosity 
 MWOD.in                  6.75:  MWD Tool OD 
 MWSI.                      No:  Serv Intrp, MWD 
 OTIM.hr                104.84:  Time Operating 
 PMAX.psia            10690.93:  Press Op, Max 
 PV  .cP                 26.00:  Mud PV 
 RUN .                     900:  Run Number 
 ROPA.m/hr                0.00:  ROP Avg 
 ROPN.m/hr                0.00:  ROP Min 
 ROPX.m/hr                0.00:  ROP Max 
 RPMA.rpm               140.00:  RPM Surface Avg 
 RPMN.rpm                70.00:  RPM Surface Min 
 RPMX.rpm               140.00:  RPM Surface Max 
 RRUN.                    0900:  Rig Run Number 
 RTIM.hr                 36.00:  Time Reaming 
 SAZI.deg               115.72:  Azm, Start 
 SDEP.m                5337.01:  Start Depth 
 SIDD.                      No:  Serv Intrp, DD 
 SINC.deg                66.92:  Inc, Start 
 SPPA.psig             4400.00:  SPP Avg 
 SPPN.psig             1135.00:  SPP Min 
 SPPX.psig             4581.00:  SPP Max 
 STIM.      04.30.56 18-May-20:  Start Time 
 SVCS.                     MWD:  Services 
 SVER.                    9.20:  Sperry Version 
 TDAT.m                5337.01:  Tot Depth Attmp 
 TDDF.                      No:  Trip for DD 
 TFF .                      No:  Trip for Fail 
 TQAA.f-kp               23.00:  Torque Abs Avg 
 TQAN.f-kp               18.00:  Torque Abs Min 
 TQAX.f-kp               25.00:  Torque Abs Max 
 TRRT.°/30m               0.74:  Turn Rotating 
 MRT .                    HCIM:  Maximum Recorded Temperature 
 TTMX.degC               76.47:  Max Tool Temp 
 WBMN.klb                 0.00:  WOB Min 
 WITN.             Anar Khalil:  Customer Rep 
 WITN.      Kamran Keberlinski:  Customer Rep 2 
 WOBA.klb                 0.00:  WOB Avg 
 WOBX.klb                 0.00:  WOB Max 
 YP  .lhf2               27.00:  Yield Point 
~Curve Information Block
#MNEM.UNIT                 API CODE     Curve Description
#---------               -----------    ---------------------------
 TIME.HHMMSS            00 000 000 000:  GT Time & Date
 GTDEPTH.m              00 000 000 000:  GT Depth
 GTPQH.psia             00 000 000 000:  GT HR Quartz Pressure
 GTTQ.degC              00 000 000 000:  GT Quartz Temperature
 GTTN.NONE              00 000 000 000:  GT Test Number
 GTET.sec               00 000 000 000:  GT Elapsed Test Time
 GTTVD.m                00 000 000 000:  GT True Vertical Depth
#Other Information
#
#WARRANTY: Halliburton will use its best efforts to furnish customers with 
#accurate information and interpretations that are part of, and incident to, the services 
#provided.  However, Halliburton cannot and does not warrant the accuracy 
#or correctness of such information and interpretations.  Under no circumstances should any 
#such information or interpretation be relied upon as the sole basis for any drilling, 
#completion, production, or financial decision or any procedure involving any risk to the 
#safety of any drilling venture, drilling rig or its crew or any other third party.  The 
#Customer has full responsibility for all drilling, completion and production operation.  
#Halliburton makes no representations or warranties, either expressed or 
#implied, including, but not limited to, the implied warranties of merchantability or fitness 
#for a particular purpose, with respect to the services rendered.  In no event will 
#Halliburton be liable for failure to obtain any particular results or for 
#any damages, including, but not limited to, indirect, special or consequential damages, 
#resulting from the use of any information or interpretation provided by Halliburton.
#
~A           TIME           GTDEPTH  GTPQH  GTTQ  GTTN  GTET   GTTVD  
# ...
   15:23:17.410.19-May-2020 5277.61 6652.22 67.53 1.00 414.10 2760.35
   15:23:17.610.19-May-2020 5277.61 6652.22 67.53 1.00 414.30 2760.35
   15:23:17.810.19-May-2020 5277.61 6655.63 67.53 1.00 414.50 2760.35
   15:23:18.010.19-May-2020 5277.61 6651.85 67.53 1.00 414.70 2760.35
   15:23:18.210.19-May-2020 5277.61 6653.08 67.53 1.00 414.90 2760.35
   15:23:18.411.19-May-2020 5277.61 6652.44 67.53 1.00 415.10 2760.35
   15:23:18.611.19-May-2020 5277.61 6652.44 67.53 1.00 415.30 2760.35
   15:23:18.811.19-May-2020 5277.61 6654.88 67.53 1.00 415.50 2760.35
   15:23:19.011.19-May-2020 5277.61 6656.86 67.53 1.00 415.70 2760.35
   15:23:19.211.19-May-2020 5277.61 6652.43 67.53 1.00 415.90 2760.35
   15:23:19.411.19-May-2020 5277.61 6651.32 67.53 1.00 416.10 2760.35
   15:23:19.611.19-May-2020 5277.61 6652.88 67.53 1.00 416.30 2760.35
   15:23:19.811.19-May-2020 5277.61 6653.41 67.53 1.00 416.50 2760.35
   15:23:20.011.19-May-2020 5277.61 6653.39 67.53 1.00 416.70 2760.35
   15:23:20.211.19-May-2020 5277.61 6655.71 67.53 1.00 416.90 2760.35
   15:23:20.411.19-May-2020 5277.61 6655.86 67.53 1.00 417.10 2760.35
   15:23:20.611.19-May-2020 5277.61 6655.86 67.53 1.00 417.30 2760.35
   15:23:20.811.19-May-2020 5277.61 6652.22 67.53 1.00 417.50 2760.35
   15:23:21.011.19-May-2020 5277.61 6658.56 67.53 1.00 417.70 2760.35
   15:23:21.211.19-May-2020 5277.61 6656.16 67.53 1.00 417.90 2760.35
   15:23:21.411.19-May-2020 5277.61 6652.47 67.53 1.00 418.10 2760.35
   15:23:21.611.19-May-2020 5277.61 6652.50 67.53 1.00 418.30 2760.35
   15:23:21.811.19-May-2020 5277.61 6653.94 67.53 1.00 418.50 2760.35
   15:23:22.011.19-May-2020 5277.61 6653.23 67.53 1.00 418.70 2760.35
   15:23:22.211.19-May-2020 5277.61 6652.44 67.52 1.00 418.90 2760.35
   15:23:22.411.19-May-2020 5277.61 6652.04 67.53 1.00 419.10 2760.35
   15:23:22.612.19-May-2020 5277.61 6652.69 67.52 1.00 419.30 2760.35
   15:23:22.812.19-May-2020 5277.61 6652.53 67.52 1.00 419.50 2760.35
   15:23:23.012.19-May-2020 5277.61 6651.49 67.52 1.00 419.70 2760.35
   15:23:23.212.19-May-2020 5277.61 6652.13 67.52 1.00 419.90 2760.35
   15:23:23.412.19-May-2020 5277.61 6651.78 67.52 1.00 420.10 2760.35
   15:23:23.612.19-May-2020 5277.61 6651.78 67.52 1.00 420.30 2760.35
   15:23:23.812.19-May-2020 5277.61 6651.29 67.52 1.00 420.50 2760.35
   15:23:24.012.19-May-2020 5277.61 6655.08 67.52 1.00 420.70 2760.35
   15:23:24.212.19-May-2020 5277.61 6656.03 67.52 1.00 420.90 2760.35
   15:23:24.412.19-May-2020 5277.61 6652.23 67.52 1.00 421.10 2760.35
   15:23:24.612.19-May-2020 5277.61 6652.23 67.52 1.00 421.30 2760.35
   15:23:24.812.19-May-2020 5277.61 6652.63 67.52 1.00 421.50 2760.35
   15:23:25.012.19-May-2020 5277.61 6658.11 67.52 1.00 421.70 2760.35
   15:23:25.212.19-May-2020 5277.61 6655.32 67.52 1.00 421.90 2760.35
   15:23:25.412.19-May-2020 5277.61 6653.17 67.52 1.00 422.10 2760.35
   15:23:25.612.19-May-2020 5277.61 6653.17 67.52 1.00 422.30 2760.35
   15:23:25.812.19-May-2020 5277.61 6653.98 67.52 1.00 422.50 2760.35
   15:23:26.012.19-May-2020 5277.61 6653.63 67.52 1.00 422.70 2760.35
   15:23:26.212.19-May-2020 5277.61 6652.93 67.52 1.00 422.90 2760.35
   15:23:26.412.19-May-2020 5277.61 6657.68 67.52 1.00 423.10 2760.35
   15:23:26.612.19-May-2020 5277.61 6657.68 67.52 1.00 423.30 2760.35
   15:23:26.813.19-May-2020 5277.61 6652.93 67.52 1.00 423.50 2760.35
   15:23:27.013.19-May-2020 5277.61 6651.88 67.52 1.00 423.70 2760.35
   15:23:27.213.19-May-2020 5277.61 6654.19 67.52 1.00 423.90 2760.35
   15:23:27.413.19-May-2020 5277.61 6652.92 67.52 1.00 424.10 2760.35
   15:23:27.613.19-May-2020 5277.61 6656.69 67.52 1.00 424.30 2760.35
   15:23:27.813.19-May-2020 5277.61 6656.18 67.52 1.00 424.50 2760.35
   15:23:28.013.19-May-2020 5277.61 6652.67 67.52 1.00 424.70 2760.35
   15:23:28.213.19-May-2020 5277.61 6653.17 67.52 1.00 424.90 2760.35
   15:23:28.413.19-May-2020 5277.61 6654.91 67.52 1.00 425.10 2760.35
   15:23:28.613.19-May-2020 5277.61 6654.91 67.52 1.00 425.30 2760.35
   15:23:28.813.19-May-2020 5277.61 6652.83 67.52 1.00 425.50 2760.35
   15:23:29.013.19-May-2020 5277.61 6651.50 67.52 1.00 425.70 2760.35
   15:23:29.213.19-May-2020 5277.61 6653.22 67.52 1.00 425.90 2760.35
   15:23:29.413.19-May-2020 5277.61 6654.14 67.52 1.00 426.10 2760.35
   15:23:29.613.19-May-2020 5277.61 6654.14 67.52 1.00 426.30 2760.35
   15:23:29.813.19-May-2020 5277.61 6651.52 67.52 1.00 426.50 2760.35
   15:23:30.013.19-May-2020 5277.61 6652.77 67.52 1.00 426.70 2760.35
   15:23:30.213.19-May-2020 5277.61 6651.74 67.52 1.00 426.90 2760.35
   15:23:30.413.19-May-2020 5277.61 6652.29 67.52 1.00 427.10 2760.35
   15:23:30.613.19-May-2020 5277.61 6652.29 67.52 1.00 427.30 2760.35
   15:23:30.813.19-May-2020 5277.61 6652.05 67.52 1.00 427.50 2760.35
   15:23:31.014.19-May-2020 5277.61 6652.05 67.52 1.00 427.70 2760.35
   15:23:31.214.19-May-2020 5277.61 6651.78 67.52 1.00 427.90 2760.35
