~Version Information
 VERS.                  2.0:   CWLS log ASCII Standard -VERSION 2.0
 WRAP.                   NO:   One line per depth step
~Well Information Block
#MNEM.UNIT     VALUE/NAME     DESCRIPTION
#---------     -----------    ---------------------------
 STRT.S             00:06:39 20-May-20: START TIME 00:06:39 20-May-20
 STOP.S             00:17:12 20-May-20: STOP TIME  00:17:12 20-May-20
 STEP.S                   0.00: STEP TIME
 NULL.                 -999.25: NULL VALUE
 MDS .        Operator Entered:  MAG DATA SOURCE
 PDAT.          Mean Sea Level:  PERMANENT DATUM
 UNIT.                     N/A:  LOGGING EQUIPMENT ID
 DCON.         Sperry Drilling:  DIRECTNL CONTR
 DOE .                     N/A:  DOE NUMBER
 RIG .              East Azeri:  RIG NAME
 JOBN.        AZ-XX-0905856059:  JOB TICKET NUMB
 WELL.                     D36:  WELL NAME
 MWDS.                    Baku:  MWD SHOP
 SRVC.     Turan Drilling & Engineering:  CONTRACTOR
 FLD .                     ACG:  FIELD NAME
 CTRY.              Azerbaijan:  COUNTRY NAME
 PROV.                    Baku:  PROVINCE
 STAT.                    Baku:  STATE NAME
 REGN.                   EESSA:  REGION
 BASE.              Azerbaijan:  LOGGING EQUIPMENT BASE LOCATION
 UWI .                     N/A:  UNIQUE WELL IDENTIFIER
 API .                     N/A:  API NUMBER
 COMP.     BP Exploration (Caspian Sea) Ltd.:  COMPANY
 WTYP.                Deviated:  WELL TYPE
 SON .        AZ-XX-0905856059:  JOB NUMBER
 FTOP.          Formation Tops:  FORM TOPS DESC
 ILTD.               Lithology:  INTERP LTH DESC
 SVYD.                  Survey:  SURVEY DESC
 DMOD.             Drill Model:  DRILL MOD DESC
 HPTY.       Minimum Curvature:  HOLE POS TYPE
 NREF.                    Grid:  NORTH REFERENCE
 SPUD.               25-Feb-20:  SPUD DATE
 DATE.      08.55.28 01-May-20:  END TIME
 STIM.      08.55.28 25-Feb-20:  START TIME
 DMF .             Drill Floor:  DRILL MEAS FROM
 DFST.                        :  DIST FSL TEXT
 DFWT.                        :  DIST FWL TEXT
 CNTY.                        :  COUNTY
 LOC .                        :  LOCATION
 LMF .             Drill Floor:  LOG MEASURED FROM
 VSNS.m                   6.09:  VERT SEC N/S
 VSEW.m                 -10.79:  VERT SEC E/W
 AGAP.m                  43.60:  AIR GAP
 DEP .m                 388.24:  DEPTH
 APD .m                  43.60:  DEPTH ABOVE PD
 WDMS.m                 151.80:  WD ELEV
 EGL .m                   0.00:  GROUND ELEVATION
 EPD .m                   0.00:  ELEVATION
 AZTC.deg                 6.12:  AZM TOTAL CORR
 GRDC.deg                 0.30:  GRID CORRECTION
 MDEC.deg                 6.42:  MAGNETIC DECL
 MDIP.deg                59.42:  MAGNETIC DIP
 MFLD.nT              50256.00:  MAGNETIC FIELD
 GVFD.g                   1.00:  GRAVITY FIELD
 VSDR.deg               159.57:  VERT SEC DIRECT
 TDD .m                5000.01:  TOTAL DEPTH (DRILLER)
 SDEP.m                 397.00:  START DEPTH
 DFSL.m                   0.00:  DISTANCE FSL
 DFWL.m                   0.00:  DISTANCE FWL
 UTMY.m             4431880.20:  UTM Y
 UTMX.m              538763.98:  UTM X
 WHEW.m                 -10.79:  WELL HEAD E/W
 WHNS.m                   6.09:  WELL HEAD N/S
 LONG.deg                51.45:  LONGITUDE
 LATI.deg                40.02:  LATITUDE
 TVDS.m                  43.60:  TVDSS CORRECTN
 EKB .m                  43.60:  KB ELEVATION
 EDF .m                  43.60:  DF ELEVATION
 MAGU.                 1847640:  MAGUTM CHECKSUM
 VSC .                       0:  VS TO CLOSURE
~Parameter Information Block
#MNEM.UNIT       Value        Description
#---------     -----------    ---------------------------
 AV  .mps                 1.30:  Ann Velocity 
 AVMX.mps                 1.90:  Max Ann Veloc 
 AZIF.deg               115.68:  Azm, Final 
 BHAT.                   Other:  BHA Type 
 BROT.°/30m               0.74:  Build Rotating 
 BS  .in                  8.50:  Bit Size 
 BTPL.psig              430.00:  Bit Press Loss 
 CABU.                      No:  Customer Abuse 
 COMM.                     \õd:  Run Comments 1 
 TCS .hr                 51.31:  Time Ciculation Ended 
 CV  .mps                 2.52:  Crit Velocity 
 CVMX.mps                 2.62:  Max Crit Veloc 
 DD1 .          Teymur Aghayev:  Direct Drillr 1 
 DDSV.                   Other:  DD Service 
 DEFF.%                 100.00:  % Det Eff 
 DLRX.°/30m               1.62:  Dogleg Rot Max 
 DLSO.°/30m               0.74:  Dogleg Oriented 
 DLSX.°/30m               1.62:  Dogleg Str Max 
 DRET.      04.30.56 18-May-20:  Drill End Time 
 DRST.      04.30.56 18-May-20:  Drill Start Tim 
 DTIM.hr                  0.00:  Time Drilling 
 EDEP.m                5337.01:  End Depth 
 ENG1.      Artemiy Matviyanov:  Engineer 1 
 ENG2.      Bakhtiyar Jabbarli:  Engineer 2 
 ENG3.           Emil Huseynov:  Engineer 3 
 ETIM.      18.40.00 22-May-20:  End Time 
 FLOI.gpm               550.00:  Flow In 
 FLON.gpm               350.00:  Flow In Min 
 FLOS.cptm                0.00:  Fluid Loss 
 FLOX.gpm               600.00:  Flow In Max 
 HFLO.                      No:  High Flow 
 HPRE.                      No:  High Pressure 
 HTEM.                      No:  High Temp 
 HYDO.m                   1.80:  Hydro Offset 
 IFIN.deg                67.01:  Inc, Final 
 IMAX.deg                67.49:  Inc Max 
 IMIN.deg                66.50:  Inc Min 
 IMND.m                5144.79:  Inc Min Depth 
 IMXD.m                5116.12:  Inc Max Depth 
 JARR.                      No:  Jarring 
 LETM.      17.55.56 20-May-20:  Log End Time 
 LOST.hr                     0:  Lost Rig Time 
 LSTM.      04.30.56 18-May-20:  Log Start Time 
 MDCL.ppm            193153.00:  Mud Chlorides 
 MDES.     Inversion Oil/Synthetic:  Mud Desc 
 DFD .sg                  1.40:  Mud Density 
 MDMN.sg                  1.40:  Dens Mud Min 
 MDMX.sg                  1.41:  Dens Mud Max 
 MOIL.                      68:  Run Mud Oil % 
 MOWR.                   68:32:  Run Mud OWR 
 MSND.                     0.2:  Run Mud Sand % 
 MSOL.                    18.8:  Run Mud Solids% 
 DFV .spqt               80.00:  Mud Viscosity 
 MWOD.in                  6.75:  MWD Tool OD 
 MWSI.                      No:  Serv Intrp, MWD 
 OTIM.hr                104.84:  Time Operating 
 PMAX.psia            10690.93:  Press Op, Max 
 PV  .cP                 26.00:  Mud PV 
 RUN .                     900:  Run Number 
 ROPA.m/hr                0.00:  ROP Avg 
 ROPN.m/hr                0.00:  ROP Min 
 ROPX.m/hr                0.00:  ROP Max 
 RPMA.rpm               140.00:  RPM Surface Avg 
 RPMN.rpm                70.00:  RPM Surface Min 
 RPMX.rpm               140.00:  RPM Surface Max 
 RRUN.                    0900:  Rig Run Number 
 RTIM.hr                 36.00:  Time Reaming 
 SAZI.deg               115.72:  Azm, Start 
 SDEP.m                5337.01:  Start Depth 
 SIDD.                      No:  Serv Intrp, DD 
 SINC.deg                66.92:  Inc, Start 
 SPPA.psig             4400.00:  SPP Avg 
 SPPN.psig             1135.00:  SPP Min 
 SPPX.psig             4581.00:  SPP Max 
 STIM.      04.30.56 18-May-20:  Start Time 
 SVCS.                     MWD:  Services 
 SVER.                    9.20:  Sperry Version 
 TDAT.m                5337.01:  Tot Depth Attmp 
 TDDF.                      No:  Trip for DD 
 TFF .                      No:  Trip for Fail 
 TQAA.f-kp               23.00:  Torque Abs Avg 
 TQAN.f-kp               18.00:  Torque Abs Min 
 TQAX.f-kp               25.00:  Torque Abs Max 
 TRRT.°/30m               0.74:  Turn Rotating 
 MRT .                    HCIM:  Maximum Recorded Temperature 
 TTMX.degC               76.47:  Max Tool Temp 
 WBMN.klb                 0.00:  WOB Min 
 WITN.             Anar Khalil:  Customer Rep 
 WITN.      Kamran Keberlinski:  Customer Rep 2 
 WOBA.klb                 0.00:  WOB Avg 
 WOBX.klb                 0.00:  WOB Max 
 YP  .lhf2               27.00:  Yield Point 
~Curve Information Block
#MNEM.UNIT                 API CODE     Curve Description
#---------               -----------    ---------------------------
 TIME.HHMMSS            00 000 000 000:  GT Time & Date
 GTDEPTH.m              00 000 000 000:  GT Depth
 GTPQH.psia             00 000 000 000:  GT HR Quartz Pressure
 GTTQ.degC              00 000 000 000:  GT Quartz Temperature
 GTTN.NONE              00 000 000 000:  GT Test Number
 GTET.sec               00 000 000 000:  GT Elapsed Test Time
 GTTVD.m                00 000 000 000:  GT True Vertical Depth
#Other Information
#
#WARRANTY: Halliburton will use its best efforts to furnish customers with 
#accurate information and interpretations that are part of, and incident to, the services 
#provided.  However, Halliburton cannot and does not warrant the accuracy 
#or correctness of such information and interpretations.  Under no circumstances should any 
#such information or interpretation be relied upon as the sole basis for any drilling, 
#completion, production, or financial decision or any procedure involving any risk to the 
#safety of any drilling venture, drilling rig or its crew or any other third party.  The 
#Customer has full responsibility for all drilling, completion and production operation.  
#Halliburton makes no representations or warranties, either expressed or 
#implied, including, but not limited to, the implied warranties of merchantability or fitness 
#for a particular purpose, with respect to the services rendered.  In no event will 
#Halliburton be liable for failure to obtain any particular results or for 
#any damages, including, but not limited to, indirect, special or consequential damages, 
#resulting from the use of any information or interpretation provided by Halliburton.
#
~A           TIME           GTDEPTH  GTPQH  GTTQ  GTTN  GTET   GTTVD  
# ...
   00:12:47.621.20-May-2020 5121.01 3572.55 67.86 6.00 368.09 2698.81
   00:12:47.822.20-May-2020 5121.01 3572.55 67.86 6.00 368.29 2698.81
   00:12:48.022.20-May-2020 5121.01 3572.53 67.86 6.00 368.49 2698.81
   00:12:48.222.20-May-2020 5121.01 3572.59 67.86 6.00 368.69 2698.81
   00:12:48.422.20-May-2020 5121.01 3572.61 67.86 6.00 368.89 2698.81
   00:12:48.622.20-May-2020 5121.01 3572.62 67.86 6.00 369.09 2698.81
   00:12:48.822.20-May-2020 5121.01 3572.62 67.86 6.00 369.29 2698.81
   00:12:49.022.20-May-2020 5121.01 3572.58 67.86 6.00 369.49 2698.81
   00:12:49.222.20-May-2020 5121.01 3572.60 67.86 6.00 369.69 2698.81
   00:12:49.422.20-May-2020 5121.01 3572.64 67.86 6.00 369.89 2698.81
   00:12:49.622.20-May-2020 5121.01 3572.59 67.86 6.00 370.09 2698.81
   00:12:49.822.20-May-2020 5121.01 3572.59 67.86 6.00 370.29 2698.81
   00:12:50.022.20-May-2020 5121.01 3572.59 67.86 6.00 370.49 2698.81
   00:12:50.222.20-May-2020 5121.01 3572.56 67.86 6.00 370.69 2698.81
   00:12:50.422.20-May-2020 5121.01 3572.62 67.86 6.00 370.89 2698.81
   00:12:50.622.20-May-2020 5121.01 3572.60 67.86 6.00 371.09 2698.81
   00:12:50.822.20-May-2020 5121.01 3572.60 67.86 6.00 371.29 2698.81
   00:12:51.022.20-May-2020 5121.01 3572.59 67.86 6.00 371.49 2698.81
   00:12:51.222.20-May-2020 5121.01 3572.59 67.86 6.00 371.69 2698.81
   00:12:51.422.20-May-2020 5121.01 3572.61 67.86 6.00 371.89 2698.81
   00:12:51.622.20-May-2020 5121.01 3572.59 67.86 6.00 372.09 2698.81
   00:12:51.823.20-May-2020 5121.01 3572.59 67.86 6.00 372.29 2698.81
   00:12:52.023.20-May-2020 5121.01 3572.60 67.86 6.00 372.49 2698.81
   00:12:52.223.20-May-2020 5121.01 3572.59 67.86 6.00 372.69 2698.81
   00:12:52.423.20-May-2020 5121.01 3572.62 67.86 6.00 372.89 2698.81
   00:12:52.623.20-May-2020 5121.01 3572.59 67.86 6.00 373.09 2698.81
   00:12:52.823.20-May-2020 5121.01 3572.59 67.86 6.00 373.29 2698.81
   00:12:53.023.20-May-2020 5121.01 3572.59 67.86 6.00 373.49 2698.81
   00:12:53.223.20-May-2020 5121.01 3572.46 67.86 6.00 373.69 2698.81
   00:12:53.423.20-May-2020 5121.01 3572.78 67.86 6.00 373.89 2698.81
   00:12:53.623.20-May-2020 5121.01 3572.57 67.86 6.00 374.09 2698.81
   00:12:53.823.20-May-2020 5121.01 3572.57 67.86 6.00 374.29 2698.81
   00:12:54.023.20-May-2020 5121.01 3572.59 67.86 6.00 374.49 2698.81
   00:12:54.223.20-May-2020 5121.01 3572.63 67.86 6.00 374.69 2698.81
   00:12:54.423.20-May-2020 5121.01 3572.59 67.86 6.00 374.89 2698.81
   00:12:54.623.20-May-2020 5121.01 3572.59 67.86 6.00 375.09 2698.81
   00:12:54.823.20-May-2020 5121.01 3572.59 67.86 6.00 375.29 2698.81
   00:12:55.023.20-May-2020 5121.01 3572.63 67.86 6.00 375.49 2698.81
   00:12:55.223.20-May-2020 5121.01 3572.56 67.86 6.00 375.69 2698.81
   00:12:55.423.20-May-2020 5121.01 3572.65 67.86 6.00 375.89 2698.81
   00:12:55.623.20-May-2020 5121.01 3572.58 67.86 6.00 376.09 2698.81
   00:12:55.823.20-May-2020 5121.01 3572.58 67.86 6.00 376.29 2698.81
   00:12:56.024.20-May-2020 5121.01 3572.55 67.86 6.00 376.49 2698.81
   00:12:56.224.20-May-2020 5121.01 3572.62 67.86 6.00 376.69 2698.81
   00:12:56.424.20-May-2020 5121.01 3572.60 67.86 6.00 376.89 2698.81
   00:12:56.624.20-May-2020 5121.01 3572.59 67.86 6.00 377.09 2698.81
   00:12:56.824.20-May-2020 5121.01 3572.59 67.86 6.00 377.29 2698.81
   00:12:57.024.20-May-2020 5121.01 3572.65 67.86 6.00 377.49 2698.81
   00:12:57.224.20-May-2020 5121.01 3572.55 67.86 6.00 377.69 2698.81
   00:12:57.424.20-May-2020 5121.01 3572.66 67.86 6.00 377.89 2698.81
   00:12:57.624.20-May-2020 5121.01 3572.57 67.86 6.00 378.09 2698.81
   00:12:57.824.20-May-2020 5121.01 3572.57 67.86 6.00 378.29 2698.81
   00:12:58.024.20-May-2020 5121.01 3572.52 67.86 6.00 378.49 2698.81
   00:12:58.224.20-May-2020 5121.01 3572.64 67.86 6.00 378.69 2698.81
   00:12:58.424.20-May-2020 5121.01 3572.59 67.86 6.00 378.89 2698.81
   00:12:58.624.20-May-2020 5121.01 3572.64 67.86 6.00 379.09 2698.81
   00:12:58.824.20-May-2020 5121.01 3572.64 67.86 6.00 379.29 2698.81
   00:12:59.024.20-May-2020 5121.01 3572.58 67.86 6.00 379.49 2698.81
   00:12:59.224.20-May-2020 5121.01 3572.59 67.86 6.00 379.69 2698.81
   00:12:59.424.20-May-2020 5121.01 3572.60 67.86 6.00 379.89 2698.81
   00:12:59.624.20-May-2020 5121.01 3572.58 67.86 6.00 380.09 2698.81
   00:12:59.824.20-May-2020 5121.01 3572.58 67.86 6.00 380.29 2698.81
   00:13:00.025.20-May-2020 5121.01 3572.59 67.86 6.00 380.49 2698.81
   00:13:00.225.20-May-2020 5121.01 3572.60 67.86 6.00 380.69 2698.81
   00:13:00.425.20-May-2020 5121.01 3572.60 67.86 6.00 380.89 2698.81
   00:13:00.625.20-May-2020 5121.01 3572.58 67.86 6.00 381.09 2698.81
   00:13:00.825.20-May-2020 5121.01 3572.58 67.86 6.00 381.30 2698.81
   00:13:01.025.20-May-2020 5121.01 3572.61 67.86 6.00 381.50 2698.81
   00:13:01.225.20-May-2020 5121.01 3572.62 67.86 6.00 381.70 2698.81
   00:13:01.425.20-May-2020 5121.01 3572.61 67.86 6.00 381.90 2698.81
   00:13:01.625.20-May-2020 5121.01 3572.43 67.86 6.00 382.10 2698.81
   00:13:01.825.20-May-2020 5121.01 3572.43 67.86 6.00 382.30 2698.81
   00:13:02.025.20-May-2020 5121.01 3572.59 67.86 6.00 382.50 2698.81
   00:13:02.225.20-May-2020 5121.01 3572.60 67.86 6.00 382.70 2698.81
   00:13:02.425.20-May-2020 5121.01 3572.59 67.86 6.00 382.90 2698.81
   00:13:02.625.20-May-2020 5121.01 3572.60 67.86 6.00 383.10 2698.81
   00:13:02.825.20-May-2020 5121.01 3572.60 67.86 6.00 383.30 2698.81
   00:13:03.025.20-May-2020 5121.01 3572.72 67.86 6.00 383.50 2698.81
   00:13:03.225.20-May-2020 5121.01 3572.59 67.86 6.00 383.70 2698.81
   00:13:03.425.20-May-2020 5121.01 3572.61 67.86 6.00 383.90 2698.81
   00:13:03.625.20-May-2020 5121.01 3572.59 67.86 6.00 384.10 2698.81
   00:13:03.825.20-May-2020 5121.01 3572.59 67.86 6.00 384.30 2698.81
   00:13:04.026.20-May-2020 5121.01 3572.57 67.86 6.00 384.50 2698.81
   00:13:04.226.20-May-2020 5121.01 3572.63 67.86 6.00 384.70 2698.81
   00:13:04.426.20-May-2020 5121.01 3572.56 67.86 6.00 384.90 2698.81
   00:13:04.626.20-May-2020 5121.01 3572.60 67.86 6.00 385.10 2698.81
   00:13:04.826.20-May-2020 5121.01 3572.60 67.86 6.00 385.30 2698.81
   00:13:05.026.20-May-2020 5121.01 3572.62 67.86 6.00 385.50 2698.81
   00:13:05.226.20-May-2020 5121.01 3572.58 67.86 6.00 385.70 2698.81
   00:13:05.426.20-May-2020 5121.01 3572.68 67.86 6.00 385.90 2698.81
   00:13:05.626.20-May-2020 5121.01 3572.52 67.86 6.00 386.10 2698.81
   00:13:05.826.20-May-2020 5121.01 3572.52 67.86 6.00 386.30 2698.81
   00:13:06.026.20-May-2020 5121.01 3572.60 67.86 6.00 386.50 2698.81
   00:13:06.226.20-May-2020 5121.01 3572.63 67.87 6.00 386.70 2698.81
   00:13:06.426.20-May-2020 5121.01 3572.59 67.86 6.00 386.90 2698.81
   00:13:06.626.20-May-2020 5121.01 3572.60 67.86 6.00 387.10 2698.81
   00:13:06.826.20-May-2020 5121.01 3572.60 67.86 6.00 387.30 2698.81
   00:13:07.026.20-May-2020 5121.01 3572.59 67.86 6.00 387.50 2698.81
   00:13:07.226.20-May-2020 5121.01 3572.60 67.87 6.00 387.70 2698.81
   00:13:07.426.20-May-2020 5121.01 3572.61 67.86 6.00 387.90 2698.81
   00:13:07.626.20-May-2020 5121.01 3572.58 67.87 6.00 388.10 2698.81
   00:13:07.826.20-May-2020 5121.01 3572.58 67.86 6.00 388.30 2698.81
   00:13:08.027.20-May-2020 5121.01 3572.60 67.86 6.00 388.50 2698.81
   00:13:08.227.20-May-2020 5121.01 3572.60 67.87 6.00 388.70 2698.81
   00:13:08.427.20-May-2020 5121.01 3572.63 67.86 6.00 388.90 2698.81
   00:13:08.627.20-May-2020 5121.01 3572.53 67.86 6.00 389.10 2698.81
   00:13:08.827.20-May-2020 5121.01 3572.53 67.87 6.00 389.30 2698.81
   00:13:09.027.20-May-2020 5121.01 3572.56 67.86 6.00 389.50 2698.81
   00:13:09.227.20-May-2020 5121.01 3572.60 67.87 6.00 389.70 2698.81
   00:13:09.427.20-May-2020 5121.01 3572.62 67.87 6.00 389.90 2698.81
   00:13:09.627.20-May-2020 5121.01 3572.61 67.87 6.00 390.10 2698.81
   00:13:09.827.20-May-2020 5121.01 3572.61 67.86 6.00 390.30 2698.81
   00:13:10.027.20-May-2020 5121.01 3572.59 67.87 6.00 390.50 2698.81
   00:13:10.227.20-May-2020 5121.01 3572.59 67.87 6.00 390.70 2698.81
   00:13:10.427.20-May-2020 5121.01 3572.57 67.86 6.00 390.90 2698.81
