~Version Information
 VERS.                  2.0:   CWLS log ASCII Standard -VERSION 2.0
 WRAP.                   NO:   One line per depth step
~Well Information Block
#MNEM.UNIT     VALUE/NAME     DESCRIPTION
#---------     -----------    ---------------------------
 STRT.S             03:43:00 20-May-20: START TIME 03:43:00 20-May-20
 STOP.S             03:53:08 20-May-20: STOP TIME  03:53:08 20-May-20
 STEP.S                   0.00: STEP TIME
 NULL.                 -999.25: NULL VALUE
 MDS .        Operator Entered:  MAG DATA SOURCE
 PDAT.          Mean Sea Level:  PERMANENT DATUM
 UNIT.                     N/A:  LOGGING EQUIPMENT ID
 DCON.         Sperry Drilling:  DIRECTNL CONTR
 DOE .                     N/A:  DOE NUMBER
 RIG .              East Azeri:  RIG NAME
 JOBN.        AZ-XX-0905856059:  JOB TICKET NUMB
 WELL.                     D36:  WELL NAME
 MWDS.                    Baku:  MWD SHOP
 SRVC.     Turan Drilling & Engineering:  CONTRACTOR
 FLD .                     ACG:  FIELD NAME
 CTRY.              Azerbaijan:  COUNTRY NAME
 PROV.                    Baku:  PROVINCE
 STAT.                    Baku:  STATE NAME
 REGN.                   EESSA:  REGION
 BASE.              Azerbaijan:  LOGGING EQUIPMENT BASE LOCATION
 UWI .                     N/A:  UNIQUE WELL IDENTIFIER
 API .                     N/A:  API NUMBER
 COMP.     BP Exploration (Caspian Sea) Ltd.:  COMPANY
 WTYP.                Deviated:  WELL TYPE
 SON .        AZ-XX-0905856059:  JOB NUMBER
 FTOP.          Formation Tops:  FORM TOPS DESC
 ILTD.               Lithology:  INTERP LTH DESC
 SVYD.                  Survey:  SURVEY DESC
 DMOD.             Drill Model:  DRILL MOD DESC
 HPTY.       Minimum Curvature:  HOLE POS TYPE
 NREF.                    Grid:  NORTH REFERENCE
 SPUD.               25-Feb-20:  SPUD DATE
 DATE.      08.55.28 01-May-20:  END TIME
 STIM.      08.55.28 25-Feb-20:  START TIME
 DMF .             Drill Floor:  DRILL MEAS FROM
 DFST.                        :  DIST FSL TEXT
 DFWT.                        :  DIST FWL TEXT
 CNTY.                        :  COUNTY
 LOC .                        :  LOCATION
 LMF .             Drill Floor:  LOG MEASURED FROM
 VSNS.m                   6.09:  VERT SEC N/S
 VSEW.m                 -10.79:  VERT SEC E/W
 AGAP.m                  43.60:  AIR GAP
 DEP .m                 388.24:  DEPTH
 APD .m                  43.60:  DEPTH ABOVE PD
 WDMS.m                 151.80:  WD ELEV
 EGL .m                   0.00:  GROUND ELEVATION
 EPD .m                   0.00:  ELEVATION
 AZTC.deg                 6.12:  AZM TOTAL CORR
 GRDC.deg                 0.30:  GRID CORRECTION
 MDEC.deg                 6.42:  MAGNETIC DECL
 MDIP.deg                59.42:  MAGNETIC DIP
 MFLD.nT              50256.00:  MAGNETIC FIELD
 GVFD.g                   1.00:  GRAVITY FIELD
 VSDR.deg               159.57:  VERT SEC DIRECT
 TDD .m                5000.01:  TOTAL DEPTH (DRILLER)
 SDEP.m                 397.00:  START DEPTH
 DFSL.m                   0.00:  DISTANCE FSL
 DFWL.m                   0.00:  DISTANCE FWL
 UTMY.m             4431880.20:  UTM Y
 UTMX.m              538763.98:  UTM X
 WHEW.m                 -10.79:  WELL HEAD E/W
 WHNS.m                   6.09:  WELL HEAD N/S
 LONG.deg                51.45:  LONGITUDE
 LATI.deg                40.02:  LATITUDE
 TVDS.m                  43.60:  TVDSS CORRECTN
 EKB .m                  43.60:  KB ELEVATION
 EDF .m                  43.60:  DF ELEVATION
 MAGU.                 1847640:  MAGUTM CHECKSUM
 VSC .                       0:  VS TO CLOSURE
~Parameter Information Block
#MNEM.UNIT       Value        Description
#---------     -----------    ---------------------------
 AV  .mps                 1.30:  Ann Velocity 
 AVMX.mps                 1.90:  Max Ann Veloc 
 AZIF.deg               115.68:  Azm, Final 
 BHAT.                   Other:  BHA Type 
 BROT.°/30m               0.74:  Build Rotating 
 BS  .in                  8.50:  Bit Size 
 BTPL.psig              430.00:  Bit Press Loss 
 CABU.                      No:  Customer Abuse 
 COMM.                     ÌÍk:  Run Comments 1 
 TCS .hr                 51.31:  Time Ciculation Ended 
 CV  .mps                 2.52:  Crit Velocity 
 CVMX.mps                 2.62:  Max Crit Veloc 
 DD1 .          Teymur Aghayev:  Direct Drillr 1 
 DDSV.                   Other:  DD Service 
 DEFF.%                 100.00:  % Det Eff 
 DLRX.°/30m               1.62:  Dogleg Rot Max 
 DLSO.°/30m               0.74:  Dogleg Oriented 
 DLSX.°/30m               1.62:  Dogleg Str Max 
 DRET.      04.30.56 18-May-20:  Drill End Time 
 DRST.      04.30.56 18-May-20:  Drill Start Tim 
 DTIM.hr                  0.00:  Time Drilling 
 EDEP.m                5337.01:  End Depth 
 ENG1.      Artemiy Matviyanov:  Engineer 1 
 ENG2.      Bakhtiyar Jabbarli:  Engineer 2 
 ENG3.           Emil Huseynov:  Engineer 3 
 ETIM.      18.40.00 22-May-20:  End Time 
 FLOI.gpm               550.00:  Flow In 
 FLON.gpm               350.00:  Flow In Min 
 FLOS.cptm                0.00:  Fluid Loss 
 FLOX.gpm               600.00:  Flow In Max 
 HFLO.                      No:  High Flow 
 HPRE.                      No:  High Pressure 
 HTEM.                      No:  High Temp 
 HYDO.m                   1.80:  Hydro Offset 
 IFIN.deg                67.01:  Inc, Final 
 IMAX.deg                67.49:  Inc Max 
 IMIN.deg                66.50:  Inc Min 
 IMND.m                5144.79:  Inc Min Depth 
 IMXD.m                5116.12:  Inc Max Depth 
 JARR.                      No:  Jarring 
 LETM.      17.55.56 20-May-20:  Log End Time 
 LOST.hr                     0:  Lost Rig Time 
 LSTM.      04.30.56 18-May-20:  Log Start Time 
 MDCL.ppm            193153.00:  Mud Chlorides 
 MDES.     Inversion Oil/Synthetic:  Mud Desc 
 DFD .sg                  1.40:  Mud Density 
 MDMN.sg                  1.40:  Dens Mud Min 
 MDMX.sg                  1.41:  Dens Mud Max 
 MOIL.                      68:  Run Mud Oil % 
 MOWR.                   68:32:  Run Mud OWR 
 MSND.                     0.2:  Run Mud Sand % 
 MSOL.                    18.8:  Run Mud Solids% 
 DFV .spqt               80.00:  Mud Viscosity 
 MWOD.in                  6.75:  MWD Tool OD 
 MWSI.                      No:  Serv Intrp, MWD 
 OTIM.hr                104.84:  Time Operating 
 PMAX.psia            10690.93:  Press Op, Max 
 PV  .cP                 26.00:  Mud PV 
 RUN .                     900:  Run Number 
 ROPA.m/hr                0.00:  ROP Avg 
 ROPN.m/hr                0.00:  ROP Min 
 ROPX.m/hr                0.00:  ROP Max 
 RPMA.rpm               140.00:  RPM Surface Avg 
 RPMN.rpm                70.00:  RPM Surface Min 
 RPMX.rpm               140.00:  RPM Surface Max 
 RRUN.                    0900:  Rig Run Number 
 RTIM.hr                 36.00:  Time Reaming 
 SAZI.deg               115.72:  Azm, Start 
 SDEP.m                5337.01:  Start Depth 
 SIDD.                      No:  Serv Intrp, DD 
 SINC.deg                66.92:  Inc, Start 
 SPPA.psig             4400.00:  SPP Avg 
 SPPN.psig             1135.00:  SPP Min 
 SPPX.psig             4581.00:  SPP Max 
 STIM.      04.30.56 18-May-20:  Start Time 
 SVCS.                     MWD:  Services 
 SVER.                    9.20:  Sperry Version 
 TDAT.m                5337.01:  Tot Depth Attmp 
 TDDF.                      No:  Trip for DD 
 TFF .                      No:  Trip for Fail 
 TQAA.f-kp               23.00:  Torque Abs Avg 
 TQAN.f-kp               18.00:  Torque Abs Min 
 TQAX.f-kp               25.00:  Torque Abs Max 
 TRRT.°/30m               0.74:  Turn Rotating 
 MRT .                    HCIM:  Maximum Recorded Temperature 
 TTMX.degC               76.47:  Max Tool Temp 
 WBMN.klb                 0.00:  WOB Min 
 WITN.             Anar Khalil:  Customer Rep 
 WITN.      Kamran Keberlinski:  Customer Rep 2 
 WOBA.klb                 0.00:  WOB Avg 
 WOBX.klb                 0.00:  WOB Max 
 YP  .lhf2               27.00:  Yield Point 
~Curve Information Block
#MNEM.UNIT                 API CODE     Curve Description
#---------               -----------    ---------------------------
 TIME.HHMMSS            00 000 000 000:  GT Time & Date
 GTDEPTH.m              00 000 000 000:  GT Depth
 GTPQH.psia             00 000 000 000:  GT HR Quartz Pressure
 GTTQ.degC              00 000 000 000:  GT Quartz Temperature
 GTTN.NONE              00 000 000 000:  GT Test Number
 GTET.sec               00 000 000 000:  GT Elapsed Test Time
 GTTVD.m                00 000 000 000:  GT True Vertical Depth
#Other Information
#
#WARRANTY: Halliburton will use its best efforts to furnish customers with 
#accurate information and interpretations that are part of, and incident to, the services 
#provided.  However, Halliburton cannot and does not warrant the accuracy 
#or correctness of such information and interpretations.  Under no circumstances should any 
#such information or interpretation be relied upon as the sole basis for any drilling, 
#completion, production, or financial decision or any procedure involving any risk to the 
#safety of any drilling venture, drilling rig or its crew or any other third party.  The 
#Customer has full responsibility for all drilling, completion and production operation.  
#Halliburton makes no representations or warranties, either expressed or 
#implied, including, but not limited to, the implied warranties of merchantability or fitness 
#for a particular purpose, with respect to the services rendered.  In no event will 
#Halliburton be liable for failure to obtain any particular results or for 
#any damages, including, but not limited to, indirect, special or consequential damages, 
#resulting from the use of any information or interpretation provided by Halliburton.
#
~A           TIME           GTDEPTH  GTPQH  GTTQ  GTTN  GTET   GTTVD  
# ...
   03:48:45.994.20-May-2020 5064.01  523.30 68.95 8.00 345.10 2676.56
   03:48:46.194.20-May-2020 5064.01  523.30 68.95 8.00 345.30 2676.56
   03:48:46.394.20-May-2020 5064.01  523.89 68.95 8.00 345.50 2676.56
   03:48:46.594.20-May-2020 5064.01  524.23 68.95 8.00 345.70 2676.56
   03:48:46.794.20-May-2020 5064.01  524.67 68.95 8.00 345.90 2676.56
   03:48:46.994.20-May-2020 5064.01  524.64 68.95 8.00 346.10 2676.56
   03:48:47.194.20-May-2020 5064.01  524.64 68.95 8.00 346.30 2676.56
   03:48:47.394.20-May-2020 5064.01  525.46 68.95 8.00 346.50 2676.56
   03:48:47.594.20-May-2020 5064.01  525.83 68.95 8.00 346.70 2676.56
   03:48:47.794.20-May-2020 5064.01  526.29 68.95 8.00 346.90 2676.56
   03:48:47.994.20-May-2020 5064.01  526.62 68.95 8.00 347.10 2676.56
   03:48:48.194.20-May-2020 5064.01  526.62 68.95 8.00 347.30 2676.56
   03:48:48.394.20-May-2020 5064.01  527.40 68.95 8.00 347.50 2676.56
   03:48:48.594.20-May-2020 5064.01  527.63 68.95 8.00 347.70 2676.56
   03:48:48.794.20-May-2020 5064.01  527.95 68.95 8.00 347.90 2676.56
   03:48:48.994.20-May-2020 5064.01  528.42 68.95 8.00 348.10 2676.56
   03:48:49.195.20-May-2020 5064.01  528.42 68.95 8.00 348.30 2676.56
   03:48:49.395.20-May-2020 5064.01  528.85 68.95 8.00 348.50 2676.56
   03:48:49.595.20-May-2020 5064.01  529.30 68.95 8.00 348.70 2676.56
   03:48:49.795.20-May-2020 5064.01  529.63 68.95 8.00 348.90 2676.56
   03:48:49.995.20-May-2020 5064.01  529.98 68.95 8.00 349.10 2676.56
   03:48:50.195.20-May-2020 5064.01  529.98 68.95 8.00 349.30 2676.56
   03:48:50.395.20-May-2020 5064.01  530.54 68.95 8.00 349.50 2676.56
   03:48:50.595.20-May-2020 5064.01  530.94 68.95 8.00 349.70 2676.56
   03:48:50.795.20-May-2020 5064.01  531.26 68.95 8.00 349.90 2676.56
   03:48:50.995.20-May-2020 5064.01  531.66 68.95 8.00 350.10 2676.56
   03:48:51.195.20-May-2020 5064.01  531.66 68.95 8.00 350.30 2676.56
   03:48:51.395.20-May-2020 5064.01  532.35 68.95 8.00 350.50 2676.56
   03:48:51.595.20-May-2020 5064.01  532.77 68.95 8.00 350.70 2676.56
   03:48:51.795.20-May-2020 5064.01  533.22 68.95 8.00 350.90 2676.56
   03:48:51.995.20-May-2020 5064.01  533.67 68.95 8.00 351.10 2676.56
   03:48:52.195.20-May-2020 5064.01  533.67 68.95 8.00 351.30 2676.56
   03:48:52.395.20-May-2020 5064.01  534.46 68.95 8.00 351.50 2676.56
   03:48:52.595.20-May-2020 5064.01  534.93 68.95 8.00 351.70 2676.56
   03:48:52.796.20-May-2020 5064.01  535.37 68.95 8.00 351.90 2676.56
   03:48:52.996.20-May-2020 5064.01  535.76 68.95 8.00 352.10 2676.56
   03:48:53.196.20-May-2020 5064.01  535.76 68.95 8.00 352.30 2676.56
   03:48:53.396.20-May-2020 5064.01  536.41 68.95 8.00 352.50 2676.56
   03:48:53.596.20-May-2020 5064.01  536.83 68.95 8.00 352.70 2676.56
   03:48:53.796.20-May-2020 5064.01  537.18 68.95 8.00 352.90 2676.56
   03:48:53.996.20-May-2020 5064.01  537.58 68.95 8.00 353.10 2676.56
   03:48:54.196.20-May-2020 5064.01  537.58 68.95 8.00 353.30 2676.56
   03:48:54.396.20-May-2020 5064.01  538.15 68.95 8.00 353.50 2676.56
   03:48:54.596.20-May-2020 5064.01  538.42 68.95 8.00 353.70 2676.56
   03:48:54.796.20-May-2020 5064.01  538.79 68.95 8.00 353.90 2676.56
   03:48:54.996.20-May-2020 5064.01  538.77 68.95 8.00 354.10 2676.56
   03:48:55.196.20-May-2020 5064.01  538.77 68.95 8.00 354.30 2676.56
   03:48:55.396.20-May-2020 5064.01  539.68 68.95 8.00 354.50 2676.56
   03:48:55.596.20-May-2020 5064.01  540.11 68.95 8.00 354.70 2676.56
   03:48:55.796.20-May-2020 5064.01  540.16 68.95 8.00 354.90 2676.56
   03:48:55.996.20-May-2020 5064.01  540.62 68.95 8.00 355.10 2676.56
   03:48:56.196.20-May-2020 5064.01  540.62 68.95 8.00 355.30 2676.56
   03:48:56.397.20-May-2020 5064.01  541.39 68.95 8.00 355.50 2676.56
   03:48:56.597.20-May-2020 5064.01  541.32 68.95 8.00 355.70 2676.56
   03:48:56.797.20-May-2020 5064.01  541.80 68.95 8.00 355.90 2676.56
   03:48:56.997.20-May-2020 5064.01  542.17 68.95 8.00 356.10 2676.56
   03:48:57.197.20-May-2020 5064.01  542.17 68.95 8.00 356.30 2676.56
   03:48:57.397.20-May-2020 5064.01  542.92 68.95 8.00 356.50 2676.56
   03:48:57.597.20-May-2020 5064.01  543.34 68.95 8.00 356.70 2676.56
   03:48:57.797.20-May-2020 5064.01  543.77 68.95 8.00 356.90 2676.56
   03:48:57.997.20-May-2020 5064.01  544.16 68.95 8.00 357.10 2676.56
   03:48:58.197.20-May-2020 5064.01  544.16 68.95 8.00 357.30 2676.56
   03:48:58.397.20-May-2020 5064.01  545.03 68.95 8.00 357.50 2676.56
   03:48:58.597.20-May-2020 5064.01  545.45 68.95 8.00 357.70 2676.56
   03:48:58.797.20-May-2020 5064.01  545.86 68.95 8.00 357.90 2676.56
   03:48:58.997.20-May-2020 5064.01  546.30 68.95 8.00 358.10 2676.56
   03:48:59.197.20-May-2020 5064.01  546.30 68.95 8.00 358.30 2676.56
   03:48:59.397.20-May-2020 5064.01  547.16 68.95 8.00 358.50 2676.56
   03:48:59.597.20-May-2020 5064.01  547.21 68.95 8.00 358.70 2676.56
   03:48:59.798.20-May-2020 5064.01  547.76 68.95 8.00 358.90 2676.56
   03:48:59.998.20-May-2020 5064.01  548.16 68.95 8.00 359.10 2676.56
   03:49:00.198.20-May-2020 5064.01  548.16 68.95 8.00 359.30 2676.56
   03:49:00.398.20-May-2020 5064.01  548.73 68.95 8.00 359.50 2676.56
   03:49:00.598.20-May-2020 5064.01  549.05 68.95 8.00 359.70 2676.56
   03:49:00.798.20-May-2020 5064.01  549.46 68.95 8.00 359.90 2676.56
   03:49:00.998.20-May-2020 5064.01  549.41 68.95 8.00 360.10 2676.56
   03:49:01.198.20-May-2020 5064.01  549.41 68.95 8.00 360.30 2676.56
   03:49:01.398.20-May-2020 5064.01  550.26 68.95 8.00 360.50 2676.56
   03:49:01.598.20-May-2020 5064.01  550.68 68.95 8.00 360.70 2676.56
   03:49:01.798.20-May-2020 5064.01  551.14 68.95 8.00 360.90 2676.56
   03:49:01.998.20-May-2020 5064.01  551.03 68.95 8.00 361.10 2676.56
   03:49:02.198.20-May-2020 5064.01  551.03 68.95 8.00 361.30 2676.56
   03:49:02.398.20-May-2020 5064.01  551.94 68.95 8.00 361.50 2676.56
   03:49:02.598.20-May-2020 5064.01  552.34 68.95 8.00 361.70 2676.56
   03:49:02.798.20-May-2020 5064.01  552.42 68.95 8.00 361.90 2676.56
   03:49:02.998.20-May-2020 5064.01  553.08 68.95 8.00 362.10 2676.56
   03:49:03.198.20-May-2020 5064.01  553.08 68.95 8.00 362.30 2676.56
   03:49:03.399.20-May-2020 5064.01  553.68 68.95 8.00 362.50 2676.56
   03:49:03.599.20-May-2020 5064.01  554.08 68.95 8.00 362.70 2676.56
   03:49:03.799.20-May-2020 5064.01  554.52 68.95 8.00 362.90 2676.56
   03:49:03.999.20-May-2020 5064.01  554.91 68.95 8.00 363.10 2676.56
   03:49:04.199.20-May-2020 5064.01  554.91 68.95 8.00 363.30 2676.56
   03:49:04.399.20-May-2020 5064.01  555.71 68.95 8.00 363.50 2676.56
   03:49:04.599.20-May-2020 5064.01  556.17 68.95 8.00 363.70 2676.56
   03:49:04.799.20-May-2020 5064.01  556.55 68.95 8.00 363.90 2676.56
   03:49:04.999.20-May-2020 5064.01  556.97 68.95 8.00 364.10 2676.56
   03:49:05.199.20-May-2020 5064.01  556.97 68.95 8.00 364.30 2676.56
   03:49:05.399.20-May-2020 5064.01  557.84 68.95 8.00 364.50 2676.56
   03:49:05.599.20-May-2020 5064.01  558.26 68.95 8.00 364.70 2676.56
   03:49:05.799.20-May-2020 5064.01  558.34 68.95 8.00 364.90 2676.56
   03:49:05.999.20-May-2020 5064.01  559.00 68.95 8.00 365.10 2676.56
   03:49:06.199.20-May-2020 5064.01  559.00 68.95 8.00 365.30 2676.56
   03:49:06.399.20-May-2020 5064.01  559.71 68.95 8.00 365.50 2676.56
   03:49:06.599.20-May-2020 5064.01  559.70 68.95 8.00 365.70 2676.56
   03:49:06.799.20-May-2020 5064.01  560.26 68.95 8.00 365.90 2676.56
   03:49:07.000.20-May-2020 5064.01  560.58 68.95 8.00 366.10 2676.56
   03:49:07.200.20-May-2020 5064.01  560.58 68.95 8.00 366.30 2676.56
   03:49:07.400.20-May-2020 5064.01  561.03 68.95 8.00 366.50 2676.56
   03:49:07.600.20-May-2020 5064.01  561.61 68.95 8.00 366.70 2676.56
   03:49:07.800.20-May-2020 5064.01  561.84 68.95 8.00 366.90 2676.56
   03:49:08.000.20-May-2020 5064.01  562.27 68.95 8.00 367.10 2676.56
   03:49:08.200.20-May-2020 5064.01  562.27 68.95 8.00 367.30 2676.56
   03:49:08.400.20-May-2020 5064.01  562.89 68.95 8.00 367.50 2676.56
   03:49:08.600.20-May-2020 5064.01  563.17 68.95 8.00 367.70 2676.56
   03:49:08.800.20-May-2020 5064.01  563.50 68.95 8.00 367.90 2676.56
