~Version Information
 VERS.                  2.0:   CWLS log ASCII Standard -VERSION 2.0
 WRAP.                   NO:   One line per depth step
~Well Information Block
#MNEM.UNIT     VALUE/NAME     DESCRIPTION
#---------     -----------    ---------------------------
 STRT.S             21:41:59 19-May-20: START TIME 21:41:59 19-May-20
 STOP.S             21:48:44 19-May-20: STOP TIME  21:48:44 19-May-20
 STEP.S                   0.00: STEP TIME
 NULL.                 -999.25: NULL VALUE
 MDS .        Operator Entered:  MAG DATA SOURCE
 PDAT.          Mean Sea Level:  PERMANENT DATUM
 UNIT.                     N/A:  LOGGING EQUIPMENT ID
 DCON.         Sperry Drilling:  DIRECTNL CONTR
 DOE .                     N/A:  DOE NUMBER
 RIG .              East Azeri:  RIG NAME
 JOBN.        AZ-XX-0905856059:  JOB TICKET NUMB
 WELL.                     D36:  WELL NAME
 MWDS.                    Baku:  MWD SHOP
 SRVC.     Turan Drilling & Engineering:  CONTRACTOR
 FLD .                     ACG:  FIELD NAME
 CTRY.              Azerbaijan:  COUNTRY NAME
 PROV.                    Baku:  PROVINCE
 STAT.                    Baku:  STATE NAME
 REGN.                   EESSA:  REGION
 BASE.              Azerbaijan:  LOGGING EQUIPMENT BASE LOCATION
 UWI .                     N/A:  UNIQUE WELL IDENTIFIER
 API .                     N/A:  API NUMBER
 COMP.     BP Exploration (Caspian Sea) Ltd.:  COMPANY
 WTYP.                Deviated:  WELL TYPE
 SON .        AZ-XX-0905856059:  JOB NUMBER
 FTOP.          Formation Tops:  FORM TOPS DESC
 ILTD.               Lithology:  INTERP LTH DESC
 SVYD.                  Survey:  SURVEY DESC
 DMOD.             Drill Model:  DRILL MOD DESC
 HPTY.       Minimum Curvature:  HOLE POS TYPE
 NREF.                    Grid:  NORTH REFERENCE
 SPUD.               25-Feb-20:  SPUD DATE
 DATE.      08.55.28 01-May-20:  END TIME
 STIM.      08.55.28 25-Feb-20:  START TIME
 DMF .             Drill Floor:  DRILL MEAS FROM
 DFST.                        :  DIST FSL TEXT
 DFWT.                        :  DIST FWL TEXT
 CNTY.                        :  COUNTY
 LOC .                        :  LOCATION
 LMF .             Drill Floor:  LOG MEASURED FROM
 VSNS.m                   6.09:  VERT SEC N/S
 VSEW.m                 -10.79:  VERT SEC E/W
 AGAP.m                  43.60:  AIR GAP
 DEP .m                 388.24:  DEPTH
 APD .m                  43.60:  DEPTH ABOVE PD
 WDMS.m                 151.80:  WD ELEV
 EGL .m                   0.00:  GROUND ELEVATION
 EPD .m                   0.00:  ELEVATION
 AZTC.deg                 6.12:  AZM TOTAL CORR
 GRDC.deg                 0.30:  GRID CORRECTION
 MDEC.deg                 6.42:  MAGNETIC DECL
 MDIP.deg                59.42:  MAGNETIC DIP
 MFLD.nT              50256.00:  MAGNETIC FIELD
 GVFD.g                   1.00:  GRAVITY FIELD
 VSDR.deg               159.57:  VERT SEC DIRECT
 TDD .m                5000.01:  TOTAL DEPTH (DRILLER)
 SDEP.m                 397.00:  START DEPTH
 DFSL.m                   0.00:  DISTANCE FSL
 DFWL.m                   0.00:  DISTANCE FWL
 UTMY.m             4431880.20:  UTM Y
 UTMX.m              538763.98:  UTM X
 WHEW.m                 -10.79:  WELL HEAD E/W
 WHNS.m                   6.09:  WELL HEAD N/S
 LONG.deg                51.45:  LONGITUDE
 LATI.deg                40.02:  LATITUDE
 TVDS.m                  43.60:  TVDSS CORRECTN
 EKB .m                  43.60:  KB ELEVATION
 EDF .m                  43.60:  DF ELEVATION
 MAGU.                 1847640:  MAGUTM CHECKSUM
 VSC .                       0:  VS TO CLOSURE
~Parameter Information Block
#MNEM.UNIT       Value        Description
#---------     -----------    ---------------------------
 AV  .mps                 1.30:  Ann Velocity 
 AVMX.mps                 1.90:  Max Ann Veloc 
 AZIF.deg               115.68:  Azm, Final 
 BHAT.                   Other:  BHA Type 
 BROT.°/30m               0.74:  Build Rotating 
 BS  .in                  8.50:  Bit Size 
 BTPL.psig              430.00:  Bit Press Loss 
 CABU.                      No:  Customer Abuse 
 COMM.                     „äS:  Run Comments 1 
 TCS .hr                 51.31:  Time Ciculation Ended 
 CV  .mps                 2.52:  Crit Velocity 
 CVMX.mps                 2.62:  Max Crit Veloc 
 DD1 .          Teymur Aghayev:  Direct Drillr 1 
 DDSV.                   Other:  DD Service 
 DEFF.%                 100.00:  % Det Eff 
 DLRX.°/30m               1.62:  Dogleg Rot Max 
 DLSO.°/30m               0.74:  Dogleg Oriented 
 DLSX.°/30m               1.62:  Dogleg Str Max 
 DRET.      04.30.56 18-May-20:  Drill End Time 
 DRST.      04.30.56 18-May-20:  Drill Start Tim 
 DTIM.hr                  0.00:  Time Drilling 
 EDEP.m                5337.01:  End Depth 
 ENG1.      Artemiy Matviyanov:  Engineer 1 
 ENG2.      Bakhtiyar Jabbarli:  Engineer 2 
 ENG3.           Emil Huseynov:  Engineer 3 
 ETIM.      18.40.00 22-May-20:  End Time 
 FLOI.gpm               550.00:  Flow In 
 FLON.gpm               350.00:  Flow In Min 
 FLOS.cptm                0.00:  Fluid Loss 
 FLOX.gpm               600.00:  Flow In Max 
 HFLO.                      No:  High Flow 
 HPRE.                      No:  High Pressure 
 HTEM.                      No:  High Temp 
 HYDO.m                   1.80:  Hydro Offset 
 IFIN.deg                67.01:  Inc, Final 
 IMAX.deg                67.49:  Inc Max 
 IMIN.deg                66.50:  Inc Min 
 IMND.m                5144.79:  Inc Min Depth 
 IMXD.m                5116.12:  Inc Max Depth 
 JARR.                      No:  Jarring 
 LETM.      17.55.56 20-May-20:  Log End Time 
 LOST.hr                     0:  Lost Rig Time 
 LSTM.      04.30.56 18-May-20:  Log Start Time 
 MDCL.ppm            193153.00:  Mud Chlorides 
 MDES.     Inversion Oil/Synthetic:  Mud Desc 
 DFD .sg                  1.40:  Mud Density 
 MDMN.sg                  1.40:  Dens Mud Min 
 MDMX.sg                  1.41:  Dens Mud Max 
 MOIL.                      68:  Run Mud Oil % 
 MOWR.                   68:32:  Run Mud OWR 
 MSND.                     0.2:  Run Mud Sand % 
 MSOL.                    18.8:  Run Mud Solids% 
 DFV .spqt               80.00:  Mud Viscosity 
 MWOD.in                  6.75:  MWD Tool OD 
 MWSI.                      No:  Serv Intrp, MWD 
 OTIM.hr                104.84:  Time Operating 
 PMAX.psia            10690.93:  Press Op, Max 
 PV  .cP                 26.00:  Mud PV 
 RUN .                     900:  Run Number 
 ROPA.m/hr                0.00:  ROP Avg 
 ROPN.m/hr                0.00:  ROP Min 
 ROPX.m/hr                0.00:  ROP Max 
 RPMA.rpm               140.00:  RPM Surface Avg 
 RPMN.rpm                70.00:  RPM Surface Min 
 RPMX.rpm               140.00:  RPM Surface Max 
 RRUN.                    0900:  Rig Run Number 
 RTIM.hr                 36.00:  Time Reaming 
 SAZI.deg               115.72:  Azm, Start 
 SDEP.m                5337.01:  Start Depth 
 SIDD.                      No:  Serv Intrp, DD 
 SINC.deg                66.92:  Inc, Start 
 SPPA.psig             4400.00:  SPP Avg 
 SPPN.psig             1135.00:  SPP Min 
 SPPX.psig             4581.00:  SPP Max 
 STIM.      04.30.56 18-May-20:  Start Time 
 SVCS.                     MWD:  Services 
 SVER.                    9.20:  Sperry Version 
 TDAT.m                5337.01:  Tot Depth Attmp 
 TDDF.                      No:  Trip for DD 
 TFF .                      No:  Trip for Fail 
 TQAA.f-kp               23.00:  Torque Abs Avg 
 TQAN.f-kp               18.00:  Torque Abs Min 
 TQAX.f-kp               25.00:  Torque Abs Max 
 TRRT.°/30m               0.74:  Turn Rotating 
 MRT .                    HCIM:  Maximum Recorded Temperature 
 TTMX.degC               76.47:  Max Tool Temp 
 WBMN.klb                 0.00:  WOB Min 
 WITN.             Anar Khalil:  Customer Rep 
 WITN.      Kamran Keberlinski:  Customer Rep 2 
 WOBA.klb                 0.00:  WOB Avg 
 WOBX.klb                 0.00:  WOB Max 
 YP  .lhf2               27.00:  Yield Point 
~Curve Information Block
#MNEM.UNIT                 API CODE     Curve Description
#---------               -----------    ---------------------------
 TIME.HHMMSS            00 000 000 000:  GT Time & Date
 GTDEPTH.m              00 000 000 000:  GT Depth
 GTPQH.psia             00 000 000 000:  GT HR Quartz Pressure
 GTTQ.degC              00 000 000 000:  GT Quartz Temperature
 GTTN.NONE              00 000 000 000:  GT Test Number
 GTET.sec               00 000 000 000:  GT Elapsed Test Time
 GTTVD.m                00 000 000 000:  GT True Vertical Depth
#Other Information
#
#WARRANTY: Halliburton will use its best efforts to furnish customers with 
#accurate information and interpretations that are part of, and incident to, the services 
#provided.  However, Halliburton cannot and does not warrant the accuracy 
#or correctness of such information and interpretations.  Under no circumstances should any 
#such information or interpretation be relied upon as the sole basis for any drilling, 
#completion, production, or financial decision or any procedure involving any risk to the 
#safety of any drilling venture, drilling rig or its crew or any other third party.  The 
#Customer has full responsibility for all drilling, completion and production operation.  
#Halliburton makes no representations or warranties, either expressed or 
#implied, including, but not limited to, the implied warranties of merchantability or fitness 
#for a particular purpose, with respect to the services rendered.  In no event will 
#Halliburton be liable for failure to obtain any particular results or for 
#any damages, including, but not limited to, indirect, special or consequential damages, 
#resulting from the use of any information or interpretation provided by Halliburton.
#
~A           TIME           GTDEPTH  GTPQH  GTTQ  GTTN  GTET   GTTVD  
# ...
   21:43:08.383.19-May-2020 5137.01 2399.08 67.44 3.00  69.02 2705.05
   21:43:08.583.19-May-2020 5137.01 2399.08 67.44 3.00  69.22 2705.05
   21:43:08.783.19-May-2020 5137.01 2432.49 67.44 3.00  69.42 2705.05
   21:43:08.983.19-May-2020 5137.01 2448.85 67.44 3.00  69.62 2705.05
   21:43:09.183.19-May-2020 5137.01 2465.03 67.44 3.00  69.82 2705.05
   21:43:09.383.19-May-2020 5137.01 2480.29 67.44 3.00  70.02 2705.05
   21:43:09.584.19-May-2020 5137.01 2480.29 67.44 3.00  70.22 2705.05
   21:43:09.784.19-May-2020 5137.01 2512.19 67.44 3.00  70.42 2705.05
   21:43:09.984.19-May-2020 5137.01 2527.79 67.44 3.00  70.62 2705.05
   21:43:10.184.19-May-2020 5137.01 2542.35 67.44 3.00  70.82 2705.05
   21:43:10.384.19-May-2020 5137.01 2558.05 67.45 3.00  71.02 2705.05
   21:43:10.584.19-May-2020 5137.01 2558.05 67.45 3.00  71.22 2705.05
   21:43:10.784.19-May-2020 5137.01 2587.82 67.45 3.00  71.42 2705.05
   21:43:10.984.19-May-2020 5137.01 2602.35 67.45 3.00  71.62 2705.05
   21:43:11.184.19-May-2020 5137.01 2616.90 67.45 3.00  71.82 2705.05
   21:43:11.384.19-May-2020 5137.01 2630.34 67.45 3.00  72.02 2705.05
   21:43:11.584.19-May-2020 5137.01 2630.34 67.45 3.00  72.22 2705.05
   21:43:11.784.19-May-2020 5137.01 2659.10 67.45 3.00  72.42 2705.05
   21:43:11.984.19-May-2020 5137.01 2672.85 67.45 3.00  72.62 2705.05
   21:43:12.184.19-May-2020 5137.01 2686.54 67.45 3.00  72.82 2705.05
   21:43:12.384.19-May-2020 5137.01 2699.36 67.46 3.00  73.02 2705.05
   21:43:12.584.19-May-2020 5137.01 2699.36 67.46 3.00  73.22 2705.05
   21:43:12.784.19-May-2020 5137.01 2726.53 67.46 3.00  73.42 2705.05
   21:43:12.984.19-May-2020 5137.01 2739.05 67.46 3.00  73.62 2705.05
   21:43:13.184.19-May-2020 5137.01 2752.25 67.46 3.00  73.82 2705.05
   21:43:13.384.19-May-2020 5137.01 2765.10 67.46 3.00  74.02 2705.05
   21:43:13.585.19-May-2020 5137.01 2765.10 67.46 3.00  74.22 2705.05
   21:43:13.785.19-May-2020 5137.01 2790.37 67.46 3.00  74.42 2705.05
   21:43:13.985.19-May-2020 5137.01 2802.70 67.46 3.00  74.62 2705.05
   21:43:14.185.19-May-2020 5137.01 2814.98 67.46 3.00  74.82 2705.05
   21:43:14.385.19-May-2020 5137.01 2827.06 67.46 3.00  75.02 2705.05
   21:43:14.585.19-May-2020 5137.01 2827.06 67.46 3.00  75.22 2705.05
   21:43:14.785.19-May-2020 5137.01 2850.84 67.47 3.00  75.42 2705.05
   21:43:14.985.19-May-2020 5137.01 2862.58 67.47 3.00  75.62 2705.05
   21:43:15.185.19-May-2020 5137.01 2874.19 67.47 3.00  75.82 2705.05
   21:43:15.385.19-May-2020 5137.01 2885.60 67.47 3.00  76.02 2705.05
   21:43:15.585.19-May-2020 5137.01 2885.60 67.47 3.00  76.22 2705.05
   21:43:15.785.19-May-2020 5137.01 2908.12 67.47 3.00  76.42 2705.05
   21:43:15.985.19-May-2020 5137.01 2919.26 67.47 3.00  76.62 2705.05
   21:43:16.185.19-May-2020 5137.01 2929.42 67.47 3.00  76.82 2705.05
   21:43:16.385.19-May-2020 5137.01 2940.76 67.47 3.00  77.02 2705.05
   21:43:16.585.19-May-2020 5137.01 2940.76 67.47 3.00  77.22 2705.05
   21:43:16.785.19-May-2020 5137.01 2961.71 67.47 3.00  77.42 2705.05
   21:43:16.985.19-May-2020 5137.01 2972.48 67.47 3.00  77.62 2705.05
   21:43:17.185.19-May-2020 5137.01 2983.08 67.48 3.00  77.82 2705.05
   21:43:17.385.19-May-2020 5137.01 2993.37 67.48 3.00  78.02 2705.05
   21:43:17.586.19-May-2020 5137.01 2993.37 67.48 3.00  78.22 2705.05
   21:43:17.786.19-May-2020 5137.01 3013.00 67.48 3.00  78.42 2705.05
   21:43:17.986.19-May-2020 5137.01 3023.58 67.48 3.00  78.62 2705.05
   21:43:18.186.19-May-2020 5137.01 3033.53 67.48 3.00  78.82 2705.05
   21:43:18.386.19-May-2020 5137.01 3043.22 67.48 3.00  79.02 2705.05
   21:43:18.586.19-May-2020 5137.01 3043.22 67.48 3.00  79.22 2705.05
   21:43:18.786.19-May-2020 5137.01 3062.62 67.48 3.00  79.42 2705.05
   21:43:18.986.19-May-2020 5137.01 3071.97 67.48 3.00  79.62 2705.05
   21:43:19.186.19-May-2020 5137.01 3081.44 67.48 3.00  79.82 2705.05
   21:43:19.386.19-May-2020 5137.01 3090.76 67.48 3.00  80.02 2705.05
   21:43:19.586.19-May-2020 5137.01 3090.76 67.48 3.00  80.22 2705.05
   21:43:19.786.19-May-2020 5137.01 3109.06 67.48 3.00  80.42 2705.05
   21:43:19.986.19-May-2020 5137.01 3117.98 67.48 3.00  80.62 2705.05
   21:43:20.186.19-May-2020 5137.01 3126.93 67.48 3.00  80.82 2705.05
   21:43:20.386.19-May-2020 5137.01 3135.85 67.49 3.00  81.02 2705.05
   21:43:20.586.19-May-2020 5137.01 3135.85 67.49 3.00  81.22 2705.05
   21:43:20.786.19-May-2020 5137.01 3153.26 67.49 3.00  81.42 2705.05
   21:43:20.986.19-May-2020 5137.01 3161.88 67.49 3.00  81.62 2705.05
   21:43:21.186.19-May-2020 5137.01 3170.40 67.49 3.00  81.82 2705.05
   21:43:21.386.19-May-2020 5137.01 3178.76 67.49 3.00  82.02 2705.05
   21:43:21.587.19-May-2020 5137.01 3178.76 67.49 3.00  82.22 2705.05
   21:43:21.787.19-May-2020 5137.01 3195.37 67.49 3.00  82.42 2705.05
   21:43:21.987.19-May-2020 5137.01 3203.57 67.49 3.00  82.62 2705.05
   21:43:22.187.19-May-2020 5137.01 3211.61 67.49 3.00  82.82 2705.05
   21:43:22.387.19-May-2020 5137.01 3219.55 67.49 3.00  83.02 2705.05
   21:43:22.587.19-May-2020 5137.01 3219.55 67.49 3.00  83.22 2705.05
   21:43:22.787.19-May-2020 5137.01 3234.96 67.49 3.00  83.42 2705.05
   21:43:22.987.19-May-2020 5137.01 3242.83 67.49 3.00  83.62 2705.05
   21:43:23.187.19-May-2020 5137.01 3250.61 67.49 3.00  83.82 2705.05
   21:43:23.387.19-May-2020 5137.01 3257.54 67.49 3.00  84.02 2705.05
   21:43:23.587.19-May-2020 5137.01 3257.54 67.49 3.00  84.22 2705.05
   21:43:23.787.19-May-2020 5137.01 3273.12 67.49 3.00  84.42 2705.05
   21:43:23.987.19-May-2020 5137.01 3280.63 67.49 3.00  84.62 2705.05
   21:43:24.187.19-May-2020 5137.01 3287.93 67.49 3.00  84.82 2705.05
   21:43:24.387.19-May-2020 5137.01 3294.54 67.49 3.00  85.02 2705.05
   21:43:24.587.19-May-2020 5137.01 3294.54 67.49 3.00  85.22 2705.05
   21:43:24.787.19-May-2020 5137.01 3309.44 67.50 3.00  85.42 2705.05
   21:43:24.987.19-May-2020 5137.01 3316.08 67.50 3.00  85.62 2705.05
   21:43:25.187.19-May-2020 5137.01 3323.30 67.50 3.00  85.82 2705.05
   21:43:25.387.19-May-2020 5137.01 3330.35 67.50 3.00  86.02 2705.05
   21:43:25.588.19-May-2020 5137.01 3330.35 67.50 3.00  86.22 2705.05
   21:43:25.788.19-May-2020 5137.01 3344.14 67.50 3.00  86.42 2705.05
   21:43:25.988.19-May-2020 5137.01 3350.37 67.50 3.00  86.62 2705.05
   21:43:26.188.19-May-2020 5137.01 3357.22 67.50 3.00  86.82 2705.05
   21:43:26.388.19-May-2020 5137.01 3363.97 67.50 3.00  87.02 2705.05
   21:43:26.588.19-May-2020 5137.01 3363.97 67.50 3.00  87.22 2705.05
   21:43:26.788.19-May-2020 5137.01 3377.11 67.50 3.00  87.42 2705.05
   21:43:26.988.19-May-2020 5137.01 3383.46 67.50 3.00  87.62 2705.05
   21:43:27.188.19-May-2020 5137.01 3389.94 67.50 3.00  87.82 2705.05
   21:43:27.388.19-May-2020 5137.01 3396.23 67.50 3.00  88.02 2705.05
   21:43:27.588.19-May-2020 5137.01 3396.23 67.50 3.00  88.22 2705.05
   21:43:27.788.19-May-2020 5137.01 3396.23 67.50 3.00  88.42 2705.05
   21:43:27.988.19-May-2020 5137.01 3415.17 67.50 3.00  88.62 2705.05
   21:43:28.188.19-May-2020 5137.01 3421.56 67.50 3.00  88.82 2705.05
   21:43:28.388.19-May-2020 5137.01 3427.27 67.50 3.00  89.02 2705.05
   21:43:28.588.19-May-2020 5137.01 3427.27 67.50 3.00  89.22 2705.05
   21:43:28.788.19-May-2020 5137.01 3438.79 67.50 3.00  89.42 2705.05
   21:43:28.988.19-May-2020 5137.01 3444.66 67.50 3.00  89.62 2705.05
   21:43:29.188.19-May-2020 5137.01 3449.70 67.50 3.00  89.82 2705.05
   21:43:29.388.19-May-2020 5137.01 3455.97 67.50 3.00  90.02 2705.05
   21:43:29.589.19-May-2020 5137.01 3455.97 67.50 3.00  90.22 2705.05
   21:43:29.789.19-May-2020 5137.01 3467.31 67.50 3.00  90.42 2705.05
   21:43:29.989.19-May-2020 5137.01 3472.21 67.50 3.00  90.62 2705.05
   21:43:30.189.19-May-2020 5137.01 3478.42 67.51 3.00  90.82 2705.05
   21:43:30.389.19-May-2020 5137.01 3483.86 67.51 3.00  91.02 2705.05
   21:43:30.589.19-May-2020 5137.01 3483.86 67.51 3.00  91.22 2705.05
   21:43:30.789.19-May-2020 5137.01 3494.73 67.51 3.00  91.42 2705.05
   21:43:30.989.19-May-2020 5137.01 3499.46 67.51 3.00  91.62 2705.05
   21:43:31.189.19-May-2020 5137.01 3505.34 67.51 3.00  91.82 2705.05
