~Version Information
 VERS.                  2.0:   CWLS log ASCII Standard -VERSION 2.0
 WRAP.                   NO:   One line per depth step
~Well Information Block
#MNEM.UNIT     VALUE/NAME     DESCRIPTION
#---------     -----------    ---------------------------
 STRT.S             17:37:07 19-May-20: START TIME 17:37:07 19-May-20
 STOP.S             17:43:47 19-May-20: STOP TIME  17:43:47 19-May-20
 STEP.S                   0.00: STEP TIME
 NULL.                 -999.25: NULL VALUE
 MDS .        Operator Entered:  MAG DATA SOURCE
 PDAT.          Mean Sea Level:  PERMANENT DATUM
 UNIT.                     N/A:  LOGGING EQUIPMENT ID
 DCON.         Sperry Drilling:  DIRECTNL CONTR
 DOE .                     N/A:  DOE NUMBER
 RIG .              East Azeri:  RIG NAME
 JOBN.        AZ-XX-0905856059:  JOB TICKET NUMB
 WELL.                     D36:  WELL NAME
 MWDS.                    Baku:  MWD SHOP
 SRVC.     Turan Drilling & Engineering:  CONTRACTOR
 FLD .                     ACG:  FIELD NAME
 CTRY.              Azerbaijan:  COUNTRY NAME
 PROV.                    Baku:  PROVINCE
 STAT.                    Baku:  STATE NAME
 REGN.                   EESSA:  REGION
 BASE.              Azerbaijan:  LOGGING EQUIPMENT BASE LOCATION
 UWI .                     N/A:  UNIQUE WELL IDENTIFIER
 API .                     N/A:  API NUMBER
 COMP.     BP Exploration (Caspian Sea) Ltd.:  COMPANY
 WTYP.                Deviated:  WELL TYPE
 SON .        AZ-XX-0905856059:  JOB NUMBER
 FTOP.          Formation Tops:  FORM TOPS DESC
 ILTD.               Lithology:  INTERP LTH DESC
 SVYD.                  Survey:  SURVEY DESC
 DMOD.             Drill Model:  DRILL MOD DESC
 HPTY.       Minimum Curvature:  HOLE POS TYPE
 NREF.                    Grid:  NORTH REFERENCE
 SPUD.               25-Feb-20:  SPUD DATE
 DATE.      08.55.28 01-May-20:  END TIME
 STIM.      08.55.28 25-Feb-20:  START TIME
 DMF .             Drill Floor:  DRILL MEAS FROM
 DFST.                        :  DIST FSL TEXT
 DFWT.                        :  DIST FWL TEXT
 CNTY.                        :  COUNTY
 LOC .                        :  LOCATION
 LMF .             Drill Floor:  LOG MEASURED FROM
 VSNS.m                   6.09:  VERT SEC N/S
 VSEW.m                 -10.79:  VERT SEC E/W
 AGAP.m                  43.60:  AIR GAP
 DEP .m                 388.24:  DEPTH
 APD .m                  43.60:  DEPTH ABOVE PD
 WDMS.m                 151.80:  WD ELEV
 EGL .m                   0.00:  GROUND ELEVATION
 EPD .m                   0.00:  ELEVATION
 AZTC.deg                 6.12:  AZM TOTAL CORR
 GRDC.deg                 0.30:  GRID CORRECTION
 MDEC.deg                 6.42:  MAGNETIC DECL
 MDIP.deg                59.42:  MAGNETIC DIP
 MFLD.nT              50256.00:  MAGNETIC FIELD
 GVFD.g                   1.00:  GRAVITY FIELD
 VSDR.deg               159.57:  VERT SEC DIRECT
 TDD .m                5000.01:  TOTAL DEPTH (DRILLER)
 SDEP.m                 397.00:  START DEPTH
 DFSL.m                   0.00:  DISTANCE FSL
 DFWL.m                   0.00:  DISTANCE FWL
 UTMY.m             4431880.20:  UTM Y
 UTMX.m              538763.98:  UTM X
 WHEW.m                 -10.79:  WELL HEAD E/W
 WHNS.m                   6.09:  WELL HEAD N/S
 LONG.deg                51.45:  LONGITUDE
 LATI.deg                40.02:  LATITUDE
 TVDS.m                  43.60:  TVDSS CORRECTN
 EKB .m                  43.60:  KB ELEVATION
 EDF .m                  43.60:  DF ELEVATION
 MAGU.                 1847640:  MAGUTM CHECKSUM
 VSC .                       0:  VS TO CLOSURE
~Parameter Information Block
#MNEM.UNIT       Value        Description
#---------     -----------    ---------------------------
 AV  .mps                 1.30:  Ann Velocity 
 AVMX.mps                 1.90:  Max Ann Veloc 
 AZIF.deg               115.68:  Azm, Final 
 BHAT.                   Other:  BHA Type 
 BROT.°/30m               0.74:  Build Rotating 
 BS  .in                  8.50:  Bit Size 
 BTPL.psig              430.00:  Bit Press Loss 
 CABU.                      No:  Customer Abuse 
 COMM.                     t9l:  Run Comments 1 
 TCS .hr                 51.31:  Time Ciculation Ended 
 CV  .mps                 2.52:  Crit Velocity 
 CVMX.mps                 2.62:  Max Crit Veloc 
 DD1 .          Teymur Aghayev:  Direct Drillr 1 
 DDSV.                   Other:  DD Service 
 DEFF.%                 100.00:  % Det Eff 
 DLRX.°/30m               1.62:  Dogleg Rot Max 
 DLSO.°/30m               0.74:  Dogleg Oriented 
 DLSX.°/30m               1.62:  Dogleg Str Max 
 DRET.      04.30.56 18-May-20:  Drill End Time 
 DRST.      04.30.56 18-May-20:  Drill Start Tim 
 DTIM.hr                  0.00:  Time Drilling 
 EDEP.m                5337.01:  End Depth 
 ENG1.      Artemiy Matviyanov:  Engineer 1 
 ENG2.      Bakhtiyar Jabbarli:  Engineer 2 
 ENG3.           Emil Huseynov:  Engineer 3 
 ETIM.      18.40.00 22-May-20:  End Time 
 FLOI.gpm               550.00:  Flow In 
 FLON.gpm               350.00:  Flow In Min 
 FLOS.cptm                0.00:  Fluid Loss 
 FLOX.gpm               600.00:  Flow In Max 
 HFLO.                      No:  High Flow 
 HPRE.                      No:  High Pressure 
 HTEM.                      No:  High Temp 
 HYDO.m                   1.80:  Hydro Offset 
 IFIN.deg                67.01:  Inc, Final 
 IMAX.deg                67.49:  Inc Max 
 IMIN.deg                66.50:  Inc Min 
 IMND.m                5144.79:  Inc Min Depth 
 IMXD.m                5116.12:  Inc Max Depth 
 JARR.                      No:  Jarring 
 LETM.      17.55.56 20-May-20:  Log End Time 
 LOST.hr                     0:  Lost Rig Time 
 LSTM.      04.30.56 18-May-20:  Log Start Time 
 MDCL.ppm            193153.00:  Mud Chlorides 
 MDES.     Inversion Oil/Synthetic:  Mud Desc 
 DFD .sg                  1.40:  Mud Density 
 MDMN.sg                  1.40:  Dens Mud Min 
 MDMX.sg                  1.41:  Dens Mud Max 
 MOIL.                      68:  Run Mud Oil % 
 MOWR.                   68:32:  Run Mud OWR 
 MSND.                     0.2:  Run Mud Sand % 
 MSOL.                    18.8:  Run Mud Solids% 
 DFV .spqt               80.00:  Mud Viscosity 
 MWOD.in                  6.75:  MWD Tool OD 
 MWSI.                      No:  Serv Intrp, MWD 
 OTIM.hr                104.84:  Time Operating 
 PMAX.psia            10690.93:  Press Op, Max 
 PV  .cP                 26.00:  Mud PV 
 RUN .                     900:  Run Number 
 ROPA.m/hr                0.00:  ROP Avg 
 ROPN.m/hr                0.00:  ROP Min 
 ROPX.m/hr                0.00:  ROP Max 
 RPMA.rpm               140.00:  RPM Surface Avg 
 RPMN.rpm                70.00:  RPM Surface Min 
 RPMX.rpm               140.00:  RPM Surface Max 
 RRUN.                    0900:  Rig Run Number 
 RTIM.hr                 36.00:  Time Reaming 
 SAZI.deg               115.72:  Azm, Start 
 SDEP.m                5337.01:  Start Depth 
 SIDD.                      No:  Serv Intrp, DD 
 SINC.deg                66.92:  Inc, Start 
 SPPA.psig             4400.00:  SPP Avg 
 SPPN.psig             1135.00:  SPP Min 
 SPPX.psig             4581.00:  SPP Max 
 STIM.      04.30.56 18-May-20:  Start Time 
 SVCS.                     MWD:  Services 
 SVER.                    9.20:  Sperry Version 
 TDAT.m                5337.01:  Tot Depth Attmp 
 TDDF.                      No:  Trip for DD 
 TFF .                      No:  Trip for Fail 
 TQAA.f-kp               23.00:  Torque Abs Avg 
 TQAN.f-kp               18.00:  Torque Abs Min 
 TQAX.f-kp               25.00:  Torque Abs Max 
 TRRT.°/30m               0.74:  Turn Rotating 
 MRT .                    HCIM:  Maximum Recorded Temperature 
 TTMX.degC               76.47:  Max Tool Temp 
 WBMN.klb                 0.00:  WOB Min 
 WITN.             Anar Khalil:  Customer Rep 
 WITN.      Kamran Keberlinski:  Customer Rep 2 
 WOBA.klb                 0.00:  WOB Avg 
 WOBX.klb                 0.00:  WOB Max 
 YP  .lhf2               27.00:  Yield Point 
~Curve Information Block
#MNEM.UNIT                 API CODE     Curve Description
#---------               -----------    ---------------------------
 TIME.HHMMSS            00 000 000 000:  GT Time & Date
 GTDEPTH.m              00 000 000 000:  GT Depth
 GTPQH.psia             00 000 000 000:  GT HR Quartz Pressure
 GTTQ.degC              00 000 000 000:  GT Quartz Temperature
 GTTN.NONE              00 000 000 000:  GT Test Number
 GTET.sec               00 000 000 000:  GT Elapsed Test Time
 GTTVD.m                00 000 000 000:  GT True Vertical Depth
#Other Information
#
#WARRANTY: Halliburton will use its best efforts to furnish customers with 
#accurate information and interpretations that are part of, and incident to, the services 
#provided.  However, Halliburton cannot and does not warrant the accuracy 
#or correctness of such information and interpretations.  Under no circumstances should any 
#such information or interpretation be relied upon as the sole basis for any drilling, 
#completion, production, or financial decision or any procedure involving any risk to the 
#safety of any drilling venture, drilling rig or its crew or any other third party.  The 
#Customer has full responsibility for all drilling, completion and production operation.  
#Halliburton makes no representations or warranties, either expressed or 
#implied, including, but not limited to, the implied warranties of merchantability or fitness 
#for a particular purpose, with respect to the services rendered.  In no event will 
#Halliburton be liable for failure to obtain any particular results or for 
#any damages, including, but not limited to, indirect, special or consequential damages, 
#resulting from the use of any information or interpretation provided by Halliburton.
#
~A           TIME           GTDEPTH  GTPQH  GTTQ  GTTN  GTET   GTTVD  
# ...
   17:39:48.145.19-May-2020 5195.01  650.22 66.99 2.00 161.02 2727.85
   17:39:48.345.19-May-2020 5195.01  650.22 66.99 2.00 161.22 2727.85
   17:39:48.545.19-May-2020 5195.01  666.51 66.99 2.00 161.42 2727.85
   17:39:48.745.19-May-2020 5195.01  675.60 66.99 2.00 161.62 2727.85
   17:39:48.945.19-May-2020 5195.01  683.62 66.99 2.00 161.82 2727.85
   17:39:49.145.19-May-2020 5195.01  691.22 66.99 2.00 162.02 2727.85
   17:39:49.345.19-May-2020 5195.01  691.22 66.99 2.00 162.22 2727.85
   17:39:49.545.19-May-2020 5195.01  706.09 66.99 2.00 162.42 2727.85
   17:39:49.745.19-May-2020 5195.01  714.67 66.99 2.00 162.62 2727.85
   17:39:49.945.19-May-2020 5195.01  722.78 66.99 2.00 162.82 2727.85
   17:39:50.145.19-May-2020 5195.01  730.36 66.99 2.00 163.02 2727.85
   17:39:50.345.19-May-2020 5195.01  730.36 66.99 2.00 163.22 2727.85
   17:39:50.545.19-May-2020 5195.01  746.59 66.99 2.00 163.42 2727.85
   17:39:50.745.19-May-2020 5195.01  759.28 66.99 2.00 163.62 2727.85
   17:39:50.945.19-May-2020 5195.01  770.36 66.99 2.00 163.82 2727.85
   17:39:51.145.19-May-2020 5195.01  779.89 66.99 2.00 164.02 2727.85
   17:39:51.345.19-May-2020 5195.01  779.89 66.99 2.00 164.22 2727.85
   17:39:51.545.19-May-2020 5195.01  798.13 66.99 2.00 164.42 2727.85
   17:39:51.745.19-May-2020 5195.01  806.77 66.99 2.00 164.62 2727.85
   17:39:51.945.19-May-2020 5195.01  815.17 66.99 2.00 164.82 2727.85
   17:39:52.145.19-May-2020 5195.01  823.10 66.99 2.00 165.02 2727.85
   17:39:52.345.19-May-2020 5195.01  823.10 66.99 2.00 165.22 2727.85
   17:39:52.545.19-May-2020 5195.01  838.35 66.99 2.00 165.42 2727.85
   17:39:52.745.19-May-2020 5195.01  846.35 66.99 2.00 165.62 2727.85
   17:39:52.945.19-May-2020 5195.01  854.21 66.99 2.00 165.82 2727.85
   17:39:53.145.19-May-2020 5195.01  861.72 66.99 2.00 166.02 2727.85
   17:39:53.345.19-May-2020 5195.01  861.72 66.99 2.00 166.22 2727.85
   17:39:53.545.19-May-2020 5195.01  876.34 66.99 2.00 166.42 2727.85
   17:39:53.745.19-May-2020 5195.01  883.53 66.99 2.00 166.62 2727.85
   17:39:53.945.19-May-2020 5195.01  890.46 66.99 2.00 166.82 2727.85
   17:39:54.145.19-May-2020 5195.01  897.71 66.99 2.00 167.02 2727.85
   17:39:54.345.19-May-2020 5195.01  904.65 66.99 2.00 167.22 2727.85
   17:39:54.545.19-May-2020 5195.01  912.17 66.99 2.00 167.42 2727.85
   17:39:54.745.19-May-2020 5195.01  919.50 66.99 2.00 167.62 2727.85
   17:39:54.945.19-May-2020 5195.01  926.73 67.00 2.00 167.82 2727.85
   17:39:55.145.19-May-2020 5195.01  933.57 67.00 2.00 168.02 2727.85
   17:39:55.346.19-May-2020 5195.01  933.57 67.00 2.00 168.22 2727.85
   17:39:55.546.19-May-2020 5195.01  947.96 67.00 2.00 168.42 2727.85
   17:39:55.746.19-May-2020 5195.01  954.56 67.00 2.00 168.62 2727.85
   17:39:55.946.19-May-2020 5195.01  961.03 67.00 2.00 168.82 2727.85
   17:39:56.146.19-May-2020 5195.01  967.44 67.00 2.00 169.02 2727.85
   17:39:56.346.19-May-2020 5195.01  967.44 67.00 2.00 169.22 2727.85
   17:39:56.546.19-May-2020 5195.01  980.20 67.00 2.00 169.42 2727.85
   17:39:56.746.19-May-2020 5195.01  986.22 67.00 2.00 169.62 2727.85
   17:39:56.946.19-May-2020 5195.01  992.38 67.00 2.00 169.82 2727.85
   17:39:57.146.19-May-2020 5195.01  998.37 67.00 2.00 170.02 2727.85
   17:39:57.346.19-May-2020 5195.01  998.37 67.00 2.00 170.22 2727.85
   17:39:57.546.19-May-2020 5195.01 1010.83 67.00 2.00 170.42 2727.85
   17:39:57.746.19-May-2020 5195.01 1016.85 67.00 2.00 170.62 2727.85
   17:39:57.946.19-May-2020 5195.01 1022.79 67.00 2.00 170.82 2727.85
   17:39:58.146.19-May-2020 5195.01 1028.38 67.00 2.00 171.02 2727.85
   17:39:58.346.19-May-2020 5195.01 1028.38 67.00 2.00 171.22 2727.85
   17:39:58.546.19-May-2020 5195.01 1039.96 67.00 2.00 171.42 2727.85
   17:39:58.746.19-May-2020 5195.01 1045.88 67.00 2.00 171.62 2727.85
   17:39:58.946.19-May-2020 5195.01 1051.74 67.00 2.00 171.82 2727.85
   17:39:59.146.19-May-2020 5195.01 1057.67 67.00 2.00 172.02 2727.85
   17:39:59.346.19-May-2020 5195.01 1063.50 67.00 2.00 172.22 2727.85
   17:39:59.546.19-May-2020 5195.01 1069.10 67.00 2.00 172.42 2727.85
   17:39:59.746.19-May-2020 5195.01 1074.72 67.00 2.00 172.62 2727.85
   17:39:59.946.19-May-2020 5195.01 1080.17 67.00 2.00 172.82 2727.85
   17:40:00.146.19-May-2020 5195.01 1085.76 67.01 2.00 173.02 2727.85
   17:40:00.346.19-May-2020 5195.01 1085.76 67.01 2.00 173.22 2727.85
   17:40:00.546.19-May-2020 5195.01 1096.68 67.01 2.00 173.42 2727.85
   17:40:00.746.19-May-2020 5195.01 1102.03 67.01 2.00 173.62 2727.85
   17:40:00.946.19-May-2020 5195.01 1107.40 67.01 2.00 173.82 2727.85
   17:40:01.146.19-May-2020 5195.01 1112.56 67.01 2.00 174.02 2727.85
   17:40:01.346.19-May-2020 5195.01 1112.56 67.01 2.00 174.22 2727.85
   17:40:01.546.19-May-2020 5195.01 1123.18 67.01 2.00 174.42 2727.85
   17:40:01.746.19-May-2020 5195.01 1128.34 67.01 2.00 174.62 2727.85
   17:40:01.946.19-May-2020 5195.01 1133.29 67.01 2.00 174.82 2727.85
   17:40:02.146.19-May-2020 5195.01 1138.52 67.01 2.00 175.02 2727.85
   17:40:02.346.19-May-2020 5195.01 1138.52 67.01 2.00 175.22 2727.85
   17:40:02.546.19-May-2020 5195.01 1148.78 67.01 2.00 175.42 2727.85
   17:40:02.746.19-May-2020 5195.01 1153.30 67.01 2.00 175.62 2727.85
   17:40:02.946.19-May-2020 5195.01 1158.85 67.01 2.00 175.82 2727.85
   17:40:03.146.19-May-2020 5195.01 1163.75 67.01 2.00 176.02 2727.85
   17:40:03.346.19-May-2020 5195.01 1163.75 67.01 2.00 176.22 2727.85
   17:40:03.547.19-May-2020 5195.01 1173.48 67.01 2.00 176.42 2727.85
   17:40:03.747.19-May-2020 5195.01 1178.35 67.01 2.00 176.62 2727.85
   17:40:03.947.19-May-2020 5195.01 1183.00 67.01 2.00 176.82 2727.85
   17:40:04.147.19-May-2020 5195.01 1187.67 67.01 2.00 177.02 2727.85
   17:40:04.347.19-May-2020 5195.01 1187.67 67.01 2.00 177.22 2727.85
   17:40:04.547.19-May-2020 5195.01 1197.38 67.01 2.00 177.42 2727.85
   17:40:04.747.19-May-2020 5195.01 1202.20 67.01 2.00 177.62 2727.85
   17:40:04.947.19-May-2020 5195.01 1206.83 67.01 2.00 177.82 2727.85
   17:40:05.147.19-May-2020 5195.01 1211.13 67.01 2.00 178.02 2727.85
   17:40:05.347.19-May-2020 5195.01 1211.13 67.01 2.00 178.22 2727.85
   17:40:05.547.19-May-2020 5195.01 1220.71 67.02 2.00 178.42 2727.85
   17:40:05.747.19-May-2020 5195.01 1225.26 67.02 2.00 178.62 2727.85
   17:40:05.947.19-May-2020 5195.01 1230.07 67.02 2.00 178.82 2727.85
   17:40:06.147.19-May-2020 5195.01 1234.93 67.02 2.00 179.02 2727.85
   17:40:06.347.19-May-2020 5195.01 1234.93 67.02 2.00 179.22 2727.85
   17:40:06.547.19-May-2020 5195.01 1245.02 67.02 2.00 179.42 2727.85
   17:40:06.747.19-May-2020 5195.01 1251.42 67.02 2.00 179.62 2727.85
   17:40:06.947.19-May-2020 5195.01 1258.40 67.02 2.00 179.82 2727.85
   17:40:07.147.19-May-2020 5195.01 1264.35 67.02 2.00 180.02 2727.85
   17:40:07.347.19-May-2020 5195.01 1264.35 67.02 2.00 180.22 2727.85
   17:40:07.547.19-May-2020 5195.01 1275.28 67.02 2.00 180.42 2727.85
   17:40:07.747.19-May-2020 5195.01 1280.55 67.02 2.00 180.62 2727.85
   17:40:07.947.19-May-2020 5195.01 1285.86 67.02 2.00 180.82 2727.85
   17:40:08.147.19-May-2020 5195.01 1291.54 67.02 2.00 181.02 2727.85
   17:40:08.347.19-May-2020 5195.01 1291.54 67.02 2.00 181.22 2727.85
   17:40:08.547.19-May-2020 5195.01 1304.12 67.02 2.00 181.42 2727.85
   17:40:08.747.19-May-2020 5195.01 1309.97 67.02 2.00 181.62 2727.85
   17:40:08.947.19-May-2020 5195.01 1315.42 67.02 2.00 181.82 2727.85
   17:40:09.147.19-May-2020 5195.01 1321.37 67.02 2.00 182.02 2727.85
   17:40:09.347.19-May-2020 5195.01 1321.37 67.02 2.00 182.22 2727.85
   17:40:09.547.19-May-2020 5195.01 1331.86 67.02 2.00 182.42 2727.85
   17:40:09.747.19-May-2020 5195.01 1337.27 67.02 2.00 182.62 2727.85
   17:40:09.947.19-May-2020 5195.01 1342.40 67.02 2.00 182.82 2727.85
   17:40:10.147.19-May-2020 5195.01 1348.01 67.02 2.00 183.02 2727.85
   17:40:10.347.19-May-2020 5195.01 1348.01 67.02 2.00 183.22 2727.85
   17:40:10.547.19-May-2020 5195.01 1358.49 67.02 2.00 183.42 2727.85
   17:40:10.747.19-May-2020 5195.01 1363.56 67.02 2.00 183.62 2727.85
   17:40:10.947.19-May-2020 5195.01 1368.55 67.02 2.00 183.82 2727.85
