~Version Information
 VERS.                  2.0:   CWLS log ASCII Standard -VERSION 2.0
 WRAP.                   NO:   One line per depth step
~Well Information Block
#MNEM.UNIT     VALUE/NAME     DESCRIPTION
#---------     -----------    ---------------------------
 STRT.S             21:41:59 19-May-20: START TIME 21:41:59 19-May-20
 STOP.S             21:48:44 19-May-20: STOP TIME  21:48:44 19-May-20
 STEP.S                   0.00: STEP TIME
 NULL.                 -999.25: NULL VALUE
 MDS .        Operator Entered:  MAG DATA SOURCE
 PDAT.          Mean Sea Level:  PERMANENT DATUM
 UNIT.                     N/A:  LOGGING EQUIPMENT ID
 DCON.         Sperry Drilling:  DIRECTNL CONTR
 DOE .                     N/A:  DOE NUMBER
 RIG .              East Azeri:  RIG NAME
 JOBN.        AZ-XX-0905856059:  JOB TICKET NUMB
 WELL.                     D36:  WELL NAME
 MWDS.                    Baku:  MWD SHOP
 SRVC.     Turan Drilling & Engineering:  CONTRACTOR
 FLD .                     ACG:  FIELD NAME
 CTRY.              Azerbaijan:  COUNTRY NAME
 PROV.                    Baku:  PROVINCE
 STAT.                    Baku:  STATE NAME
 REGN.                   EESSA:  REGION
 BASE.              Azerbaijan:  LOGGING EQUIPMENT BASE LOCATION
 UWI .                     N/A:  UNIQUE WELL IDENTIFIER
 API .                     N/A:  API NUMBER
 COMP.     BP Exploration (Caspian Sea) Ltd.:  COMPANY
 WTYP.                Deviated:  WELL TYPE
 SON .        AZ-XX-0905856059:  JOB NUMBER
 FTOP.          Formation Tops:  FORM TOPS DESC
 ILTD.               Lithology:  INTERP LTH DESC
 SVYD.                  Survey:  SURVEY DESC
 DMOD.             Drill Model:  DRILL MOD DESC
 HPTY.       Minimum Curvature:  HOLE POS TYPE
 NREF.                    Grid:  NORTH REFERENCE
 SPUD.               25-Feb-20:  SPUD DATE
 DATE.      08.55.28 01-May-20:  END TIME
 STIM.      08.55.28 25-Feb-20:  START TIME
 DMF .             Drill Floor:  DRILL MEAS FROM
 DFST.                        :  DIST FSL TEXT
 DFWT.                        :  DIST FWL TEXT
 CNTY.                        :  COUNTY
 LOC .                        :  LOCATION
 LMF .             Drill Floor:  LOG MEASURED FROM
 VSNS.m                   6.09:  VERT SEC N/S
 VSEW.m                 -10.79:  VERT SEC E/W
 AGAP.m                  43.60:  AIR GAP
 DEP .m                 388.24:  DEPTH
 APD .m                  43.60:  DEPTH ABOVE PD
 WDMS.m                 151.80:  WD ELEV
 EGL .m                   0.00:  GROUND ELEVATION
 EPD .m                   0.00:  ELEVATION
 AZTC.deg                 6.12:  AZM TOTAL CORR
 GRDC.deg                 0.30:  GRID CORRECTION
 MDEC.deg                 6.42:  MAGNETIC DECL
 MDIP.deg                59.42:  MAGNETIC DIP
 MFLD.nT              50256.00:  MAGNETIC FIELD
 GVFD.g                   1.00:  GRAVITY FIELD
 VSDR.deg               159.57:  VERT SEC DIRECT
 TDD .m                5000.01:  TOTAL DEPTH (DRILLER)
 SDEP.m                 397.00:  START DEPTH
 DFSL.m                   0.00:  DISTANCE FSL
 DFWL.m                   0.00:  DISTANCE FWL
 UTMY.m             4431880.20:  UTM Y
 UTMX.m              538763.98:  UTM X
 WHEW.m                 -10.79:  WELL HEAD E/W
 WHNS.m                   6.09:  WELL HEAD N/S
 LONG.deg                51.45:  LONGITUDE
 LATI.deg                40.02:  LATITUDE
 TVDS.m                  43.60:  TVDSS CORRECTN
 EKB .m                  43.60:  KB ELEVATION
 EDF .m                  43.60:  DF ELEVATION
 MAGU.                 1847640:  MAGUTM CHECKSUM
 VSC .                       0:  VS TO CLOSURE
~Parameter Information Block
#MNEM.UNIT       Value        Description
#---------     -----------    ---------------------------
 AV  .mps                 1.30:  Ann Velocity 
 AVMX.mps                 1.90:  Max Ann Veloc 
 AZIF.deg               115.68:  Azm, Final 
 BHAT.                   Other:  BHA Type 
 BROT.°/30m               0.74:  Build Rotating 
 BS  .in                  8.50:  Bit Size 
 BTPL.psig              430.00:  Bit Press Loss 
 CABU.                      No:  Customer Abuse 
 COMM.                     „äS:  Run Comments 1 
 TCS .hr                 51.31:  Time Ciculation Ended 
 CV  .mps                 2.52:  Crit Velocity 
 CVMX.mps                 2.62:  Max Crit Veloc 
 DD1 .          Teymur Aghayev:  Direct Drillr 1 
 DDSV.                   Other:  DD Service 
 DEFF.%                 100.00:  % Det Eff 
 DLRX.°/30m               1.62:  Dogleg Rot Max 
 DLSO.°/30m               0.74:  Dogleg Oriented 
 DLSX.°/30m               1.62:  Dogleg Str Max 
 DRET.      04.30.56 18-May-20:  Drill End Time 
 DRST.      04.30.56 18-May-20:  Drill Start Tim 
 DTIM.hr                  0.00:  Time Drilling 
 EDEP.m                5337.01:  End Depth 
 ENG1.      Artemiy Matviyanov:  Engineer 1 
 ENG2.      Bakhtiyar Jabbarli:  Engineer 2 
 ENG3.           Emil Huseynov:  Engineer 3 
 ETIM.      18.40.00 22-May-20:  End Time 
 FLOI.gpm               550.00:  Flow In 
 FLON.gpm               350.00:  Flow In Min 
 FLOS.cptm                0.00:  Fluid Loss 
 FLOX.gpm               600.00:  Flow In Max 
 HFLO.                      No:  High Flow 
 HPRE.                      No:  High Pressure 
 HTEM.                      No:  High Temp 
 HYDO.m                   1.80:  Hydro Offset 
 IFIN.deg                67.01:  Inc, Final 
 IMAX.deg                67.49:  Inc Max 
 IMIN.deg                66.50:  Inc Min 
 IMND.m                5144.79:  Inc Min Depth 
 IMXD.m                5116.12:  Inc Max Depth 
 JARR.                      No:  Jarring 
 LETM.      17.55.56 20-May-20:  Log End Time 
 LOST.hr                     0:  Lost Rig Time 
 LSTM.      04.30.56 18-May-20:  Log Start Time 
 MDCL.ppm            193153.00:  Mud Chlorides 
 MDES.     Inversion Oil/Synthetic:  Mud Desc 
 DFD .sg                  1.40:  Mud Density 
 MDMN.sg                  1.40:  Dens Mud Min 
 MDMX.sg                  1.41:  Dens Mud Max 
 MOIL.                      68:  Run Mud Oil % 
 MOWR.                   68:32:  Run Mud OWR 
 MSND.                     0.2:  Run Mud Sand % 
 MSOL.                    18.8:  Run Mud Solids% 
 DFV .spqt               80.00:  Mud Viscosity 
 MWOD.in                  6.75:  MWD Tool OD 
 MWSI.                      No:  Serv Intrp, MWD 
 OTIM.hr                104.84:  Time Operating 
 PMAX.psia            10690.93:  Press Op, Max 
 PV  .cP                 26.00:  Mud PV 
 RUN .                     900:  Run Number 
 ROPA.m/hr                0.00:  ROP Avg 
 ROPN.m/hr                0.00:  ROP Min 
 ROPX.m/hr                0.00:  ROP Max 
 RPMA.rpm               140.00:  RPM Surface Avg 
 RPMN.rpm                70.00:  RPM Surface Min 
 RPMX.rpm               140.00:  RPM Surface Max 
 RRUN.                    0900:  Rig Run Number 
 RTIM.hr                 36.00:  Time Reaming 
 SAZI.deg               115.72:  Azm, Start 
 SDEP.m                5337.01:  Start Depth 
 SIDD.                      No:  Serv Intrp, DD 
 SINC.deg                66.92:  Inc, Start 
 SPPA.psig             4400.00:  SPP Avg 
 SPPN.psig             1135.00:  SPP Min 
 SPPX.psig             4581.00:  SPP Max 
 STIM.      04.30.56 18-May-20:  Start Time 
 SVCS.                     MWD:  Services 
 SVER.                    9.20:  Sperry Version 
 TDAT.m                5337.01:  Tot Depth Attmp 
 TDDF.                      No:  Trip for DD 
 TFF .                      No:  Trip for Fail 
 TQAA.f-kp               23.00:  Torque Abs Avg 
 TQAN.f-kp               18.00:  Torque Abs Min 
 TQAX.f-kp               25.00:  Torque Abs Max 
 TRRT.°/30m               0.74:  Turn Rotating 
 MRT .                    HCIM:  Maximum Recorded Temperature 
 TTMX.degC               76.47:  Max Tool Temp 
 WBMN.klb                 0.00:  WOB Min 
 WITN.             Anar Khalil:  Customer Rep 
 WITN.      Kamran Keberlinski:  Customer Rep 2 
 WOBA.klb                 0.00:  WOB Avg 
 WOBX.klb                 0.00:  WOB Max 
 YP  .lhf2               27.00:  Yield Point 
~Curve Information Block
#MNEM.UNIT                 API CODE     Curve Description
#---------               -----------    ---------------------------
 TIME.HHMMSS            00 000 000 000:  GT Time & Date
 GTDEPTH.m              00 000 000 000:  GT Depth
 GTPQH.psia             00 000 000 000:  GT HR Quartz Pressure
 GTTQ.degC              00 000 000 000:  GT Quartz Temperature
 GTTN.NONE              00 000 000 000:  GT Test Number
 GTET.sec               00 000 000 000:  GT Elapsed Test Time
 GTTVD.m                00 000 000 000:  GT True Vertical Depth
#Other Information
#
#WARRANTY: Halliburton will use its best efforts to furnish customers with 
#accurate information and interpretations that are part of, and incident to, the services 
#provided.  However, Halliburton cannot and does not warrant the accuracy 
#or correctness of such information and interpretations.  Under no circumstances should any 
#such information or interpretation be relied upon as the sole basis for any drilling, 
#completion, production, or financial decision or any procedure involving any risk to the 
#safety of any drilling venture, drilling rig or its crew or any other third party.  The 
#Customer has full responsibility for all drilling, completion and production operation.  
#Halliburton makes no representations or warranties, either expressed or 
#implied, including, but not limited to, the implied warranties of merchantability or fitness 
#for a particular purpose, with respect to the services rendered.  In no event will 
#Halliburton be liable for failure to obtain any particular results or for 
#any damages, including, but not limited to, indirect, special or consequential damages, 
#resulting from the use of any information or interpretation provided by Halliburton.
#
~A           TIME           GTDEPTH  GTPQH  GTTQ  GTTN  GTET   GTTVD  
# ...
   21:46:35.435.19-May-2020 5137.01 1447.49 67.42 3.00 276.07 2705.05
   21:46:35.635.19-May-2020 5137.01 1447.49 67.42 3.00 276.27 2705.05
   21:46:35.835.19-May-2020 5137.01 1493.14 67.42 3.00 276.47 2705.05
   21:46:36.035.19-May-2020 5137.01 1515.65 67.42 3.00 276.67 2705.05
   21:46:36.235.19-May-2020 5137.01 1537.91 67.42 3.00 276.87 2705.05
   21:46:36.435.19-May-2020 5137.01 1559.54 67.42 3.00 277.07 2705.05
   21:46:36.635.19-May-2020 5137.01 1559.54 67.42 3.00 277.27 2705.05
   21:46:36.835.19-May-2020 5137.01 1603.41 67.43 3.00 277.47 2705.05
   21:46:37.035.19-May-2020 5137.01 1624.88 67.43 3.00 277.67 2705.05
   21:46:37.235.19-May-2020 5137.01 1646.06 67.43 3.00 277.87 2705.05
   21:46:37.435.19-May-2020 5137.01 1666.31 67.43 3.00 278.07 2705.05
   21:46:37.635.19-May-2020 5137.01 1666.31 67.43 3.00 278.27 2705.05
   21:46:37.835.19-May-2020 5137.01 1708.15 67.43 3.00 278.47 2705.05
   21:46:38.035.19-May-2020 5137.01 1728.49 67.43 3.00 278.67 2705.05
   21:46:38.236.19-May-2020 5137.01 1748.69 67.43 3.00 278.87 2705.05
   21:46:38.436.19-May-2020 5137.01 1768.57 67.43 3.00 279.07 2705.05
   21:46:38.636.19-May-2020 5137.01 1768.57 67.43 3.00 279.27 2705.05
   21:46:38.836.19-May-2020 5137.01 1807.42 67.43 3.00 279.47 2705.05
   21:46:39.036.19-May-2020 5137.01 1826.94 67.44 3.00 279.67 2705.05
   21:46:39.236.19-May-2020 5137.01 1846.08 67.44 3.00 279.87 2705.05
   21:46:39.436.19-May-2020 5137.01 1865.05 67.44 3.00 280.07 2705.05
   21:46:39.636.19-May-2020 5137.01 1865.05 67.44 3.00 280.27 2705.05
   21:46:39.836.19-May-2020 5137.01 1883.81 67.44 3.00 280.47 2705.05
   21:46:40.036.19-May-2020 5137.01 1920.10 67.44 3.00 280.67 2705.05
   21:46:40.236.19-May-2020 5137.01 1938.74 67.44 3.00 280.87 2705.05
   21:46:40.436.19-May-2020 5137.01 1956.81 67.44 3.00 281.07 2705.05
   21:46:40.636.19-May-2020 5137.01 1956.81 67.44 3.00 281.27 2705.05
   21:46:40.836.19-May-2020 5137.01 1992.36 67.44 3.00 281.47 2705.05
   21:46:41.036.19-May-2020 5137.01 2009.86 67.44 3.00 281.67 2705.05
   21:46:41.236.19-May-2020 5137.01 2027.14 67.45 3.00 281.87 2705.05
   21:46:41.436.19-May-2020 5137.01 2044.37 67.45 3.00 282.07 2705.05
   21:46:41.636.19-May-2020 5137.01 2044.37 67.45 3.00 282.27 2705.05
   21:46:41.836.19-May-2020 5137.01 2078.13 67.45 3.00 282.47 2705.05
   21:46:42.036.19-May-2020 5137.01 2094.81 67.45 3.00 282.67 2705.05
   21:46:42.237.19-May-2020 5137.01 2111.34 67.45 3.00 282.87 2705.05
   21:46:42.437.19-May-2020 5137.01 2127.68 67.45 3.00 283.07 2705.05
   21:46:42.637.19-May-2020 5137.01 2127.68 67.45 3.00 283.27 2705.05
   21:46:42.837.19-May-2020 5137.01 2159.91 67.45 3.00 283.47 2705.05
   21:46:43.037.19-May-2020 5137.01 2175.07 67.45 3.00 283.67 2705.05
   21:46:43.237.19-May-2020 5137.01 2191.31 67.45 3.00 283.87 2705.05
   21:46:43.437.19-May-2020 5137.01 2206.94 67.46 3.00 284.07 2705.05
   21:46:43.637.19-May-2020 5137.01 2206.94 67.46 3.00 284.27 2705.05
   21:46:43.837.19-May-2020 5137.01 2237.06 67.46 3.00 284.47 2705.05
   21:46:44.037.19-May-2020 5137.01 2252.71 67.46 3.00 284.67 2705.05
   21:46:44.237.19-May-2020 5137.01 2267.71 67.46 3.00 284.87 2705.05
   21:46:44.437.19-May-2020 5137.01 2282.68 67.46 3.00 285.07 2705.05
   21:46:44.637.19-May-2020 5137.01 2282.68 67.46 3.00 285.27 2705.05
   21:46:44.837.19-May-2020 5137.01 2311.85 67.46 3.00 285.47 2705.05
   21:46:45.037.19-May-2020 5137.01 2326.29 67.46 3.00 285.67 2705.05
   21:46:45.237.19-May-2020 5137.01 2340.76 67.46 3.00 285.87 2705.05
   21:46:45.437.19-May-2020 5137.01 2354.89 67.46 3.00 286.07 2705.05
   21:46:45.637.19-May-2020 5137.01 2368.63 67.46 3.00 286.27 2705.05
   21:46:45.837.19-May-2020 5137.01 2382.65 67.46 3.00 286.47 2705.05
   21:46:46.037.19-May-2020 5137.01 2396.65 67.47 3.00 286.67 2705.05
   21:46:46.238.19-May-2020 5137.01 2410.37 67.47 3.00 286.87 2705.05
   21:46:46.438.19-May-2020 5137.01 2423.23 67.47 3.00 287.07 2705.05
   21:46:46.638.19-May-2020 5137.01 2437.38 67.47 3.00 287.27 2705.05
   21:46:46.838.19-May-2020 5137.01 2450.61 67.47 3.00 287.47 2705.05
   21:46:47.038.19-May-2020 5137.01 2463.86 67.47 3.00 287.67 2705.05
   21:46:47.238.19-May-2020 5137.01 2477.00 67.47 3.00 287.87 2705.05
   21:46:47.438.19-May-2020 5137.01 2489.98 67.47 3.00 288.07 2705.05
   21:46:47.638.19-May-2020 5137.01 2489.98 67.47 3.00 288.27 2705.05
   21:46:47.838.19-May-2020 5137.01 2515.56 67.47 3.00 288.47 2705.05
   21:46:48.038.19-May-2020 5137.01 2528.19 67.47 3.00 288.67 2705.05
   21:46:48.238.19-May-2020 5137.01 2540.69 67.47 3.00 288.87 2705.05
   21:46:48.438.19-May-2020 5137.01 2553.12 67.47 3.00 289.07 2705.05
   21:46:48.638.19-May-2020 5137.01 2565.40 67.48 3.00 289.27 2705.05
   21:46:48.838.19-May-2020 5137.01 2577.60 67.48 3.00 289.47 2705.05
   21:46:49.038.19-May-2020 5137.01 2589.66 67.48 3.00 289.67 2705.05
   21:46:49.238.19-May-2020 5137.01 2601.58 67.48 3.00 289.87 2705.05
   21:46:49.438.19-May-2020 5137.01 2612.65 67.48 3.00 290.07 2705.05
   21:46:49.638.19-May-2020 5137.01 2612.65 67.48 3.00 290.27 2705.05
   21:46:49.838.19-May-2020 5137.01 2636.61 67.48 3.00 290.47 2705.05
   21:46:50.038.19-May-2020 5137.01 2648.17 67.48 3.00 290.67 2705.05
   21:46:50.239.19-May-2020 5137.01 2659.08 67.48 3.00 290.87 2705.05
   21:46:50.439.19-May-2020 5137.01 2670.94 67.48 3.00 291.07 2705.05
   21:46:50.639.19-May-2020 5137.01 2670.94 67.48 3.00 291.27 2705.05
   21:46:50.839.19-May-2020 5137.01 2693.39 67.48 3.00 291.47 2705.05
   21:46:51.039.19-May-2020 5137.01 2704.41 67.48 3.00 291.67 2705.05
   21:46:51.239.19-May-2020 5137.01 2715.41 67.48 3.00 291.87 2705.05
   21:46:51.439.19-May-2020 5137.01 2726.32 67.48 3.00 292.07 2705.05
   21:46:51.639.19-May-2020 5137.01 2726.32 67.48 3.00 292.27 2705.05
   21:46:51.839.19-May-2020 5137.01 2747.62 67.48 3.00 292.47 2705.05
   21:46:52.039.19-May-2020 5137.01 2758.28 67.49 3.00 292.67 2705.05
   21:46:52.239.19-May-2020 5137.01 2768.67 67.49 3.00 292.87 2705.05
   21:46:52.439.19-May-2020 5137.01 2779.18 67.49 3.00 293.07 2705.05
   21:46:52.639.19-May-2020 5137.01 2779.18 67.49 3.00 293.27 2705.05
   21:46:52.839.19-May-2020 5137.01 2798.97 67.49 3.00 293.47 2705.05
   21:46:53.039.19-May-2020 5137.01 2809.92 67.49 3.00 293.67 2705.05
   21:46:53.239.19-May-2020 5137.01 2819.81 67.49 3.00 293.87 2705.05
   21:46:53.439.19-May-2020 5137.01 2829.87 67.49 3.00 294.07 2705.05
   21:46:53.639.19-May-2020 5137.01 2829.87 67.49 3.00 294.27 2705.05
   21:46:53.839.19-May-2020 5137.01 2848.83 67.49 3.00 294.47 2705.05
   21:46:54.039.19-May-2020 5137.01 2859.31 67.49 3.00 294.67 2705.05
   21:46:54.240.19-May-2020 5137.01 2868.88 67.49 3.00 294.87 2705.05
   21:46:54.440.19-May-2020 5137.01 2878.47 67.49 3.00 295.07 2705.05
   21:46:54.640.19-May-2020 5137.01 2878.47 67.49 3.00 295.27 2705.05
   21:46:54.840.19-May-2020 5137.01 2897.39 67.49 3.00 295.47 2705.05
   21:46:55.040.19-May-2020 5137.01 2906.74 67.49 3.00 295.67 2705.05
   21:46:55.240.19-May-2020 5137.01 2916.05 67.49 3.00 295.87 2705.05
   21:46:55.440.19-May-2020 5137.01 2925.23 67.49 3.00 296.07 2705.05
   21:46:55.640.19-May-2020 5137.01 2925.23 67.49 3.00 296.27 2705.05
   21:46:55.840.19-May-2020 5137.01 2943.34 67.49 3.00 296.47 2705.05
   21:46:56.040.19-May-2020 5137.01 2952.33 67.49 3.00 296.67 2705.05
   21:46:56.240.19-May-2020 5137.01 2961.20 67.50 3.00 296.87 2705.05
   21:46:56.440.19-May-2020 5137.01 2970.01 67.50 3.00 297.07 2705.05
   21:46:56.640.19-May-2020 5137.01 2970.01 67.50 3.00 297.27 2705.05
   21:46:56.840.19-May-2020 5137.01 2986.71 67.50 3.00 297.47 2705.05
   21:46:57.040.19-May-2020 5137.01 2995.82 67.50 3.00 297.67 2705.05
   21:46:57.240.19-May-2020 5137.01 3004.21 67.50 3.00 297.87 2705.05
   21:46:57.440.19-May-2020 5137.01 3012.81 67.50 3.00 298.07 2705.05
   21:46:57.640.19-May-2020 5137.01 3012.81 67.50 3.00 298.27 2705.05
   21:46:57.840.19-May-2020 5137.01 3029.47 67.50 3.00 298.47 2705.05
   21:46:58.040.19-May-2020 5137.01 3037.64 67.50 3.00 298.67 2705.05
   21:46:58.241.19-May-2020 5137.01 3045.79 67.50 3.00 298.87 2705.05
