~Version Information
 VERS.                  2.0:   CWLS log ASCII Standard -VERSION 2.0
 WRAP.                   NO:   One line per depth step
~Well Information Block
#MNEM.UNIT     VALUE/NAME     DESCRIPTION
#---------     -----------    ---------------------------
 STRT.S             17:37:07 19-May-20: START TIME 17:37:07 19-May-20
 STOP.S             17:43:47 19-May-20: STOP TIME  17:43:47 19-May-20
 STEP.S                   0.00: STEP TIME
 NULL.                 -999.25: NULL VALUE
 MDS .        Operator Entered:  MAG DATA SOURCE
 PDAT.          Mean Sea Level:  PERMANENT DATUM
 UNIT.                     N/A:  LOGGING EQUIPMENT ID
 DCON.         Sperry Drilling:  DIRECTNL CONTR
 DOE .                     N/A:  DOE NUMBER
 RIG .              East Azeri:  RIG NAME
 JOBN.        AZ-XX-0905856059:  JOB TICKET NUMB
 WELL.                     D36:  WELL NAME
 MWDS.                    Baku:  MWD SHOP
 SRVC.     Turan Drilling & Engineering:  CONTRACTOR
 FLD .                     ACG:  FIELD NAME
 CTRY.              Azerbaijan:  COUNTRY NAME
 PROV.                    Baku:  PROVINCE
 STAT.                    Baku:  STATE NAME
 REGN.                   EESSA:  REGION
 BASE.              Azerbaijan:  LOGGING EQUIPMENT BASE LOCATION
 UWI .                     N/A:  UNIQUE WELL IDENTIFIER
 API .                     N/A:  API NUMBER
 COMP.     BP Exploration (Caspian Sea) Ltd.:  COMPANY
 WTYP.                Deviated:  WELL TYPE
 SON .        AZ-XX-0905856059:  JOB NUMBER
 FTOP.          Formation Tops:  FORM TOPS DESC
 ILTD.               Lithology:  INTERP LTH DESC
 SVYD.                  Survey:  SURVEY DESC
 DMOD.             Drill Model:  DRILL MOD DESC
 HPTY.       Minimum Curvature:  HOLE POS TYPE
 NREF.                    Grid:  NORTH REFERENCE
 SPUD.               25-Feb-20:  SPUD DATE
 DATE.      08.55.28 01-May-20:  END TIME
 STIM.      08.55.28 25-Feb-20:  START TIME
 DMF .             Drill Floor:  DRILL MEAS FROM
 DFST.                        :  DIST FSL TEXT
 DFWT.                        :  DIST FWL TEXT
 CNTY.                        :  COUNTY
 LOC .                        :  LOCATION
 LMF .             Drill Floor:  LOG MEASURED FROM
 VSNS.m                   6.09:  VERT SEC N/S
 VSEW.m                 -10.79:  VERT SEC E/W
 AGAP.m                  43.60:  AIR GAP
 DEP .m                 388.24:  DEPTH
 APD .m                  43.60:  DEPTH ABOVE PD
 WDMS.m                 151.80:  WD ELEV
 EGL .m                   0.00:  GROUND ELEVATION
 EPD .m                   0.00:  ELEVATION
 AZTC.deg                 6.12:  AZM TOTAL CORR
 GRDC.deg                 0.30:  GRID CORRECTION
 MDEC.deg                 6.42:  MAGNETIC DECL
 MDIP.deg                59.42:  MAGNETIC DIP
 MFLD.nT              50256.00:  MAGNETIC FIELD
 GVFD.g                   1.00:  GRAVITY FIELD
 VSDR.deg               159.57:  VERT SEC DIRECT
 TDD .m                5000.01:  TOTAL DEPTH (DRILLER)
 SDEP.m                 397.00:  START DEPTH
 DFSL.m                   0.00:  DISTANCE FSL
 DFWL.m                   0.00:  DISTANCE FWL
 UTMY.m             4431880.20:  UTM Y
 UTMX.m              538763.98:  UTM X
 WHEW.m                 -10.79:  WELL HEAD E/W
 WHNS.m                   6.09:  WELL HEAD N/S
 LONG.deg                51.45:  LONGITUDE
 LATI.deg                40.02:  LATITUDE
 TVDS.m                  43.60:  TVDSS CORRECTN
 EKB .m                  43.60:  KB ELEVATION
 EDF .m                  43.60:  DF ELEVATION
 MAGU.                 1847640:  MAGUTM CHECKSUM
 VSC .                       0:  VS TO CLOSURE
~Parameter Information Block
#MNEM.UNIT       Value        Description
#---------     -----------    ---------------------------
 AV  .mps                 1.30:  Ann Velocity 
 AVMX.mps                 1.90:  Max Ann Veloc 
 AZIF.deg               115.68:  Azm, Final 
 BHAT.                   Other:  BHA Type 
 BROT.°/30m               0.74:  Build Rotating 
 BS  .in                  8.50:  Bit Size 
 BTPL.psig              430.00:  Bit Press Loss 
 CABU.                      No:  Customer Abuse 
 COMM.                     t9l:  Run Comments 1 
 TCS .hr                 51.31:  Time Ciculation Ended 
 CV  .mps                 2.52:  Crit Velocity 
 CVMX.mps                 2.62:  Max Crit Veloc 
 DD1 .          Teymur Aghayev:  Direct Drillr 1 
 DDSV.                   Other:  DD Service 
 DEFF.%                 100.00:  % Det Eff 
 DLRX.°/30m               1.62:  Dogleg Rot Max 
 DLSO.°/30m               0.74:  Dogleg Oriented 
 DLSX.°/30m               1.62:  Dogleg Str Max 
 DRET.      04.30.56 18-May-20:  Drill End Time 
 DRST.      04.30.56 18-May-20:  Drill Start Tim 
 DTIM.hr                  0.00:  Time Drilling 
 EDEP.m                5337.01:  End Depth 
 ENG1.      Artemiy Matviyanov:  Engineer 1 
 ENG2.      Bakhtiyar Jabbarli:  Engineer 2 
 ENG3.           Emil Huseynov:  Engineer 3 
 ETIM.      18.40.00 22-May-20:  End Time 
 FLOI.gpm               550.00:  Flow In 
 FLON.gpm               350.00:  Flow In Min 
 FLOS.cptm                0.00:  Fluid Loss 
 FLOX.gpm               600.00:  Flow In Max 
 HFLO.                      No:  High Flow 
 HPRE.                      No:  High Pressure 
 HTEM.                      No:  High Temp 
 HYDO.m                   1.80:  Hydro Offset 
 IFIN.deg                67.01:  Inc, Final 
 IMAX.deg                67.49:  Inc Max 
 IMIN.deg                66.50:  Inc Min 
 IMND.m                5144.79:  Inc Min Depth 
 IMXD.m                5116.12:  Inc Max Depth 
 JARR.                      No:  Jarring 
 LETM.      17.55.56 20-May-20:  Log End Time 
 LOST.hr                     0:  Lost Rig Time 
 LSTM.      04.30.56 18-May-20:  Log Start Time 
 MDCL.ppm            193153.00:  Mud Chlorides 
 MDES.     Inversion Oil/Synthetic:  Mud Desc 
 DFD .sg                  1.40:  Mud Density 
 MDMN.sg                  1.40:  Dens Mud Min 
 MDMX.sg                  1.41:  Dens Mud Max 
 MOIL.                      68:  Run Mud Oil % 
 MOWR.                   68:32:  Run Mud OWR 
 MSND.                     0.2:  Run Mud Sand % 
 MSOL.                    18.8:  Run Mud Solids% 
 DFV .spqt               80.00:  Mud Viscosity 
 MWOD.in                  6.75:  MWD Tool OD 
 MWSI.                      No:  Serv Intrp, MWD 
 OTIM.hr                104.84:  Time Operating 
 PMAX.psia            10690.93:  Press Op, Max 
 PV  .cP                 26.00:  Mud PV 
 RUN .                     900:  Run Number 
 ROPA.m/hr                0.00:  ROP Avg 
 ROPN.m/hr                0.00:  ROP Min 
 ROPX.m/hr                0.00:  ROP Max 
 RPMA.rpm               140.00:  RPM Surface Avg 
 RPMN.rpm                70.00:  RPM Surface Min 
 RPMX.rpm               140.00:  RPM Surface Max 
 RRUN.                    0900:  Rig Run Number 
 RTIM.hr                 36.00:  Time Reaming 
 SAZI.deg               115.72:  Azm, Start 
 SDEP.m                5337.01:  Start Depth 
 SIDD.                      No:  Serv Intrp, DD 
 SINC.deg                66.92:  Inc, Start 
 SPPA.psig             4400.00:  SPP Avg 
 SPPN.psig             1135.00:  SPP Min 
 SPPX.psig             4581.00:  SPP Max 
 STIM.      04.30.56 18-May-20:  Start Time 
 SVCS.                     MWD:  Services 
 SVER.                    9.20:  Sperry Version 
 TDAT.m                5337.01:  Tot Depth Attmp 
 TDDF.                      No:  Trip for DD 
 TFF .                      No:  Trip for Fail 
 TQAA.f-kp               23.00:  Torque Abs Avg 
 TQAN.f-kp               18.00:  Torque Abs Min 
 TQAX.f-kp               25.00:  Torque Abs Max 
 TRRT.°/30m               0.74:  Turn Rotating 
 MRT .                    HCIM:  Maximum Recorded Temperature 
 TTMX.degC               76.47:  Max Tool Temp 
 WBMN.klb                 0.00:  WOB Min 
 WITN.             Anar Khalil:  Customer Rep 
 WITN.      Kamran Keberlinski:  Customer Rep 2 
 WOBA.klb                 0.00:  WOB Avg 
 WOBX.klb                 0.00:  WOB Max 
 YP  .lhf2               27.00:  Yield Point 
~Curve Information Block
#MNEM.UNIT                 API CODE     Curve Description
#---------               -----------    ---------------------------
 TIME.HHMMSS            00 000 000 000:  GT Time & Date
 GTDEPTH.m              00 000 000 000:  GT Depth
 GTPQH.psia             00 000 000 000:  GT HR Quartz Pressure
 GTTQ.degC              00 000 000 000:  GT Quartz Temperature
 GTTN.NONE              00 000 000 000:  GT Test Number
 GTET.sec               00 000 000 000:  GT Elapsed Test Time
 GTTVD.m                00 000 000 000:  GT True Vertical Depth
#Other Information
#
#WARRANTY: Halliburton will use its best efforts to furnish customers with 
#accurate information and interpretations that are part of, and incident to, the services 
#provided.  However, Halliburton cannot and does not warrant the accuracy 
#or correctness of such information and interpretations.  Under no circumstances should any 
#such information or interpretation be relied upon as the sole basis for any drilling, 
#completion, production, or financial decision or any procedure involving any risk to the 
#safety of any drilling venture, drilling rig or its crew or any other third party.  The 
#Customer has full responsibility for all drilling, completion and production operation.  
#Halliburton makes no representations or warranties, either expressed or 
#implied, including, but not limited to, the implied warranties of merchantability or fitness 
#for a particular purpose, with respect to the services rendered.  In no event will 
#Halliburton be liable for failure to obtain any particular results or for 
#any damages, including, but not limited to, indirect, special or consequential damages, 
#resulting from the use of any information or interpretation provided by Halliburton.
#
~A           TIME           GTDEPTH  GTPQH  GTTQ  GTTN  GTET   GTTVD  
# ...
   17:40:57.153.19-May-2020 5195.01 2132.20 67.07 2.00 230.03 2727.85
   17:40:57.353.19-May-2020 5195.01 2132.20 67.07 2.00 230.23 2727.85
   17:40:57.553.19-May-2020 5195.01 2136.86 67.07 2.00 230.43 2727.85
   17:40:57.753.19-May-2020 5195.01 2139.33 67.07 2.00 230.63 2727.85
   17:40:57.953.19-May-2020 5195.01 2141.79 67.07 2.00 230.83 2727.85
   17:40:58.153.19-May-2020 5195.01 2144.18 67.07 2.00 231.03 2727.85
   17:40:58.353.19-May-2020 5195.01 2144.18 67.07 2.00 231.23 2727.85
   17:40:58.553.19-May-2020 5195.01 2148.68 67.07 2.00 231.43 2727.85
   17:40:58.753.19-May-2020 5195.01 2151.21 67.07 2.00 231.63 2727.85
   17:40:58.953.19-May-2020 5195.01 2153.71 67.07 2.00 231.83 2727.85
   17:40:59.153.19-May-2020 5195.01 2155.99 67.07 2.00 232.03 2727.85
   17:40:59.353.19-May-2020 5195.01 2155.99 67.07 2.00 232.23 2727.85
   17:40:59.553.19-May-2020 5195.01 2160.77 67.07 2.00 232.43 2727.85
   17:40:59.753.19-May-2020 5195.01 2163.22 67.07 2.00 232.63 2727.85
   17:40:59.953.19-May-2020 5195.01 2165.05 67.07 2.00 232.83 2727.85
   17:41:00.153.19-May-2020 5195.01 2167.70 67.07 2.00 233.03 2727.85
   17:41:00.353.19-May-2020 5195.01 2167.70 67.07 2.00 233.23 2727.85
   17:41:00.553.19-May-2020 5195.01 2172.35 67.07 2.00 233.43 2727.85
   17:41:00.753.19-May-2020 5195.01 2174.88 67.07 2.00 233.63 2727.85
   17:41:00.953.19-May-2020 5195.01 2177.09 67.07 2.00 233.83 2727.85
   17:41:01.154.19-May-2020 5195.01 2179.54 67.07 2.00 234.03 2727.85
   17:41:01.354.19-May-2020 5195.01 2179.54 67.07 2.00 234.23 2727.85
   17:41:01.554.19-May-2020 5195.01 2184.23 67.07 2.00 234.43 2727.85
   17:41:01.754.19-May-2020 5195.01 2186.50 67.07 2.00 234.63 2727.85
   17:41:01.954.19-May-2020 5195.01 2188.88 67.07 2.00 234.83 2727.85
   17:41:02.154.19-May-2020 5195.01 2191.22 67.07 2.00 235.03 2727.85
   17:41:02.354.19-May-2020 5195.01 2191.22 67.07 2.00 235.23 2727.85
   17:41:02.554.19-May-2020 5195.01 2195.87 67.07 2.00 235.43 2727.85
   17:41:02.754.19-May-2020 5195.01 2198.09 67.07 2.00 235.63 2727.85
   17:41:02.954.19-May-2020 5195.01 2200.09 67.07 2.00 235.83 2727.85
   17:41:03.154.19-May-2020 5195.01 2202.42 67.07 2.00 236.03 2727.85
   17:41:03.354.19-May-2020 5195.01 2202.42 67.07 2.00 236.23 2727.85
   17:41:03.554.19-May-2020 5195.01 2206.90 67.07 2.00 236.43 2727.85
   17:41:03.754.19-May-2020 5195.01 2209.03 67.07 2.00 236.63 2727.85
   17:41:03.954.19-May-2020 5195.01 2211.49 67.07 2.00 236.83 2727.85
   17:41:04.154.19-May-2020 5195.01 2213.70 67.07 2.00 237.03 2727.85
   17:41:04.354.19-May-2020 5195.01 2213.70 67.07 2.00 237.23 2727.85
   17:41:04.554.19-May-2020 5195.01 2217.80 67.07 2.00 237.43 2727.85
   17:41:04.754.19-May-2020 5195.01 2220.21 67.07 2.00 237.63 2727.85
   17:41:04.954.19-May-2020 5195.01 2222.44 67.07 2.00 237.83 2727.85
   17:41:05.154.19-May-2020 5195.01 2224.72 67.07 2.00 238.03 2727.85
   17:41:05.354.19-May-2020 5195.01 2224.72 67.07 2.00 238.23 2727.85
   17:41:05.554.19-May-2020 5195.01 2228.76 67.07 2.00 238.43 2727.85
   17:41:05.754.19-May-2020 5195.01 2231.00 67.07 2.00 238.63 2727.85
   17:41:05.954.19-May-2020 5195.01 2233.26 67.07 2.00 238.83 2727.85
   17:41:06.154.19-May-2020 5195.01 2235.56 67.07 2.00 239.03 2727.85
   17:41:06.354.19-May-2020 5195.01 2235.56 67.07 2.00 239.23 2727.85
   17:41:06.554.19-May-2020 5195.01 2239.83 67.07 2.00 239.43 2727.85
   17:41:06.754.19-May-2020 5195.01 2242.22 67.07 2.00 239.63 2727.85
   17:41:06.954.19-May-2020 5195.01 2244.37 67.07 2.00 239.83 2727.85
   17:41:07.154.19-May-2020 5195.01 2246.67 67.07 2.00 240.03 2727.85
   17:41:07.354.19-May-2020 5195.01 2246.67 67.07 2.00 240.23 2727.85
   17:41:07.554.19-May-2020 5195.01 2251.17 67.07 2.00 240.43 2727.85
   17:41:07.754.19-May-2020 5195.01 2253.27 67.07 2.00 240.63 2727.85
   17:41:07.954.19-May-2020 5195.01 2255.57 67.07 2.00 240.83 2727.85
   17:41:08.154.19-May-2020 5195.01 2257.76 67.07 2.00 241.03 2727.85
   17:41:08.354.19-May-2020 5195.01 2257.76 67.07 2.00 241.23 2727.85
   17:41:08.554.19-May-2020 5195.01 2262.22 67.07 2.00 241.43 2727.85
   17:41:08.754.19-May-2020 5195.01 2264.46 67.07 2.00 241.63 2727.85
   17:41:08.954.19-May-2020 5195.01 2266.66 67.07 2.00 241.83 2727.85
   17:41:09.154.19-May-2020 5195.01 2268.76 67.07 2.00 242.03 2727.85
   17:41:09.355.19-May-2020 5195.01 2268.76 67.07 2.00 242.23 2727.85
   17:41:09.555.19-May-2020 5195.01 2272.99 67.07 2.00 242.43 2727.85
   17:41:09.755.19-May-2020 5195.01 2275.21 67.07 2.00 242.63 2727.85
   17:41:09.955.19-May-2020 5195.01 2277.25 67.07 2.00 242.83 2727.85
   17:41:10.155.19-May-2020 5195.01 2278.94 67.07 2.00 243.03 2727.85
   17:41:10.355.19-May-2020 5195.01 2278.94 67.07 2.00 243.23 2727.85
   17:41:10.555.19-May-2020 5195.01 2283.49 67.07 2.00 243.43 2727.85
   17:41:10.755.19-May-2020 5195.01 2285.57 67.07 2.00 243.63 2727.85
   17:41:10.955.19-May-2020 5195.01 2287.80 67.07 2.00 243.83 2727.85
   17:41:11.155.19-May-2020 5195.01 2289.58 67.07 2.00 244.03 2727.85
   17:41:11.355.19-May-2020 5195.01 2289.58 67.07 2.00 244.23 2727.85
   17:41:11.555.19-May-2020 5195.01 2294.10 67.07 2.00 244.43 2727.85
   17:41:11.755.19-May-2020 5195.01 2296.15 67.07 2.00 244.63 2727.85
   17:41:11.955.19-May-2020 5195.01 2297.81 67.07 2.00 244.83 2727.85
   17:41:12.155.19-May-2020 5195.01 2300.02 67.07 2.00 245.03 2727.85
   17:41:12.355.19-May-2020 5195.01 2300.02 67.07 2.00 245.23 2727.85
   17:41:12.555.19-May-2020 5195.01 2304.28 67.07 2.00 245.43 2727.85
   17:41:12.755.19-May-2020 5195.01 2306.45 67.07 2.00 245.63 2727.85
   17:41:12.955.19-May-2020 5195.01 2308.38 67.07 2.00 245.83 2727.85
   17:41:13.155.19-May-2020 5195.01 2310.25 67.07 2.00 246.03 2727.85
   17:41:13.355.19-May-2020 5195.01 2310.25 67.07 2.00 246.23 2727.85
   17:41:13.555.19-May-2020 5195.01 2314.61 67.07 2.00 246.43 2727.85
   17:41:13.755.19-May-2020 5195.01 2316.65 67.07 2.00 246.63 2727.85
   17:41:13.955.19-May-2020 5195.01 2318.81 67.07 2.00 246.83 2727.85
   17:41:14.155.19-May-2020 5195.01 2320.84 67.07 2.00 247.03 2727.85
   17:41:14.355.19-May-2020 5195.01 2320.84 67.07 2.00 247.23 2727.85
   17:41:14.555.19-May-2020 5195.01 2325.02 67.07 2.00 247.43 2727.85
   17:41:14.755.19-May-2020 5195.01 2327.14 67.07 2.00 247.63 2727.85
   17:41:14.955.19-May-2020 5195.01 2329.24 67.07 2.00 247.83 2727.85
   17:41:15.155.19-May-2020 5195.01 2331.36 67.07 2.00 248.03 2727.85
   17:41:15.355.19-May-2020 5195.01 2331.36 67.07 2.00 248.23 2727.85
   17:41:15.555.19-May-2020 5195.01 2335.41 67.07 2.00 248.43 2727.85
   17:41:15.755.19-May-2020 5195.01 2337.57 67.07 2.00 248.63 2727.85
   17:41:15.955.19-May-2020 5195.01 2339.58 67.07 2.00 248.83 2727.85
   17:41:16.155.19-May-2020 5195.01 2341.13 67.07 2.00 249.03 2727.85
   17:41:16.355.19-May-2020 5195.01 2341.13 67.07 2.00 249.23 2727.85
   17:41:16.555.19-May-2020 5195.01 2345.45 67.08 2.00 249.43 2727.85
   17:41:16.755.19-May-2020 5195.01 2347.01 67.07 2.00 249.63 2727.85
   17:41:16.955.19-May-2020 5195.01 2349.18 67.08 2.00 249.83 2727.85
   17:41:17.155.19-May-2020 5195.01 2351.25 67.08 2.00 250.03 2727.85
   17:41:17.355.19-May-2020 5195.01 2351.25 67.08 2.00 250.23 2727.85
   17:41:17.555.19-May-2020 5195.01 2355.32 67.08 2.00 250.43 2727.85
   17:41:17.756.19-May-2020 5195.01 2357.13 67.08 2.00 250.63 2727.85
   17:41:17.956.19-May-2020 5195.01 2359.05 67.08 2.00 250.83 2727.85
   17:41:18.156.19-May-2020 5195.01 2361.19 67.08 2.00 251.03 2727.85
   17:41:18.356.19-May-2020 5195.01 2361.19 67.08 2.00 251.23 2727.85
   17:41:18.556.19-May-2020 5195.01 2365.19 67.08 2.00 251.43 2727.85
   17:41:18.756.19-May-2020 5195.01 2367.19 67.08 2.00 251.63 2727.85
   17:41:18.956.19-May-2020 5195.01 2369.28 67.08 2.00 251.83 2727.85
   17:41:19.156.19-May-2020 5195.01 2370.73 67.08 2.00 252.03 2727.85
   17:41:19.356.19-May-2020 5195.01 2370.73 67.08 2.00 252.23 2727.85
   17:41:19.556.19-May-2020 5195.01 2375.07 67.08 2.00 252.43 2727.85
   17:41:19.756.19-May-2020 5195.01 2376.98 67.08 2.00 252.63 2727.85
   17:41:19.956.19-May-2020 5195.01 2378.66 67.08 2.00 252.83 2727.85
