~Version Information
 VERS.                  2.0:   CWLS log ASCII Standard -VERSION 2.0
 WRAP.                   NO:   One line per depth step
~Well Information Block
#MNEM.UNIT     VALUE/NAME     DESCRIPTION
#---------     -----------    ---------------------------
 STRT.S             06:41:15 20-May-20: START TIME 06:41:15 20-May-20
 STOP.S             06:51:49 20-May-20: STOP TIME  06:51:49 20-May-20
 STEP.S                   0.00: STEP TIME
 NULL.                 -999.25: NULL VALUE
 MDS .        Operator Entered:  MAG DATA SOURCE
 PDAT.          Mean Sea Level:  PERMANENT DATUM
 UNIT.                     N/A:  LOGGING EQUIPMENT ID
 DCON.         Sperry Drilling:  DIRECTNL CONTR
 DOE .                     N/A:  DOE NUMBER
 RIG .              East Azeri:  RIG NAME
 JOBN.        AZ-XX-0905856059:  JOB TICKET NUMB
 WELL.                     D36:  WELL NAME
 MWDS.                    Baku:  MWD SHOP
 SRVC.     Turan Drilling & Engineering:  CONTRACTOR
 FLD .                     ACG:  FIELD NAME
 CTRY.              Azerbaijan:  COUNTRY NAME
 PROV.                    Baku:  PROVINCE
 STAT.                    Baku:  STATE NAME
 REGN.                   EESSA:  REGION
 BASE.              Azerbaijan:  LOGGING EQUIPMENT BASE LOCATION
 UWI .                     N/A:  UNIQUE WELL IDENTIFIER
 API .                     N/A:  API NUMBER
 COMP.     BP Exploration (Caspian Sea) Ltd.:  COMPANY
 WTYP.                Deviated:  WELL TYPE
 SON .        AZ-XX-0905856059:  JOB NUMBER
 FTOP.          Formation Tops:  FORM TOPS DESC
 ILTD.               Lithology:  INTERP LTH DESC
 SVYD.                  Survey:  SURVEY DESC
 DMOD.             Drill Model:  DRILL MOD DESC
 HPTY.       Minimum Curvature:  HOLE POS TYPE
 NREF.                    Grid:  NORTH REFERENCE
 SPUD.               25-Feb-20:  SPUD DATE
 DATE.      08.55.28 01-May-20:  END TIME
 STIM.      08.55.28 25-Feb-20:  START TIME
 DMF .             Drill Floor:  DRILL MEAS FROM
 DFST.                        :  DIST FSL TEXT
 DFWT.                        :  DIST FWL TEXT
 CNTY.                        :  COUNTY
 LOC .                        :  LOCATION
 LMF .             Drill Floor:  LOG MEASURED FROM
 VSNS.m                   6.09:  VERT SEC N/S
 VSEW.m                 -10.79:  VERT SEC E/W
 AGAP.m                  43.60:  AIR GAP
 DEP .m                 388.24:  DEPTH
 APD .m                  43.60:  DEPTH ABOVE PD
 WDMS.m                 151.80:  WD ELEV
 EGL .m                   0.00:  GROUND ELEVATION
 EPD .m                   0.00:  ELEVATION
 AZTC.deg                 6.12:  AZM TOTAL CORR
 GRDC.deg                 0.30:  GRID CORRECTION
 MDEC.deg                 6.42:  MAGNETIC DECL
 MDIP.deg                59.42:  MAGNETIC DIP
 MFLD.nT              50256.00:  MAGNETIC FIELD
 GVFD.g                   1.00:  GRAVITY FIELD
 VSDR.deg               159.57:  VERT SEC DIRECT
 TDD .m                5000.01:  TOTAL DEPTH (DRILLER)
 SDEP.m                 397.00:  START DEPTH
 DFSL.m                   0.00:  DISTANCE FSL
 DFWL.m                   0.00:  DISTANCE FWL
 UTMY.m             4431880.20:  UTM Y
 UTMX.m              538763.98:  UTM X
 WHEW.m                 -10.79:  WELL HEAD E/W
 WHNS.m                   6.09:  WELL HEAD N/S
 LONG.deg                51.45:  LONGITUDE
 LATI.deg                40.02:  LATITUDE
 TVDS.m                  43.60:  TVDSS CORRECTN
 EKB .m                  43.60:  KB ELEVATION
 EDF .m                  43.60:  DF ELEVATION
 MAGU.                 1847640:  MAGUTM CHECKSUM
 VSC .                       0:  VS TO CLOSURE
~Parameter Information Block
#MNEM.UNIT       Value        Description
#---------     -----------    ---------------------------
 AV  .mps                 1.30:  Ann Velocity 
 AVMX.mps                 1.90:  Max Ann Veloc 
 AZIF.deg               115.68:  Azm, Final 
 BHAT.                   Other:  BHA Type 
 BROT.°/30m               0.74:  Build Rotating 
 BS  .in                  8.50:  Bit Size 
 BTPL.psig              430.00:  Bit Press Loss 
 CABU.                      No:  Customer Abuse 
 COMM.                     œÿv:  Run Comments 1 
 TCS .hr                 51.31:  Time Ciculation Ended 
 CV  .mps                 2.52:  Crit Velocity 
 CVMX.mps                 2.62:  Max Crit Veloc 
 DD1 .          Teymur Aghayev:  Direct Drillr 1 
 DDSV.                   Other:  DD Service 
 DEFF.%                 100.00:  % Det Eff 
 DLRX.°/30m               1.62:  Dogleg Rot Max 
 DLSO.°/30m               0.74:  Dogleg Oriented 
 DLSX.°/30m               1.62:  Dogleg Str Max 
 DRET.      04.30.56 18-May-20:  Drill End Time 
 DRST.      04.30.56 18-May-20:  Drill Start Tim 
 DTIM.hr                  0.00:  Time Drilling 
 EDEP.m                5337.01:  End Depth 
 ENG1.      Artemiy Matviyanov:  Engineer 1 
 ENG2.      Bakhtiyar Jabbarli:  Engineer 2 
 ENG3.           Emil Huseynov:  Engineer 3 
 ETIM.      18.40.00 22-May-20:  End Time 
 FLOI.gpm               550.00:  Flow In 
 FLON.gpm               350.00:  Flow In Min 
 FLOS.cptm                0.00:  Fluid Loss 
 FLOX.gpm               600.00:  Flow In Max 
 HFLO.                      No:  High Flow 
 HPRE.                      No:  High Pressure 
 HTEM.                      No:  High Temp 
 HYDO.m                   1.80:  Hydro Offset 
 IFIN.deg                67.01:  Inc, Final 
 IMAX.deg                67.49:  Inc Max 
 IMIN.deg                66.50:  Inc Min 
 IMND.m                5144.79:  Inc Min Depth 
 IMXD.m                5116.12:  Inc Max Depth 
 JARR.                      No:  Jarring 
 LETM.      17.55.56 20-May-20:  Log End Time 
 LOST.hr                     0:  Lost Rig Time 
 LSTM.      04.30.56 18-May-20:  Log Start Time 
 MDCL.ppm            193153.00:  Mud Chlorides 
 MDES.     Inversion Oil/Synthetic:  Mud Desc 
 DFD .sg                  1.40:  Mud Density 
 MDMN.sg                  1.40:  Dens Mud Min 
 MDMX.sg                  1.41:  Dens Mud Max 
 MOIL.                      68:  Run Mud Oil % 
 MOWR.                   68:32:  Run Mud OWR 
 MSND.                     0.2:  Run Mud Sand % 
 MSOL.                    18.8:  Run Mud Solids% 
 DFV .spqt               80.00:  Mud Viscosity 
 MWOD.in                  6.75:  MWD Tool OD 
 MWSI.                      No:  Serv Intrp, MWD 
 OTIM.hr                104.84:  Time Operating 
 PMAX.psia            10690.93:  Press Op, Max 
 PV  .cP                 26.00:  Mud PV 
 RUN .                     900:  Run Number 
 ROPA.m/hr                0.00:  ROP Avg 
 ROPN.m/hr                0.00:  ROP Min 
 ROPX.m/hr                0.00:  ROP Max 
 RPMA.rpm               140.00:  RPM Surface Avg 
 RPMN.rpm                70.00:  RPM Surface Min 
 RPMX.rpm               140.00:  RPM Surface Max 
 RRUN.                    0900:  Rig Run Number 
 RTIM.hr                 36.00:  Time Reaming 
 SAZI.deg               115.72:  Azm, Start 
 SDEP.m                5337.01:  Start Depth 
 SIDD.                      No:  Serv Intrp, DD 
 SINC.deg                66.92:  Inc, Start 
 SPPA.psig             4400.00:  SPP Avg 
 SPPN.psig             1135.00:  SPP Min 
 SPPX.psig             4581.00:  SPP Max 
 STIM.      04.30.56 18-May-20:  Start Time 
 SVCS.                     MWD:  Services 
 SVER.                    9.20:  Sperry Version 
 TDAT.m                5337.01:  Tot Depth Attmp 
 TDDF.                      No:  Trip for DD 
 TFF .                      No:  Trip for Fail 
 TQAA.f-kp               23.00:  Torque Abs Avg 
 TQAN.f-kp               18.00:  Torque Abs Min 
 TQAX.f-kp               25.00:  Torque Abs Max 
 TRRT.°/30m               0.74:  Turn Rotating 
 MRT .                    HCIM:  Maximum Recorded Temperature 
 TTMX.degC               76.47:  Max Tool Temp 
 WBMN.klb                 0.00:  WOB Min 
 WITN.             Anar Khalil:  Customer Rep 
 WITN.      Kamran Keberlinski:  Customer Rep 2 
 WOBA.klb                 0.00:  WOB Avg 
 WOBX.klb                 0.00:  WOB Max 
 YP  .lhf2               27.00:  Yield Point 
~Curve Information Block
#MNEM.UNIT                 API CODE     Curve Description
#---------               -----------    ---------------------------
 TIME.HHMMSS            00 000 000 000:  GT Time & Date
 GTDEPTH.m              00 000 000 000:  GT Depth
 GTPQH.psia             00 000 000 000:  GT HR Quartz Pressure
 GTTQ.degC              00 000 000 000:  GT Quartz Temperature
 GTTN.NONE              00 000 000 000:  GT Test Number
 GTET.sec               00 000 000 000:  GT Elapsed Test Time
 GTTVD.m                00 000 000 000:  GT True Vertical Depth
#Other Information
#
#WARRANTY: Halliburton will use its best efforts to furnish customers with 
#accurate information and interpretations that are part of, and incident to, the services 
#provided.  However, Halliburton cannot and does not warrant the accuracy 
#or correctness of such information and interpretations.  Under no circumstances should any 
#such information or interpretation be relied upon as the sole basis for any drilling, 
#completion, production, or financial decision or any procedure involving any risk to the 
#safety of any drilling venture, drilling rig or its crew or any other third party.  The 
#Customer has full responsibility for all drilling, completion and production operation.  
#Halliburton makes no representations or warranties, either expressed or 
#implied, including, but not limited to, the implied warranties of merchantability or fitness 
#for a particular purpose, with respect to the services rendered.  In no event will 
#Halliburton be liable for failure to obtain any particular results or for 
#any damages, including, but not limited to, indirect, special or consequential damages, 
#resulting from the use of any information or interpretation provided by Halliburton.
#
~A           TIME           GTDEPTH  GTPQH  GTTQ  GTTN   GTET   GTTVD  
# ...
   06:48:02.836.20-May-2020 5012.01 2797.75 68.08 10.00 406.92 2656.39
   06:48:03.036.20-May-2020 5012.01 2795.91 68.08 10.00 407.12 2656.39
   06:48:03.236.20-May-2020 5012.01 2795.91 68.08 10.00 407.32 2656.39
   06:48:03.436.20-May-2020 5012.01 2795.71 68.08 10.00 407.52 2656.39
   06:48:03.636.20-May-2020 5012.01 2795.09 68.08 10.00 407.72 2656.39
   06:48:03.836.20-May-2020 5012.01 2795.58 68.08 10.00 407.92 2656.39
   06:48:04.036.20-May-2020 5012.01 2795.67 68.08 10.00 408.12 2656.39
   06:48:04.236.20-May-2020 5012.01 2795.67 68.08 10.00 408.32 2656.39
   06:48:04.436.20-May-2020 5012.01 2794.93 68.08 10.00 408.52 2656.39
   06:48:04.636.20-May-2020 5012.01 2793.44 68.08 10.00 408.72 2656.39
   06:48:04.836.20-May-2020 5012.01 2792.73 68.08 10.00 408.92 2656.39
   06:48:05.036.20-May-2020 5012.01 2791.59 68.08 10.00 409.12 2656.39
   06:48:05.237.20-May-2020 5012.01 2791.59 68.08 10.00 409.32 2656.39
   06:48:05.437.20-May-2020 5012.01 2791.37 68.08 10.00 409.52 2656.39
   06:48:05.637.20-May-2020 5012.01 2791.36 68.08 10.00 409.72 2656.39
   06:48:05.837.20-May-2020 5012.01 2791.15 68.08 10.00 409.92 2656.39
   06:48:06.037.20-May-2020 5012.01 2792.36 68.08 10.00 410.12 2656.39
   06:48:06.237.20-May-2020 5012.01 2789.09 68.08 10.00 410.32 2656.39
   06:48:06.437.20-May-2020 5012.01 2791.40 68.08 10.00 410.52 2656.39
   06:48:06.637.20-May-2020 5012.01 2791.84 68.08 10.00 410.72 2656.39
   06:48:06.837.20-May-2020 5012.01 2792.02 68.08 10.00 410.92 2656.39
   06:48:07.037.20-May-2020 5012.01 2790.35 68.08 10.00 411.12 2656.39
   06:48:07.237.20-May-2020 5012.01 2790.35 68.08 10.00 411.32 2656.39
   06:48:07.437.20-May-2020 5012.01 2790.29 68.08 10.00 411.52 2656.39
   06:48:07.637.20-May-2020 5012.01 2789.57 68.08 10.00 411.72 2656.39
   06:48:07.837.20-May-2020 5012.01 2788.67 68.08 10.00 411.92 2656.39
   06:48:08.037.20-May-2020 5012.01 2788.47 68.08 10.00 412.12 2656.39
   06:48:08.237.20-May-2020 5012.01 2788.47 68.08 10.00 412.32 2656.39
   06:48:08.437.20-May-2020 5012.01 2788.70 68.08 10.00 412.52 2656.39
   06:48:08.637.20-May-2020 5012.01 2787.80 68.08 10.00 412.72 2656.39
   06:48:08.838.20-May-2020 5012.01 2788.43 68.08 10.00 412.92 2656.39
   06:48:09.038.20-May-2020 5012.01 2788.21 68.08 10.00 413.12 2656.39
   06:48:09.238.20-May-2020 5012.01 2788.21 68.08 10.00 413.32 2656.39
   06:48:09.438.20-May-2020 5012.01 2784.23 68.08 10.00 413.52 2656.39
   06:48:09.638.20-May-2020 5012.01 2785.29 68.08 10.00 413.72 2656.39
   06:48:09.838.20-May-2020 5012.01 2786.42 68.08 10.00 413.92 2656.39
   06:48:10.038.20-May-2020 5012.01 2787.26 68.08 10.00 414.12 2656.39
   06:48:10.238.20-May-2020 5012.01 2784.47 68.08 10.00 414.32 2656.39
   06:48:10.438.20-May-2020 5012.01 2785.55 68.08 10.00 414.52 2656.39
   06:48:10.638.20-May-2020 5012.01 2784.55 68.08 10.00 414.72 2656.39
   06:48:10.838.20-May-2020 5012.01 2786.01 68.08 10.00 414.92 2656.39
   06:48:11.038.20-May-2020 5012.01 2784.48 68.08 10.00 415.12 2656.39
   06:48:11.238.20-May-2020 5012.01 2784.48 68.08 10.00 415.32 2656.39
   06:48:11.438.20-May-2020 5012.01 2783.60 68.08 10.00 415.52 2656.39
   06:48:11.638.20-May-2020 5012.01 2783.18 68.08 10.00 415.72 2656.39
   06:48:11.838.20-May-2020 5012.01 2783.59 68.08 10.00 415.92 2656.39
   06:48:12.038.20-May-2020 5012.01 2782.29 68.08 10.00 416.12 2656.39
   06:48:12.239.20-May-2020 5012.01 2782.29 68.08 10.00 416.32 2656.39
   06:48:12.439.20-May-2020 5012.01 2782.70 68.08 10.00 416.52 2656.39
   06:48:12.639.20-May-2020 5012.01 2783.22 68.08 10.00 416.72 2656.39
   06:48:12.839.20-May-2020 5012.01 2783.64 68.08 10.00 416.92 2656.39
   06:48:13.039.20-May-2020 5012.01 2784.19 68.08 10.00 417.12 2656.39
   06:48:13.239.20-May-2020 5012.01 2784.19 68.08 10.00 417.32 2656.39
   06:48:13.439.20-May-2020 5012.01 2818.44 68.08 10.00 417.52 2656.39
   06:48:13.639.20-May-2020 5012.01 2828.85 68.08 10.00 417.72 2656.39
   06:48:13.839.20-May-2020 5012.01 2831.50 68.08 10.00 417.92 2656.39
   06:48:14.039.20-May-2020 5012.01 2829.81 68.08 10.00 418.12 2656.39
   06:48:14.239.20-May-2020 5012.01 2830.92 68.08 10.00 418.32 2656.39
   06:48:14.439.20-May-2020 5012.01 2832.01 68.08 10.00 418.52 2656.39
   06:48:14.639.20-May-2020 5012.01 2832.64 68.08 10.00 418.72 2656.39
   06:48:14.839.20-May-2020 5012.01 2831.38 68.08 10.00 418.92 2656.39
   06:48:15.039.20-May-2020 5012.01 2831.93 68.08 10.00 419.12 2656.39
   06:48:15.239.20-May-2020 5012.01 2831.93 68.08 10.00 419.32 2656.39
   06:48:15.439.20-May-2020 5012.01 2852.75 68.08 10.00 419.52 2656.39
   06:48:15.639.20-May-2020 5012.01 2863.17 68.08 10.00 419.72 2656.39
   06:48:15.840.20-May-2020 5012.01 2860.52 68.08 10.00 419.92 2656.39
   06:48:16.040.20-May-2020 5012.01 2857.94 68.08 10.00 420.12 2656.39
   06:48:16.240.20-May-2020 5012.01 2857.94 68.08 10.00 420.32 2656.39
   06:48:16.440.20-May-2020 5012.01 2851.88 68.08 10.00 420.52 2656.39
   06:48:16.640.20-May-2020 5012.01 2848.25 68.08 10.00 420.72 2656.39
   06:48:16.840.20-May-2020 5012.01 2845.86 68.08 10.00 420.92 2656.39
   06:48:17.040.20-May-2020 5012.01 2843.06 68.08 10.00 421.12 2656.39
   06:48:17.240.20-May-2020 5012.01 2843.06 68.08 10.00 421.32 2656.39
   06:48:17.440.20-May-2020 5012.01 2838.65 68.08 10.00 421.52 2656.39
   06:48:17.640.20-May-2020 5012.01 2837.73 68.08 10.00 421.72 2656.39
   06:48:17.840.20-May-2020 5012.01 2836.15 68.08 10.00 421.92 2656.39
   06:48:18.040.20-May-2020 5012.01 2834.53 68.08 10.00 422.12 2656.39
   06:48:18.240.20-May-2020 5012.01 2834.53 68.08 10.00 422.32 2656.39
   06:48:18.440.20-May-2020 5012.01 2833.06 68.08 10.00 422.52 2656.39
   06:48:18.640.20-May-2020 5012.01 2839.24 68.08 10.00 422.72 2656.39
   06:48:18.840.20-May-2020 5012.01 2869.66 68.08 10.00 422.92 2656.39
   06:48:19.040.20-May-2020 5012.01 2862.43 68.08 10.00 423.12 2656.39
   06:48:19.240.20-May-2020 5012.01 2862.43 68.08 10.00 423.32 2656.39
   06:48:19.441.20-May-2020 5012.01 2834.95 68.08 10.00 423.52 2656.39
   06:48:19.641.20-May-2020 5012.01 2830.88 68.08 10.00 423.72 2656.39
   06:48:19.841.20-May-2020 5012.01 2828.69 68.08 10.00 423.92 2656.39
   06:48:20.041.20-May-2020 5012.01 2829.33 68.08 10.00 424.12 2656.39
   06:48:20.241.20-May-2020 5012.01 2829.33 68.08 10.00 424.32 2656.39
   06:48:20.441.20-May-2020 5012.01 2829.00 68.08 10.00 424.52 2656.39
   06:48:20.641.20-May-2020 5012.01 2826.97 68.08 10.00 424.72 2656.39
   06:48:20.841.20-May-2020 5012.01 2827.40 68.08 10.00 424.92 2656.39
   06:48:21.041.20-May-2020 5012.01 2826.44 68.08 10.00 425.12 2656.39
   06:48:21.241.20-May-2020 5012.01 2826.44 68.08 10.00 425.32 2656.39
   06:48:21.441.20-May-2020 5012.01 2824.26 68.08 10.00 425.52 2656.39
   06:48:21.641.20-May-2020 5012.01 2822.68 68.08 10.00 425.72 2656.39
   06:48:21.841.20-May-2020 5012.01 2823.33 68.08 10.00 425.92 2656.39
   06:48:22.041.20-May-2020 5012.01 2820.96 68.08 10.00 426.12 2656.39
   06:48:22.241.20-May-2020 5012.01 2822.03 68.08 10.00 426.32 2656.39
   06:48:22.441.20-May-2020 5012.01 2819.84 68.08 10.00 426.52 2656.39
   06:48:22.641.20-May-2020 5012.01 2821.47 68.08 10.00 426.72 2656.39
   06:48:22.842.20-May-2020 5012.01 2821.31 68.08 10.00 426.92 2656.39
   06:48:23.042.20-May-2020 5012.01 2820.64 68.08 10.00 427.12 2656.39
   06:48:23.242.20-May-2020 5012.01 2820.64 68.08 10.00 427.32 2656.39
   06:48:23.442.20-May-2020 5012.01 2819.01 68.08 10.00 427.52 2656.39
   06:48:23.642.20-May-2020 5012.01 2816.85 68.08 10.00 427.72 2656.39
   06:48:23.842.20-May-2020 5012.01 2817.46 68.08 10.00 427.92 2656.39
   06:48:24.042.20-May-2020 5012.01 2816.74 68.08 10.00 428.12 2656.39
   06:48:24.242.20-May-2020 5012.01 2816.74 68.08 10.00 428.32 2656.39
   06:48:24.442.20-May-2020 5012.01 2818.20 68.08 10.00 428.52 2656.39
   06:48:24.642.20-May-2020 5012.01 2818.76 68.08 10.00 428.72 2656.39
   06:48:24.842.20-May-2020 5012.01 2815.50 68.08 10.00 428.92 2656.39
   06:48:25.042.20-May-2020 5012.01 2816.38 68.08 10.00 429.12 2656.39
   06:48:25.242.20-May-2020 5012.01 2816.38 68.08 10.00 429.32 2656.39
