~Version Information
 VERS.                  2.0:   CWLS log ASCII Standard -VERSION 2.0
 WRAP.                   NO:   One line per depth step
~Well Information Block
#MNEM.UNIT     VALUE/NAME     DESCRIPTION
#---------     -----------    ---------------------------
 STRT.S             23:11:25 19-May-20: START TIME 23:11:25 19-May-20
 STOP.S             23:19:39 19-May-20: STOP TIME  23:19:39 19-May-20
 STEP.S                   0.00: STEP TIME
 NULL.                 -999.25: NULL VALUE
 MDS .        Operator Entered:  MAG DATA SOURCE
 PDAT.          Mean Sea Level:  PERMANENT DATUM
 UNIT.                     N/A:  LOGGING EQUIPMENT ID
 DCON.         Sperry Drilling:  DIRECTNL CONTR
 DOE .                     N/A:  DOE NUMBER
 RIG .              East Azeri:  RIG NAME
 JOBN.        AZ-XX-0905856059:  JOB TICKET NUMB
 WELL.                     D36:  WELL NAME
 MWDS.                    Baku:  MWD SHOP
 SRVC.     Turan Drilling & Engineering:  CONTRACTOR
 FLD .                     ACG:  FIELD NAME
 CTRY.              Azerbaijan:  COUNTRY NAME
 PROV.                    Baku:  PROVINCE
 STAT.                    Baku:  STATE NAME
 REGN.                   EESSA:  REGION
 BASE.              Azerbaijan:  LOGGING EQUIPMENT BASE LOCATION
 UWI .                     N/A:  UNIQUE WELL IDENTIFIER
 API .                     N/A:  API NUMBER
 COMP.     BP Exploration (Caspian Sea) Ltd.:  COMPANY
 WTYP.                Deviated:  WELL TYPE
 SON .        AZ-XX-0905856059:  JOB NUMBER
 FTOP.          Formation Tops:  FORM TOPS DESC
 ILTD.               Lithology:  INTERP LTH DESC
 SVYD.                  Survey:  SURVEY DESC
 DMOD.             Drill Model:  DRILL MOD DESC
 HPTY.       Minimum Curvature:  HOLE POS TYPE
 NREF.                    Grid:  NORTH REFERENCE
 SPUD.               25-Feb-20:  SPUD DATE
 DATE.      08.55.28 01-May-20:  END TIME
 STIM.      08.55.28 25-Feb-20:  START TIME
 DMF .             Drill Floor:  DRILL MEAS FROM
 DFST.                        :  DIST FSL TEXT
 DFWT.                        :  DIST FWL TEXT
 CNTY.                        :  COUNTY
 LOC .                        :  LOCATION
 LMF .             Drill Floor:  LOG MEASURED FROM
 VSNS.m                   6.09:  VERT SEC N/S
 VSEW.m                 -10.79:  VERT SEC E/W
 AGAP.m                  43.60:  AIR GAP
 DEP .m                 388.24:  DEPTH
 APD .m                  43.60:  DEPTH ABOVE PD
 WDMS.m                 151.80:  WD ELEV
 EGL .m                   0.00:  GROUND ELEVATION
 EPD .m                   0.00:  ELEVATION
 AZTC.deg                 6.12:  AZM TOTAL CORR
 GRDC.deg                 0.30:  GRID CORRECTION
 MDEC.deg                 6.42:  MAGNETIC DECL
 MDIP.deg                59.42:  MAGNETIC DIP
 MFLD.nT              50256.00:  MAGNETIC FIELD
 GVFD.g                   1.00:  GRAVITY FIELD
 VSDR.deg               159.57:  VERT SEC DIRECT
 TDD .m                5000.01:  TOTAL DEPTH (DRILLER)
 SDEP.m                 397.00:  START DEPTH
 DFSL.m                   0.00:  DISTANCE FSL
 DFWL.m                   0.00:  DISTANCE FWL
 UTMY.m             4431880.20:  UTM Y
 UTMX.m              538763.98:  UTM X
 WHEW.m                 -10.79:  WELL HEAD E/W
 WHNS.m                   6.09:  WELL HEAD N/S
 LONG.deg                51.45:  LONGITUDE
 LATI.deg                40.02:  LATITUDE
 TVDS.m                  43.60:  TVDSS CORRECTN
 EKB .m                  43.60:  KB ELEVATION
 EDF .m                  43.60:  DF ELEVATION
 MAGU.                 1847640:  MAGUTM CHECKSUM
 VSC .                       0:  VS TO CLOSURE
~Parameter Information Block
#MNEM.UNIT       Value        Description
#---------     -----------    ---------------------------
 AV  .mps                 1.30:  Ann Velocity 
 AVMX.mps                 1.90:  Max Ann Veloc 
 AZIF.deg               115.68:  Azm, Final 
 BHAT.                   Other:  BHA Type 
 BROT.°/30m               0.74:  Build Rotating 
 BS  .in                  8.50:  Bit Size 
 BTPL.psig              430.00:  Bit Press Loss 
 CABU.                      No:  Customer Abuse 
 COMM.                     Tr}:  Run Comments 1 
 TCS .hr                 51.31:  Time Ciculation Ended 
 CV  .mps                 2.52:  Crit Velocity 
 CVMX.mps                 2.62:  Max Crit Veloc 
 DD1 .          Teymur Aghayev:  Direct Drillr 1 
 DDSV.                   Other:  DD Service 
 DEFF.%                 100.00:  % Det Eff 
 DLRX.°/30m               1.62:  Dogleg Rot Max 
 DLSO.°/30m               0.74:  Dogleg Oriented 
 DLSX.°/30m               1.62:  Dogleg Str Max 
 DRET.      04.30.56 18-May-20:  Drill End Time 
 DRST.      04.30.56 18-May-20:  Drill Start Tim 
 DTIM.hr                  0.00:  Time Drilling 
 EDEP.m                5337.01:  End Depth 
 ENG1.      Artemiy Matviyanov:  Engineer 1 
 ENG2.      Bakhtiyar Jabbarli:  Engineer 2 
 ENG3.           Emil Huseynov:  Engineer 3 
 ETIM.      18.40.00 22-May-20:  End Time 
 FLOI.gpm               550.00:  Flow In 
 FLON.gpm               350.00:  Flow In Min 
 FLOS.cptm                0.00:  Fluid Loss 
 FLOX.gpm               600.00:  Flow In Max 
 HFLO.                      No:  High Flow 
 HPRE.                      No:  High Pressure 
 HTEM.                      No:  High Temp 
 HYDO.m                   1.80:  Hydro Offset 
 IFIN.deg                67.01:  Inc, Final 
 IMAX.deg                67.49:  Inc Max 
 IMIN.deg                66.50:  Inc Min 
 IMND.m                5144.79:  Inc Min Depth 
 IMXD.m                5116.12:  Inc Max Depth 
 JARR.                      No:  Jarring 
 LETM.      17.55.56 20-May-20:  Log End Time 
 LOST.hr                     0:  Lost Rig Time 
 LSTM.      04.30.56 18-May-20:  Log Start Time 
 MDCL.ppm            193153.00:  Mud Chlorides 
 MDES.     Inversion Oil/Synthetic:  Mud Desc 
 DFD .sg                  1.40:  Mud Density 
 MDMN.sg                  1.40:  Dens Mud Min 
 MDMX.sg                  1.41:  Dens Mud Max 
 MOIL.                      68:  Run Mud Oil % 
 MOWR.                   68:32:  Run Mud OWR 
 MSND.                     0.2:  Run Mud Sand % 
 MSOL.                    18.8:  Run Mud Solids% 
 DFV .spqt               80.00:  Mud Viscosity 
 MWOD.in                  6.75:  MWD Tool OD 
 MWSI.                      No:  Serv Intrp, MWD 
 OTIM.hr                104.84:  Time Operating 
 PMAX.psia            10690.93:  Press Op, Max 
 PV  .cP                 26.00:  Mud PV 
 RUN .                     900:  Run Number 
 ROPA.m/hr                0.00:  ROP Avg 
 ROPN.m/hr                0.00:  ROP Min 
 ROPX.m/hr                0.00:  ROP Max 
 RPMA.rpm               140.00:  RPM Surface Avg 
 RPMN.rpm                70.00:  RPM Surface Min 
 RPMX.rpm               140.00:  RPM Surface Max 
 RRUN.                    0900:  Rig Run Number 
 RTIM.hr                 36.00:  Time Reaming 
 SAZI.deg               115.72:  Azm, Start 
 SDEP.m                5337.01:  Start Depth 
 SIDD.                      No:  Serv Intrp, DD 
 SINC.deg                66.92:  Inc, Start 
 SPPA.psig             4400.00:  SPP Avg 
 SPPN.psig             1135.00:  SPP Min 
 SPPX.psig             4581.00:  SPP Max 
 STIM.      04.30.56 18-May-20:  Start Time 
 SVCS.                     MWD:  Services 
 SVER.                    9.20:  Sperry Version 
 TDAT.m                5337.01:  Tot Depth Attmp 
 TDDF.                      No:  Trip for DD 
 TFF .                      No:  Trip for Fail 
 TQAA.f-kp               23.00:  Torque Abs Avg 
 TQAN.f-kp               18.00:  Torque Abs Min 
 TQAX.f-kp               25.00:  Torque Abs Max 
 TRRT.°/30m               0.74:  Turn Rotating 
 MRT .                    HCIM:  Maximum Recorded Temperature 
 TTMX.degC               76.47:  Max Tool Temp 
 WBMN.klb                 0.00:  WOB Min 
 WITN.             Anar Khalil:  Customer Rep 
 WITN.      Kamran Keberlinski:  Customer Rep 2 
 WOBA.klb                 0.00:  WOB Avg 
 WOBX.klb                 0.00:  WOB Max 
 YP  .lhf2               27.00:  Yield Point 
~Curve Information Block
#MNEM.UNIT                 API CODE     Curve Description
#---------               -----------    ---------------------------
 TIME.HHMMSS            00 000 000 000:  GT Time & Date
 GTDEPTH.m              00 000 000 000:  GT Depth
 GTPQH.psia             00 000 000 000:  GT HR Quartz Pressure
 GTTQ.degC              00 000 000 000:  GT Quartz Temperature
 GTTN.NONE              00 000 000 000:  GT Test Number
 GTET.sec               00 000 000 000:  GT Elapsed Test Time
 GTTVD.m                00 000 000 000:  GT True Vertical Depth
#Other Information
#
#WARRANTY: Halliburton will use its best efforts to furnish customers with 
#accurate information and interpretations that are part of, and incident to, the services 
#provided.  However, Halliburton cannot and does not warrant the accuracy 
#or correctness of such information and interpretations.  Under no circumstances should any 
#such information or interpretation be relied upon as the sole basis for any drilling, 
#completion, production, or financial decision or any procedure involving any risk to the 
#safety of any drilling venture, drilling rig or its crew or any other third party.  The 
#Customer has full responsibility for all drilling, completion and production operation.  
#Halliburton makes no representations or warranties, either expressed or 
#implied, including, but not limited to, the implied warranties of merchantability or fitness 
#for a particular purpose, with respect to the services rendered.  In no event will 
#Halliburton be liable for failure to obtain any particular results or for 
#any damages, including, but not limited to, indirect, special or consequential damages, 
#resulting from the use of any information or interpretation provided by Halliburton.
#
~A           TIME           GTDEPTH  GTPQH  GTTQ  GTTN  GTET   GTTVD  
# ...
   23:17:33.795.19-May-2020 5121.01 2531.43 67.94 5.00 368.09 2698.81
   23:17:33.995.19-May-2020 5121.01 2531.43 67.94 5.00 368.29 2698.81
   23:17:34.196.19-May-2020 5121.01 2544.25 67.94 5.00 368.49 2698.81
   23:17:34.396.19-May-2020 5121.01 2550.62 67.94 5.00 368.69 2698.81
   23:17:34.596.19-May-2020 5121.01 2556.90 67.94 5.00 368.89 2698.81
   23:17:34.796.19-May-2020 5121.01 2563.13 67.94 5.00 369.09 2698.81
   23:17:34.996.19-May-2020 5121.01 2563.13 67.94 5.00 369.29 2698.81
   23:17:35.196.19-May-2020 5121.01 2575.82 67.94 5.00 369.49 2698.81
   23:17:35.396.19-May-2020 5121.01 2582.33 67.94 5.00 369.69 2698.81
   23:17:35.596.19-May-2020 5121.01 2588.23 67.94 5.00 369.89 2698.81
   23:17:35.796.19-May-2020 5121.01 2595.06 67.94 5.00 370.09 2698.81
   23:17:35.996.19-May-2020 5121.01 2595.06 67.94 5.00 370.29 2698.81
   23:17:36.196.19-May-2020 5121.01 2607.76 67.94 5.00 370.49 2698.81
   23:17:36.396.19-May-2020 5121.01 2613.98 67.94 5.00 370.69 2698.81
   23:17:36.596.19-May-2020 5121.01 2620.17 67.94 5.00 370.89 2698.81
   23:17:36.796.19-May-2020 5121.01 2626.15 67.94 5.00 371.09 2698.81
   23:17:36.996.19-May-2020 5121.01 2632.09 67.94 5.00 371.29 2698.81
   23:17:37.196.19-May-2020 5121.01 2638.46 67.94 5.00 371.49 2698.81
   23:17:37.396.19-May-2020 5121.01 2644.70 67.94 5.00 371.69 2698.81
   23:17:37.596.19-May-2020 5121.01 2650.71 67.94 5.00 371.89 2698.81
   23:17:37.796.19-May-2020 5121.01 2656.82 67.94 5.00 372.09 2698.81
   23:17:37.996.19-May-2020 5121.01 2662.53 67.94 5.00 372.29 2698.81
   23:17:38.197.19-May-2020 5121.01 2668.77 67.94 5.00 372.49 2698.81
   23:17:38.397.19-May-2020 5121.01 2675.09 67.94 5.00 372.69 2698.81
   23:17:38.597.19-May-2020 5121.01 2681.08 67.95 5.00 372.89 2698.81
   23:17:38.797.19-May-2020 5121.01 2686.71 67.95 5.00 373.09 2698.81
   23:17:38.997.19-May-2020 5121.01 2686.71 67.95 5.00 373.29 2698.81
   23:17:39.197.19-May-2020 5121.01 2699.11 67.95 5.00 373.49 2698.81
   23:17:39.397.19-May-2020 5121.01 2705.12 67.95 5.00 373.69 2698.81
   23:17:39.597.19-May-2020 5121.01 2710.92 67.95 5.00 373.89 2698.81
   23:17:39.797.19-May-2020 5121.01 2716.70 67.95 5.00 374.09 2698.81
   23:17:39.997.19-May-2020 5121.01 2716.70 67.95 5.00 374.29 2698.81
   23:17:40.197.19-May-2020 5121.01 2728.14 67.95 5.00 374.49 2698.81
   23:17:40.397.19-May-2020 5121.01 2733.84 67.95 5.00 374.69 2698.81
   23:17:40.597.19-May-2020 5121.01 2739.44 67.95 5.00 374.89 2698.81
   23:17:40.797.19-May-2020 5121.01 2745.02 67.95 5.00 375.09 2698.81
   23:17:40.997.19-May-2020 5121.01 2745.02 67.95 5.00 375.29 2698.81
   23:17:41.197.19-May-2020 5121.01 2756.02 67.95 5.00 375.49 2698.81
   23:17:41.397.19-May-2020 5121.01 2761.62 67.95 5.00 375.69 2698.81
   23:17:41.597.19-May-2020 5121.01 2767.07 67.95 5.00 375.89 2698.81
   23:17:41.797.19-May-2020 5121.01 2772.23 67.95 5.00 376.09 2698.81
   23:17:41.997.19-May-2020 5121.01 2772.23 67.95 5.00 376.29 2698.81
   23:17:42.198.19-May-2020 5121.01 2783.59 67.95 5.00 376.49 2698.81
   23:17:42.398.19-May-2020 5121.01 2789.30 67.95 5.00 376.69 2698.81
   23:17:42.598.19-May-2020 5121.01 2794.38 67.95 5.00 376.89 2698.81
   23:17:42.798.19-May-2020 5121.01 2800.62 67.95 5.00 377.09 2698.81
   23:17:42.998.19-May-2020 5121.01 2800.62 67.95 5.00 377.29 2698.81
   23:17:43.198.19-May-2020 5121.01 2812.18 67.95 5.00 377.49 2698.81
   23:17:43.398.19-May-2020 5121.01 2817.76 67.95 5.00 377.69 2698.81
   23:17:43.598.19-May-2020 5121.01 2823.30 67.95 5.00 377.89 2698.81
   23:17:43.798.19-May-2020 5121.01 2828.42 67.95 5.00 378.09 2698.81
   23:17:43.998.19-May-2020 5121.01 2828.42 67.95 5.00 378.29 2698.81
   23:17:44.198.19-May-2020 5121.01 2840.37 67.95 5.00 378.49 2698.81
   23:17:44.398.19-May-2020 5121.01 2846.04 67.95 5.00 378.69 2698.81
   23:17:44.598.19-May-2020 5121.01 2851.70 67.95 5.00 378.89 2698.81
   23:17:44.798.19-May-2020 5121.01 2857.07 67.95 5.00 379.09 2698.81
   23:17:44.998.19-May-2020 5121.01 2862.30 67.95 5.00 379.29 2698.81
   23:17:45.198.19-May-2020 5121.01 2867.89 67.95 5.00 379.49 2698.81
   23:17:45.398.19-May-2020 5121.01 2873.49 67.95 5.00 379.69 2698.81
   23:17:45.598.19-May-2020 5121.01 2879.07 67.95 5.00 379.89 2698.81
   23:17:45.798.19-May-2020 5121.01 2884.43 67.95 5.00 380.09 2698.81
   23:17:45.998.19-May-2020 5121.01 2884.43 67.95 5.00 380.29 2698.81
   23:17:46.199.19-May-2020 5121.01 2895.00 67.95 5.00 380.49 2698.81
   23:17:46.399.19-May-2020 5121.01 2900.46 67.95 5.00 380.69 2698.81
   23:17:46.599.19-May-2020 5121.01 2905.77 67.95 5.00 380.89 2698.81
   23:17:46.799.19-May-2020 5121.01 2910.95 67.95 5.00 381.09 2698.81
   23:17:46.999.19-May-2020 5121.01 2910.95 67.95 5.00 381.30 2698.81
   23:17:47.199.19-May-2020 5121.01 2921.22 67.95 5.00 381.50 2698.81
   23:17:47.399.19-May-2020 5121.01 2926.42 67.95 5.00 381.70 2698.81
   23:17:47.599.19-May-2020 5121.01 2931.51 67.95 5.00 381.90 2698.81
   23:17:47.799.19-May-2020 5121.01 2936.57 67.95 5.00 382.10 2698.81
   23:17:47.999.19-May-2020 5121.01 2936.57 67.95 5.00 382.30 2698.81
   23:17:48.199.19-May-2020 5121.01 2946.45 67.95 5.00 382.50 2698.81
   23:17:48.399.19-May-2020 5121.01 2951.43 67.95 5.00 382.70 2698.81
   23:17:48.599.19-May-2020 5121.01 2956.28 67.95 5.00 382.90 2698.81
   23:17:48.799.19-May-2020 5121.01 2961.13 67.95 5.00 383.10 2698.81
   23:17:48.999.19-May-2020 5121.01 2965.94 67.95 5.00 383.30 2698.81
   23:17:49.199.19-May-2020 5121.01 2970.49 67.95 5.00 383.50 2698.81
   23:17:49.399.19-May-2020 5121.01 2975.74 67.95 5.00 383.70 2698.81
   23:17:49.599.19-May-2020 5121.01 2980.92 67.95 5.00 383.90 2698.81
   23:17:49.799.19-May-2020 5121.01 2985.77 67.95 5.00 384.10 2698.81
   23:17:49.999.19-May-2020 5121.01 2985.77 67.95 5.00 384.30 2698.81
   23:17:50.200.19-May-2020 5121.01 2996.67 67.95 5.00 384.50 2698.81
   23:17:50.400.19-May-2020 5121.01 3001.89 67.95 5.00 384.70 2698.81
   23:17:50.600.19-May-2020 5121.01 3006.90 67.95 5.00 384.90 2698.81
   23:17:50.800.19-May-2020 5121.01 3012.09 67.95 5.00 385.10 2698.81
   23:17:51.000.19-May-2020 5121.01 3012.09 67.95 5.00 385.30 2698.81
   23:17:51.200.19-May-2020 5121.01 3021.76 67.95 5.00 385.50 2698.81
   23:17:51.400.19-May-2020 5121.01 3027.11 67.95 5.00 385.70 2698.81
   23:17:51.600.19-May-2020 5121.01 3032.13 67.95 5.00 385.90 2698.81
   23:17:51.800.19-May-2020 5121.01 3036.95 67.95 5.00 386.10 2698.81
   23:17:52.000.19-May-2020 5121.01 3036.95 67.95 5.00 386.30 2698.81
   23:17:52.200.19-May-2020 5121.01 3046.66 67.95 5.00 386.50 2698.81
   23:17:52.400.19-May-2020 5121.01 3051.71 67.95 5.00 386.70 2698.81
   23:17:52.600.19-May-2020 5121.01 3056.66 67.96 5.00 386.90 2698.81
   23:17:52.800.19-May-2020 5121.01 3061.36 67.96 5.00 387.10 2698.81
   23:17:53.000.19-May-2020 5121.01 3066.09 67.96 5.00 387.30 2698.81
   23:17:53.200.19-May-2020 5121.01 3070.42 67.96 5.00 387.50 2698.81
   23:17:53.400.19-May-2020 5121.01 3075.42 67.96 5.00 387.70 2698.81
   23:17:53.600.19-May-2020 5121.01 3080.49 67.96 5.00 387.90 2698.81
   23:17:53.800.19-May-2020 5121.01 3085.25 67.96 5.00 388.10 2698.81
   23:17:54.000.19-May-2020 5121.01 3085.25 67.96 5.00 388.30 2698.81
   23:17:54.201.19-May-2020 5121.01 3094.47 67.96 5.00 388.50 2698.81
   23:17:54.401.19-May-2020 5121.01 3099.10 67.96 5.00 388.70 2698.81
   23:17:54.601.19-May-2020 5121.01 3103.61 67.96 5.00 388.90 2698.81
   23:17:54.801.19-May-2020 5121.01 3108.07 67.96 5.00 389.10 2698.81
   23:17:55.001.19-May-2020 5121.01 3108.07 67.96 5.00 389.30 2698.81
   23:17:55.201.19-May-2020 5121.01 3116.85 67.96 5.00 389.50 2698.81
   23:17:55.401.19-May-2020 5121.01 3121.24 67.96 5.00 389.70 2698.81
   23:17:55.601.19-May-2020 5121.01 3125.58 67.96 5.00 389.90 2698.81
   23:17:55.801.19-May-2020 5121.01 3129.86 67.96 5.00 390.10 2698.81
   23:17:56.001.19-May-2020 5121.01 3129.86 67.96 5.00 390.30 2698.81
   23:17:56.201.19-May-2020 5121.01 3138.08 67.96 5.00 390.50 2698.81
   23:17:56.401.19-May-2020 5121.01 3142.51 67.96 5.00 390.70 2698.81
   23:17:56.601.19-May-2020 5121.01 3146.96 67.96 5.00 390.90 2698.81
