~Version Information
 VERS.                  2.0:   CWLS log ASCII Standard -VERSION 2.0
 WRAP.                   NO:   One line per depth step
~Well Information Block
#MNEM.UNIT     VALUE/NAME     DESCRIPTION
#---------     -----------    ---------------------------
 STRT.S             17:37:07 19-May-20: START TIME 17:37:07 19-May-20
 STOP.S             17:43:47 19-May-20: STOP TIME  17:43:47 19-May-20
 STEP.S                   0.00: STEP TIME
 NULL.                 -999.25: NULL VALUE
 MDS .        Operator Entered:  MAG DATA SOURCE
 PDAT.          Mean Sea Level:  PERMANENT DATUM
 UNIT.                     N/A:  LOGGING EQUIPMENT ID
 DCON.         Sperry Drilling:  DIRECTNL CONTR
 DOE .                     N/A:  DOE NUMBER
 RIG .              East Azeri:  RIG NAME
 JOBN.        AZ-XX-0905856059:  JOB TICKET NUMB
 WELL.                     D36:  WELL NAME
 MWDS.                    Baku:  MWD SHOP
 SRVC.     Turan Drilling & Engineering:  CONTRACTOR
 FLD .                     ACG:  FIELD NAME
 CTRY.              Azerbaijan:  COUNTRY NAME
 PROV.                    Baku:  PROVINCE
 STAT.                    Baku:  STATE NAME
 REGN.                   EESSA:  REGION
 BASE.              Azerbaijan:  LOGGING EQUIPMENT BASE LOCATION
 UWI .                     N/A:  UNIQUE WELL IDENTIFIER
 API .                     N/A:  API NUMBER
 COMP.     BP Exploration (Caspian Sea) Ltd.:  COMPANY
 WTYP.                Deviated:  WELL TYPE
 SON .        AZ-XX-0905856059:  JOB NUMBER
 FTOP.          Formation Tops:  FORM TOPS DESC
 ILTD.               Lithology:  INTERP LTH DESC
 SVYD.                  Survey:  SURVEY DESC
 DMOD.             Drill Model:  DRILL MOD DESC
 HPTY.       Minimum Curvature:  HOLE POS TYPE
 NREF.                    Grid:  NORTH REFERENCE
 SPUD.               25-Feb-20:  SPUD DATE
 DATE.      08.55.28 01-May-20:  END TIME
 STIM.      08.55.28 25-Feb-20:  START TIME
 DMF .             Drill Floor:  DRILL MEAS FROM
 DFST.                        :  DIST FSL TEXT
 DFWT.                        :  DIST FWL TEXT
 CNTY.                        :  COUNTY
 LOC .                        :  LOCATION
 LMF .             Drill Floor:  LOG MEASURED FROM
 VSNS.m                   6.09:  VERT SEC N/S
 VSEW.m                 -10.79:  VERT SEC E/W
 AGAP.m                  43.60:  AIR GAP
 DEP .m                 388.24:  DEPTH
 APD .m                  43.60:  DEPTH ABOVE PD
 WDMS.m                 151.80:  WD ELEV
 EGL .m                   0.00:  GROUND ELEVATION
 EPD .m                   0.00:  ELEVATION
 AZTC.deg                 6.12:  AZM TOTAL CORR
 GRDC.deg                 0.30:  GRID CORRECTION
 MDEC.deg                 6.42:  MAGNETIC DECL
 MDIP.deg                59.42:  MAGNETIC DIP
 MFLD.nT              50256.00:  MAGNETIC FIELD
 GVFD.g                   1.00:  GRAVITY FIELD
 VSDR.deg               159.57:  VERT SEC DIRECT
 TDD .m                5000.01:  TOTAL DEPTH (DRILLER)
 SDEP.m                 397.00:  START DEPTH
 DFSL.m                   0.00:  DISTANCE FSL
 DFWL.m                   0.00:  DISTANCE FWL
 UTMY.m             4431880.20:  UTM Y
 UTMX.m              538763.98:  UTM X
 WHEW.m                 -10.79:  WELL HEAD E/W
 WHNS.m                   6.09:  WELL HEAD N/S
 LONG.deg                51.45:  LONGITUDE
 LATI.deg                40.02:  LATITUDE
 TVDS.m                  43.60:  TVDSS CORRECTN
 EKB .m                  43.60:  KB ELEVATION
 EDF .m                  43.60:  DF ELEVATION
 MAGU.                 1847640:  MAGUTM CHECKSUM
 VSC .                       0:  VS TO CLOSURE
~Parameter Information Block
#MNEM.UNIT       Value        Description
#---------     -----------    ---------------------------
 AV  .mps                 1.30:  Ann Velocity 
 AVMX.mps                 1.90:  Max Ann Veloc 
 AZIF.deg               115.68:  Azm, Final 
 BHAT.                   Other:  BHA Type 
 BROT.°/30m               0.74:  Build Rotating 
 BS  .in                  8.50:  Bit Size 
 BTPL.psig              430.00:  Bit Press Loss 
 CABU.                      No:  Customer Abuse 
 COMM.                     t9l:  Run Comments 1 
 TCS .hr                 51.31:  Time Ciculation Ended 
 CV  .mps                 2.52:  Crit Velocity 
 CVMX.mps                 2.62:  Max Crit Veloc 
 DD1 .          Teymur Aghayev:  Direct Drillr 1 
 DDSV.                   Other:  DD Service 
 DEFF.%                 100.00:  % Det Eff 
 DLRX.°/30m               1.62:  Dogleg Rot Max 
 DLSO.°/30m               0.74:  Dogleg Oriented 
 DLSX.°/30m               1.62:  Dogleg Str Max 
 DRET.      04.30.56 18-May-20:  Drill End Time 
 DRST.      04.30.56 18-May-20:  Drill Start Tim 
 DTIM.hr                  0.00:  Time Drilling 
 EDEP.m                5337.01:  End Depth 
 ENG1.      Artemiy Matviyanov:  Engineer 1 
 ENG2.      Bakhtiyar Jabbarli:  Engineer 2 
 ENG3.           Emil Huseynov:  Engineer 3 
 ETIM.      18.40.00 22-May-20:  End Time 
 FLOI.gpm               550.00:  Flow In 
 FLON.gpm               350.00:  Flow In Min 
 FLOS.cptm                0.00:  Fluid Loss 
 FLOX.gpm               600.00:  Flow In Max 
 HFLO.                      No:  High Flow 
 HPRE.                      No:  High Pressure 
 HTEM.                      No:  High Temp 
 HYDO.m                   1.80:  Hydro Offset 
 IFIN.deg                67.01:  Inc, Final 
 IMAX.deg                67.49:  Inc Max 
 IMIN.deg                66.50:  Inc Min 
 IMND.m                5144.79:  Inc Min Depth 
 IMXD.m                5116.12:  Inc Max Depth 
 JARR.                      No:  Jarring 
 LETM.      17.55.56 20-May-20:  Log End Time 
 LOST.hr                     0:  Lost Rig Time 
 LSTM.      04.30.56 18-May-20:  Log Start Time 
 MDCL.ppm            193153.00:  Mud Chlorides 
 MDES.     Inversion Oil/Synthetic:  Mud Desc 
 DFD .sg                  1.40:  Mud Density 
 MDMN.sg                  1.40:  Dens Mud Min 
 MDMX.sg                  1.41:  Dens Mud Max 
 MOIL.                      68:  Run Mud Oil % 
 MOWR.                   68:32:  Run Mud OWR 
 MSND.                     0.2:  Run Mud Sand % 
 MSOL.                    18.8:  Run Mud Solids% 
 DFV .spqt               80.00:  Mud Viscosity 
 MWOD.in                  6.75:  MWD Tool OD 
 MWSI.                      No:  Serv Intrp, MWD 
 OTIM.hr                104.84:  Time Operating 
 PMAX.psia            10690.93:  Press Op, Max 
 PV  .cP                 26.00:  Mud PV 
 RUN .                     900:  Run Number 
 ROPA.m/hr                0.00:  ROP Avg 
 ROPN.m/hr                0.00:  ROP Min 
 ROPX.m/hr                0.00:  ROP Max 
 RPMA.rpm               140.00:  RPM Surface Avg 
 RPMN.rpm                70.00:  RPM Surface Min 
 RPMX.rpm               140.00:  RPM Surface Max 
 RRUN.                    0900:  Rig Run Number 
 RTIM.hr                 36.00:  Time Reaming 
 SAZI.deg               115.72:  Azm, Start 
 SDEP.m                5337.01:  Start Depth 
 SIDD.                      No:  Serv Intrp, DD 
 SINC.deg                66.92:  Inc, Start 
 SPPA.psig             4400.00:  SPP Avg 
 SPPN.psig             1135.00:  SPP Min 
 SPPX.psig             4581.00:  SPP Max 
 STIM.      04.30.56 18-May-20:  Start Time 
 SVCS.                     MWD:  Services 
 SVER.                    9.20:  Sperry Version 
 TDAT.m                5337.01:  Tot Depth Attmp 
 TDDF.                      No:  Trip for DD 
 TFF .                      No:  Trip for Fail 
 TQAA.f-kp               23.00:  Torque Abs Avg 
 TQAN.f-kp               18.00:  Torque Abs Min 
 TQAX.f-kp               25.00:  Torque Abs Max 
 TRRT.°/30m               0.74:  Turn Rotating 
 MRT .                    HCIM:  Maximum Recorded Temperature 
 TTMX.degC               76.47:  Max Tool Temp 
 WBMN.klb                 0.00:  WOB Min 
 WITN.             Anar Khalil:  Customer Rep 
 WITN.      Kamran Keberlinski:  Customer Rep 2 
 WOBA.klb                 0.00:  WOB Avg 
 WOBX.klb                 0.00:  WOB Max 
 YP  .lhf2               27.00:  Yield Point 
~Curve Information Block
#MNEM.UNIT                 API CODE     Curve Description
#---------               -----------    ---------------------------
 TIME.HHMMSS            00 000 000 000:  GT Time & Date
 GTDEPTH.m              00 000 000 000:  GT Depth
 GTPQH.psia             00 000 000 000:  GT HR Quartz Pressure
 GTTQ.degC              00 000 000 000:  GT Quartz Temperature
 GTTN.NONE              00 000 000 000:  GT Test Number
 GTET.sec               00 000 000 000:  GT Elapsed Test Time
 GTTVD.m                00 000 000 000:  GT True Vertical Depth
#Other Information
#
#WARRANTY: Halliburton will use its best efforts to furnish customers with 
#accurate information and interpretations that are part of, and incident to, the services 
#provided.  However, Halliburton cannot and does not warrant the accuracy 
#or correctness of such information and interpretations.  Under no circumstances should any 
#such information or interpretation be relied upon as the sole basis for any drilling, 
#completion, production, or financial decision or any procedure involving any risk to the 
#safety of any drilling venture, drilling rig or its crew or any other third party.  The 
#Customer has full responsibility for all drilling, completion and production operation.  
#Halliburton makes no representations or warranties, either expressed or 
#implied, including, but not limited to, the implied warranties of merchantability or fitness 
#for a particular purpose, with respect to the services rendered.  In no event will 
#Halliburton be liable for failure to obtain any particular results or for 
#any damages, including, but not limited to, indirect, special or consequential damages, 
#resulting from the use of any information or interpretation provided by Halliburton.
#
~A           TIME           GTDEPTH  GTPQH  GTTQ  GTTN  GTET   GTTVD  
# ...
   17:42:29.164.19-May-2020 5195.01 1526.78 67.08 2.00 322.04 2727.85
   17:42:29.364.19-May-2020 5195.01 1526.78 67.08 2.00 322.24 2727.85
   17:42:29.564.19-May-2020 5195.01 1531.28 67.08 2.00 322.44 2727.85
   17:42:29.764.19-May-2020 5195.01 1533.72 67.08 2.00 322.64 2727.85
   17:42:29.964.19-May-2020 5195.01 1536.43 67.08 2.00 322.84 2727.85
   17:42:30.164.19-May-2020 5195.01 1538.82 67.08 2.00 323.04 2727.85
   17:42:30.364.19-May-2020 5195.01 1538.82 67.08 2.00 323.24 2727.85
   17:42:30.564.19-May-2020 5195.01 1543.32 67.08 2.00 323.44 2727.85
   17:42:30.764.19-May-2020 5195.01 1546.00 67.08 2.00 323.64 2727.85
   17:42:30.964.19-May-2020 5195.01 1548.34 67.08 2.00 323.84 2727.85
   17:42:31.164.19-May-2020 5195.01 1550.74 67.08 2.00 324.04 2727.85
   17:42:31.364.19-May-2020 5195.01 1550.74 67.08 2.00 324.24 2727.85
   17:42:31.564.19-May-2020 5195.01 1555.02 67.08 2.00 324.44 2727.85
   17:42:31.765.19-May-2020 5195.01 1557.92 67.08 2.00 324.64 2727.85
   17:42:31.965.19-May-2020 5195.01 1560.20 67.08 2.00 324.84 2727.85
   17:42:32.165.19-May-2020 5195.01 1562.58 67.08 2.00 325.04 2727.85
   17:42:32.365.19-May-2020 5195.01 1562.58 67.08 2.00 325.24 2727.85
   17:42:32.565.19-May-2020 5195.01 1566.80 67.08 2.00 325.44 2727.85
   17:42:32.765.19-May-2020 5195.01 1569.62 67.08 2.00 325.64 2727.85
   17:42:32.965.19-May-2020 5195.01 1571.97 67.08 2.00 325.84 2727.85
   17:42:33.165.19-May-2020 5195.01 1574.30 67.08 2.00 326.04 2727.85
   17:42:33.365.19-May-2020 5195.01 1574.30 67.08 2.00 326.24 2727.85
   17:42:33.565.19-May-2020 5195.01 1578.74 67.08 2.00 326.44 2727.85
   17:42:33.765.19-May-2020 5195.01 1581.19 67.08 2.00 326.64 2727.85
   17:42:33.965.19-May-2020 5195.01 1583.53 67.08 2.00 326.84 2727.85
   17:42:34.165.19-May-2020 5195.01 1585.82 67.08 2.00 327.04 2727.85
   17:42:34.365.19-May-2020 5195.01 1585.82 67.08 2.00 327.24 2727.85
   17:42:34.565.19-May-2020 5195.01 1590.48 67.09 2.00 327.44 2727.85
   17:42:34.765.19-May-2020 5195.01 1592.77 67.09 2.00 327.64 2727.85
   17:42:34.965.19-May-2020 5195.01 1595.15 67.09 2.00 327.84 2727.85
   17:42:35.165.19-May-2020 5195.01 1597.34 67.09 2.00 328.04 2727.85
   17:42:35.365.19-May-2020 5195.01 1597.34 67.09 2.00 328.24 2727.85
   17:42:35.565.19-May-2020 5195.01 1602.00 67.09 2.00 328.44 2727.85
   17:42:35.765.19-May-2020 5195.01 1604.32 67.09 2.00 328.64 2727.85
   17:42:35.965.19-May-2020 5195.01 1606.56 67.09 2.00 328.84 2727.85
   17:42:36.165.19-May-2020 5195.01 1608.84 67.09 2.00 329.04 2727.85
   17:42:36.365.19-May-2020 5195.01 1608.84 67.09 2.00 329.24 2727.85
   17:42:36.565.19-May-2020 5195.01 1613.10 67.09 2.00 329.44 2727.85
   17:42:36.765.19-May-2020 5195.01 1615.56 67.09 2.00 329.64 2727.85
   17:42:36.965.19-May-2020 5195.01 1617.75 67.09 2.00 329.84 2727.85
   17:42:37.165.19-May-2020 5195.01 1619.90 67.09 2.00 330.04 2727.85
   17:42:37.365.19-May-2020 5195.01 1619.90 67.09 2.00 330.24 2727.85
   17:42:37.565.19-May-2020 5195.01 1624.58 67.09 2.00 330.44 2727.85
   17:42:37.765.19-May-2020 5195.01 1626.84 67.09 2.00 330.64 2727.85
   17:42:37.965.19-May-2020 5195.01 1629.08 67.09 2.00 330.84 2727.85
   17:42:38.165.19-May-2020 5195.01 1631.42 67.09 2.00 331.04 2727.85
   17:42:38.365.19-May-2020 5195.01 1631.42 67.09 2.00 331.24 2727.85
   17:42:38.565.19-May-2020 5195.01 1635.63 67.09 2.00 331.44 2727.85
   17:42:38.765.19-May-2020 5195.01 1637.98 67.09 2.00 331.64 2727.85
   17:42:38.965.19-May-2020 5195.01 1640.26 67.09 2.00 331.84 2727.85
   17:42:39.165.19-May-2020 5195.01 1642.56 67.09 2.00 332.04 2727.85
   17:42:39.365.19-May-2020 5195.01 1642.56 67.09 2.00 332.24 2727.85
   17:42:39.565.19-May-2020 5195.01 1647.07 67.09 2.00 332.44 2727.85
   17:42:39.765.19-May-2020 5195.01 1648.89 67.09 2.00 332.64 2727.85
   17:42:39.965.19-May-2020 5195.01 1651.53 67.09 2.00 332.84 2727.85
   17:42:40.166.19-May-2020 5195.01 1653.79 67.09 2.00 333.04 2727.85
   17:42:40.366.19-May-2020 5195.01 1653.79 67.09 2.00 333.24 2727.85
   17:42:40.566.19-May-2020 5195.01 1658.22 67.09 2.00 333.44 2727.85
   17:42:40.766.19-May-2020 5195.01 1660.38 67.09 2.00 333.64 2727.85
   17:42:40.966.19-May-2020 5195.01 1662.30 67.09 2.00 333.84 2727.85
   17:42:41.166.19-May-2020 5195.01 1664.61 67.09 2.00 334.04 2727.85
   17:42:41.366.19-May-2020 5195.01 1664.61 67.09 2.00 334.24 2727.85
   17:42:41.566.19-May-2020 5195.01 1669.13 67.09 2.00 334.44 2727.85
   17:42:41.766.19-May-2020 5195.01 1671.36 67.09 2.00 334.64 2727.85
   17:42:41.966.19-May-2020 5195.01 1673.53 67.09 2.00 334.84 2727.85
   17:42:42.166.19-May-2020 5195.01 1675.81 67.09 2.00 335.04 2727.85
   17:42:42.366.19-May-2020 5195.01 1675.81 67.09 2.00 335.24 2727.85
   17:42:42.566.19-May-2020 5195.01 1680.15 67.09 2.00 335.44 2727.85
   17:42:42.766.19-May-2020 5195.01 1682.33 67.09 2.00 335.64 2727.85
   17:42:42.966.19-May-2020 5195.01 1684.49 67.09 2.00 335.84 2727.85
   17:42:43.166.19-May-2020 5195.01 1686.72 67.09 2.00 336.04 2727.85
   17:42:43.366.19-May-2020 5195.01 1686.72 67.09 2.00 336.24 2727.85
   17:42:43.566.19-May-2020 5195.01 1691.06 67.09 2.00 336.44 2727.85
   17:42:43.766.19-May-2020 5195.01 1693.13 67.09 2.00 336.64 2727.85
   17:42:43.966.19-May-2020 5195.01 1695.03 67.09 2.00 336.84 2727.85
   17:42:44.166.19-May-2020 5195.01 1697.31 67.09 2.00 337.04 2727.85
   17:42:44.366.19-May-2020 5195.01 1699.59 67.09 2.00 337.24 2727.85
   17:42:44.566.19-May-2020 5195.01 1701.80 67.09 2.00 337.44 2727.85
   17:42:44.766.19-May-2020 5195.01 1703.53 67.09 2.00 337.64 2727.85
   17:42:44.966.19-May-2020 5195.01 1706.03 67.09 2.00 337.84 2727.85
   17:42:45.166.19-May-2020 5195.01 1708.22 67.09 2.00 338.04 2727.85
   17:42:45.366.19-May-2020 5195.01 1710.45 67.09 2.00 338.24 2727.85
   17:42:45.566.19-May-2020 5195.01 1712.17 67.09 2.00 338.44 2727.85
   17:42:45.766.19-May-2020 5195.01 1714.53 67.09 2.00 338.64 2727.85
   17:42:45.966.19-May-2020 5195.01 1716.82 67.09 2.00 338.84 2727.85
   17:42:46.166.19-May-2020 5195.01 1718.91 67.09 2.00 339.04 2727.85
   17:42:46.366.19-May-2020 5195.01 1718.91 67.09 2.00 339.24 2727.85
   17:42:46.566.19-May-2020 5195.01 1722.95 67.09 2.00 339.44 2727.85
   17:42:46.766.19-May-2020 5195.01 1725.04 67.09 2.00 339.64 2727.85
   17:42:46.966.19-May-2020 5195.01 1727.29 67.09 2.00 339.84 2727.85
   17:42:47.166.19-May-2020 5195.01 1729.49 67.09 2.00 340.04 2727.85
   17:42:47.366.19-May-2020 5195.01 1729.49 67.09 2.00 340.24 2727.85
   17:42:47.566.19-May-2020 5195.01 1733.57 67.09 2.00 340.44 2727.85
   17:42:47.766.19-May-2020 5195.01 1735.72 67.09 2.00 340.64 2727.85
   17:42:47.966.19-May-2020 5195.01 1737.76 67.09 2.00 340.84 2727.85
   17:42:48.166.19-May-2020 5195.01 1739.98 67.09 2.00 341.04 2727.85
   17:42:48.367.19-May-2020 5195.01 1739.98 67.09 2.00 341.24 2727.85
   17:42:48.567.19-May-2020 5195.01 1744.23 67.09 2.00 341.44 2727.85
   17:42:48.767.19-May-2020 5195.01 1746.23 67.09 2.00 341.64 2727.85
   17:42:48.967.19-May-2020 5195.01 1748.33 67.09 2.00 341.84 2727.85
   17:42:49.167.19-May-2020 5195.01 1750.45 67.09 2.00 342.04 2727.85
   17:42:49.367.19-May-2020 5195.01 1750.45 67.09 2.00 342.24 2727.85
   17:42:49.567.19-May-2020 5195.01 1754.65 67.09 2.00 342.44 2727.85
   17:42:49.767.19-May-2020 5195.01 1756.72 67.09 2.00 342.64 2727.85
   17:42:49.967.19-May-2020 5195.01 1758.87 67.09 2.00 342.84 2727.85
   17:42:50.167.19-May-2020 5195.01 1760.85 67.09 2.00 343.04 2727.85
   17:42:50.367.19-May-2020 5195.01 1760.85 67.09 2.00 343.24 2727.85
   17:42:50.567.19-May-2020 5195.01 1764.88 67.09 2.00 343.44 2727.85
   17:42:50.767.19-May-2020 5195.01 1766.96 67.09 2.00 343.64 2727.85
   17:42:50.967.19-May-2020 5195.01 1768.95 67.09 2.00 343.84 2727.85
   17:42:51.167.19-May-2020 5195.01 1770.45 67.10 2.00 344.04 2727.85
   17:42:51.367.19-May-2020 5195.01 1770.45 67.10 2.00 344.24 2727.85
   17:42:51.567.19-May-2020 5195.01 1775.13 67.10 2.00 344.44 2727.85
   17:42:51.767.19-May-2020 5195.01 1777.22 67.10 2.00 344.64 2727.85
   17:42:51.967.19-May-2020 5195.01 1779.21 67.10 2.00 344.84 2727.85
