~Version Information
 VERS.                  2.0:   CWLS log ASCII Standard -VERSION 2.0
 WRAP.                   NO:   One line per depth step
~Well Information Block
#MNEM.UNIT     VALUE/NAME     DESCRIPTION
#---------     -----------    ---------------------------
 STRT.S             03:43:00 20-May-20: START TIME 03:43:00 20-May-20
 STOP.S             03:53:08 20-May-20: STOP TIME  03:53:08 20-May-20
 STEP.S                   0.00: STEP TIME
 NULL.                 -999.25: NULL VALUE
 MDS .        Operator Entered:  MAG DATA SOURCE
 PDAT.          Mean Sea Level:  PERMANENT DATUM
 UNIT.                     N/A:  LOGGING EQUIPMENT ID
 DCON.         Sperry Drilling:  DIRECTNL CONTR
 DOE .                     N/A:  DOE NUMBER
 RIG .              East Azeri:  RIG NAME
 JOBN.        AZ-XX-0905856059:  JOB TICKET NUMB
 WELL.                     D36:  WELL NAME
 MWDS.                    Baku:  MWD SHOP
 SRVC.     Turan Drilling & Engineering:  CONTRACTOR
 FLD .                     ACG:  FIELD NAME
 CTRY.              Azerbaijan:  COUNTRY NAME
 PROV.                    Baku:  PROVINCE
 STAT.                    Baku:  STATE NAME
 REGN.                   EESSA:  REGION
 BASE.              Azerbaijan:  LOGGING EQUIPMENT BASE LOCATION
 UWI .                     N/A:  UNIQUE WELL IDENTIFIER
 API .                     N/A:  API NUMBER
 COMP.     BP Exploration (Caspian Sea) Ltd.:  COMPANY
 WTYP.                Deviated:  WELL TYPE
 SON .        AZ-XX-0905856059:  JOB NUMBER
 FTOP.          Formation Tops:  FORM TOPS DESC
 ILTD.               Lithology:  INTERP LTH DESC
 SVYD.                  Survey:  SURVEY DESC
 DMOD.             Drill Model:  DRILL MOD DESC
 HPTY.       Minimum Curvature:  HOLE POS TYPE
 NREF.                    Grid:  NORTH REFERENCE
 SPUD.               25-Feb-20:  SPUD DATE
 DATE.      08.55.28 01-May-20:  END TIME
 STIM.      08.55.28 25-Feb-20:  START TIME
 DMF .             Drill Floor:  DRILL MEAS FROM
 DFST.                        :  DIST FSL TEXT
 DFWT.                        :  DIST FWL TEXT
 CNTY.                        :  COUNTY
 LOC .                        :  LOCATION
 LMF .             Drill Floor:  LOG MEASURED FROM
 VSNS.m                   6.09:  VERT SEC N/S
 VSEW.m                 -10.79:  VERT SEC E/W
 AGAP.m                  43.60:  AIR GAP
 DEP .m                 388.24:  DEPTH
 APD .m                  43.60:  DEPTH ABOVE PD
 WDMS.m                 151.80:  WD ELEV
 EGL .m                   0.00:  GROUND ELEVATION
 EPD .m                   0.00:  ELEVATION
 AZTC.deg                 6.12:  AZM TOTAL CORR
 GRDC.deg                 0.30:  GRID CORRECTION
 MDEC.deg                 6.42:  MAGNETIC DECL
 MDIP.deg                59.42:  MAGNETIC DIP
 MFLD.nT              50256.00:  MAGNETIC FIELD
 GVFD.g                   1.00:  GRAVITY FIELD
 VSDR.deg               159.57:  VERT SEC DIRECT
 TDD .m                5000.01:  TOTAL DEPTH (DRILLER)
 SDEP.m                 397.00:  START DEPTH
 DFSL.m                   0.00:  DISTANCE FSL
 DFWL.m                   0.00:  DISTANCE FWL
 UTMY.m             4431880.20:  UTM Y
 UTMX.m              538763.98:  UTM X
 WHEW.m                 -10.79:  WELL HEAD E/W
 WHNS.m                   6.09:  WELL HEAD N/S
 LONG.deg                51.45:  LONGITUDE
 LATI.deg                40.02:  LATITUDE
 TVDS.m                  43.60:  TVDSS CORRECTN
 EKB .m                  43.60:  KB ELEVATION
 EDF .m                  43.60:  DF ELEVATION
 MAGU.                 1847640:  MAGUTM CHECKSUM
 VSC .                       0:  VS TO CLOSURE
~Parameter Information Block
#MNEM.UNIT       Value        Description
#---------     -----------    ---------------------------
 AV  .mps                 1.30:  Ann Velocity 
 AVMX.mps                 1.90:  Max Ann Veloc 
 AZIF.deg               115.68:  Azm, Final 
 BHAT.                   Other:  BHA Type 
 BROT.°/30m               0.74:  Build Rotating 
 BS  .in                  8.50:  Bit Size 
 BTPL.psig              430.00:  Bit Press Loss 
 CABU.                      No:  Customer Abuse 
 COMM.                     ÌÍk:  Run Comments 1 
 TCS .hr                 51.31:  Time Ciculation Ended 
 CV  .mps                 2.52:  Crit Velocity 
 CVMX.mps                 2.62:  Max Crit Veloc 
 DD1 .          Teymur Aghayev:  Direct Drillr 1 
 DDSV.                   Other:  DD Service 
 DEFF.%                 100.00:  % Det Eff 
 DLRX.°/30m               1.62:  Dogleg Rot Max 
 DLSO.°/30m               0.74:  Dogleg Oriented 
 DLSX.°/30m               1.62:  Dogleg Str Max 
 DRET.      04.30.56 18-May-20:  Drill End Time 
 DRST.      04.30.56 18-May-20:  Drill Start Tim 
 DTIM.hr                  0.00:  Time Drilling 
 EDEP.m                5337.01:  End Depth 
 ENG1.      Artemiy Matviyanov:  Engineer 1 
 ENG2.      Bakhtiyar Jabbarli:  Engineer 2 
 ENG3.           Emil Huseynov:  Engineer 3 
 ETIM.      18.40.00 22-May-20:  End Time 
 FLOI.gpm               550.00:  Flow In 
 FLON.gpm               350.00:  Flow In Min 
 FLOS.cptm                0.00:  Fluid Loss 
 FLOX.gpm               600.00:  Flow In Max 
 HFLO.                      No:  High Flow 
 HPRE.                      No:  High Pressure 
 HTEM.                      No:  High Temp 
 HYDO.m                   1.80:  Hydro Offset 
 IFIN.deg                67.01:  Inc, Final 
 IMAX.deg                67.49:  Inc Max 
 IMIN.deg                66.50:  Inc Min 
 IMND.m                5144.79:  Inc Min Depth 
 IMXD.m                5116.12:  Inc Max Depth 
 JARR.                      No:  Jarring 
 LETM.      17.55.56 20-May-20:  Log End Time 
 LOST.hr                     0:  Lost Rig Time 
 LSTM.      04.30.56 18-May-20:  Log Start Time 
 MDCL.ppm            193153.00:  Mud Chlorides 
 MDES.     Inversion Oil/Synthetic:  Mud Desc 
 DFD .sg                  1.40:  Mud Density 
 MDMN.sg                  1.40:  Dens Mud Min 
 MDMX.sg                  1.41:  Dens Mud Max 
 MOIL.                      68:  Run Mud Oil % 
 MOWR.                   68:32:  Run Mud OWR 
 MSND.                     0.2:  Run Mud Sand % 
 MSOL.                    18.8:  Run Mud Solids% 
 DFV .spqt               80.00:  Mud Viscosity 
 MWOD.in                  6.75:  MWD Tool OD 
 MWSI.                      No:  Serv Intrp, MWD 
 OTIM.hr                104.84:  Time Operating 
 PMAX.psia            10690.93:  Press Op, Max 
 PV  .cP                 26.00:  Mud PV 
 RUN .                     900:  Run Number 
 ROPA.m/hr                0.00:  ROP Avg 
 ROPN.m/hr                0.00:  ROP Min 
 ROPX.m/hr                0.00:  ROP Max 
 RPMA.rpm               140.00:  RPM Surface Avg 
 RPMN.rpm                70.00:  RPM Surface Min 
 RPMX.rpm               140.00:  RPM Surface Max 
 RRUN.                    0900:  Rig Run Number 
 RTIM.hr                 36.00:  Time Reaming 
 SAZI.deg               115.72:  Azm, Start 
 SDEP.m                5337.01:  Start Depth 
 SIDD.                      No:  Serv Intrp, DD 
 SINC.deg                66.92:  Inc, Start 
 SPPA.psig             4400.00:  SPP Avg 
 SPPN.psig             1135.00:  SPP Min 
 SPPX.psig             4581.00:  SPP Max 
 STIM.      04.30.56 18-May-20:  Start Time 
 SVCS.                     MWD:  Services 
 SVER.                    9.20:  Sperry Version 
 TDAT.m                5337.01:  Tot Depth Attmp 
 TDDF.                      No:  Trip for DD 
 TFF .                      No:  Trip for Fail 
 TQAA.f-kp               23.00:  Torque Abs Avg 
 TQAN.f-kp               18.00:  Torque Abs Min 
 TQAX.f-kp               25.00:  Torque Abs Max 
 TRRT.°/30m               0.74:  Turn Rotating 
 MRT .                    HCIM:  Maximum Recorded Temperature 
 TTMX.degC               76.47:  Max Tool Temp 
 WBMN.klb                 0.00:  WOB Min 
 WITN.             Anar Khalil:  Customer Rep 
 WITN.      Kamran Keberlinski:  Customer Rep 2 
 WOBA.klb                 0.00:  WOB Avg 
 WOBX.klb                 0.00:  WOB Max 
 YP  .lhf2               27.00:  Yield Point 
~Curve Information Block
#MNEM.UNIT                 API CODE     Curve Description
#---------               -----------    ---------------------------
 TIME.HHMMSS            00 000 000 000:  GT Time & Date
 GTDEPTH.m              00 000 000 000:  GT Depth
 GTPQH.psia             00 000 000 000:  GT HR Quartz Pressure
 GTTQ.degC              00 000 000 000:  GT Quartz Temperature
 GTTN.NONE              00 000 000 000:  GT Test Number
 GTET.sec               00 000 000 000:  GT Elapsed Test Time
 GTTVD.m                00 000 000 000:  GT True Vertical Depth
#Other Information
#
#WARRANTY: Halliburton will use its best efforts to furnish customers with 
#accurate information and interpretations that are part of, and incident to, the services 
#provided.  However, Halliburton cannot and does not warrant the accuracy 
#or correctness of such information and interpretations.  Under no circumstances should any 
#such information or interpretation be relied upon as the sole basis for any drilling, 
#completion, production, or financial decision or any procedure involving any risk to the 
#safety of any drilling venture, drilling rig or its crew or any other third party.  The 
#Customer has full responsibility for all drilling, completion and production operation.  
#Halliburton makes no representations or warranties, either expressed or 
#implied, including, but not limited to, the implied warranties of merchantability or fitness 
#for a particular purpose, with respect to the services rendered.  In no event will 
#Halliburton be liable for failure to obtain any particular results or for 
#any damages, including, but not limited to, indirect, special or consequential damages, 
#resulting from the use of any information or interpretation provided by Halliburton.
#
~A           TIME           GTDEPTH  GTPQH  GTTQ  GTTN  GTET   GTTVD  
# ...
   03:46:04.948.20-May-2020 5064.01  662.69 68.97 8.00 184.05 2676.56
   03:46:05.148.20-May-2020 5064.01  662.69 68.97 8.00 184.25 2676.56
   03:46:05.348.20-May-2020 5064.01  663.60 68.97 8.00 184.45 2676.56
   03:46:05.548.20-May-2020 5064.01  664.02 68.97 8.00 184.65 2676.56
   03:46:05.748.20-May-2020 5064.01  664.09 68.97 8.00 184.85 2676.56
   03:46:05.948.20-May-2020 5064.01  664.76 68.97 8.00 185.05 2676.56
   03:46:06.148.20-May-2020 5064.01  664.76 68.97 8.00 185.25 2676.56
   03:46:06.348.20-May-2020 5064.01  665.57 68.97 8.00 185.45 2676.56
   03:46:06.549.20-May-2020 5064.01  666.08 68.97 8.00 185.65 2676.56
   03:46:06.749.20-May-2020 5064.01  666.58 68.97 8.00 185.85 2676.56
   03:46:06.949.20-May-2020 5064.01  667.00 68.97 8.00 186.05 2676.56
   03:46:07.149.20-May-2020 5064.01  667.00 68.97 8.00 186.25 2676.56
   03:46:07.349.20-May-2020 5064.01  667.97 68.97 8.00 186.45 2676.56
   03:46:07.549.20-May-2020 5064.01  668.44 68.97 8.00 186.65 2676.56
   03:46:07.749.20-May-2020 5064.01  668.91 68.97 8.00 186.85 2676.56
   03:46:07.949.20-May-2020 5064.01  669.40 68.97 8.00 187.05 2676.56
   03:46:08.149.20-May-2020 5064.01  669.40 68.97 8.00 187.25 2676.56
   03:46:08.349.20-May-2020 5064.01  670.36 68.97 8.00 187.45 2676.56
   03:46:08.549.20-May-2020 5064.01  670.83 68.97 8.00 187.65 2676.56
   03:46:08.749.20-May-2020 5064.01  670.96 68.97 8.00 187.85 2676.56
   03:46:08.949.20-May-2020 5064.01  671.64 68.97 8.00 188.05 2676.56
   03:46:09.149.20-May-2020 5064.01  671.64 68.97 8.00 188.25 2676.56
   03:46:09.349.20-May-2020 5064.01  672.08 68.97 8.00 188.45 2676.56
   03:46:09.549.20-May-2020 5064.01  672.73 68.97 8.00 188.65 2676.56
   03:46:09.749.20-May-2020 5064.01  673.04 68.97 8.00 188.85 2676.56
   03:46:09.949.20-May-2020 5064.01  673.48 68.97 8.00 189.05 2676.56
   03:46:10.150.20-May-2020 5064.01  673.48 68.97 8.00 189.25 2676.56
   03:46:10.350.20-May-2020 5064.01  674.40 68.97 8.00 189.45 2676.56
   03:46:10.550.20-May-2020 5064.01  674.42 68.97 8.00 189.65 2676.56
   03:46:10.750.20-May-2020 5064.01  675.25 68.97 8.00 189.85 2676.56
   03:46:10.950.20-May-2020 5064.01  675.52 68.97 8.00 190.05 2676.56
   03:46:11.150.20-May-2020 5064.01  675.52 68.97 8.00 190.25 2676.56
   03:46:11.350.20-May-2020 5064.01  676.06 68.97 8.00 190.45 2676.56
   03:46:11.550.20-May-2020 5064.01  676.76 68.97 8.00 190.65 2676.56
   03:46:11.750.20-May-2020 5064.01  677.10 68.97 8.00 190.85 2676.56
   03:46:11.950.20-May-2020 5064.01  677.51 68.97 8.00 191.05 2676.56
   03:46:12.150.20-May-2020 5064.01  677.51 68.97 8.00 191.25 2676.56
   03:46:12.350.20-May-2020 5064.01  678.37 68.97 8.00 191.45 2676.56
   03:46:12.550.20-May-2020 5064.01  678.64 68.97 8.00 191.65 2676.56
   03:46:12.750.20-May-2020 5064.01  679.11 68.97 8.00 191.85 2676.56
   03:46:12.950.20-May-2020 5064.01  679.60 68.97 8.00 192.05 2676.56
   03:46:13.150.20-May-2020 5064.01  679.60 68.97 8.00 192.25 2676.56
   03:46:13.350.20-May-2020 5064.01  680.54 68.97 8.00 192.45 2676.56
   03:46:13.550.20-May-2020 5064.01  680.97 68.97 8.00 192.65 2676.56
   03:46:13.751.20-May-2020 5064.01  681.42 68.97 8.00 192.85 2676.56
   03:46:13.951.20-May-2020 5064.01  681.92 68.97 8.00 193.05 2676.56
   03:46:14.151.20-May-2020 5064.01  681.92 68.97 8.00 193.25 2676.56
   03:46:14.351.20-May-2020 5064.01  682.92 68.97 8.00 193.45 2676.56
   03:46:14.551.20-May-2020 5064.01  683.37 68.97 8.00 193.65 2676.56
   03:46:14.751.20-May-2020 5064.01  683.86 68.97 8.00 193.85 2676.56
   03:46:14.951.20-May-2020 5064.01  684.32 68.97 8.00 194.05 2676.56
   03:46:15.151.20-May-2020 5064.01  684.32 68.97 8.00 194.25 2676.56
   03:46:15.351.20-May-2020 5064.01  685.15 68.97 8.00 194.45 2676.56
   03:46:15.551.20-May-2020 5064.01  685.43 68.97 8.00 194.66 2676.56
   03:46:15.751.20-May-2020 5064.01  685.86 68.97 8.00 194.86 2676.56
   03:46:15.951.20-May-2020 5064.01  685.89 68.97 8.00 195.06 2676.56
   03:46:16.151.20-May-2020 5064.01  685.89 68.97 8.00 195.26 2676.56
   03:46:16.351.20-May-2020 5064.01  686.83 68.97 8.00 195.46 2676.56
   03:46:16.551.20-May-2020 5064.01  687.21 68.97 8.00 195.66 2676.56
   03:46:16.751.20-May-2020 5064.01  687.71 68.97 8.00 195.86 2676.56
   03:46:16.951.20-May-2020 5064.01  687.88 68.97 8.00 196.06 2676.56
   03:46:17.152.20-May-2020 5064.01  687.88 68.97 8.00 196.26 2676.56
   03:46:17.352.20-May-2020 5064.01  688.86 68.97 8.00 196.46 2676.56
   03:46:17.552.20-May-2020 5064.01  689.23 68.97 8.00 196.66 2676.56
   03:46:17.752.20-May-2020 5064.01  689.66 68.97 8.00 196.86 2676.56
   03:46:17.952.20-May-2020 5064.01  689.66 68.97 8.00 197.06 2676.56
   03:46:18.152.20-May-2020 5064.01  689.66 68.97 8.00 197.26 2676.56
   03:46:18.352.20-May-2020 5064.01  690.69 68.97 8.00 197.46 2676.56
   03:46:18.552.20-May-2020 5064.01  691.08 68.97 8.00 197.66 2676.56
   03:46:18.752.20-May-2020 5064.01  691.59 68.97 8.00 197.86 2676.56
   03:46:18.952.20-May-2020 5064.01  691.98 68.97 8.00 198.06 2676.56
   03:46:19.152.20-May-2020 5064.01  691.98 68.97 8.00 198.26 2676.56
   03:46:19.352.20-May-2020 5064.01  692.79 68.97 8.00 198.46 2676.56
   03:46:19.552.20-May-2020 5064.01  693.04 68.97 8.00 198.66 2676.56
   03:46:19.752.20-May-2020 5064.01  693.48 68.97 8.00 198.86 2676.56
   03:46:19.952.20-May-2020 5064.01  693.97 68.97 8.00 199.06 2676.56
   03:46:20.152.20-May-2020 5064.01  693.97 68.97 8.00 199.26 2676.56
   03:46:20.352.20-May-2020 5064.01  694.84 68.97 8.00 199.46 2676.56
   03:46:20.552.20-May-2020 5064.01  695.30 68.97 8.00 199.66 2676.56
   03:46:20.753.20-May-2020 5064.01  695.78 68.97 8.00 199.86 2676.56
   03:46:20.953.20-May-2020 5064.01  696.25 68.97 8.00 200.06 2676.56
   03:46:21.153.20-May-2020 5064.01  696.25 68.97 8.00 200.26 2676.56
   03:46:21.353.20-May-2020 5064.01  697.17 68.97 8.00 200.46 2676.56
   03:46:21.553.20-May-2020 5064.01  697.63 68.97 8.00 200.66 2676.56
   03:46:21.753.20-May-2020 5064.01  698.13 68.97 8.00 200.86 2676.56
   03:46:21.953.20-May-2020 5064.01  698.53 68.97 8.00 201.06 2676.56
   03:46:22.153.20-May-2020 5064.01  698.53 68.97 8.00 201.26 2676.56
   03:46:22.353.20-May-2020 5064.01  699.36 68.97 8.00 201.46 2676.56
   03:46:22.553.20-May-2020 5064.01  699.62 68.97 8.00 201.66 2676.56
   03:46:22.753.20-May-2020 5064.01  700.03 68.97 8.00 201.86 2676.56
   03:46:22.953.20-May-2020 5064.01  700.04 68.97 8.00 202.06 2676.56
   03:46:23.153.20-May-2020 5064.01  700.04 68.97 8.00 202.26 2676.56
   03:46:23.353.20-May-2020 5064.01  700.95 68.97 8.00 202.46 2676.56
   03:46:23.553.20-May-2020 5064.01  701.31 68.97 8.00 202.66 2676.56
   03:46:23.753.20-May-2020 5064.01  701.77 68.97 8.00 202.86 2676.56
   03:46:23.953.20-May-2020 5064.01  702.18 68.97 8.00 203.06 2676.56
   03:46:24.153.20-May-2020 5064.01  702.18 68.97 8.00 203.26 2676.56
   03:46:24.354.20-May-2020 5064.01  703.01 68.97 8.00 203.46 2676.56
   03:46:24.554.20-May-2020 5064.01  703.28 68.97 8.00 203.66 2676.56
   03:46:24.754.20-May-2020 5064.01  703.75 68.97 8.00 203.86 2676.56
   03:46:24.954.20-May-2020 5064.01  703.69 68.97 8.00 204.06 2676.56
   03:46:25.154.20-May-2020 5064.01  703.69 68.97 8.00 204.26 2676.56
   03:46:25.354.20-May-2020 5064.01  704.63 68.97 8.00 204.46 2676.56
   03:46:25.554.20-May-2020 5064.01  705.05 68.97 8.00 204.66 2676.56
   03:46:25.754.20-May-2020 5064.01  705.47 68.97 8.00 204.86 2676.56
   03:46:25.954.20-May-2020 5064.01  705.45 68.97 8.00 205.06 2676.56
   03:46:26.154.20-May-2020 5064.01  705.45 68.97 8.00 205.26 2676.56
   03:46:26.354.20-May-2020 5064.01  706.44 68.97 8.00 205.46 2676.56
   03:46:26.554.20-May-2020 5064.01  706.82 68.97 8.00 205.66 2676.56
   03:46:26.754.20-May-2020 5064.01  707.31 68.97 8.00 205.86 2676.56
   03:46:26.954.20-May-2020 5064.01  707.72 68.97 8.00 206.06 2676.56
   03:46:27.154.20-May-2020 5064.01  707.72 68.97 8.00 206.26 2676.56
   03:46:27.354.20-May-2020 5064.01  708.59 68.97 8.00 206.46 2676.56
   03:46:27.554.20-May-2020 5064.01  709.04 68.97 8.00 206.66 2676.56
   03:46:27.755.20-May-2020 5064.01  709.53 68.97 8.00 206.86 2676.56
