~Version Information
 VERS.                  2.0:   CWLS log ASCII Standard -VERSION 2.0
 WRAP.                   NO:   One line per depth step
~Well Information Block
#MNEM.UNIT     VALUE/NAME     DESCRIPTION
#---------     -----------    ---------------------------
 STRT.S             22:24:43 19-May-20: START TIME 22:24:43 19-May-20
 STOP.S             22:33:01 19-May-20: STOP TIME  22:33:01 19-May-20
 STEP.S                   0.00: STEP TIME
 NULL.                 -999.25: NULL VALUE
 MDS .        Operator Entered:  MAG DATA SOURCE
 PDAT.          Mean Sea Level:  PERMANENT DATUM
 UNIT.                     N/A:  LOGGING EQUIPMENT ID
 DCON.         Sperry Drilling:  DIRECTNL CONTR
 DOE .                     N/A:  DOE NUMBER
 RIG .              East Azeri:  RIG NAME
 JOBN.        AZ-XX-0905856059:  JOB TICKET NUMB
 WELL.                     D36:  WELL NAME
 MWDS.                    Baku:  MWD SHOP
 SRVC.     Turan Drilling & Engineering:  CONTRACTOR
 FLD .                     ACG:  FIELD NAME
 CTRY.              Azerbaijan:  COUNTRY NAME
 PROV.                    Baku:  PROVINCE
 STAT.                    Baku:  STATE NAME
 REGN.                   EESSA:  REGION
 BASE.              Azerbaijan:  LOGGING EQUIPMENT BASE LOCATION
 UWI .                     N/A:  UNIQUE WELL IDENTIFIER
 API .                     N/A:  API NUMBER
 COMP.     BP Exploration (Caspian Sea) Ltd.:  COMPANY
 WTYP.                Deviated:  WELL TYPE
 SON .        AZ-XX-0905856059:  JOB NUMBER
 FTOP.          Formation Tops:  FORM TOPS DESC
 ILTD.               Lithology:  INTERP LTH DESC
 SVYD.                  Survey:  SURVEY DESC
 DMOD.             Drill Model:  DRILL MOD DESC
 HPTY.       Minimum Curvature:  HOLE POS TYPE
 NREF.                    Grid:  NORTH REFERENCE
 SPUD.               25-Feb-20:  SPUD DATE
 DATE.      08.55.28 01-May-20:  END TIME
 STIM.      08.55.28 25-Feb-20:  START TIME
 DMF .             Drill Floor:  DRILL MEAS FROM
 DFST.                        :  DIST FSL TEXT
 DFWT.                        :  DIST FWL TEXT
 CNTY.                        :  COUNTY
 LOC .                        :  LOCATION
 LMF .             Drill Floor:  LOG MEASURED FROM
 VSNS.m                   6.09:  VERT SEC N/S
 VSEW.m                 -10.79:  VERT SEC E/W
 AGAP.m                  43.60:  AIR GAP
 DEP .m                 388.24:  DEPTH
 APD .m                  43.60:  DEPTH ABOVE PD
 WDMS.m                 151.80:  WD ELEV
 EGL .m                   0.00:  GROUND ELEVATION
 EPD .m                   0.00:  ELEVATION
 AZTC.deg                 6.12:  AZM TOTAL CORR
 GRDC.deg                 0.30:  GRID CORRECTION
 MDEC.deg                 6.42:  MAGNETIC DECL
 MDIP.deg                59.42:  MAGNETIC DIP
 MFLD.nT              50256.00:  MAGNETIC FIELD
 GVFD.g                   1.00:  GRAVITY FIELD
 VSDR.deg               159.57:  VERT SEC DIRECT
 TDD .m                5000.01:  TOTAL DEPTH (DRILLER)
 SDEP.m                 397.00:  START DEPTH
 DFSL.m                   0.00:  DISTANCE FSL
 DFWL.m                   0.00:  DISTANCE FWL
 UTMY.m             4431880.20:  UTM Y
 UTMX.m              538763.98:  UTM X
 WHEW.m                 -10.79:  WELL HEAD E/W
 WHNS.m                   6.09:  WELL HEAD N/S
 LONG.deg                51.45:  LONGITUDE
 LATI.deg                40.02:  LATITUDE
 TVDS.m                  43.60:  TVDSS CORRECTN
 EKB .m                  43.60:  KB ELEVATION
 EDF .m                  43.60:  DF ELEVATION
 MAGU.                 1847640:  MAGUTM CHECKSUM
 VSC .                       0:  VS TO CLOSURE
~Parameter Information Block
#MNEM.UNIT       Value        Description
#---------     -----------    ---------------------------
 AV  .mps                 1.30:  Ann Velocity 
 AVMX.mps                 1.90:  Max Ann Veloc 
 AZIF.deg               115.68:  Azm, Final 
 BHAT.                   Other:  BHA Type 
 BROT.°/30m               0.74:  Build Rotating 
 BS  .in                  8.50:  Bit Size 
 BTPL.psig              430.00:  Bit Press Loss 
 CABU.                      No:  Customer Abuse 
 COMM.                     ”le:  Run Comments 1 
 TCS .hr                 51.31:  Time Ciculation Ended 
 CV  .mps                 2.52:  Crit Velocity 
 CVMX.mps                 2.62:  Max Crit Veloc 
 DD1 .          Teymur Aghayev:  Direct Drillr 1 
 DDSV.                   Other:  DD Service 
 DEFF.%                 100.00:  % Det Eff 
 DLRX.°/30m               1.62:  Dogleg Rot Max 
 DLSO.°/30m               0.74:  Dogleg Oriented 
 DLSX.°/30m               1.62:  Dogleg Str Max 
 DRET.      04.30.56 18-May-20:  Drill End Time 
 DRST.      04.30.56 18-May-20:  Drill Start Tim 
 DTIM.hr                  0.00:  Time Drilling 
 EDEP.m                5337.01:  End Depth 
 ENG1.      Artemiy Matviyanov:  Engineer 1 
 ENG2.      Bakhtiyar Jabbarli:  Engineer 2 
 ENG3.           Emil Huseynov:  Engineer 3 
 ETIM.      18.40.00 22-May-20:  End Time 
 FLOI.gpm               550.00:  Flow In 
 FLON.gpm               350.00:  Flow In Min 
 FLOS.cptm                0.00:  Fluid Loss 
 FLOX.gpm               600.00:  Flow In Max 
 HFLO.                      No:  High Flow 
 HPRE.                      No:  High Pressure 
 HTEM.                      No:  High Temp 
 HYDO.m                   1.80:  Hydro Offset 
 IFIN.deg                67.01:  Inc, Final 
 IMAX.deg                67.49:  Inc Max 
 IMIN.deg                66.50:  Inc Min 
 IMND.m                5144.79:  Inc Min Depth 
 IMXD.m                5116.12:  Inc Max Depth 
 JARR.                      No:  Jarring 
 LETM.      17.55.56 20-May-20:  Log End Time 
 LOST.hr                     0:  Lost Rig Time 
 LSTM.      04.30.56 18-May-20:  Log Start Time 
 MDCL.ppm            193153.00:  Mud Chlorides 
 MDES.     Inversion Oil/Synthetic:  Mud Desc 
 DFD .sg                  1.40:  Mud Density 
 MDMN.sg                  1.40:  Dens Mud Min 
 MDMX.sg                  1.41:  Dens Mud Max 
 MOIL.                      68:  Run Mud Oil % 
 MOWR.                   68:32:  Run Mud OWR 
 MSND.                     0.2:  Run Mud Sand % 
 MSOL.                    18.8:  Run Mud Solids% 
 DFV .spqt               80.00:  Mud Viscosity 
 MWOD.in                  6.75:  MWD Tool OD 
 MWSI.                      No:  Serv Intrp, MWD 
 OTIM.hr                104.84:  Time Operating 
 PMAX.psia            10690.93:  Press Op, Max 
 PV  .cP                 26.00:  Mud PV 
 RUN .                     900:  Run Number 
 ROPA.m/hr                0.00:  ROP Avg 
 ROPN.m/hr                0.00:  ROP Min 
 ROPX.m/hr                0.00:  ROP Max 
 RPMA.rpm               140.00:  RPM Surface Avg 
 RPMN.rpm                70.00:  RPM Surface Min 
 RPMX.rpm               140.00:  RPM Surface Max 
 RRUN.                    0900:  Rig Run Number 
 RTIM.hr                 36.00:  Time Reaming 
 SAZI.deg               115.72:  Azm, Start 
 SDEP.m                5337.01:  Start Depth 
 SIDD.                      No:  Serv Intrp, DD 
 SINC.deg                66.92:  Inc, Start 
 SPPA.psig             4400.00:  SPP Avg 
 SPPN.psig             1135.00:  SPP Min 
 SPPX.psig             4581.00:  SPP Max 
 STIM.      04.30.56 18-May-20:  Start Time 
 SVCS.                     MWD:  Services 
 SVER.                    9.20:  Sperry Version 
 TDAT.m                5337.01:  Tot Depth Attmp 
 TDDF.                      No:  Trip for DD 
 TFF .                      No:  Trip for Fail 
 TQAA.f-kp               23.00:  Torque Abs Avg 
 TQAN.f-kp               18.00:  Torque Abs Min 
 TQAX.f-kp               25.00:  Torque Abs Max 
 TRRT.°/30m               0.74:  Turn Rotating 
 MRT .                    HCIM:  Maximum Recorded Temperature 
 TTMX.degC               76.47:  Max Tool Temp 
 WBMN.klb                 0.00:  WOB Min 
 WITN.             Anar Khalil:  Customer Rep 
 WITN.      Kamran Keberlinski:  Customer Rep 2 
 WOBA.klb                 0.00:  WOB Avg 
 WOBX.klb                 0.00:  WOB Max 
 YP  .lhf2               27.00:  Yield Point 
~Curve Information Block
#MNEM.UNIT                 API CODE     Curve Description
#---------               -----------    ---------------------------
 TIME.HHMMSS            00 000 000 000:  GT Time & Date
 GTDEPTH.m              00 000 000 000:  GT Depth
 GTPQH.psia             00 000 000 000:  GT HR Quartz Pressure
 GTTQ.degC              00 000 000 000:  GT Quartz Temperature
 GTTN.NONE              00 000 000 000:  GT Test Number
 GTET.sec               00 000 000 000:  GT Elapsed Test Time
 GTTVD.m                00 000 000 000:  GT True Vertical Depth
#Other Information
#
#WARRANTY: Halliburton will use its best efforts to furnish customers with 
#accurate information and interpretations that are part of, and incident to, the services 
#provided.  However, Halliburton cannot and does not warrant the accuracy 
#or correctness of such information and interpretations.  Under no circumstances should any 
#such information or interpretation be relied upon as the sole basis for any drilling, 
#completion, production, or financial decision or any procedure involving any risk to the 
#safety of any drilling venture, drilling rig or its crew or any other third party.  The 
#Customer has full responsibility for all drilling, completion and production operation.  
#Halliburton makes no representations or warranties, either expressed or 
#implied, including, but not limited to, the implied warranties of merchantability or fitness 
#for a particular purpose, with respect to the services rendered.  In no event will 
#Halliburton be liable for failure to obtain any particular results or for 
#any damages, including, but not limited to, indirect, special or consequential damages, 
#resulting from the use of any information or interpretation provided by Halliburton.
#
~A           TIME           GTDEPTH  GTPQH  GTTQ  GTTN  GTET   GTTVD  
# ...
   22:30:05.085.19-May-2020 5137.01 6461.50 67.87 4.00 322.08 2705.05
   22:30:05.285.19-May-2020 5137.01 6461.50 67.87 4.00 322.28 2705.05
   22:30:05.485.19-May-2020 5137.01 6462.35 67.87 4.00 322.48 2705.05
   22:30:05.685.19-May-2020 5137.01 6464.66 67.87 4.00 322.68 2705.05
   22:30:05.886.19-May-2020 5137.01 6465.15 67.87 4.00 322.88 2705.05
   22:30:06.086.19-May-2020 5137.01 6463.32 67.87 4.00 323.08 2705.05
   22:30:06.286.19-May-2020 5137.01 6465.48 67.87 4.00 323.28 2705.05
   22:30:06.486.19-May-2020 5137.01 6463.10 67.87 4.00 323.48 2705.05
   22:30:06.686.19-May-2020 5137.01 6465.65 67.87 4.00 323.68 2705.05
   22:30:06.886.19-May-2020 5137.01 6465.86 67.87 4.00 323.88 2705.05
   22:30:07.086.19-May-2020 5137.01 6464.03 67.87 4.00 324.08 2705.05
   22:30:07.286.19-May-2020 5137.01 6464.03 67.87 4.00 324.28 2705.05
   22:30:07.486.19-May-2020 5137.01 6463.43 67.87 4.00 324.48 2705.05
   22:30:07.686.19-May-2020 5137.01 6466.23 67.87 4.00 324.68 2705.05
   22:30:07.886.19-May-2020 5137.01 6466.48 67.87 4.00 324.88 2705.05
   22:30:08.086.19-May-2020 5137.01 6465.63 67.87 4.00 325.08 2705.05
   22:30:08.286.19-May-2020 5137.01 6465.63 67.87 4.00 325.28 2705.05
   22:30:08.486.19-May-2020 5137.01 6466.01 67.87 4.00 325.48 2705.05
   22:30:08.686.19-May-2020 5137.01 6468.42 67.87 4.00 325.68 2705.05
   22:30:08.886.19-May-2020 5137.01 6466.10 67.87 4.00 325.88 2705.05
   22:30:09.086.19-May-2020 5137.01 6466.80 67.87 4.00 326.08 2705.05
   22:30:09.286.19-May-2020 5137.01 6466.80 67.87 4.00 326.28 2705.05
   22:30:09.486.19-May-2020 5137.01 6466.30 67.87 4.00 326.48 2705.05
   22:30:09.686.19-May-2020 5137.01 6463.92 67.87 4.00 326.68 2705.05
   22:30:09.887.19-May-2020 5137.01 6465.50 67.87 4.00 326.88 2705.05
   22:30:10.087.19-May-2020 5137.01 6464.00 67.87 4.00 327.08 2705.05
   22:30:10.287.19-May-2020 5137.01 6465.07 67.87 4.00 327.28 2705.05
   22:30:10.487.19-May-2020 5137.01 6464.05 67.87 4.00 327.48 2705.05
   22:30:10.687.19-May-2020 5137.01 6463.97 67.87 4.00 327.68 2705.05
   22:30:10.887.19-May-2020 5137.01 6464.29 67.87 4.00 327.88 2705.05
   22:30:11.087.19-May-2020 5137.01 6463.22 67.87 4.00 328.08 2705.05
   22:30:11.287.19-May-2020 5137.01 6463.22 67.87 4.00 328.28 2705.05
   22:30:11.487.19-May-2020 5137.01 6463.58 67.87 4.00 328.48 2705.05
   22:30:11.687.19-May-2020 5137.01 6466.85 67.87 4.00 328.68 2705.05
   22:30:11.887.19-May-2020 5137.01 6464.48 67.87 4.00 328.88 2705.05
   22:30:12.087.19-May-2020 5137.01 6465.05 67.87 4.00 329.08 2705.05
   22:30:12.287.19-May-2020 5137.01 6465.05 67.87 4.00 329.28 2705.05
   22:30:12.487.19-May-2020 5137.01 6468.64 67.87 4.00 329.48 2705.05
   22:30:12.687.19-May-2020 5137.01 6463.89 67.87 4.00 329.68 2705.05
   22:30:12.887.19-May-2020 5137.01 6466.79 67.87 4.00 329.88 2705.05
   22:30:13.087.19-May-2020 5137.01 6464.80 67.87 4.00 330.08 2705.05
   22:30:13.287.19-May-2020 5137.01 6464.80 67.87 4.00 330.28 2705.05
   22:30:13.487.19-May-2020 5137.01 6467.30 67.87 4.00 330.48 2705.05
   22:30:13.687.19-May-2020 5137.01 6465.31 67.87 4.00 330.68 2705.05
   22:30:13.888.19-May-2020 5137.01 6467.27 67.87 4.00 330.88 2705.05
   22:30:14.088.19-May-2020 5137.01 6465.52 67.87 4.00 331.08 2705.05
   22:30:14.288.19-May-2020 5137.01 6465.52 67.87 4.00 331.28 2705.05
   22:30:14.488.19-May-2020 5137.01 6468.10 67.87 4.00 331.48 2705.05
   22:30:14.688.19-May-2020 5137.01 6465.13 67.87 4.00 331.68 2705.05
   22:30:14.888.19-May-2020 5137.01 6467.36 67.87 4.00 331.88 2705.05
   22:30:15.088.19-May-2020 5137.01 6465.36 67.87 4.00 332.08 2705.05
   22:30:15.288.19-May-2020 5137.01 6465.36 67.87 4.00 332.28 2705.05
   22:30:15.488.19-May-2020 5137.01 6465.16 67.87 4.00 332.48 2705.05
   22:30:15.688.19-May-2020 5137.01 6466.69 67.87 4.00 332.68 2705.05
   22:30:15.888.19-May-2020 5137.01 6467.04 67.87 4.00 332.88 2705.05
   22:30:16.088.19-May-2020 5137.01 6465.38 67.87 4.00 333.08 2705.05
   22:30:16.288.19-May-2020 5137.01 6465.38 67.87 4.00 333.28 2705.05
   22:30:16.488.19-May-2020 5137.01 6464.59 67.87 4.00 333.48 2705.05
   22:30:16.688.19-May-2020 5137.01 6464.68 67.87 4.00 333.68 2705.05
   22:30:16.888.19-May-2020 5137.01 6465.17 67.87 4.00 333.88 2705.05
   22:30:17.088.19-May-2020 5137.01 6463.67 67.87 4.00 334.08 2705.05
   22:30:17.288.19-May-2020 5137.01 6463.67 67.87 4.00 334.28 2705.05
   22:30:17.488.19-May-2020 5137.01 6464.03 67.87 4.00 334.48 2705.05
   22:30:17.688.19-May-2020 5137.01 6463.55 67.87 4.00 334.68 2705.05
   22:30:17.889.19-May-2020 5137.01 6464.31 67.87 4.00 334.88 2705.05
   22:30:18.089.19-May-2020 5137.01 6462.88 67.87 4.00 335.08 2705.05
   22:30:18.289.19-May-2020 5137.01 6464.76 67.87 4.00 335.28 2705.05
   22:30:18.489.19-May-2020 5137.01 6465.69 67.87 4.00 335.48 2705.05
   22:30:18.689.19-May-2020 5137.01 6463.97 67.87 4.00 335.68 2705.05
   22:30:18.889.19-May-2020 5137.01 6466.01 67.87 4.00 335.88 2705.05
   22:30:19.089.19-May-2020 5137.01 6462.83 67.87 4.00 336.08 2705.05
   22:30:19.289.19-May-2020 5137.01 6462.83 67.87 4.00 336.28 2705.05
   22:30:19.489.19-May-2020 5137.01 6461.86 67.87 4.00 336.48 2705.05
   22:30:19.689.19-May-2020 5137.01 6466.52 67.87 4.00 336.68 2705.05
   22:30:19.889.19-May-2020 5137.01 6466.14 67.87 4.00 336.88 2705.05
   22:30:20.089.19-May-2020 5137.01 6465.08 67.87 4.00 337.08 2705.05
   22:30:20.289.19-May-2020 5137.01 6465.08 67.87 4.00 337.28 2705.05
   22:30:20.489.19-May-2020 5137.01 6463.46 67.87 4.00 337.48 2705.05
   22:30:20.689.19-May-2020 5137.01 6466.68 67.87 4.00 337.68 2705.05
   22:30:20.889.19-May-2020 5137.01 6466.52 67.87 4.00 337.88 2705.05
   22:30:21.089.19-May-2020 5137.01 6464.99 67.87 4.00 338.08 2705.05
   22:30:21.289.19-May-2020 5137.01 6464.99 67.87 4.00 338.28 2705.05
   22:30:21.489.19-May-2020 5137.01 6463.13 67.87 4.00 338.48 2705.05
   22:30:21.689.19-May-2020 5137.01 6466.74 67.87 4.00 338.68 2705.05
   22:30:21.890.19-May-2020 5137.01 6466.33 67.87 4.00 338.88 2705.05
   22:30:22.090.19-May-2020 5137.01 6469.79 67.87 4.00 339.08 2705.05
   22:30:22.290.19-May-2020 5137.01 6463.18 67.87 4.00 339.28 2705.05
   22:30:22.490.19-May-2020 5137.01 6467.02 67.87 4.00 339.48 2705.05
   22:30:22.690.19-May-2020 5137.01 6465.77 67.87 4.00 339.68 2705.05
   22:30:22.890.19-May-2020 5137.01 6466.35 67.87 4.00 339.88 2705.05
   22:30:23.090.19-May-2020 5137.01 6463.69 67.87 4.00 340.08 2705.05
   22:30:23.290.19-May-2020 5137.01 6463.69 67.87 4.00 340.28 2705.05
   22:30:23.490.19-May-2020 5137.01 6464.21 67.87 4.00 340.48 2705.05
   22:30:23.690.19-May-2020 5137.01 6464.20 67.87 4.00 340.68 2705.05
   22:30:23.890.19-May-2020 5137.01 6464.43 67.87 4.00 340.88 2705.05
   22:30:24.090.19-May-2020 5137.01 6463.61 67.87 4.00 341.09 2705.05
   22:30:24.290.19-May-2020 5137.01 6463.61 67.87 4.00 341.29 2705.05
   22:30:24.490.19-May-2020 5137.01 6463.87 67.87 4.00 341.49 2705.05
   22:30:24.690.19-May-2020 5137.01 6463.53 67.87 4.00 341.69 2705.05
   22:30:24.890.19-May-2020 5137.01 6464.35 67.87 4.00 341.89 2705.05
   22:30:25.090.19-May-2020 5137.01 6466.16 67.87 4.00 342.09 2705.05
   22:30:25.290.19-May-2020 5137.01 6466.16 67.87 4.00 342.29 2705.05
   22:30:25.490.19-May-2020 5137.01 6465.27 67.87 4.00 342.49 2705.05
   22:30:25.690.19-May-2020 5137.01 6464.94 67.87 4.00 342.69 2705.05
   22:30:25.891.19-May-2020 5137.01 6465.11 67.87 4.00 342.89 2705.05
   22:30:26.091.19-May-2020 5137.01 6466.99 67.87 4.00 343.09 2705.05
   22:30:26.291.19-May-2020 5137.01 6464.77 67.87 4.00 343.29 2705.05
   22:30:26.491.19-May-2020 5137.01 6466.61 67.87 4.00 343.49 2705.05
   22:30:26.691.19-May-2020 5137.01 6465.78 67.87 4.00 343.69 2705.05
   22:30:26.891.19-May-2020 5137.01 6468.86 67.87 4.00 343.89 2705.05
   22:30:27.091.19-May-2020 5137.01 6464.42 67.87 4.00 344.09 2705.05
   22:30:27.291.19-May-2020 5137.01 6464.42 67.87 4.00 344.29 2705.05
   22:30:27.491.19-May-2020 5137.01 6464.46 67.87 4.00 344.49 2705.05
   22:30:27.691.19-May-2020 5137.01 6466.68 67.87 4.00 344.69 2705.05
   22:30:27.891.19-May-2020 5137.01 6468.42 67.87 4.00 344.89 2705.05
