~Version Information
 VERS.                  2.0:   CWLS log ASCII Standard -VERSION 2.0
 WRAP.                   NO:   One line per depth step
~Well Information Block
#MNEM.UNIT     VALUE/NAME     DESCRIPTION
#---------     -----------    ---------------------------
 STRT.S             21:41:59 19-May-20: START TIME 21:41:59 19-May-20
 STOP.S             21:48:44 19-May-20: STOP TIME  21:48:44 19-May-20
 STEP.S                   0.00: STEP TIME
 NULL.                 -999.25: NULL VALUE
 MDS .        Operator Entered:  MAG DATA SOURCE
 PDAT.          Mean Sea Level:  PERMANENT DATUM
 UNIT.                     N/A:  LOGGING EQUIPMENT ID
 DCON.         Sperry Drilling:  DIRECTNL CONTR
 DOE .                     N/A:  DOE NUMBER
 RIG .              East Azeri:  RIG NAME
 JOBN.        AZ-XX-0905856059:  JOB TICKET NUMB
 WELL.                     D36:  WELL NAME
 MWDS.                    Baku:  MWD SHOP
 SRVC.     Turan Drilling & Engineering:  CONTRACTOR
 FLD .                     ACG:  FIELD NAME
 CTRY.              Azerbaijan:  COUNTRY NAME
 PROV.                    Baku:  PROVINCE
 STAT.                    Baku:  STATE NAME
 REGN.                   EESSA:  REGION
 BASE.              Azerbaijan:  LOGGING EQUIPMENT BASE LOCATION
 UWI .                     N/A:  UNIQUE WELL IDENTIFIER
 API .                     N/A:  API NUMBER
 COMP.     BP Exploration (Caspian Sea) Ltd.:  COMPANY
 WTYP.                Deviated:  WELL TYPE
 SON .        AZ-XX-0905856059:  JOB NUMBER
 FTOP.          Formation Tops:  FORM TOPS DESC
 ILTD.               Lithology:  INTERP LTH DESC
 SVYD.                  Survey:  SURVEY DESC
 DMOD.             Drill Model:  DRILL MOD DESC
 HPTY.       Minimum Curvature:  HOLE POS TYPE
 NREF.                    Grid:  NORTH REFERENCE
 SPUD.               25-Feb-20:  SPUD DATE
 DATE.      08.55.28 01-May-20:  END TIME
 STIM.      08.55.28 25-Feb-20:  START TIME
 DMF .             Drill Floor:  DRILL MEAS FROM
 DFST.                        :  DIST FSL TEXT
 DFWT.                        :  DIST FWL TEXT
 CNTY.                        :  COUNTY
 LOC .                        :  LOCATION
 LMF .             Drill Floor:  LOG MEASURED FROM
 VSNS.m                   6.09:  VERT SEC N/S
 VSEW.m                 -10.79:  VERT SEC E/W
 AGAP.m                  43.60:  AIR GAP
 DEP .m                 388.24:  DEPTH
 APD .m                  43.60:  DEPTH ABOVE PD
 WDMS.m                 151.80:  WD ELEV
 EGL .m                   0.00:  GROUND ELEVATION
 EPD .m                   0.00:  ELEVATION
 AZTC.deg                 6.12:  AZM TOTAL CORR
 GRDC.deg                 0.30:  GRID CORRECTION
 MDEC.deg                 6.42:  MAGNETIC DECL
 MDIP.deg                59.42:  MAGNETIC DIP
 MFLD.nT              50256.00:  MAGNETIC FIELD
 GVFD.g                   1.00:  GRAVITY FIELD
 VSDR.deg               159.57:  VERT SEC DIRECT
 TDD .m                5000.01:  TOTAL DEPTH (DRILLER)
 SDEP.m                 397.00:  START DEPTH
 DFSL.m                   0.00:  DISTANCE FSL
 DFWL.m                   0.00:  DISTANCE FWL
 UTMY.m             4431880.20:  UTM Y
 UTMX.m              538763.98:  UTM X
 WHEW.m                 -10.79:  WELL HEAD E/W
 WHNS.m                   6.09:  WELL HEAD N/S
 LONG.deg                51.45:  LONGITUDE
 LATI.deg                40.02:  LATITUDE
 TVDS.m                  43.60:  TVDSS CORRECTN
 EKB .m                  43.60:  KB ELEVATION
 EDF .m                  43.60:  DF ELEVATION
 MAGU.                 1847640:  MAGUTM CHECKSUM
 VSC .                       0:  VS TO CLOSURE
~Parameter Information Block
#MNEM.UNIT       Value        Description
#---------     -----------    ---------------------------
 AV  .mps                 1.30:  Ann Velocity 
 AVMX.mps                 1.90:  Max Ann Veloc 
 AZIF.deg               115.68:  Azm, Final 
 BHAT.                   Other:  BHA Type 
 BROT.°/30m               0.74:  Build Rotating 
 BS  .in                  8.50:  Bit Size 
 BTPL.psig              430.00:  Bit Press Loss 
 CABU.                      No:  Customer Abuse 
 COMM.                     „äS:  Run Comments 1 
 TCS .hr                 51.31:  Time Ciculation Ended 
 CV  .mps                 2.52:  Crit Velocity 
 CVMX.mps                 2.62:  Max Crit Veloc 
 DD1 .          Teymur Aghayev:  Direct Drillr 1 
 DDSV.                   Other:  DD Service 
 DEFF.%                 100.00:  % Det Eff 
 DLRX.°/30m               1.62:  Dogleg Rot Max 
 DLSO.°/30m               0.74:  Dogleg Oriented 
 DLSX.°/30m               1.62:  Dogleg Str Max 
 DRET.      04.30.56 18-May-20:  Drill End Time 
 DRST.      04.30.56 18-May-20:  Drill Start Tim 
 DTIM.hr                  0.00:  Time Drilling 
 EDEP.m                5337.01:  End Depth 
 ENG1.      Artemiy Matviyanov:  Engineer 1 
 ENG2.      Bakhtiyar Jabbarli:  Engineer 2 
 ENG3.           Emil Huseynov:  Engineer 3 
 ETIM.      18.40.00 22-May-20:  End Time 
 FLOI.gpm               550.00:  Flow In 
 FLON.gpm               350.00:  Flow In Min 
 FLOS.cptm                0.00:  Fluid Loss 
 FLOX.gpm               600.00:  Flow In Max 
 HFLO.                      No:  High Flow 
 HPRE.                      No:  High Pressure 
 HTEM.                      No:  High Temp 
 HYDO.m                   1.80:  Hydro Offset 
 IFIN.deg                67.01:  Inc, Final 
 IMAX.deg                67.49:  Inc Max 
 IMIN.deg                66.50:  Inc Min 
 IMND.m                5144.79:  Inc Min Depth 
 IMXD.m                5116.12:  Inc Max Depth 
 JARR.                      No:  Jarring 
 LETM.      17.55.56 20-May-20:  Log End Time 
 LOST.hr                     0:  Lost Rig Time 
 LSTM.      04.30.56 18-May-20:  Log Start Time 
 MDCL.ppm            193153.00:  Mud Chlorides 
 MDES.     Inversion Oil/Synthetic:  Mud Desc 
 DFD .sg                  1.40:  Mud Density 
 MDMN.sg                  1.40:  Dens Mud Min 
 MDMX.sg                  1.41:  Dens Mud Max 
 MOIL.                      68:  Run Mud Oil % 
 MOWR.                   68:32:  Run Mud OWR 
 MSND.                     0.2:  Run Mud Sand % 
 MSOL.                    18.8:  Run Mud Solids% 
 DFV .spqt               80.00:  Mud Viscosity 
 MWOD.in                  6.75:  MWD Tool OD 
 MWSI.                      No:  Serv Intrp, MWD 
 OTIM.hr                104.84:  Time Operating 
 PMAX.psia            10690.93:  Press Op, Max 
 PV  .cP                 26.00:  Mud PV 
 RUN .                     900:  Run Number 
 ROPA.m/hr                0.00:  ROP Avg 
 ROPN.m/hr                0.00:  ROP Min 
 ROPX.m/hr                0.00:  ROP Max 
 RPMA.rpm               140.00:  RPM Surface Avg 
 RPMN.rpm                70.00:  RPM Surface Min 
 RPMX.rpm               140.00:  RPM Surface Max 
 RRUN.                    0900:  Rig Run Number 
 RTIM.hr                 36.00:  Time Reaming 
 SAZI.deg               115.72:  Azm, Start 
 SDEP.m                5337.01:  Start Depth 
 SIDD.                      No:  Serv Intrp, DD 
 SINC.deg                66.92:  Inc, Start 
 SPPA.psig             4400.00:  SPP Avg 
 SPPN.psig             1135.00:  SPP Min 
 SPPX.psig             4581.00:  SPP Max 
 STIM.      04.30.56 18-May-20:  Start Time 
 SVCS.                     MWD:  Services 
 SVER.                    9.20:  Sperry Version 
 TDAT.m                5337.01:  Tot Depth Attmp 
 TDDF.                      No:  Trip for DD 
 TFF .                      No:  Trip for Fail 
 TQAA.f-kp               23.00:  Torque Abs Avg 
 TQAN.f-kp               18.00:  Torque Abs Min 
 TQAX.f-kp               25.00:  Torque Abs Max 
 TRRT.°/30m               0.74:  Turn Rotating 
 MRT .                    HCIM:  Maximum Recorded Temperature 
 TTMX.degC               76.47:  Max Tool Temp 
 WBMN.klb                 0.00:  WOB Min 
 WITN.             Anar Khalil:  Customer Rep 
 WITN.      Kamran Keberlinski:  Customer Rep 2 
 WOBA.klb                 0.00:  WOB Avg 
 WOBX.klb                 0.00:  WOB Max 
 YP  .lhf2               27.00:  Yield Point 
~Curve Information Block
#MNEM.UNIT                 API CODE     Curve Description
#---------               -----------    ---------------------------
 TIME.HHMMSS            00 000 000 000:  GT Time & Date
 GTDEPTH.m              00 000 000 000:  GT Depth
 GTPQH.psia             00 000 000 000:  GT HR Quartz Pressure
 GTTQ.degC              00 000 000 000:  GT Quartz Temperature
 GTTN.NONE              00 000 000 000:  GT Test Number
 GTET.sec               00 000 000 000:  GT Elapsed Test Time
 GTTVD.m                00 000 000 000:  GT True Vertical Depth
#Other Information
#
#WARRANTY: Halliburton will use its best efforts to furnish customers with 
#accurate information and interpretations that are part of, and incident to, the services 
#provided.  However, Halliburton cannot and does not warrant the accuracy 
#or correctness of such information and interpretations.  Under no circumstances should any 
#such information or interpretation be relied upon as the sole basis for any drilling, 
#completion, production, or financial decision or any procedure involving any risk to the 
#safety of any drilling venture, drilling rig or its crew or any other third party.  The 
#Customer has full responsibility for all drilling, completion and production operation.  
#Halliburton makes no representations or warranties, either expressed or 
#implied, including, but not limited to, the implied warranties of merchantability or fitness 
#for a particular purpose, with respect to the services rendered.  In no event will 
#Halliburton be liable for failure to obtain any particular results or for 
#any damages, including, but not limited to, indirect, special or consequential damages, 
#resulting from the use of any information or interpretation provided by Halliburton.
#
~A           TIME           GTDEPTH  GTPQH  GTTQ  GTTN  GTET   GTTVD  
# ...
   21:44:40.406.19-May-2020 5137.01  495.84 67.43 3.00 161.04 2705.05
   21:44:40.606.19-May-2020 5137.01  495.79 67.43 3.00 161.24 2705.05
   21:44:40.806.19-May-2020 5137.01  492.80 67.43 3.00 161.44 2705.05
   21:44:41.006.19-May-2020 5137.01  487.45 67.43 3.00 161.64 2705.05
   21:44:41.206.19-May-2020 5137.01  481.89 67.43 3.00 161.84 2705.05
   21:44:41.406.19-May-2020 5137.01  480.69 67.43 3.00 162.04 2705.05
   21:44:41.606.19-May-2020 5137.01  492.88 67.43 3.00 162.24 2705.05
   21:44:41.807.19-May-2020 5137.01  529.11 67.42 3.00 162.44 2705.05
   21:44:42.007.19-May-2020 5137.01  571.18 67.42 3.00 162.64 2705.05
   21:44:42.207.19-May-2020 5137.01  609.46 67.42 3.00 162.84 2705.05
   21:44:42.407.19-May-2020 5137.01  647.08 67.42 3.00 163.04 2705.05
   21:44:42.607.19-May-2020 5137.01  647.08 67.42 3.00 163.24 2705.05
   21:44:42.807.19-May-2020 5137.01  718.53 67.42 3.00 163.44 2705.05
   21:44:43.007.19-May-2020 5137.01  753.08 67.42 3.00 163.64 2705.05
   21:44:43.207.19-May-2020 5137.01  787.18 67.42 3.00 163.84 2705.05
   21:44:43.407.19-May-2020 5137.01  820.74 67.42 3.00 164.04 2705.05
   21:44:43.607.19-May-2020 5137.01  820.74 67.42 3.00 164.24 2705.05
   21:44:43.807.19-May-2020 5137.01  886.47 67.42 3.00 164.44 2705.05
   21:44:44.007.19-May-2020 5137.01  918.69 67.42 3.00 164.64 2705.05
   21:44:44.207.19-May-2020 5137.01  950.46 67.42 3.00 164.84 2705.05
   21:44:44.407.19-May-2020 5137.01  981.81 67.42 3.00 165.04 2705.05
   21:44:44.607.19-May-2020 5137.01  981.81 67.42 3.00 165.24 2705.05
   21:44:44.807.19-May-2020 5137.01 1043.09 67.42 3.00 165.44 2705.05
   21:44:45.007.19-May-2020 5137.01 1073.20 67.42 3.00 165.64 2705.05
   21:44:45.207.19-May-2020 5137.01 1102.93 67.42 3.00 165.84 2705.05
   21:44:45.407.19-May-2020 5137.01 1131.77 67.42 3.00 166.04 2705.05
   21:44:45.607.19-May-2020 5137.01 1131.77 67.42 3.00 166.24 2705.05
   21:44:45.808.19-May-2020 5137.01 1189.93 67.42 3.00 166.44 2705.05
   21:44:46.008.19-May-2020 5137.01 1217.63 67.42 3.00 166.64 2705.05
   21:44:46.208.19-May-2020 5137.01 1246.15 67.42 3.00 166.84 2705.05
   21:44:46.408.19-May-2020 5137.01 1273.69 67.42 3.00 167.04 2705.05
   21:44:46.608.19-May-2020 5137.01 1273.69 67.42 3.00 167.24 2705.05
   21:44:46.808.19-May-2020 5137.01 1327.20 67.42 3.00 167.44 2705.05
   21:44:47.008.19-May-2020 5137.01 1354.49 67.42 3.00 167.64 2705.05
   21:44:47.208.19-May-2020 5137.01 1380.72 67.42 3.00 167.84 2705.05
   21:44:47.408.19-May-2020 5137.01 1406.68 67.42 3.00 168.04 2705.05
   21:44:47.608.19-May-2020 5137.01 1406.68 67.42 3.00 168.24 2705.05
   21:44:47.808.19-May-2020 5137.01 1457.73 67.42 3.00 168.44 2705.05
   21:44:48.008.19-May-2020 5137.01 1482.10 67.42 3.00 168.64 2705.05
   21:44:48.208.19-May-2020 5137.01 1507.44 67.42 3.00 168.84 2705.05
   21:44:48.408.19-May-2020 5137.01 1531.95 67.42 3.00 169.04 2705.05
   21:44:48.608.19-May-2020 5137.01 1531.95 67.42 3.00 169.24 2705.05
   21:44:48.808.19-May-2020 5137.01 1579.99 67.43 3.00 169.44 2705.05
   21:44:49.008.19-May-2020 5137.01 1603.68 67.43 3.00 169.64 2705.05
   21:44:49.208.19-May-2020 5137.01 1627.03 67.43 3.00 169.84 2705.05
   21:44:49.408.19-May-2020 5137.01 1650.15 67.43 3.00 170.04 2705.05
   21:44:49.608.19-May-2020 5137.01 1650.15 67.43 3.00 170.24 2705.05
   21:44:49.809.19-May-2020 5137.01 1695.46 67.43 3.00 170.44 2705.05
   21:44:50.009.19-May-2020 5137.01 1717.81 67.43 3.00 170.64 2705.05
   21:44:50.209.19-May-2020 5137.01 1739.90 67.43 3.00 170.84 2705.05
   21:44:50.409.19-May-2020 5137.01 1761.70 67.43 3.00 171.04 2705.05
   21:44:50.609.19-May-2020 5137.01 1761.70 67.43 3.00 171.24 2705.05
   21:44:50.809.19-May-2020 5137.01 1804.54 67.43 3.00 171.44 2705.05
   21:44:51.009.19-May-2020 5137.01 1824.91 67.44 3.00 171.64 2705.05
   21:44:51.209.19-May-2020 5137.01 1846.30 67.44 3.00 171.84 2705.05
   21:44:51.409.19-May-2020 5137.01 1866.94 67.44 3.00 172.04 2705.05
   21:44:51.609.19-May-2020 5137.01 1866.94 67.44 3.00 172.24 2705.05
   21:44:51.809.19-May-2020 5137.01 1907.43 67.44 3.00 172.44 2705.05
   21:44:52.009.19-May-2020 5137.01 1927.36 67.44 3.00 172.64 2705.05
   21:44:52.209.19-May-2020 5137.01 1947.19 67.44 3.00 172.84 2705.05
   21:44:52.409.19-May-2020 5137.01 1966.64 67.44 3.00 173.04 2705.05
   21:44:52.609.19-May-2020 5137.01 1966.64 67.44 3.00 173.24 2705.05
   21:44:52.809.19-May-2020 5137.01 2004.41 67.44 3.00 173.44 2705.05
   21:44:53.009.19-May-2020 5137.01 2023.85 67.44 3.00 173.64 2705.05
   21:44:53.209.19-May-2020 5137.01 2042.63 67.45 3.00 173.84 2705.05
   21:44:53.409.19-May-2020 5137.01 2061.07 67.45 3.00 174.04 2705.05
   21:44:53.609.19-May-2020 5137.01 2061.07 67.45 3.00 174.24 2705.05
   21:44:53.809.19-May-2020 5137.01 2097.35 67.45 3.00 174.44 2705.05
   21:44:54.010.19-May-2020 5137.01 2115.27 67.45 3.00 174.64 2705.05
   21:44:54.210.19-May-2020 5137.01 2133.09 67.45 3.00 174.84 2705.05
   21:44:54.410.19-May-2020 5137.01 2150.63 67.45 3.00 175.04 2705.05
   21:44:54.610.19-May-2020 5137.01 2150.63 67.45 3.00 175.24 2705.05
   21:44:54.810.19-May-2020 5137.01 2185.09 67.45 3.00 175.44 2705.05
   21:44:55.010.19-May-2020 5137.01 2202.05 67.45 3.00 175.64 2705.05
   21:44:55.210.19-May-2020 5137.01 2218.83 67.46 3.00 175.84 2705.05
   21:44:55.410.19-May-2020 5137.01 2235.55 67.46 3.00 176.04 2705.05
   21:44:55.610.19-May-2020 5137.01 2235.55 67.46 3.00 176.24 2705.05
   21:44:55.810.19-May-2020 5137.01 2268.31 67.46 3.00 176.44 2705.05
   21:44:56.010.19-May-2020 5137.01 2284.44 67.46 3.00 176.64 2705.05
   21:44:56.210.19-May-2020 5137.01 2300.40 67.46 3.00 176.84 2705.05
   21:44:56.410.19-May-2020 5137.01 2316.21 67.46 3.00 177.04 2705.05
   21:44:56.610.19-May-2020 5137.01 2316.21 67.46 3.00 177.24 2705.05
   21:44:56.810.19-May-2020 5137.01 2347.34 67.46 3.00 177.44 2705.05
   21:44:57.010.19-May-2020 5137.01 2362.66 67.46 3.00 177.64 2705.05
   21:44:57.210.19-May-2020 5137.01 2377.81 67.46 3.00 177.84 2705.05
   21:44:57.410.19-May-2020 5137.01 2392.84 67.47 3.00 178.04 2705.05
   21:44:57.610.19-May-2020 5137.01 2392.84 67.47 3.00 178.24 2705.05
   21:44:57.810.19-May-2020 5137.01 2422.22 67.47 3.00 178.44 2705.05
   21:44:58.011.19-May-2020 5137.01 2436.70 67.47 3.00 178.64 2705.05
   21:44:58.211.19-May-2020 5137.01 2451.11 67.47 3.00 178.84 2705.05
   21:44:58.411.19-May-2020 5137.01 2464.69 67.47 3.00 179.04 2705.05
   21:44:58.611.19-May-2020 5137.01 2464.69 67.47 3.00 179.24 2705.05
   21:44:58.811.19-May-2020 5137.01 2493.40 67.47 3.00 179.44 2705.05
   21:44:59.011.19-May-2020 5137.01 2507.30 67.47 3.00 179.64 2705.05
   21:44:59.211.19-May-2020 5137.01 2521.10 67.47 3.00 179.84 2705.05
   21:44:59.411.19-May-2020 5137.01 2534.65 67.47 3.00 180.04 2705.05
   21:44:59.611.19-May-2020 5137.01 2534.65 67.47 3.00 180.24 2705.05
   21:44:59.811.19-May-2020 5137.01 2561.29 67.47 3.00 180.44 2705.05
   21:45:00.011.19-May-2020 5137.01 2574.51 67.48 3.00 180.65 2705.05
   21:45:00.211.19-May-2020 5137.01 2586.84 67.48 3.00 180.85 2705.05
   21:45:00.411.19-May-2020 5137.01 2600.42 67.48 3.00 181.05 2705.05
   21:45:00.611.19-May-2020 5137.01 2600.42 67.48 3.00 181.25 2705.05
   21:45:00.811.19-May-2020 5137.01 2625.92 67.48 3.00 181.45 2705.05
   21:45:01.011.19-May-2020 5137.01 2638.04 67.48 3.00 181.65 2705.05
   21:45:01.211.19-May-2020 5137.01 2650.67 67.48 3.00 181.85 2705.05
   21:45:01.411.19-May-2020 5137.01 2663.11 67.48 3.00 182.05 2705.05
   21:45:01.611.19-May-2020 5137.01 2663.11 67.48 3.00 182.25 2705.05
   21:45:01.811.19-May-2020 5137.01 2687.48 67.48 3.00 182.45 2705.05
   21:45:02.012.19-May-2020 5137.01 2699.42 67.48 3.00 182.65 2705.05
   21:45:02.212.19-May-2020 5137.01 2711.37 67.48 3.00 182.85 2705.05
   21:45:02.412.19-May-2020 5137.01 2723.11 67.48 3.00 183.05 2705.05
   21:45:02.612.19-May-2020 5137.01 2723.11 67.48 3.00 183.25 2705.05
   21:45:02.812.19-May-2020 5137.01 2746.21 67.49 3.00 183.45 2705.05
   21:45:03.012.19-May-2020 5137.01 2757.64 67.49 3.00 183.65 2705.05
   21:45:03.212.19-May-2020 5137.01 2768.96 67.49 3.00 183.85 2705.05
