~Version Information
 VERS.                  2.0:   CWLS log ASCII Standard -VERSION 2.0
 WRAP.                   NO:   One line per depth step
~Well Information Block
#MNEM.UNIT     VALUE/NAME     DESCRIPTION
#---------     -----------    ---------------------------
 STRT.S             06:41:15 20-May-20: START TIME 06:41:15 20-May-20
 STOP.S             06:51:49 20-May-20: STOP TIME  06:51:49 20-May-20
 STEP.S                   0.00: STEP TIME
 NULL.                 -999.25: NULL VALUE
 MDS .        Operator Entered:  MAG DATA SOURCE
 PDAT.          Mean Sea Level:  PERMANENT DATUM
 UNIT.                     N/A:  LOGGING EQUIPMENT ID
 DCON.         Sperry Drilling:  DIRECTNL CONTR
 DOE .                     N/A:  DOE NUMBER
 RIG .              East Azeri:  RIG NAME
 JOBN.        AZ-XX-0905856059:  JOB TICKET NUMB
 WELL.                     D36:  WELL NAME
 MWDS.                    Baku:  MWD SHOP
 SRVC.     Turan Drilling & Engineering:  CONTRACTOR
 FLD .                     ACG:  FIELD NAME
 CTRY.              Azerbaijan:  COUNTRY NAME
 PROV.                    Baku:  PROVINCE
 STAT.                    Baku:  STATE NAME
 REGN.                   EESSA:  REGION
 BASE.              Azerbaijan:  LOGGING EQUIPMENT BASE LOCATION
 UWI .                     N/A:  UNIQUE WELL IDENTIFIER
 API .                     N/A:  API NUMBER
 COMP.     BP Exploration (Caspian Sea) Ltd.:  COMPANY
 WTYP.                Deviated:  WELL TYPE
 SON .        AZ-XX-0905856059:  JOB NUMBER
 FTOP.          Formation Tops:  FORM TOPS DESC
 ILTD.               Lithology:  INTERP LTH DESC
 SVYD.                  Survey:  SURVEY DESC
 DMOD.             Drill Model:  DRILL MOD DESC
 HPTY.       Minimum Curvature:  HOLE POS TYPE
 NREF.                    Grid:  NORTH REFERENCE
 SPUD.               25-Feb-20:  SPUD DATE
 DATE.      08.55.28 01-May-20:  END TIME
 STIM.      08.55.28 25-Feb-20:  START TIME
 DMF .             Drill Floor:  DRILL MEAS FROM
 DFST.                        :  DIST FSL TEXT
 DFWT.                        :  DIST FWL TEXT
 CNTY.                        :  COUNTY
 LOC .                        :  LOCATION
 LMF .             Drill Floor:  LOG MEASURED FROM
 VSNS.m                   6.09:  VERT SEC N/S
 VSEW.m                 -10.79:  VERT SEC E/W
 AGAP.m                  43.60:  AIR GAP
 DEP .m                 388.24:  DEPTH
 APD .m                  43.60:  DEPTH ABOVE PD
 WDMS.m                 151.80:  WD ELEV
 EGL .m                   0.00:  GROUND ELEVATION
 EPD .m                   0.00:  ELEVATION
 AZTC.deg                 6.12:  AZM TOTAL CORR
 GRDC.deg                 0.30:  GRID CORRECTION
 MDEC.deg                 6.42:  MAGNETIC DECL
 MDIP.deg                59.42:  MAGNETIC DIP
 MFLD.nT              50256.00:  MAGNETIC FIELD
 GVFD.g                   1.00:  GRAVITY FIELD
 VSDR.deg               159.57:  VERT SEC DIRECT
 TDD .m                5000.01:  TOTAL DEPTH (DRILLER)
 SDEP.m                 397.00:  START DEPTH
 DFSL.m                   0.00:  DISTANCE FSL
 DFWL.m                   0.00:  DISTANCE FWL
 UTMY.m             4431880.20:  UTM Y
 UTMX.m              538763.98:  UTM X
 WHEW.m                 -10.79:  WELL HEAD E/W
 WHNS.m                   6.09:  WELL HEAD N/S
 LONG.deg                51.45:  LONGITUDE
 LATI.deg                40.02:  LATITUDE
 TVDS.m                  43.60:  TVDSS CORRECTN
 EKB .m                  43.60:  KB ELEVATION
 EDF .m                  43.60:  DF ELEVATION
 MAGU.                 1847640:  MAGUTM CHECKSUM
 VSC .                       0:  VS TO CLOSURE
~Parameter Information Block
#MNEM.UNIT       Value        Description
#---------     -----------    ---------------------------
 AV  .mps                 1.30:  Ann Velocity 
 AVMX.mps                 1.90:  Max Ann Veloc 
 AZIF.deg               115.68:  Azm, Final 
 BHAT.                   Other:  BHA Type 
 BROT.°/30m               0.74:  Build Rotating 
 BS  .in                  8.50:  Bit Size 
 BTPL.psig              430.00:  Bit Press Loss 
 CABU.                      No:  Customer Abuse 
 COMM.                     œÿv:  Run Comments 1 
 TCS .hr                 51.31:  Time Ciculation Ended 
 CV  .mps                 2.52:  Crit Velocity 
 CVMX.mps                 2.62:  Max Crit Veloc 
 DD1 .          Teymur Aghayev:  Direct Drillr 1 
 DDSV.                   Other:  DD Service 
 DEFF.%                 100.00:  % Det Eff 
 DLRX.°/30m               1.62:  Dogleg Rot Max 
 DLSO.°/30m               0.74:  Dogleg Oriented 
 DLSX.°/30m               1.62:  Dogleg Str Max 
 DRET.      04.30.56 18-May-20:  Drill End Time 
 DRST.      04.30.56 18-May-20:  Drill Start Tim 
 DTIM.hr                  0.00:  Time Drilling 
 EDEP.m                5337.01:  End Depth 
 ENG1.      Artemiy Matviyanov:  Engineer 1 
 ENG2.      Bakhtiyar Jabbarli:  Engineer 2 
 ENG3.           Emil Huseynov:  Engineer 3 
 ETIM.      18.40.00 22-May-20:  End Time 
 FLOI.gpm               550.00:  Flow In 
 FLON.gpm               350.00:  Flow In Min 
 FLOS.cptm                0.00:  Fluid Loss 
 FLOX.gpm               600.00:  Flow In Max 
 HFLO.                      No:  High Flow 
 HPRE.                      No:  High Pressure 
 HTEM.                      No:  High Temp 
 HYDO.m                   1.80:  Hydro Offset 
 IFIN.deg                67.01:  Inc, Final 
 IMAX.deg                67.49:  Inc Max 
 IMIN.deg                66.50:  Inc Min 
 IMND.m                5144.79:  Inc Min Depth 
 IMXD.m                5116.12:  Inc Max Depth 
 JARR.                      No:  Jarring 
 LETM.      17.55.56 20-May-20:  Log End Time 
 LOST.hr                     0:  Lost Rig Time 
 LSTM.      04.30.56 18-May-20:  Log Start Time 
 MDCL.ppm            193153.00:  Mud Chlorides 
 MDES.     Inversion Oil/Synthetic:  Mud Desc 
 DFD .sg                  1.40:  Mud Density 
 MDMN.sg                  1.40:  Dens Mud Min 
 MDMX.sg                  1.41:  Dens Mud Max 
 MOIL.                      68:  Run Mud Oil % 
 MOWR.                   68:32:  Run Mud OWR 
 MSND.                     0.2:  Run Mud Sand % 
 MSOL.                    18.8:  Run Mud Solids% 
 DFV .spqt               80.00:  Mud Viscosity 
 MWOD.in                  6.75:  MWD Tool OD 
 MWSI.                      No:  Serv Intrp, MWD 
 OTIM.hr                104.84:  Time Operating 
 PMAX.psia            10690.93:  Press Op, Max 
 PV  .cP                 26.00:  Mud PV 
 RUN .                     900:  Run Number 
 ROPA.m/hr                0.00:  ROP Avg 
 ROPN.m/hr                0.00:  ROP Min 
 ROPX.m/hr                0.00:  ROP Max 
 RPMA.rpm               140.00:  RPM Surface Avg 
 RPMN.rpm                70.00:  RPM Surface Min 
 RPMX.rpm               140.00:  RPM Surface Max 
 RRUN.                    0900:  Rig Run Number 
 RTIM.hr                 36.00:  Time Reaming 
 SAZI.deg               115.72:  Azm, Start 
 SDEP.m                5337.01:  Start Depth 
 SIDD.                      No:  Serv Intrp, DD 
 SINC.deg                66.92:  Inc, Start 
 SPPA.psig             4400.00:  SPP Avg 
 SPPN.psig             1135.00:  SPP Min 
 SPPX.psig             4581.00:  SPP Max 
 STIM.      04.30.56 18-May-20:  Start Time 
 SVCS.                     MWD:  Services 
 SVER.                    9.20:  Sperry Version 
 TDAT.m                5337.01:  Tot Depth Attmp 
 TDDF.                      No:  Trip for DD 
 TFF .                      No:  Trip for Fail 
 TQAA.f-kp               23.00:  Torque Abs Avg 
 TQAN.f-kp               18.00:  Torque Abs Min 
 TQAX.f-kp               25.00:  Torque Abs Max 
 TRRT.°/30m               0.74:  Turn Rotating 
 MRT .                    HCIM:  Maximum Recorded Temperature 
 TTMX.degC               76.47:  Max Tool Temp 
 WBMN.klb                 0.00:  WOB Min 
 WITN.             Anar Khalil:  Customer Rep 
 WITN.      Kamran Keberlinski:  Customer Rep 2 
 WOBA.klb                 0.00:  WOB Avg 
 WOBX.klb                 0.00:  WOB Max 
 YP  .lhf2               27.00:  Yield Point 
~Curve Information Block
#MNEM.UNIT                 API CODE     Curve Description
#---------               -----------    ---------------------------
 TIME.HHMMSS            00 000 000 000:  GT Time & Date
 GTDEPTH.m              00 000 000 000:  GT Depth
 GTPQH.psia             00 000 000 000:  GT HR Quartz Pressure
 GTTQ.degC              00 000 000 000:  GT Quartz Temperature
 GTTN.NONE              00 000 000 000:  GT Test Number
 GTET.sec               00 000 000 000:  GT Elapsed Test Time
 GTTVD.m                00 000 000 000:  GT True Vertical Depth
#Other Information
#
#WARRANTY: Halliburton will use its best efforts to furnish customers with 
#accurate information and interpretations that are part of, and incident to, the services 
#provided.  However, Halliburton cannot and does not warrant the accuracy 
#or correctness of such information and interpretations.  Under no circumstances should any 
#such information or interpretation be relied upon as the sole basis for any drilling, 
#completion, production, or financial decision or any procedure involving any risk to the 
#safety of any drilling venture, drilling rig or its crew or any other third party.  The 
#Customer has full responsibility for all drilling, completion and production operation.  
#Halliburton makes no representations or warranties, either expressed or 
#implied, including, but not limited to, the implied warranties of merchantability or fitness 
#for a particular purpose, with respect to the services rendered.  In no event will 
#Halliburton be liable for failure to obtain any particular results or for 
#any damages, including, but not limited to, indirect, special or consequential damages, 
#resulting from the use of any information or interpretation provided by Halliburton.
#
~A           TIME           GTDEPTH  GTPQH  GTTQ  GTTN   GTET   GTTVD  
# ...
   06:46:32.410.20-May-2020 5012.01 2902.43 68.09 10.00 316.49 2656.39
   06:46:32.610.20-May-2020 5012.01 2902.42 68.09 10.00 316.69 2656.39
   06:46:32.810.20-May-2020 5012.01 2902.44 68.09 10.00 316.89 2656.39
   06:46:33.010.20-May-2020 5012.01 2902.43 68.09 10.00 317.09 2656.39
   06:46:33.210.20-May-2020 5012.01 2902.43 68.09 10.00 317.29 2656.39
   06:46:33.411.20-May-2020 5012.01 2902.41 68.09 10.00 317.49 2656.39
   06:46:33.611.20-May-2020 5012.01 2902.43 68.09 10.00 317.69 2656.39
   06:46:33.811.20-May-2020 5012.01 2902.42 68.09 10.00 317.89 2656.39
   06:46:34.011.20-May-2020 5012.01 2902.42 68.09 10.00 318.09 2656.39
   06:46:34.211.20-May-2020 5012.01 2902.42 68.09 10.00 318.29 2656.39
   06:46:34.411.20-May-2020 5012.01 2902.44 68.09 10.00 318.49 2656.39
   06:46:34.611.20-May-2020 5012.01 2902.41 68.09 10.00 318.69 2656.39
   06:46:34.811.20-May-2020 5012.01 2902.41 68.09 10.00 318.89 2656.39
   06:46:35.011.20-May-2020 5012.01 2902.45 68.09 10.00 319.09 2656.39
   06:46:35.211.20-May-2020 5012.01 2902.45 68.09 10.00 319.29 2656.39
   06:46:35.411.20-May-2020 5012.01 2902.32 68.09 10.00 319.49 2656.39
   06:46:35.611.20-May-2020 5012.01 2902.45 68.09 10.00 319.69 2656.39
   06:46:35.811.20-May-2020 5012.01 2902.40 68.09 10.00 319.89 2656.39
   06:46:36.011.20-May-2020 5012.01 2902.55 68.09 10.00 320.09 2656.39
   06:46:36.211.20-May-2020 5012.01 2902.55 68.09 10.00 320.29 2656.39
   06:46:36.411.20-May-2020 5012.01 2902.38 68.09 10.00 320.49 2656.39
   06:46:36.611.20-May-2020 5012.01 2902.44 68.09 10.00 320.69 2656.39
   06:46:36.812.20-May-2020 5012.01 2902.49 68.09 10.00 320.89 2656.39
   06:46:37.012.20-May-2020 5012.01 2902.42 68.09 10.00 321.09 2656.39
   06:46:37.212.20-May-2020 5012.01 2902.42 68.09 10.00 321.29 2656.39
   06:46:37.412.20-May-2020 5012.01 2902.43 68.09 10.00 321.49 2656.39
   06:46:37.612.20-May-2020 5012.01 2902.40 68.09 10.00 321.69 2656.39
   06:46:37.812.20-May-2020 5012.01 2902.46 68.09 10.00 321.89 2656.39
   06:46:38.012.20-May-2020 5012.01 2902.43 68.09 10.00 322.09 2656.39
   06:46:38.212.20-May-2020 5012.01 2902.43 68.09 10.00 322.29 2656.39
   06:46:38.412.20-May-2020 5012.01 2902.48 68.09 10.00 322.49 2656.39
   06:46:38.612.20-May-2020 5012.01 2902.33 68.09 10.00 322.69 2656.39
   06:46:38.812.20-May-2020 5012.01 2902.47 68.09 10.00 322.89 2656.39
   06:46:39.012.20-May-2020 5012.01 2902.41 68.09 10.00 323.09 2656.39
   06:46:39.212.20-May-2020 5012.01 2902.41 68.09 10.00 323.29 2656.39
   06:46:39.412.20-May-2020 5012.01 2902.47 68.09 10.00 323.49 2656.39
   06:46:39.612.20-May-2020 5012.01 2902.39 68.09 10.00 323.69 2656.39
   06:46:39.812.20-May-2020 5012.01 2902.43 68.09 10.00 323.89 2656.39
   06:46:40.012.20-May-2020 5012.01 2902.43 68.09 10.00 324.09 2656.39
   06:46:40.212.20-May-2020 5012.01 2902.43 68.09 10.00 324.29 2656.39
   06:46:40.413.20-May-2020 5012.01 2902.42 68.09 10.00 324.49 2656.39
   06:46:40.613.20-May-2020 5012.01 2902.42 68.09 10.00 324.69 2656.39
   06:46:40.813.20-May-2020 5012.01 2902.43 68.09 10.00 324.89 2656.39
   06:46:41.013.20-May-2020 5012.01 2902.42 68.09 10.00 325.09 2656.39
   06:46:41.213.20-May-2020 5012.01 2902.42 68.09 10.00 325.29 2656.39
   06:46:41.413.20-May-2020 5012.01 2902.34 68.09 10.00 325.49 2656.39
   06:46:41.613.20-May-2020 5012.01 2902.53 68.09 10.00 325.69 2656.39
   06:46:41.813.20-May-2020 5012.01 2902.42 68.09 10.00 325.89 2656.39
   06:46:42.013.20-May-2020 5012.01 2902.42 68.09 10.00 326.09 2656.39
   06:46:42.213.20-May-2020 5012.01 2902.49 68.09 10.00 326.29 2656.39
   06:46:42.413.20-May-2020 5012.01 2902.36 68.09 10.00 326.49 2656.39
   06:46:42.613.20-May-2020 5012.01 2902.42 68.09 10.00 326.69 2656.39
   06:46:42.813.20-May-2020 5012.01 2902.46 68.09 10.00 326.89 2656.39
   06:46:43.013.20-May-2020 5012.01 2902.49 68.09 10.00 327.09 2656.39
   06:46:43.213.20-May-2020 5012.01 2902.49 68.09 10.00 327.29 2656.39
   06:46:43.413.20-May-2020 5012.01 2902.45 68.09 10.00 327.49 2656.39
   06:46:43.613.20-May-2020 5012.01 2902.41 68.09 10.00 327.69 2656.39
   06:46:43.813.20-May-2020 5012.01 2902.50 68.09 10.00 327.89 2656.39
   06:46:44.014.20-May-2020 5012.01 2902.42 68.09 10.00 328.09 2656.39
   06:46:44.214.20-May-2020 5012.01 2902.42 68.09 10.00 328.29 2656.39
   06:46:44.414.20-May-2020 5012.01 2902.55 68.09 10.00 328.49 2656.39
   06:46:44.614.20-May-2020 5012.01 2902.43 68.09 10.00 328.69 2656.39
   06:46:44.814.20-May-2020 5012.01 2902.43 68.09 10.00 328.89 2656.39
   06:46:45.014.20-May-2020 5012.01 2902.48 68.09 10.00 329.09 2656.39
   06:46:45.214.20-May-2020 5012.01 2902.48 68.09 10.00 329.29 2656.39
   06:46:45.414.20-May-2020 5012.01 2902.45 68.09 10.00 329.49 2656.39
   06:46:45.614.20-May-2020 5012.01 2902.39 68.09 10.00 329.69 2656.39
   06:46:45.814.20-May-2020 5012.01 2902.43 68.09 10.00 329.89 2656.39
   06:46:46.014.20-May-2020 5012.01 2902.46 68.09 10.00 330.09 2656.39
   06:46:46.214.20-May-2020 5012.01 2902.43 68.09 10.00 330.29 2656.39
   06:46:46.414.20-May-2020 5012.01 2902.41 68.09 10.00 330.49 2656.39
   06:46:46.614.20-May-2020 5012.01 2902.43 68.09 10.00 330.69 2656.39
   06:46:46.814.20-May-2020 5012.01 2902.42 68.09 10.00 330.89 2656.39
   06:46:47.014.20-May-2020 5012.01 2902.42 68.09 10.00 331.09 2656.39
   06:46:47.214.20-May-2020 5012.01 2902.42 68.09 10.00 331.29 2656.39
   06:46:47.415.20-May-2020 5012.01 2902.42 68.09 10.00 331.49 2656.39
   06:46:47.615.20-May-2020 5012.01 2902.42 68.09 10.00 331.69 2656.39
   06:46:47.815.20-May-2020 5012.01 2902.43 68.09 10.00 331.89 2656.39
   06:46:48.015.20-May-2020 5012.01 2902.42 68.09 10.00 332.09 2656.39
   06:46:48.215.20-May-2020 5012.01 2902.42 68.09 10.00 332.29 2656.39
   06:46:48.415.20-May-2020 5012.01 2902.42 68.09 10.00 332.49 2656.39
   06:46:48.615.20-May-2020 5012.01 2902.44 68.09 10.00 332.69 2656.39
   06:46:48.815.20-May-2020 5012.01 2902.45 68.09 10.00 332.89 2656.39
   06:46:49.015.20-May-2020 5012.01 2902.41 68.09 10.00 333.09 2656.39
   06:46:49.215.20-May-2020 5012.01 2902.41 68.09 10.00 333.29 2656.39
   06:46:49.415.20-May-2020 5012.01 2902.52 68.09 10.00 333.49 2656.39
   06:46:49.615.20-May-2020 5012.01 2902.42 68.09 10.00 333.69 2656.39
   06:46:49.815.20-May-2020 5012.01 2902.41 68.09 10.00 333.89 2656.39
   06:46:50.015.20-May-2020 5012.01 2902.52 68.09 10.00 334.09 2656.39
   06:46:50.215.20-May-2020 5012.01 2902.33 68.09 10.00 334.29 2656.39
   06:46:50.415.20-May-2020 5012.01 2902.44 68.09 10.00 334.49 2656.39
   06:46:50.615.20-May-2020 5012.01 2902.46 68.09 10.00 334.69 2656.39
   06:46:50.815.20-May-2020 5012.01 2902.46 68.09 10.00 334.89 2656.39
   06:46:51.016.20-May-2020 5012.01 2902.40 68.09 10.00 335.09 2656.39
   06:46:51.216.20-May-2020 5012.01 2902.40 68.09 10.00 335.29 2656.39
   06:46:51.416.20-May-2020 5012.01 2902.45 68.09 10.00 335.49 2656.39
   06:46:51.616.20-May-2020 5012.01 2902.48 68.09 10.00 335.69 2656.39
   06:46:51.816.20-May-2020 5012.01 2902.40 68.09 10.00 335.89 2656.39
   06:46:52.016.20-May-2020 5012.01 2902.41 68.09 10.00 336.10 2656.39
   06:46:52.216.20-May-2020 5012.01 2902.41 68.09 10.00 336.30 2656.39
   06:46:52.416.20-May-2020 5012.01 2902.35 68.09 10.00 336.50 2656.39
   06:46:52.616.20-May-2020 5012.01 2902.50 68.09 10.00 336.70 2656.39
   06:46:52.816.20-May-2020 5012.01 2902.45 68.09 10.00 336.90 2656.39
   06:46:53.016.20-May-2020 5012.01 2902.42 68.09 10.00 337.10 2656.39
   06:46:53.216.20-May-2020 5012.01 2902.42 68.09 10.00 337.30 2656.39
   06:46:53.416.20-May-2020 5012.01 2902.37 68.09 10.00 337.50 2656.39
   06:46:53.616.20-May-2020 5012.01 2902.43 68.09 10.00 337.70 2656.39
   06:46:53.816.20-May-2020 5012.01 2902.42 68.09 10.00 337.90 2656.39
   06:46:54.016.20-May-2020 5012.01 2902.41 68.09 10.00 338.10 2656.39
   06:46:54.216.20-May-2020 5012.01 2902.41 68.09 10.00 338.30 2656.39
   06:46:54.416.20-May-2020 5012.01 2902.42 68.09 10.00 338.50 2656.39
   06:46:54.617.20-May-2020 5012.01 2902.41 68.09 10.00 338.70 2656.39
   06:46:54.817.20-May-2020 5012.01 2902.43 68.09 10.00 338.90 2656.39
