~Version Information
 VERS.                  2.0:   CWLS log ASCII Standard -VERSION 2.0
 WRAP.                   NO:   One line per depth step
~Well Information Block
#MNEM.UNIT     VALUE/NAME     DESCRIPTION
#---------     -----------    ---------------------------
 STRT.S             03:43:00 20-May-20: START TIME 03:43:00 20-May-20
 STOP.S             03:53:08 20-May-20: STOP TIME  03:53:08 20-May-20
 STEP.S                   0.00: STEP TIME
 NULL.                 -999.25: NULL VALUE
 MDS .        Operator Entered:  MAG DATA SOURCE
 PDAT.          Mean Sea Level:  PERMANENT DATUM
 UNIT.                     N/A:  LOGGING EQUIPMENT ID
 DCON.         Sperry Drilling:  DIRECTNL CONTR
 DOE .                     N/A:  DOE NUMBER
 RIG .              East Azeri:  RIG NAME
 JOBN.        AZ-XX-0905856059:  JOB TICKET NUMB
 WELL.                     D36:  WELL NAME
 MWDS.                    Baku:  MWD SHOP
 SRVC.     Turan Drilling & Engineering:  CONTRACTOR
 FLD .                     ACG:  FIELD NAME
 CTRY.              Azerbaijan:  COUNTRY NAME
 PROV.                    Baku:  PROVINCE
 STAT.                    Baku:  STATE NAME
 REGN.                   EESSA:  REGION
 BASE.              Azerbaijan:  LOGGING EQUIPMENT BASE LOCATION
 UWI .                     N/A:  UNIQUE WELL IDENTIFIER
 API .                     N/A:  API NUMBER
 COMP.     BP Exploration (Caspian Sea) Ltd.:  COMPANY
 WTYP.                Deviated:  WELL TYPE
 SON .        AZ-XX-0905856059:  JOB NUMBER
 FTOP.          Formation Tops:  FORM TOPS DESC
 ILTD.               Lithology:  INTERP LTH DESC
 SVYD.                  Survey:  SURVEY DESC
 DMOD.             Drill Model:  DRILL MOD DESC
 HPTY.       Minimum Curvature:  HOLE POS TYPE
 NREF.                    Grid:  NORTH REFERENCE
 SPUD.               25-Feb-20:  SPUD DATE
 DATE.      08.55.28 01-May-20:  END TIME
 STIM.      08.55.28 25-Feb-20:  START TIME
 DMF .             Drill Floor:  DRILL MEAS FROM
 DFST.                        :  DIST FSL TEXT
 DFWT.                        :  DIST FWL TEXT
 CNTY.                        :  COUNTY
 LOC .                        :  LOCATION
 LMF .             Drill Floor:  LOG MEASURED FROM
 VSNS.m                   6.09:  VERT SEC N/S
 VSEW.m                 -10.79:  VERT SEC E/W
 AGAP.m                  43.60:  AIR GAP
 DEP .m                 388.24:  DEPTH
 APD .m                  43.60:  DEPTH ABOVE PD
 WDMS.m                 151.80:  WD ELEV
 EGL .m                   0.00:  GROUND ELEVATION
 EPD .m                   0.00:  ELEVATION
 AZTC.deg                 6.12:  AZM TOTAL CORR
 GRDC.deg                 0.30:  GRID CORRECTION
 MDEC.deg                 6.42:  MAGNETIC DECL
 MDIP.deg                59.42:  MAGNETIC DIP
 MFLD.nT              50256.00:  MAGNETIC FIELD
 GVFD.g                   1.00:  GRAVITY FIELD
 VSDR.deg               159.57:  VERT SEC DIRECT
 TDD .m                5000.01:  TOTAL DEPTH (DRILLER)
 SDEP.m                 397.00:  START DEPTH
 DFSL.m                   0.00:  DISTANCE FSL
 DFWL.m                   0.00:  DISTANCE FWL
 UTMY.m             4431880.20:  UTM Y
 UTMX.m              538763.98:  UTM X
 WHEW.m                 -10.79:  WELL HEAD E/W
 WHNS.m                   6.09:  WELL HEAD N/S
 LONG.deg                51.45:  LONGITUDE
 LATI.deg                40.02:  LATITUDE
 TVDS.m                  43.60:  TVDSS CORRECTN
 EKB .m                  43.60:  KB ELEVATION
 EDF .m                  43.60:  DF ELEVATION
 MAGU.                 1847640:  MAGUTM CHECKSUM
 VSC .                       0:  VS TO CLOSURE
~Parameter Information Block
#MNEM.UNIT       Value        Description
#---------     -----------    ---------------------------
 AV  .mps                 1.30:  Ann Velocity 
 AVMX.mps                 1.90:  Max Ann Veloc 
 AZIF.deg               115.68:  Azm, Final 
 BHAT.                   Other:  BHA Type 
 BROT.°/30m               0.74:  Build Rotating 
 BS  .in                  8.50:  Bit Size 
 BTPL.psig              430.00:  Bit Press Loss 
 CABU.                      No:  Customer Abuse 
 COMM.                     ÌÍk:  Run Comments 1 
 TCS .hr                 51.31:  Time Ciculation Ended 
 CV  .mps                 2.52:  Crit Velocity 
 CVMX.mps                 2.62:  Max Crit Veloc 
 DD1 .          Teymur Aghayev:  Direct Drillr 1 
 DDSV.                   Other:  DD Service 
 DEFF.%                 100.00:  % Det Eff 
 DLRX.°/30m               1.62:  Dogleg Rot Max 
 DLSO.°/30m               0.74:  Dogleg Oriented 
 DLSX.°/30m               1.62:  Dogleg Str Max 
 DRET.      04.30.56 18-May-20:  Drill End Time 
 DRST.      04.30.56 18-May-20:  Drill Start Tim 
 DTIM.hr                  0.00:  Time Drilling 
 EDEP.m                5337.01:  End Depth 
 ENG1.      Artemiy Matviyanov:  Engineer 1 
 ENG2.      Bakhtiyar Jabbarli:  Engineer 2 
 ENG3.           Emil Huseynov:  Engineer 3 
 ETIM.      18.40.00 22-May-20:  End Time 
 FLOI.gpm               550.00:  Flow In 
 FLON.gpm               350.00:  Flow In Min 
 FLOS.cptm                0.00:  Fluid Loss 
 FLOX.gpm               600.00:  Flow In Max 
 HFLO.                      No:  High Flow 
 HPRE.                      No:  High Pressure 
 HTEM.                      No:  High Temp 
 HYDO.m                   1.80:  Hydro Offset 
 IFIN.deg                67.01:  Inc, Final 
 IMAX.deg                67.49:  Inc Max 
 IMIN.deg                66.50:  Inc Min 
 IMND.m                5144.79:  Inc Min Depth 
 IMXD.m                5116.12:  Inc Max Depth 
 JARR.                      No:  Jarring 
 LETM.      17.55.56 20-May-20:  Log End Time 
 LOST.hr                     0:  Lost Rig Time 
 LSTM.      04.30.56 18-May-20:  Log Start Time 
 MDCL.ppm            193153.00:  Mud Chlorides 
 MDES.     Inversion Oil/Synthetic:  Mud Desc 
 DFD .sg                  1.40:  Mud Density 
 MDMN.sg                  1.40:  Dens Mud Min 
 MDMX.sg                  1.41:  Dens Mud Max 
 MOIL.                      68:  Run Mud Oil % 
 MOWR.                   68:32:  Run Mud OWR 
 MSND.                     0.2:  Run Mud Sand % 
 MSOL.                    18.8:  Run Mud Solids% 
 DFV .spqt               80.00:  Mud Viscosity 
 MWOD.in                  6.75:  MWD Tool OD 
 MWSI.                      No:  Serv Intrp, MWD 
 OTIM.hr                104.84:  Time Operating 
 PMAX.psia            10690.93:  Press Op, Max 
 PV  .cP                 26.00:  Mud PV 
 RUN .                     900:  Run Number 
 ROPA.m/hr                0.00:  ROP Avg 
 ROPN.m/hr                0.00:  ROP Min 
 ROPX.m/hr                0.00:  ROP Max 
 RPMA.rpm               140.00:  RPM Surface Avg 
 RPMN.rpm                70.00:  RPM Surface Min 
 RPMX.rpm               140.00:  RPM Surface Max 
 RRUN.                    0900:  Rig Run Number 
 RTIM.hr                 36.00:  Time Reaming 
 SAZI.deg               115.72:  Azm, Start 
 SDEP.m                5337.01:  Start Depth 
 SIDD.                      No:  Serv Intrp, DD 
 SINC.deg                66.92:  Inc, Start 
 SPPA.psig             4400.00:  SPP Avg 
 SPPN.psig             1135.00:  SPP Min 
 SPPX.psig             4581.00:  SPP Max 
 STIM.      04.30.56 18-May-20:  Start Time 
 SVCS.                     MWD:  Services 
 SVER.                    9.20:  Sperry Version 
 TDAT.m                5337.01:  Tot Depth Attmp 
 TDDF.                      No:  Trip for DD 
 TFF .                      No:  Trip for Fail 
 TQAA.f-kp               23.00:  Torque Abs Avg 
 TQAN.f-kp               18.00:  Torque Abs Min 
 TQAX.f-kp               25.00:  Torque Abs Max 
 TRRT.°/30m               0.74:  Turn Rotating 
 MRT .                    HCIM:  Maximum Recorded Temperature 
 TTMX.degC               76.47:  Max Tool Temp 
 WBMN.klb                 0.00:  WOB Min 
 WITN.             Anar Khalil:  Customer Rep 
 WITN.      Kamran Keberlinski:  Customer Rep 2 
 WOBA.klb                 0.00:  WOB Avg 
 WOBX.klb                 0.00:  WOB Max 
 YP  .lhf2               27.00:  Yield Point 
~Curve Information Block
#MNEM.UNIT                 API CODE     Curve Description
#---------               -----------    ---------------------------
 TIME.HHMMSS            00 000 000 000:  GT Time & Date
 GTDEPTH.m              00 000 000 000:  GT Depth
 GTPQH.psia             00 000 000 000:  GT HR Quartz Pressure
 GTTQ.degC              00 000 000 000:  GT Quartz Temperature
 GTTN.NONE              00 000 000 000:  GT Test Number
 GTET.sec               00 000 000 000:  GT Elapsed Test Time
 GTTVD.m                00 000 000 000:  GT True Vertical Depth
#Other Information
#
#WARRANTY: Halliburton will use its best efforts to furnish customers with 
#accurate information and interpretations that are part of, and incident to, the services 
#provided.  However, Halliburton cannot and does not warrant the accuracy 
#or correctness of such information and interpretations.  Under no circumstances should any 
#such information or interpretation be relied upon as the sole basis for any drilling, 
#completion, production, or financial decision or any procedure involving any risk to the 
#safety of any drilling venture, drilling rig or its crew or any other third party.  The 
#Customer has full responsibility for all drilling, completion and production operation.  
#Halliburton makes no representations or warranties, either expressed or 
#implied, including, but not limited to, the implied warranties of merchantability or fitness 
#for a particular purpose, with respect to the services rendered.  In no event will 
#Halliburton be liable for failure to obtain any particular results or for 
#any damages, including, but not limited to, indirect, special or consequential damages, 
#resulting from the use of any information or interpretation provided by Halliburton.
#
~A           TIME           GTDEPTH  GTPQH  GTTQ  GTTN  GTET   GTTVD  
# ...
   03:44:55.929.20-May-2020 5064.01  489.42 68.96 8.00 115.03 2676.56
   03:44:56.129.20-May-2020 5064.01  489.42 68.96 8.00 115.23 2676.56
   03:44:56.329.20-May-2020 5064.01  490.62 68.96 8.00 115.43 2676.56
   03:44:56.529.20-May-2020 5064.01  491.08 68.96 8.00 115.63 2676.56
   03:44:56.729.20-May-2020 5064.01  491.65 68.96 8.00 115.83 2676.56
   03:44:56.929.20-May-2020 5064.01  492.34 68.96 8.00 116.03 2676.56
   03:44:57.129.20-May-2020 5064.01  492.57 68.96 8.00 116.23 2676.56
   03:44:57.329.20-May-2020 5064.01  493.22 68.96 8.00 116.43 2676.56
   03:44:57.529.20-May-2020 5064.01  493.83 68.96 8.00 116.63 2676.56
   03:44:57.729.20-May-2020 5064.01  494.52 68.96 8.00 116.83 2676.56
   03:44:57.929.20-May-2020 5064.01  495.12 68.96 8.00 117.03 2676.56
   03:44:58.129.20-May-2020 5064.01  495.73 68.96 8.00 117.23 2676.56
   03:44:58.329.20-May-2020 5064.01  496.12 68.96 8.00 117.43 2676.56
   03:44:58.529.20-May-2020 5064.01  496.77 68.96 8.00 117.63 2676.56
   03:44:58.729.20-May-2020 5064.01  497.37 68.96 8.00 117.83 2676.56
   03:44:58.929.20-May-2020 5064.01  497.98 68.96 8.00 118.03 2676.56
   03:44:59.129.20-May-2020 5064.01  497.98 68.96 8.00 118.23 2676.56
   03:44:59.330.20-May-2020 5064.01  499.21 68.96 8.00 118.43 2676.56
   03:44:59.530.20-May-2020 5064.01  499.78 68.96 8.00 118.63 2676.56
   03:44:59.730.20-May-2020 5064.01  500.45 68.96 8.00 118.83 2676.56
   03:44:59.930.20-May-2020 5064.01  501.10 68.96 8.00 119.03 2676.56
   03:45:00.130.20-May-2020 5064.01  501.10 68.96 8.00 119.23 2676.56
   03:45:00.330.20-May-2020 5064.01  502.33 68.96 8.00 119.43 2676.56
   03:45:00.530.20-May-2020 5064.01  502.95 68.96 8.00 119.63 2676.56
   03:45:00.730.20-May-2020 5064.01  503.61 68.96 8.00 119.83 2676.56
   03:45:00.930.20-May-2020 5064.01  504.23 68.96 8.00 120.03 2676.56
   03:45:01.130.20-May-2020 5064.01  504.23 68.96 8.00 120.23 2676.56
   03:45:01.330.20-May-2020 5064.01  505.09 68.96 8.00 120.43 2676.56
   03:45:01.530.20-May-2020 5064.01  505.99 68.96 8.00 120.63 2676.56
   03:45:01.730.20-May-2020 5064.01  506.49 68.96 8.00 120.83 2676.56
   03:45:01.930.20-May-2020 5064.01  507.12 68.96 8.00 121.03 2676.56
   03:45:02.130.20-May-2020 5064.01  507.12 68.96 8.00 121.23 2676.56
   03:45:02.330.20-May-2020 5064.01  508.06 68.96 8.00 121.43 2676.56
   03:45:02.530.20-May-2020 5064.01  508.49 68.96 8.00 121.63 2676.56
   03:45:02.730.20-May-2020 5064.01  509.07 68.96 8.00 121.83 2676.56
   03:45:02.931.20-May-2020 5064.01  509.71 68.96 8.00 122.03 2676.56
   03:45:03.131.20-May-2020 5064.01  509.71 68.96 8.00 122.23 2676.56
   03:45:03.331.20-May-2020 5064.01  510.40 68.96 8.00 122.43 2676.56
   03:45:03.531.20-May-2020 5064.01  511.36 68.96 8.00 122.63 2676.56
   03:45:03.731.20-May-2020 5064.01  511.88 68.96 8.00 122.83 2676.56
   03:45:03.931.20-May-2020 5064.01  512.42 68.96 8.00 123.03 2676.56
   03:45:04.131.20-May-2020 5064.01  512.42 68.96 8.00 123.23 2676.56
   03:45:04.331.20-May-2020 5064.01  513.39 68.96 8.00 123.43 2676.56
   03:45:04.531.20-May-2020 5064.01  514.00 68.96 8.00 123.63 2676.56
   03:45:04.731.20-May-2020 5064.01  514.63 68.96 8.00 123.84 2676.56
   03:45:04.931.20-May-2020 5064.01  515.22 68.96 8.00 124.04 2676.56
   03:45:05.131.20-May-2020 5064.01  515.42 68.96 8.00 124.24 2676.56
   03:45:05.331.20-May-2020 5064.01  516.30 68.96 8.00 124.44 2676.56
   03:45:05.531.20-May-2020 5064.01  516.80 68.96 8.00 124.64 2676.56
   03:45:05.731.20-May-2020 5064.01  517.49 68.96 8.00 124.84 2676.56
   03:45:05.931.20-May-2020 5064.01  518.00 68.96 8.00 125.04 2676.56
   03:45:06.131.20-May-2020 5064.01  518.00 68.96 8.00 125.24 2676.56
   03:45:06.331.20-May-2020 5064.01  519.23 68.96 8.00 125.44 2676.56
   03:45:06.532.20-May-2020 5064.01  519.84 68.96 8.00 125.64 2676.56
   03:45:06.732.20-May-2020 5064.01  520.46 68.96 8.00 125.84 2676.56
   03:45:06.932.20-May-2020 5064.01  521.05 68.96 8.00 126.04 2676.56
   03:45:07.132.20-May-2020 5064.01  521.66 68.96 8.00 126.24 2676.56
   03:45:07.332.20-May-2020 5064.01  522.29 68.96 8.00 126.44 2676.56
   03:45:07.532.20-May-2020 5064.01  522.80 68.96 8.00 126.64 2676.56
   03:45:07.732.20-May-2020 5064.01  523.45 68.96 8.00 126.84 2676.56
   03:45:07.932.20-May-2020 5064.01  524.08 68.96 8.00 127.04 2676.56
   03:45:08.132.20-May-2020 5064.01  524.08 68.96 8.00 127.24 2676.56
   03:45:08.332.20-May-2020 5064.01  525.18 68.96 8.00 127.44 2676.56
   03:45:08.532.20-May-2020 5064.01  525.62 68.96 8.00 127.64 2676.56
   03:45:08.732.20-May-2020 5064.01  526.15 68.96 8.00 127.84 2676.56
   03:45:08.932.20-May-2020 5064.01  526.36 68.96 8.00 128.04 2676.56
   03:45:09.132.20-May-2020 5064.01  526.36 68.96 8.00 128.24 2676.56
   03:45:09.332.20-May-2020 5064.01  527.61 68.97 8.00 128.44 2676.56
   03:45:09.532.20-May-2020 5064.01  528.12 68.97 8.00 128.64 2676.56
   03:45:09.732.20-May-2020 5064.01  528.77 68.97 8.00 128.84 2676.56
   03:45:09.933.20-May-2020 5064.01  529.30 68.97 8.00 129.04 2676.56
   03:45:10.133.20-May-2020 5064.01  529.45 68.97 8.00 129.24 2676.56
   03:45:10.333.20-May-2020 5064.01  530.44 68.97 8.00 129.44 2676.56
   03:45:10.533.20-May-2020 5064.01  530.87 68.97 8.00 129.64 2676.56
   03:45:10.733.20-May-2020 5064.01  531.48 68.97 8.00 129.84 2676.56
   03:45:10.933.20-May-2020 5064.01  532.09 68.97 8.00 130.04 2676.56
   03:45:11.133.20-May-2020 5064.01  532.09 68.97 8.00 130.24 2676.56
   03:45:11.333.20-May-2020 5064.01  532.88 68.97 8.00 130.44 2676.56
   03:45:11.533.20-May-2020 5064.01  533.62 68.97 8.00 130.64 2676.56
   03:45:11.733.20-May-2020 5064.01  534.18 68.97 8.00 130.84 2676.56
   03:45:11.933.20-May-2020 5064.01  534.78 68.97 8.00 131.04 2676.56
   03:45:12.133.20-May-2020 5064.01  535.37 68.97 8.00 131.24 2676.56
   03:45:12.333.20-May-2020 5064.01  535.89 68.97 8.00 131.44 2676.56
   03:45:12.533.20-May-2020 5064.01  536.03 68.97 8.00 131.64 2676.56
   03:45:12.733.20-May-2020 5064.01  536.96 68.97 8.00 131.84 2676.56
   03:45:12.933.20-May-2020 5064.01  537.40 68.97 8.00 132.04 2676.56
   03:45:13.133.20-May-2020 5064.01  538.00 68.97 8.00 132.24 2676.56
   03:45:13.333.20-May-2020 5064.01  538.56 68.97 8.00 132.44 2676.56
   03:45:13.534.20-May-2020 5064.01  539.10 68.97 8.00 132.64 2676.56
   03:45:13.734.20-May-2020 5064.01  539.66 68.97 8.00 132.84 2676.56
   03:45:13.934.20-May-2020 5064.01  540.32 68.97 8.00 133.04 2676.56
   03:45:14.134.20-May-2020 5064.01  540.93 68.97 8.00 133.24 2676.56
   03:45:14.334.20-May-2020 5064.01  541.49 68.97 8.00 133.44 2676.56
   03:45:14.534.20-May-2020 5064.01  542.07 68.97 8.00 133.64 2676.56
   03:45:14.734.20-May-2020 5064.01  542.70 68.97 8.00 133.84 2676.56
   03:45:14.934.20-May-2020 5064.01  543.22 68.97 8.00 134.04 2676.56
   03:45:15.134.20-May-2020 5064.01  543.79 68.97 8.00 134.24 2676.56
   03:45:15.334.20-May-2020 5064.01  544.39 68.97 8.00 134.44 2676.56
   03:45:15.534.20-May-2020 5064.01  544.55 68.97 8.00 134.64 2676.56
   03:45:15.734.20-May-2020 5064.01  545.45 68.97 8.00 134.84 2676.56
   03:45:15.934.20-May-2020 5064.01  545.87 68.97 8.00 135.04 2676.56
   03:45:16.134.20-May-2020 5064.01  545.87 68.97 8.00 135.24 2676.56
   03:45:16.334.20-May-2020 5064.01  546.51 68.97 8.00 135.44 2676.56
   03:45:16.534.20-May-2020 5064.01  547.19 68.97 8.00 135.64 2676.56
   03:45:16.734.20-May-2020 5064.01  547.76 68.97 8.00 135.84 2676.56
   03:45:16.934.20-May-2020 5064.01  548.32 68.97 8.00 136.04 2676.56
   03:45:17.135.20-May-2020 5064.01  548.47 68.97 8.00 136.24 2676.56
   03:45:17.335.20-May-2020 5064.01  549.26 68.97 8.00 136.44 2676.56
   03:45:17.535.20-May-2020 5064.01  549.79 68.97 8.00 136.64 2676.56
   03:45:17.735.20-May-2020 5064.01  550.36 68.97 8.00 136.84 2676.56
   03:45:17.935.20-May-2020 5064.01  550.51 68.97 8.00 137.04 2676.56
   03:45:18.135.20-May-2020 5064.01  551.24 68.97 8.00 137.24 2676.56
   03:45:18.335.20-May-2020 5064.01  551.85 68.97 8.00 137.44 2676.56
   03:45:18.535.20-May-2020 5064.01  552.36 68.97 8.00 137.64 2676.56
   03:45:18.735.20-May-2020 5064.01  552.58 68.97 8.00 137.84 2676.56
