~Version Information
 VERS.                  2.0:   CWLS log ASCII Standard -VERSION 2.0
 WRAP.                   NO:   One line per depth step
~Well Information Block
#MNEM.UNIT     VALUE/NAME     DESCRIPTION
#---------     -----------    ---------------------------
 STRT.S             06:41:15 20-May-20: START TIME 06:41:15 20-May-20
 STOP.S             06:51:49 20-May-20: STOP TIME  06:51:49 20-May-20
 STEP.S                   0.00: STEP TIME
 NULL.                 -999.25: NULL VALUE
 MDS .        Operator Entered:  MAG DATA SOURCE
 PDAT.          Mean Sea Level:  PERMANENT DATUM
 UNIT.                     N/A:  LOGGING EQUIPMENT ID
 DCON.         Sperry Drilling:  DIRECTNL CONTR
 DOE .                     N/A:  DOE NUMBER
 RIG .              East Azeri:  RIG NAME
 JOBN.        AZ-XX-0905856059:  JOB TICKET NUMB
 WELL.                     D36:  WELL NAME
 MWDS.                    Baku:  MWD SHOP
 SRVC.     Turan Drilling & Engineering:  CONTRACTOR
 FLD .                     ACG:  FIELD NAME
 CTRY.              Azerbaijan:  COUNTRY NAME
 PROV.                    Baku:  PROVINCE
 STAT.                    Baku:  STATE NAME
 REGN.                   EESSA:  REGION
 BASE.              Azerbaijan:  LOGGING EQUIPMENT BASE LOCATION
 UWI .                     N/A:  UNIQUE WELL IDENTIFIER
 API .                     N/A:  API NUMBER
 COMP.     BP Exploration (Caspian Sea) Ltd.:  COMPANY
 WTYP.                Deviated:  WELL TYPE
 SON .        AZ-XX-0905856059:  JOB NUMBER
 FTOP.          Formation Tops:  FORM TOPS DESC
 ILTD.               Lithology:  INTERP LTH DESC
 SVYD.                  Survey:  SURVEY DESC
 DMOD.             Drill Model:  DRILL MOD DESC
 HPTY.       Minimum Curvature:  HOLE POS TYPE
 NREF.                    Grid:  NORTH REFERENCE
 SPUD.               25-Feb-20:  SPUD DATE
 DATE.      08.55.28 01-May-20:  END TIME
 STIM.      08.55.28 25-Feb-20:  START TIME
 DMF .             Drill Floor:  DRILL MEAS FROM
 DFST.                        :  DIST FSL TEXT
 DFWT.                        :  DIST FWL TEXT
 CNTY.                        :  COUNTY
 LOC .                        :  LOCATION
 LMF .             Drill Floor:  LOG MEASURED FROM
 VSNS.m                   6.09:  VERT SEC N/S
 VSEW.m                 -10.79:  VERT SEC E/W
 AGAP.m                  43.60:  AIR GAP
 DEP .m                 388.24:  DEPTH
 APD .m                  43.60:  DEPTH ABOVE PD
 WDMS.m                 151.80:  WD ELEV
 EGL .m                   0.00:  GROUND ELEVATION
 EPD .m                   0.00:  ELEVATION
 AZTC.deg                 6.12:  AZM TOTAL CORR
 GRDC.deg                 0.30:  GRID CORRECTION
 MDEC.deg                 6.42:  MAGNETIC DECL
 MDIP.deg                59.42:  MAGNETIC DIP
 MFLD.nT              50256.00:  MAGNETIC FIELD
 GVFD.g                   1.00:  GRAVITY FIELD
 VSDR.deg               159.57:  VERT SEC DIRECT
 TDD .m                5000.01:  TOTAL DEPTH (DRILLER)
 SDEP.m                 397.00:  START DEPTH
 DFSL.m                   0.00:  DISTANCE FSL
 DFWL.m                   0.00:  DISTANCE FWL
 UTMY.m             4431880.20:  UTM Y
 UTMX.m              538763.98:  UTM X
 WHEW.m                 -10.79:  WELL HEAD E/W
 WHNS.m                   6.09:  WELL HEAD N/S
 LONG.deg                51.45:  LONGITUDE
 LATI.deg                40.02:  LATITUDE
 TVDS.m                  43.60:  TVDSS CORRECTN
 EKB .m                  43.60:  KB ELEVATION
 EDF .m                  43.60:  DF ELEVATION
 MAGU.                 1847640:  MAGUTM CHECKSUM
 VSC .                       0:  VS TO CLOSURE
~Parameter Information Block
#MNEM.UNIT       Value        Description
#---------     -----------    ---------------------------
 AV  .mps                 1.30:  Ann Velocity 
 AVMX.mps                 1.90:  Max Ann Veloc 
 AZIF.deg               115.68:  Azm, Final 
 BHAT.                   Other:  BHA Type 
 BROT.°/30m               0.74:  Build Rotating 
 BS  .in                  8.50:  Bit Size 
 BTPL.psig              430.00:  Bit Press Loss 
 CABU.                      No:  Customer Abuse 
 COMM.                     œÿv:  Run Comments 1 
 TCS .hr                 51.31:  Time Ciculation Ended 
 CV  .mps                 2.52:  Crit Velocity 
 CVMX.mps                 2.62:  Max Crit Veloc 
 DD1 .          Teymur Aghayev:  Direct Drillr 1 
 DDSV.                   Other:  DD Service 
 DEFF.%                 100.00:  % Det Eff 
 DLRX.°/30m               1.62:  Dogleg Rot Max 
 DLSO.°/30m               0.74:  Dogleg Oriented 
 DLSX.°/30m               1.62:  Dogleg Str Max 
 DRET.      04.30.56 18-May-20:  Drill End Time 
 DRST.      04.30.56 18-May-20:  Drill Start Tim 
 DTIM.hr                  0.00:  Time Drilling 
 EDEP.m                5337.01:  End Depth 
 ENG1.      Artemiy Matviyanov:  Engineer 1 
 ENG2.      Bakhtiyar Jabbarli:  Engineer 2 
 ENG3.           Emil Huseynov:  Engineer 3 
 ETIM.      18.40.00 22-May-20:  End Time 
 FLOI.gpm               550.00:  Flow In 
 FLON.gpm               350.00:  Flow In Min 
 FLOS.cptm                0.00:  Fluid Loss 
 FLOX.gpm               600.00:  Flow In Max 
 HFLO.                      No:  High Flow 
 HPRE.                      No:  High Pressure 
 HTEM.                      No:  High Temp 
 HYDO.m                   1.80:  Hydro Offset 
 IFIN.deg                67.01:  Inc, Final 
 IMAX.deg                67.49:  Inc Max 
 IMIN.deg                66.50:  Inc Min 
 IMND.m                5144.79:  Inc Min Depth 
 IMXD.m                5116.12:  Inc Max Depth 
 JARR.                      No:  Jarring 
 LETM.      17.55.56 20-May-20:  Log End Time 
 LOST.hr                     0:  Lost Rig Time 
 LSTM.      04.30.56 18-May-20:  Log Start Time 
 MDCL.ppm            193153.00:  Mud Chlorides 
 MDES.     Inversion Oil/Synthetic:  Mud Desc 
 DFD .sg                  1.40:  Mud Density 
 MDMN.sg                  1.40:  Dens Mud Min 
 MDMX.sg                  1.41:  Dens Mud Max 
 MOIL.                      68:  Run Mud Oil % 
 MOWR.                   68:32:  Run Mud OWR 
 MSND.                     0.2:  Run Mud Sand % 
 MSOL.                    18.8:  Run Mud Solids% 
 DFV .spqt               80.00:  Mud Viscosity 
 MWOD.in                  6.75:  MWD Tool OD 
 MWSI.                      No:  Serv Intrp, MWD 
 OTIM.hr                104.84:  Time Operating 
 PMAX.psia            10690.93:  Press Op, Max 
 PV  .cP                 26.00:  Mud PV 
 RUN .                     900:  Run Number 
 ROPA.m/hr                0.00:  ROP Avg 
 ROPN.m/hr                0.00:  ROP Min 
 ROPX.m/hr                0.00:  ROP Max 
 RPMA.rpm               140.00:  RPM Surface Avg 
 RPMN.rpm                70.00:  RPM Surface Min 
 RPMX.rpm               140.00:  RPM Surface Max 
 RRUN.                    0900:  Rig Run Number 
 RTIM.hr                 36.00:  Time Reaming 
 SAZI.deg               115.72:  Azm, Start 
 SDEP.m                5337.01:  Start Depth 
 SIDD.                      No:  Serv Intrp, DD 
 SINC.deg                66.92:  Inc, Start 
 SPPA.psig             4400.00:  SPP Avg 
 SPPN.psig             1135.00:  SPP Min 
 SPPX.psig             4581.00:  SPP Max 
 STIM.      04.30.56 18-May-20:  Start Time 
 SVCS.                     MWD:  Services 
 SVER.                    9.20:  Sperry Version 
 TDAT.m                5337.01:  Tot Depth Attmp 
 TDDF.                      No:  Trip for DD 
 TFF .                      No:  Trip for Fail 
 TQAA.f-kp               23.00:  Torque Abs Avg 
 TQAN.f-kp               18.00:  Torque Abs Min 
 TQAX.f-kp               25.00:  Torque Abs Max 
 TRRT.°/30m               0.74:  Turn Rotating 
 MRT .                    HCIM:  Maximum Recorded Temperature 
 TTMX.degC               76.47:  Max Tool Temp 
 WBMN.klb                 0.00:  WOB Min 
 WITN.             Anar Khalil:  Customer Rep 
 WITN.      Kamran Keberlinski:  Customer Rep 2 
 WOBA.klb                 0.00:  WOB Avg 
 WOBX.klb                 0.00:  WOB Max 
 YP  .lhf2               27.00:  Yield Point 
~Curve Information Block
#MNEM.UNIT                 API CODE     Curve Description
#---------               -----------    ---------------------------
 TIME.HHMMSS            00 000 000 000:  GT Time & Date
 GTDEPTH.m              00 000 000 000:  GT Depth
 GTPQH.psia             00 000 000 000:  GT HR Quartz Pressure
 GTTQ.degC              00 000 000 000:  GT Quartz Temperature
 GTTN.NONE              00 000 000 000:  GT Test Number
 GTET.sec               00 000 000 000:  GT Elapsed Test Time
 GTTVD.m                00 000 000 000:  GT True Vertical Depth
#Other Information
#
#WARRANTY: Halliburton will use its best efforts to furnish customers with 
#accurate information and interpretations that are part of, and incident to, the services 
#provided.  However, Halliburton cannot and does not warrant the accuracy 
#or correctness of such information and interpretations.  Under no circumstances should any 
#such information or interpretation be relied upon as the sole basis for any drilling, 
#completion, production, or financial decision or any procedure involving any risk to the 
#safety of any drilling venture, drilling rig or its crew or any other third party.  The 
#Customer has full responsibility for all drilling, completion and production operation.  
#Halliburton makes no representations or warranties, either expressed or 
#implied, including, but not limited to, the implied warranties of merchantability or fitness 
#for a particular purpose, with respect to the services rendered.  In no event will 
#Halliburton be liable for failure to obtain any particular results or for 
#any damages, including, but not limited to, indirect, special or consequential damages, 
#resulting from the use of any information or interpretation provided by Halliburton.
#
~A           TIME           GTDEPTH  GTPQH  GTTQ  GTTN   GTET   GTTVD  
# ...
   06:46:09.804.20-May-2020 5012.01 2902.49 68.09 10.00 293.88 2656.39
   06:46:10.004.20-May-2020 5012.01 2902.38 68.09 10.00 294.08 2656.39
   06:46:10.204.20-May-2020 5012.01 2902.45 68.09 10.00 294.28 2656.39
   06:46:10.404.20-May-2020 5012.01 2902.42 68.09 10.00 294.48 2656.39
   06:46:10.604.20-May-2020 5012.01 2902.43 68.09 10.00 294.68 2656.39
   06:46:10.804.20-May-2020 5012.01 2902.46 68.09 10.00 294.88 2656.39
   06:46:11.004.20-May-2020 5012.01 2902.44 68.09 10.00 295.08 2656.39
   06:46:11.204.20-May-2020 5012.01 2902.44 68.09 10.00 295.28 2656.39
   06:46:11.404.20-May-2020 5012.01 2902.43 68.09 10.00 295.48 2656.39
   06:46:11.604.20-May-2020 5012.01 2902.43 68.09 10.00 295.68 2656.39
   06:46:11.804.20-May-2020 5012.01 2902.43 68.09 10.00 295.88 2656.39
   06:46:12.004.20-May-2020 5012.01 2902.43 68.09 10.00 296.08 2656.39
   06:46:12.205.20-May-2020 5012.01 2902.43 68.09 10.00 296.28 2656.39
   06:46:12.405.20-May-2020 5012.01 2902.44 68.09 10.00 296.48 2656.39
   06:46:12.605.20-May-2020 5012.01 2902.42 68.09 10.00 296.68 2656.39
   06:46:12.805.20-May-2020 5012.01 2902.43 68.09 10.00 296.88 2656.39
   06:46:13.005.20-May-2020 5012.01 2902.42 68.09 10.00 297.08 2656.39
   06:46:13.205.20-May-2020 5012.01 2902.42 68.09 10.00 297.28 2656.39
   06:46:13.405.20-May-2020 5012.01 2902.45 68.09 10.00 297.48 2656.39
   06:46:13.605.20-May-2020 5012.01 2902.45 68.09 10.00 297.68 2656.39
   06:46:13.805.20-May-2020 5012.01 2902.41 68.09 10.00 297.88 2656.39
   06:46:14.005.20-May-2020 5012.01 2902.35 68.09 10.00 298.08 2656.39
   06:46:14.205.20-May-2020 5012.01 2902.51 68.09 10.00 298.28 2656.39
   06:46:14.405.20-May-2020 5012.01 2902.44 68.09 10.00 298.48 2656.39
   06:46:14.605.20-May-2020 5012.01 2902.42 68.09 10.00 298.68 2656.39
   06:46:14.805.20-May-2020 5012.01 2902.54 68.09 10.00 298.88 2656.39
   06:46:15.005.20-May-2020 5012.01 2902.34 68.09 10.00 299.08 2656.39
   06:46:15.205.20-May-2020 5012.01 2902.34 68.09 10.00 299.28 2656.39
   06:46:15.405.20-May-2020 5012.01 2902.46 68.09 10.00 299.48 2656.39
   06:46:15.606.20-May-2020 5012.01 2902.46 68.09 10.00 299.68 2656.39
   06:46:15.806.20-May-2020 5012.01 2902.40 68.09 10.00 299.88 2656.39
   06:46:16.006.20-May-2020 5012.01 2902.43 68.09 10.00 300.08 2656.39
   06:46:16.206.20-May-2020 5012.01 2902.43 68.09 10.00 300.28 2656.39
   06:46:16.406.20-May-2020 5012.01 2902.49 68.09 10.00 300.48 2656.39
   06:46:16.606.20-May-2020 5012.01 2902.39 68.09 10.00 300.69 2656.39
   06:46:16.806.20-May-2020 5012.01 2902.42 68.09 10.00 300.89 2656.39
   06:46:17.006.20-May-2020 5012.01 2902.44 68.09 10.00 301.09 2656.39
   06:46:17.206.20-May-2020 5012.01 2902.44 68.09 10.00 301.29 2656.39
   06:46:17.406.20-May-2020 5012.01 2902.52 68.09 10.00 301.49 2656.39
   06:46:17.606.20-May-2020 5012.01 2902.44 68.09 10.00 301.69 2656.39
   06:46:17.806.20-May-2020 5012.01 2902.43 68.09 10.00 301.89 2656.39
   06:46:18.006.20-May-2020 5012.01 2902.49 68.09 10.00 302.09 2656.39
   06:46:18.206.20-May-2020 5012.01 2902.49 68.09 10.00 302.29 2656.39
   06:46:18.406.20-May-2020 5012.01 2902.46 68.09 10.00 302.49 2656.39
   06:46:18.606.20-May-2020 5012.01 2902.43 68.09 10.00 302.69 2656.39
   06:46:18.806.20-May-2020 5012.01 2902.43 68.09 10.00 302.89 2656.39
   06:46:19.006.20-May-2020 5012.01 2902.43 68.09 10.00 303.09 2656.39
   06:46:19.207.20-May-2020 5012.01 2902.43 68.09 10.00 303.29 2656.39
   06:46:19.407.20-May-2020 5012.01 2902.43 68.09 10.00 303.49 2656.39
   06:46:19.607.20-May-2020 5012.01 2902.42 68.09 10.00 303.69 2656.39
   06:46:19.807.20-May-2020 5012.01 2902.42 68.09 10.00 303.89 2656.39
   06:46:20.007.20-May-2020 5012.01 2902.43 68.09 10.00 304.09 2656.39
   06:46:20.207.20-May-2020 5012.01 2902.43 68.09 10.00 304.29 2656.39
   06:46:20.407.20-May-2020 5012.01 2902.51 68.09 10.00 304.49 2656.39
   06:46:20.607.20-May-2020 5012.01 2902.37 68.09 10.00 304.69 2656.39
   06:46:20.807.20-May-2020 5012.01 2902.41 68.09 10.00 304.89 2656.39
   06:46:21.007.20-May-2020 5012.01 2902.42 68.09 10.00 305.09 2656.39
   06:46:21.207.20-May-2020 5012.01 2902.45 68.09 10.00 305.29 2656.39
   06:46:21.407.20-May-2020 5012.01 2902.46 68.09 10.00 305.49 2656.39
   06:46:21.607.20-May-2020 5012.01 2902.38 68.09 10.00 305.69 2656.39
   06:46:21.807.20-May-2020 5012.01 2902.37 68.09 10.00 305.89 2656.39
   06:46:22.007.20-May-2020 5012.01 2902.52 68.09 10.00 306.09 2656.39
   06:46:22.207.20-May-2020 5012.01 2902.42 68.09 10.00 306.29 2656.39
   06:46:22.407.20-May-2020 5012.01 2902.42 68.09 10.00 306.49 2656.39
   06:46:22.607.20-May-2020 5012.01 2902.50 68.09 10.00 306.69 2656.39
   06:46:22.808.20-May-2020 5012.01 2902.38 68.09 10.00 306.89 2656.39
   06:46:23.008.20-May-2020 5012.01 2902.43 68.09 10.00 307.09 2656.39
   06:46:23.208.20-May-2020 5012.01 2902.43 68.09 10.00 307.29 2656.39
   06:46:23.408.20-May-2020 5012.01 2902.37 68.09 10.00 307.49 2656.39
   06:46:23.608.20-May-2020 5012.01 2902.41 68.09 10.00 307.69 2656.39
   06:46:23.808.20-May-2020 5012.01 2902.40 68.09 10.00 307.89 2656.39
   06:46:24.008.20-May-2020 5012.01 2902.47 68.09 10.00 308.09 2656.39
   06:46:24.208.20-May-2020 5012.01 2902.42 68.09 10.00 308.29 2656.39
   06:46:24.408.20-May-2020 5012.01 2902.42 68.09 10.00 308.49 2656.39
   06:46:24.608.20-May-2020 5012.01 2902.47 68.09 10.00 308.69 2656.39
   06:46:24.808.20-May-2020 5012.01 2902.41 68.09 10.00 308.89 2656.39
   06:46:25.008.20-May-2020 5012.01 2902.42 68.09 10.00 309.09 2656.39
   06:46:25.208.20-May-2020 5012.01 2902.42 68.09 10.00 309.29 2656.39
   06:46:25.408.20-May-2020 5012.01 2902.44 68.09 10.00 309.49 2656.39
   06:46:25.608.20-May-2020 5012.01 2902.42 68.09 10.00 309.69 2656.39
   06:46:25.808.20-May-2020 5012.01 2902.43 68.09 10.00 309.89 2656.39
   06:46:26.008.20-May-2020 5012.01 2902.42 68.09 10.00 310.09 2656.39
   06:46:26.209.20-May-2020 5012.01 2902.43 68.09 10.00 310.29 2656.39
   06:46:26.409.20-May-2020 5012.01 2902.42 68.09 10.00 310.49 2656.39
   06:46:26.609.20-May-2020 5012.01 2902.43 68.09 10.00 310.69 2656.39
   06:46:26.809.20-May-2020 5012.01 2902.42 68.09 10.00 310.89 2656.39
   06:46:27.009.20-May-2020 5012.01 2902.43 68.09 10.00 311.09 2656.39
   06:46:27.209.20-May-2020 5012.01 2902.43 68.09 10.00 311.29 2656.39
   06:46:27.409.20-May-2020 5012.01 2902.49 68.09 10.00 311.49 2656.39
   06:46:27.609.20-May-2020 5012.01 2902.35 68.09 10.00 311.69 2656.39
   06:46:27.809.20-May-2020 5012.01 2902.46 68.09 10.00 311.89 2656.39
   06:46:28.009.20-May-2020 5012.01 2902.41 68.09 10.00 312.09 2656.39
   06:46:28.209.20-May-2020 5012.01 2902.41 68.09 10.00 312.29 2656.39
   06:46:28.409.20-May-2020 5012.01 2902.37 68.09 10.00 312.49 2656.39
   06:46:28.609.20-May-2020 5012.01 2902.39 68.09 10.00 312.69 2656.39
   06:46:28.809.20-May-2020 5012.01 2902.44 68.09 10.00 312.89 2656.39
   06:46:29.009.20-May-2020 5012.01 2902.47 68.09 10.00 313.09 2656.39
   06:46:29.209.20-May-2020 5012.01 2902.47 68.09 10.00 313.29 2656.39
   06:46:29.409.20-May-2020 5012.01 2902.40 68.09 10.00 313.49 2656.39
   06:46:29.609.20-May-2020 5012.01 2902.43 68.09 10.00 313.69 2656.39
   06:46:29.810.20-May-2020 5012.01 2902.43 68.09 10.00 313.89 2656.39
   06:46:30.010.20-May-2020 5012.01 2902.43 68.09 10.00 314.09 2656.39
   06:46:30.210.20-May-2020 5012.01 2902.46 68.09 10.00 314.29 2656.39
   06:46:30.410.20-May-2020 5012.01 2902.36 68.09 10.00 314.49 2656.39
   06:46:30.610.20-May-2020 5012.01 2902.44 68.09 10.00 314.69 2656.39
   06:46:30.810.20-May-2020 5012.01 2902.42 68.09 10.00 314.89 2656.39
   06:46:31.010.20-May-2020 5012.01 2902.48 68.09 10.00 315.09 2656.39
   06:46:31.210.20-May-2020 5012.01 2902.48 68.09 10.00 315.29 2656.39
   06:46:31.410.20-May-2020 5012.01 2902.46 68.09 10.00 315.49 2656.39
   06:46:31.610.20-May-2020 5012.01 2902.39 68.09 10.00 315.69 2656.39
   06:46:31.810.20-May-2020 5012.01 2902.43 68.09 10.00 315.89 2656.39
   06:46:32.010.20-May-2020 5012.01 2902.42 68.09 10.00 316.09 2656.39
   06:46:32.210.20-May-2020 5012.01 2902.42 68.09 10.00 316.29 2656.39
