~Version Information
 VERS.                  2.0:   CWLS log ASCII Standard -VERSION 2.0
 WRAP.                   NO:   One line per depth step
~Well Information Block
#MNEM.UNIT     VALUE/NAME     DESCRIPTION
#---------     -----------    ---------------------------
 STRT.S             00:06:39 20-May-20: START TIME 00:06:39 20-May-20
 STOP.S             00:17:12 20-May-20: STOP TIME  00:17:12 20-May-20
 STEP.S                   0.00: STEP TIME
 NULL.                 -999.25: NULL VALUE
 MDS .        Operator Entered:  MAG DATA SOURCE
 PDAT.          Mean Sea Level:  PERMANENT DATUM
 UNIT.                     N/A:  LOGGING EQUIPMENT ID
 DCON.         Sperry Drilling:  DIRECTNL CONTR
 DOE .                     N/A:  DOE NUMBER
 RIG .              East Azeri:  RIG NAME
 JOBN.        AZ-XX-0905856059:  JOB TICKET NUMB
 WELL.                     D36:  WELL NAME
 MWDS.                    Baku:  MWD SHOP
 SRVC.     Turan Drilling & Engineering:  CONTRACTOR
 FLD .                     ACG:  FIELD NAME
 CTRY.              Azerbaijan:  COUNTRY NAME
 PROV.                    Baku:  PROVINCE
 STAT.                    Baku:  STATE NAME
 REGN.                   EESSA:  REGION
 BASE.              Azerbaijan:  LOGGING EQUIPMENT BASE LOCATION
 UWI .                     N/A:  UNIQUE WELL IDENTIFIER
 API .                     N/A:  API NUMBER
 COMP.     BP Exploration (Caspian Sea) Ltd.:  COMPANY
 WTYP.                Deviated:  WELL TYPE
 SON .        AZ-XX-0905856059:  JOB NUMBER
 FTOP.          Formation Tops:  FORM TOPS DESC
 ILTD.               Lithology:  INTERP LTH DESC
 SVYD.                  Survey:  SURVEY DESC
 DMOD.             Drill Model:  DRILL MOD DESC
 HPTY.       Minimum Curvature:  HOLE POS TYPE
 NREF.                    Grid:  NORTH REFERENCE
 SPUD.               25-Feb-20:  SPUD DATE
 DATE.      08.55.28 01-May-20:  END TIME
 STIM.      08.55.28 25-Feb-20:  START TIME
 DMF .             Drill Floor:  DRILL MEAS FROM
 DFST.                        :  DIST FSL TEXT
 DFWT.                        :  DIST FWL TEXT
 CNTY.                        :  COUNTY
 LOC .                        :  LOCATION
 LMF .             Drill Floor:  LOG MEASURED FROM
 VSNS.m                   6.09:  VERT SEC N/S
 VSEW.m                 -10.79:  VERT SEC E/W
 AGAP.m                  43.60:  AIR GAP
 DEP .m                 388.24:  DEPTH
 APD .m                  43.60:  DEPTH ABOVE PD
 WDMS.m                 151.80:  WD ELEV
 EGL .m                   0.00:  GROUND ELEVATION
 EPD .m                   0.00:  ELEVATION
 AZTC.deg                 6.12:  AZM TOTAL CORR
 GRDC.deg                 0.30:  GRID CORRECTION
 MDEC.deg                 6.42:  MAGNETIC DECL
 MDIP.deg                59.42:  MAGNETIC DIP
 MFLD.nT              50256.00:  MAGNETIC FIELD
 GVFD.g                   1.00:  GRAVITY FIELD
 VSDR.deg               159.57:  VERT SEC DIRECT
 TDD .m                5000.01:  TOTAL DEPTH (DRILLER)
 SDEP.m                 397.00:  START DEPTH
 DFSL.m                   0.00:  DISTANCE FSL
 DFWL.m                   0.00:  DISTANCE FWL
 UTMY.m             4431880.20:  UTM Y
 UTMX.m              538763.98:  UTM X
 WHEW.m                 -10.79:  WELL HEAD E/W
 WHNS.m                   6.09:  WELL HEAD N/S
 LONG.deg                51.45:  LONGITUDE
 LATI.deg                40.02:  LATITUDE
 TVDS.m                  43.60:  TVDSS CORRECTN
 EKB .m                  43.60:  KB ELEVATION
 EDF .m                  43.60:  DF ELEVATION
 MAGU.                 1847640:  MAGUTM CHECKSUM
 VSC .                       0:  VS TO CLOSURE
~Parameter Information Block
#MNEM.UNIT       Value        Description
#---------     -----------    ---------------------------
 AV  .mps                 1.30:  Ann Velocity 
 AVMX.mps                 1.90:  Max Ann Veloc 
 AZIF.deg               115.68:  Azm, Final 
 BHAT.                   Other:  BHA Type 
 BROT.°/30m               0.74:  Build Rotating 
 BS  .in                  8.50:  Bit Size 
 BTPL.psig              430.00:  Bit Press Loss 
 CABU.                      No:  Customer Abuse 
 COMM.                     \õd:  Run Comments 1 
 TCS .hr                 51.31:  Time Ciculation Ended 
 CV  .mps                 2.52:  Crit Velocity 
 CVMX.mps                 2.62:  Max Crit Veloc 
 DD1 .          Teymur Aghayev:  Direct Drillr 1 
 DDSV.                   Other:  DD Service 
 DEFF.%                 100.00:  % Det Eff 
 DLRX.°/30m               1.62:  Dogleg Rot Max 
 DLSO.°/30m               0.74:  Dogleg Oriented 
 DLSX.°/30m               1.62:  Dogleg Str Max 
 DRET.      04.30.56 18-May-20:  Drill End Time 
 DRST.      04.30.56 18-May-20:  Drill Start Tim 
 DTIM.hr                  0.00:  Time Drilling 
 EDEP.m                5337.01:  End Depth 
 ENG1.      Artemiy Matviyanov:  Engineer 1 
 ENG2.      Bakhtiyar Jabbarli:  Engineer 2 
 ENG3.           Emil Huseynov:  Engineer 3 
 ETIM.      18.40.00 22-May-20:  End Time 
 FLOI.gpm               550.00:  Flow In 
 FLON.gpm               350.00:  Flow In Min 
 FLOS.cptm                0.00:  Fluid Loss 
 FLOX.gpm               600.00:  Flow In Max 
 HFLO.                      No:  High Flow 
 HPRE.                      No:  High Pressure 
 HTEM.                      No:  High Temp 
 HYDO.m                   1.80:  Hydro Offset 
 IFIN.deg                67.01:  Inc, Final 
 IMAX.deg                67.49:  Inc Max 
 IMIN.deg                66.50:  Inc Min 
 IMND.m                5144.79:  Inc Min Depth 
 IMXD.m                5116.12:  Inc Max Depth 
 JARR.                      No:  Jarring 
 LETM.      17.55.56 20-May-20:  Log End Time 
 LOST.hr                     0:  Lost Rig Time 
 LSTM.      04.30.56 18-May-20:  Log Start Time 
 MDCL.ppm            193153.00:  Mud Chlorides 
 MDES.     Inversion Oil/Synthetic:  Mud Desc 
 DFD .sg                  1.40:  Mud Density 
 MDMN.sg                  1.40:  Dens Mud Min 
 MDMX.sg                  1.41:  Dens Mud Max 
 MOIL.                      68:  Run Mud Oil % 
 MOWR.                   68:32:  Run Mud OWR 
 MSND.                     0.2:  Run Mud Sand % 
 MSOL.                    18.8:  Run Mud Solids% 
 DFV .spqt               80.00:  Mud Viscosity 
 MWOD.in                  6.75:  MWD Tool OD 
 MWSI.                      No:  Serv Intrp, MWD 
 OTIM.hr                104.84:  Time Operating 
 PMAX.psia            10690.93:  Press Op, Max 
 PV  .cP                 26.00:  Mud PV 
 RUN .                     900:  Run Number 
 ROPA.m/hr                0.00:  ROP Avg 
 ROPN.m/hr                0.00:  ROP Min 
 ROPX.m/hr                0.00:  ROP Max 
 RPMA.rpm               140.00:  RPM Surface Avg 
 RPMN.rpm                70.00:  RPM Surface Min 
 RPMX.rpm               140.00:  RPM Surface Max 
 RRUN.                    0900:  Rig Run Number 
 RTIM.hr                 36.00:  Time Reaming 
 SAZI.deg               115.72:  Azm, Start 
 SDEP.m                5337.01:  Start Depth 
 SIDD.                      No:  Serv Intrp, DD 
 SINC.deg                66.92:  Inc, Start 
 SPPA.psig             4400.00:  SPP Avg 
 SPPN.psig             1135.00:  SPP Min 
 SPPX.psig             4581.00:  SPP Max 
 STIM.      04.30.56 18-May-20:  Start Time 
 SVCS.                     MWD:  Services 
 SVER.                    9.20:  Sperry Version 
 TDAT.m                5337.01:  Tot Depth Attmp 
 TDDF.                      No:  Trip for DD 
 TFF .                      No:  Trip for Fail 
 TQAA.f-kp               23.00:  Torque Abs Avg 
 TQAN.f-kp               18.00:  Torque Abs Min 
 TQAX.f-kp               25.00:  Torque Abs Max 
 TRRT.°/30m               0.74:  Turn Rotating 
 MRT .                    HCIM:  Maximum Recorded Temperature 
 TTMX.degC               76.47:  Max Tool Temp 
 WBMN.klb                 0.00:  WOB Min 
 WITN.             Anar Khalil:  Customer Rep 
 WITN.      Kamran Keberlinski:  Customer Rep 2 
 WOBA.klb                 0.00:  WOB Avg 
 WOBX.klb                 0.00:  WOB Max 
 YP  .lhf2               27.00:  Yield Point 
~Curve Information Block
#MNEM.UNIT                 API CODE     Curve Description
#---------               -----------    ---------------------------
 TIME.HHMMSS            00 000 000 000:  GT Time & Date
 GTDEPTH.m              00 000 000 000:  GT Depth
 GTPQH.psia             00 000 000 000:  GT HR Quartz Pressure
 GTTQ.degC              00 000 000 000:  GT Quartz Temperature
 GTTN.NONE              00 000 000 000:  GT Test Number
 GTET.sec               00 000 000 000:  GT Elapsed Test Time
 GTTVD.m                00 000 000 000:  GT True Vertical Depth
#Other Information
#
#WARRANTY: Halliburton will use its best efforts to furnish customers with 
#accurate information and interpretations that are part of, and incident to, the services 
#provided.  However, Halliburton cannot and does not warrant the accuracy 
#or correctness of such information and interpretations.  Under no circumstances should any 
#such information or interpretation be relied upon as the sole basis for any drilling, 
#completion, production, or financial decision or any procedure involving any risk to the 
#safety of any drilling venture, drilling rig or its crew or any other third party.  The 
#Customer has full responsibility for all drilling, completion and production operation.  
#Halliburton makes no representations or warranties, either expressed or 
#implied, including, but not limited to, the implied warranties of merchantability or fitness 
#for a particular purpose, with respect to the services rendered.  In no event will 
#Halliburton be liable for failure to obtain any particular results or for 
#any damages, including, but not limited to, indirect, special or consequential damages, 
#resulting from the use of any information or interpretation provided by Halliburton.
#
~A           TIME           GTDEPTH  GTPQH  GTTQ  GTTN  GTET   GTTVD  
# ...
   00:07:25.541.20-May-2020 5121.01 6607.08 67.91 6.00  46.01 2698.81
   00:07:25.741.20-May-2020 5121.01 6596.27 67.91 6.00  46.21 2698.81
   00:07:25.941.20-May-2020 5121.01 6582.29 67.91 6.00  46.41 2698.81
   00:07:26.141.20-May-2020 5121.01 6570.16 67.91 6.00  46.61 2698.81
   00:07:26.341.20-May-2020 5121.01 6536.45 67.91 6.00  46.81 2698.81
   00:07:26.541.20-May-2020 5121.01 6364.33 67.91 6.00  47.01 2698.81
   00:07:26.741.20-May-2020 5121.01 6364.33 67.91 6.00  47.21 2698.81
   00:07:26.942.20-May-2020 5121.01 5955.18 67.91 6.00  47.41 2698.81
   00:07:27.142.20-May-2020 5121.01 5553.02 67.91 6.00  47.61 2698.81
   00:07:27.342.20-May-2020 5121.01 5109.26 67.91 6.00  47.81 2698.81
   00:07:27.542.20-May-2020 5121.01 4722.00 67.91 6.00  48.01 2698.81
   00:07:27.742.20-May-2020 5121.01 4722.00 67.91 6.00  48.21 2698.81
   00:07:27.942.20-May-2020 5121.01 4407.58 67.91 6.00  48.41 2698.81
   00:07:28.142.20-May-2020 5121.01 4319.50 67.91 6.00  48.61 2698.81
   00:07:28.342.20-May-2020 5121.01 4203.11 67.91 6.00  48.81 2698.81
   00:07:28.542.20-May-2020 5121.01 4094.23 67.90 6.00  49.01 2698.81
   00:07:28.742.20-May-2020 5121.01 4094.23 67.90 6.00  49.21 2698.81
   00:07:28.942.20-May-2020 5121.01 3631.81 67.90 6.00  49.41 2698.81
   00:07:29.142.20-May-2020 5121.01 3563.06 67.90 6.00  49.61 2698.81
   00:07:29.342.20-May-2020 5121.01 3542.74 67.90 6.00  49.81 2698.81
   00:07:29.542.20-May-2020 5121.01 3542.32 67.90 6.00  50.01 2698.81
   00:07:29.742.20-May-2020 5121.01 3542.32 67.90 6.00  50.21 2698.81
   00:07:29.942.20-May-2020 5121.01 3544.57 67.89 6.00  50.41 2698.81
   00:07:30.142.20-May-2020 5121.01 3545.58 67.89 6.00  50.61 2698.81
   00:07:30.342.20-May-2020 5121.01 3546.01 67.89 6.00  50.81 2698.81
   00:07:30.542.20-May-2020 5121.01 3547.02 67.89 6.00  51.01 2698.81
   00:07:30.742.20-May-2020 5121.01 3547.02 67.89 6.00  51.21 2698.81
   00:07:30.943.20-May-2020 5121.01 3548.71 67.88 6.00  51.41 2698.81
   00:07:31.143.20-May-2020 5121.01 3549.37 67.88 6.00  51.61 2698.81
   00:07:31.343.20-May-2020 5121.01 3550.26 67.88 6.00  51.81 2698.81
   00:07:31.543.20-May-2020 5121.01 3552.13 67.87 6.00  52.01 2698.81
   00:07:31.743.20-May-2020 5121.01 3552.13 67.87 6.00  52.21 2698.81
   00:07:31.943.20-May-2020 5121.01 3562.64 67.87 6.00  52.41 2698.81
   00:07:32.143.20-May-2020 5121.01 3564.99 67.87 6.00  52.61 2698.81
   00:07:32.343.20-May-2020 5121.01 3552.44 67.86 6.00  52.81 2698.81
   00:07:32.543.20-May-2020 5121.01 3552.32 67.86 6.00  53.01 2698.81
   00:07:32.743.20-May-2020 5121.01 3552.32 67.86 6.00  53.21 2698.81
   00:07:32.943.20-May-2020 5121.01 3552.00 67.86 6.00  53.41 2698.81
   00:07:33.143.20-May-2020 5121.01 3552.41 67.86 6.00  53.61 2698.81
   00:07:33.343.20-May-2020 5121.01 3552.39 67.85 6.00  53.81 2698.81
   00:07:33.543.20-May-2020 5121.01 3552.94 67.85 6.00  54.01 2698.81
   00:07:33.743.20-May-2020 5121.01 3552.94 67.85 6.00  54.21 2698.81
   00:07:33.943.20-May-2020 5121.01 3552.33 67.85 6.00  54.41 2698.81
   00:07:34.143.20-May-2020 5121.01 3551.73 67.85 6.00  54.61 2698.81
   00:07:34.343.20-May-2020 5121.01 3551.46 67.85 6.00  54.81 2698.81
   00:07:34.543.20-May-2020 5121.01 3551.71 67.84 6.00  55.01 2698.81
   00:07:34.743.20-May-2020 5121.01 3551.71 67.84 6.00  55.21 2698.81
   00:07:34.944.20-May-2020 5121.01 3551.94 67.84 6.00  55.41 2698.81
   00:07:35.144.20-May-2020 5121.01 3551.25 67.84 6.00  55.61 2698.81
   00:07:35.344.20-May-2020 5121.01 3552.18 67.84 6.00  55.81 2698.81
   00:07:35.544.20-May-2020 5121.01 3552.11 67.84 6.00  56.01 2698.81
   00:07:35.744.20-May-2020 5121.01 3552.11 67.84 6.00  56.21 2698.81
   00:07:35.944.20-May-2020 5121.01 3552.15 67.83 6.00  56.41 2698.81
   00:07:36.144.20-May-2020 5121.01 3550.98 67.83 6.00  56.61 2698.81
   00:07:36.344.20-May-2020 5121.01 3551.42 67.83 6.00  56.81 2698.81
   00:07:36.544.20-May-2020 5121.01 3551.79 67.83 6.00  57.01 2698.81
   00:07:36.744.20-May-2020 5121.01 3551.79 67.83 6.00  57.21 2698.81
   00:07:36.944.20-May-2020 5121.01 3551.32 67.83 6.00  57.41 2698.81
   00:07:37.144.20-May-2020 5121.01 3552.26 67.83 6.00  57.61 2698.81
   00:07:37.344.20-May-2020 5121.01 3552.18 67.83 6.00  57.81 2698.81
   00:07:37.544.20-May-2020 5121.01 3551.92 67.83 6.00  58.01 2698.81
   00:07:37.744.20-May-2020 5121.01 3552.38 67.83 6.00  58.21 2698.81
   00:07:37.944.20-May-2020 5121.01 3552.45 67.83 6.00  58.41 2698.81
   00:07:38.144.20-May-2020 5121.01 3551.25 67.83 6.00  58.61 2698.81
   00:07:38.344.20-May-2020 5121.01 3551.52 67.83 6.00  58.81 2698.81
   00:07:38.544.20-May-2020 5121.01 3551.80 67.82 6.00  59.01 2698.81
   00:07:38.744.20-May-2020 5121.01 3551.80 67.82 6.00  59.21 2698.81
   00:07:38.945.20-May-2020 5121.01 3551.08 67.82 6.00  59.41 2698.81
   00:07:39.145.20-May-2020 5121.01 3551.94 67.82 6.00  59.61 2698.81
   00:07:39.345.20-May-2020 5121.01 3551.73 67.82 6.00  59.81 2698.81
   00:07:39.545.20-May-2020 5121.01 3552.08 67.82 6.00  60.01 2698.81
   00:07:39.745.20-May-2020 5121.01 3552.08 67.82 6.00  60.22 2698.81
   00:07:39.945.20-May-2020 5121.01 3552.13 67.82 6.00  60.42 2698.81
   00:07:40.145.20-May-2020 5121.01 3552.03 67.82 6.00  60.62 2698.81
   00:07:40.345.20-May-2020 5121.01 3550.84 67.82 6.00  60.82 2698.81
   00:07:40.545.20-May-2020 5121.01 3551.49 67.82 6.00  61.02 2698.81
   00:07:40.745.20-May-2020 5121.01 3551.49 67.82 6.00  61.22 2698.81
   00:07:40.945.20-May-2020 5121.01 3551.28 67.82 6.00  61.42 2698.81
   00:07:41.145.20-May-2020 5121.01 3550.65 67.82 6.00  61.62 2698.81
   00:07:41.345.20-May-2020 5121.01 3552.09 67.82 6.00  61.82 2698.81
   00:07:41.545.20-May-2020 5121.01 3552.16 67.82 6.00  62.02 2698.81
   00:07:41.745.20-May-2020 5121.01 3552.16 67.82 6.00  62.22 2698.81
   00:07:41.945.20-May-2020 5121.01 3552.44 67.82 6.00  62.42 2698.81
   00:07:42.145.20-May-2020 5121.01 3551.83 67.82 6.00  62.62 2698.81
   00:07:42.345.20-May-2020 5121.01 3551.50 67.82 6.00  62.82 2698.81
   00:07:42.545.20-May-2020 5121.01 3551.46 67.82 6.00  63.02 2698.81
   00:07:42.745.20-May-2020 5121.01 3551.46 67.82 6.00  63.22 2698.81
   00:07:42.946.20-May-2020 5121.01 3551.27 67.82 6.00  63.42 2698.81
   00:07:43.146.20-May-2020 5121.01 3551.13 67.82 6.00  63.62 2698.81
   00:07:43.346.20-May-2020 5121.01 3551.63 67.82 6.00  63.82 2698.81
   00:07:43.546.20-May-2020 5121.01 3551.68 67.82 6.00  64.02 2698.81
   00:07:43.746.20-May-2020 5121.01 3551.68 67.82 6.00  64.22 2698.81
   00:07:43.946.20-May-2020 5121.01 3552.00 67.82 6.00  64.42 2698.81
   00:07:44.146.20-May-2020 5121.01 3551.83 67.82 6.00  64.62 2698.81
   00:07:44.346.20-May-2020 5121.01 3551.37 67.82 6.00  64.82 2698.81
   00:07:44.546.20-May-2020 5121.01 3551.44 67.82 6.00  65.02 2698.81
   00:07:44.746.20-May-2020 5121.01 3551.44 67.82 6.00  65.22 2698.81
   00:07:44.946.20-May-2020 5121.01 3550.79 67.82 6.00  65.42 2698.81
   00:07:45.146.20-May-2020 5121.01 3551.21 67.82 6.00  65.62 2698.81
   00:07:45.346.20-May-2020 5121.01 3551.45 67.82 6.00  65.82 2698.81
   00:07:45.546.20-May-2020 5121.01 3551.93 67.82 6.00  66.02 2698.81
   00:07:45.746.20-May-2020 5121.01 3551.93 67.82 6.00  66.22 2698.81
   00:07:45.946.20-May-2020 5121.01 3552.02 67.82 6.00  66.42 2698.81
   00:07:46.146.20-May-2020 5121.01 3552.23 67.82 6.00  66.62 2698.81
   00:07:46.346.20-May-2020 5121.01 3551.41 67.82 6.00  66.82 2698.81
   00:07:46.546.20-May-2020 5121.01 3551.49 67.82 6.00  67.02 2698.81
   00:07:46.746.20-May-2020 5121.01 3551.49 67.82 6.00  67.22 2698.81
   00:07:46.947.20-May-2020 5121.01 3551.45 67.82 6.00  67.42 2698.81
   00:07:47.147.20-May-2020 5121.01 3551.17 67.82 6.00  67.62 2698.81
   00:07:47.347.20-May-2020 5121.01 3551.57 67.82 6.00  67.82 2698.81
   00:07:47.547.20-May-2020 5121.01 3551.89 67.82 6.00  68.02 2698.81
   00:07:47.747.20-May-2020 5121.01 3551.89 67.82 6.00  68.22 2698.81
   00:07:47.947.20-May-2020 5121.01 3552.04 67.82 6.00  68.42 2698.81
   00:07:48.147.20-May-2020 5121.01 3552.07 67.82 6.00  68.62 2698.81
   00:07:48.347.20-May-2020 5121.01 3551.99 67.82 6.00  68.82 2698.81
