~Version Information
 VERS.                  2.0:   CWLS log ASCII Standard -VERSION 2.0
 WRAP.                   NO:   One line per depth step
~Well Information Block
#MNEM.UNIT     VALUE/NAME     DESCRIPTION
#---------     -----------    ---------------------------
 STRT.S             23:11:25 19-May-20: START TIME 23:11:25 19-May-20
 STOP.S             23:19:39 19-May-20: STOP TIME  23:19:39 19-May-20
 STEP.S                   0.00: STEP TIME
 NULL.                 -999.25: NULL VALUE
 MDS .        Operator Entered:  MAG DATA SOURCE
 PDAT.          Mean Sea Level:  PERMANENT DATUM
 UNIT.                     N/A:  LOGGING EQUIPMENT ID
 DCON.         Sperry Drilling:  DIRECTNL CONTR
 DOE .                     N/A:  DOE NUMBER
 RIG .              East Azeri:  RIG NAME
 JOBN.        AZ-XX-0905856059:  JOB TICKET NUMB
 WELL.                     D36:  WELL NAME
 MWDS.                    Baku:  MWD SHOP
 SRVC.     Turan Drilling & Engineering:  CONTRACTOR
 FLD .                     ACG:  FIELD NAME
 CTRY.              Azerbaijan:  COUNTRY NAME
 PROV.                    Baku:  PROVINCE
 STAT.                    Baku:  STATE NAME
 REGN.                   EESSA:  REGION
 BASE.              Azerbaijan:  LOGGING EQUIPMENT BASE LOCATION
 UWI .                     N/A:  UNIQUE WELL IDENTIFIER
 API .                     N/A:  API NUMBER
 COMP.     BP Exploration (Caspian Sea) Ltd.:  COMPANY
 WTYP.                Deviated:  WELL TYPE
 SON .        AZ-XX-0905856059:  JOB NUMBER
 FTOP.          Formation Tops:  FORM TOPS DESC
 ILTD.               Lithology:  INTERP LTH DESC
 SVYD.                  Survey:  SURVEY DESC
 DMOD.             Drill Model:  DRILL MOD DESC
 HPTY.       Minimum Curvature:  HOLE POS TYPE
 NREF.                    Grid:  NORTH REFERENCE
 SPUD.               25-Feb-20:  SPUD DATE
 DATE.      08.55.28 01-May-20:  END TIME
 STIM.      08.55.28 25-Feb-20:  START TIME
 DMF .             Drill Floor:  DRILL MEAS FROM
 DFST.                        :  DIST FSL TEXT
 DFWT.                        :  DIST FWL TEXT
 CNTY.                        :  COUNTY
 LOC .                        :  LOCATION
 LMF .             Drill Floor:  LOG MEASURED FROM
 VSNS.m                   6.09:  VERT SEC N/S
 VSEW.m                 -10.79:  VERT SEC E/W
 AGAP.m                  43.60:  AIR GAP
 DEP .m                 388.24:  DEPTH
 APD .m                  43.60:  DEPTH ABOVE PD
 WDMS.m                 151.80:  WD ELEV
 EGL .m                   0.00:  GROUND ELEVATION
 EPD .m                   0.00:  ELEVATION
 AZTC.deg                 6.12:  AZM TOTAL CORR
 GRDC.deg                 0.30:  GRID CORRECTION
 MDEC.deg                 6.42:  MAGNETIC DECL
 MDIP.deg                59.42:  MAGNETIC DIP
 MFLD.nT              50256.00:  MAGNETIC FIELD
 GVFD.g                   1.00:  GRAVITY FIELD
 VSDR.deg               159.57:  VERT SEC DIRECT
 TDD .m                5000.01:  TOTAL DEPTH (DRILLER)
 SDEP.m                 397.00:  START DEPTH
 DFSL.m                   0.00:  DISTANCE FSL
 DFWL.m                   0.00:  DISTANCE FWL
 UTMY.m             4431880.20:  UTM Y
 UTMX.m              538763.98:  UTM X
 WHEW.m                 -10.79:  WELL HEAD E/W
 WHNS.m                   6.09:  WELL HEAD N/S
 LONG.deg                51.45:  LONGITUDE
 LATI.deg                40.02:  LATITUDE
 TVDS.m                  43.60:  TVDSS CORRECTN
 EKB .m                  43.60:  KB ELEVATION
 EDF .m                  43.60:  DF ELEVATION
 MAGU.                 1847640:  MAGUTM CHECKSUM
 VSC .                       0:  VS TO CLOSURE
~Parameter Information Block
#MNEM.UNIT       Value        Description
#---------     -----------    ---------------------------
 AV  .mps                 1.30:  Ann Velocity 
 AVMX.mps                 1.90:  Max Ann Veloc 
 AZIF.deg               115.68:  Azm, Final 
 BHAT.                   Other:  BHA Type 
 BROT.°/30m               0.74:  Build Rotating 
 BS  .in                  8.50:  Bit Size 
 BTPL.psig              430.00:  Bit Press Loss 
 CABU.                      No:  Customer Abuse 
 COMM.                     Tr}:  Run Comments 1 
 TCS .hr                 51.31:  Time Ciculation Ended 
 CV  .mps                 2.52:  Crit Velocity 
 CVMX.mps                 2.62:  Max Crit Veloc 
 DD1 .          Teymur Aghayev:  Direct Drillr 1 
 DDSV.                   Other:  DD Service 
 DEFF.%                 100.00:  % Det Eff 
 DLRX.°/30m               1.62:  Dogleg Rot Max 
 DLSO.°/30m               0.74:  Dogleg Oriented 
 DLSX.°/30m               1.62:  Dogleg Str Max 
 DRET.      04.30.56 18-May-20:  Drill End Time 
 DRST.      04.30.56 18-May-20:  Drill Start Tim 
 DTIM.hr                  0.00:  Time Drilling 
 EDEP.m                5337.01:  End Depth 
 ENG1.      Artemiy Matviyanov:  Engineer 1 
 ENG2.      Bakhtiyar Jabbarli:  Engineer 2 
 ENG3.           Emil Huseynov:  Engineer 3 
 ETIM.      18.40.00 22-May-20:  End Time 
 FLOI.gpm               550.00:  Flow In 
 FLON.gpm               350.00:  Flow In Min 
 FLOS.cptm                0.00:  Fluid Loss 
 FLOX.gpm               600.00:  Flow In Max 
 HFLO.                      No:  High Flow 
 HPRE.                      No:  High Pressure 
 HTEM.                      No:  High Temp 
 HYDO.m                   1.80:  Hydro Offset 
 IFIN.deg                67.01:  Inc, Final 
 IMAX.deg                67.49:  Inc Max 
 IMIN.deg                66.50:  Inc Min 
 IMND.m                5144.79:  Inc Min Depth 
 IMXD.m                5116.12:  Inc Max Depth 
 JARR.                      No:  Jarring 
 LETM.      17.55.56 20-May-20:  Log End Time 
 LOST.hr                     0:  Lost Rig Time 
 LSTM.      04.30.56 18-May-20:  Log Start Time 
 MDCL.ppm            193153.00:  Mud Chlorides 
 MDES.     Inversion Oil/Synthetic:  Mud Desc 
 DFD .sg                  1.40:  Mud Density 
 MDMN.sg                  1.40:  Dens Mud Min 
 MDMX.sg                  1.41:  Dens Mud Max 
 MOIL.                      68:  Run Mud Oil % 
 MOWR.                   68:32:  Run Mud OWR 
 MSND.                     0.2:  Run Mud Sand % 
 MSOL.                    18.8:  Run Mud Solids% 
 DFV .spqt               80.00:  Mud Viscosity 
 MWOD.in                  6.75:  MWD Tool OD 
 MWSI.                      No:  Serv Intrp, MWD 
 OTIM.hr                104.84:  Time Operating 
 PMAX.psia            10690.93:  Press Op, Max 
 PV  .cP                 26.00:  Mud PV 
 RUN .                     900:  Run Number 
 ROPA.m/hr                0.00:  ROP Avg 
 ROPN.m/hr                0.00:  ROP Min 
 ROPX.m/hr                0.00:  ROP Max 
 RPMA.rpm               140.00:  RPM Surface Avg 
 RPMN.rpm                70.00:  RPM Surface Min 
 RPMX.rpm               140.00:  RPM Surface Max 
 RRUN.                    0900:  Rig Run Number 
 RTIM.hr                 36.00:  Time Reaming 
 SAZI.deg               115.72:  Azm, Start 
 SDEP.m                5337.01:  Start Depth 
 SIDD.                      No:  Serv Intrp, DD 
 SINC.deg                66.92:  Inc, Start 
 SPPA.psig             4400.00:  SPP Avg 
 SPPN.psig             1135.00:  SPP Min 
 SPPX.psig             4581.00:  SPP Max 
 STIM.      04.30.56 18-May-20:  Start Time 
 SVCS.                     MWD:  Services 
 SVER.                    9.20:  Sperry Version 
 TDAT.m                5337.01:  Tot Depth Attmp 
 TDDF.                      No:  Trip for DD 
 TFF .                      No:  Trip for Fail 
 TQAA.f-kp               23.00:  Torque Abs Avg 
 TQAN.f-kp               18.00:  Torque Abs Min 
 TQAX.f-kp               25.00:  Torque Abs Max 
 TRRT.°/30m               0.74:  Turn Rotating 
 MRT .                    HCIM:  Maximum Recorded Temperature 
 TTMX.degC               76.47:  Max Tool Temp 
 WBMN.klb                 0.00:  WOB Min 
 WITN.             Anar Khalil:  Customer Rep 
 WITN.      Kamran Keberlinski:  Customer Rep 2 
 WOBA.klb                 0.00:  WOB Avg 
 WOBX.klb                 0.00:  WOB Max 
 YP  .lhf2               27.00:  Yield Point 
~Curve Information Block
#MNEM.UNIT                 API CODE     Curve Description
#---------               -----------    ---------------------------
 TIME.HHMMSS            00 000 000 000:  GT Time & Date
 GTDEPTH.m              00 000 000 000:  GT Depth
 GTPQH.psia             00 000 000 000:  GT HR Quartz Pressure
 GTTQ.degC              00 000 000 000:  GT Quartz Temperature
 GTTN.NONE              00 000 000 000:  GT Test Number
 GTET.sec               00 000 000 000:  GT Elapsed Test Time
 GTTVD.m                00 000 000 000:  GT True Vertical Depth
#Other Information
#
#WARRANTY: Halliburton will use its best efforts to furnish customers with 
#accurate information and interpretations that are part of, and incident to, the services 
#provided.  However, Halliburton cannot and does not warrant the accuracy 
#or correctness of such information and interpretations.  Under no circumstances should any 
#such information or interpretation be relied upon as the sole basis for any drilling, 
#completion, production, or financial decision or any procedure involving any risk to the 
#safety of any drilling venture, drilling rig or its crew or any other third party.  The 
#Customer has full responsibility for all drilling, completion and production operation.  
#Halliburton makes no representations or warranties, either expressed or 
#implied, including, but not limited to, the implied warranties of merchantability or fitness 
#for a particular purpose, with respect to the services rendered.  In no event will 
#Halliburton be liable for failure to obtain any particular results or for 
#any damages, including, but not limited to, indirect, special or consequential damages, 
#resulting from the use of any information or interpretation provided by Halliburton.
#
~A           TIME           GTDEPTH  GTPQH  GTTQ  GTTN  GTET   GTTVD  
# ...
   23:16:01.772.19-May-2020 5121.01 3522.95 67.97 5.00 276.07 2698.81
   23:16:01.973.19-May-2020 5121.01 3522.95 67.97 5.00 276.27 2698.81
   23:16:02.173.19-May-2020 5121.01 3524.95 67.97 5.00 276.47 2698.81
   23:16:02.373.19-May-2020 5121.01 3525.88 67.97 5.00 276.67 2698.81
   23:16:02.573.19-May-2020 5121.01 3526.88 67.97 5.00 276.87 2698.81
   23:16:02.773.19-May-2020 5121.01 3527.72 67.97 5.00 277.07 2698.81
   23:16:02.973.19-May-2020 5121.01 3527.72 67.97 5.00 277.27 2698.81
   23:16:03.173.19-May-2020 5121.01 3529.48 67.97 5.00 277.47 2698.81
   23:16:03.373.19-May-2020 5121.01 3530.36 67.97 5.00 277.67 2698.81
   23:16:03.573.19-May-2020 5121.01 3530.96 67.97 5.00 277.87 2698.81
   23:16:03.773.19-May-2020 5121.01 3531.94 67.97 5.00 278.07 2698.81
   23:16:03.973.19-May-2020 5121.01 3531.94 67.97 5.00 278.27 2698.81
   23:16:04.173.19-May-2020 5121.01 3533.93 67.97 5.00 278.47 2698.81
   23:16:04.373.19-May-2020 5121.01 3534.69 67.97 5.00 278.67 2698.81
   23:16:04.573.19-May-2020 5121.01 3535.46 67.97 5.00 278.87 2698.81
   23:16:04.773.19-May-2020 5121.01 3536.48 67.97 5.00 279.07 2698.81
   23:16:04.973.19-May-2020 5121.01 3537.42 67.97 5.00 279.27 2698.81
   23:16:05.173.19-May-2020 5121.01 3538.13 67.97 5.00 279.47 2698.81
   23:16:05.373.19-May-2020 5121.01 3539.00 67.97 5.00 279.67 2698.81
   23:16:05.573.19-May-2020 5121.01 3539.46 67.97 5.00 279.87 2698.81
   23:16:05.773.19-May-2020 5121.01 3540.37 67.97 5.00 280.07 2698.81
   23:16:05.974.19-May-2020 5121.01 3540.37 67.97 5.00 280.27 2698.81
   23:16:06.174.19-May-2020 5121.01 3542.03 67.97 5.00 280.47 2698.81
   23:16:06.374.19-May-2020 5121.01 3542.71 67.97 5.00 280.67 2698.81
   23:16:06.574.19-May-2020 5121.01 3543.13 67.97 5.00 280.87 2698.81
   23:16:06.774.19-May-2020 5121.01 3544.07 67.97 5.00 281.07 2698.81
   23:16:06.974.19-May-2020 5121.01 3544.07 67.97 5.00 281.27 2698.81
   23:16:07.174.19-May-2020 5121.01 3545.48 67.97 5.00 281.47 2698.81
   23:16:07.374.19-May-2020 5121.01 3545.86 67.97 5.00 281.67 2698.81
   23:16:07.574.19-May-2020 5121.01 3546.87 67.97 5.00 281.87 2698.81
   23:16:07.774.19-May-2020 5121.01 3547.53 67.97 5.00 282.07 2698.81
   23:16:07.974.19-May-2020 5121.01 3547.53 67.97 5.00 282.27 2698.81
   23:16:08.174.19-May-2020 5121.01 3549.03 67.97 5.00 282.47 2698.81
   23:16:08.374.19-May-2020 5121.01 3549.72 67.97 5.00 282.67 2698.81
   23:16:08.574.19-May-2020 5121.01 3550.41 67.97 5.00 282.87 2698.81
   23:16:08.774.19-May-2020 5121.01 3551.03 67.97 5.00 283.07 2698.81
   23:16:08.974.19-May-2020 5121.01 3551.68 67.97 5.00 283.27 2698.81
   23:16:09.174.19-May-2020 5121.01 3552.30 67.97 5.00 283.47 2698.81
   23:16:09.374.19-May-2020 5121.01 3552.92 67.97 5.00 283.67 2698.81
   23:16:09.574.19-May-2020 5121.01 3553.50 67.97 5.00 283.87 2698.81
   23:16:09.774.19-May-2020 5121.01 3553.98 67.97 5.00 284.07 2698.81
   23:16:09.975.19-May-2020 5121.01 3553.98 67.97 5.00 284.27 2698.81
   23:16:10.175.19-May-2020 5121.01 3555.06 67.97 5.00 284.47 2698.81
   23:16:10.375.19-May-2020 5121.01 3555.30 67.97 5.00 284.67 2698.81
   23:16:10.575.19-May-2020 5121.01 3556.03 67.97 5.00 284.87 2698.81
   23:16:10.775.19-May-2020 5121.01 3556.54 67.97 5.00 285.07 2698.81
   23:16:10.975.19-May-2020 5121.01 3556.54 67.97 5.00 285.27 2698.81
   23:16:11.175.19-May-2020 5121.01 3557.40 67.97 5.00 285.47 2698.81
   23:16:11.375.19-May-2020 5121.01 3557.72 67.97 5.00 285.67 2698.81
   23:16:11.575.19-May-2020 5121.01 3558.43 67.97 5.00 285.87 2698.81
   23:16:11.775.19-May-2020 5121.01 3558.88 67.97 5.00 286.07 2698.81
   23:16:11.975.19-May-2020 5121.01 3558.88 67.97 5.00 286.27 2698.81
   23:16:12.175.19-May-2020 5121.01 3559.76 67.97 5.00 286.47 2698.81
   23:16:12.375.19-May-2020 5121.01 3559.81 67.97 5.00 286.67 2698.81
   23:16:12.575.19-May-2020 5121.01 3560.53 67.97 5.00 286.87 2698.81
   23:16:12.775.19-May-2020 5121.01 3560.97 67.97 5.00 287.07 2698.81
   23:16:12.975.19-May-2020 5121.01 3560.97 67.97 5.00 287.27 2698.81
   23:16:13.175.19-May-2020 5121.01 3561.75 67.97 5.00 287.47 2698.81
   23:16:13.375.19-May-2020 5121.01 3561.94 67.97 5.00 287.67 2698.81
   23:16:13.575.19-May-2020 5121.01 3562.11 67.97 5.00 287.87 2698.81
   23:16:13.775.19-May-2020 5121.01 3562.63 67.97 5.00 288.07 2698.81
   23:16:13.976.19-May-2020 5121.01 3562.63 67.97 5.00 288.27 2698.81
   23:16:14.176.19-May-2020 5121.01 3563.01 67.97 5.00 288.47 2698.81
   23:16:14.376.19-May-2020 5121.01 3563.63 67.97 5.00 288.67 2698.81
   23:16:14.576.19-May-2020 5121.01 3563.96 67.97 5.00 288.87 2698.81
   23:16:14.776.19-May-2020 5121.01 3564.25 67.97 5.00 289.07 2698.81
   23:16:14.976.19-May-2020 5121.01 3564.25 67.97 5.00 289.27 2698.81
   23:16:15.176.19-May-2020 5121.01 3564.81 67.97 5.00 289.47 2698.81
   23:16:15.376.19-May-2020 5121.01 3565.01 67.97 5.00 289.67 2698.81
   23:16:15.576.19-May-2020 5121.01 3565.28 67.97 5.00 289.87 2698.81
   23:16:15.776.19-May-2020 5121.01 3565.43 67.97 5.00 290.07 2698.81
   23:16:15.976.19-May-2020 5121.01 3565.43 67.97 5.00 290.27 2698.81
   23:16:16.176.19-May-2020 5121.01 3565.94 67.97 5.00 290.47 2698.81
   23:16:16.376.19-May-2020 5121.01 3566.16 67.97 5.00 290.67 2698.81
   23:16:16.576.19-May-2020 5121.01 3566.35 67.97 5.00 290.87 2698.81
   23:16:16.776.19-May-2020 5121.01 3566.49 67.97 5.00 291.07 2698.81
   23:16:16.976.19-May-2020 5121.01 3566.74 67.97 5.00 291.27 2698.81
   23:16:17.176.19-May-2020 5121.01 3566.84 67.97 5.00 291.47 2698.81
   23:16:17.376.19-May-2020 5121.01 3566.80 67.97 5.00 291.67 2698.81
   23:16:17.576.19-May-2020 5121.01 3567.29 67.97 5.00 291.87 2698.81
   23:16:17.776.19-May-2020 5121.01 3567.47 67.97 5.00 292.07 2698.81
   23:16:17.977.19-May-2020 5121.01 3567.47 67.97 5.00 292.27 2698.81
   23:16:18.177.19-May-2020 5121.01 3567.48 67.97 5.00 292.47 2698.81
   23:16:18.377.19-May-2020 5121.01 3567.97 67.97 5.00 292.67 2698.81
   23:16:18.577.19-May-2020 5121.01 3568.30 67.97 5.00 292.87 2698.81
   23:16:18.777.19-May-2020 5121.01 3568.32 67.97 5.00 293.07 2698.81
   23:16:18.977.19-May-2020 5121.01 3568.32 67.97 5.00 293.27 2698.81
   23:16:19.177.19-May-2020 5121.01 3568.65 67.97 5.00 293.47 2698.81
   23:16:19.377.19-May-2020 5121.01 3568.50 67.97 5.00 293.67 2698.81
   23:16:19.577.19-May-2020 5121.01 3569.02 67.97 5.00 293.87 2698.81
   23:16:19.777.19-May-2020 5121.01 3569.24 67.97 5.00 294.07 2698.81
   23:16:19.977.19-May-2020 5121.01 3569.24 67.97 5.00 294.27 2698.81
   23:16:20.177.19-May-2020 5121.01 3569.64 67.97 5.00 294.47 2698.81
   23:16:20.377.19-May-2020 5121.01 3569.24 67.97 5.00 294.67 2698.81
   23:16:20.577.19-May-2020 5121.01 3570.09 67.97 5.00 294.87 2698.81
   23:16:20.777.19-May-2020 5121.01 3570.69 67.97 5.00 295.07 2698.81
   23:16:20.977.19-May-2020 5121.01 3570.69 67.97 5.00 295.27 2698.81
   23:16:21.177.19-May-2020 5121.01 3571.13 67.97 5.00 295.47 2698.81
   23:16:21.377.19-May-2020 5121.01 3571.84 67.97 5.00 295.67 2698.81
   23:16:21.577.19-May-2020 5121.01 3572.20 67.97 5.00 295.87 2698.81
   23:16:21.777.19-May-2020 5121.01 3572.19 67.97 5.00 296.07 2698.81
   23:16:21.978.19-May-2020 5121.01 3572.19 67.97 5.00 296.27 2698.81
   23:16:22.178.19-May-2020 5121.01 3572.12 67.97 5.00 296.47 2698.81
   23:16:22.378.19-May-2020 5121.01 3572.18 67.97 5.00 296.67 2698.81
   23:16:22.578.19-May-2020 5121.01 3572.15 67.97 5.00 296.87 2698.81
   23:16:22.778.19-May-2020 5121.01 3572.15 67.97 5.00 297.07 2698.81
   23:16:22.978.19-May-2020 5121.01 3572.15 67.97 5.00 297.27 2698.81
   23:16:23.178.19-May-2020 5121.01 3572.15 67.97 5.00 297.47 2698.81
   23:16:23.378.19-May-2020 5121.01 3572.14 67.97 5.00 297.67 2698.81
   23:16:23.578.19-May-2020 5121.01 3572.15 67.97 5.00 297.87 2698.81
   23:16:23.778.19-May-2020 5121.01 3572.13 67.97 5.00 298.07 2698.81
   23:16:23.978.19-May-2020 5121.01 3572.13 67.97 5.00 298.27 2698.81
   23:16:24.178.19-May-2020 5121.01 3572.09 67.97 5.00 298.47 2698.81
   23:16:24.378.19-May-2020 5121.01 3572.24 67.97 5.00 298.67 2698.81
   23:16:24.578.19-May-2020 5121.01 3572.24 67.97 5.00 298.87 2698.81
