~Version Information
 VERS.                  2.0:   CWLS log ASCII Standard -VERSION 2.0
 WRAP.                   NO:   One line per depth step
~Well Information Block
#MNEM.UNIT     VALUE/NAME     DESCRIPTION
#---------     -----------    ---------------------------
 STRT.S             23:11:25 19-May-20: START TIME 23:11:25 19-May-20
 STOP.S             23:19:39 19-May-20: STOP TIME  23:19:39 19-May-20
 STEP.S                   0.00: STEP TIME
 NULL.                 -999.25: NULL VALUE
 MDS .        Operator Entered:  MAG DATA SOURCE
 PDAT.          Mean Sea Level:  PERMANENT DATUM
 UNIT.                     N/A:  LOGGING EQUIPMENT ID
 DCON.         Sperry Drilling:  DIRECTNL CONTR
 DOE .                     N/A:  DOE NUMBER
 RIG .              East Azeri:  RIG NAME
 JOBN.        AZ-XX-0905856059:  JOB TICKET NUMB
 WELL.                     D36:  WELL NAME
 MWDS.                    Baku:  MWD SHOP
 SRVC.     Turan Drilling & Engineering:  CONTRACTOR
 FLD .                     ACG:  FIELD NAME
 CTRY.              Azerbaijan:  COUNTRY NAME
 PROV.                    Baku:  PROVINCE
 STAT.                    Baku:  STATE NAME
 REGN.                   EESSA:  REGION
 BASE.              Azerbaijan:  LOGGING EQUIPMENT BASE LOCATION
 UWI .                     N/A:  UNIQUE WELL IDENTIFIER
 API .                     N/A:  API NUMBER
 COMP.     BP Exploration (Caspian Sea) Ltd.:  COMPANY
 WTYP.                Deviated:  WELL TYPE
 SON .        AZ-XX-0905856059:  JOB NUMBER
 FTOP.          Formation Tops:  FORM TOPS DESC
 ILTD.               Lithology:  INTERP LTH DESC
 SVYD.                  Survey:  SURVEY DESC
 DMOD.             Drill Model:  DRILL MOD DESC
 HPTY.       Minimum Curvature:  HOLE POS TYPE
 NREF.                    Grid:  NORTH REFERENCE
 SPUD.               25-Feb-20:  SPUD DATE
 DATE.      08.55.28 01-May-20:  END TIME
 STIM.      08.55.28 25-Feb-20:  START TIME
 DMF .             Drill Floor:  DRILL MEAS FROM
 DFST.                        :  DIST FSL TEXT
 DFWT.                        :  DIST FWL TEXT
 CNTY.                        :  COUNTY
 LOC .                        :  LOCATION
 LMF .             Drill Floor:  LOG MEASURED FROM
 VSNS.m                   6.09:  VERT SEC N/S
 VSEW.m                 -10.79:  VERT SEC E/W
 AGAP.m                  43.60:  AIR GAP
 DEP .m                 388.24:  DEPTH
 APD .m                  43.60:  DEPTH ABOVE PD
 WDMS.m                 151.80:  WD ELEV
 EGL .m                   0.00:  GROUND ELEVATION
 EPD .m                   0.00:  ELEVATION
 AZTC.deg                 6.12:  AZM TOTAL CORR
 GRDC.deg                 0.30:  GRID CORRECTION
 MDEC.deg                 6.42:  MAGNETIC DECL
 MDIP.deg                59.42:  MAGNETIC DIP
 MFLD.nT              50256.00:  MAGNETIC FIELD
 GVFD.g                   1.00:  GRAVITY FIELD
 VSDR.deg               159.57:  VERT SEC DIRECT
 TDD .m                5000.01:  TOTAL DEPTH (DRILLER)
 SDEP.m                 397.00:  START DEPTH
 DFSL.m                   0.00:  DISTANCE FSL
 DFWL.m                   0.00:  DISTANCE FWL
 UTMY.m             4431880.20:  UTM Y
 UTMX.m              538763.98:  UTM X
 WHEW.m                 -10.79:  WELL HEAD E/W
 WHNS.m                   6.09:  WELL HEAD N/S
 LONG.deg                51.45:  LONGITUDE
 LATI.deg                40.02:  LATITUDE
 TVDS.m                  43.60:  TVDSS CORRECTN
 EKB .m                  43.60:  KB ELEVATION
 EDF .m                  43.60:  DF ELEVATION
 MAGU.                 1847640:  MAGUTM CHECKSUM
 VSC .                       0:  VS TO CLOSURE
~Parameter Information Block
#MNEM.UNIT       Value        Description
#---------     -----------    ---------------------------
 AV  .mps                 1.30:  Ann Velocity 
 AVMX.mps                 1.90:  Max Ann Veloc 
 AZIF.deg               115.68:  Azm, Final 
 BHAT.                   Other:  BHA Type 
 BROT.°/30m               0.74:  Build Rotating 
 BS  .in                  8.50:  Bit Size 
 BTPL.psig              430.00:  Bit Press Loss 
 CABU.                      No:  Customer Abuse 
 COMM.                     Tr}:  Run Comments 1 
 TCS .hr                 51.31:  Time Ciculation Ended 
 CV  .mps                 2.52:  Crit Velocity 
 CVMX.mps                 2.62:  Max Crit Veloc 
 DD1 .          Teymur Aghayev:  Direct Drillr 1 
 DDSV.                   Other:  DD Service 
 DEFF.%                 100.00:  % Det Eff 
 DLRX.°/30m               1.62:  Dogleg Rot Max 
 DLSO.°/30m               0.74:  Dogleg Oriented 
 DLSX.°/30m               1.62:  Dogleg Str Max 
 DRET.      04.30.56 18-May-20:  Drill End Time 
 DRST.      04.30.56 18-May-20:  Drill Start Tim 
 DTIM.hr                  0.00:  Time Drilling 
 EDEP.m                5337.01:  End Depth 
 ENG1.      Artemiy Matviyanov:  Engineer 1 
 ENG2.      Bakhtiyar Jabbarli:  Engineer 2 
 ENG3.           Emil Huseynov:  Engineer 3 
 ETIM.      18.40.00 22-May-20:  End Time 
 FLOI.gpm               550.00:  Flow In 
 FLON.gpm               350.00:  Flow In Min 
 FLOS.cptm                0.00:  Fluid Loss 
 FLOX.gpm               600.00:  Flow In Max 
 HFLO.                      No:  High Flow 
 HPRE.                      No:  High Pressure 
 HTEM.                      No:  High Temp 
 HYDO.m                   1.80:  Hydro Offset 
 IFIN.deg                67.01:  Inc, Final 
 IMAX.deg                67.49:  Inc Max 
 IMIN.deg                66.50:  Inc Min 
 IMND.m                5144.79:  Inc Min Depth 
 IMXD.m                5116.12:  Inc Max Depth 
 JARR.                      No:  Jarring 
 LETM.      17.55.56 20-May-20:  Log End Time 
 LOST.hr                     0:  Lost Rig Time 
 LSTM.      04.30.56 18-May-20:  Log Start Time 
 MDCL.ppm            193153.00:  Mud Chlorides 
 MDES.     Inversion Oil/Synthetic:  Mud Desc 
 DFD .sg                  1.40:  Mud Density 
 MDMN.sg                  1.40:  Dens Mud Min 
 MDMX.sg                  1.41:  Dens Mud Max 
 MOIL.                      68:  Run Mud Oil % 
 MOWR.                   68:32:  Run Mud OWR 
 MSND.                     0.2:  Run Mud Sand % 
 MSOL.                    18.8:  Run Mud Solids% 
 DFV .spqt               80.00:  Mud Viscosity 
 MWOD.in                  6.75:  MWD Tool OD 
 MWSI.                      No:  Serv Intrp, MWD 
 OTIM.hr                104.84:  Time Operating 
 PMAX.psia            10690.93:  Press Op, Max 
 PV  .cP                 26.00:  Mud PV 
 RUN .                     900:  Run Number 
 ROPA.m/hr                0.00:  ROP Avg 
 ROPN.m/hr                0.00:  ROP Min 
 ROPX.m/hr                0.00:  ROP Max 
 RPMA.rpm               140.00:  RPM Surface Avg 
 RPMN.rpm                70.00:  RPM Surface Min 
 RPMX.rpm               140.00:  RPM Surface Max 
 RRUN.                    0900:  Rig Run Number 
 RTIM.hr                 36.00:  Time Reaming 
 SAZI.deg               115.72:  Azm, Start 
 SDEP.m                5337.01:  Start Depth 
 SIDD.                      No:  Serv Intrp, DD 
 SINC.deg                66.92:  Inc, Start 
 SPPA.psig             4400.00:  SPP Avg 
 SPPN.psig             1135.00:  SPP Min 
 SPPX.psig             4581.00:  SPP Max 
 STIM.      04.30.56 18-May-20:  Start Time 
 SVCS.                     MWD:  Services 
 SVER.                    9.20:  Sperry Version 
 TDAT.m                5337.01:  Tot Depth Attmp 
 TDDF.                      No:  Trip for DD 
 TFF .                      No:  Trip for Fail 
 TQAA.f-kp               23.00:  Torque Abs Avg 
 TQAN.f-kp               18.00:  Torque Abs Min 
 TQAX.f-kp               25.00:  Torque Abs Max 
 TRRT.°/30m               0.74:  Turn Rotating 
 MRT .                    HCIM:  Maximum Recorded Temperature 
 TTMX.degC               76.47:  Max Tool Temp 
 WBMN.klb                 0.00:  WOB Min 
 WITN.             Anar Khalil:  Customer Rep 
 WITN.      Kamran Keberlinski:  Customer Rep 2 
 WOBA.klb                 0.00:  WOB Avg 
 WOBX.klb                 0.00:  WOB Max 
 YP  .lhf2               27.00:  Yield Point 
~Curve Information Block
#MNEM.UNIT                 API CODE     Curve Description
#---------               -----------    ---------------------------
 TIME.HHMMSS            00 000 000 000:  GT Time & Date
 GTDEPTH.m              00 000 000 000:  GT Depth
 GTPQH.psia             00 000 000 000:  GT HR Quartz Pressure
 GTTQ.degC              00 000 000 000:  GT Quartz Temperature
 GTTN.NONE              00 000 000 000:  GT Test Number
 GTET.sec               00 000 000 000:  GT Elapsed Test Time
 GTTVD.m                00 000 000 000:  GT True Vertical Depth
#Other Information
#
#WARRANTY: Halliburton will use its best efforts to furnish customers with 
#accurate information and interpretations that are part of, and incident to, the services 
#provided.  However, Halliburton cannot and does not warrant the accuracy 
#or correctness of such information and interpretations.  Under no circumstances should any 
#such information or interpretation be relied upon as the sole basis for any drilling, 
#completion, production, or financial decision or any procedure involving any risk to the 
#safety of any drilling venture, drilling rig or its crew or any other third party.  The 
#Customer has full responsibility for all drilling, completion and production operation.  
#Halliburton makes no representations or warranties, either expressed or 
#implied, including, but not limited to, the implied warranties of merchantability or fitness 
#for a particular purpose, with respect to the services rendered.  In no event will 
#Halliburton be liable for failure to obtain any particular results or for 
#any damages, including, but not limited to, indirect, special or consequential damages, 
#resulting from the use of any information or interpretation provided by Halliburton.
#
~A           TIME           GTDEPTH  GTPQH  GTTQ  GTTN  GTET   GTTVD  
# ...
   23:17:56.801.19-May-2020 5121.01 3151.43 67.96 5.00 391.10 2698.81
   23:17:57.001.19-May-2020 5121.01 3155.31 67.96 5.00 391.30 2698.81
   23:17:57.201.19-May-2020 5121.01 3160.03 67.96 5.00 391.50 2698.81
   23:17:57.401.19-May-2020 5121.01 3164.43 67.96 5.00 391.70 2698.81
   23:17:57.601.19-May-2020 5121.01 3168.79 67.96 5.00 391.90 2698.81
   23:17:57.801.19-May-2020 5121.01 3173.03 67.96 5.00 392.10 2698.81
   23:17:58.001.19-May-2020 5121.01 3173.03 67.96 5.00 392.30 2698.81
   23:17:58.202.19-May-2020 5121.01 3181.33 67.96 5.00 392.50 2698.81
   23:17:58.402.19-May-2020 5121.01 3185.98 67.96 5.00 392.70 2698.81
   23:17:58.602.19-May-2020 5121.01 3190.36 67.96 5.00 392.90 2698.81
   23:17:58.802.19-May-2020 5121.01 3194.56 67.96 5.00 393.10 2698.81
   23:17:59.002.19-May-2020 5121.01 3194.56 67.96 5.00 393.30 2698.81
   23:17:59.202.19-May-2020 5121.01 3202.94 67.96 5.00 393.50 2698.81
   23:17:59.402.19-May-2020 5121.01 3207.31 67.96 5.00 393.70 2698.81
   23:17:59.602.19-May-2020 5121.01 3211.29 67.96 5.00 393.90 2698.81
   23:17:59.802.19-May-2020 5121.01 3215.12 67.96 5.00 394.10 2698.81
   23:18:00.002.19-May-2020 5121.01 3215.12 67.96 5.00 394.30 2698.81
   23:18:00.202.19-May-2020 5121.01 3223.50 67.96 5.00 394.50 2698.81
   23:18:00.402.19-May-2020 5121.01 3227.37 67.96 5.00 394.70 2698.81
   23:18:00.602.19-May-2020 5121.01 3231.38 67.96 5.00 394.90 2698.81
   23:18:00.802.19-May-2020 5121.01 3235.11 67.96 5.00 395.10 2698.81
   23:18:01.002.19-May-2020 5121.01 3235.11 67.96 5.00 395.30 2698.81
   23:18:01.202.19-May-2020 5121.01 3242.62 67.96 5.00 395.50 2698.81
   23:18:01.402.19-May-2020 5121.01 3246.34 67.96 5.00 395.70 2698.81
   23:18:01.602.19-May-2020 5121.01 3250.00 67.96 5.00 395.90 2698.81
   23:18:01.802.19-May-2020 5121.01 3253.63 67.96 5.00 396.10 2698.81
   23:18:02.002.19-May-2020 5121.01 3253.63 67.96 5.00 396.30 2698.81
   23:18:02.203.19-May-2020 5121.01 3260.79 67.96 5.00 396.50 2698.81
   23:18:02.403.19-May-2020 5121.01 3264.34 67.96 5.00 396.70 2698.81
   23:18:02.603.19-May-2020 5121.01 3267.85 67.96 5.00 396.90 2698.81
   23:18:02.803.19-May-2020 5121.01 3271.00 67.96 5.00 397.10 2698.81
   23:18:03.003.19-May-2020 5121.01 3271.00 67.96 5.00 397.30 2698.81
   23:18:03.203.19-May-2020 5121.01 3278.54 67.96 5.00 397.50 2698.81
   23:18:03.403.19-May-2020 5121.01 3282.10 67.96 5.00 397.70 2698.81
   23:18:03.603.19-May-2020 5121.01 3285.36 67.96 5.00 397.90 2698.81
   23:18:03.803.19-May-2020 5121.01 3289.10 67.96 5.00 398.10 2698.81
   23:18:04.003.19-May-2020 5121.01 3289.10 67.96 5.00 398.30 2698.81
   23:18:04.203.19-May-2020 5121.01 3296.43 67.96 5.00 398.50 2698.81
   23:18:04.403.19-May-2020 5121.01 3299.71 67.96 5.00 398.70 2698.81
   23:18:04.603.19-May-2020 5121.01 3303.61 67.96 5.00 398.90 2698.81
   23:18:04.803.19-May-2020 5121.01 3307.25 67.96 5.00 399.10 2698.81
   23:18:05.003.19-May-2020 5121.01 3310.76 67.96 5.00 399.30 2698.81
   23:18:05.203.19-May-2020 5121.01 3314.10 67.96 5.00 399.50 2698.81
   23:18:05.403.19-May-2020 5121.01 3317.11 67.96 5.00 399.70 2698.81
   23:18:05.603.19-May-2020 5121.01 3320.79 67.96 5.00 399.90 2698.81
   23:18:05.803.19-May-2020 5121.01 3324.36 67.96 5.00 400.10 2698.81
   23:18:06.003.19-May-2020 5121.01 3324.36 67.96 5.00 400.30 2698.81
   23:18:06.204.19-May-2020 5121.01 3330.93 67.96 5.00 400.50 2698.81
   23:18:06.404.19-May-2020 5121.01 3334.07 67.96 5.00 400.70 2698.81
   23:18:06.604.19-May-2020 5121.01 3336.99 67.96 5.00 400.90 2698.81
   23:18:06.804.19-May-2020 5121.01 3340.69 67.96 5.00 401.10 2698.81
   23:18:07.004.19-May-2020 5121.01 3340.69 67.96 5.00 401.30 2698.81
   23:18:07.204.19-May-2020 5121.01 3347.19 67.96 5.00 401.50 2698.81
   23:18:07.404.19-May-2020 5121.01 3350.51 67.96 5.00 401.70 2698.81
   23:18:07.604.19-May-2020 5121.01 3353.49 67.96 5.00 401.90 2698.81
   23:18:07.804.19-May-2020 5121.01 3356.54 67.96 5.00 402.10 2698.81
   23:18:08.004.19-May-2020 5121.01 3356.54 67.96 5.00 402.30 2698.81
   23:18:08.204.19-May-2020 5121.01 3362.42 67.96 5.00 402.50 2698.81
   23:18:08.404.19-May-2020 5121.01 3365.42 67.96 5.00 402.70 2698.81
   23:18:08.604.19-May-2020 5121.01 3368.30 67.96 5.00 402.90 2698.81
   23:18:08.804.19-May-2020 5121.01 3371.14 67.96 5.00 403.10 2698.81
   23:18:09.004.19-May-2020 5121.01 3373.98 67.96 5.00 403.30 2698.81
   23:18:09.204.19-May-2020 5121.01 3376.77 67.96 5.00 403.50 2698.81
   23:18:09.404.19-May-2020 5121.01 3379.59 67.96 5.00 403.70 2698.81
   23:18:09.604.19-May-2020 5121.01 3381.96 67.96 5.00 403.90 2698.81
   23:18:09.804.19-May-2020 5121.01 3384.98 67.96 5.00 404.10 2698.81
   23:18:10.004.19-May-2020 5121.01 3384.98 67.96 5.00 404.30 2698.81
   23:18:10.204.19-May-2020 5121.01 3390.71 67.96 5.00 404.50 2698.81
   23:18:10.405.19-May-2020 5121.01 3393.27 67.96 5.00 404.70 2698.81
   23:18:10.605.19-May-2020 5121.01 3396.12 67.96 5.00 404.90 2698.81
   23:18:10.805.19-May-2020 5121.01 3399.02 67.96 5.00 405.10 2698.81
   23:18:11.005.19-May-2020 5121.01 3399.02 67.96 5.00 405.30 2698.81
   23:18:11.205.19-May-2020 5121.01 3404.42 67.96 5.00 405.50 2698.81
   23:18:11.405.19-May-2020 5121.01 3406.98 67.96 5.00 405.70 2698.81
   23:18:11.605.19-May-2020 5121.01 3409.17 67.96 5.00 405.90 2698.81
   23:18:11.805.19-May-2020 5121.01 3412.17 67.96 5.00 406.10 2698.81
   23:18:12.005.19-May-2020 5121.01 3412.17 67.96 5.00 406.30 2698.81
   23:18:12.205.19-May-2020 5121.01 3417.47 67.96 5.00 406.50 2698.81
   23:18:12.405.19-May-2020 5121.01 3420.00 67.96 5.00 406.70 2698.81
   23:18:12.605.19-May-2020 5121.01 3422.25 67.96 5.00 406.90 2698.81
   23:18:12.805.19-May-2020 5121.01 3425.11 67.96 5.00 407.10 2698.81
   23:18:13.005.19-May-2020 5121.01 3425.11 67.96 5.00 407.30 2698.81
   23:18:13.205.19-May-2020 5121.01 3430.18 67.96 5.00 407.50 2698.81
   23:18:13.405.19-May-2020 5121.01 3432.33 67.96 5.00 407.70 2698.81
   23:18:13.605.19-May-2020 5121.01 3435.05 67.96 5.00 407.90 2698.81
   23:18:13.805.19-May-2020 5121.01 3437.53 67.96 5.00 408.10 2698.81
   23:18:14.005.19-May-2020 5121.01 3437.53 67.96 5.00 408.30 2698.81
   23:18:14.205.19-May-2020 5121.01 3442.26 67.96 5.00 408.50 2698.81
   23:18:14.406.19-May-2020 5121.01 3444.57 67.96 5.00 408.70 2698.81
   23:18:14.606.19-May-2020 5121.01 3446.71 67.96 5.00 408.90 2698.81
   23:18:14.806.19-May-2020 5121.01 3448.97 67.96 5.00 409.10 2698.81
   23:18:15.006.19-May-2020 5121.01 3448.97 67.96 5.00 409.30 2698.81
   23:18:15.206.19-May-2020 5121.01 3453.27 67.96 5.00 409.50 2698.81
   23:18:15.406.19-May-2020 5121.01 3455.50 67.96 5.00 409.70 2698.81
   23:18:15.606.19-May-2020 5121.01 3457.56 67.96 5.00 409.90 2698.81
   23:18:15.806.19-May-2020 5121.01 3459.62 67.96 5.00 410.10 2698.81
   23:18:16.006.19-May-2020 5121.01 3459.62 67.96 5.00 410.30 2698.81
   23:18:16.206.19-May-2020 5121.01 3463.69 67.96 5.00 410.50 2698.81
   23:18:16.406.19-May-2020 5121.01 3465.44 67.96 5.00 410.70 2698.81
   23:18:16.606.19-May-2020 5121.01 3467.68 67.96 5.00 410.90 2698.81
   23:18:16.806.19-May-2020 5121.01 3470.15 67.96 5.00 411.10 2698.81
   23:18:17.006.19-May-2020 5121.01 3472.56 67.96 5.00 411.30 2698.81
   23:18:17.206.19-May-2020 5121.01 3474.57 67.96 5.00 411.50 2698.81
   23:18:17.406.19-May-2020 5121.01 3476.60 67.96 5.00 411.70 2698.81
   23:18:17.606.19-May-2020 5121.01 3478.88 67.96 5.00 411.90 2698.81
   23:18:17.806.19-May-2020 5121.01 3481.04 67.96 5.00 412.10 2698.81
   23:18:18.006.19-May-2020 5121.01 3481.04 67.96 5.00 412.30 2698.81
   23:18:18.206.19-May-2020 5121.01 3484.82 67.96 5.00 412.50 2698.81
   23:18:18.407.19-May-2020 5121.01 3487.00 67.96 5.00 412.70 2698.81
   23:18:18.607.19-May-2020 5121.01 3489.18 67.96 5.00 412.90 2698.81
   23:18:18.807.19-May-2020 5121.01 3491.33 67.96 5.00 413.10 2698.81
   23:18:19.007.19-May-2020 5121.01 3491.33 67.96 5.00 413.30 2698.81
   23:18:19.207.19-May-2020 5121.01 3495.26 67.96 5.00 413.50 2698.81
   23:18:19.407.19-May-2020 5121.01 3497.34 67.96 5.00 413.70 2698.81
   23:18:19.607.19-May-2020 5121.01 3499.14 67.96 5.00 413.90 2698.81
