~Version Information
 VERS.                  2.0:   CWLS log ASCII Standard -VERSION 2.0
 WRAP.                   NO:   One line per depth step
~Well Information Block
#MNEM.UNIT     VALUE/NAME     DESCRIPTION
#---------     -----------    ---------------------------
 STRT.S             06:41:15 20-May-20: START TIME 06:41:15 20-May-20
 STOP.S             06:51:49 20-May-20: STOP TIME  06:51:49 20-May-20
 STEP.S                   0.00: STEP TIME
 NULL.                 -999.25: NULL VALUE
 MDS .        Operator Entered:  MAG DATA SOURCE
 PDAT.          Mean Sea Level:  PERMANENT DATUM
 UNIT.                     N/A:  LOGGING EQUIPMENT ID
 DCON.         Sperry Drilling:  DIRECTNL CONTR
 DOE .                     N/A:  DOE NUMBER
 RIG .              East Azeri:  RIG NAME
 JOBN.        AZ-XX-0905856059:  JOB TICKET NUMB
 WELL.                     D36:  WELL NAME
 MWDS.                    Baku:  MWD SHOP
 SRVC.     Turan Drilling & Engineering:  CONTRACTOR
 FLD .                     ACG:  FIELD NAME
 CTRY.              Azerbaijan:  COUNTRY NAME
 PROV.                    Baku:  PROVINCE
 STAT.                    Baku:  STATE NAME
 REGN.                   EESSA:  REGION
 BASE.              Azerbaijan:  LOGGING EQUIPMENT BASE LOCATION
 UWI .                     N/A:  UNIQUE WELL IDENTIFIER
 API .                     N/A:  API NUMBER
 COMP.     BP Exploration (Caspian Sea) Ltd.:  COMPANY
 WTYP.                Deviated:  WELL TYPE
 SON .        AZ-XX-0905856059:  JOB NUMBER
 FTOP.          Formation Tops:  FORM TOPS DESC
 ILTD.               Lithology:  INTERP LTH DESC
 SVYD.                  Survey:  SURVEY DESC
 DMOD.             Drill Model:  DRILL MOD DESC
 HPTY.       Minimum Curvature:  HOLE POS TYPE
 NREF.                    Grid:  NORTH REFERENCE
 SPUD.               25-Feb-20:  SPUD DATE
 DATE.      08.55.28 01-May-20:  END TIME
 STIM.      08.55.28 25-Feb-20:  START TIME
 DMF .             Drill Floor:  DRILL MEAS FROM
 DFST.                        :  DIST FSL TEXT
 DFWT.                        :  DIST FWL TEXT
 CNTY.                        :  COUNTY
 LOC .                        :  LOCATION
 LMF .             Drill Floor:  LOG MEASURED FROM
 VSNS.m                   6.09:  VERT SEC N/S
 VSEW.m                 -10.79:  VERT SEC E/W
 AGAP.m                  43.60:  AIR GAP
 DEP .m                 388.24:  DEPTH
 APD .m                  43.60:  DEPTH ABOVE PD
 WDMS.m                 151.80:  WD ELEV
 EGL .m                   0.00:  GROUND ELEVATION
 EPD .m                   0.00:  ELEVATION
 AZTC.deg                 6.12:  AZM TOTAL CORR
 GRDC.deg                 0.30:  GRID CORRECTION
 MDEC.deg                 6.42:  MAGNETIC DECL
 MDIP.deg                59.42:  MAGNETIC DIP
 MFLD.nT              50256.00:  MAGNETIC FIELD
 GVFD.g                   1.00:  GRAVITY FIELD
 VSDR.deg               159.57:  VERT SEC DIRECT
 TDD .m                5000.01:  TOTAL DEPTH (DRILLER)
 SDEP.m                 397.00:  START DEPTH
 DFSL.m                   0.00:  DISTANCE FSL
 DFWL.m                   0.00:  DISTANCE FWL
 UTMY.m             4431880.20:  UTM Y
 UTMX.m              538763.98:  UTM X
 WHEW.m                 -10.79:  WELL HEAD E/W
 WHNS.m                   6.09:  WELL HEAD N/S
 LONG.deg                51.45:  LONGITUDE
 LATI.deg                40.02:  LATITUDE
 TVDS.m                  43.60:  TVDSS CORRECTN
 EKB .m                  43.60:  KB ELEVATION
 EDF .m                  43.60:  DF ELEVATION
 MAGU.                 1847640:  MAGUTM CHECKSUM
 VSC .                       0:  VS TO CLOSURE
~Parameter Information Block
#MNEM.UNIT       Value        Description
#---------     -----------    ---------------------------
 AV  .mps                 1.30:  Ann Velocity 
 AVMX.mps                 1.90:  Max Ann Veloc 
 AZIF.deg               115.68:  Azm, Final 
 BHAT.                   Other:  BHA Type 
 BROT.°/30m               0.74:  Build Rotating 
 BS  .in                  8.50:  Bit Size 
 BTPL.psig              430.00:  Bit Press Loss 
 CABU.                      No:  Customer Abuse 
 COMM.                     œÿv:  Run Comments 1 
 TCS .hr                 51.31:  Time Ciculation Ended 
 CV  .mps                 2.52:  Crit Velocity 
 CVMX.mps                 2.62:  Max Crit Veloc 
 DD1 .          Teymur Aghayev:  Direct Drillr 1 
 DDSV.                   Other:  DD Service 
 DEFF.%                 100.00:  % Det Eff 
 DLRX.°/30m               1.62:  Dogleg Rot Max 
 DLSO.°/30m               0.74:  Dogleg Oriented 
 DLSX.°/30m               1.62:  Dogleg Str Max 
 DRET.      04.30.56 18-May-20:  Drill End Time 
 DRST.      04.30.56 18-May-20:  Drill Start Tim 
 DTIM.hr                  0.00:  Time Drilling 
 EDEP.m                5337.01:  End Depth 
 ENG1.      Artemiy Matviyanov:  Engineer 1 
 ENG2.      Bakhtiyar Jabbarli:  Engineer 2 
 ENG3.           Emil Huseynov:  Engineer 3 
 ETIM.      18.40.00 22-May-20:  End Time 
 FLOI.gpm               550.00:  Flow In 
 FLON.gpm               350.00:  Flow In Min 
 FLOS.cptm                0.00:  Fluid Loss 
 FLOX.gpm               600.00:  Flow In Max 
 HFLO.                      No:  High Flow 
 HPRE.                      No:  High Pressure 
 HTEM.                      No:  High Temp 
 HYDO.m                   1.80:  Hydro Offset 
 IFIN.deg                67.01:  Inc, Final 
 IMAX.deg                67.49:  Inc Max 
 IMIN.deg                66.50:  Inc Min 
 IMND.m                5144.79:  Inc Min Depth 
 IMXD.m                5116.12:  Inc Max Depth 
 JARR.                      No:  Jarring 
 LETM.      17.55.56 20-May-20:  Log End Time 
 LOST.hr                     0:  Lost Rig Time 
 LSTM.      04.30.56 18-May-20:  Log Start Time 
 MDCL.ppm            193153.00:  Mud Chlorides 
 MDES.     Inversion Oil/Synthetic:  Mud Desc 
 DFD .sg                  1.40:  Mud Density 
 MDMN.sg                  1.40:  Dens Mud Min 
 MDMX.sg                  1.41:  Dens Mud Max 
 MOIL.                      68:  Run Mud Oil % 
 MOWR.                   68:32:  Run Mud OWR 
 MSND.                     0.2:  Run Mud Sand % 
 MSOL.                    18.8:  Run Mud Solids% 
 DFV .spqt               80.00:  Mud Viscosity 
 MWOD.in                  6.75:  MWD Tool OD 
 MWSI.                      No:  Serv Intrp, MWD 
 OTIM.hr                104.84:  Time Operating 
 PMAX.psia            10690.93:  Press Op, Max 
 PV  .cP                 26.00:  Mud PV 
 RUN .                     900:  Run Number 
 ROPA.m/hr                0.00:  ROP Avg 
 ROPN.m/hr                0.00:  ROP Min 
 ROPX.m/hr                0.00:  ROP Max 
 RPMA.rpm               140.00:  RPM Surface Avg 
 RPMN.rpm                70.00:  RPM Surface Min 
 RPMX.rpm               140.00:  RPM Surface Max 
 RRUN.                    0900:  Rig Run Number 
 RTIM.hr                 36.00:  Time Reaming 
 SAZI.deg               115.72:  Azm, Start 
 SDEP.m                5337.01:  Start Depth 
 SIDD.                      No:  Serv Intrp, DD 
 SINC.deg                66.92:  Inc, Start 
 SPPA.psig             4400.00:  SPP Avg 
 SPPN.psig             1135.00:  SPP Min 
 SPPX.psig             4581.00:  SPP Max 
 STIM.      04.30.56 18-May-20:  Start Time 
 SVCS.                     MWD:  Services 
 SVER.                    9.20:  Sperry Version 
 TDAT.m                5337.01:  Tot Depth Attmp 
 TDDF.                      No:  Trip for DD 
 TFF .                      No:  Trip for Fail 
 TQAA.f-kp               23.00:  Torque Abs Avg 
 TQAN.f-kp               18.00:  Torque Abs Min 
 TQAX.f-kp               25.00:  Torque Abs Max 
 TRRT.°/30m               0.74:  Turn Rotating 
 MRT .                    HCIM:  Maximum Recorded Temperature 
 TTMX.degC               76.47:  Max Tool Temp 
 WBMN.klb                 0.00:  WOB Min 
 WITN.             Anar Khalil:  Customer Rep 
 WITN.      Kamran Keberlinski:  Customer Rep 2 
 WOBA.klb                 0.00:  WOB Avg 
 WOBX.klb                 0.00:  WOB Max 
 YP  .lhf2               27.00:  Yield Point 
~Curve Information Block
#MNEM.UNIT                 API CODE     Curve Description
#---------               -----------    ---------------------------
 TIME.HHMMSS            00 000 000 000:  GT Time & Date
 GTDEPTH.m              00 000 000 000:  GT Depth
 GTPQH.psia             00 000 000 000:  GT HR Quartz Pressure
 GTTQ.degC              00 000 000 000:  GT Quartz Temperature
 GTTN.NONE              00 000 000 000:  GT Test Number
 GTET.sec               00 000 000 000:  GT Elapsed Test Time
 GTTVD.m                00 000 000 000:  GT True Vertical Depth
#Other Information
#
#WARRANTY: Halliburton will use its best efforts to furnish customers with 
#accurate information and interpretations that are part of, and incident to, the services 
#provided.  However, Halliburton cannot and does not warrant the accuracy 
#or correctness of such information and interpretations.  Under no circumstances should any 
#such information or interpretation be relied upon as the sole basis for any drilling, 
#completion, production, or financial decision or any procedure involving any risk to the 
#safety of any drilling venture, drilling rig or its crew or any other third party.  The 
#Customer has full responsibility for all drilling, completion and production operation.  
#Halliburton makes no representations or warranties, either expressed or 
#implied, including, but not limited to, the implied warranties of merchantability or fitness 
#for a particular purpose, with respect to the services rendered.  In no event will 
#Halliburton be liable for failure to obtain any particular results or for 
#any damages, including, but not limited to, indirect, special or consequential damages, 
#resulting from the use of any information or interpretation provided by Halliburton.
#
~A           TIME           GTDEPTH  GTPQH  GTTQ  GTTN   GTET   GTTVD  
# ...
   06:43:54.166.20-May-2020 5012.01 2902.76 68.10 10.00 158.24 2656.39
   06:43:54.366.20-May-2020 5012.01 2902.80 68.10 10.00 158.44 2656.39
   06:43:54.566.20-May-2020 5012.01 2902.80 68.10 10.00 158.64 2656.39
   06:43:54.766.20-May-2020 5012.01 2902.78 68.10 10.00 158.84 2656.39
   06:43:54.966.20-May-2020 5012.01 2902.80 68.10 10.00 159.04 2656.39
   06:43:55.166.20-May-2020 5012.01 2902.80 68.10 10.00 159.25 2656.39
   06:43:55.366.20-May-2020 5012.01 2902.80 68.10 10.00 159.45 2656.39
   06:43:55.566.20-May-2020 5012.01 2902.80 68.10 10.00 159.65 2656.39
   06:43:55.766.20-May-2020 5012.01 2902.83 68.10 10.00 159.85 2656.39
   06:43:55.966.20-May-2020 5012.01 2902.82 68.10 10.00 160.05 2656.39
   06:43:56.166.20-May-2020 5012.01 2902.82 68.10 10.00 160.25 2656.39
   06:43:56.366.20-May-2020 5012.01 2902.81 68.10 10.00 160.45 2656.39
   06:43:56.566.20-May-2020 5012.01 2902.98 68.10 10.00 160.65 2656.39
   06:43:56.766.20-May-2020 5012.01 2903.03 68.10 10.00 160.85 2656.39
   06:43:56.966.20-May-2020 5012.01 2902.85 68.10 10.00 161.05 2656.39
   06:43:57.166.20-May-2020 5012.01 2902.85 68.10 10.00 161.25 2656.39
   06:43:57.366.20-May-2020 5012.01 2903.35 68.10 10.00 161.45 2656.39
   06:43:57.566.20-May-2020 5012.01 2902.83 68.10 10.00 161.65 2656.39
   06:43:57.767.20-May-2020 5012.01 2902.76 68.10 10.00 161.85 2656.39
   06:43:57.967.20-May-2020 5012.01 2902.79 68.10 10.00 162.05 2656.39
   06:43:58.167.20-May-2020 5012.01 2902.79 68.10 10.00 162.25 2656.39
   06:43:58.367.20-May-2020 5012.01 2902.82 68.10 10.00 162.45 2656.39
   06:43:58.567.20-May-2020 5012.01 2902.76 68.10 10.00 162.65 2656.39
   06:43:58.767.20-May-2020 5012.01 2902.78 68.10 10.00 162.85 2656.39
   06:43:58.967.20-May-2020 5012.01 2902.80 68.10 10.00 163.05 2656.39
   06:43:59.167.20-May-2020 5012.01 2902.80 68.10 10.00 163.25 2656.39
   06:43:59.367.20-May-2020 5012.01 2902.74 68.10 10.00 163.45 2656.39
   06:43:59.567.20-May-2020 5012.01 2902.80 68.10 10.00 163.65 2656.39
   06:43:59.767.20-May-2020 5012.01 2902.78 68.10 10.00 163.85 2656.39
   06:43:59.967.20-May-2020 5012.01 2902.75 68.10 10.00 164.05 2656.39
   06:44:00.167.20-May-2020 5012.01 2902.75 68.10 10.00 164.25 2656.39
   06:44:00.367.20-May-2020 5012.01 2902.77 68.10 10.00 164.45 2656.39
   06:44:00.567.20-May-2020 5012.01 2902.84 68.10 10.00 164.65 2656.39
   06:44:00.767.20-May-2020 5012.01 2902.71 68.10 10.00 164.85 2656.39
   06:44:00.967.20-May-2020 5012.01 2902.75 68.10 10.00 165.05 2656.39
   06:44:01.167.20-May-2020 5012.01 2902.75 68.10 10.00 165.25 2656.39
   06:44:01.368.20-May-2020 5012.01 2902.81 68.10 10.00 165.45 2656.39
   06:44:01.568.20-May-2020 5012.01 2902.77 68.10 10.00 165.65 2656.39
   06:44:01.768.20-May-2020 5012.01 2902.76 68.10 10.00 165.85 2656.39
   06:44:01.968.20-May-2020 5012.01 2902.79 68.10 10.00 166.05 2656.39
   06:44:02.168.20-May-2020 5012.01 2902.78 68.10 10.00 166.25 2656.39
   06:44:02.368.20-May-2020 5012.01 2902.78 68.10 10.00 166.45 2656.39
   06:44:02.568.20-May-2020 5012.01 2902.78 68.10 10.00 166.65 2656.39
   06:44:02.768.20-May-2020 5012.01 2902.79 68.10 10.00 166.85 2656.39
   06:44:02.968.20-May-2020 5012.01 2902.81 68.10 10.00 167.05 2656.39
   06:44:03.168.20-May-2020 5012.01 2902.81 68.10 10.00 167.25 2656.39
   06:44:03.368.20-May-2020 5012.01 2902.80 68.10 10.00 167.45 2656.39
   06:44:03.568.20-May-2020 5012.01 2902.79 68.10 10.00 167.65 2656.39
   06:44:03.768.20-May-2020 5012.01 2903.10 68.10 10.00 167.85 2656.39
   06:44:03.968.20-May-2020 5012.01 2902.80 68.10 10.00 168.05 2656.39
   06:44:04.168.20-May-2020 5012.01 2902.80 68.10 10.00 168.25 2656.39
   06:44:04.368.20-May-2020 5012.01 2903.05 68.10 10.00 168.45 2656.39
   06:44:04.568.20-May-2020 5012.01 2903.00 68.10 10.00 168.65 2656.39
   06:44:04.769.20-May-2020 5012.01 2902.81 68.10 10.00 168.85 2656.39
   06:44:04.969.20-May-2020 5012.01 2902.77 68.10 10.00 169.05 2656.39
   06:44:05.169.20-May-2020 5012.01 2902.77 68.10 10.00 169.25 2656.39
   06:44:05.369.20-May-2020 5012.01 2902.74 68.10 10.00 169.45 2656.39
   06:44:05.569.20-May-2020 5012.01 2902.71 68.10 10.00 169.65 2656.39
   06:44:05.769.20-May-2020 5012.01 2902.76 68.10 10.00 169.85 2656.39
   06:44:05.969.20-May-2020 5012.01 2902.82 68.10 10.00 170.05 2656.39
   06:44:06.169.20-May-2020 5012.01 2902.72 68.10 10.00 170.25 2656.39
   06:44:06.369.20-May-2020 5012.01 2902.69 68.10 10.00 170.45 2656.39
   06:44:06.569.20-May-2020 5012.01 2902.85 68.10 10.00 170.65 2656.39
   06:44:06.769.20-May-2020 5012.01 2902.73 68.10 10.00 170.85 2656.39
   06:44:06.969.20-May-2020 5012.01 2902.77 68.10 10.00 171.05 2656.39
   06:44:07.169.20-May-2020 5012.01 2902.77 68.10 10.00 171.25 2656.39
   06:44:07.369.20-May-2020 5012.01 2902.72 68.10 10.00 171.45 2656.39
   06:44:07.569.20-May-2020 5012.01 2902.73 68.10 10.00 171.65 2656.39
   06:44:07.769.20-May-2020 5012.01 2902.74 68.10 10.00 171.85 2656.39
   06:44:07.969.20-May-2020 5012.01 2902.79 68.10 10.00 172.05 2656.39
   06:44:08.169.20-May-2020 5012.01 2902.79 68.10 10.00 172.25 2656.39
   06:44:08.370.20-May-2020 5012.01 2902.79 68.10 10.00 172.45 2656.39
   06:44:08.570.20-May-2020 5012.01 2902.74 68.10 10.00 172.65 2656.39
   06:44:08.770.20-May-2020 5012.01 2902.73 68.10 10.00 172.85 2656.39
   06:44:08.970.20-May-2020 5012.01 2902.78 68.10 10.00 173.05 2656.39
   06:44:09.170.20-May-2020 5012.01 2902.78 68.10 10.00 173.25 2656.39
   06:44:09.370.20-May-2020 5012.01 2902.75 68.10 10.00 173.45 2656.39
   06:44:09.570.20-May-2020 5012.01 2902.75 68.10 10.00 173.65 2656.39
   06:44:09.770.20-May-2020 5012.01 2902.77 68.10 10.00 173.85 2656.39
   06:44:09.970.20-May-2020 5012.01 2902.78 68.10 10.00 174.05 2656.39
   06:44:10.170.20-May-2020 5012.01 2902.76 68.10 10.00 174.25 2656.39
   06:44:10.370.20-May-2020 5012.01 2902.78 68.10 10.00 174.45 2656.39
   06:44:10.570.20-May-2020 5012.01 2902.67 68.10 10.00 174.65 2656.39
   06:44:10.770.20-May-2020 5012.01 2903.11 68.10 10.00 174.85 2656.39
   06:44:10.970.20-May-2020 5012.01 2902.80 68.10 10.00 175.05 2656.39
   06:44:11.170.20-May-2020 5012.01 2902.80 68.10 10.00 175.25 2656.39
   06:44:11.370.20-May-2020 5012.01 2902.88 68.10 10.00 175.45 2656.39
   06:44:11.570.20-May-2020 5012.01 2903.21 68.10 10.00 175.65 2656.39
   06:44:11.770.20-May-2020 5012.01 2902.79 68.10 10.00 175.85 2656.39
   06:44:11.971.20-May-2020 5012.01 2902.79 68.10 10.00 176.05 2656.39
   06:44:12.171.20-May-2020 5012.01 2902.79 68.10 10.00 176.25 2656.39
   06:44:12.371.20-May-2020 5012.01 2902.85 68.10 10.00 176.45 2656.39
   06:44:12.571.20-May-2020 5012.01 2902.78 68.10 10.00 176.65 2656.39
   06:44:12.771.20-May-2020 5012.01 2902.73 68.10 10.00 176.85 2656.39
   06:44:12.971.20-May-2020 5012.01 2902.83 68.10 10.00 177.05 2656.39
   06:44:13.171.20-May-2020 5012.01 2902.83 68.10 10.00 177.25 2656.39
   06:44:13.371.20-May-2020 5012.01 2902.60 68.10 10.00 177.45 2656.39
   06:44:13.571.20-May-2020 5012.01 2902.91 68.10 10.00 177.65 2656.39
   06:44:13.771.20-May-2020 5012.01 2902.72 68.10 10.00 177.85 2656.39
   06:44:13.971.20-May-2020 5012.01 2902.70 68.10 10.00 178.05 2656.39
   06:44:14.171.20-May-2020 5012.01 2902.77 68.10 10.00 178.25 2656.39
   06:44:14.371.20-May-2020 5012.01 2902.68 68.10 10.00 178.45 2656.39
   06:44:14.571.20-May-2020 5012.01 2902.70 68.10 10.00 178.65 2656.39
   06:44:14.771.20-May-2020 5012.01 2902.78 68.10 10.00 178.85 2656.39
   06:44:14.971.20-May-2020 5012.01 2902.73 68.10 10.00 179.05 2656.39
   06:44:15.171.20-May-2020 5012.01 2902.73 68.10 10.00 179.25 2656.39
   06:44:15.372.20-May-2020 5012.01 2902.74 68.10 10.00 179.45 2656.39
   06:44:15.572.20-May-2020 5012.01 2902.68 68.10 10.00 179.65 2656.39
   06:44:15.772.20-May-2020 5012.01 2902.73 68.10 10.00 179.85 2656.39
   06:44:15.972.20-May-2020 5012.01 2902.73 68.10 10.00 180.05 2656.39
   06:44:16.172.20-May-2020 5012.01 2902.73 68.10 10.00 180.25 2656.39
   06:44:16.372.20-May-2020 5012.01 2902.73 68.10 10.00 180.45 2656.39
   06:44:16.572.20-May-2020 5012.01 2902.73 68.10 10.00 180.65 2656.39
