~Version Information
 VERS.                  2.0:   CWLS log ASCII Standard -VERSION 2.0
 WRAP.                   NO:   One line per depth step
~Well Information Block
#MNEM.UNIT     VALUE/NAME     DESCRIPTION
#---------     -----------    ---------------------------
 STRT.S             22:24:43 19-May-20: START TIME 22:24:43 19-May-20
 STOP.S             22:33:01 19-May-20: STOP TIME  22:33:01 19-May-20
 STEP.S                   0.00: STEP TIME
 NULL.                 -999.25: NULL VALUE
 MDS .        Operator Entered:  MAG DATA SOURCE
 PDAT.          Mean Sea Level:  PERMANENT DATUM
 UNIT.                     N/A:  LOGGING EQUIPMENT ID
 DCON.         Sperry Drilling:  DIRECTNL CONTR
 DOE .                     N/A:  DOE NUMBER
 RIG .              East Azeri:  RIG NAME
 JOBN.        AZ-XX-0905856059:  JOB TICKET NUMB
 WELL.                     D36:  WELL NAME
 MWDS.                    Baku:  MWD SHOP
 SRVC.     Turan Drilling & Engineering:  CONTRACTOR
 FLD .                     ACG:  FIELD NAME
 CTRY.              Azerbaijan:  COUNTRY NAME
 PROV.                    Baku:  PROVINCE
 STAT.                    Baku:  STATE NAME
 REGN.                   EESSA:  REGION
 BASE.              Azerbaijan:  LOGGING EQUIPMENT BASE LOCATION
 UWI .                     N/A:  UNIQUE WELL IDENTIFIER
 API .                     N/A:  API NUMBER
 COMP.     BP Exploration (Caspian Sea) Ltd.:  COMPANY
 WTYP.                Deviated:  WELL TYPE
 SON .        AZ-XX-0905856059:  JOB NUMBER
 FTOP.          Formation Tops:  FORM TOPS DESC
 ILTD.               Lithology:  INTERP LTH DESC
 SVYD.                  Survey:  SURVEY DESC
 DMOD.             Drill Model:  DRILL MOD DESC
 HPTY.       Minimum Curvature:  HOLE POS TYPE
 NREF.                    Grid:  NORTH REFERENCE
 SPUD.               25-Feb-20:  SPUD DATE
 DATE.      08.55.28 01-May-20:  END TIME
 STIM.      08.55.28 25-Feb-20:  START TIME
 DMF .             Drill Floor:  DRILL MEAS FROM
 DFST.                        :  DIST FSL TEXT
 DFWT.                        :  DIST FWL TEXT
 CNTY.                        :  COUNTY
 LOC .                        :  LOCATION
 LMF .             Drill Floor:  LOG MEASURED FROM
 VSNS.m                   6.09:  VERT SEC N/S
 VSEW.m                 -10.79:  VERT SEC E/W
 AGAP.m                  43.60:  AIR GAP
 DEP .m                 388.24:  DEPTH
 APD .m                  43.60:  DEPTH ABOVE PD
 WDMS.m                 151.80:  WD ELEV
 EGL .m                   0.00:  GROUND ELEVATION
 EPD .m                   0.00:  ELEVATION
 AZTC.deg                 6.12:  AZM TOTAL CORR
 GRDC.deg                 0.30:  GRID CORRECTION
 MDEC.deg                 6.42:  MAGNETIC DECL
 MDIP.deg                59.42:  MAGNETIC DIP
 MFLD.nT              50256.00:  MAGNETIC FIELD
 GVFD.g                   1.00:  GRAVITY FIELD
 VSDR.deg               159.57:  VERT SEC DIRECT
 TDD .m                5000.01:  TOTAL DEPTH (DRILLER)
 SDEP.m                 397.00:  START DEPTH
 DFSL.m                   0.00:  DISTANCE FSL
 DFWL.m                   0.00:  DISTANCE FWL
 UTMY.m             4431880.20:  UTM Y
 UTMX.m              538763.98:  UTM X
 WHEW.m                 -10.79:  WELL HEAD E/W
 WHNS.m                   6.09:  WELL HEAD N/S
 LONG.deg                51.45:  LONGITUDE
 LATI.deg                40.02:  LATITUDE
 TVDS.m                  43.60:  TVDSS CORRECTN
 EKB .m                  43.60:  KB ELEVATION
 EDF .m                  43.60:  DF ELEVATION
 MAGU.                 1847640:  MAGUTM CHECKSUM
 VSC .                       0:  VS TO CLOSURE
~Parameter Information Block
#MNEM.UNIT       Value        Description
#---------     -----------    ---------------------------
 AV  .mps                 1.30:  Ann Velocity 
 AVMX.mps                 1.90:  Max Ann Veloc 
 AZIF.deg               115.68:  Azm, Final 
 BHAT.                   Other:  BHA Type 
 BROT.°/30m               0.74:  Build Rotating 
 BS  .in                  8.50:  Bit Size 
 BTPL.psig              430.00:  Bit Press Loss 
 CABU.                      No:  Customer Abuse 
 COMM.                     ”le:  Run Comments 1 
 TCS .hr                 51.31:  Time Ciculation Ended 
 CV  .mps                 2.52:  Crit Velocity 
 CVMX.mps                 2.62:  Max Crit Veloc 
 DD1 .          Teymur Aghayev:  Direct Drillr 1 
 DDSV.                   Other:  DD Service 
 DEFF.%                 100.00:  % Det Eff 
 DLRX.°/30m               1.62:  Dogleg Rot Max 
 DLSO.°/30m               0.74:  Dogleg Oriented 
 DLSX.°/30m               1.62:  Dogleg Str Max 
 DRET.      04.30.56 18-May-20:  Drill End Time 
 DRST.      04.30.56 18-May-20:  Drill Start Tim 
 DTIM.hr                  0.00:  Time Drilling 
 EDEP.m                5337.01:  End Depth 
 ENG1.      Artemiy Matviyanov:  Engineer 1 
 ENG2.      Bakhtiyar Jabbarli:  Engineer 2 
 ENG3.           Emil Huseynov:  Engineer 3 
 ETIM.      18.40.00 22-May-20:  End Time 
 FLOI.gpm               550.00:  Flow In 
 FLON.gpm               350.00:  Flow In Min 
 FLOS.cptm                0.00:  Fluid Loss 
 FLOX.gpm               600.00:  Flow In Max 
 HFLO.                      No:  High Flow 
 HPRE.                      No:  High Pressure 
 HTEM.                      No:  High Temp 
 HYDO.m                   1.80:  Hydro Offset 
 IFIN.deg                67.01:  Inc, Final 
 IMAX.deg                67.49:  Inc Max 
 IMIN.deg                66.50:  Inc Min 
 IMND.m                5144.79:  Inc Min Depth 
 IMXD.m                5116.12:  Inc Max Depth 
 JARR.                      No:  Jarring 
 LETM.      17.55.56 20-May-20:  Log End Time 
 LOST.hr                     0:  Lost Rig Time 
 LSTM.      04.30.56 18-May-20:  Log Start Time 
 MDCL.ppm            193153.00:  Mud Chlorides 
 MDES.     Inversion Oil/Synthetic:  Mud Desc 
 DFD .sg                  1.40:  Mud Density 
 MDMN.sg                  1.40:  Dens Mud Min 
 MDMX.sg                  1.41:  Dens Mud Max 
 MOIL.                      68:  Run Mud Oil % 
 MOWR.                   68:32:  Run Mud OWR 
 MSND.                     0.2:  Run Mud Sand % 
 MSOL.                    18.8:  Run Mud Solids% 
 DFV .spqt               80.00:  Mud Viscosity 
 MWOD.in                  6.75:  MWD Tool OD 
 MWSI.                      No:  Serv Intrp, MWD 
 OTIM.hr                104.84:  Time Operating 
 PMAX.psia            10690.93:  Press Op, Max 
 PV  .cP                 26.00:  Mud PV 
 RUN .                     900:  Run Number 
 ROPA.m/hr                0.00:  ROP Avg 
 ROPN.m/hr                0.00:  ROP Min 
 ROPX.m/hr                0.00:  ROP Max 
 RPMA.rpm               140.00:  RPM Surface Avg 
 RPMN.rpm                70.00:  RPM Surface Min 
 RPMX.rpm               140.00:  RPM Surface Max 
 RRUN.                    0900:  Rig Run Number 
 RTIM.hr                 36.00:  Time Reaming 
 SAZI.deg               115.72:  Azm, Start 
 SDEP.m                5337.01:  Start Depth 
 SIDD.                      No:  Serv Intrp, DD 
 SINC.deg                66.92:  Inc, Start 
 SPPA.psig             4400.00:  SPP Avg 
 SPPN.psig             1135.00:  SPP Min 
 SPPX.psig             4581.00:  SPP Max 
 STIM.      04.30.56 18-May-20:  Start Time 
 SVCS.                     MWD:  Services 
 SVER.                    9.20:  Sperry Version 
 TDAT.m                5337.01:  Tot Depth Attmp 
 TDDF.                      No:  Trip for DD 
 TFF .                      No:  Trip for Fail 
 TQAA.f-kp               23.00:  Torque Abs Avg 
 TQAN.f-kp               18.00:  Torque Abs Min 
 TQAX.f-kp               25.00:  Torque Abs Max 
 TRRT.°/30m               0.74:  Turn Rotating 
 MRT .                    HCIM:  Maximum Recorded Temperature 
 TTMX.degC               76.47:  Max Tool Temp 
 WBMN.klb                 0.00:  WOB Min 
 WITN.             Anar Khalil:  Customer Rep 
 WITN.      Kamran Keberlinski:  Customer Rep 2 
 WOBA.klb                 0.00:  WOB Avg 
 WOBX.klb                 0.00:  WOB Max 
 YP  .lhf2               27.00:  Yield Point 
~Curve Information Block
#MNEM.UNIT                 API CODE     Curve Description
#---------               -----------    ---------------------------
 TIME.HHMMSS            00 000 000 000:  GT Time & Date
 GTDEPTH.m              00 000 000 000:  GT Depth
 GTPQH.psia             00 000 000 000:  GT HR Quartz Pressure
 GTTQ.degC              00 000 000 000:  GT Quartz Temperature
 GTTN.NONE              00 000 000 000:  GT Test Number
 GTET.sec               00 000 000 000:  GT Elapsed Test Time
 GTTVD.m                00 000 000 000:  GT True Vertical Depth
#Other Information
#
#WARRANTY: Halliburton will use its best efforts to furnish customers with 
#accurate information and interpretations that are part of, and incident to, the services 
#provided.  However, Halliburton cannot and does not warrant the accuracy 
#or correctness of such information and interpretations.  Under no circumstances should any 
#such information or interpretation be relied upon as the sole basis for any drilling, 
#completion, production, or financial decision or any procedure involving any risk to the 
#safety of any drilling venture, drilling rig or its crew or any other third party.  The 
#Customer has full responsibility for all drilling, completion and production operation.  
#Halliburton makes no representations or warranties, either expressed or 
#implied, including, but not limited to, the implied warranties of merchantability or fitness 
#for a particular purpose, with respect to the services rendered.  In no event will 
#Halliburton be liable for failure to obtain any particular results or for 
#any damages, including, but not limited to, indirect, special or consequential damages, 
#resulting from the use of any information or interpretation provided by Halliburton.
#
~A           TIME           GTDEPTH  GTPQH  GTTQ  GTTN  GTET   GTTVD  
# ...
   22:28:56.068.19-May-2020 5137.01 6467.39 67.88 4.00 253.06 2705.05
   22:28:56.268.19-May-2020 5137.01 6467.39 67.88 4.00 253.26 2705.05
   22:28:56.468.19-May-2020 5137.01 6467.82 67.88 4.00 253.46 2705.05
   22:28:56.668.19-May-2020 5137.01 6464.81 67.88 4.00 253.66 2705.05
   22:28:56.868.19-May-2020 5137.01 6470.18 67.88 4.00 253.86 2705.05
   22:28:57.068.19-May-2020 5137.01 6464.24 67.88 4.00 254.06 2705.05
   22:28:57.268.19-May-2020 5137.01 6464.24 67.88 4.00 254.26 2705.05
   22:28:57.468.19-May-2020 5137.01 6465.57 67.88 4.00 254.46 2705.05
   22:28:57.669.19-May-2020 5137.01 6466.56 67.88 4.00 254.66 2705.05
   22:28:57.869.19-May-2020 5137.01 6464.98 67.88 4.00 254.86 2705.05
   22:28:58.069.19-May-2020 5137.01 6464.98 67.88 4.00 255.06 2705.05
   22:28:58.269.19-May-2020 5137.01 6464.72 67.88 4.00 255.26 2705.05
   22:28:58.469.19-May-2020 5137.01 6464.87 67.88 4.00 255.46 2705.05
   22:28:58.669.19-May-2020 5137.01 6463.48 67.88 4.00 255.66 2705.05
   22:28:58.869.19-May-2020 5137.01 6464.73 67.88 4.00 255.86 2705.05
   22:28:59.069.19-May-2020 5137.01 6463.64 67.88 4.00 256.06 2705.05
   22:28:59.269.19-May-2020 5137.01 6463.64 67.88 4.00 256.26 2705.05
   22:28:59.469.19-May-2020 5137.01 6463.91 67.88 4.00 256.46 2705.05
   22:28:59.669.19-May-2020 5137.01 6463.00 67.88 4.00 256.66 2705.05
   22:28:59.869.19-May-2020 5137.01 6468.54 67.88 4.00 256.86 2705.05
   22:29:00.069.19-May-2020 5137.01 6461.68 67.88 4.00 257.06 2705.05
   22:29:00.269.19-May-2020 5137.01 6461.68 67.88 4.00 257.26 2705.05
   22:29:00.469.19-May-2020 5137.01 6465.28 67.88 4.00 257.46 2705.05
   22:29:00.669.19-May-2020 5137.01 6464.25 67.88 4.00 257.66 2705.05
   22:29:00.869.19-May-2020 5137.01 6467.70 67.88 4.00 257.86 2705.05
   22:29:01.069.19-May-2020 5137.01 6464.21 67.88 4.00 258.06 2705.05
   22:29:01.269.19-May-2020 5137.01 6464.21 67.88 4.00 258.26 2705.05
   22:29:01.469.19-May-2020 5137.01 6467.26 67.88 4.00 258.46 2705.05
   22:29:01.670.19-May-2020 5137.01 6466.42 67.88 4.00 258.66 2705.05
   22:29:01.870.19-May-2020 5137.01 6466.50 67.88 4.00 258.86 2705.05
   22:29:02.070.19-May-2020 5137.01 6466.12 67.88 4.00 259.06 2705.05
   22:29:02.270.19-May-2020 5137.01 6465.70 67.88 4.00 259.26 2705.05
   22:29:02.470.19-May-2020 5137.01 6466.75 67.88 4.00 259.46 2705.05
   22:29:02.670.19-May-2020 5137.01 6466.68 67.88 4.00 259.66 2705.05
   22:29:02.870.19-May-2020 5137.01 6466.24 67.88 4.00 259.86 2705.05
   22:29:03.070.19-May-2020 5137.01 6466.68 67.88 4.00 260.06 2705.05
   22:29:03.270.19-May-2020 5137.01 6466.68 67.88 4.00 260.26 2705.05
   22:29:03.470.19-May-2020 5137.01 6465.26 67.88 4.00 260.46 2705.05
   22:29:03.670.19-May-2020 5137.01 6466.40 67.88 4.00 260.66 2705.05
   22:29:03.870.19-May-2020 5137.01 6467.27 67.88 4.00 260.87 2705.05
   22:29:04.070.19-May-2020 5137.01 6465.91 67.88 4.00 261.07 2705.05
   22:29:04.270.19-May-2020 5137.01 6465.91 67.88 4.00 261.27 2705.05
   22:29:04.470.19-May-2020 5137.01 6465.58 67.88 4.00 261.47 2705.05
   22:29:04.670.19-May-2020 5137.01 6464.34 67.88 4.00 261.67 2705.05
   22:29:04.870.19-May-2020 5137.01 6465.07 67.88 4.00 261.87 2705.05
   22:29:05.070.19-May-2020 5137.01 6464.22 67.88 4.00 262.07 2705.05
   22:29:05.270.19-May-2020 5137.01 6464.22 67.88 4.00 262.27 2705.05
   22:29:05.470.19-May-2020 5137.01 6464.50 67.88 4.00 262.47 2705.05
   22:29:05.671.19-May-2020 5137.01 6463.57 67.88 4.00 262.67 2705.05
   22:29:05.871.19-May-2020 5137.01 6464.36 67.88 4.00 262.87 2705.05
   22:29:06.071.19-May-2020 5137.01 6463.49 67.88 4.00 263.07 2705.05
   22:29:06.271.19-May-2020 5137.01 6466.65 67.88 4.00 263.27 2705.05
   22:29:06.471.19-May-2020 5137.01 6464.67 67.88 4.00 263.47 2705.05
   22:29:06.671.19-May-2020 5137.01 6464.94 67.88 4.00 263.67 2705.05
   22:29:06.871.19-May-2020 5137.01 6465.74 67.88 4.00 263.87 2705.05
   22:29:07.071.19-May-2020 5137.01 6464.25 67.88 4.00 264.07 2705.05
   22:29:07.271.19-May-2020 5137.01 6464.25 67.88 4.00 264.27 2705.05
   22:29:07.471.19-May-2020 5137.01 6464.71 67.88 4.00 264.47 2705.05
   22:29:07.671.19-May-2020 5137.01 6466.25 67.88 4.00 264.67 2705.05
   22:29:07.871.19-May-2020 5137.01 6466.53 67.88 4.00 264.87 2705.05
   22:29:08.071.19-May-2020 5137.01 6468.28 67.88 4.00 265.07 2705.05
   22:29:08.271.19-May-2020 5137.01 6468.28 67.88 4.00 265.27 2705.05
   22:29:08.471.19-May-2020 5137.01 6467.95 67.88 4.00 265.47 2705.05
   22:29:08.671.19-May-2020 5137.01 6464.41 67.88 4.00 265.67 2705.05
   22:29:08.871.19-May-2020 5137.01 6467.77 67.88 4.00 265.87 2705.05
   22:29:09.071.19-May-2020 5137.01 6467.36 67.88 4.00 266.07 2705.05
   22:29:09.271.19-May-2020 5137.01 6467.36 67.88 4.00 266.27 2705.05
   22:29:09.471.19-May-2020 5137.01 6467.18 67.88 4.00 266.47 2705.05
   22:29:09.672.19-May-2020 5137.01 6467.11 67.88 4.00 266.67 2705.05
   22:29:09.872.19-May-2020 5137.01 6468.04 67.88 4.00 266.87 2705.05
   22:29:10.072.19-May-2020 5137.01 6468.28 67.88 4.00 267.07 2705.05
   22:29:10.272.19-May-2020 5137.01 6465.47 67.88 4.00 267.27 2705.05
   22:29:10.472.19-May-2020 5137.01 6465.47 67.88 4.00 267.47 2705.05
   22:29:10.672.19-May-2020 5137.01 6464.96 67.88 4.00 267.67 2705.05
   22:29:10.872.19-May-2020 5137.01 6465.29 67.88 4.00 267.87 2705.05
   22:29:11.072.19-May-2020 5137.01 6464.38 67.88 4.00 268.07 2705.05
   22:29:11.272.19-May-2020 5137.01 6464.38 67.88 4.00 268.27 2705.05
   22:29:11.472.19-May-2020 5137.01 6464.86 67.88 4.00 268.47 2705.05
   22:29:11.672.19-May-2020 5137.01 6463.72 67.88 4.00 268.67 2705.05
   22:29:11.872.19-May-2020 5137.01 6464.34 67.88 4.00 268.87 2705.05
   22:29:12.072.19-May-2020 5137.01 6463.52 67.88 4.00 269.07 2705.05
   22:29:12.272.19-May-2020 5137.01 6463.52 67.88 4.00 269.27 2705.05
   22:29:12.472.19-May-2020 5137.01 6463.77 67.88 4.00 269.47 2705.05
   22:29:12.672.19-May-2020 5137.01 6464.00 67.88 4.00 269.67 2705.05
   22:29:12.872.19-May-2020 5137.01 6466.47 67.88 4.00 269.87 2705.05
   22:29:13.072.19-May-2020 5137.01 6463.76 67.88 4.00 270.07 2705.05
   22:29:13.272.19-May-2020 5137.01 6463.76 67.88 4.00 270.27 2705.05
   22:29:13.472.19-May-2020 5137.01 6464.12 67.88 4.00 270.47 2705.05
   22:29:13.673.19-May-2020 5137.01 6469.76 67.88 4.00 270.67 2705.05
   22:29:13.873.19-May-2020 5137.01 6462.88 67.88 4.00 270.87 2705.05
   22:29:14.073.19-May-2020 5137.01 6466.21 67.88 4.00 271.07 2705.05
   22:29:14.273.19-May-2020 5137.01 6466.21 67.88 4.00 271.27 2705.05
   22:29:14.473.19-May-2020 5137.01 6469.42 67.88 4.00 271.47 2705.05
   22:29:14.673.19-May-2020 5137.01 6463.96 67.88 4.00 271.67 2705.05
   22:29:14.873.19-May-2020 5137.01 6467.97 67.88 4.00 271.87 2705.05
   22:29:15.073.19-May-2020 5137.01 6464.08 67.88 4.00 272.07 2705.05
   22:29:15.273.19-May-2020 5137.01 6464.08 67.88 4.00 272.27 2705.05
   22:29:15.473.19-May-2020 5137.01 6469.25 67.88 4.00 272.47 2705.05
   22:29:15.673.19-May-2020 5137.01 6463.55 67.88 4.00 272.67 2705.05
   22:29:15.873.19-May-2020 5137.01 6467.70 67.88 4.00 272.87 2705.05
   22:29:16.073.19-May-2020 5137.01 6466.12 67.88 4.00 273.07 2705.05
   22:29:16.273.19-May-2020 5137.01 6466.12 67.88 4.00 273.27 2705.05
   22:29:16.473.19-May-2020 5137.01 6463.29 67.88 4.00 273.47 2705.05
   22:29:16.673.19-May-2020 5137.01 6467.17 67.88 4.00 273.67 2705.05
   22:29:16.873.19-May-2020 5137.01 6467.10 67.88 4.00 273.87 2705.05
   22:29:17.073.19-May-2020 5137.01 6465.68 67.88 4.00 274.07 2705.05
   22:29:17.273.19-May-2020 5137.01 6465.68 67.88 4.00 274.27 2705.05
   22:29:17.473.19-May-2020 5137.01 6465.48 67.88 4.00 274.47 2705.05
   22:29:17.674.19-May-2020 5137.01 6463.98 67.88 4.00 274.67 2705.05
   22:29:17.874.19-May-2020 5137.01 6465.25 67.88 4.00 274.87 2705.05
   22:29:18.074.19-May-2020 5137.01 6463.88 67.88 4.00 275.07 2705.05
   22:29:18.274.19-May-2020 5137.01 6464.14 67.88 4.00 275.27 2705.05
   22:29:18.474.19-May-2020 5137.01 6464.24 67.88 4.00 275.47 2705.05
   22:29:18.674.19-May-2020 5137.01 6463.49 67.88 4.00 275.67 2705.05
   22:29:18.874.19-May-2020 5137.01 6464.19 67.88 4.00 275.87 2705.05
