~Version Information
 VERS.                  2.0:   CWLS log ASCII Standard -VERSION 2.0
 WRAP.                   NO:   One line per depth step
~Well Information Block
#MNEM.UNIT     VALUE/NAME     DESCRIPTION
#---------     -----------    ---------------------------
 STRT.S             17:37:07 19-May-20: START TIME 17:37:07 19-May-20
 STOP.S             17:43:47 19-May-20: STOP TIME  17:43:47 19-May-20
 STEP.S                   0.00: STEP TIME
 NULL.                 -999.25: NULL VALUE
 MDS .        Operator Entered:  MAG DATA SOURCE
 PDAT.          Mean Sea Level:  PERMANENT DATUM
 UNIT.                     N/A:  LOGGING EQUIPMENT ID
 DCON.         Sperry Drilling:  DIRECTNL CONTR
 DOE .                     N/A:  DOE NUMBER
 RIG .              East Azeri:  RIG NAME
 JOBN.        AZ-XX-0905856059:  JOB TICKET NUMB
 WELL.                     D36:  WELL NAME
 MWDS.                    Baku:  MWD SHOP
 SRVC.     Turan Drilling & Engineering:  CONTRACTOR
 FLD .                     ACG:  FIELD NAME
 CTRY.              Azerbaijan:  COUNTRY NAME
 PROV.                    Baku:  PROVINCE
 STAT.                    Baku:  STATE NAME
 REGN.                   EESSA:  REGION
 BASE.              Azerbaijan:  LOGGING EQUIPMENT BASE LOCATION
 UWI .                     N/A:  UNIQUE WELL IDENTIFIER
 API .                     N/A:  API NUMBER
 COMP.     BP Exploration (Caspian Sea) Ltd.:  COMPANY
 WTYP.                Deviated:  WELL TYPE
 SON .        AZ-XX-0905856059:  JOB NUMBER
 FTOP.          Formation Tops:  FORM TOPS DESC
 ILTD.               Lithology:  INTERP LTH DESC
 SVYD.                  Survey:  SURVEY DESC
 DMOD.             Drill Model:  DRILL MOD DESC
 HPTY.       Minimum Curvature:  HOLE POS TYPE
 NREF.                    Grid:  NORTH REFERENCE
 SPUD.               25-Feb-20:  SPUD DATE
 DATE.      08.55.28 01-May-20:  END TIME
 STIM.      08.55.28 25-Feb-20:  START TIME
 DMF .             Drill Floor:  DRILL MEAS FROM
 DFST.                        :  DIST FSL TEXT
 DFWT.                        :  DIST FWL TEXT
 CNTY.                        :  COUNTY
 LOC .                        :  LOCATION
 LMF .             Drill Floor:  LOG MEASURED FROM
 VSNS.m                   6.09:  VERT SEC N/S
 VSEW.m                 -10.79:  VERT SEC E/W
 AGAP.m                  43.60:  AIR GAP
 DEP .m                 388.24:  DEPTH
 APD .m                  43.60:  DEPTH ABOVE PD
 WDMS.m                 151.80:  WD ELEV
 EGL .m                   0.00:  GROUND ELEVATION
 EPD .m                   0.00:  ELEVATION
 AZTC.deg                 6.12:  AZM TOTAL CORR
 GRDC.deg                 0.30:  GRID CORRECTION
 MDEC.deg                 6.42:  MAGNETIC DECL
 MDIP.deg                59.42:  MAGNETIC DIP
 MFLD.nT              50256.00:  MAGNETIC FIELD
 GVFD.g                   1.00:  GRAVITY FIELD
 VSDR.deg               159.57:  VERT SEC DIRECT
 TDD .m                5000.01:  TOTAL DEPTH (DRILLER)
 SDEP.m                 397.00:  START DEPTH
 DFSL.m                   0.00:  DISTANCE FSL
 DFWL.m                   0.00:  DISTANCE FWL
 UTMY.m             4431880.20:  UTM Y
 UTMX.m              538763.98:  UTM X
 WHEW.m                 -10.79:  WELL HEAD E/W
 WHNS.m                   6.09:  WELL HEAD N/S
 LONG.deg                51.45:  LONGITUDE
 LATI.deg                40.02:  LATITUDE
 TVDS.m                  43.60:  TVDSS CORRECTN
 EKB .m                  43.60:  KB ELEVATION
 EDF .m                  43.60:  DF ELEVATION
 MAGU.                 1847640:  MAGUTM CHECKSUM
 VSC .                       0:  VS TO CLOSURE
~Parameter Information Block
#MNEM.UNIT       Value        Description
#---------     -----------    ---------------------------
 AV  .mps                 1.30:  Ann Velocity 
 AVMX.mps                 1.90:  Max Ann Veloc 
 AZIF.deg               115.68:  Azm, Final 
 BHAT.                   Other:  BHA Type 
 BROT.°/30m               0.74:  Build Rotating 
 BS  .in                  8.50:  Bit Size 
 BTPL.psig              430.00:  Bit Press Loss 
 CABU.                      No:  Customer Abuse 
 COMM.                     t9l:  Run Comments 1 
 TCS .hr                 51.31:  Time Ciculation Ended 
 CV  .mps                 2.52:  Crit Velocity 
 CVMX.mps                 2.62:  Max Crit Veloc 
 DD1 .          Teymur Aghayev:  Direct Drillr 1 
 DDSV.                   Other:  DD Service 
 DEFF.%                 100.00:  % Det Eff 
 DLRX.°/30m               1.62:  Dogleg Rot Max 
 DLSO.°/30m               0.74:  Dogleg Oriented 
 DLSX.°/30m               1.62:  Dogleg Str Max 
 DRET.      04.30.56 18-May-20:  Drill End Time 
 DRST.      04.30.56 18-May-20:  Drill Start Tim 
 DTIM.hr                  0.00:  Time Drilling 
 EDEP.m                5337.01:  End Depth 
 ENG1.      Artemiy Matviyanov:  Engineer 1 
 ENG2.      Bakhtiyar Jabbarli:  Engineer 2 
 ENG3.           Emil Huseynov:  Engineer 3 
 ETIM.      18.40.00 22-May-20:  End Time 
 FLOI.gpm               550.00:  Flow In 
 FLON.gpm               350.00:  Flow In Min 
 FLOS.cptm                0.00:  Fluid Loss 
 FLOX.gpm               600.00:  Flow In Max 
 HFLO.                      No:  High Flow 
 HPRE.                      No:  High Pressure 
 HTEM.                      No:  High Temp 
 HYDO.m                   1.80:  Hydro Offset 
 IFIN.deg                67.01:  Inc, Final 
 IMAX.deg                67.49:  Inc Max 
 IMIN.deg                66.50:  Inc Min 
 IMND.m                5144.79:  Inc Min Depth 
 IMXD.m                5116.12:  Inc Max Depth 
 JARR.                      No:  Jarring 
 LETM.      17.55.56 20-May-20:  Log End Time 
 LOST.hr                     0:  Lost Rig Time 
 LSTM.      04.30.56 18-May-20:  Log Start Time 
 MDCL.ppm            193153.00:  Mud Chlorides 
 MDES.     Inversion Oil/Synthetic:  Mud Desc 
 DFD .sg                  1.40:  Mud Density 
 MDMN.sg                  1.40:  Dens Mud Min 
 MDMX.sg                  1.41:  Dens Mud Max 
 MOIL.                      68:  Run Mud Oil % 
 MOWR.                   68:32:  Run Mud OWR 
 MSND.                     0.2:  Run Mud Sand % 
 MSOL.                    18.8:  Run Mud Solids% 
 DFV .spqt               80.00:  Mud Viscosity 
 MWOD.in                  6.75:  MWD Tool OD 
 MWSI.                      No:  Serv Intrp, MWD 
 OTIM.hr                104.84:  Time Operating 
 PMAX.psia            10690.93:  Press Op, Max 
 PV  .cP                 26.00:  Mud PV 
 RUN .                     900:  Run Number 
 ROPA.m/hr                0.00:  ROP Avg 
 ROPN.m/hr                0.00:  ROP Min 
 ROPX.m/hr                0.00:  ROP Max 
 RPMA.rpm               140.00:  RPM Surface Avg 
 RPMN.rpm                70.00:  RPM Surface Min 
 RPMX.rpm               140.00:  RPM Surface Max 
 RRUN.                    0900:  Rig Run Number 
 RTIM.hr                 36.00:  Time Reaming 
 SAZI.deg               115.72:  Azm, Start 
 SDEP.m                5337.01:  Start Depth 
 SIDD.                      No:  Serv Intrp, DD 
 SINC.deg                66.92:  Inc, Start 
 SPPA.psig             4400.00:  SPP Avg 
 SPPN.psig             1135.00:  SPP Min 
 SPPX.psig             4581.00:  SPP Max 
 STIM.      04.30.56 18-May-20:  Start Time 
 SVCS.                     MWD:  Services 
 SVER.                    9.20:  Sperry Version 
 TDAT.m                5337.01:  Tot Depth Attmp 
 TDDF.                      No:  Trip for DD 
 TFF .                      No:  Trip for Fail 
 TQAA.f-kp               23.00:  Torque Abs Avg 
 TQAN.f-kp               18.00:  Torque Abs Min 
 TQAX.f-kp               25.00:  Torque Abs Max 
 TRRT.°/30m               0.74:  Turn Rotating 
 MRT .                    HCIM:  Maximum Recorded Temperature 
 TTMX.degC               76.47:  Max Tool Temp 
 WBMN.klb                 0.00:  WOB Min 
 WITN.             Anar Khalil:  Customer Rep 
 WITN.      Kamran Keberlinski:  Customer Rep 2 
 WOBA.klb                 0.00:  WOB Avg 
 WOBX.klb                 0.00:  WOB Max 
 YP  .lhf2               27.00:  Yield Point 
~Curve Information Block
#MNEM.UNIT                 API CODE     Curve Description
#---------               -----------    ---------------------------
 TIME.HHMMSS            00 000 000 000:  GT Time & Date
 GTDEPTH.m              00 000 000 000:  GT Depth
 GTPQH.psia             00 000 000 000:  GT HR Quartz Pressure
 GTTQ.degC              00 000 000 000:  GT Quartz Temperature
 GTTN.NONE              00 000 000 000:  GT Test Number
 GTET.sec               00 000 000 000:  GT Elapsed Test Time
 GTTVD.m                00 000 000 000:  GT True Vertical Depth
#Other Information
#
#WARRANTY: Halliburton will use its best efforts to furnish customers with 
#accurate information and interpretations that are part of, and incident to, the services 
#provided.  However, Halliburton cannot and does not warrant the accuracy 
#or correctness of such information and interpretations.  Under no circumstances should any 
#such information or interpretation be relied upon as the sole basis for any drilling, 
#completion, production, or financial decision or any procedure involving any risk to the 
#safety of any drilling venture, drilling rig or its crew or any other third party.  The 
#Customer has full responsibility for all drilling, completion and production operation.  
#Halliburton makes no representations or warranties, either expressed or 
#implied, including, but not limited to, the implied warranties of merchantability or fitness 
#for a particular purpose, with respect to the services rendered.  In no event will 
#Halliburton be liable for failure to obtain any particular results or for 
#any damages, including, but not limited to, indirect, special or consequential damages, 
#resulting from the use of any information or interpretation provided by Halliburton.
#
~A           TIME           GTDEPTH  GTPQH  GTTQ  GTTN  GTET   GTTVD  
# ...
   17:41:43.159.19-May-2020 5195.01  828.30 67.03 2.00 276.03 2727.85
   17:41:43.359.19-May-2020 5195.01  828.30 67.03 2.00 276.23 2727.85
   17:41:43.559.19-May-2020 5195.01  835.97 67.03 2.00 276.43 2727.85
   17:41:43.759.19-May-2020 5195.01  840.14 67.03 2.00 276.63 2727.85
   17:41:43.959.19-May-2020 5195.01  844.35 67.03 2.00 276.83 2727.85
   17:41:44.159.19-May-2020 5195.01  848.16 67.03 2.00 277.03 2727.85
   17:41:44.359.19-May-2020 5195.01  848.16 67.03 2.00 277.23 2727.85
   17:41:44.559.19-May-2020 5195.01  855.91 67.03 2.00 277.43 2727.85
   17:41:44.759.19-May-2020 5195.01  859.96 67.04 2.00 277.63 2727.85
   17:41:44.959.19-May-2020 5195.01  864.07 67.04 2.00 277.83 2727.85
   17:41:45.159.19-May-2020 5195.01  867.84 67.04 2.00 278.03 2727.85
   17:41:45.359.19-May-2020 5195.01  867.84 67.04 2.00 278.23 2727.85
   17:41:45.559.19-May-2020 5195.01  875.54 67.04 2.00 278.43 2727.85
   17:41:45.759.19-May-2020 5195.01  879.54 67.04 2.00 278.63 2727.85
   17:41:45.959.19-May-2020 5195.01  883.39 67.04 2.00 278.83 2727.85
   17:41:46.159.19-May-2020 5195.01  887.34 67.04 2.00 279.03 2727.85
   17:41:46.359.19-May-2020 5195.01  887.34 67.04 2.00 279.23 2727.85
   17:41:46.559.19-May-2020 5195.01  894.69 67.04 2.00 279.43 2727.85
   17:41:46.759.19-May-2020 5195.01  898.54 67.04 2.00 279.63 2727.85
   17:41:46.959.19-May-2020 5195.01  902.26 67.04 2.00 279.83 2727.85
   17:41:47.159.19-May-2020 5195.01  906.17 67.04 2.00 280.03 2727.85
   17:41:47.359.19-May-2020 5195.01  906.17 67.04 2.00 280.23 2727.85
   17:41:47.559.19-May-2020 5195.01  913.83 67.04 2.00 280.43 2727.85
   17:41:47.759.19-May-2020 5195.01  917.58 67.04 2.00 280.63 2727.85
   17:41:47.959.19-May-2020 5195.01  921.38 67.04 2.00 280.83 2727.85
   17:41:48.159.19-May-2020 5195.01  925.12 67.04 2.00 281.03 2727.85
   17:41:48.359.19-May-2020 5195.01  925.12 67.04 2.00 281.23 2727.85
   17:41:48.559.19-May-2020 5195.01  932.68 67.04 2.00 281.43 2727.85
   17:41:48.759.19-May-2020 5195.01  936.31 67.04 2.00 281.63 2727.85
   17:41:48.959.19-May-2020 5195.01  940.08 67.04 2.00 281.83 2727.85
   17:41:49.159.19-May-2020 5195.01  943.71 67.04 2.00 282.03 2727.85
   17:41:49.359.19-May-2020 5195.01  943.71 67.04 2.00 282.23 2727.85
   17:41:49.559.19-May-2020 5195.01  950.76 67.04 2.00 282.43 2727.85
   17:41:49.759.19-May-2020 5195.01  954.44 67.04 2.00 282.63 2727.85
   17:41:49.959.19-May-2020 5195.01  958.07 67.04 2.00 282.83 2727.85
   17:41:50.159.19-May-2020 5195.01  961.34 67.04 2.00 283.03 2727.85
   17:41:50.359.19-May-2020 5195.01  961.34 67.04 2.00 283.23 2727.85
   17:41:50.560.19-May-2020 5195.01  968.65 67.04 2.00 283.43 2727.85
   17:41:50.760.19-May-2020 5195.01  972.32 67.04 2.00 283.63 2727.85
   17:41:50.960.19-May-2020 5195.01  975.80 67.04 2.00 283.83 2727.85
   17:41:51.160.19-May-2020 5195.01  979.16 67.04 2.00 284.03 2727.85
   17:41:51.360.19-May-2020 5195.01  979.16 67.04 2.00 284.23 2727.85
   17:41:51.560.19-May-2020 5195.01  986.43 67.04 2.00 284.43 2727.85
   17:41:51.760.19-May-2020 5195.01  989.76 67.05 2.00 284.63 2727.85
   17:41:51.960.19-May-2020 5195.01  993.32 67.05 2.00 284.83 2727.85
   17:41:52.160.19-May-2020 5195.01  997.02 67.05 2.00 285.03 2727.85
   17:41:52.360.19-May-2020 5195.01  997.02 67.05 2.00 285.23 2727.85
   17:41:52.560.19-May-2020 5195.01 1004.08 67.05 2.00 285.43 2727.85
   17:41:52.760.19-May-2020 5195.01 1007.25 67.05 2.00 285.63 2727.85
   17:41:52.960.19-May-2020 5195.01 1010.87 67.05 2.00 285.83 2727.85
   17:41:53.160.19-May-2020 5195.01 1014.46 67.05 2.00 286.03 2727.85
   17:41:53.360.19-May-2020 5195.01 1014.46 67.05 2.00 286.23 2727.85
   17:41:53.560.19-May-2020 5195.01 1021.39 67.05 2.00 286.43 2727.85
   17:41:53.760.19-May-2020 5195.01 1024.83 67.05 2.00 286.63 2727.85
   17:41:53.960.19-May-2020 5195.01 1028.38 67.05 2.00 286.83 2727.85
   17:41:54.160.19-May-2020 5195.01 1031.79 67.05 2.00 287.03 2727.85
   17:41:54.360.19-May-2020 5195.01 1031.79 67.05 2.00 287.23 2727.85
   17:41:54.560.19-May-2020 5195.01 1038.64 67.05 2.00 287.43 2727.85
   17:41:54.760.19-May-2020 5195.01 1042.09 67.05 2.00 287.63 2727.85
   17:41:54.960.19-May-2020 5195.01 1045.53 67.05 2.00 287.83 2727.85
   17:41:55.160.19-May-2020 5195.01 1048.90 67.05 2.00 288.03 2727.85
   17:41:55.360.19-May-2020 5195.01 1048.90 67.05 2.00 288.23 2727.85
   17:41:55.560.19-May-2020 5195.01 1055.59 67.05 2.00 288.44 2727.85
   17:41:55.760.19-May-2020 5195.01 1058.71 67.05 2.00 288.64 2727.85
   17:41:55.960.19-May-2020 5195.01 1062.05 67.05 2.00 288.84 2727.85
   17:41:56.160.19-May-2020 5195.01 1065.51 67.05 2.00 289.04 2727.85
   17:41:56.360.19-May-2020 5195.01 1065.51 67.05 2.00 289.24 2727.85
   17:41:56.560.19-May-2020 5195.01 1071.61 67.05 2.00 289.44 2727.85
   17:41:56.760.19-May-2020 5195.01 1075.39 67.05 2.00 289.64 2727.85
   17:41:56.960.19-May-2020 5195.01 1078.66 67.05 2.00 289.84 2727.85
   17:41:57.160.19-May-2020 5195.01 1081.98 67.05 2.00 290.04 2727.85
   17:41:57.360.19-May-2020 5195.01 1081.98 67.05 2.00 290.24 2727.85
   17:41:57.560.19-May-2020 5195.01 1088.60 67.05 2.00 290.44 2727.85
   17:41:57.760.19-May-2020 5195.01 1091.38 67.05 2.00 290.64 2727.85
   17:41:57.960.19-May-2020 5195.01 1094.86 67.05 2.00 290.84 2727.85
   17:41:58.160.19-May-2020 5195.01 1098.19 67.05 2.00 291.04 2727.85
   17:41:58.360.19-May-2020 5195.01 1098.19 67.05 2.00 291.24 2727.85
   17:41:58.560.19-May-2020 5195.01 1104.41 67.05 2.00 291.44 2727.85
   17:41:58.760.19-May-2020 5195.01 1107.38 67.05 2.00 291.64 2727.85
   17:41:58.961.19-May-2020 5195.01 1110.76 67.05 2.00 291.84 2727.85
   17:41:59.161.19-May-2020 5195.01 1113.93 67.05 2.00 292.04 2727.85
   17:41:59.361.19-May-2020 5195.01 1113.93 67.05 2.00 292.24 2727.85
   17:41:59.561.19-May-2020 5195.01 1119.95 67.06 2.00 292.44 2727.85
   17:41:59.761.19-May-2020 5195.01 1123.30 67.06 2.00 292.64 2727.85
   17:41:59.961.19-May-2020 5195.01 1126.44 67.06 2.00 292.84 2727.85
   17:42:00.161.19-May-2020 5195.01 1129.62 67.06 2.00 293.04 2727.85
   17:42:00.361.19-May-2020 5195.01 1129.62 67.06 2.00 293.24 2727.85
   17:42:00.561.19-May-2020 5195.01 1135.98 67.06 2.00 293.44 2727.85
   17:42:00.761.19-May-2020 5195.01 1139.22 67.06 2.00 293.64 2727.85
   17:42:00.961.19-May-2020 5195.01 1142.30 67.06 2.00 293.84 2727.85
   17:42:01.161.19-May-2020 5195.01 1145.46 67.06 2.00 294.04 2727.85
   17:42:01.361.19-May-2020 5195.01 1145.46 67.06 2.00 294.24 2727.85
   17:42:01.561.19-May-2020 5195.01 1151.76 67.06 2.00 294.44 2727.85
   17:42:01.761.19-May-2020 5195.01 1154.91 67.06 2.00 294.64 2727.85
   17:42:01.961.19-May-2020 5195.01 1157.95 67.06 2.00 294.84 2727.85
   17:42:02.161.19-May-2020 5195.01 1161.12 67.06 2.00 295.04 2727.85
   17:42:02.361.19-May-2020 5195.01 1161.12 67.06 2.00 295.24 2727.85
   17:42:02.561.19-May-2020 5195.01 1167.05 67.06 2.00 295.44 2727.85
   17:42:02.761.19-May-2020 5195.01 1170.16 67.06 2.00 295.64 2727.85
   17:42:02.961.19-May-2020 5195.01 1173.14 67.06 2.00 295.84 2727.85
   17:42:03.161.19-May-2020 5195.01 1175.91 67.06 2.00 296.04 2727.85
   17:42:03.361.19-May-2020 5195.01 1175.91 67.06 2.00 296.24 2727.85
   17:42:03.561.19-May-2020 5195.01 1182.46 67.06 2.00 296.44 2727.85
   17:42:03.761.19-May-2020 5195.01 1185.13 67.06 2.00 296.64 2727.85
   17:42:03.961.19-May-2020 5195.01 1188.24 67.06 2.00 296.84 2727.85
   17:42:04.161.19-May-2020 5195.01 1191.32 67.06 2.00 297.04 2727.85
   17:42:04.361.19-May-2020 5195.01 1191.32 67.06 2.00 297.24 2727.85
   17:42:04.561.19-May-2020 5195.01 1197.39 67.06 2.00 297.44 2727.85
   17:42:04.761.19-May-2020 5195.01 1199.95 67.06 2.00 297.64 2727.85
   17:42:04.961.19-May-2020 5195.01 1203.23 67.06 2.00 297.84 2727.85
   17:42:05.161.19-May-2020 5195.01 1206.24 67.06 2.00 298.04 2727.85
   17:42:05.361.19-May-2020 5195.01 1206.24 67.06 2.00 298.24 2727.85
   17:42:05.561.19-May-2020 5195.01 1212.27 67.06 2.00 298.44 2727.85
   17:42:05.761.19-May-2020 5195.01 1214.96 67.06 2.00 298.64 2727.85
   17:42:05.961.19-May-2020 5195.01 1217.93 67.06 2.00 298.84 2727.85
