~Version Information
 VERS.                  2.0:   CWLS log ASCII Standard -VERSION 2.0
 WRAP.                   NO:   One line per depth step
~Well Information Block
#MNEM.UNIT     VALUE/NAME     DESCRIPTION
#---------     -----------    ---------------------------
 STRT.S             00:06:39 20-May-20: START TIME 00:06:39 20-May-20
 STOP.S             00:17:12 20-May-20: STOP TIME  00:17:12 20-May-20
 STEP.S                   0.00: STEP TIME
 NULL.                 -999.25: NULL VALUE
 MDS .        Operator Entered:  MAG DATA SOURCE
 PDAT.          Mean Sea Level:  PERMANENT DATUM
 UNIT.                     N/A:  LOGGING EQUIPMENT ID
 DCON.         Sperry Drilling:  DIRECTNL CONTR
 DOE .                     N/A:  DOE NUMBER
 RIG .              East Azeri:  RIG NAME
 JOBN.        AZ-XX-0905856059:  JOB TICKET NUMB
 WELL.                     D36:  WELL NAME
 MWDS.                    Baku:  MWD SHOP
 SRVC.     Turan Drilling & Engineering:  CONTRACTOR
 FLD .                     ACG:  FIELD NAME
 CTRY.              Azerbaijan:  COUNTRY NAME
 PROV.                    Baku:  PROVINCE
 STAT.                    Baku:  STATE NAME
 REGN.                   EESSA:  REGION
 BASE.              Azerbaijan:  LOGGING EQUIPMENT BASE LOCATION
 UWI .                     N/A:  UNIQUE WELL IDENTIFIER
 API .                     N/A:  API NUMBER
 COMP.     BP Exploration (Caspian Sea) Ltd.:  COMPANY
 WTYP.                Deviated:  WELL TYPE
 SON .        AZ-XX-0905856059:  JOB NUMBER
 FTOP.          Formation Tops:  FORM TOPS DESC
 ILTD.               Lithology:  INTERP LTH DESC
 SVYD.                  Survey:  SURVEY DESC
 DMOD.             Drill Model:  DRILL MOD DESC
 HPTY.       Minimum Curvature:  HOLE POS TYPE
 NREF.                    Grid:  NORTH REFERENCE
 SPUD.               25-Feb-20:  SPUD DATE
 DATE.      08.55.28 01-May-20:  END TIME
 STIM.      08.55.28 25-Feb-20:  START TIME
 DMF .             Drill Floor:  DRILL MEAS FROM
 DFST.                        :  DIST FSL TEXT
 DFWT.                        :  DIST FWL TEXT
 CNTY.                        :  COUNTY
 LOC .                        :  LOCATION
 LMF .             Drill Floor:  LOG MEASURED FROM
 VSNS.m                   6.09:  VERT SEC N/S
 VSEW.m                 -10.79:  VERT SEC E/W
 AGAP.m                  43.60:  AIR GAP
 DEP .m                 388.24:  DEPTH
 APD .m                  43.60:  DEPTH ABOVE PD
 WDMS.m                 151.80:  WD ELEV
 EGL .m                   0.00:  GROUND ELEVATION
 EPD .m                   0.00:  ELEVATION
 AZTC.deg                 6.12:  AZM TOTAL CORR
 GRDC.deg                 0.30:  GRID CORRECTION
 MDEC.deg                 6.42:  MAGNETIC DECL
 MDIP.deg                59.42:  MAGNETIC DIP
 MFLD.nT              50256.00:  MAGNETIC FIELD
 GVFD.g                   1.00:  GRAVITY FIELD
 VSDR.deg               159.57:  VERT SEC DIRECT
 TDD .m                5000.01:  TOTAL DEPTH (DRILLER)
 SDEP.m                 397.00:  START DEPTH
 DFSL.m                   0.00:  DISTANCE FSL
 DFWL.m                   0.00:  DISTANCE FWL
 UTMY.m             4431880.20:  UTM Y
 UTMX.m              538763.98:  UTM X
 WHEW.m                 -10.79:  WELL HEAD E/W
 WHNS.m                   6.09:  WELL HEAD N/S
 LONG.deg                51.45:  LONGITUDE
 LATI.deg                40.02:  LATITUDE
 TVDS.m                  43.60:  TVDSS CORRECTN
 EKB .m                  43.60:  KB ELEVATION
 EDF .m                  43.60:  DF ELEVATION
 MAGU.                 1847640:  MAGUTM CHECKSUM
 VSC .                       0:  VS TO CLOSURE
~Parameter Information Block
#MNEM.UNIT       Value        Description
#---------     -----------    ---------------------------
 AV  .mps                 1.30:  Ann Velocity 
 AVMX.mps                 1.90:  Max Ann Veloc 
 AZIF.deg               115.68:  Azm, Final 
 BHAT.                   Other:  BHA Type 
 BROT.°/30m               0.74:  Build Rotating 
 BS  .in                  8.50:  Bit Size 
 BTPL.psig              430.00:  Bit Press Loss 
 CABU.                      No:  Customer Abuse 
 COMM.                     \õd:  Run Comments 1 
 TCS .hr                 51.31:  Time Ciculation Ended 
 CV  .mps                 2.52:  Crit Velocity 
 CVMX.mps                 2.62:  Max Crit Veloc 
 DD1 .          Teymur Aghayev:  Direct Drillr 1 
 DDSV.                   Other:  DD Service 
 DEFF.%                 100.00:  % Det Eff 
 DLRX.°/30m               1.62:  Dogleg Rot Max 
 DLSO.°/30m               0.74:  Dogleg Oriented 
 DLSX.°/30m               1.62:  Dogleg Str Max 
 DRET.      04.30.56 18-May-20:  Drill End Time 
 DRST.      04.30.56 18-May-20:  Drill Start Tim 
 DTIM.hr                  0.00:  Time Drilling 
 EDEP.m                5337.01:  End Depth 
 ENG1.      Artemiy Matviyanov:  Engineer 1 
 ENG2.      Bakhtiyar Jabbarli:  Engineer 2 
 ENG3.           Emil Huseynov:  Engineer 3 
 ETIM.      18.40.00 22-May-20:  End Time 
 FLOI.gpm               550.00:  Flow In 
 FLON.gpm               350.00:  Flow In Min 
 FLOS.cptm                0.00:  Fluid Loss 
 FLOX.gpm               600.00:  Flow In Max 
 HFLO.                      No:  High Flow 
 HPRE.                      No:  High Pressure 
 HTEM.                      No:  High Temp 
 HYDO.m                   1.80:  Hydro Offset 
 IFIN.deg                67.01:  Inc, Final 
 IMAX.deg                67.49:  Inc Max 
 IMIN.deg                66.50:  Inc Min 
 IMND.m                5144.79:  Inc Min Depth 
 IMXD.m                5116.12:  Inc Max Depth 
 JARR.                      No:  Jarring 
 LETM.      17.55.56 20-May-20:  Log End Time 
 LOST.hr                     0:  Lost Rig Time 
 LSTM.      04.30.56 18-May-20:  Log Start Time 
 MDCL.ppm            193153.00:  Mud Chlorides 
 MDES.     Inversion Oil/Synthetic:  Mud Desc 
 DFD .sg                  1.40:  Mud Density 
 MDMN.sg                  1.40:  Dens Mud Min 
 MDMX.sg                  1.41:  Dens Mud Max 
 MOIL.                      68:  Run Mud Oil % 
 MOWR.                   68:32:  Run Mud OWR 
 MSND.                     0.2:  Run Mud Sand % 
 MSOL.                    18.8:  Run Mud Solids% 
 DFV .spqt               80.00:  Mud Viscosity 
 MWOD.in                  6.75:  MWD Tool OD 
 MWSI.                      No:  Serv Intrp, MWD 
 OTIM.hr                104.84:  Time Operating 
 PMAX.psia            10690.93:  Press Op, Max 
 PV  .cP                 26.00:  Mud PV 
 RUN .                     900:  Run Number 
 ROPA.m/hr                0.00:  ROP Avg 
 ROPN.m/hr                0.00:  ROP Min 
 ROPX.m/hr                0.00:  ROP Max 
 RPMA.rpm               140.00:  RPM Surface Avg 
 RPMN.rpm                70.00:  RPM Surface Min 
 RPMX.rpm               140.00:  RPM Surface Max 
 RRUN.                    0900:  Rig Run Number 
 RTIM.hr                 36.00:  Time Reaming 
 SAZI.deg               115.72:  Azm, Start 
 SDEP.m                5337.01:  Start Depth 
 SIDD.                      No:  Serv Intrp, DD 
 SINC.deg                66.92:  Inc, Start 
 SPPA.psig             4400.00:  SPP Avg 
 SPPN.psig             1135.00:  SPP Min 
 SPPX.psig             4581.00:  SPP Max 
 STIM.      04.30.56 18-May-20:  Start Time 
 SVCS.                     MWD:  Services 
 SVER.                    9.20:  Sperry Version 
 TDAT.m                5337.01:  Tot Depth Attmp 
 TDDF.                      No:  Trip for DD 
 TFF .                      No:  Trip for Fail 
 TQAA.f-kp               23.00:  Torque Abs Avg 
 TQAN.f-kp               18.00:  Torque Abs Min 
 TQAX.f-kp               25.00:  Torque Abs Max 
 TRRT.°/30m               0.74:  Turn Rotating 
 MRT .                    HCIM:  Maximum Recorded Temperature 
 TTMX.degC               76.47:  Max Tool Temp 
 WBMN.klb                 0.00:  WOB Min 
 WITN.             Anar Khalil:  Customer Rep 
 WITN.      Kamran Keberlinski:  Customer Rep 2 
 WOBA.klb                 0.00:  WOB Avg 
 WOBX.klb                 0.00:  WOB Max 
 YP  .lhf2               27.00:  Yield Point 
~Curve Information Block
#MNEM.UNIT                 API CODE     Curve Description
#---------               -----------    ---------------------------
 TIME.HHMMSS            00 000 000 000:  GT Time & Date
 GTDEPTH.m              00 000 000 000:  GT Depth
 GTPQH.psia             00 000 000 000:  GT HR Quartz Pressure
 GTTQ.degC              00 000 000 000:  GT Quartz Temperature
 GTTN.NONE              00 000 000 000:  GT Test Number
 GTET.sec               00 000 000 000:  GT Elapsed Test Time
 GTTVD.m                00 000 000 000:  GT True Vertical Depth
#Other Information
#
#WARRANTY: Halliburton will use its best efforts to furnish customers with 
#accurate information and interpretations that are part of, and incident to, the services 
#provided.  However, Halliburton cannot and does not warrant the accuracy 
#or correctness of such information and interpretations.  Under no circumstances should any 
#such information or interpretation be relied upon as the sole basis for any drilling, 
#completion, production, or financial decision or any procedure involving any risk to the 
#safety of any drilling venture, drilling rig or its crew or any other third party.  The 
#Customer has full responsibility for all drilling, completion and production operation.  
#Halliburton makes no representations or warranties, either expressed or 
#implied, including, but not limited to, the implied warranties of merchantability or fitness 
#for a particular purpose, with respect to the services rendered.  In no event will 
#Halliburton be liable for failure to obtain any particular results or for 
#any damages, including, but not limited to, indirect, special or consequential damages, 
#resulting from the use of any information or interpretation provided by Halliburton.
#
~A           TIME           GTDEPTH  GTPQH  GTTQ  GTTN  GTET   GTTVD  
# ...
   00:11:38.604.20-May-2020 5121.01 3572.64 67.86 6.00 299.07 2698.81
   00:11:38.804.20-May-2020 5121.01 3572.64 67.86 6.00 299.27 2698.81
   00:11:39.004.20-May-2020 5121.01 3572.64 67.86 6.00 299.47 2698.81
   00:11:39.204.20-May-2020 5121.01 3572.55 67.86 6.00 299.67 2698.81
   00:11:39.404.20-May-2020 5121.01 3572.67 67.86 6.00 299.87 2698.81
   00:11:39.604.20-May-2020 5121.01 3572.58 67.86 6.00 300.07 2698.81
   00:11:39.805.20-May-2020 5121.01 3572.58 67.86 6.00 300.27 2698.81
   00:11:40.005.20-May-2020 5121.01 3572.61 67.86 6.00 300.47 2698.81
   00:11:40.205.20-May-2020 5121.01 3572.60 67.86 6.00 300.67 2698.81
   00:11:40.405.20-May-2020 5121.01 3572.60 67.86 6.00 300.87 2698.81
   00:11:40.605.20-May-2020 5121.01 3572.63 67.86 6.00 301.08 2698.81
   00:11:40.805.20-May-2020 5121.01 3572.63 67.86 6.00 301.28 2698.81
   00:11:41.005.20-May-2020 5121.01 3572.66 67.86 6.00 301.48 2698.81
   00:11:41.205.20-May-2020 5121.01 3572.52 67.86 6.00 301.68 2698.81
   00:11:41.405.20-May-2020 5121.01 3572.69 67.86 6.00 301.88 2698.81
   00:11:41.605.20-May-2020 5121.01 3572.58 67.86 6.00 302.08 2698.81
   00:11:41.805.20-May-2020 5121.01 3572.58 67.86 6.00 302.28 2698.81
   00:11:42.005.20-May-2020 5121.01 3572.60 67.86 6.00 302.48 2698.81
   00:11:42.205.20-May-2020 5121.01 3572.64 67.86 6.00 302.68 2698.81
   00:11:42.405.20-May-2020 5121.01 3572.54 67.86 6.00 302.88 2698.81
   00:11:42.605.20-May-2020 5121.01 3572.66 67.86 6.00 303.08 2698.81
   00:11:42.805.20-May-2020 5121.01 3572.66 67.86 6.00 303.28 2698.81
   00:11:43.005.20-May-2020 5121.01 3572.68 67.86 6.00 303.48 2698.81
   00:11:43.205.20-May-2020 5121.01 3572.57 67.86 6.00 303.68 2698.81
   00:11:43.405.20-May-2020 5121.01 3572.64 67.86 6.00 303.88 2698.81
   00:11:43.605.20-May-2020 5121.01 3572.60 67.86 6.00 304.08 2698.81
   00:11:43.806.20-May-2020 5121.01 3572.60 67.86 6.00 304.28 2698.81
   00:11:44.006.20-May-2020 5121.01 3572.61 67.86 6.00 304.48 2698.81
   00:11:44.206.20-May-2020 5121.01 3572.61 67.86 6.00 304.68 2698.81
   00:11:44.406.20-May-2020 5121.01 3572.64 67.86 6.00 304.88 2698.81
   00:11:44.606.20-May-2020 5121.01 3572.62 67.86 6.00 305.08 2698.81
   00:11:44.806.20-May-2020 5121.01 3572.62 67.86 6.00 305.28 2698.81
   00:11:45.006.20-May-2020 5121.01 3572.62 67.86 6.00 305.48 2698.81
   00:11:45.206.20-May-2020 5121.01 3572.57 67.86 6.00 305.68 2698.81
   00:11:45.406.20-May-2020 5121.01 3572.64 67.86 6.00 305.88 2698.81
   00:11:45.606.20-May-2020 5121.01 3572.64 67.86 6.00 306.08 2698.81
   00:11:45.806.20-May-2020 5121.01 3572.62 67.86 6.00 306.28 2698.81
   00:11:46.006.20-May-2020 5121.01 3572.49 67.86 6.00 306.48 2698.81
   00:11:46.206.20-May-2020 5121.01 3572.74 67.86 6.00 306.68 2698.81
   00:11:46.406.20-May-2020 5121.01 3572.62 67.86 6.00 306.88 2698.81
   00:11:46.606.20-May-2020 5121.01 3572.61 67.86 6.00 307.08 2698.81
   00:11:46.806.20-May-2020 5121.01 3572.61 67.86 6.00 307.28 2698.81
   00:11:47.006.20-May-2020 5121.01 3572.66 67.86 6.00 307.48 2698.81
   00:11:47.206.20-May-2020 5121.01 3572.45 67.86 6.00 307.68 2698.81
   00:11:47.406.20-May-2020 5121.01 3572.77 67.86 6.00 307.88 2698.81
   00:11:47.606.20-May-2020 5121.01 3572.58 67.86 6.00 308.08 2698.81
   00:11:47.807.20-May-2020 5121.01 3572.62 67.86 6.00 308.28 2698.81
   00:11:48.007.20-May-2020 5121.01 3572.63 67.86 6.00 308.48 2698.81
   00:11:48.207.20-May-2020 5121.01 3572.62 67.86 6.00 308.68 2698.81
   00:11:48.407.20-May-2020 5121.01 3572.61 67.86 6.00 308.88 2698.81
   00:11:48.607.20-May-2020 5121.01 3572.64 67.86 6.00 309.08 2698.81
   00:11:48.807.20-May-2020 5121.01 3572.57 67.86 6.00 309.28 2698.81
   00:11:49.007.20-May-2020 5121.01 3572.64 67.86 6.00 309.48 2698.81
   00:11:49.207.20-May-2020 5121.01 3572.60 67.86 6.00 309.68 2698.81
   00:11:49.407.20-May-2020 5121.01 3572.67 67.86 6.00 309.88 2698.81
   00:11:49.607.20-May-2020 5121.01 3572.58 67.86 6.00 310.08 2698.81
   00:11:49.807.20-May-2020 5121.01 3572.58 67.86 6.00 310.28 2698.81
   00:11:50.007.20-May-2020 5121.01 3572.56 67.86 6.00 310.48 2698.81
   00:11:50.207.20-May-2020 5121.01 3572.61 67.86 6.00 310.68 2698.81
   00:11:50.407.20-May-2020 5121.01 3572.63 67.86 6.00 310.88 2698.81
   00:11:50.607.20-May-2020 5121.01 3572.63 67.86 6.00 311.08 2698.81
   00:11:50.807.20-May-2020 5121.01 3572.63 67.86 6.00 311.28 2698.81
   00:11:51.007.20-May-2020 5121.01 3572.64 67.86 6.00 311.48 2698.81
   00:11:51.207.20-May-2020 5121.01 3572.60 67.86 6.00 311.68 2698.81
   00:11:51.407.20-May-2020 5121.01 3572.61 67.86 6.00 311.88 2698.81
   00:11:51.607.20-May-2020 5121.01 3572.60 67.86 6.00 312.08 2698.81
   00:11:51.808.20-May-2020 5121.01 3572.60 67.86 6.00 312.28 2698.81
   00:11:52.008.20-May-2020 5121.01 3572.63 67.86 6.00 312.48 2698.81
   00:11:52.208.20-May-2020 5121.01 3572.62 67.86 6.00 312.68 2698.81
   00:11:52.408.20-May-2020 5121.01 3572.62 67.86 6.00 312.88 2698.81
   00:11:52.608.20-May-2020 5121.01 3572.61 67.86 6.00 313.08 2698.81
   00:11:52.808.20-May-2020 5121.01 3572.61 67.86 6.00 313.28 2698.81
   00:11:53.008.20-May-2020 5121.01 3572.55 67.86 6.00 313.48 2698.81
   00:11:53.208.20-May-2020 5121.01 3572.66 67.86 6.00 313.68 2698.81
   00:11:53.408.20-May-2020 5121.01 3572.60 67.86 6.00 313.88 2698.81
   00:11:53.608.20-May-2020 5121.01 3572.62 67.86 6.00 314.08 2698.81
   00:11:53.808.20-May-2020 5121.01 3572.62 67.86 6.00 314.28 2698.81
   00:11:54.008.20-May-2020 5121.01 3572.66 67.86 6.00 314.48 2698.81
   00:11:54.208.20-May-2020 5121.01 3572.60 67.86 6.00 314.68 2698.81
   00:11:54.408.20-May-2020 5121.01 3572.62 67.86 6.00 314.88 2698.81
   00:11:54.608.20-May-2020 5121.01 3572.59 67.86 6.00 315.08 2698.81
   00:11:54.808.20-May-2020 5121.01 3572.59 67.86 6.00 315.28 2698.81
   00:11:55.008.20-May-2020 5121.01 3572.63 67.86 6.00 315.48 2698.81
   00:11:55.208.20-May-2020 5121.01 3572.62 67.86 6.00 315.68 2698.81
   00:11:55.408.20-May-2020 5121.01 3572.65 67.86 6.00 315.88 2698.81
   00:11:55.608.20-May-2020 5121.01 3572.60 67.86 6.00 316.08 2698.81
   00:11:55.809.20-May-2020 5121.01 3572.60 67.86 6.00 316.28 2698.81
   00:11:56.009.20-May-2020 5121.01 3572.62 67.86 6.00 316.48 2698.81
   00:11:56.209.20-May-2020 5121.01 3572.61 67.86 6.00 316.68 2698.81
   00:11:56.409.20-May-2020 5121.01 3572.62 67.86 6.00 316.88 2698.81
   00:11:56.609.20-May-2020 5121.01 3572.62 67.86 6.00 317.08 2698.81
   00:11:56.809.20-May-2020 5121.01 3572.62 67.86 6.00 317.28 2698.81
   00:11:57.009.20-May-2020 5121.01 3572.65 67.86 6.00 317.48 2698.81
   00:11:57.209.20-May-2020 5121.01 3572.58 67.86 6.00 317.68 2698.81
   00:11:57.409.20-May-2020 5121.01 3572.67 67.86 6.00 317.88 2698.81
   00:11:57.609.20-May-2020 5121.01 3572.60 67.86 6.00 318.08 2698.81
   00:11:57.809.20-May-2020 5121.01 3572.60 67.86 6.00 318.28 2698.81
   00:11:58.009.20-May-2020 5121.01 3572.58 67.86 6.00 318.48 2698.81
   00:11:58.209.20-May-2020 5121.01 3572.62 67.86 6.00 318.68 2698.81
   00:11:58.409.20-May-2020 5121.01 3572.61 67.86 6.00 318.88 2698.81
   00:11:58.609.20-May-2020 5121.01 3572.60 67.86 6.00 319.08 2698.81
   00:11:58.809.20-May-2020 5121.01 3572.60 67.86 6.00 319.28 2698.81
   00:11:59.009.20-May-2020 5121.01 3572.61 67.86 6.00 319.48 2698.81
   00:11:59.209.20-May-2020 5121.01 3572.60 67.86 6.00 319.68 2698.81
   00:11:59.409.20-May-2020 5121.01 3572.63 67.86 6.00 319.88 2698.81
   00:11:59.609.20-May-2020 5121.01 3572.59 67.86 6.00 320.08 2698.81
   00:11:59.810.20-May-2020 5121.01 3572.59 67.86 6.00 320.28 2698.81
   00:12:00.010.20-May-2020 5121.01 3572.62 67.86 6.00 320.48 2698.81
   00:12:00.210.20-May-2020 5121.01 3572.61 67.86 6.00 320.68 2698.81
   00:12:00.410.20-May-2020 5121.01 3572.66 67.86 6.00 320.88 2698.81
   00:12:00.610.20-May-2020 5121.01 3572.55 67.86 6.00 321.08 2698.81
   00:12:00.810.20-May-2020 5121.01 3572.55 67.86 6.00 321.28 2698.81
   00:12:01.010.20-May-2020 5121.01 3572.61 67.86 6.00 321.48 2698.81
   00:12:01.210.20-May-2020 5121.01 3572.65 67.86 6.00 321.68 2698.81
   00:12:01.410.20-May-2020 5121.01 3572.52 67.86 6.00 321.88 2698.81
