~Version Information
 VERS.                  2.0:   CWLS log ASCII Standard -VERSION 2.0
 WRAP.                   NO:   One line per depth step
~Well Information Block
#MNEM.UNIT     VALUE/NAME     DESCRIPTION
#---------     -----------    ---------------------------
 STRT.S             21:41:59 19-May-20: START TIME 21:41:59 19-May-20
 STOP.S             21:48:44 19-May-20: STOP TIME  21:48:44 19-May-20
 STEP.S                   0.00: STEP TIME
 NULL.                 -999.25: NULL VALUE
 MDS .        Operator Entered:  MAG DATA SOURCE
 PDAT.          Mean Sea Level:  PERMANENT DATUM
 UNIT.                     N/A:  LOGGING EQUIPMENT ID
 DCON.         Sperry Drilling:  DIRECTNL CONTR
 DOE .                     N/A:  DOE NUMBER
 RIG .              East Azeri:  RIG NAME
 JOBN.        AZ-XX-0905856059:  JOB TICKET NUMB
 WELL.                     D36:  WELL NAME
 MWDS.                    Baku:  MWD SHOP
 SRVC.     Turan Drilling & Engineering:  CONTRACTOR
 FLD .                     ACG:  FIELD NAME
 CTRY.              Azerbaijan:  COUNTRY NAME
 PROV.                    Baku:  PROVINCE
 STAT.                    Baku:  STATE NAME
 REGN.                   EESSA:  REGION
 BASE.              Azerbaijan:  LOGGING EQUIPMENT BASE LOCATION
 UWI .                     N/A:  UNIQUE WELL IDENTIFIER
 API .                     N/A:  API NUMBER
 COMP.     BP Exploration (Caspian Sea) Ltd.:  COMPANY
 WTYP.                Deviated:  WELL TYPE
 SON .        AZ-XX-0905856059:  JOB NUMBER
 FTOP.          Formation Tops:  FORM TOPS DESC
 ILTD.               Lithology:  INTERP LTH DESC
 SVYD.                  Survey:  SURVEY DESC
 DMOD.             Drill Model:  DRILL MOD DESC
 HPTY.       Minimum Curvature:  HOLE POS TYPE
 NREF.                    Grid:  NORTH REFERENCE
 SPUD.               25-Feb-20:  SPUD DATE
 DATE.      08.55.28 01-May-20:  END TIME
 STIM.      08.55.28 25-Feb-20:  START TIME
 DMF .             Drill Floor:  DRILL MEAS FROM
 DFST.                        :  DIST FSL TEXT
 DFWT.                        :  DIST FWL TEXT
 CNTY.                        :  COUNTY
 LOC .                        :  LOCATION
 LMF .             Drill Floor:  LOG MEASURED FROM
 VSNS.m                   6.09:  VERT SEC N/S
 VSEW.m                 -10.79:  VERT SEC E/W
 AGAP.m                  43.60:  AIR GAP
 DEP .m                 388.24:  DEPTH
 APD .m                  43.60:  DEPTH ABOVE PD
 WDMS.m                 151.80:  WD ELEV
 EGL .m                   0.00:  GROUND ELEVATION
 EPD .m                   0.00:  ELEVATION
 AZTC.deg                 6.12:  AZM TOTAL CORR
 GRDC.deg                 0.30:  GRID CORRECTION
 MDEC.deg                 6.42:  MAGNETIC DECL
 MDIP.deg                59.42:  MAGNETIC DIP
 MFLD.nT              50256.00:  MAGNETIC FIELD
 GVFD.g                   1.00:  GRAVITY FIELD
 VSDR.deg               159.57:  VERT SEC DIRECT
 TDD .m                5000.01:  TOTAL DEPTH (DRILLER)
 SDEP.m                 397.00:  START DEPTH
 DFSL.m                   0.00:  DISTANCE FSL
 DFWL.m                   0.00:  DISTANCE FWL
 UTMY.m             4431880.20:  UTM Y
 UTMX.m              538763.98:  UTM X
 WHEW.m                 -10.79:  WELL HEAD E/W
 WHNS.m                   6.09:  WELL HEAD N/S
 LONG.deg                51.45:  LONGITUDE
 LATI.deg                40.02:  LATITUDE
 TVDS.m                  43.60:  TVDSS CORRECTN
 EKB .m                  43.60:  KB ELEVATION
 EDF .m                  43.60:  DF ELEVATION
 MAGU.                 1847640:  MAGUTM CHECKSUM
 VSC .                       0:  VS TO CLOSURE
~Parameter Information Block
#MNEM.UNIT       Value        Description
#---------     -----------    ---------------------------
 AV  .mps                 1.30:  Ann Velocity 
 AVMX.mps                 1.90:  Max Ann Veloc 
 AZIF.deg               115.68:  Azm, Final 
 BHAT.                   Other:  BHA Type 
 BROT.°/30m               0.74:  Build Rotating 
 BS  .in                  8.50:  Bit Size 
 BTPL.psig              430.00:  Bit Press Loss 
 CABU.                      No:  Customer Abuse 
 COMM.                     „äS:  Run Comments 1 
 TCS .hr                 51.31:  Time Ciculation Ended 
 CV  .mps                 2.52:  Crit Velocity 
 CVMX.mps                 2.62:  Max Crit Veloc 
 DD1 .          Teymur Aghayev:  Direct Drillr 1 
 DDSV.                   Other:  DD Service 
 DEFF.%                 100.00:  % Det Eff 
 DLRX.°/30m               1.62:  Dogleg Rot Max 
 DLSO.°/30m               0.74:  Dogleg Oriented 
 DLSX.°/30m               1.62:  Dogleg Str Max 
 DRET.      04.30.56 18-May-20:  Drill End Time 
 DRST.      04.30.56 18-May-20:  Drill Start Tim 
 DTIM.hr                  0.00:  Time Drilling 
 EDEP.m                5337.01:  End Depth 
 ENG1.      Artemiy Matviyanov:  Engineer 1 
 ENG2.      Bakhtiyar Jabbarli:  Engineer 2 
 ENG3.           Emil Huseynov:  Engineer 3 
 ETIM.      18.40.00 22-May-20:  End Time 
 FLOI.gpm               550.00:  Flow In 
 FLON.gpm               350.00:  Flow In Min 
 FLOS.cptm                0.00:  Fluid Loss 
 FLOX.gpm               600.00:  Flow In Max 
 HFLO.                      No:  High Flow 
 HPRE.                      No:  High Pressure 
 HTEM.                      No:  High Temp 
 HYDO.m                   1.80:  Hydro Offset 
 IFIN.deg                67.01:  Inc, Final 
 IMAX.deg                67.49:  Inc Max 
 IMIN.deg                66.50:  Inc Min 
 IMND.m                5144.79:  Inc Min Depth 
 IMXD.m                5116.12:  Inc Max Depth 
 JARR.                      No:  Jarring 
 LETM.      17.55.56 20-May-20:  Log End Time 
 LOST.hr                     0:  Lost Rig Time 
 LSTM.      04.30.56 18-May-20:  Log Start Time 
 MDCL.ppm            193153.00:  Mud Chlorides 
 MDES.     Inversion Oil/Synthetic:  Mud Desc 
 DFD .sg                  1.40:  Mud Density 
 MDMN.sg                  1.40:  Dens Mud Min 
 MDMX.sg                  1.41:  Dens Mud Max 
 MOIL.                      68:  Run Mud Oil % 
 MOWR.                   68:32:  Run Mud OWR 
 MSND.                     0.2:  Run Mud Sand % 
 MSOL.                    18.8:  Run Mud Solids% 
 DFV .spqt               80.00:  Mud Viscosity 
 MWOD.in                  6.75:  MWD Tool OD 
 MWSI.                      No:  Serv Intrp, MWD 
 OTIM.hr                104.84:  Time Operating 
 PMAX.psia            10690.93:  Press Op, Max 
 PV  .cP                 26.00:  Mud PV 
 RUN .                     900:  Run Number 
 ROPA.m/hr                0.00:  ROP Avg 
 ROPN.m/hr                0.00:  ROP Min 
 ROPX.m/hr                0.00:  ROP Max 
 RPMA.rpm               140.00:  RPM Surface Avg 
 RPMN.rpm                70.00:  RPM Surface Min 
 RPMX.rpm               140.00:  RPM Surface Max 
 RRUN.                    0900:  Rig Run Number 
 RTIM.hr                 36.00:  Time Reaming 
 SAZI.deg               115.72:  Azm, Start 
 SDEP.m                5337.01:  Start Depth 
 SIDD.                      No:  Serv Intrp, DD 
 SINC.deg                66.92:  Inc, Start 
 SPPA.psig             4400.00:  SPP Avg 
 SPPN.psig             1135.00:  SPP Min 
 SPPX.psig             4581.00:  SPP Max 
 STIM.      04.30.56 18-May-20:  Start Time 
 SVCS.                     MWD:  Services 
 SVER.                    9.20:  Sperry Version 
 TDAT.m                5337.01:  Tot Depth Attmp 
 TDDF.                      No:  Trip for DD 
 TFF .                      No:  Trip for Fail 
 TQAA.f-kp               23.00:  Torque Abs Avg 
 TQAN.f-kp               18.00:  Torque Abs Min 
 TQAX.f-kp               25.00:  Torque Abs Max 
 TRRT.°/30m               0.74:  Turn Rotating 
 MRT .                    HCIM:  Maximum Recorded Temperature 
 TTMX.degC               76.47:  Max Tool Temp 
 WBMN.klb                 0.00:  WOB Min 
 WITN.             Anar Khalil:  Customer Rep 
 WITN.      Kamran Keberlinski:  Customer Rep 2 
 WOBA.klb                 0.00:  WOB Avg 
 WOBX.klb                 0.00:  WOB Max 
 YP  .lhf2               27.00:  Yield Point 
~Curve Information Block
#MNEM.UNIT                 API CODE     Curve Description
#---------               -----------    ---------------------------
 TIME.HHMMSS            00 000 000 000:  GT Time & Date
 GTDEPTH.m              00 000 000 000:  GT Depth
 GTPQH.psia             00 000 000 000:  GT HR Quartz Pressure
 GTTQ.degC              00 000 000 000:  GT Quartz Temperature
 GTTN.NONE              00 000 000 000:  GT Test Number
 GTET.sec               00 000 000 000:  GT Elapsed Test Time
 GTTVD.m                00 000 000 000:  GT True Vertical Depth
#Other Information
#
#WARRANTY: Halliburton will use its best efforts to furnish customers with 
#accurate information and interpretations that are part of, and incident to, the services 
#provided.  However, Halliburton cannot and does not warrant the accuracy 
#or correctness of such information and interpretations.  Under no circumstances should any 
#such information or interpretation be relied upon as the sole basis for any drilling, 
#completion, production, or financial decision or any procedure involving any risk to the 
#safety of any drilling venture, drilling rig or its crew or any other third party.  The 
#Customer has full responsibility for all drilling, completion and production operation.  
#Halliburton makes no representations or warranties, either expressed or 
#implied, including, but not limited to, the implied warranties of merchantability or fitness 
#for a particular purpose, with respect to the services rendered.  In no event will 
#Halliburton be liable for failure to obtain any particular results or for 
#any damages, including, but not limited to, indirect, special or consequential damages, 
#resulting from the use of any information or interpretation provided by Halliburton.
#
~A           TIME           GTDEPTH  GTPQH  GTTQ  GTTN  GTET   GTTVD  
# ...
   21:45:03.412.19-May-2020 5137.01 2780.17 67.49 3.00 184.05 2705.05
   21:45:03.612.19-May-2020 5137.01 2780.17 67.49 3.00 184.25 2705.05
   21:45:03.812.19-May-2020 5137.01 2802.16 67.49 3.00 184.45 2705.05
   21:45:04.012.19-May-2020 5137.01 2813.08 67.49 3.00 184.65 2705.05
   21:45:04.212.19-May-2020 5137.01 2823.10 67.49 3.00 184.85 2705.05
   21:45:04.412.19-May-2020 5137.01 2834.26 67.49 3.00 185.05 2705.05
   21:45:04.612.19-May-2020 5137.01 2834.26 67.49 3.00 185.25 2705.05
   21:45:04.812.19-May-2020 5137.01 2854.64 67.49 3.00 185.45 2705.05
   21:45:05.012.19-May-2020 5137.01 2865.70 67.49 3.00 185.65 2705.05
   21:45:05.212.19-May-2020 5137.01 2875.94 67.49 3.00 185.85 2705.05
   21:45:05.412.19-May-2020 5137.01 2886.21 67.49 3.00 186.05 2705.05
   21:45:05.612.19-May-2020 5137.01 2886.21 67.49 3.00 186.25 2705.05
   21:45:05.812.19-May-2020 5137.01 2906.33 67.49 3.00 186.45 2705.05
   21:45:06.013.19-May-2020 5137.01 2915.62 67.49 3.00 186.65 2705.05
   21:45:06.213.19-May-2020 5137.01 2925.96 67.49 3.00 186.85 2705.05
   21:45:06.413.19-May-2020 5137.01 2935.69 67.50 3.00 187.05 2705.05
   21:45:06.613.19-May-2020 5137.01 2935.69 67.50 3.00 187.25 2705.05
   21:45:06.813.19-May-2020 5137.01 2954.95 67.50 3.00 187.45 2705.05
   21:45:07.013.19-May-2020 5137.01 2964.45 67.50 3.00 187.65 2705.05
   21:45:07.213.19-May-2020 5137.01 2973.20 67.50 3.00 187.85 2705.05
   21:45:07.413.19-May-2020 5137.01 2983.06 67.50 3.00 188.05 2705.05
   21:45:07.613.19-May-2020 5137.01 2983.06 67.50 3.00 188.25 2705.05
   21:45:07.813.19-May-2020 5137.01 2992.13 67.50 3.00 188.45 2705.05
   21:45:08.013.19-May-2020 5137.01 3010.40 67.50 3.00 188.65 2705.05
   21:45:08.213.19-May-2020 5137.01 3019.46 67.50 3.00 188.85 2705.05
   21:45:08.413.19-May-2020 5137.01 3027.68 67.50 3.00 189.05 2705.05
   21:45:08.613.19-May-2020 5137.01 3027.68 67.50 3.00 189.25 2705.05
   21:45:08.813.19-May-2020 5137.01 3045.62 67.50 3.00 189.45 2705.05
   21:45:09.013.19-May-2020 5137.01 3054.48 67.50 3.00 189.65 2705.05
   21:45:09.213.19-May-2020 5137.01 3062.97 67.50 3.00 189.85 2705.05
   21:45:09.413.19-May-2020 5137.01 3071.53 67.50 3.00 190.05 2705.05
   21:45:09.613.19-May-2020 5137.01 3071.53 67.50 3.00 190.25 2705.05
   21:45:09.813.19-May-2020 5137.01 3088.35 67.50 3.00 190.45 2705.05
   21:45:10.014.19-May-2020 5137.01 3096.67 67.50 3.00 190.65 2705.05
   21:45:10.214.19-May-2020 5137.01 3104.86 67.50 3.00 190.85 2705.05
   21:45:10.414.19-May-2020 5137.01 3112.99 67.50 3.00 191.05 2705.05
   21:45:10.614.19-May-2020 5137.01 3112.99 67.50 3.00 191.25 2705.05
   21:45:10.814.19-May-2020 5137.01 3129.10 67.50 3.00 191.45 2705.05
   21:45:11.014.19-May-2020 5137.01 3137.06 67.50 3.00 191.65 2705.05
   21:45:11.214.19-May-2020 5137.01 3144.91 67.51 3.00 191.85 2705.05
   21:45:11.414.19-May-2020 5137.01 3152.69 67.51 3.00 192.05 2705.05
   21:45:11.614.19-May-2020 5137.01 3152.69 67.51 3.00 192.25 2705.05
   21:45:11.814.19-May-2020 5137.01 3167.82 67.51 3.00 192.45 2705.05
   21:45:12.014.19-May-2020 5137.01 3175.44 67.51 3.00 192.65 2705.05
   21:45:12.214.19-May-2020 5137.01 3182.25 67.51 3.00 192.85 2705.05
   21:45:12.414.19-May-2020 5137.01 3190.34 67.51 3.00 193.05 2705.05
   21:45:12.614.19-May-2020 5137.01 3197.72 67.51 3.00 193.25 2705.05
   21:45:12.814.19-May-2020 5137.01 3205.10 67.51 3.00 193.45 2705.05
   21:45:13.014.19-May-2020 5137.01 3212.39 67.51 3.00 193.65 2705.05
   21:45:13.214.19-May-2020 5137.01 3219.64 67.51 3.00 193.85 2705.05
   21:45:13.414.19-May-2020 5137.01 3226.35 67.51 3.00 194.05 2705.05
   21:45:13.614.19-May-2020 5137.01 3226.35 67.51 3.00 194.25 2705.05
   21:45:13.814.19-May-2020 5137.01 3240.74 67.51 3.00 194.45 2705.05
   21:45:14.015.19-May-2020 5137.01 3247.79 67.51 3.00 194.65 2705.05
   21:45:14.215.19-May-2020 5137.01 3254.71 67.51 3.00 194.85 2705.05
   21:45:14.415.19-May-2020 5137.01 3261.54 67.51 3.00 195.05 2705.05
   21:45:14.615.19-May-2020 5137.01 3261.54 67.51 3.00 195.25 2705.05
   21:45:14.815.19-May-2020 5137.01 3274.80 67.51 3.00 195.45 2705.05
   21:45:15.015.19-May-2020 5137.01 3281.65 67.51 3.00 195.65 2705.05
   21:45:15.215.19-May-2020 5137.01 3288.29 67.51 3.00 195.85 2705.05
   21:45:15.415.19-May-2020 5137.01 3294.89 67.51 3.00 196.05 2705.05
   21:45:15.615.19-May-2020 5137.01 3300.75 67.51 3.00 196.25 2705.05
   21:45:15.815.19-May-2020 5137.01 3307.79 67.51 3.00 196.45 2705.05
   21:45:16.015.19-May-2020 5137.01 3314.21 67.51 3.00 196.65 2705.05
   21:45:16.215.19-May-2020 5137.01 3320.61 67.51 3.00 196.85 2705.05
   21:45:16.415.19-May-2020 5137.01 3326.90 67.51 3.00 197.05 2705.05
   21:45:16.615.19-May-2020 5137.01 3333.18 67.51 3.00 197.25 2705.05
   21:45:16.815.19-May-2020 5137.01 3339.38 67.51 3.00 197.45 2705.05
   21:45:17.015.19-May-2020 5137.01 3345.56 67.51 3.00 197.65 2705.05
   21:45:17.215.19-May-2020 5137.01 3351.67 67.51 3.00 197.85 2705.05
   21:45:17.415.19-May-2020 5137.01 3357.71 67.51 3.00 198.05 2705.05
   21:45:17.615.19-May-2020 5137.01 3357.71 67.51 3.00 198.25 2705.05
   21:45:17.815.19-May-2020 5137.01 3369.62 67.51 3.00 198.45 2705.05
   21:45:18.016.19-May-2020 5137.01 3375.61 67.51 3.00 198.65 2705.05
   21:45:18.216.19-May-2020 5137.01 3381.44 67.51 3.00 198.85 2705.05
   21:45:18.416.19-May-2020 5137.01 3387.22 67.51 3.00 199.05 2705.05
   21:45:18.616.19-May-2020 5137.01 3387.22 67.51 3.00 199.25 2705.05
   21:45:18.816.19-May-2020 5137.01 3398.58 67.52 3.00 199.45 2705.05
   21:45:19.016.19-May-2020 5137.01 3404.16 67.52 3.00 199.65 2705.05
   21:45:19.216.19-May-2020 5137.01 3409.74 67.52 3.00 199.85 2705.05
   21:45:19.416.19-May-2020 5137.01 3414.60 67.52 3.00 200.05 2705.05
   21:45:19.616.19-May-2020 5137.01 3414.60 67.52 3.00 200.25 2705.05
   21:45:19.816.19-May-2020 5137.01 3426.28 67.52 3.00 200.45 2705.05
   21:45:20.016.19-May-2020 5137.01 3431.74 67.52 3.00 200.65 2705.05
   21:45:20.216.19-May-2020 5137.01 3437.24 67.52 3.00 200.85 2705.05
   21:45:20.416.19-May-2020 5137.01 3441.90 67.52 3.00 201.05 2705.05
   21:45:20.616.19-May-2020 5137.01 3441.90 67.52 3.00 201.25 2705.05
   21:45:20.816.19-May-2020 5137.01 3452.98 67.52 3.00 201.45 2705.05
   21:45:21.016.19-May-2020 5137.01 3457.90 67.52 3.00 201.65 2705.05
   21:45:21.216.19-May-2020 5137.01 3463.30 67.52 3.00 201.85 2705.05
   21:45:21.416.19-May-2020 5137.01 3468.59 67.52 3.00 202.05 2705.05
   21:45:21.616.19-May-2020 5137.01 3468.59 67.52 3.00 202.25 2705.05
   21:45:21.816.19-May-2020 5137.01 3478.84 67.52 3.00 202.45 2705.05
   21:45:22.017.19-May-2020 5137.01 3483.21 67.52 3.00 202.65 2705.05
   21:45:22.217.19-May-2020 5137.01 3488.79 67.52 3.00 202.85 2705.05
   21:45:22.417.19-May-2020 5137.01 3493.76 67.52 3.00 203.05 2705.05
   21:45:22.617.19-May-2020 5137.01 3493.76 67.52 3.00 203.25 2705.05
   21:45:22.817.19-May-2020 5137.01 3503.49 67.52 3.00 203.45 2705.05
   21:45:23.017.19-May-2020 5137.01 3508.44 67.52 3.00 203.65 2705.05
   21:45:23.217.19-May-2020 5137.01 3513.21 67.52 3.00 203.85 2705.05
   21:45:23.417.19-May-2020 5137.01 3518.01 67.52 3.00 204.05 2705.05
   21:45:23.617.19-May-2020 5137.01 3518.01 67.52 3.00 204.25 2705.05
   21:45:23.817.19-May-2020 5137.01 3527.42 67.52 3.00 204.45 2705.05
   21:45:24.017.19-May-2020 5137.01 3532.08 67.52 3.00 204.65 2705.05
   21:45:24.217.19-May-2020 5137.01 3536.74 67.52 3.00 204.85 2705.05
   21:45:24.417.19-May-2020 5137.01 3541.34 67.52 3.00 205.05 2705.05
   21:45:24.617.19-May-2020 5137.01 3541.34 67.52 3.00 205.25 2705.05
   21:45:24.817.19-May-2020 5137.01 3550.34 67.52 3.00 205.45 2705.05
   21:45:25.017.19-May-2020 5137.01 3554.14 67.52 3.00 205.65 2705.05
   21:45:25.217.19-May-2020 5137.01 3559.14 67.52 3.00 205.85 2705.05
   21:45:25.417.19-May-2020 5137.01 3563.50 67.52 3.00 206.05 2705.05
   21:45:25.617.19-May-2020 5137.01 3563.50 67.52 3.00 206.25 2705.05
   21:45:25.817.19-May-2020 5137.01 3571.59 67.52 3.00 206.45 2705.05
   21:45:26.018.19-May-2020 5137.01 3576.47 67.52 3.00 206.65 2705.05
   21:45:26.218.19-May-2020 5137.01 3580.74 67.52 3.00 206.85 2705.05
