~Version Information
 VERS.                  2.0:   CWLS log ASCII Standard -VERSION 2.0
 WRAP.                   NO:   One line per depth step
~Well Information Block
#MNEM.UNIT     VALUE/NAME     DESCRIPTION
#---------     -----------    ---------------------------
 STRT.S             00:06:39 20-May-20: START TIME 00:06:39 20-May-20
 STOP.S             00:17:12 20-May-20: STOP TIME  00:17:12 20-May-20
 STEP.S                   0.00: STEP TIME
 NULL.                 -999.25: NULL VALUE
 MDS .        Operator Entered:  MAG DATA SOURCE
 PDAT.          Mean Sea Level:  PERMANENT DATUM
 UNIT.                     N/A:  LOGGING EQUIPMENT ID
 DCON.         Sperry Drilling:  DIRECTNL CONTR
 DOE .                     N/A:  DOE NUMBER
 RIG .              East Azeri:  RIG NAME
 JOBN.        AZ-XX-0905856059:  JOB TICKET NUMB
 WELL.                     D36:  WELL NAME
 MWDS.                    Baku:  MWD SHOP
 SRVC.     Turan Drilling & Engineering:  CONTRACTOR
 FLD .                     ACG:  FIELD NAME
 CTRY.              Azerbaijan:  COUNTRY NAME
 PROV.                    Baku:  PROVINCE
 STAT.                    Baku:  STATE NAME
 REGN.                   EESSA:  REGION
 BASE.              Azerbaijan:  LOGGING EQUIPMENT BASE LOCATION
 UWI .                     N/A:  UNIQUE WELL IDENTIFIER
 API .                     N/A:  API NUMBER
 COMP.     BP Exploration (Caspian Sea) Ltd.:  COMPANY
 WTYP.                Deviated:  WELL TYPE
 SON .        AZ-XX-0905856059:  JOB NUMBER
 FTOP.          Formation Tops:  FORM TOPS DESC
 ILTD.               Lithology:  INTERP LTH DESC
 SVYD.                  Survey:  SURVEY DESC
 DMOD.             Drill Model:  DRILL MOD DESC
 HPTY.       Minimum Curvature:  HOLE POS TYPE
 NREF.                    Grid:  NORTH REFERENCE
 SPUD.               25-Feb-20:  SPUD DATE
 DATE.      08.55.28 01-May-20:  END TIME
 STIM.      08.55.28 25-Feb-20:  START TIME
 DMF .             Drill Floor:  DRILL MEAS FROM
 DFST.                        :  DIST FSL TEXT
 DFWT.                        :  DIST FWL TEXT
 CNTY.                        :  COUNTY
 LOC .                        :  LOCATION
 LMF .             Drill Floor:  LOG MEASURED FROM
 VSNS.m                   6.09:  VERT SEC N/S
 VSEW.m                 -10.79:  VERT SEC E/W
 AGAP.m                  43.60:  AIR GAP
 DEP .m                 388.24:  DEPTH
 APD .m                  43.60:  DEPTH ABOVE PD
 WDMS.m                 151.80:  WD ELEV
 EGL .m                   0.00:  GROUND ELEVATION
 EPD .m                   0.00:  ELEVATION
 AZTC.deg                 6.12:  AZM TOTAL CORR
 GRDC.deg                 0.30:  GRID CORRECTION
 MDEC.deg                 6.42:  MAGNETIC DECL
 MDIP.deg                59.42:  MAGNETIC DIP
 MFLD.nT              50256.00:  MAGNETIC FIELD
 GVFD.g                   1.00:  GRAVITY FIELD
 VSDR.deg               159.57:  VERT SEC DIRECT
 TDD .m                5000.01:  TOTAL DEPTH (DRILLER)
 SDEP.m                 397.00:  START DEPTH
 DFSL.m                   0.00:  DISTANCE FSL
 DFWL.m                   0.00:  DISTANCE FWL
 UTMY.m             4431880.20:  UTM Y
 UTMX.m              538763.98:  UTM X
 WHEW.m                 -10.79:  WELL HEAD E/W
 WHNS.m                   6.09:  WELL HEAD N/S
 LONG.deg                51.45:  LONGITUDE
 LATI.deg                40.02:  LATITUDE
 TVDS.m                  43.60:  TVDSS CORRECTN
 EKB .m                  43.60:  KB ELEVATION
 EDF .m                  43.60:  DF ELEVATION
 MAGU.                 1847640:  MAGUTM CHECKSUM
 VSC .                       0:  VS TO CLOSURE
~Parameter Information Block
#MNEM.UNIT       Value        Description
#---------     -----------    ---------------------------
 AV  .mps                 1.30:  Ann Velocity 
 AVMX.mps                 1.90:  Max Ann Veloc 
 AZIF.deg               115.68:  Azm, Final 
 BHAT.                   Other:  BHA Type 
 BROT.°/30m               0.74:  Build Rotating 
 BS  .in                  8.50:  Bit Size 
 BTPL.psig              430.00:  Bit Press Loss 
 CABU.                      No:  Customer Abuse 
 COMM.                     \õd:  Run Comments 1 
 TCS .hr                 51.31:  Time Ciculation Ended 
 CV  .mps                 2.52:  Crit Velocity 
 CVMX.mps                 2.62:  Max Crit Veloc 
 DD1 .          Teymur Aghayev:  Direct Drillr 1 
 DDSV.                   Other:  DD Service 
 DEFF.%                 100.00:  % Det Eff 
 DLRX.°/30m               1.62:  Dogleg Rot Max 
 DLSO.°/30m               0.74:  Dogleg Oriented 
 DLSX.°/30m               1.62:  Dogleg Str Max 
 DRET.      04.30.56 18-May-20:  Drill End Time 
 DRST.      04.30.56 18-May-20:  Drill Start Tim 
 DTIM.hr                  0.00:  Time Drilling 
 EDEP.m                5337.01:  End Depth 
 ENG1.      Artemiy Matviyanov:  Engineer 1 
 ENG2.      Bakhtiyar Jabbarli:  Engineer 2 
 ENG3.           Emil Huseynov:  Engineer 3 
 ETIM.      18.40.00 22-May-20:  End Time 
 FLOI.gpm               550.00:  Flow In 
 FLON.gpm               350.00:  Flow In Min 
 FLOS.cptm                0.00:  Fluid Loss 
 FLOX.gpm               600.00:  Flow In Max 
 HFLO.                      No:  High Flow 
 HPRE.                      No:  High Pressure 
 HTEM.                      No:  High Temp 
 HYDO.m                   1.80:  Hydro Offset 
 IFIN.deg                67.01:  Inc, Final 
 IMAX.deg                67.49:  Inc Max 
 IMIN.deg                66.50:  Inc Min 
 IMND.m                5144.79:  Inc Min Depth 
 IMXD.m                5116.12:  Inc Max Depth 
 JARR.                      No:  Jarring 
 LETM.      17.55.56 20-May-20:  Log End Time 
 LOST.hr                     0:  Lost Rig Time 
 LSTM.      04.30.56 18-May-20:  Log Start Time 
 MDCL.ppm            193153.00:  Mud Chlorides 
 MDES.     Inversion Oil/Synthetic:  Mud Desc 
 DFD .sg                  1.40:  Mud Density 
 MDMN.sg                  1.40:  Dens Mud Min 
 MDMX.sg                  1.41:  Dens Mud Max 
 MOIL.                      68:  Run Mud Oil % 
 MOWR.                   68:32:  Run Mud OWR 
 MSND.                     0.2:  Run Mud Sand % 
 MSOL.                    18.8:  Run Mud Solids% 
 DFV .spqt               80.00:  Mud Viscosity 
 MWOD.in                  6.75:  MWD Tool OD 
 MWSI.                      No:  Serv Intrp, MWD 
 OTIM.hr                104.84:  Time Operating 
 PMAX.psia            10690.93:  Press Op, Max 
 PV  .cP                 26.00:  Mud PV 
 RUN .                     900:  Run Number 
 ROPA.m/hr                0.00:  ROP Avg 
 ROPN.m/hr                0.00:  ROP Min 
 ROPX.m/hr                0.00:  ROP Max 
 RPMA.rpm               140.00:  RPM Surface Avg 
 RPMN.rpm                70.00:  RPM Surface Min 
 RPMX.rpm               140.00:  RPM Surface Max 
 RRUN.                    0900:  Rig Run Number 
 RTIM.hr                 36.00:  Time Reaming 
 SAZI.deg               115.72:  Azm, Start 
 SDEP.m                5337.01:  Start Depth 
 SIDD.                      No:  Serv Intrp, DD 
 SINC.deg                66.92:  Inc, Start 
 SPPA.psig             4400.00:  SPP Avg 
 SPPN.psig             1135.00:  SPP Min 
 SPPX.psig             4581.00:  SPP Max 
 STIM.      04.30.56 18-May-20:  Start Time 
 SVCS.                     MWD:  Services 
 SVER.                    9.20:  Sperry Version 
 TDAT.m                5337.01:  Tot Depth Attmp 
 TDDF.                      No:  Trip for DD 
 TFF .                      No:  Trip for Fail 
 TQAA.f-kp               23.00:  Torque Abs Avg 
 TQAN.f-kp               18.00:  Torque Abs Min 
 TQAX.f-kp               25.00:  Torque Abs Max 
 TRRT.°/30m               0.74:  Turn Rotating 
 MRT .                    HCIM:  Maximum Recorded Temperature 
 TTMX.degC               76.47:  Max Tool Temp 
 WBMN.klb                 0.00:  WOB Min 
 WITN.             Anar Khalil:  Customer Rep 
 WITN.      Kamran Keberlinski:  Customer Rep 2 
 WOBA.klb                 0.00:  WOB Avg 
 WOBX.klb                 0.00:  WOB Max 
 YP  .lhf2               27.00:  Yield Point 
~Curve Information Block
#MNEM.UNIT                 API CODE     Curve Description
#---------               -----------    ---------------------------
 TIME.HHMMSS            00 000 000 000:  GT Time & Date
 GTDEPTH.m              00 000 000 000:  GT Depth
 GTPQH.psia             00 000 000 000:  GT HR Quartz Pressure
 GTTQ.degC              00 000 000 000:  GT Quartz Temperature
 GTTN.NONE              00 000 000 000:  GT Test Number
 GTET.sec               00 000 000 000:  GT Elapsed Test Time
 GTTVD.m                00 000 000 000:  GT True Vertical Depth
#Other Information
#
#WARRANTY: Halliburton will use its best efforts to furnish customers with 
#accurate information and interpretations that are part of, and incident to, the services 
#provided.  However, Halliburton cannot and does not warrant the accuracy 
#or correctness of such information and interpretations.  Under no circumstances should any 
#such information or interpretation be relied upon as the sole basis for any drilling, 
#completion, production, or financial decision or any procedure involving any risk to the 
#safety of any drilling venture, drilling rig or its crew or any other third party.  The 
#Customer has full responsibility for all drilling, completion and production operation.  
#Halliburton makes no representations or warranties, either expressed or 
#implied, including, but not limited to, the implied warranties of merchantability or fitness 
#for a particular purpose, with respect to the services rendered.  In no event will 
#Halliburton be liable for failure to obtain any particular results or for 
#any damages, including, but not limited to, indirect, special or consequential damages, 
#resulting from the use of any information or interpretation provided by Halliburton.
#
~A           TIME           GTDEPTH  GTPQH  GTTQ  GTTN  GTET   GTTVD  
# ...
   00:17:00.685.20-May-2020 5121.01 6437.81 67.93 6.00 621.15 2698.81
   00:17:00.885.20-May-2020 5121.01 6437.81 67.93 6.00 621.35 2698.81
   00:17:01.085.20-May-2020 5121.01 6437.02 67.93 6.00 621.55 2698.81
   00:17:01.285.20-May-2020 5121.01 6438.16 67.93 6.00 621.75 2698.81
   00:17:01.485.20-May-2020 5121.01 6436.91 67.93 6.00 621.96 2698.81
   00:17:01.685.20-May-2020 5121.01 6437.05 67.93 6.00 622.16 2698.81
   00:17:01.885.20-May-2020 5121.01 6437.05 67.93 6.00 622.36 2698.81
   00:17:02.085.20-May-2020 5121.01 6436.36 67.93 6.00 622.56 2698.81
   00:17:02.285.20-May-2020 5121.01 6437.33 67.93 6.00 622.76 2698.81
   00:17:02.485.20-May-2020 5121.01 6437.85 67.93 6.00 622.96 2698.81
   00:17:02.685.20-May-2020 5121.01 6440.12 67.93 6.00 623.16 2698.81
   00:17:02.885.20-May-2020 5121.01 6440.12 67.93 6.00 623.36 2698.81
   00:17:03.085.20-May-2020 5121.01 6437.34 67.93 6.00 623.56 2698.81
   00:17:03.285.20-May-2020 5121.01 6437.24 67.93 6.00 623.76 2698.81
   00:17:03.485.20-May-2020 5121.01 6444.03 67.93 6.00 623.96 2698.81
   00:17:03.685.20-May-2020 5121.01 6434.23 67.93 6.00 624.16 2698.81
   00:17:03.885.20-May-2020 5121.01 6434.23 67.93 6.00 624.36 2698.81
   00:17:04.085.20-May-2020 5121.01 6438.54 67.93 6.00 624.56 2698.81
   00:17:04.285.20-May-2020 5121.01 6440.92 67.93 6.00 624.76 2698.81
   00:17:04.485.20-May-2020 5121.01 6440.54 67.93 6.00 624.96 2698.81
   00:17:04.686.20-May-2020 5121.01 6438.46 67.93 6.00 625.16 2698.81
   00:17:04.886.20-May-2020 5121.01 6438.46 67.93 6.00 625.36 2698.81
   00:17:05.086.20-May-2020 5121.01 6438.58 67.93 6.00 625.56 2698.81
   00:17:05.286.20-May-2020 5121.01 6444.44 67.93 6.00 625.76 2698.81
   00:17:05.486.20-May-2020 5121.01 6437.55 67.93 6.00 625.96 2698.81
   00:17:05.686.20-May-2020 5121.01 6439.88 67.93 6.00 626.16 2698.81
   00:17:05.886.20-May-2020 5121.01 6439.88 67.93 6.00 626.36 2698.81
   00:17:06.086.20-May-2020 5121.01 6444.24 67.93 6.00 626.56 2698.81
   00:17:06.286.20-May-2020 5121.01 6438.16 67.93 6.00 626.76 2698.81
   00:17:06.486.20-May-2020 5121.01 6439.18 67.93 6.00 626.96 2698.81
   00:17:06.686.20-May-2020 5121.01 6439.48 67.93 6.00 627.16 2698.81
   00:17:06.886.20-May-2020 5121.01 6439.48 67.93 6.00 627.36 2698.81
   00:17:07.086.20-May-2020 5121.01 6436.82 67.93 6.00 627.56 2698.81
   00:17:07.286.20-May-2020 5121.01 6439.42 67.93 6.00 627.76 2698.81
   00:17:07.486.20-May-2020 5121.01 6437.69 67.93 6.00 627.96 2698.81
   00:17:07.686.20-May-2020 5121.01 6438.00 67.93 6.00 628.16 2698.81
   00:17:07.886.20-May-2020 5121.01 6438.00 67.93 6.00 628.36 2698.81
   00:17:08.086.20-May-2020 5121.01 6436.98 67.93 6.00 628.56 2698.81
   00:17:08.286.20-May-2020 5121.01 6438.59 67.93 6.00 628.76 2698.81
   00:17:08.486.20-May-2020 5121.01 6437.26 67.93 6.00 628.96 2698.81
   00:17:08.687.20-May-2020 5121.01 6437.50 67.93 6.00 629.16 2698.81
   00:17:08.887.20-May-2020 5121.01 6437.50 67.93 6.00 629.36 2698.81
   00:17:09.087.20-May-2020 5121.01 6442.50 67.93 6.00 629.56 2698.81
   00:17:09.287.20-May-2020 5121.01 6435.97 67.93 6.00 629.76 2698.81
   00:17:09.487.20-May-2020 5121.01 6438.85 67.93 6.00 629.96 2698.81
   00:17:09.687.20-May-2020 5121.01 6439.13 67.93 6.00 630.16 2698.81
   00:17:09.887.20-May-2020 5121.01 6439.13 67.93 6.00 630.36 2698.81
   00:17:10.087.20-May-2020 5121.01 6441.70 67.93 6.00 630.56 2698.81
   00:17:10.287.20-May-2020 5121.01 6437.95 67.93 6.00 630.76 2698.81
   00:17:10.487.20-May-2020 5121.01 6438.30 67.93 6.00 630.96 2698.81
   00:17:10.687.20-May-2020 5121.01 6437.30 67.93 6.00 631.16 2698.81
   00:17:10.887.20-May-2020 5121.01 6437.30 67.93 6.00 631.36 2698.81
   00:17:11.087.20-May-2020 5121.01 6434.08 67.93 6.00 631.56 2698.81
   00:17:11.287.20-May-2020 5121.01 6440.57 67.93 6.00 631.76 2698.81
   00:17:11.487.20-May-2020 5121.01 6438.91 67.93 6.00 631.96 2698.81
   00:17:11.687.20-May-2020 5121.01 6443.44 67.93 6.00 632.16 2698.81
   00:17:11.887.20-May-2020 5121.01 6443.44 67.93 6.00 632.36 2698.81
   00:17:12.087.20-May-2020 5121.01 6439.99 67.93 6.00 632.56 2698.81
   00:17:12.287.20-May-2020 5121.01 6440.33 67.93 6.00 632.76 2698.81
   00:17:12.487.20-May-2020 5121.01 6437.60 67.93 6.00 632.96 2698.81
