~Version Information
 VERS.                  2.0:   CWLS log ASCII Standard -VERSION 2.0
 WRAP.                   NO:   One line per depth step
~Well Information Block
#MNEM.UNIT     VALUE/NAME     DESCRIPTION
#---------     -----------    ---------------------------
 STRT.S             23:11:25 19-May-20: START TIME 23:11:25 19-May-20
 STOP.S             23:19:39 19-May-20: STOP TIME  23:19:39 19-May-20
 STEP.S                   0.00: STEP TIME
 NULL.                 -999.25: NULL VALUE
 MDS .        Operator Entered:  MAG DATA SOURCE
 PDAT.          Mean Sea Level:  PERMANENT DATUM
 UNIT.                     N/A:  LOGGING EQUIPMENT ID
 DCON.         Sperry Drilling:  DIRECTNL CONTR
 DOE .                     N/A:  DOE NUMBER
 RIG .              East Azeri:  RIG NAME
 JOBN.        AZ-XX-0905856059:  JOB TICKET NUMB
 WELL.                     D36:  WELL NAME
 MWDS.                    Baku:  MWD SHOP
 SRVC.     Turan Drilling & Engineering:  CONTRACTOR
 FLD .                     ACG:  FIELD NAME
 CTRY.              Azerbaijan:  COUNTRY NAME
 PROV.                    Baku:  PROVINCE
 STAT.                    Baku:  STATE NAME
 REGN.                   EESSA:  REGION
 BASE.              Azerbaijan:  LOGGING EQUIPMENT BASE LOCATION
 UWI .                     N/A:  UNIQUE WELL IDENTIFIER
 API .                     N/A:  API NUMBER
 COMP.     BP Exploration (Caspian Sea) Ltd.:  COMPANY
 WTYP.                Deviated:  WELL TYPE
 SON .        AZ-XX-0905856059:  JOB NUMBER
 FTOP.          Formation Tops:  FORM TOPS DESC
 ILTD.               Lithology:  INTERP LTH DESC
 SVYD.                  Survey:  SURVEY DESC
 DMOD.             Drill Model:  DRILL MOD DESC
 HPTY.       Minimum Curvature:  HOLE POS TYPE
 NREF.                    Grid:  NORTH REFERENCE
 SPUD.               25-Feb-20:  SPUD DATE
 DATE.      08.55.28 01-May-20:  END TIME
 STIM.      08.55.28 25-Feb-20:  START TIME
 DMF .             Drill Floor:  DRILL MEAS FROM
 DFST.                        :  DIST FSL TEXT
 DFWT.                        :  DIST FWL TEXT
 CNTY.                        :  COUNTY
 LOC .                        :  LOCATION
 LMF .             Drill Floor:  LOG MEASURED FROM
 VSNS.m                   6.09:  VERT SEC N/S
 VSEW.m                 -10.79:  VERT SEC E/W
 AGAP.m                  43.60:  AIR GAP
 DEP .m                 388.24:  DEPTH
 APD .m                  43.60:  DEPTH ABOVE PD
 WDMS.m                 151.80:  WD ELEV
 EGL .m                   0.00:  GROUND ELEVATION
 EPD .m                   0.00:  ELEVATION
 AZTC.deg                 6.12:  AZM TOTAL CORR
 GRDC.deg                 0.30:  GRID CORRECTION
 MDEC.deg                 6.42:  MAGNETIC DECL
 MDIP.deg                59.42:  MAGNETIC DIP
 MFLD.nT              50256.00:  MAGNETIC FIELD
 GVFD.g                   1.00:  GRAVITY FIELD
 VSDR.deg               159.57:  VERT SEC DIRECT
 TDD .m                5000.01:  TOTAL DEPTH (DRILLER)
 SDEP.m                 397.00:  START DEPTH
 DFSL.m                   0.00:  DISTANCE FSL
 DFWL.m                   0.00:  DISTANCE FWL
 UTMY.m             4431880.20:  UTM Y
 UTMX.m              538763.98:  UTM X
 WHEW.m                 -10.79:  WELL HEAD E/W
 WHNS.m                   6.09:  WELL HEAD N/S
 LONG.deg                51.45:  LONGITUDE
 LATI.deg                40.02:  LATITUDE
 TVDS.m                  43.60:  TVDSS CORRECTN
 EKB .m                  43.60:  KB ELEVATION
 EDF .m                  43.60:  DF ELEVATION
 MAGU.                 1847640:  MAGUTM CHECKSUM
 VSC .                       0:  VS TO CLOSURE
~Parameter Information Block
#MNEM.UNIT       Value        Description
#---------     -----------    ---------------------------
 AV  .mps                 1.30:  Ann Velocity 
 AVMX.mps                 1.90:  Max Ann Veloc 
 AZIF.deg               115.68:  Azm, Final 
 BHAT.                   Other:  BHA Type 
 BROT.°/30m               0.74:  Build Rotating 
 BS  .in                  8.50:  Bit Size 
 BTPL.psig              430.00:  Bit Press Loss 
 CABU.                      No:  Customer Abuse 
 COMM.                     Tr}:  Run Comments 1 
 TCS .hr                 51.31:  Time Ciculation Ended 
 CV  .mps                 2.52:  Crit Velocity 
 CVMX.mps                 2.62:  Max Crit Veloc 
 DD1 .          Teymur Aghayev:  Direct Drillr 1 
 DDSV.                   Other:  DD Service 
 DEFF.%                 100.00:  % Det Eff 
 DLRX.°/30m               1.62:  Dogleg Rot Max 
 DLSO.°/30m               0.74:  Dogleg Oriented 
 DLSX.°/30m               1.62:  Dogleg Str Max 
 DRET.      04.30.56 18-May-20:  Drill End Time 
 DRST.      04.30.56 18-May-20:  Drill Start Tim 
 DTIM.hr                  0.00:  Time Drilling 
 EDEP.m                5337.01:  End Depth 
 ENG1.      Artemiy Matviyanov:  Engineer 1 
 ENG2.      Bakhtiyar Jabbarli:  Engineer 2 
 ENG3.           Emil Huseynov:  Engineer 3 
 ETIM.      18.40.00 22-May-20:  End Time 
 FLOI.gpm               550.00:  Flow In 
 FLON.gpm               350.00:  Flow In Min 
 FLOS.cptm                0.00:  Fluid Loss 
 FLOX.gpm               600.00:  Flow In Max 
 HFLO.                      No:  High Flow 
 HPRE.                      No:  High Pressure 
 HTEM.                      No:  High Temp 
 HYDO.m                   1.80:  Hydro Offset 
 IFIN.deg                67.01:  Inc, Final 
 IMAX.deg                67.49:  Inc Max 
 IMIN.deg                66.50:  Inc Min 
 IMND.m                5144.79:  Inc Min Depth 
 IMXD.m                5116.12:  Inc Max Depth 
 JARR.                      No:  Jarring 
 LETM.      17.55.56 20-May-20:  Log End Time 
 LOST.hr                     0:  Lost Rig Time 
 LSTM.      04.30.56 18-May-20:  Log Start Time 
 MDCL.ppm            193153.00:  Mud Chlorides 
 MDES.     Inversion Oil/Synthetic:  Mud Desc 
 DFD .sg                  1.40:  Mud Density 
 MDMN.sg                  1.40:  Dens Mud Min 
 MDMX.sg                  1.41:  Dens Mud Max 
 MOIL.                      68:  Run Mud Oil % 
 MOWR.                   68:32:  Run Mud OWR 
 MSND.                     0.2:  Run Mud Sand % 
 MSOL.                    18.8:  Run Mud Solids% 
 DFV .spqt               80.00:  Mud Viscosity 
 MWOD.in                  6.75:  MWD Tool OD 
 MWSI.                      No:  Serv Intrp, MWD 
 OTIM.hr                104.84:  Time Operating 
 PMAX.psia            10690.93:  Press Op, Max 
 PV  .cP                 26.00:  Mud PV 
 RUN .                     900:  Run Number 
 ROPA.m/hr                0.00:  ROP Avg 
 ROPN.m/hr                0.00:  ROP Min 
 ROPX.m/hr                0.00:  ROP Max 
 RPMA.rpm               140.00:  RPM Surface Avg 
 RPMN.rpm                70.00:  RPM Surface Min 
 RPMX.rpm               140.00:  RPM Surface Max 
 RRUN.                    0900:  Rig Run Number 
 RTIM.hr                 36.00:  Time Reaming 
 SAZI.deg               115.72:  Azm, Start 
 SDEP.m                5337.01:  Start Depth 
 SIDD.                      No:  Serv Intrp, DD 
 SINC.deg                66.92:  Inc, Start 
 SPPA.psig             4400.00:  SPP Avg 
 SPPN.psig             1135.00:  SPP Min 
 SPPX.psig             4581.00:  SPP Max 
 STIM.      04.30.56 18-May-20:  Start Time 
 SVCS.                     MWD:  Services 
 SVER.                    9.20:  Sperry Version 
 TDAT.m                5337.01:  Tot Depth Attmp 
 TDDF.                      No:  Trip for DD 
 TFF .                      No:  Trip for Fail 
 TQAA.f-kp               23.00:  Torque Abs Avg 
 TQAN.f-kp               18.00:  Torque Abs Min 
 TQAX.f-kp               25.00:  Torque Abs Max 
 TRRT.°/30m               0.74:  Turn Rotating 
 MRT .                    HCIM:  Maximum Recorded Temperature 
 TTMX.degC               76.47:  Max Tool Temp 
 WBMN.klb                 0.00:  WOB Min 
 WITN.             Anar Khalil:  Customer Rep 
 WITN.      Kamran Keberlinski:  Customer Rep 2 
 WOBA.klb                 0.00:  WOB Avg 
 WOBX.klb                 0.00:  WOB Max 
 YP  .lhf2               27.00:  Yield Point 
~Curve Information Block
#MNEM.UNIT                 API CODE     Curve Description
#---------               -----------    ---------------------------
 TIME.HHMMSS            00 000 000 000:  GT Time & Date
 GTDEPTH.m              00 000 000 000:  GT Depth
 GTPQH.psia             00 000 000 000:  GT HR Quartz Pressure
 GTTQ.degC              00 000 000 000:  GT Quartz Temperature
 GTTN.NONE              00 000 000 000:  GT Test Number
 GTET.sec               00 000 000 000:  GT Elapsed Test Time
 GTTVD.m                00 000 000 000:  GT True Vertical Depth
#Other Information
#
#WARRANTY: Halliburton will use its best efforts to furnish customers with 
#accurate information and interpretations that are part of, and incident to, the services 
#provided.  However, Halliburton cannot and does not warrant the accuracy 
#or correctness of such information and interpretations.  Under no circumstances should any 
#such information or interpretation be relied upon as the sole basis for any drilling, 
#completion, production, or financial decision or any procedure involving any risk to the 
#safety of any drilling venture, drilling rig or its crew or any other third party.  The 
#Customer has full responsibility for all drilling, completion and production operation.  
#Halliburton makes no representations or warranties, either expressed or 
#implied, including, but not limited to, the implied warranties of merchantability or fitness 
#for a particular purpose, with respect to the services rendered.  In no event will 
#Halliburton be liable for failure to obtain any particular results or for 
#any damages, including, but not limited to, indirect, special or consequential damages, 
#resulting from the use of any information or interpretation provided by Halliburton.
#
~A           TIME           GTDEPTH  GTPQH  GTTQ  GTTN  GTET   GTTVD  
# ...
   23:17:10.790.19-May-2020 5121.01 1617.82 67.90 5.00 345.09 2698.81
   23:17:10.990.19-May-2020 5121.01 1617.82 67.90 5.00 345.29 2698.81
   23:17:11.190.19-May-2020 5121.01 1636.91 67.90 5.00 345.49 2698.81
   23:17:11.390.19-May-2020 5121.01 1646.71 67.90 5.00 345.69 2698.81
   23:17:11.590.19-May-2020 5121.01 1656.39 67.90 5.00 345.89 2698.81
   23:17:11.790.19-May-2020 5121.01 1665.95 67.90 5.00 346.09 2698.81
   23:17:11.990.19-May-2020 5121.01 1665.95 67.90 5.00 346.29 2698.81
   23:17:12.190.19-May-2020 5121.01 1684.80 67.90 5.00 346.49 2698.81
   23:17:12.390.19-May-2020 5121.01 1694.19 67.90 5.00 346.69 2698.81
   23:17:12.590.19-May-2020 5121.01 1703.47 67.90 5.00 346.89 2698.81
   23:17:12.790.19-May-2020 5121.01 1712.91 67.90 5.00 347.09 2698.81
   23:17:12.990.19-May-2020 5121.01 1722.28 67.91 5.00 347.29 2698.81
   23:17:13.190.19-May-2020 5121.01 1731.47 67.91 5.00 347.49 2698.81
   23:17:13.390.19-May-2020 5121.01 1740.65 67.91 5.00 347.69 2698.81
   23:17:13.590.19-May-2020 5121.01 1749.51 67.91 5.00 347.89 2698.81
   23:17:13.790.19-May-2020 5121.01 1758.79 67.91 5.00 348.09 2698.81
   23:17:13.990.19-May-2020 5121.01 1758.79 67.91 5.00 348.29 2698.81
   23:17:14.191.19-May-2020 5121.01 1776.84 67.91 5.00 348.49 2698.81
   23:17:14.391.19-May-2020 5121.01 1785.47 67.91 5.00 348.69 2698.81
   23:17:14.591.19-May-2020 5121.01 1794.57 67.91 5.00 348.89 2698.81
   23:17:14.791.19-May-2020 5121.01 1803.65 67.91 5.00 349.09 2698.81
   23:17:14.991.19-May-2020 5121.01 1803.65 67.91 5.00 349.29 2698.81
   23:17:15.191.19-May-2020 5121.01 1821.04 67.91 5.00 349.49 2698.81
   23:17:15.391.19-May-2020 5121.01 1829.96 67.91 5.00 349.69 2698.81
   23:17:15.591.19-May-2020 5121.01 1838.76 67.91 5.00 349.89 2698.81
   23:17:15.791.19-May-2020 5121.01 1847.36 67.91 5.00 350.09 2698.81
   23:17:15.991.19-May-2020 5121.01 1847.36 67.91 5.00 350.29 2698.81
   23:17:16.191.19-May-2020 5121.01 1864.38 67.91 5.00 350.49 2698.81
   23:17:16.391.19-May-2020 5121.01 1872.67 67.91 5.00 350.69 2698.81
   23:17:16.591.19-May-2020 5121.01 1881.47 67.91 5.00 350.89 2698.81
   23:17:16.791.19-May-2020 5121.01 1890.06 67.91 5.00 351.09 2698.81
   23:17:16.991.19-May-2020 5121.01 1898.58 67.91 5.00 351.29 2698.81
   23:17:17.191.19-May-2020 5121.01 1907.14 67.91 5.00 351.49 2698.81
   23:17:17.391.19-May-2020 5121.01 1915.58 67.91 5.00 351.69 2698.81
   23:17:17.591.19-May-2020 5121.01 1923.57 67.92 5.00 351.89 2698.81
   23:17:17.791.19-May-2020 5121.01 1932.25 67.92 5.00 352.09 2698.81
   23:17:17.991.19-May-2020 5121.01 1932.25 67.92 5.00 352.29 2698.81
   23:17:18.192.19-May-2020 5121.01 1948.97 67.92 5.00 352.49 2698.81
   23:17:18.392.19-May-2020 5121.01 1957.52 67.92 5.00 352.69 2698.81
   23:17:18.592.19-May-2020 5121.01 1965.87 67.92 5.00 352.89 2698.81
   23:17:18.792.19-May-2020 5121.01 1974.17 67.92 5.00 353.09 2698.81
   23:17:18.992.19-May-2020 5121.01 1974.17 67.92 5.00 353.29 2698.81
   23:17:19.192.19-May-2020 5121.01 1990.54 67.92 5.00 353.49 2698.81
   23:17:19.392.19-May-2020 5121.01 1998.73 67.92 5.00 353.69 2698.81
   23:17:19.592.19-May-2020 5121.01 2006.79 67.92 5.00 353.89 2698.81
   23:17:19.792.19-May-2020 5121.01 2014.78 67.92 5.00 354.09 2698.81
   23:17:19.992.19-May-2020 5121.01 2014.78 67.92 5.00 354.29 2698.81
   23:17:20.192.19-May-2020 5121.01 2030.73 67.92 5.00 354.49 2698.81
   23:17:20.392.19-May-2020 5121.01 2038.67 67.92 5.00 354.69 2698.81
   23:17:20.592.19-May-2020 5121.01 2046.18 67.92 5.00 354.89 2698.81
   23:17:20.792.19-May-2020 5121.01 2054.52 67.92 5.00 355.09 2698.81
   23:17:20.992.19-May-2020 5121.01 2054.52 67.92 5.00 355.29 2698.81
   23:17:21.192.19-May-2020 5121.01 2070.74 67.92 5.00 355.49 2698.81
   23:17:21.392.19-May-2020 5121.01 2078.54 67.92 5.00 355.69 2698.81
   23:17:21.592.19-May-2020 5121.01 2086.69 67.92 5.00 355.89 2698.81
   23:17:21.792.19-May-2020 5121.01 2094.80 67.92 5.00 356.09 2698.81
   23:17:21.992.19-May-2020 5121.01 2094.80 67.92 5.00 356.29 2698.81
   23:17:22.193.19-May-2020 5121.01 2110.63 67.92 5.00 356.49 2698.81
   23:17:22.393.19-May-2020 5121.01 2118.29 67.92 5.00 356.69 2698.81
   23:17:22.593.19-May-2020 5121.01 2125.83 67.92 5.00 356.89 2698.81
   23:17:22.793.19-May-2020 5121.01 2133.82 67.93 5.00 357.09 2698.81
   23:17:22.993.19-May-2020 5121.01 2133.82 67.93 5.00 357.29 2698.81
   23:17:23.193.19-May-2020 5121.01 2149.34 67.93 5.00 357.49 2698.81
   23:17:23.393.19-May-2020 5121.01 2157.08 67.93 5.00 357.69 2698.81
   23:17:23.593.19-May-2020 5121.01 2164.92 67.93 5.00 357.89 2698.81
   23:17:23.793.19-May-2020 5121.01 2172.91 67.93 5.00 358.09 2698.81
   23:17:23.993.19-May-2020 5121.01 2172.91 67.93 5.00 358.29 2698.81
   23:17:24.193.19-May-2020 5121.01 2189.14 67.93 5.00 358.49 2698.81
   23:17:24.393.19-May-2020 5121.01 2197.22 67.93 5.00 358.69 2698.81
   23:17:24.593.19-May-2020 5121.01 2204.72 67.93 5.00 358.89 2698.81
   23:17:24.793.19-May-2020 5121.01 2212.94 67.93 5.00 359.09 2698.81
   23:17:24.993.19-May-2020 5121.01 2220.84 67.93 5.00 359.29 2698.81
   23:17:25.193.19-May-2020 5121.01 2228.59 67.93 5.00 359.49 2698.81
   23:17:25.393.19-May-2020 5121.01 2236.11 67.93 5.00 359.69 2698.81
   23:17:25.593.19-May-2020 5121.01 2243.60 67.93 5.00 359.89 2698.81
   23:17:25.793.19-May-2020 5121.01 2251.09 67.93 5.00 360.09 2698.81
   23:17:25.993.19-May-2020 5121.01 2251.09 67.93 5.00 360.29 2698.81
   23:17:26.194.19-May-2020 5121.01 2265.88 67.93 5.00 360.49 2698.81
   23:17:26.394.19-May-2020 5121.01 2273.53 67.93 5.00 360.69 2698.81
   23:17:26.594.19-May-2020 5121.01 2281.04 67.93 5.00 360.89 2698.81
   23:17:26.794.19-May-2020 5121.01 2288.54 67.93 5.00 361.09 2698.81
   23:17:26.994.19-May-2020 5121.01 2288.54 67.93 5.00 361.29 2698.81
   23:17:27.194.19-May-2020 5121.01 2303.44 67.93 5.00 361.49 2698.81
   23:17:27.394.19-May-2020 5121.01 2310.80 67.93 5.00 361.69 2698.81
   23:17:27.594.19-May-2020 5121.01 2317.63 67.93 5.00 361.89 2698.81
   23:17:27.794.19-May-2020 5121.01 2325.18 67.93 5.00 362.09 2698.81
   23:17:27.994.19-May-2020 5121.01 2325.18 67.93 5.00 362.29 2698.81
   23:17:28.194.19-May-2020 5121.01 2339.88 67.93 5.00 362.49 2698.81
   23:17:28.394.19-May-2020 5121.01 2346.86 67.93 5.00 362.69 2698.81
   23:17:28.594.19-May-2020 5121.01 2354.22 67.93 5.00 362.89 2698.81
   23:17:28.794.19-May-2020 5121.01 2361.66 67.93 5.00 363.09 2698.81
   23:17:28.994.19-May-2020 5121.01 2369.03 67.93 5.00 363.29 2698.81
   23:17:29.194.19-May-2020 5121.01 2376.03 67.93 5.00 363.49 2698.81
   23:17:29.394.19-May-2020 5121.01 2383.29 67.94 5.00 363.69 2698.81
   23:17:29.594.19-May-2020 5121.01 2389.85 67.94 5.00 363.89 2698.81
   23:17:29.794.19-May-2020 5121.01 2397.32 67.94 5.00 364.09 2698.81
   23:17:29.994.19-May-2020 5121.01 2397.32 67.94 5.00 364.29 2698.81
   23:17:30.195.19-May-2020 5121.01 2411.54 67.94 5.00 364.49 2698.81
   23:17:30.395.19-May-2020 5121.01 2418.47 67.94 5.00 364.69 2698.81
   23:17:30.595.19-May-2020 5121.01 2425.41 67.94 5.00 364.89 2698.81
   23:17:30.795.19-May-2020 5121.01 2431.90 67.94 5.00 365.09 2698.81
   23:17:30.995.19-May-2020 5121.01 2431.90 67.94 5.00 365.29 2698.81
   23:17:31.195.19-May-2020 5121.01 2445.95 67.94 5.00 365.49 2698.81
   23:17:31.395.19-May-2020 5121.01 2452.70 67.94 5.00 365.69 2698.81
   23:17:31.595.19-May-2020 5121.01 2459.53 67.94 5.00 365.89 2698.81
   23:17:31.795.19-May-2020 5121.01 2465.82 67.94 5.00 366.09 2698.81
   23:17:31.995.19-May-2020 5121.01 2465.82 67.94 5.00 366.29 2698.81
   23:17:32.195.19-May-2020 5121.01 2479.45 67.94 5.00 366.49 2698.81
   23:17:32.395.19-May-2020 5121.01 2486.20 67.94 5.00 366.69 2698.81
   23:17:32.595.19-May-2020 5121.01 2492.63 67.94 5.00 366.89 2698.81
   23:17:32.795.19-May-2020 5121.01 2499.21 67.94 5.00 367.09 2698.81
   23:17:32.995.19-May-2020 5121.01 2505.68 67.94 5.00 367.29 2698.81
   23:17:33.195.19-May-2020 5121.01 2512.04 67.94 5.00 367.49 2698.81
   23:17:33.395.19-May-2020 5121.01 2518.53 67.94 5.00 367.69 2698.81
   23:17:33.595.19-May-2020 5121.01 2525.02 67.94 5.00 367.89 2698.81
