~Version Information
 VERS.                  2.0:   CWLS log ASCII Standard -VERSION 2.0
 WRAP.                   NO:   One line per depth step
~Well Information Block
#MNEM.UNIT     VALUE/NAME     DESCRIPTION
#---------     -----------    ---------------------------
 STRT.S             22:24:43 19-May-20: START TIME 22:24:43 19-May-20
 STOP.S             22:33:01 19-May-20: STOP TIME  22:33:01 19-May-20
 STEP.S                   0.00: STEP TIME
 NULL.                 -999.25: NULL VALUE
 MDS .        Operator Entered:  MAG DATA SOURCE
 PDAT.          Mean Sea Level:  PERMANENT DATUM
 UNIT.                     N/A:  LOGGING EQUIPMENT ID
 DCON.         Sperry Drilling:  DIRECTNL CONTR
 DOE .                     N/A:  DOE NUMBER
 RIG .              East Azeri:  RIG NAME
 JOBN.        AZ-XX-0905856059:  JOB TICKET NUMB
 WELL.                     D36:  WELL NAME
 MWDS.                    Baku:  MWD SHOP
 SRVC.     Turan Drilling & Engineering:  CONTRACTOR
 FLD .                     ACG:  FIELD NAME
 CTRY.              Azerbaijan:  COUNTRY NAME
 PROV.                    Baku:  PROVINCE
 STAT.                    Baku:  STATE NAME
 REGN.                   EESSA:  REGION
 BASE.              Azerbaijan:  LOGGING EQUIPMENT BASE LOCATION
 UWI .                     N/A:  UNIQUE WELL IDENTIFIER
 API .                     N/A:  API NUMBER
 COMP.     BP Exploration (Caspian Sea) Ltd.:  COMPANY
 WTYP.                Deviated:  WELL TYPE
 SON .        AZ-XX-0905856059:  JOB NUMBER
 FTOP.          Formation Tops:  FORM TOPS DESC
 ILTD.               Lithology:  INTERP LTH DESC
 SVYD.                  Survey:  SURVEY DESC
 DMOD.             Drill Model:  DRILL MOD DESC
 HPTY.       Minimum Curvature:  HOLE POS TYPE
 NREF.                    Grid:  NORTH REFERENCE
 SPUD.               25-Feb-20:  SPUD DATE
 DATE.      08.55.28 01-May-20:  END TIME
 STIM.      08.55.28 25-Feb-20:  START TIME
 DMF .             Drill Floor:  DRILL MEAS FROM
 DFST.                        :  DIST FSL TEXT
 DFWT.                        :  DIST FWL TEXT
 CNTY.                        :  COUNTY
 LOC .                        :  LOCATION
 LMF .             Drill Floor:  LOG MEASURED FROM
 VSNS.m                   6.09:  VERT SEC N/S
 VSEW.m                 -10.79:  VERT SEC E/W
 AGAP.m                  43.60:  AIR GAP
 DEP .m                 388.24:  DEPTH
 APD .m                  43.60:  DEPTH ABOVE PD
 WDMS.m                 151.80:  WD ELEV
 EGL .m                   0.00:  GROUND ELEVATION
 EPD .m                   0.00:  ELEVATION
 AZTC.deg                 6.12:  AZM TOTAL CORR
 GRDC.deg                 0.30:  GRID CORRECTION
 MDEC.deg                 6.42:  MAGNETIC DECL
 MDIP.deg                59.42:  MAGNETIC DIP
 MFLD.nT              50256.00:  MAGNETIC FIELD
 GVFD.g                   1.00:  GRAVITY FIELD
 VSDR.deg               159.57:  VERT SEC DIRECT
 TDD .m                5000.01:  TOTAL DEPTH (DRILLER)
 SDEP.m                 397.00:  START DEPTH
 DFSL.m                   0.00:  DISTANCE FSL
 DFWL.m                   0.00:  DISTANCE FWL
 UTMY.m             4431880.20:  UTM Y
 UTMX.m              538763.98:  UTM X
 WHEW.m                 -10.79:  WELL HEAD E/W
 WHNS.m                   6.09:  WELL HEAD N/S
 LONG.deg                51.45:  LONGITUDE
 LATI.deg                40.02:  LATITUDE
 TVDS.m                  43.60:  TVDSS CORRECTN
 EKB .m                  43.60:  KB ELEVATION
 EDF .m                  43.60:  DF ELEVATION
 MAGU.                 1847640:  MAGUTM CHECKSUM
 VSC .                       0:  VS TO CLOSURE
~Parameter Information Block
#MNEM.UNIT       Value        Description
#---------     -----------    ---------------------------
 AV  .mps                 1.30:  Ann Velocity 
 AVMX.mps                 1.90:  Max Ann Veloc 
 AZIF.deg               115.68:  Azm, Final 
 BHAT.                   Other:  BHA Type 
 BROT.°/30m               0.74:  Build Rotating 
 BS  .in                  8.50:  Bit Size 
 BTPL.psig              430.00:  Bit Press Loss 
 CABU.                      No:  Customer Abuse 
 COMM.                     ”le:  Run Comments 1 
 TCS .hr                 51.31:  Time Ciculation Ended 
 CV  .mps                 2.52:  Crit Velocity 
 CVMX.mps                 2.62:  Max Crit Veloc 
 DD1 .          Teymur Aghayev:  Direct Drillr 1 
 DDSV.                   Other:  DD Service 
 DEFF.%                 100.00:  % Det Eff 
 DLRX.°/30m               1.62:  Dogleg Rot Max 
 DLSO.°/30m               0.74:  Dogleg Oriented 
 DLSX.°/30m               1.62:  Dogleg Str Max 
 DRET.      04.30.56 18-May-20:  Drill End Time 
 DRST.      04.30.56 18-May-20:  Drill Start Tim 
 DTIM.hr                  0.00:  Time Drilling 
 EDEP.m                5337.01:  End Depth 
 ENG1.      Artemiy Matviyanov:  Engineer 1 
 ENG2.      Bakhtiyar Jabbarli:  Engineer 2 
 ENG3.           Emil Huseynov:  Engineer 3 
 ETIM.      18.40.00 22-May-20:  End Time 
 FLOI.gpm               550.00:  Flow In 
 FLON.gpm               350.00:  Flow In Min 
 FLOS.cptm                0.00:  Fluid Loss 
 FLOX.gpm               600.00:  Flow In Max 
 HFLO.                      No:  High Flow 
 HPRE.                      No:  High Pressure 
 HTEM.                      No:  High Temp 
 HYDO.m                   1.80:  Hydro Offset 
 IFIN.deg                67.01:  Inc, Final 
 IMAX.deg                67.49:  Inc Max 
 IMIN.deg                66.50:  Inc Min 
 IMND.m                5144.79:  Inc Min Depth 
 IMXD.m                5116.12:  Inc Max Depth 
 JARR.                      No:  Jarring 
 LETM.      17.55.56 20-May-20:  Log End Time 
 LOST.hr                     0:  Lost Rig Time 
 LSTM.      04.30.56 18-May-20:  Log Start Time 
 MDCL.ppm            193153.00:  Mud Chlorides 
 MDES.     Inversion Oil/Synthetic:  Mud Desc 
 DFD .sg                  1.40:  Mud Density 
 MDMN.sg                  1.40:  Dens Mud Min 
 MDMX.sg                  1.41:  Dens Mud Max 
 MOIL.                      68:  Run Mud Oil % 
 MOWR.                   68:32:  Run Mud OWR 
 MSND.                     0.2:  Run Mud Sand % 
 MSOL.                    18.8:  Run Mud Solids% 
 DFV .spqt               80.00:  Mud Viscosity 
 MWOD.in                  6.75:  MWD Tool OD 
 MWSI.                      No:  Serv Intrp, MWD 
 OTIM.hr                104.84:  Time Operating 
 PMAX.psia            10690.93:  Press Op, Max 
 PV  .cP                 26.00:  Mud PV 
 RUN .                     900:  Run Number 
 ROPA.m/hr                0.00:  ROP Avg 
 ROPN.m/hr                0.00:  ROP Min 
 ROPX.m/hr                0.00:  ROP Max 
 RPMA.rpm               140.00:  RPM Surface Avg 
 RPMN.rpm                70.00:  RPM Surface Min 
 RPMX.rpm               140.00:  RPM Surface Max 
 RRUN.                    0900:  Rig Run Number 
 RTIM.hr                 36.00:  Time Reaming 
 SAZI.deg               115.72:  Azm, Start 
 SDEP.m                5337.01:  Start Depth 
 SIDD.                      No:  Serv Intrp, DD 
 SINC.deg                66.92:  Inc, Start 
 SPPA.psig             4400.00:  SPP Avg 
 SPPN.psig             1135.00:  SPP Min 
 SPPX.psig             4581.00:  SPP Max 
 STIM.      04.30.56 18-May-20:  Start Time 
 SVCS.                     MWD:  Services 
 SVER.                    9.20:  Sperry Version 
 TDAT.m                5337.01:  Tot Depth Attmp 
 TDDF.                      No:  Trip for DD 
 TFF .                      No:  Trip for Fail 
 TQAA.f-kp               23.00:  Torque Abs Avg 
 TQAN.f-kp               18.00:  Torque Abs Min 
 TQAX.f-kp               25.00:  Torque Abs Max 
 TRRT.°/30m               0.74:  Turn Rotating 
 MRT .                    HCIM:  Maximum Recorded Temperature 
 TTMX.degC               76.47:  Max Tool Temp 
 WBMN.klb                 0.00:  WOB Min 
 WITN.             Anar Khalil:  Customer Rep 
 WITN.      Kamran Keberlinski:  Customer Rep 2 
 WOBA.klb                 0.00:  WOB Avg 
 WOBX.klb                 0.00:  WOB Max 
 YP  .lhf2               27.00:  Yield Point 
~Curve Information Block
#MNEM.UNIT                 API CODE     Curve Description
#---------               -----------    ---------------------------
 TIME.HHMMSS            00 000 000 000:  GT Time & Date
 GTDEPTH.m              00 000 000 000:  GT Depth
 GTPQH.psia             00 000 000 000:  GT HR Quartz Pressure
 GTTQ.degC              00 000 000 000:  GT Quartz Temperature
 GTTN.NONE              00 000 000 000:  GT Test Number
 GTET.sec               00 000 000 000:  GT Elapsed Test Time
 GTTVD.m                00 000 000 000:  GT True Vertical Depth
#Other Information
#
#WARRANTY: Halliburton will use its best efforts to furnish customers with 
#accurate information and interpretations that are part of, and incident to, the services 
#provided.  However, Halliburton cannot and does not warrant the accuracy 
#or correctness of such information and interpretations.  Under no circumstances should any 
#such information or interpretation be relied upon as the sole basis for any drilling, 
#completion, production, or financial decision or any procedure involving any risk to the 
#safety of any drilling venture, drilling rig or its crew or any other third party.  The 
#Customer has full responsibility for all drilling, completion and production operation.  
#Halliburton makes no representations or warranties, either expressed or 
#implied, including, but not limited to, the implied warranties of merchantability or fitness 
#for a particular purpose, with respect to the services rendered.  In no event will 
#Halliburton be liable for failure to obtain any particular results or for 
#any damages, including, but not limited to, indirect, special or consequential damages, 
#resulting from the use of any information or interpretation provided by Halliburton.
#
~A           TIME           GTDEPTH  GTPQH  GTTQ  GTTN  GTET   GTTVD  
# ...
   22:27:47.051.19-May-2020 5137.01 6463.29 67.89 4.00 184.05 2705.05
   22:27:47.251.19-May-2020 5137.01 6463.29 67.89 4.00 184.25 2705.05
   22:27:47.451.19-May-2020 5137.01 6465.79 67.89 4.00 184.45 2705.05
   22:27:47.651.19-May-2020 5137.01 6463.14 67.89 4.00 184.65 2705.05
   22:27:47.851.19-May-2020 5137.01 6465.57 67.89 4.00 184.85 2705.05
   22:27:48.051.19-May-2020 5137.01 6462.86 67.89 4.00 185.05 2705.05
   22:27:48.251.19-May-2020 5137.01 6462.86 67.89 4.00 185.25 2705.05
   22:27:48.451.19-May-2020 5137.01 6462.12 67.89 4.00 185.45 2705.05
   22:27:48.651.19-May-2020 5137.01 6465.36 67.89 4.00 185.65 2705.05
   22:27:48.851.19-May-2020 5137.01 6465.12 67.89 4.00 185.85 2705.05
   22:27:49.051.19-May-2020 5137.01 6464.98 67.89 4.00 186.05 2705.05
   22:27:49.251.19-May-2020 5137.01 6464.98 67.89 4.00 186.25 2705.05
   22:27:49.452.19-May-2020 5137.01 6463.52 67.89 4.00 186.45 2705.05
   22:27:49.652.19-May-2020 5137.01 6465.42 67.89 4.00 186.65 2705.05
   22:27:49.852.19-May-2020 5137.01 6466.22 67.89 4.00 186.85 2705.05
   22:27:50.052.19-May-2020 5137.01 6465.89 67.89 4.00 187.05 2705.05
   22:27:50.252.19-May-2020 5137.01 6468.91 67.89 4.00 187.25 2705.05
   22:27:50.452.19-May-2020 5137.01 6464.42 67.89 4.00 187.45 2705.05
   22:27:50.652.19-May-2020 5137.01 6466.36 67.89 4.00 187.65 2705.05
   22:27:50.852.19-May-2020 5137.01 6466.57 67.89 4.00 187.85 2705.05
   22:27:51.052.19-May-2020 5137.01 6470.56 67.89 4.00 188.05 2705.05
   22:27:51.252.19-May-2020 5137.01 6470.56 67.89 4.00 188.25 2705.05
   22:27:51.452.19-May-2020 5137.01 6468.15 67.89 4.00 188.45 2705.05
   22:27:51.652.19-May-2020 5137.01 6465.21 67.89 4.00 188.65 2705.05
   22:27:51.852.19-May-2020 5137.01 6466.37 67.89 4.00 188.85 2705.05
   22:27:52.052.19-May-2020 5137.01 6464.47 67.89 4.00 189.05 2705.05
   22:27:52.252.19-May-2020 5137.01 6464.47 67.89 4.00 189.25 2705.05
   22:27:52.452.19-May-2020 5137.01 6465.17 67.89 4.00 189.45 2705.05
   22:27:52.652.19-May-2020 5137.01 6464.15 67.89 4.00 189.65 2705.05
   22:27:52.852.19-May-2020 5137.01 6464.67 67.89 4.00 189.85 2705.05
   22:27:53.052.19-May-2020 5137.01 6464.37 67.89 4.00 190.05 2705.05
   22:27:53.252.19-May-2020 5137.01 6464.37 67.89 4.00 190.25 2705.05
   22:27:53.453.19-May-2020 5137.01 6464.64 67.89 4.00 190.45 2705.05
   22:27:53.653.19-May-2020 5137.01 6463.47 67.89 4.00 190.65 2705.05
   22:27:53.853.19-May-2020 5137.01 6464.18 67.89 4.00 190.85 2705.05
   22:27:54.053.19-May-2020 5137.01 6466.63 67.89 4.00 191.05 2705.05
   22:27:54.253.19-May-2020 5137.01 6464.00 67.89 4.00 191.25 2705.05
   22:27:54.453.19-May-2020 5137.01 6465.91 67.89 4.00 191.45 2705.05
   22:27:54.653.19-May-2020 5137.01 6464.28 67.89 4.00 191.65 2705.05
   22:27:54.853.19-May-2020 5137.01 6464.93 67.89 4.00 191.85 2705.05
   22:27:55.053.19-May-2020 5137.01 6467.43 67.89 4.00 192.05 2705.05
   22:27:55.253.19-May-2020 5137.01 6467.43 67.89 4.00 192.25 2705.05
   22:27:55.453.19-May-2020 5137.01 6467.28 67.89 4.00 192.45 2705.05
   22:27:55.653.19-May-2020 5137.01 6463.96 67.89 4.00 192.65 2705.05
   22:27:55.853.19-May-2020 5137.01 6466.28 67.89 4.00 192.85 2705.05
   22:27:56.053.19-May-2020 5137.01 6467.35 67.89 4.00 193.05 2705.05
   22:27:56.253.19-May-2020 5137.01 6467.35 67.89 4.00 193.25 2705.05
   22:27:56.453.19-May-2020 5137.01 6467.92 67.89 4.00 193.45 2705.05
   22:27:56.653.19-May-2020 5137.01 6464.74 67.89 4.00 193.65 2705.05
   22:27:56.853.19-May-2020 5137.01 6467.25 67.89 4.00 193.85 2705.05
   22:27:57.053.19-May-2020 5137.01 6467.96 67.89 4.00 194.05 2705.05
   22:27:57.253.19-May-2020 5137.01 6467.96 67.89 4.00 194.25 2705.05
   22:27:57.454.19-May-2020 5137.01 6468.18 67.89 4.00 194.45 2705.05
   22:27:57.654.19-May-2020 5137.01 6464.83 67.89 4.00 194.65 2705.05
   22:27:57.854.19-May-2020 5137.01 6470.53 67.89 4.00 194.85 2705.05
   22:27:58.054.19-May-2020 5137.01 6464.31 67.89 4.00 195.05 2705.05
   22:27:58.254.19-May-2020 5137.01 6467.99 67.89 4.00 195.25 2705.05
   22:27:58.454.19-May-2020 5137.01 6465.54 67.89 4.00 195.45 2705.05
   22:27:58.654.19-May-2020 5137.01 6466.14 67.89 4.00 195.65 2705.05
   22:27:58.854.19-May-2020 5137.01 6464.79 67.89 4.00 195.85 2705.05
   22:27:59.054.19-May-2020 5137.01 6465.31 67.89 4.00 196.05 2705.05
   22:27:59.254.19-May-2020 5137.01 6465.31 67.89 4.00 196.25 2705.05
   22:27:59.454.19-May-2020 5137.01 6465.38 67.89 4.00 196.45 2705.05
   22:27:59.654.19-May-2020 5137.01 6463.72 67.89 4.00 196.65 2705.05
   22:27:59.854.19-May-2020 5137.01 6464.93 67.89 4.00 196.85 2705.05
   22:28:00.054.19-May-2020 5137.01 6464.24 67.89 4.00 197.05 2705.05
   22:28:00.254.19-May-2020 5137.01 6464.24 67.89 4.00 197.25 2705.05
   22:28:00.454.19-May-2020 5137.01 6464.16 67.89 4.00 197.45 2705.05
   22:28:00.654.19-May-2020 5137.01 6463.33 67.89 4.00 197.65 2705.05
   22:28:00.854.19-May-2020 5137.01 6468.77 67.89 4.00 197.85 2705.05
   22:28:01.054.19-May-2020 5137.01 6462.16 67.89 4.00 198.05 2705.05
   22:28:01.254.19-May-2020 5137.01 6462.16 67.89 4.00 198.25 2705.05
   22:28:01.455.19-May-2020 5137.01 6465.72 67.89 4.00 198.45 2705.05
   22:28:01.655.19-May-2020 5137.01 6464.65 67.89 4.00 198.65 2705.05
   22:28:01.855.19-May-2020 5137.01 6467.75 67.89 4.00 198.85 2705.05
   22:28:02.055.19-May-2020 5137.01 6464.96 67.89 4.00 199.05 2705.05
   22:28:02.255.19-May-2020 5137.01 6466.22 67.89 4.00 199.25 2705.05
   22:28:02.455.19-May-2020 5137.01 6467.96 67.89 4.00 199.45 2705.05
   22:28:02.655.19-May-2020 5137.01 6466.61 67.89 4.00 199.65 2705.05
   22:28:02.855.19-May-2020 5137.01 6466.75 67.89 4.00 199.85 2705.05
   22:28:03.055.19-May-2020 5137.01 6466.90 67.89 4.00 200.05 2705.05
   22:28:03.255.19-May-2020 5137.01 6466.90 67.89 4.00 200.25 2705.05
   22:28:03.455.19-May-2020 5137.01 6466.39 67.89 4.00 200.45 2705.05
   22:28:03.655.19-May-2020 5137.01 6468.09 67.89 4.00 200.65 2705.05
   22:28:03.855.19-May-2020 5137.01 6465.73 67.89 4.00 200.85 2705.05
   22:28:04.055.19-May-2020 5137.01 6466.97 67.89 4.00 201.05 2705.05
   22:28:04.255.19-May-2020 5137.01 6466.97 67.89 4.00 201.25 2705.05
   22:28:04.455.19-May-2020 5137.01 6470.98 67.89 4.00 201.45 2705.05
   22:28:04.655.19-May-2020 5137.01 6464.26 67.89 4.00 201.65 2705.05
   22:28:04.855.19-May-2020 5137.01 6467.88 67.89 4.00 201.85 2705.05
   22:28:05.055.19-May-2020 5137.01 6464.80 67.89 4.00 202.05 2705.05
   22:28:05.255.19-May-2020 5137.01 6464.80 67.89 4.00 202.25 2705.05
   22:28:05.456.19-May-2020 5137.01 6464.84 67.89 4.00 202.45 2705.05
   22:28:05.656.19-May-2020 5137.01 6464.83 67.89 4.00 202.65 2705.05
   22:28:05.856.19-May-2020 5137.01 6464.97 67.89 4.00 202.85 2705.05
   22:28:06.056.19-May-2020 5137.01 6465.16 67.89 4.00 203.05 2705.05
   22:28:06.256.19-May-2020 5137.01 6463.84 67.89 4.00 203.25 2705.05
   22:28:06.456.19-May-2020 5137.01 6464.73 67.89 4.00 203.45 2705.05
   22:28:06.656.19-May-2020 5137.01 6463.74 67.89 4.00 203.65 2705.05
   22:28:06.856.19-May-2020 5137.01 6464.33 67.89 4.00 203.85 2705.05
   22:28:07.056.19-May-2020 5137.01 6463.73 67.89 4.00 204.05 2705.05
   22:28:07.256.19-May-2020 5137.01 6463.73 67.89 4.00 204.25 2705.05
   22:28:07.456.19-May-2020 5137.01 6467.35 67.89 4.00 204.45 2705.05
   22:28:07.656.19-May-2020 5137.01 6462.95 67.89 4.00 204.65 2705.05
   22:28:07.856.19-May-2020 5137.01 6466.54 67.89 4.00 204.85 2705.05
   22:28:08.056.19-May-2020 5137.01 6463.77 67.89 4.00 205.05 2705.05
   22:28:08.256.19-May-2020 5137.01 6463.77 67.89 4.00 205.25 2705.05
   22:28:08.456.19-May-2020 5137.01 6466.14 67.89 4.00 205.45 2705.05
   22:28:08.656.19-May-2020 5137.01 6464.56 67.89 4.00 205.65 2705.05
   22:28:08.856.19-May-2020 5137.01 6466.43 67.89 4.00 205.85 2705.05
   22:28:09.056.19-May-2020 5137.01 6469.05 67.89 4.00 206.05 2705.05
   22:28:09.256.19-May-2020 5137.01 6469.05 67.89 4.00 206.25 2705.05
   22:28:09.457.19-May-2020 5137.01 6466.86 67.89 4.00 206.45 2705.05
   22:28:09.657.19-May-2020 5137.01 6465.81 67.89 4.00 206.65 2705.05
   22:28:09.857.19-May-2020 5137.01 6466.48 67.89 4.00 206.85 2705.05
