~Version Information
 VERS.                  2.0:   CWLS log ASCII Standard -VERSION 2.0
 WRAP.                   NO:   One line per depth step
~Well Information Block
#MNEM.UNIT     VALUE/NAME     DESCRIPTION
#---------     -----------    ---------------------------
 STRT.S             15:16:23 19-May-20: START TIME 15:16:23 19-May-20
 STOP.S             15:23:31 19-May-20: STOP TIME  15:23:31 19-May-20
 STEP.S                   0.00: STEP TIME
 NULL.                 -999.25: NULL VALUE
 MDS .        Operator Entered:  MAG DATA SOURCE
 PDAT.          Mean Sea Level:  PERMANENT DATUM
 UNIT.                     N/A:  LOGGING EQUIPMENT ID
 DCON.         Sperry Drilling:  DIRECTNL CONTR
 DOE .                     N/A:  DOE NUMBER
 RIG .              East Azeri:  RIG NAME
 JOBN.        AZ-XX-0905856059:  JOB TICKET NUMB
 WELL.                     D36:  WELL NAME
 MWDS.                    Baku:  MWD SHOP
 SRVC.     Turan Drilling & Engineering:  CONTRACTOR
 FLD .                     ACG:  FIELD NAME
 CTRY.              Azerbaijan:  COUNTRY NAME
 PROV.                    Baku:  PROVINCE
 STAT.                    Baku:  STATE NAME
 REGN.                   EESSA:  REGION
 BASE.              Azerbaijan:  LOGGING EQUIPMENT BASE LOCATION
 UWI .                     N/A:  UNIQUE WELL IDENTIFIER
 API .                     N/A:  API NUMBER
 COMP.     BP Exploration (Caspian Sea) Ltd.:  COMPANY
 WTYP.                Deviated:  WELL TYPE
 SON .        AZ-XX-0905856059:  JOB NUMBER
 FTOP.          Formation Tops:  FORM TOPS DESC
 ILTD.               Lithology:  INTERP LTH DESC
 SVYD.                  Survey:  SURVEY DESC
 DMOD.             Drill Model:  DRILL MOD DESC
 HPTY.       Minimum Curvature:  HOLE POS TYPE
 NREF.                    Grid:  NORTH REFERENCE
 SPUD.               25-Feb-20:  SPUD DATE
 DATE.      08.55.28 01-May-20:  END TIME
 STIM.      08.55.28 25-Feb-20:  START TIME
 DMF .             Drill Floor:  DRILL MEAS FROM
 DFST.                        :  DIST FSL TEXT
 DFWT.                        :  DIST FWL TEXT
 CNTY.                        :  COUNTY
 LOC .                        :  LOCATION
 LMF .             Drill Floor:  LOG MEASURED FROM
 VSNS.m                   6.09:  VERT SEC N/S
 VSEW.m                 -10.79:  VERT SEC E/W
 AGAP.m                  43.60:  AIR GAP
 DEP .m                 388.24:  DEPTH
 APD .m                  43.60:  DEPTH ABOVE PD
 WDMS.m                 151.80:  WD ELEV
 EGL .m                   0.00:  GROUND ELEVATION
 EPD .m                   0.00:  ELEVATION
 AZTC.deg                 6.12:  AZM TOTAL CORR
 GRDC.deg                 0.30:  GRID CORRECTION
 MDEC.deg                 6.42:  MAGNETIC DECL
 MDIP.deg                59.42:  MAGNETIC DIP
 MFLD.nT              50256.00:  MAGNETIC FIELD
 GVFD.g                   1.00:  GRAVITY FIELD
 VSDR.deg               159.57:  VERT SEC DIRECT
 TDD .m                5000.01:  TOTAL DEPTH (DRILLER)
 SDEP.m                 397.00:  START DEPTH
 DFSL.m                   0.00:  DISTANCE FSL
 DFWL.m                   0.00:  DISTANCE FWL
 UTMY.m             4431880.20:  UTM Y
 UTMX.m              538763.98:  UTM X
 WHEW.m                 -10.79:  WELL HEAD E/W
 WHNS.m                   6.09:  WELL HEAD N/S
 LONG.deg                51.45:  LONGITUDE
 LATI.deg                40.02:  LATITUDE
 TVDS.m                  43.60:  TVDSS CORRECTN
 EKB .m                  43.60:  KB ELEVATION
 EDF .m                  43.60:  DF ELEVATION
 MAGU.                 1847640:  MAGUTM CHECKSUM
 VSC .                       0:  VS TO CLOSURE
~Parameter Information Block
#MNEM.UNIT       Value        Description
#---------     -----------    ---------------------------
 AV  .mps                 1.30:  Ann Velocity 
 AVMX.mps                 1.90:  Max Ann Veloc 
 AZIF.deg               115.68:  Azm, Final 
 BHAT.                   Other:  BHA Type 
 BROT.°/30m               0.74:  Build Rotating 
 BS  .in                  8.50:  Bit Size 
 BTPL.psig              430.00:  Bit Press Loss 
 CABU.                      No:  Customer Abuse 
 TCS .hr                 51.31:  Time Ciculation Ended 
 CV  .mps                 2.52:  Crit Velocity 
 CVMX.mps                 2.62:  Max Crit Veloc 
 DD1 .          Teymur Aghayev:  Direct Drillr 1 
 DDSV.                   Other:  DD Service 
 DEFF.%                 100.00:  % Det Eff 
 DLRX.°/30m               1.62:  Dogleg Rot Max 
 DLSO.°/30m               0.74:  Dogleg Oriented 
 DLSX.°/30m               1.62:  Dogleg Str Max 
 DRET.      04.30.56 18-May-20:  Drill End Time 
 DRST.      04.30.56 18-May-20:  Drill Start Tim 
 DTIM.hr                  0.00:  Time Drilling 
 EDEP.m                5337.01:  End Depth 
 ENG1.      Artemiy Matviyanov:  Engineer 1 
 ENG2.      Bakhtiyar Jabbarli:  Engineer 2 
 ENG3.           Emil Huseynov:  Engineer 3 
 ETIM.      18.40.00 22-May-20:  End Time 
 FLOI.gpm               550.00:  Flow In 
 FLON.gpm               350.00:  Flow In Min 
 FLOS.cptm                0.00:  Fluid Loss 
 FLOX.gpm               600.00:  Flow In Max 
 HFLO.                      No:  High Flow 
 HPRE.                      No:  High Pressure 
 HTEM.                      No:  High Temp 
 HYDO.m                   1.80:  Hydro Offset 
 IFIN.deg                67.01:  Inc, Final 
 IMAX.deg                67.49:  Inc Max 
 IMIN.deg                66.50:  Inc Min 
 IMND.m                5144.79:  Inc Min Depth 
 IMXD.m                5116.12:  Inc Max Depth 
 JARR.                      No:  Jarring 
 LETM.      17.55.56 20-May-20:  Log End Time 
 LOST.hr                     0:  Lost Rig Time 
 LSTM.      04.30.56 18-May-20:  Log Start Time 
 MDCL.ppm            193153.00:  Mud Chlorides 
 MDES.     Inversion Oil/Synthetic:  Mud Desc 
 DFD .sg                  1.40:  Mud Density 
 MDMN.sg                  1.40:  Dens Mud Min 
 MDMX.sg                  1.41:  Dens Mud Max 
 MOIL.                      68:  Run Mud Oil % 
 MOWR.                   68:32:  Run Mud OWR 
 MSND.                     0.2:  Run Mud Sand % 
 MSOL.                    18.8:  Run Mud Solids% 
 DFV .spqt               80.00:  Mud Viscosity 
 MWOD.in                  6.75:  MWD Tool OD 
 MWSI.                      No:  Serv Intrp, MWD 
 OTIM.hr                104.84:  Time Operating 
 PMAX.psia            10690.93:  Press Op, Max 
 PV  .cP                 26.00:  Mud PV 
 RUN .                     900:  Run Number 
 ROPA.m/hr                0.00:  ROP Avg 
 ROPN.m/hr                0.00:  ROP Min 
 ROPX.m/hr                0.00:  ROP Max 
 RPMA.rpm               140.00:  RPM Surface Avg 
 RPMN.rpm                70.00:  RPM Surface Min 
 RPMX.rpm               140.00:  RPM Surface Max 
 RRUN.                    0900:  Rig Run Number 
 RTIM.hr                 36.00:  Time Reaming 
 SAZI.deg               115.72:  Azm, Start 
 SDEP.m                5337.01:  Start Depth 
 SIDD.                      No:  Serv Intrp, DD 
 SINC.deg                66.92:  Inc, Start 
 SPPA.psig             4400.00:  SPP Avg 
 SPPN.psig             1135.00:  SPP Min 
 SPPX.psig             4581.00:  SPP Max 
 STIM.      04.30.56 18-May-20:  Start Time 
 SVCS.                     MWD:  Services 
 SVER.                    9.20:  Sperry Version 
 TDAT.m                5337.01:  Tot Depth Attmp 
 TDDF.                      No:  Trip for DD 
 TFF .                      No:  Trip for Fail 
 TQAA.f-kp               23.00:  Torque Abs Avg 
 TQAN.f-kp               18.00:  Torque Abs Min 
 TQAX.f-kp               25.00:  Torque Abs Max 
 TRRT.°/30m               0.74:  Turn Rotating 
 MRT .                    HCIM:  Maximum Recorded Temperature 
 TTMX.degC               76.47:  Max Tool Temp 
 WBMN.klb                 0.00:  WOB Min 
 WITN.             Anar Khalil:  Customer Rep 
 WITN.      Kamran Keberlinski:  Customer Rep 2 
 WOBA.klb                 0.00:  WOB Avg 
 WOBX.klb                 0.00:  WOB Max 
 YP  .lhf2               27.00:  Yield Point 
~Curve Information Block
#MNEM.UNIT                 API CODE     Curve Description
#---------               -----------    ---------------------------
 TIME.HHMMSS            00 000 000 000:  GT Time & Date
 GTDEPTH.m              00 000 000 000:  GT Depth
 GTPQH.psia             00 000 000 000:  GT HR Quartz Pressure
 GTTQ.degC              00 000 000 000:  GT Quartz Temperature
 GTTN.NONE              00 000 000 000:  GT Test Number
 GTET.sec               00 000 000 000:  GT Elapsed Test Time
 GTTVD.m                00 000 000 000:  GT True Vertical Depth
#Other Information
#
#WARRANTY: Halliburton will use its best efforts to furnish customers with 
#accurate information and interpretations that are part of, and incident to, the services 
#provided.  However, Halliburton cannot and does not warrant the accuracy 
#or correctness of such information and interpretations.  Under no circumstances should any 
#such information or interpretation be relied upon as the sole basis for any drilling, 
#completion, production, or financial decision or any procedure involving any risk to the 
#safety of any drilling venture, drilling rig or its crew or any other third party.  The 
#Customer has full responsibility for all drilling, completion and production operation.  
#Halliburton makes no representations or warranties, either expressed or 
#implied, including, but not limited to, the implied warranties of merchantability or fitness 
#for a particular purpose, with respect to the services rendered.  In no event will 
#Halliburton be liable for failure to obtain any particular results or for 
#any damages, including, but not limited to, indirect, special or consequential damages, 
#resulting from the use of any information or interpretation provided by Halliburton.
#
~A           TIME           GTDEPTH  GTPQH  GTTQ  GTTN  GTET   GTTVD  
# ...
   15:20:13.367.19-May-2020 5277.61 3453.87 67.44 1.00 230.05 2760.35
   15:20:13.567.19-May-2020 5277.61 3453.87 67.44 1.00 230.25 2760.35
   15:20:13.767.19-May-2020 5277.61 3454.07 67.44 1.00 230.45 2760.35
   15:20:13.967.19-May-2020 5277.61 3453.96 67.44 1.00 230.65 2760.35
   15:20:14.167.19-May-2020 5277.61 3453.92 67.44 1.00 230.85 2760.35
   15:20:14.367.19-May-2020 5277.61 3454.36 67.44 1.00 231.05 2760.35
   15:20:14.567.19-May-2020 5277.61 3454.36 67.44 1.00 231.25 2760.35
   15:20:14.767.19-May-2020 5277.61 3453.94 67.44 1.00 231.45 2760.35
   15:20:14.967.19-May-2020 5277.61 3454.01 67.44 1.00 231.65 2760.35
   15:20:15.167.19-May-2020 5277.61 3454.00 67.44 1.00 231.85 2760.35
   15:20:15.367.19-May-2020 5277.61 3454.34 67.44 1.00 232.06 2760.35
   15:20:15.567.19-May-2020 5277.61 3454.23 67.44 1.00 232.26 2760.35
   15:20:15.767.19-May-2020 5277.61 3453.95 67.44 1.00 232.46 2760.35
   15:20:15.967.19-May-2020 5277.61 3454.07 67.44 1.00 232.66 2760.35
   15:20:16.167.19-May-2020 5277.61 3454.13 67.44 1.00 232.86 2760.35
   15:20:16.367.19-May-2020 5277.61 3454.10 67.44 1.00 233.06 2760.35
   15:20:16.567.19-May-2020 5277.61 3454.10 67.44 1.00 233.26 2760.35
   15:20:16.767.19-May-2020 5277.61 3454.14 67.44 1.00 233.46 2760.35
   15:20:16.968.19-May-2020 5277.61 3453.98 67.44 1.00 233.66 2760.35
   15:20:17.168.19-May-2020 5277.61 3454.03 67.44 1.00 233.86 2760.35
   15:20:17.368.19-May-2020 5277.61 3454.26 67.44 1.00 234.06 2760.35
   15:20:17.568.19-May-2020 5277.61 3454.26 67.44 1.00 234.26 2760.35
   15:20:17.768.19-May-2020 5277.61 3453.94 67.44 1.00 234.46 2760.35
   15:20:17.968.19-May-2020 5277.61 3453.97 67.44 1.00 234.66 2760.35
   15:20:18.168.19-May-2020 5277.61 3454.11 67.44 1.00 234.86 2760.35
   15:20:18.368.19-May-2020 5277.61 3454.04 67.44 1.00 235.06 2760.35
   15:20:18.568.19-May-2020 5277.61 3454.04 67.44 1.00 235.26 2760.35
   15:20:18.768.19-May-2020 5277.61 3454.03 67.44 1.00 235.46 2760.35
   15:20:18.968.19-May-2020 5277.61 3454.00 67.44 1.00 235.66 2760.35
   15:20:19.168.19-May-2020 5277.61 3454.06 67.44 1.00 235.86 2760.35
   15:20:19.368.19-May-2020 5277.61 3454.08 67.44 1.00 236.06 2760.35
   15:20:19.568.19-May-2020 5277.61 3454.06 67.44 1.00 236.26 2760.35
   15:20:19.768.19-May-2020 5277.61 3454.01 67.44 1.00 236.46 2760.35
   15:20:19.968.19-May-2020 5277.61 3454.06 67.44 1.00 236.66 2760.35
   15:20:20.168.19-May-2020 5277.61 3454.09 67.44 1.00 236.86 2760.35
   15:20:20.368.19-May-2020 5277.61 3453.94 67.44 1.00 237.06 2760.35
   15:20:20.568.19-May-2020 5277.61 3453.94 67.44 1.00 237.26 2760.35
   15:20:20.768.19-May-2020 5277.61 3454.01 67.44 1.00 237.46 2760.35
   15:20:20.968.19-May-2020 5277.61 3454.05 67.44 1.00 237.66 2760.35
   15:20:21.168.19-May-2020 5277.61 3454.00 67.44 1.00 237.86 2760.35
   15:20:21.369.19-May-2020 5277.61 3454.61 67.44 1.00 238.06 2760.35
   15:20:21.569.19-May-2020 5277.61 3454.61 67.44 1.00 238.26 2760.35
   15:20:21.769.19-May-2020 5277.61 3453.97 67.44 1.00 238.46 2760.35
   15:20:21.969.19-May-2020 5277.61 3454.00 67.44 1.00 238.66 2760.35
   15:20:22.169.19-May-2020 5277.61 3453.94 67.44 1.00 238.86 2760.35
   15:20:22.369.19-May-2020 5277.61 3454.52 67.44 1.00 239.06 2760.35
   15:20:22.569.19-May-2020 5277.61 3454.52 67.44 1.00 239.26 2760.35
   15:20:22.769.19-May-2020 5277.61 3453.92 67.44 1.00 239.46 2760.35
   15:20:22.969.19-May-2020 5277.61 3453.99 67.44 1.00 239.66 2760.35
   15:20:23.169.19-May-2020 5277.61 3454.14 67.44 1.00 239.86 2760.35
   15:20:23.369.19-May-2020 5277.61 3454.08 67.44 1.00 240.06 2760.35
   15:20:23.569.19-May-2020 5277.61 3454.08 67.44 1.00 240.26 2760.35
   15:20:23.769.19-May-2020 5277.61 3454.23 67.44 1.00 240.46 2760.35
   15:20:23.969.19-May-2020 5277.61 3454.08 67.44 1.00 240.66 2760.35
   15:20:24.169.19-May-2020 5277.61 3454.05 67.44 1.00 240.86 2760.35
   15:20:24.369.19-May-2020 5277.61 3454.19 67.44 1.00 241.06 2760.35
   15:20:24.569.19-May-2020 5277.61 3454.19 67.44 1.00 241.26 2760.35
   15:20:24.769.19-May-2020 5277.61 3453.99 67.44 1.00 241.46 2760.35
   15:20:24.969.19-May-2020 5277.61 3453.99 67.44 1.00 241.66 2760.35
   15:20:25.169.19-May-2020 5277.61 3454.06 67.44 1.00 241.86 2760.35
   15:20:25.369.19-May-2020 5277.61 3454.04 67.44 1.00 242.06 2760.35
   15:20:25.570.19-May-2020 5277.61 3454.04 67.44 1.00 242.26 2760.35
   15:20:25.770.19-May-2020 5277.61 3454.05 67.44 1.00 242.46 2760.35
   15:20:25.970.19-May-2020 5277.61 3454.02 67.44 1.00 242.66 2760.35
   15:20:26.170.19-May-2020 5277.61 3454.06 67.44 1.00 242.86 2760.35
   15:20:26.370.19-May-2020 5277.61 3454.08 67.44 1.00 243.06 2760.35
   15:20:26.570.19-May-2020 5277.61 3454.08 67.44 1.00 243.26 2760.35
   15:20:26.770.19-May-2020 5277.61 3454.06 67.44 1.00 243.46 2760.35
   15:20:26.970.19-May-2020 5277.61 3454.07 67.44 1.00 243.66 2760.35
   15:20:27.170.19-May-2020 5277.61 3454.07 67.44 1.00 243.86 2760.35
   15:20:27.370.19-May-2020 5277.61 3454.15 67.44 1.00 244.06 2760.35
   15:20:27.570.19-May-2020 5277.61 3454.15 67.44 1.00 244.26 2760.35
   15:20:27.770.19-May-2020 5277.61 3454.03 67.44 1.00 244.46 2760.35
   15:20:27.970.19-May-2020 5277.61 3454.08 67.44 1.00 244.66 2760.35
   15:20:28.170.19-May-2020 5277.61 3454.02 67.44 1.00 244.86 2760.35
   15:20:28.370.19-May-2020 5277.61 3454.49 67.44 1.00 245.06 2760.35
   15:20:28.570.19-May-2020 5277.61 3454.49 67.44 1.00 245.26 2760.35
   15:20:28.770.19-May-2020 5277.61 3454.01 67.44 1.00 245.46 2760.35
   15:20:28.970.19-May-2020 5277.61 3454.10 67.44 1.00 245.66 2760.35
   15:20:29.170.19-May-2020 5277.61 3454.02 67.44 1.00 245.86 2760.35
   15:20:29.370.19-May-2020 5277.61 3454.45 67.44 1.00 246.06 2760.35
   15:20:29.570.19-May-2020 5277.61 3454.45 67.44 1.00 246.26 2760.35
   15:20:29.771.19-May-2020 5277.61 3453.95 67.44 1.00 246.46 2760.35
   15:20:29.971.19-May-2020 5277.61 3454.11 67.44 1.00 246.66 2760.35
   15:20:30.171.19-May-2020 5277.61 3454.20 67.44 1.00 246.86 2760.35
   15:20:30.371.19-May-2020 5277.61 3453.97 67.44 1.00 247.06 2760.35
   15:20:30.571.19-May-2020 5277.61 3453.97 67.44 1.00 247.26 2760.35
   15:20:30.771.19-May-2020 5277.61 3454.16 67.44 1.00 247.46 2760.35
   15:20:30.971.19-May-2020 5277.61 3454.05 67.44 1.00 247.66 2760.35
   15:20:31.171.19-May-2020 5277.61 3454.01 67.44 1.00 247.86 2760.35
   15:20:31.371.19-May-2020 5277.61 3454.36 67.44 1.00 248.06 2760.35
   15:20:31.571.19-May-2020 5277.61 3454.27 67.44 1.00 248.26 2760.35
   15:20:31.771.19-May-2020 5277.61 3453.97 67.44 1.00 248.46 2760.35
   15:20:31.971.19-May-2020 5277.61 3454.05 67.44 1.00 248.66 2760.35
   15:20:32.171.19-May-2020 5277.61 3454.05 67.44 1.00 248.86 2760.35
   15:20:32.371.19-May-2020 5277.61 3454.09 67.44 1.00 249.06 2760.35
   15:20:32.571.19-May-2020 5277.61 3454.09 67.44 1.00 249.26 2760.35
   15:20:32.771.19-May-2020 5277.61 3454.05 67.44 1.00 249.46 2760.35
   15:20:32.971.19-May-2020 5277.61 3454.03 67.44 1.00 249.66 2760.35
   15:20:33.171.19-May-2020 5277.61 3454.09 67.44 1.00 249.86 2760.35
   15:20:33.371.19-May-2020 5277.61 3454.10 67.44 1.00 250.06 2760.35
   15:20:33.571.19-May-2020 5277.61 3454.10 67.44 1.00 250.26 2760.35
   15:20:33.771.19-May-2020 5277.61 3454.07 67.44 1.00 250.46 2760.35
   15:20:33.972.19-May-2020 5277.61 3454.10 67.44 1.00 250.66 2760.35
   15:20:34.172.19-May-2020 5277.61 3454.12 67.44 1.00 250.86 2760.35
   15:20:34.372.19-May-2020 5277.61 3454.20 67.44 1.00 251.06 2760.35
   15:20:34.572.19-May-2020 5277.61 3454.30 67.44 1.00 251.26 2760.35
   15:20:34.772.19-May-2020 5277.61 3454.07 67.44 1.00 251.46 2760.35
   15:20:34.972.19-May-2020 5277.61 3454.01 67.44 1.00 251.66 2760.35
   15:20:35.172.19-May-2020 5277.61 3454.23 67.44 1.00 251.86 2760.35
   15:20:35.372.19-May-2020 5277.61 3454.21 67.44 1.00 252.06 2760.35
   15:20:35.572.19-May-2020 5277.61 3454.00 67.44 1.00 252.26 2760.35
   15:20:35.772.19-May-2020 5277.61 3454.04 67.44 1.00 252.46 2760.35
   15:20:35.972.19-May-2020 5277.61 3454.14 67.44 1.00 252.66 2760.35
   15:20:36.172.19-May-2020 5277.61 3454.23 67.44 1.00 252.86 2760.35
