~Version Information
 VERS.                  2.0:   CWLS log ASCII Standard -VERSION 2.0
 WRAP.                   NO:   One line per depth step
~Well Information Block
#MNEM.UNIT     VALUE/NAME     DESCRIPTION
#---------     -----------    ---------------------------
 STRT.S             04:23:34 20-May-20: START TIME 04:23:34 20-May-20
 STOP.S             04:34:06 20-May-20: STOP TIME  04:34:06 20-May-20
 STEP.S                   0.00: STEP TIME
 NULL.                 -999.25: NULL VALUE
 MDS .        Operator Entered:  MAG DATA SOURCE
 PDAT.          Mean Sea Level:  PERMANENT DATUM
 UNIT.                     N/A:  LOGGING EQUIPMENT ID
 DCON.         Sperry Drilling:  DIRECTNL CONTR
 DOE .                     N/A:  DOE NUMBER
 RIG .              East Azeri:  RIG NAME
 JOBN.        AZ-XX-0905856059:  JOB TICKET NUMB
 WELL.                     D36:  WELL NAME
 MWDS.                    Baku:  MWD SHOP
 SRVC.     Turan Drilling & Engineering:  CONTRACTOR
 FLD .                     ACG:  FIELD NAME
 CTRY.              Azerbaijan:  COUNTRY NAME
 PROV.                    Baku:  PROVINCE
 STAT.                    Baku:  STATE NAME
 REGN.                   EESSA:  REGION
 BASE.              Azerbaijan:  LOGGING EQUIPMENT BASE LOCATION
 UWI .                     N/A:  UNIQUE WELL IDENTIFIER
 API .                     N/A:  API NUMBER
 COMP.     BP Exploration (Caspian Sea) Ltd.:  COMPANY
 WTYP.                Deviated:  WELL TYPE
 SON .        AZ-XX-0905856059:  JOB NUMBER
 FTOP.          Formation Tops:  FORM TOPS DESC
 ILTD.               Lithology:  INTERP LTH DESC
 SVYD.                  Survey:  SURVEY DESC
 DMOD.             Drill Model:  DRILL MOD DESC
 HPTY.       Minimum Curvature:  HOLE POS TYPE
 NREF.                    Grid:  NORTH REFERENCE
 SPUD.               25-Feb-20:  SPUD DATE
 DATE.      08.55.28 01-May-20:  END TIME
 STIM.      08.55.28 25-Feb-20:  START TIME
 DMF .             Drill Floor:  DRILL MEAS FROM
 DFST.                        :  DIST FSL TEXT
 DFWT.                        :  DIST FWL TEXT
 CNTY.                        :  COUNTY
 LOC .                        :  LOCATION
 LMF .             Drill Floor:  LOG MEASURED FROM
 VSNS.m                   6.09:  VERT SEC N/S
 VSEW.m                 -10.79:  VERT SEC E/W
 AGAP.m                  43.60:  AIR GAP
 DEP .m                 388.24:  DEPTH
 APD .m                  43.60:  DEPTH ABOVE PD
 WDMS.m                 151.80:  WD ELEV
 EGL .m                   0.00:  GROUND ELEVATION
 EPD .m                   0.00:  ELEVATION
 AZTC.deg                 6.12:  AZM TOTAL CORR
 GRDC.deg                 0.30:  GRID CORRECTION
 MDEC.deg                 6.42:  MAGNETIC DECL
 MDIP.deg                59.42:  MAGNETIC DIP
 MFLD.nT              50256.00:  MAGNETIC FIELD
 GVFD.g                   1.00:  GRAVITY FIELD
 VSDR.deg               159.57:  VERT SEC DIRECT
 TDD .m                5000.01:  TOTAL DEPTH (DRILLER)
 SDEP.m                 397.00:  START DEPTH
 DFSL.m                   0.00:  DISTANCE FSL
 DFWL.m                   0.00:  DISTANCE FWL
 UTMY.m             4431880.20:  UTM Y
 UTMX.m              538763.98:  UTM X
 WHEW.m                 -10.79:  WELL HEAD E/W
 WHNS.m                   6.09:  WELL HEAD N/S
 LONG.deg                51.45:  LONGITUDE
 LATI.deg                40.02:  LATITUDE
 TVDS.m                  43.60:  TVDSS CORRECTN
 EKB .m                  43.60:  KB ELEVATION
 EDF .m                  43.60:  DF ELEVATION
 MAGU.                 1847640:  MAGUTM CHECKSUM
 VSC .                       0:  VS TO CLOSURE
~Parameter Information Block
#MNEM.UNIT       Value        Description
#---------     -----------    ---------------------------
 AV  .mps                 1.30:  Ann Velocity 
 AVMX.mps                 1.90:  Max Ann Veloc 
 AZIF.deg               115.68:  Azm, Final 
 BHAT.                   Other:  BHA Type 
 BROT.°/30m               0.74:  Build Rotating 
 BS  .in                  8.50:  Bit Size 
 BTPL.psig              430.00:  Bit Press Loss 
 CABU.                      No:  Customer Abuse 
 TCS .hr                 51.31:  Time Ciculation Ended 
 CV  .mps                 2.52:  Crit Velocity 
 CVMX.mps                 2.62:  Max Crit Veloc 
 DD1 .          Teymur Aghayev:  Direct Drillr 1 
 DDSV.                   Other:  DD Service 
 DEFF.%                 100.00:  % Det Eff 
 DLRX.°/30m               1.62:  Dogleg Rot Max 
 DLSO.°/30m               0.74:  Dogleg Oriented 
 DLSX.°/30m               1.62:  Dogleg Str Max 
 DRET.      04.30.56 18-May-20:  Drill End Time 
 DRST.      04.30.56 18-May-20:  Drill Start Tim 
 DTIM.hr                  0.00:  Time Drilling 
 EDEP.m                5337.01:  End Depth 
 ENG1.      Artemiy Matviyanov:  Engineer 1 
 ENG2.      Bakhtiyar Jabbarli:  Engineer 2 
 ENG3.           Emil Huseynov:  Engineer 3 
 ETIM.      18.40.00 22-May-20:  End Time 
 FLOI.gpm               550.00:  Flow In 
 FLON.gpm               350.00:  Flow In Min 
 FLOS.cptm                0.00:  Fluid Loss 
 FLOX.gpm               600.00:  Flow In Max 
 HFLO.                      No:  High Flow 
 HPRE.                      No:  High Pressure 
 HTEM.                      No:  High Temp 
 HYDO.m                   1.80:  Hydro Offset 
 IFIN.deg                67.01:  Inc, Final 
 IMAX.deg                67.49:  Inc Max 
 IMIN.deg                66.50:  Inc Min 
 IMND.m                5144.79:  Inc Min Depth 
 IMXD.m                5116.12:  Inc Max Depth 
 JARR.                      No:  Jarring 
 LETM.      17.55.56 20-May-20:  Log End Time 
 LOST.hr                     0:  Lost Rig Time 
 LSTM.      04.30.56 18-May-20:  Log Start Time 
 MDCL.ppm            193153.00:  Mud Chlorides 
 MDES.     Inversion Oil/Synthetic:  Mud Desc 
 DFD .sg                  1.40:  Mud Density 
 MDMN.sg                  1.40:  Dens Mud Min 
 MDMX.sg                  1.41:  Dens Mud Max 
 MOIL.                      68:  Run Mud Oil % 
 MOWR.                   68:32:  Run Mud OWR 
 MSND.                     0.2:  Run Mud Sand % 
 MSOL.                    18.8:  Run Mud Solids% 
 DFV .spqt               80.00:  Mud Viscosity 
 MWOD.in                  6.75:  MWD Tool OD 
 MWSI.                      No:  Serv Intrp, MWD 
 OTIM.hr                104.84:  Time Operating 
 PMAX.psia            10690.93:  Press Op, Max 
 PV  .cP                 26.00:  Mud PV 
 RUN .                     900:  Run Number 
 ROPA.m/hr                0.00:  ROP Avg 
 ROPN.m/hr                0.00:  ROP Min 
 ROPX.m/hr                0.00:  ROP Max 
 RPMA.rpm               140.00:  RPM Surface Avg 
 RPMN.rpm                70.00:  RPM Surface Min 
 RPMX.rpm               140.00:  RPM Surface Max 
 RRUN.                    0900:  Rig Run Number 
 RTIM.hr                 36.00:  Time Reaming 
 SAZI.deg               115.72:  Azm, Start 
 SDEP.m                5337.01:  Start Depth 
 SIDD.                      No:  Serv Intrp, DD 
 SINC.deg                66.92:  Inc, Start 
 SPPA.psig             4400.00:  SPP Avg 
 SPPN.psig             1135.00:  SPP Min 
 SPPX.psig             4581.00:  SPP Max 
 STIM.      04.30.56 18-May-20:  Start Time 
 SVCS.                     MWD:  Services 
 SVER.                    9.20:  Sperry Version 
 TDAT.m                5337.01:  Tot Depth Attmp 
 TDDF.                      No:  Trip for DD 
 TFF .                      No:  Trip for Fail 
 TQAA.f-kp               23.00:  Torque Abs Avg 
 TQAN.f-kp               18.00:  Torque Abs Min 
 TQAX.f-kp               25.00:  Torque Abs Max 
 TRRT.°/30m               0.74:  Turn Rotating 
 MRT .                    HCIM:  Maximum Recorded Temperature 
 TTMX.degC               76.47:  Max Tool Temp 
 WBMN.klb                 0.00:  WOB Min 
 WITN.             Anar Khalil:  Customer Rep 
 WITN.      Kamran Keberlinski:  Customer Rep 2 
 WOBA.klb                 0.00:  WOB Avg 
 WOBX.klb                 0.00:  WOB Max 
 YP  .lhf2               27.00:  Yield Point 
~Curve Information Block
#MNEM.UNIT                 API CODE     Curve Description
#---------               -----------    ---------------------------
 TIME.HHMMSS            00 000 000 000:  GT Time & Date
 GTDEPTH.m              00 000 000 000:  GT Depth
 GTPQH.psia             00 000 000 000:  GT HR Quartz Pressure
 GTTQ.degC              00 000 000 000:  GT Quartz Temperature
 GTTN.NONE              00 000 000 000:  GT Test Number
 GTET.sec               00 000 000 000:  GT Elapsed Test Time
 GTTVD.m                00 000 000 000:  GT True Vertical Depth
#Other Information
#
#WARRANTY: Halliburton will use its best efforts to furnish customers with 
#accurate information and interpretations that are part of, and incident to, the services 
#provided.  However, Halliburton cannot and does not warrant the accuracy 
#or correctness of such information and interpretations.  Under no circumstances should any 
#such information or interpretation be relied upon as the sole basis for any drilling, 
#completion, production, or financial decision or any procedure involving any risk to the 
#safety of any drilling venture, drilling rig or its crew or any other third party.  The 
#Customer has full responsibility for all drilling, completion and production operation.  
#Halliburton makes no representations or warranties, either expressed or 
#implied, including, but not limited to, the implied warranties of merchantability or fitness 
#for a particular purpose, with respect to the services rendered.  In no event will 
#Halliburton be liable for failure to obtain any particular results or for 
#any damages, including, but not limited to, indirect, special or consequential damages, 
#resulting from the use of any information or interpretation provided by Halliburton.
#
~A           TIME           GTDEPTH  GTPQH  GTTQ  GTTN  GTET   GTTVD  
# ...
   04:32:46.740.20-May-2020 5064.29 2956.00 68.78 9.00 552.16 2676.66
   04:32:46.941.20-May-2020 5064.29 2956.00 68.78 9.00 552.36 2676.66
   04:32:47.141.20-May-2020 5064.29 2956.13 68.78 9.00 552.56 2676.66
   04:32:47.341.20-May-2020 5064.29 2956.11 68.78 9.00 552.76 2676.66
   04:32:47.541.20-May-2020 5064.29 2956.19 68.78 9.00 552.96 2676.66
   04:32:47.741.20-May-2020 5064.29 2956.10 68.78 9.00 553.16 2676.66
   04:32:47.941.20-May-2020 5064.29 2956.10 68.78 9.00 553.36 2676.66
   04:32:48.141.20-May-2020 5064.29 2956.14 68.78 9.00 553.56 2676.66
   04:32:48.341.20-May-2020 5064.29 2956.11 68.78 9.00 553.76 2676.66
   04:32:48.541.20-May-2020 5064.29 2956.14 68.78 9.00 553.96 2676.66
   04:32:48.741.20-May-2020 5064.29 2956.10 68.78 9.00 554.16 2676.66
   04:32:48.941.20-May-2020 5064.29 2956.10 68.78 9.00 554.36 2676.66
   04:32:49.141.20-May-2020 5064.29 2956.13 68.78 9.00 554.56 2676.66
   04:32:49.341.20-May-2020 5064.29 2956.11 68.78 9.00 554.76 2676.66
   04:32:49.541.20-May-2020 5064.29 2956.14 68.78 9.00 554.96 2676.66
   04:32:49.741.20-May-2020 5064.29 2956.10 68.78 9.00 555.16 2676.66
   04:32:49.941.20-May-2020 5064.29 2956.10 68.78 9.00 555.36 2676.66
   04:32:50.141.20-May-2020 5064.29 2956.11 68.78 9.00 555.56 2676.66
   04:32:50.341.20-May-2020 5064.29 2956.08 68.78 9.00 555.76 2676.66
   04:32:50.542.20-May-2020 5064.29 2956.17 68.78 9.00 555.96 2676.66
   04:32:50.742.20-May-2020 5064.29 2956.16 68.78 9.00 556.16 2676.66
   04:32:50.942.20-May-2020 5064.29 2956.16 68.78 9.00 556.36 2676.66
   04:32:51.142.20-May-2020 5064.29 2956.15 68.78 9.00 556.56 2676.66
   04:32:51.342.20-May-2020 5064.29 2956.09 68.78 9.00 556.76 2676.66
   04:32:51.542.20-May-2020 5064.29 2956.19 68.78 9.00 556.96 2676.66
   04:32:51.742.20-May-2020 5064.29 2956.00 68.78 9.00 557.16 2676.66
   04:32:51.942.20-May-2020 5064.29 2956.00 68.78 9.00 557.36 2676.66
   04:32:52.142.20-May-2020 5064.29 2956.13 68.78 9.00 557.56 2676.66
   04:32:52.342.20-May-2020 5064.29 2956.14 68.78 9.00 557.76 2676.66
   04:32:52.542.20-May-2020 5064.29 2956.07 68.78 9.00 557.96 2676.66
   04:32:52.742.20-May-2020 5064.29 2956.21 68.78 9.00 558.16 2676.66
   04:32:52.942.20-May-2020 5064.29 2956.21 68.78 9.00 558.36 2676.66
   04:32:53.142.20-May-2020 5064.29 2956.18 68.78 9.00 558.56 2676.66
   04:32:53.342.20-May-2020 5064.29 2956.11 68.78 9.00 558.76 2676.66
   04:32:53.542.20-May-2020 5064.29 2956.15 68.78 9.00 558.96 2676.66
   04:32:53.742.20-May-2020 5064.29 2955.99 68.78 9.00 559.16 2676.66
   04:32:53.942.20-May-2020 5064.29 2955.99 68.78 9.00 559.36 2676.66
   04:32:54.143.20-May-2020 5064.29 2956.13 68.78 9.00 559.56 2676.66
   04:32:54.343.20-May-2020 5064.29 2956.13 68.78 9.00 559.76 2676.66
   04:32:54.543.20-May-2020 5064.29 2956.15 68.78 9.00 559.96 2676.66
   04:32:54.743.20-May-2020 5064.29 2956.10 68.78 9.00 560.16 2676.66
   04:32:54.943.20-May-2020 5064.29 2956.10 68.78 9.00 560.36 2676.66
   04:32:55.143.20-May-2020 5064.29 2956.14 68.78 9.00 560.56 2676.66
   04:32:55.343.20-May-2020 5064.29 2956.11 68.78 9.00 560.76 2676.66
   04:32:55.543.20-May-2020 5064.29 2956.16 68.78 9.00 560.96 2676.66
   04:32:55.743.20-May-2020 5064.29 2956.11 68.78 9.00 561.16 2676.66
   04:32:55.943.20-May-2020 5064.29 2956.11 68.78 9.00 561.36 2676.66
   04:32:56.143.20-May-2020 5064.29 2956.15 68.78 9.00 561.56 2676.66
   04:32:56.343.20-May-2020 5064.29 2956.12 68.78 9.00 561.76 2676.66
   04:32:56.543.20-May-2020 5064.29 2956.16 68.78 9.00 561.96 2676.66
   04:32:56.743.20-May-2020 5064.29 2956.11 68.78 9.00 562.16 2676.66
   04:32:56.943.20-May-2020 5064.29 2956.11 68.78 9.00 562.36 2676.66
   04:32:57.143.20-May-2020 5064.29 2956.14 68.78 9.00 562.56 2676.66
   04:32:57.343.20-May-2020 5064.29 2956.13 68.78 9.00 562.76 2676.66
   04:32:57.544.20-May-2020 5064.29 2956.07 68.78 9.00 562.96 2676.66
   04:32:57.744.20-May-2020 5064.29 2956.26 68.78 9.00 563.16 2676.66
   04:32:57.944.20-May-2020 5064.29 2956.26 68.78 9.00 563.36 2676.66
   04:32:58.144.20-May-2020 5064.29 2956.13 68.78 9.00 563.56 2676.66
   04:32:58.344.20-May-2020 5064.29 2956.18 68.78 9.00 563.76 2676.66
   04:32:58.544.20-May-2020 5064.29 2956.15 68.78 9.00 563.96 2676.66
   04:32:58.744.20-May-2020 5064.29 2955.99 68.78 9.00 564.16 2676.66
   04:32:58.944.20-May-2020 5064.29 2955.99 68.78 9.00 564.36 2676.66
   04:32:59.144.20-May-2020 5064.29 2956.13 68.78 9.00 564.56 2676.66
   04:32:59.344.20-May-2020 5064.29 2956.12 68.78 9.00 564.76 2676.66
   04:32:59.544.20-May-2020 5064.29 2956.10 68.78 9.00 564.96 2676.66
   04:32:59.744.20-May-2020 5064.29 2956.19 68.78 9.00 565.16 2676.66
   04:32:59.944.20-May-2020 5064.29 2956.19 68.78 9.00 565.36 2676.66
   04:33:00.144.20-May-2020 5064.29 2956.20 68.78 9.00 565.56 2676.66
   04:33:00.344.20-May-2020 5064.29 2956.16 68.78 9.00 565.76 2676.66
   04:33:00.544.20-May-2020 5064.29 2956.12 68.78 9.00 565.96 2676.66
   04:33:00.744.20-May-2020 5064.29 2955.98 68.78 9.00 566.16 2676.66
   04:33:00.944.20-May-2020 5064.29 2955.98 68.78 9.00 566.36 2676.66
   04:33:01.145.20-May-2020 5064.29 2956.13 68.78 9.00 566.56 2676.66
   04:33:01.345.20-May-2020 5064.29 2956.14 68.78 9.00 566.76 2676.66
   04:33:01.545.20-May-2020 5064.29 2956.20 68.78 9.00 566.96 2676.66
   04:33:01.745.20-May-2020 5064.29 2956.07 68.78 9.00 567.16 2676.66
   04:33:01.945.20-May-2020 5064.29 2956.07 68.78 9.00 567.36 2676.66
   04:33:02.145.20-May-2020 5064.29 2956.17 68.78 9.00 567.56 2676.66
   04:33:02.345.20-May-2020 5064.29 2956.11 68.78 9.00 567.76 2676.66
   04:33:02.545.20-May-2020 5064.29 2956.15 68.78 9.00 567.96 2676.66
   04:33:02.745.20-May-2020 5064.29 2956.11 68.78 9.00 568.16 2676.66
   04:33:02.945.20-May-2020 5064.29 2956.11 68.78 9.00 568.36 2676.66
   04:33:03.145.20-May-2020 5064.29 2956.14 68.78 9.00 568.56 2676.66
   04:33:03.345.20-May-2020 5064.29 2956.12 68.78 9.00 568.76 2676.66
   04:33:03.545.20-May-2020 5064.29 2956.15 68.78 9.00 568.96 2676.66
   04:33:03.745.20-May-2020 5064.29 2956.02 68.78 9.00 569.16 2676.66
   04:33:03.945.20-May-2020 5064.29 2956.02 68.78 9.00 569.36 2676.66
   04:33:04.145.20-May-2020 5064.29 2956.13 68.78 9.00 569.56 2676.66
   04:33:04.345.20-May-2020 5064.29 2956.10 68.78 9.00 569.76 2676.66
   04:33:04.545.20-May-2020 5064.29 2956.11 68.78 9.00 569.96 2676.66
   04:33:04.746.20-May-2020 5064.29 2956.22 68.78 9.00 570.16 2676.66
   04:33:04.946.20-May-2020 5064.29 2956.22 68.78 9.00 570.36 2676.66
   04:33:05.146.20-May-2020 5064.29 2956.17 68.78 9.00 570.56 2676.66
   04:33:05.346.20-May-2020 5064.29 2956.13 68.78 9.00 570.76 2676.66
   04:33:05.546.20-May-2020 5064.29 2956.14 68.78 9.00 570.96 2676.66
   04:33:05.746.20-May-2020 5064.29 2956.11 68.78 9.00 571.16 2676.66
   04:33:05.946.20-May-2020 5064.29 2956.11 68.78 9.00 571.36 2676.66
   04:33:06.146.20-May-2020 5064.29 2956.14 68.78 9.00 571.56 2676.66
   04:33:06.346.20-May-2020 5064.29 2956.13 68.78 9.00 571.76 2676.66
   04:33:06.546.20-May-2020 5064.29 2956.23 68.78 9.00 571.96 2676.66
   04:33:06.746.20-May-2020 5064.29 2956.06 68.78 9.00 572.16 2676.66
   04:33:06.946.20-May-2020 5064.29 2956.06 68.78 9.00 572.36 2676.66
   04:33:07.146.20-May-2020 5064.29 2956.17 68.78 9.00 572.56 2676.66
   04:33:07.346.20-May-2020 5064.29 2956.15 68.78 9.00 572.76 2676.66
   04:33:07.546.20-May-2020 5064.29 2956.14 68.78 9.00 572.96 2676.66
   04:33:07.746.20-May-2020 5064.29 2956.12 68.78 9.00 573.16 2676.66
   04:33:07.946.20-May-2020 5064.29 2956.12 68.78 9.00 573.36 2676.66
   04:33:08.147.20-May-2020 5064.29 2956.14 68.78 9.00 573.56 2676.66
   04:33:08.347.20-May-2020 5064.29 2956.12 68.78 9.00 573.76 2676.66
   04:33:08.547.20-May-2020 5064.29 2956.19 68.78 9.00 573.96 2676.66
   04:33:08.747.20-May-2020 5064.29 2956.07 68.78 9.00 574.16 2676.66
   04:33:08.947.20-May-2020 5064.29 2956.07 68.78 9.00 574.36 2676.66
   04:33:09.147.20-May-2020 5064.29 3044.79 68.78 9.00 574.56 2676.66
   04:33:09.347.20-May-2020 5064.29 6097.07 68.78 9.00 574.76 2676.66
   04:33:09.547.20-May-2020 5064.29 6399.10 68.78 9.00 574.96 2676.66
