~Version Information
 VERS.                  2.0:   CWLS log ASCII Standard -VERSION 2.0
 WRAP.                   NO:   One line per depth step
~Well Information Block
#MNEM.UNIT     VALUE/NAME     DESCRIPTION
#---------     -----------    ---------------------------
 STRT.S             02:05:08 20-May-20: START TIME 02:05:08 20-May-20
 STOP.S             02:15:48 20-May-20: STOP TIME  02:15:48 20-May-20
 STEP.S                   0.00: STEP TIME
 NULL.                 -999.25: NULL VALUE
 MDS .        Operator Entered:  MAG DATA SOURCE
 PDAT.          Mean Sea Level:  PERMANENT DATUM
 UNIT.                     N/A:  LOGGING EQUIPMENT ID
 DCON.         Sperry Drilling:  DIRECTNL CONTR
 DOE .                     N/A:  DOE NUMBER
 RIG .              East Azeri:  RIG NAME
 JOBN.        AZ-XX-0905856059:  JOB TICKET NUMB
 WELL.                     D36:  WELL NAME
 MWDS.                    Baku:  MWD SHOP
 SRVC.     Turan Drilling & Engineering:  CONTRACTOR
 FLD .                     ACG:  FIELD NAME
 CTRY.              Azerbaijan:  COUNTRY NAME
 PROV.                    Baku:  PROVINCE
 STAT.                    Baku:  STATE NAME
 REGN.                   EESSA:  REGION
 BASE.              Azerbaijan:  LOGGING EQUIPMENT BASE LOCATION
 UWI .                     N/A:  UNIQUE WELL IDENTIFIER
 API .                     N/A:  API NUMBER
 COMP.     BP Exploration (Caspian Sea) Ltd.:  COMPANY
 WTYP.                Deviated:  WELL TYPE
 SON .        AZ-XX-0905856059:  JOB NUMBER
 FTOP.          Formation Tops:  FORM TOPS DESC
 ILTD.               Lithology:  INTERP LTH DESC
 SVYD.                  Survey:  SURVEY DESC
 DMOD.             Drill Model:  DRILL MOD DESC
 HPTY.       Minimum Curvature:  HOLE POS TYPE
 NREF.                    Grid:  NORTH REFERENCE
 SPUD.               25-Feb-20:  SPUD DATE
 DATE.      08.55.28 01-May-20:  END TIME
 STIM.      08.55.28 25-Feb-20:  START TIME
 DMF .             Drill Floor:  DRILL MEAS FROM
 DFST.                        :  DIST FSL TEXT
 DFWT.                        :  DIST FWL TEXT
 CNTY.                        :  COUNTY
 LOC .                        :  LOCATION
 LMF .             Drill Floor:  LOG MEASURED FROM
 VSNS.m                   6.09:  VERT SEC N/S
 VSEW.m                 -10.79:  VERT SEC E/W
 AGAP.m                  43.60:  AIR GAP
 DEP .m                 388.24:  DEPTH
 APD .m                  43.60:  DEPTH ABOVE PD
 WDMS.m                 151.80:  WD ELEV
 EGL .m                   0.00:  GROUND ELEVATION
 EPD .m                   0.00:  ELEVATION
 AZTC.deg                 6.12:  AZM TOTAL CORR
 GRDC.deg                 0.30:  GRID CORRECTION
 MDEC.deg                 6.42:  MAGNETIC DECL
 MDIP.deg                59.42:  MAGNETIC DIP
 MFLD.nT              50256.00:  MAGNETIC FIELD
 GVFD.g                   1.00:  GRAVITY FIELD
 VSDR.deg               159.57:  VERT SEC DIRECT
 TDD .m                5000.01:  TOTAL DEPTH (DRILLER)
 SDEP.m                 397.00:  START DEPTH
 DFSL.m                   0.00:  DISTANCE FSL
 DFWL.m                   0.00:  DISTANCE FWL
 UTMY.m             4431880.20:  UTM Y
 UTMX.m              538763.98:  UTM X
 WHEW.m                 -10.79:  WELL HEAD E/W
 WHNS.m                   6.09:  WELL HEAD N/S
 LONG.deg                51.45:  LONGITUDE
 LATI.deg                40.02:  LATITUDE
 TVDS.m                  43.60:  TVDSS CORRECTN
 EKB .m                  43.60:  KB ELEVATION
 EDF .m                  43.60:  DF ELEVATION
 MAGU.                 1847640:  MAGUTM CHECKSUM
 VSC .                       0:  VS TO CLOSURE
~Parameter Information Block
#MNEM.UNIT       Value        Description
#---------     -----------    ---------------------------
 AV  .mps                 1.30:  Ann Velocity 
 AVMX.mps                 1.90:  Max Ann Veloc 
 AZIF.deg               115.68:  Azm, Final 
 BHAT.                   Other:  BHA Type 
 BROT.°/30m               0.74:  Build Rotating 
 BS  .in                  8.50:  Bit Size 
 BTPL.psig              430.00:  Bit Press Loss 
 CABU.                      No:  Customer Abuse 
 TCS .hr                 51.31:  Time Ciculation Ended 
 CV  .mps                 2.52:  Crit Velocity 
 CVMX.mps                 2.62:  Max Crit Veloc 
 DD1 .          Teymur Aghayev:  Direct Drillr 1 
 DDSV.                   Other:  DD Service 
 DEFF.%                 100.00:  % Det Eff 
 DLRX.°/30m               1.62:  Dogleg Rot Max 
 DLSO.°/30m               0.74:  Dogleg Oriented 
 DLSX.°/30m               1.62:  Dogleg Str Max 
 DRET.      04.30.56 18-May-20:  Drill End Time 
 DRST.      04.30.56 18-May-20:  Drill Start Tim 
 DTIM.hr                  0.00:  Time Drilling 
 EDEP.m                5337.01:  End Depth 
 ENG1.      Artemiy Matviyanov:  Engineer 1 
 ENG2.      Bakhtiyar Jabbarli:  Engineer 2 
 ENG3.           Emil Huseynov:  Engineer 3 
 ETIM.      18.40.00 22-May-20:  End Time 
 FLOI.gpm               550.00:  Flow In 
 FLON.gpm               350.00:  Flow In Min 
 FLOS.cptm                0.00:  Fluid Loss 
 FLOX.gpm               600.00:  Flow In Max 
 HFLO.                      No:  High Flow 
 HPRE.                      No:  High Pressure 
 HTEM.                      No:  High Temp 
 HYDO.m                   1.80:  Hydro Offset 
 IFIN.deg                67.01:  Inc, Final 
 IMAX.deg                67.49:  Inc Max 
 IMIN.deg                66.50:  Inc Min 
 IMND.m                5144.79:  Inc Min Depth 
 IMXD.m                5116.12:  Inc Max Depth 
 JARR.                      No:  Jarring 
 LETM.      17.55.56 20-May-20:  Log End Time 
 LOST.hr                     0:  Lost Rig Time 
 LSTM.      04.30.56 18-May-20:  Log Start Time 
 MDCL.ppm            193153.00:  Mud Chlorides 
 MDES.     Inversion Oil/Synthetic:  Mud Desc 
 DFD .sg                  1.40:  Mud Density 
 MDMN.sg                  1.40:  Dens Mud Min 
 MDMX.sg                  1.41:  Dens Mud Max 
 MOIL.                      68:  Run Mud Oil % 
 MOWR.                   68:32:  Run Mud OWR 
 MSND.                     0.2:  Run Mud Sand % 
 MSOL.                    18.8:  Run Mud Solids% 
 DFV .spqt               80.00:  Mud Viscosity 
 MWOD.in                  6.75:  MWD Tool OD 
 MWSI.                      No:  Serv Intrp, MWD 
 OTIM.hr                104.84:  Time Operating 
 PMAX.psia            10690.93:  Press Op, Max 
 PV  .cP                 26.00:  Mud PV 
 RUN .                     900:  Run Number 
 ROPA.m/hr                0.00:  ROP Avg 
 ROPN.m/hr                0.00:  ROP Min 
 ROPX.m/hr                0.00:  ROP Max 
 RPMA.rpm               140.00:  RPM Surface Avg 
 RPMN.rpm                70.00:  RPM Surface Min 
 RPMX.rpm               140.00:  RPM Surface Max 
 RRUN.                    0900:  Rig Run Number 
 RTIM.hr                 36.00:  Time Reaming 
 SAZI.deg               115.72:  Azm, Start 
 SDEP.m                5337.01:  Start Depth 
 SIDD.                      No:  Serv Intrp, DD 
 SINC.deg                66.92:  Inc, Start 
 SPPA.psig             4400.00:  SPP Avg 
 SPPN.psig             1135.00:  SPP Min 
 SPPX.psig             4581.00:  SPP Max 
 STIM.      04.30.56 18-May-20:  Start Time 
 SVCS.                     MWD:  Services 
 SVER.                    9.20:  Sperry Version 
 TDAT.m                5337.01:  Tot Depth Attmp 
 TDDF.                      No:  Trip for DD 
 TFF .                      No:  Trip for Fail 
 TQAA.f-kp               23.00:  Torque Abs Avg 
 TQAN.f-kp               18.00:  Torque Abs Min 
 TQAX.f-kp               25.00:  Torque Abs Max 
 TRRT.°/30m               0.74:  Turn Rotating 
 MRT .                    HCIM:  Maximum Recorded Temperature 
 TTMX.degC               76.47:  Max Tool Temp 
 WBMN.klb                 0.00:  WOB Min 
 WITN.             Anar Khalil:  Customer Rep 
 WITN.      Kamran Keberlinski:  Customer Rep 2 
 WOBA.klb                 0.00:  WOB Avg 
 WOBX.klb                 0.00:  WOB Max 
 YP  .lhf2               27.00:  Yield Point 
~Curve Information Block
#MNEM.UNIT                 API CODE     Curve Description
#---------               -----------    ---------------------------
 TIME.HHMMSS            00 000 000 000:  GT Time & Date
 GTDEPTH.m              00 000 000 000:  GT Depth
 GTPQH.psia             00 000 000 000:  GT HR Quartz Pressure
 GTTQ.degC              00 000 000 000:  GT Quartz Temperature
 GTTN.NONE              00 000 000 000:  GT Test Number
 GTET.sec               00 000 000 000:  GT Elapsed Test Time
 GTTVD.m                00 000 000 000:  GT True Vertical Depth
#Other Information
#
#WARRANTY: Halliburton will use its best efforts to furnish customers with 
#accurate information and interpretations that are part of, and incident to, the services 
#provided.  However, Halliburton cannot and does not warrant the accuracy 
#or correctness of such information and interpretations.  Under no circumstances should any 
#such information or interpretation be relied upon as the sole basis for any drilling, 
#completion, production, or financial decision or any procedure involving any risk to the 
#safety of any drilling venture, drilling rig or its crew or any other third party.  The 
#Customer has full responsibility for all drilling, completion and production operation.  
#Halliburton makes no representations or warranties, either expressed or 
#implied, including, but not limited to, the implied warranties of merchantability or fitness 
#for a particular purpose, with respect to the services rendered.  In no event will 
#Halliburton be liable for failure to obtain any particular results or for 
#any damages, including, but not limited to, indirect, special or consequential damages, 
#resulting from the use of any information or interpretation provided by Halliburton.
#
~A           TIME           GTDEPTH  GTPQH  GTTQ  GTTN  GTET   GTTVD  
# ...
   02:07:49.000.20-May-2020 5070.01 2956.51 68.38 7.00 161.00 2678.90
   02:07:49.200.20-May-2020 5070.01 2956.52 68.38 7.00 161.20 2678.90
   02:07:49.400.20-May-2020 5070.01 2956.51 68.38 7.00 161.40 2678.90
   02:07:49.600.20-May-2020 5070.01 2956.47 68.38 7.00 161.60 2678.90
   02:07:49.800.20-May-2020 5070.01 2956.55 68.38 7.00 161.80 2678.90
   02:07:50.000.20-May-2020 5070.01 2956.48 68.38 7.00 162.00 2678.90
   02:07:50.200.20-May-2020 5070.01 2956.48 68.38 7.00 162.20 2678.90
   02:07:50.400.20-May-2020 5070.01 2956.50 68.38 7.00 162.40 2678.90
   02:07:50.600.20-May-2020 5070.01 2956.50 68.38 7.00 162.60 2678.90
   02:07:50.800.20-May-2020 5070.01 2956.51 68.38 7.00 162.80 2678.90
   02:07:51.000.20-May-2020 5070.01 2956.51 68.38 7.00 163.00 2678.90
   02:07:51.200.20-May-2020 5070.01 2956.51 68.38 7.00 163.20 2678.90
   02:07:51.400.20-May-2020 5070.01 2956.52 68.38 7.00 163.40 2678.90
   02:07:51.600.20-May-2020 5070.01 2956.52 68.38 7.00 163.60 2678.90
   02:07:51.800.20-May-2020 5070.01 2956.52 68.38 7.00 163.80 2678.90
   02:07:52.000.20-May-2020 5070.01 2956.52 68.38 7.00 164.00 2678.90
   02:07:52.200.20-May-2020 5070.01 2956.52 68.38 7.00 164.20 2678.90
   02:07:52.400.20-May-2020 5070.01 2956.52 68.38 7.00 164.40 2678.90
   02:07:52.600.20-May-2020 5070.01 2956.53 68.38 7.00 164.60 2678.90
   02:07:52.800.20-May-2020 5070.01 2956.50 68.38 7.00 164.80 2678.90
   02:07:53.000.20-May-2020 5070.01 2956.51 68.38 7.00 165.00 2678.90
   02:07:53.200.20-May-2020 5070.01 2956.51 68.38 7.00 165.20 2678.90
   02:07:53.400.20-May-2020 5070.01 2956.50 68.38 7.00 165.40 2678.90
   02:07:53.600.20-May-2020 5070.01 2956.50 68.38 7.00 165.60 2678.90
   02:07:53.800.20-May-2020 5070.01 2956.49 68.38 7.00 165.80 2678.90
   02:07:54.000.20-May-2020 5070.01 2956.48 68.38 7.00 166.00 2678.90
   02:07:54.200.20-May-2020 5070.01 2956.51 68.38 7.00 166.20 2678.90
   02:07:54.400.20-May-2020 5070.01 2956.48 68.38 7.00 166.40 2678.90
   02:07:54.600.20-May-2020 5070.01 2956.48 68.38 7.00 166.60 2678.90
   02:07:54.800.20-May-2020 5070.01 2956.50 68.38 7.00 166.80 2678.90
   02:07:55.000.20-May-2020 5070.01 2956.47 68.38 7.00 167.00 2678.90
   02:07:55.200.20-May-2020 5070.01 2956.47 68.38 7.00 167.20 2678.90
   02:07:55.400.20-May-2020 5070.01 2956.48 68.38 7.00 167.40 2678.90
   02:07:55.600.20-May-2020 5070.01 2956.48 68.38 7.00 167.60 2678.90
   02:07:55.800.20-May-2020 5070.01 2956.48 68.38 7.00 167.80 2678.90
   02:07:56.000.20-May-2020 5070.01 2956.48 68.38 7.00 168.00 2678.90
   02:07:56.200.20-May-2020 5070.01 2956.48 68.38 7.00 168.20 2678.90
   02:07:56.400.20-May-2020 5070.01 2956.47 68.38 7.00 168.40 2678.90
   02:07:56.600.20-May-2020 5070.01 2956.47 68.38 7.00 168.60 2678.90
   02:07:56.800.20-May-2020 5070.01 2956.50 68.38 7.00 168.80 2678.90
   02:07:57.000.20-May-2020 5070.01 2956.47 68.38 7.00 169.00 2678.90
   02:07:57.200.20-May-2020 5070.01 2956.47 68.38 7.00 169.20 2678.90
   02:07:57.400.20-May-2020 5070.01 2956.48 68.38 7.00 169.40 2678.90
   02:07:57.600.20-May-2020 5070.01 2956.48 68.38 7.00 169.60 2678.90
   02:07:57.800.20-May-2020 5070.01 2956.48 68.38 7.00 169.80 2678.90
   02:07:58.000.20-May-2020 5070.01 2956.49 68.38 7.00 170.00 2678.90
   02:07:58.200.20-May-2020 5070.01 2956.49 68.38 7.00 170.20 2678.90
   02:07:58.400.20-May-2020 5070.01 2956.49 68.38 7.00 170.40 2678.90
   02:07:58.600.20-May-2020 5070.01 2956.49 68.38 7.00 170.60 2678.90
   02:07:58.800.20-May-2020 5070.01 2956.49 68.38 7.00 170.80 2678.90
   02:07:59.000.20-May-2020 5070.01 2956.49 68.38 7.00 171.00 2678.90
   02:07:59.200.20-May-2020 5070.01 2956.49 68.38 7.00 171.20 2678.90
   02:07:59.400.20-May-2020 5070.01 2956.49 68.38 7.00 171.40 2678.90
   02:07:59.600.20-May-2020 5070.01 2956.50 68.38 7.00 171.60 2678.90
   02:07:59.800.20-May-2020 5070.01 2956.50 68.38 7.00 171.80 2678.90
   02:08:00.000.20-May-2020 5070.01 2956.48 68.38 7.00 172.00 2678.90
   02:08:00.200.20-May-2020 5070.01 2956.48 68.38 7.00 172.20 2678.90
   02:08:00.400.20-May-2020 5070.01 2956.43 68.38 7.00 172.40 2678.90
   02:08:00.600.20-May-2020 5070.01 2956.51 68.38 7.00 172.60 2678.90
   02:08:00.800.20-May-2020 5070.01 2956.47 68.38 7.00 172.80 2678.90
   02:08:01.000.20-May-2020 5070.01 2956.48 68.38 7.00 173.00 2678.90
   02:08:01.200.20-May-2020 5070.01 2956.48 68.38 7.00 173.20 2678.90
   02:08:01.400.20-May-2020 5070.01 2956.47 68.38 7.00 173.40 2678.90
   02:08:01.600.20-May-2020 5070.01 2956.50 68.38 7.00 173.60 2678.90
   02:08:01.800.20-May-2020 5070.01 2956.43 68.38 7.00 173.80 2678.90
   02:08:02.000.20-May-2020 5070.01 2956.46 68.38 7.00 174.00 2678.90
   02:08:02.200.20-May-2020 5070.01 2956.46 68.38 7.00 174.20 2678.90
   02:08:02.400.20-May-2020 5070.01 2956.50 68.38 7.00 174.40 2678.90
   02:08:02.600.20-May-2020 5070.01 2956.42 68.38 7.00 174.60 2678.90
   02:08:02.800.20-May-2020 5070.01 2956.46 68.38 7.00 174.80 2678.90
   02:08:03.000.20-May-2020 5070.01 2956.45 68.38 7.00 175.00 2678.90
   02:08:03.200.20-May-2020 5070.01 2956.45 68.38 7.00 175.20 2678.90
   02:08:03.400.20-May-2020 5070.01 2956.46 68.38 7.00 175.40 2678.90
   02:08:03.600.20-May-2020 5070.01 2956.48 68.38 7.00 175.60 2678.90
   02:08:03.800.20-May-2020 5070.01 2956.43 68.38 7.00 175.80 2678.90
   02:08:04.000.20-May-2020 5070.01 2956.45 68.38 7.00 176.00 2678.90
   02:08:04.200.20-May-2020 5070.01 2956.45 68.38 7.00 176.20 2678.90
   02:08:04.400.20-May-2020 5070.01 2956.47 68.38 7.00 176.40 2678.90
   02:08:04.600.20-May-2020 5070.01 2956.45 68.38 7.00 176.60 2678.90
   02:08:04.800.20-May-2020 5070.01 2956.47 68.38 7.00 176.80 2678.90
   02:08:05.000.20-May-2020 5070.01 2956.45 68.38 7.00 177.00 2678.90
   02:08:05.200.20-May-2020 5070.01 2956.47 68.38 7.00 177.20 2678.90
   02:08:05.400.20-May-2020 5070.01 2956.47 68.38 7.00 177.40 2678.90
   02:08:05.600.20-May-2020 5070.01 2956.46 68.38 7.00 177.60 2678.90
   02:08:05.800.20-May-2020 5070.01 2956.47 68.38 7.00 177.80 2678.90
   02:08:06.000.20-May-2020 5070.01 2956.47 68.38 7.00 178.00 2678.90
   02:08:06.200.20-May-2020 5070.01 2956.47 68.38 7.00 178.20 2678.90
   02:08:06.400.20-May-2020 5070.01 2956.47 68.38 7.00 178.40 2678.90
   02:08:06.600.20-May-2020 5070.01 2956.42 68.38 7.00 178.60 2678.90
   02:08:06.800.20-May-2020 5070.01 2956.51 68.38 7.00 178.80 2678.90
   02:08:07.000.20-May-2020 5070.01 2956.43 68.38 7.00 179.00 2678.90
   02:08:07.200.20-May-2020 5070.01 2956.43 68.38 7.00 179.20 2678.90
   02:08:07.400.20-May-2020 5070.01 2956.43 68.38 7.00 179.40 2678.90
   02:08:07.600.20-May-2020 5070.01 2956.47 68.38 7.00 179.60 2678.90
   02:08:07.800.20-May-2020 5070.01 2956.42 68.38 7.00 179.80 2678.90
   02:08:08.000.20-May-2020 5070.01 2956.45 68.38 7.00 180.00 2678.90
   02:08:08.200.20-May-2020 5070.01 2956.45 68.38 7.00 180.20 2678.90
   02:08:08.400.20-May-2020 5070.01 2956.44 68.38 7.00 180.40 2678.90
   02:08:08.600.20-May-2020 5070.01 2956.42 68.38 7.00 180.60 2678.90
   02:08:08.800.20-May-2020 5070.01 2956.46 68.38 7.00 180.80 2678.90
   02:08:09.000.20-May-2020 5070.01 2956.43 68.38 7.00 181.00 2678.90
   02:08:09.200.20-May-2020 5070.01 2956.43 68.38 7.00 181.20 2678.90
   02:08:09.400.20-May-2020 5070.01 2956.42 68.38 7.00 181.40 2678.90
   02:08:09.600.20-May-2020 5070.01 2956.45 68.38 7.00 181.60 2678.90
   02:08:09.800.20-May-2020 5070.01 2956.43 68.38 7.00 181.80 2678.90
   02:08:10.000.20-May-2020 5070.01 2956.45 68.38 7.00 182.00 2678.90
   02:08:10.200.20-May-2020 5070.01 2956.45 68.38 7.00 182.20 2678.90
   02:08:10.400.20-May-2020 5070.01 2956.43 68.38 7.00 182.40 2678.90
   02:08:10.600.20-May-2020 5070.01 2956.42 68.38 7.00 182.60 2678.90
   02:08:10.800.20-May-2020 5070.01 2956.45 68.38 7.00 182.80 2678.90
   02:08:11.000.20-May-2020 5070.01 2956.42 68.38 7.00 183.00 2678.90
   02:08:11.200.20-May-2020 5070.01 2956.42 68.38 7.00 183.20 2678.90
   02:08:11.400.20-May-2020 5070.01 2956.43 68.38 7.00 183.40 2678.90
   02:08:11.600.20-May-2020 5070.01 2956.43 68.38 7.00 183.60 2678.90
   02:08:11.800.20-May-2020 5070.01 2956.43 68.38 7.00 183.80 2678.90
