~Version Information
 VERS.                  2.0:   CWLS log ASCII Standard -VERSION 2.0
 WRAP.                   NO:   One line per depth step
~Well Information Block
#MNEM.UNIT     VALUE/NAME     DESCRIPTION
#---------     -----------    ---------------------------
 STRT.S             06:41:15 20-May-20: START TIME 06:41:15 20-May-20
 STOP.S             06:51:49 20-May-20: STOP TIME  06:51:49 20-May-20
 STEP.S                   0.00: STEP TIME
 NULL.                 -999.25: NULL VALUE
 MDS .        Operator Entered:  MAG DATA SOURCE
 PDAT.          Mean Sea Level:  PERMANENT DATUM
 UNIT.                     N/A:  LOGGING EQUIPMENT ID
 DCON.         Sperry Drilling:  DIRECTNL CONTR
 DOE .                     N/A:  DOE NUMBER
 RIG .              East Azeri:  RIG NAME
 JOBN.        AZ-XX-0905856059:  JOB TICKET NUMB
 WELL.                     D36:  WELL NAME
 MWDS.                    Baku:  MWD SHOP
 SRVC.     Turan Drilling & Engineering:  CONTRACTOR
 FLD .                     ACG:  FIELD NAME
 CTRY.              Azerbaijan:  COUNTRY NAME
 PROV.                    Baku:  PROVINCE
 STAT.                    Baku:  STATE NAME
 REGN.                   EESSA:  REGION
 BASE.              Azerbaijan:  LOGGING EQUIPMENT BASE LOCATION
 UWI .                     N/A:  UNIQUE WELL IDENTIFIER
 API .                     N/A:  API NUMBER
 COMP.     BP Exploration (Caspian Sea) Ltd.:  COMPANY
 WTYP.                Deviated:  WELL TYPE
 SON .        AZ-XX-0905856059:  JOB NUMBER
 FTOP.          Formation Tops:  FORM TOPS DESC
 ILTD.               Lithology:  INTERP LTH DESC
 SVYD.                  Survey:  SURVEY DESC
 DMOD.             Drill Model:  DRILL MOD DESC
 HPTY.       Minimum Curvature:  HOLE POS TYPE
 NREF.                    Grid:  NORTH REFERENCE
 SPUD.               25-Feb-20:  SPUD DATE
 DATE.      08.55.28 01-May-20:  END TIME
 STIM.      08.55.28 25-Feb-20:  START TIME
 DMF .             Drill Floor:  DRILL MEAS FROM
 DFST.                        :  DIST FSL TEXT
 DFWT.                        :  DIST FWL TEXT
 CNTY.                        :  COUNTY
 LOC .                        :  LOCATION
 LMF .             Drill Floor:  LOG MEASURED FROM
 VSNS.m                   6.09:  VERT SEC N/S
 VSEW.m                 -10.79:  VERT SEC E/W
 AGAP.m                  43.60:  AIR GAP
 DEP .m                 388.24:  DEPTH
 APD .m                  43.60:  DEPTH ABOVE PD
 WDMS.m                 151.80:  WD ELEV
 EGL .m                   0.00:  GROUND ELEVATION
 EPD .m                   0.00:  ELEVATION
 AZTC.deg                 6.12:  AZM TOTAL CORR
 GRDC.deg                 0.30:  GRID CORRECTION
 MDEC.deg                 6.42:  MAGNETIC DECL
 MDIP.deg                59.42:  MAGNETIC DIP
 MFLD.nT              50256.00:  MAGNETIC FIELD
 GVFD.g                   1.00:  GRAVITY FIELD
 VSDR.deg               159.57:  VERT SEC DIRECT
 TDD .m                5000.01:  TOTAL DEPTH (DRILLER)
 SDEP.m                 397.00:  START DEPTH
 DFSL.m                   0.00:  DISTANCE FSL
 DFWL.m                   0.00:  DISTANCE FWL
 UTMY.m             4431880.20:  UTM Y
 UTMX.m              538763.98:  UTM X
 WHEW.m                 -10.79:  WELL HEAD E/W
 WHNS.m                   6.09:  WELL HEAD N/S
 LONG.deg                51.45:  LONGITUDE
 LATI.deg                40.02:  LATITUDE
 TVDS.m                  43.60:  TVDSS CORRECTN
 EKB .m                  43.60:  KB ELEVATION
 EDF .m                  43.60:  DF ELEVATION
 MAGU.                 1847640:  MAGUTM CHECKSUM
 VSC .                       0:  VS TO CLOSURE
~Parameter Information Block
#MNEM.UNIT       Value        Description
#---------     -----------    ---------------------------
 AV  .mps                 1.30:  Ann Velocity 
 AVMX.mps                 1.90:  Max Ann Veloc 
 AZIF.deg               115.68:  Azm, Final 
 BHAT.                   Other:  BHA Type 
 BROT.°/30m               0.74:  Build Rotating 
 BS  .in                  8.50:  Bit Size 
 BTPL.psig              430.00:  Bit Press Loss 
 CABU.                      No:  Customer Abuse 
 COMM.                     œÿv:  Run Comments 1 
 TCS .hr                 51.31:  Time Ciculation Ended 
 CV  .mps                 2.52:  Crit Velocity 
 CVMX.mps                 2.62:  Max Crit Veloc 
 DD1 .          Teymur Aghayev:  Direct Drillr 1 
 DDSV.                   Other:  DD Service 
 DEFF.%                 100.00:  % Det Eff 
 DLRX.°/30m               1.62:  Dogleg Rot Max 
 DLSO.°/30m               0.74:  Dogleg Oriented 
 DLSX.°/30m               1.62:  Dogleg Str Max 
 DRET.      04.30.56 18-May-20:  Drill End Time 
 DRST.      04.30.56 18-May-20:  Drill Start Tim 
 DTIM.hr                  0.00:  Time Drilling 
 EDEP.m                5337.01:  End Depth 
 ENG1.      Artemiy Matviyanov:  Engineer 1 
 ENG2.      Bakhtiyar Jabbarli:  Engineer 2 
 ENG3.           Emil Huseynov:  Engineer 3 
 ETIM.      18.40.00 22-May-20:  End Time 
 FLOI.gpm               550.00:  Flow In 
 FLON.gpm               350.00:  Flow In Min 
 FLOS.cptm                0.00:  Fluid Loss 
 FLOX.gpm               600.00:  Flow In Max 
 HFLO.                      No:  High Flow 
 HPRE.                      No:  High Pressure 
 HTEM.                      No:  High Temp 
 HYDO.m                   1.80:  Hydro Offset 
 IFIN.deg                67.01:  Inc, Final 
 IMAX.deg                67.49:  Inc Max 
 IMIN.deg                66.50:  Inc Min 
 IMND.m                5144.79:  Inc Min Depth 
 IMXD.m                5116.12:  Inc Max Depth 
 JARR.                      No:  Jarring 
 LETM.      17.55.56 20-May-20:  Log End Time 
 LOST.hr                     0:  Lost Rig Time 
 LSTM.      04.30.56 18-May-20:  Log Start Time 
 MDCL.ppm            193153.00:  Mud Chlorides 
 MDES.     Inversion Oil/Synthetic:  Mud Desc 
 DFD .sg                  1.40:  Mud Density 
 MDMN.sg                  1.40:  Dens Mud Min 
 MDMX.sg                  1.41:  Dens Mud Max 
 MOIL.                      68:  Run Mud Oil % 
 MOWR.                   68:32:  Run Mud OWR 
 MSND.                     0.2:  Run Mud Sand % 
 MSOL.                    18.8:  Run Mud Solids% 
 DFV .spqt               80.00:  Mud Viscosity 
 MWOD.in                  6.75:  MWD Tool OD 
 MWSI.                      No:  Serv Intrp, MWD 
 OTIM.hr                104.84:  Time Operating 
 PMAX.psia            10690.93:  Press Op, Max 
 PV  .cP                 26.00:  Mud PV 
 RUN .                     900:  Run Number 
 ROPA.m/hr                0.00:  ROP Avg 
 ROPN.m/hr                0.00:  ROP Min 
 ROPX.m/hr                0.00:  ROP Max 
 RPMA.rpm               140.00:  RPM Surface Avg 
 RPMN.rpm                70.00:  RPM Surface Min 
 RPMX.rpm               140.00:  RPM Surface Max 
 RRUN.                    0900:  Rig Run Number 
 RTIM.hr                 36.00:  Time Reaming 
 SAZI.deg               115.72:  Azm, Start 
 SDEP.m                5337.01:  Start Depth 
 SIDD.                      No:  Serv Intrp, DD 
 SINC.deg                66.92:  Inc, Start 
 SPPA.psig             4400.00:  SPP Avg 
 SPPN.psig             1135.00:  SPP Min 
 SPPX.psig             4581.00:  SPP Max 
 STIM.      04.30.56 18-May-20:  Start Time 
 SVCS.                     MWD:  Services 
 SVER.                    9.20:  Sperry Version 
 TDAT.m                5337.01:  Tot Depth Attmp 
 TDDF.                      No:  Trip for DD 
 TFF .                      No:  Trip for Fail 
 TQAA.f-kp               23.00:  Torque Abs Avg 
 TQAN.f-kp               18.00:  Torque Abs Min 
 TQAX.f-kp               25.00:  Torque Abs Max 
 TRRT.°/30m               0.74:  Turn Rotating 
 MRT .                    HCIM:  Maximum Recorded Temperature 
 TTMX.degC               76.47:  Max Tool Temp 
 WBMN.klb                 0.00:  WOB Min 
 WITN.             Anar Khalil:  Customer Rep 
 WITN.      Kamran Keberlinski:  Customer Rep 2 
 WOBA.klb                 0.00:  WOB Avg 
 WOBX.klb                 0.00:  WOB Max 
 YP  .lhf2               27.00:  Yield Point 
~Curve Information Block
#MNEM.UNIT                 API CODE     Curve Description
#---------               -----------    ---------------------------
 TIME.HHMMSS            00 000 000 000:  GT Time & Date
 GTDEPTH.m              00 000 000 000:  GT Depth
 GTPQH.psia             00 000 000 000:  GT HR Quartz Pressure
 GTTQ.degC              00 000 000 000:  GT Quartz Temperature
 GTTN.NONE              00 000 000 000:  GT Test Number
 GTET.sec               00 000 000 000:  GT Elapsed Test Time
 GTTVD.m                00 000 000 000:  GT True Vertical Depth
#Other Information
#
#WARRANTY: Halliburton will use its best efforts to furnish customers with 
#accurate information and interpretations that are part of, and incident to, the services 
#provided.  However, Halliburton cannot and does not warrant the accuracy 
#or correctness of such information and interpretations.  Under no circumstances should any 
#such information or interpretation be relied upon as the sole basis for any drilling, 
#completion, production, or financial decision or any procedure involving any risk to the 
#safety of any drilling venture, drilling rig or its crew or any other third party.  The 
#Customer has full responsibility for all drilling, completion and production operation.  
#Halliburton makes no representations or warranties, either expressed or 
#implied, including, but not limited to, the implied warranties of merchantability or fitness 
#for a particular purpose, with respect to the services rendered.  In no event will 
#Halliburton be liable for failure to obtain any particular results or for 
#any damages, including, but not limited to, indirect, special or consequential damages, 
#resulting from the use of any information or interpretation provided by Halliburton.
#
~A           TIME           GTDEPTH  GTPQH  GTTQ  GTTN   GTET   GTTVD  
# ...
   06:42:01.134.20-May-2020 5012.01 6713.03 68.18 10.00  45.21 2656.39
   06:42:01.334.20-May-2020 5012.01 6667.96 68.18 10.00  45.41 2656.39
   06:42:01.534.20-May-2020 5012.01 6618.98 68.18 10.00  45.61 2656.39
   06:42:01.734.20-May-2020 5012.01 6594.92 68.18 10.00  45.81 2656.39
   06:42:01.934.20-May-2020 5012.01 6571.97 68.18 10.00  46.01 2656.39
   06:42:02.134.20-May-2020 5012.01 6558.46 68.18 10.00  46.21 2656.39
   06:42:02.334.20-May-2020 5012.01 6542.44 68.18 10.00  46.41 2656.39
   06:42:02.534.20-May-2020 5012.01 6528.52 68.18 10.00  46.61 2656.39
   06:42:02.734.20-May-2020 5012.01 6515.99 68.18 10.00  46.81 2656.39
   06:42:02.934.20-May-2020 5012.01 6504.62 68.18 10.00  47.01 2656.39
   06:42:03.134.20-May-2020 5012.01 6504.62 68.18 10.00  47.21 2656.39
   06:42:03.334.20-May-2020 5012.01 6405.16 68.18 10.00  47.41 2656.39
   06:42:03.534.20-May-2020 5012.01 6294.60 68.18 10.00  47.61 2656.39
   06:42:03.734.20-May-2020 5012.01 6220.97 68.18 10.00  47.81 2656.39
   06:42:03.934.20-May-2020 5012.01 6088.50 68.18 10.00  48.01 2656.39
   06:42:04.134.20-May-2020 5012.01 6088.50 68.18 10.00  48.21 2656.39
   06:42:04.334.20-May-2020 5012.01 5533.78 68.18 10.00  48.41 2656.39
   06:42:04.535.20-May-2020 5012.01 5182.40 68.18 10.00  48.61 2656.39
   06:42:04.735.20-May-2020 5012.01 4857.81 68.18 10.00  48.81 2656.39
   06:42:04.935.20-May-2020 5012.01 4621.38 68.18 10.00  49.01 2656.39
   06:42:05.135.20-May-2020 5012.01 4621.38 68.18 10.00  49.21 2656.39
   06:42:05.335.20-May-2020 5012.01 4447.56 68.18 10.00  49.41 2656.39
   06:42:05.535.20-May-2020 5012.01 4311.46 68.18 10.00  49.61 2656.39
   06:42:05.735.20-May-2020 5012.01 4102.34 68.18 10.00  49.81 2656.39
   06:42:05.935.20-May-2020 5012.01 3788.17 68.17 10.00  50.01 2656.39
   06:42:06.135.20-May-2020 5012.01 3508.66 68.17 10.00  50.21 2656.39
   06:42:06.335.20-May-2020 5012.01 3267.58 68.17 10.00  50.41 2656.39
   06:42:06.535.20-May-2020 5012.01 3098.44 68.17 10.00  50.61 2656.39
   06:42:06.735.20-May-2020 5012.01 2990.88 68.17 10.00  50.81 2656.39
   06:42:06.935.20-May-2020 5012.01 2925.84 68.17 10.00  51.01 2656.39
   06:42:07.135.20-May-2020 5012.01 2925.84 68.17 10.00  51.21 2656.39
   06:42:07.335.20-May-2020 5012.01 2888.83 68.16 10.00  51.41 2656.39
   06:42:07.535.20-May-2020 5012.01 2888.82 68.16 10.00  51.61 2656.39
   06:42:07.735.20-May-2020 5012.01 2888.00 68.16 10.00  51.81 2656.39
   06:42:07.935.20-May-2020 5012.01 2888.77 68.15 10.00  52.01 2656.39
   06:42:08.136.20-May-2020 5012.01 2888.77 68.15 10.00  52.21 2656.39
   06:42:08.336.20-May-2020 5012.01 2888.25 68.15 10.00  52.41 2656.39
   06:42:08.536.20-May-2020 5012.01 2888.66 68.15 10.00  52.61 2656.39
   06:42:08.736.20-May-2020 5012.01 2888.04 68.14 10.00  52.81 2656.39
   06:42:08.936.20-May-2020 5012.01 2887.81 68.14 10.00  53.01 2656.39
   06:42:09.136.20-May-2020 5012.01 2887.81 68.14 10.00  53.22 2656.39
   06:42:09.336.20-May-2020 5012.01 2887.20 68.13 10.00  53.42 2656.39
   06:42:09.536.20-May-2020 5012.01 2886.57 68.13 10.00  53.62 2656.39
   06:42:09.736.20-May-2020 5012.01 2886.55 68.13 10.00  53.82 2656.39
   06:42:09.936.20-May-2020 5012.01 2887.11 68.13 10.00  54.02 2656.39
   06:42:10.136.20-May-2020 5012.01 2886.45 68.12 10.00  54.22 2656.39
   06:42:10.336.20-May-2020 5012.01 2886.89 68.12 10.00  54.42 2656.39
   06:42:10.536.20-May-2020 5012.01 2885.85 68.12 10.00  54.62 2656.39
   06:42:10.736.20-May-2020 5012.01 2887.25 68.12 10.00  54.82 2656.39
   06:42:10.936.20-May-2020 5012.01 2886.29 68.11 10.00  55.02 2656.39
   06:42:11.136.20-May-2020 5012.01 2886.29 68.11 10.00  55.22 2656.39
   06:42:11.336.20-May-2020 5012.01 2885.96 68.11 10.00  55.42 2656.39
   06:42:11.536.20-May-2020 5012.01 2885.30 68.11 10.00  55.62 2656.39
   06:42:11.737.20-May-2020 5012.01 2885.46 68.11 10.00  55.82 2656.39
   06:42:11.937.20-May-2020 5012.01 2885.78 68.10 10.00  56.02 2656.39
   06:42:12.137.20-May-2020 5012.01 2885.78 68.10 10.00  56.22 2656.39
   06:42:12.337.20-May-2020 5012.01 2885.82 68.10 10.00  56.42 2656.39
   06:42:12.537.20-May-2020 5012.01 2886.06 68.10 10.00  56.62 2656.39
   06:42:12.737.20-May-2020 5012.01 2886.42 68.10 10.00  56.82 2656.39
   06:42:12.937.20-May-2020 5012.01 2885.91 68.10 10.00  57.02 2656.39
   06:42:13.137.20-May-2020 5012.01 2885.91 68.09 10.00  57.22 2656.39
   06:42:13.337.20-May-2020 5012.01 2885.52 68.09 10.00  57.42 2656.39
   06:42:13.537.20-May-2020 5012.01 2885.07 68.09 10.00  57.62 2656.39
   06:42:13.737.20-May-2020 5012.01 2884.86 68.09 10.00  57.82 2656.39
   06:42:13.937.20-May-2020 5012.01 2885.32 68.09 10.00  58.02 2656.39
   06:42:14.137.20-May-2020 5012.01 2885.76 68.09 10.00  58.22 2656.39
   06:42:14.337.20-May-2020 5012.01 2884.96 68.09 10.00  58.42 2656.39
   06:42:14.537.20-May-2020 5012.01 2885.38 68.09 10.00  58.62 2656.39
   06:42:14.737.20-May-2020 5012.01 2885.42 68.08 10.00  58.82 2656.39
   06:42:14.937.20-May-2020 5012.01 2885.71 68.08 10.00  59.02 2656.39
   06:42:15.138.20-May-2020 5012.01 2885.71 68.08 10.00  59.22 2656.39
   06:42:15.338.20-May-2020 5012.01 2885.10 68.08 10.00  59.42 2656.39
   06:42:15.538.20-May-2020 5012.01 2885.20 68.08 10.00  59.62 2656.39
   06:42:15.738.20-May-2020 5012.01 2884.03 68.08 10.00  59.82 2656.39
   06:42:15.938.20-May-2020 5012.01 2884.70 68.08 10.00  60.02 2656.39
   06:42:16.138.20-May-2020 5012.01 2884.70 68.08 10.00  60.22 2656.39
   06:42:16.338.20-May-2020 5012.01 2885.69 68.08 10.00  60.42 2656.39
   06:42:16.538.20-May-2020 5012.01 2884.86 68.08 10.00  60.62 2656.39
   06:42:16.738.20-May-2020 5012.01 2885.51 68.08 10.00  60.82 2656.39
   06:42:16.938.20-May-2020 5012.01 2886.21 68.08 10.00  61.02 2656.39
   06:42:17.138.20-May-2020 5012.01 2886.21 68.08 10.00  61.22 2656.39
   06:42:17.338.20-May-2020 5012.01 2892.87 68.08 10.00  61.42 2656.39
   06:42:17.538.20-May-2020 5012.01 2886.13 68.08 10.00  61.62 2656.39
   06:42:17.738.20-May-2020 5012.01 2884.91 68.07 10.00  61.82 2656.39
   06:42:17.938.20-May-2020 5012.01 2885.02 68.07 10.00  62.02 2656.39
   06:42:18.138.20-May-2020 5012.01 2885.02 68.07 10.00  62.22 2656.39
   06:42:18.338.20-May-2020 5012.01 2885.52 68.07 10.00  62.42 2656.39
   06:42:18.538.20-May-2020 5012.01 2885.51 68.07 10.00  62.62 2656.39
   06:42:18.739.20-May-2020 5012.01 2885.51 68.07 10.00  62.82 2656.39
   06:42:18.939.20-May-2020 5012.01 2885.61 68.07 10.00  63.02 2656.39
   06:42:19.139.20-May-2020 5012.01 2885.61 68.07 10.00  63.22 2656.39
   06:42:19.339.20-May-2020 5012.01 2885.08 68.07 10.00  63.42 2656.39
   06:42:19.539.20-May-2020 5012.01 2884.72 68.07 10.00  63.62 2656.39
   06:42:19.739.20-May-2020 5012.01 2884.82 68.07 10.00  63.82 2656.39
   06:42:19.939.20-May-2020 5012.01 2884.86 68.07 10.00  64.02 2656.39
   06:42:20.139.20-May-2020 5012.01 2884.99 68.07 10.00  64.22 2656.39
   06:42:20.339.20-May-2020 5012.01 2885.45 68.07 10.00  64.42 2656.39
   06:42:20.539.20-May-2020 5012.01 2885.40 68.07 10.00  64.62 2656.39
   06:42:20.739.20-May-2020 5012.01 2885.73 68.07 10.00  64.82 2656.39
   06:42:20.939.20-May-2020 5012.01 2885.18 68.07 10.00  65.02 2656.39
   06:42:21.139.20-May-2020 5012.01 2885.75 68.07 10.00  65.22 2656.39
   06:42:21.339.20-May-2020 5012.01 2885.37 68.07 10.00  65.42 2656.39
   06:42:21.539.20-May-2020 5012.01 2884.88 68.07 10.00  65.62 2656.39
   06:42:21.739.20-May-2020 5012.01 2885.25 68.07 10.00  65.82 2656.39
   06:42:21.939.20-May-2020 5012.01 2884.98 68.07 10.00  66.02 2656.39
   06:42:22.139.20-May-2020 5012.01 2885.55 68.07 10.00  66.22 2656.39
   06:42:22.340.20-May-2020 5012.01 2884.79 68.07 10.00  66.42 2656.39
   06:42:22.540.20-May-2020 5012.01 2885.88 68.07 10.00  66.62 2656.39
   06:42:22.740.20-May-2020 5012.01 2885.68 68.07 10.00  66.82 2656.39
   06:42:22.940.20-May-2020 5012.01 2885.98 68.07 10.00  67.02 2656.39
   06:42:23.140.20-May-2020 5012.01 2885.98 68.07 10.00  67.22 2656.39
   06:42:23.340.20-May-2020 5012.01 2885.18 68.07 10.00  67.42 2656.39
   06:42:23.540.20-May-2020 5012.01 2884.84 68.07 10.00  67.62 2656.39
