~Version Information
 VERS.                  2.0:   CWLS log ASCII Standard -VERSION 2.0
 WRAP.                   NO:   One line per depth step
~Well Information Block
#MNEM.UNIT     VALUE/NAME     DESCRIPTION
#---------     -----------    ---------------------------
 STRT.S             06:41:15 20-May-20: START TIME 06:41:15 20-May-20
 STOP.S             06:51:49 20-May-20: STOP TIME  06:51:49 20-May-20
 STEP.S                   0.00: STEP TIME
 NULL.                 -999.25: NULL VALUE
 MDS .        Operator Entered:  MAG DATA SOURCE
 PDAT.          Mean Sea Level:  PERMANENT DATUM
 UNIT.                     N/A:  LOGGING EQUIPMENT ID
 DCON.         Sperry Drilling:  DIRECTNL CONTR
 DOE .                     N/A:  DOE NUMBER
 RIG .              East Azeri:  RIG NAME
 JOBN.        AZ-XX-0905856059:  JOB TICKET NUMB
 WELL.                     D36:  WELL NAME
 MWDS.                    Baku:  MWD SHOP
 SRVC.     Turan Drilling & Engineering:  CONTRACTOR
 FLD .                     ACG:  FIELD NAME
 CTRY.              Azerbaijan:  COUNTRY NAME
 PROV.                    Baku:  PROVINCE
 STAT.                    Baku:  STATE NAME
 REGN.                   EESSA:  REGION
 BASE.              Azerbaijan:  LOGGING EQUIPMENT BASE LOCATION
 UWI .                     N/A:  UNIQUE WELL IDENTIFIER
 API .                     N/A:  API NUMBER
 COMP.     BP Exploration (Caspian Sea) Ltd.:  COMPANY
 WTYP.                Deviated:  WELL TYPE
 SON .        AZ-XX-0905856059:  JOB NUMBER
 FTOP.          Formation Tops:  FORM TOPS DESC
 ILTD.               Lithology:  INTERP LTH DESC
 SVYD.                  Survey:  SURVEY DESC
 DMOD.             Drill Model:  DRILL MOD DESC
 HPTY.       Minimum Curvature:  HOLE POS TYPE
 NREF.                    Grid:  NORTH REFERENCE
 SPUD.               25-Feb-20:  SPUD DATE
 DATE.      08.55.28 01-May-20:  END TIME
 STIM.      08.55.28 25-Feb-20:  START TIME
 DMF .             Drill Floor:  DRILL MEAS FROM
 DFST.                        :  DIST FSL TEXT
 DFWT.                        :  DIST FWL TEXT
 CNTY.                        :  COUNTY
 LOC .                        :  LOCATION
 LMF .             Drill Floor:  LOG MEASURED FROM
 VSNS.m                   6.09:  VERT SEC N/S
 VSEW.m                 -10.79:  VERT SEC E/W
 AGAP.m                  43.60:  AIR GAP
 DEP .m                 388.24:  DEPTH
 APD .m                  43.60:  DEPTH ABOVE PD
 WDMS.m                 151.80:  WD ELEV
 EGL .m                   0.00:  GROUND ELEVATION
 EPD .m                   0.00:  ELEVATION
 AZTC.deg                 6.12:  AZM TOTAL CORR
 GRDC.deg                 0.30:  GRID CORRECTION
 MDEC.deg                 6.42:  MAGNETIC DECL
 MDIP.deg                59.42:  MAGNETIC DIP
 MFLD.nT              50256.00:  MAGNETIC FIELD
 GVFD.g                   1.00:  GRAVITY FIELD
 VSDR.deg               159.57:  VERT SEC DIRECT
 TDD .m                5000.01:  TOTAL DEPTH (DRILLER)
 SDEP.m                 397.00:  START DEPTH
 DFSL.m                   0.00:  DISTANCE FSL
 DFWL.m                   0.00:  DISTANCE FWL
 UTMY.m             4431880.20:  UTM Y
 UTMX.m              538763.98:  UTM X
 WHEW.m                 -10.79:  WELL HEAD E/W
 WHNS.m                   6.09:  WELL HEAD N/S
 LONG.deg                51.45:  LONGITUDE
 LATI.deg                40.02:  LATITUDE
 TVDS.m                  43.60:  TVDSS CORRECTN
 EKB .m                  43.60:  KB ELEVATION
 EDF .m                  43.60:  DF ELEVATION
 MAGU.                 1847640:  MAGUTM CHECKSUM
 VSC .                       0:  VS TO CLOSURE
~Parameter Information Block
#MNEM.UNIT       Value        Description
#---------     -----------    ---------------------------
 AV  .mps                 1.30:  Ann Velocity 
 AVMX.mps                 1.90:  Max Ann Veloc 
 AZIF.deg               115.68:  Azm, Final 
 BHAT.                   Other:  BHA Type 
 BROT.°/30m               0.74:  Build Rotating 
 BS  .in                  8.50:  Bit Size 
 BTPL.psig              430.00:  Bit Press Loss 
 CABU.                      No:  Customer Abuse 
 COMM.                     œÿv:  Run Comments 1 
 TCS .hr                 51.31:  Time Ciculation Ended 
 CV  .mps                 2.52:  Crit Velocity 
 CVMX.mps                 2.62:  Max Crit Veloc 
 DD1 .          Teymur Aghayev:  Direct Drillr 1 
 DDSV.                   Other:  DD Service 
 DEFF.%                 100.00:  % Det Eff 
 DLRX.°/30m               1.62:  Dogleg Rot Max 
 DLSO.°/30m               0.74:  Dogleg Oriented 
 DLSX.°/30m               1.62:  Dogleg Str Max 
 DRET.      04.30.56 18-May-20:  Drill End Time 
 DRST.      04.30.56 18-May-20:  Drill Start Tim 
 DTIM.hr                  0.00:  Time Drilling 
 EDEP.m                5337.01:  End Depth 
 ENG1.      Artemiy Matviyanov:  Engineer 1 
 ENG2.      Bakhtiyar Jabbarli:  Engineer 2 
 ENG3.           Emil Huseynov:  Engineer 3 
 ETIM.      18.40.00 22-May-20:  End Time 
 FLOI.gpm               550.00:  Flow In 
 FLON.gpm               350.00:  Flow In Min 
 FLOS.cptm                0.00:  Fluid Loss 
 FLOX.gpm               600.00:  Flow In Max 
 HFLO.                      No:  High Flow 
 HPRE.                      No:  High Pressure 
 HTEM.                      No:  High Temp 
 HYDO.m                   1.80:  Hydro Offset 
 IFIN.deg                67.01:  Inc, Final 
 IMAX.deg                67.49:  Inc Max 
 IMIN.deg                66.50:  Inc Min 
 IMND.m                5144.79:  Inc Min Depth 
 IMXD.m                5116.12:  Inc Max Depth 
 JARR.                      No:  Jarring 
 LETM.      17.55.56 20-May-20:  Log End Time 
 LOST.hr                     0:  Lost Rig Time 
 LSTM.      04.30.56 18-May-20:  Log Start Time 
 MDCL.ppm            193153.00:  Mud Chlorides 
 MDES.     Inversion Oil/Synthetic:  Mud Desc 
 DFD .sg                  1.40:  Mud Density 
 MDMN.sg                  1.40:  Dens Mud Min 
 MDMX.sg                  1.41:  Dens Mud Max 
 MOIL.                      68:  Run Mud Oil % 
 MOWR.                   68:32:  Run Mud OWR 
 MSND.                     0.2:  Run Mud Sand % 
 MSOL.                    18.8:  Run Mud Solids% 
 DFV .spqt               80.00:  Mud Viscosity 
 MWOD.in                  6.75:  MWD Tool OD 
 MWSI.                      No:  Serv Intrp, MWD 
 OTIM.hr                104.84:  Time Operating 
 PMAX.psia            10690.93:  Press Op, Max 
 PV  .cP                 26.00:  Mud PV 
 RUN .                     900:  Run Number 
 ROPA.m/hr                0.00:  ROP Avg 
 ROPN.m/hr                0.00:  ROP Min 
 ROPX.m/hr                0.00:  ROP Max 
 RPMA.rpm               140.00:  RPM Surface Avg 
 RPMN.rpm                70.00:  RPM Surface Min 
 RPMX.rpm               140.00:  RPM Surface Max 
 RRUN.                    0900:  Rig Run Number 
 RTIM.hr                 36.00:  Time Reaming 
 SAZI.deg               115.72:  Azm, Start 
 SDEP.m                5337.01:  Start Depth 
 SIDD.                      No:  Serv Intrp, DD 
 SINC.deg                66.92:  Inc, Start 
 SPPA.psig             4400.00:  SPP Avg 
 SPPN.psig             1135.00:  SPP Min 
 SPPX.psig             4581.00:  SPP Max 
 STIM.      04.30.56 18-May-20:  Start Time 
 SVCS.                     MWD:  Services 
 SVER.                    9.20:  Sperry Version 
 TDAT.m                5337.01:  Tot Depth Attmp 
 TDDF.                      No:  Trip for DD 
 TFF .                      No:  Trip for Fail 
 TQAA.f-kp               23.00:  Torque Abs Avg 
 TQAN.f-kp               18.00:  Torque Abs Min 
 TQAX.f-kp               25.00:  Torque Abs Max 
 TRRT.°/30m               0.74:  Turn Rotating 
 MRT .                    HCIM:  Maximum Recorded Temperature 
 TTMX.degC               76.47:  Max Tool Temp 
 WBMN.klb                 0.00:  WOB Min 
 WITN.             Anar Khalil:  Customer Rep 
 WITN.      Kamran Keberlinski:  Customer Rep 2 
 WOBA.klb                 0.00:  WOB Avg 
 WOBX.klb                 0.00:  WOB Max 
 YP  .lhf2               27.00:  Yield Point 
~Curve Information Block
#MNEM.UNIT                 API CODE     Curve Description
#---------               -----------    ---------------------------
 TIME.HHMMSS            00 000 000 000:  GT Time & Date
 GTDEPTH.m              00 000 000 000:  GT Depth
 GTPQH.psia             00 000 000 000:  GT HR Quartz Pressure
 GTTQ.degC              00 000 000 000:  GT Quartz Temperature
 GTTN.NONE              00 000 000 000:  GT Test Number
 GTET.sec               00 000 000 000:  GT Elapsed Test Time
 GTTVD.m                00 000 000 000:  GT True Vertical Depth
#Other Information
#
#WARRANTY: Halliburton will use its best efforts to furnish customers with 
#accurate information and interpretations that are part of, and incident to, the services 
#provided.  However, Halliburton cannot and does not warrant the accuracy 
#or correctness of such information and interpretations.  Under no circumstances should any 
#such information or interpretation be relied upon as the sole basis for any drilling, 
#completion, production, or financial decision or any procedure involving any risk to the 
#safety of any drilling venture, drilling rig or its crew or any other third party.  The 
#Customer has full responsibility for all drilling, completion and production operation.  
#Halliburton makes no representations or warranties, either expressed or 
#implied, including, but not limited to, the implied warranties of merchantability or fitness 
#for a particular purpose, with respect to the services rendered.  In no event will 
#Halliburton be liable for failure to obtain any particular results or for 
#any damages, including, but not limited to, indirect, special or consequential damages, 
#resulting from the use of any information or interpretation provided by Halliburton.
#
~A           TIME           GTDEPTH  GTPQH  GTTQ  GTTN   GTET   GTTVD  
# ...
   06:48:48.049.20-May-2020 5012.01 2902.07 68.07 10.00 452.13 2656.39
   06:48:48.249.20-May-2020 5012.01 2902.07 68.07 10.00 452.33 2656.39
   06:48:48.449.20-May-2020 5012.01 2902.20 68.07 10.00 452.53 2656.39
   06:48:48.649.20-May-2020 5012.01 2902.22 68.07 10.00 452.73 2656.39
   06:48:48.849.20-May-2020 5012.01 2902.33 68.07 10.00 452.93 2656.39
   06:48:49.049.20-May-2020 5012.01 2902.10 68.07 10.00 453.13 2656.39
   06:48:49.249.20-May-2020 5012.01 2902.10 68.07 10.00 453.33 2656.39
   06:48:49.449.20-May-2020 5012.01 2902.22 68.07 10.00 453.53 2656.39
   06:48:49.649.20-May-2020 5012.01 2902.29 68.07 10.00 453.73 2656.39
   06:48:49.849.20-May-2020 5012.01 2902.24 68.07 10.00 453.93 2656.39
   06:48:50.049.20-May-2020 5012.01 2902.15 68.07 10.00 454.13 2656.39
   06:48:50.249.20-May-2020 5012.01 2902.34 68.07 10.00 454.33 2656.39
   06:48:50.449.20-May-2020 5012.01 2902.26 68.07 10.00 454.53 2656.39
   06:48:50.649.20-May-2020 5012.01 2902.25 68.08 10.00 454.73 2656.39
   06:48:50.849.20-May-2020 5012.01 2902.35 68.07 10.00 454.93 2656.39
   06:48:51.049.20-May-2020 5012.01 2902.23 68.08 10.00 455.13 2656.39
   06:48:51.250.20-May-2020 5012.01 2902.23 68.08 10.00 455.33 2656.39
   06:48:51.450.20-May-2020 5012.01 2902.36 68.08 10.00 455.53 2656.39
   06:48:51.650.20-May-2020 5012.01 2902.18 68.07 10.00 455.73 2656.39
   06:48:51.850.20-May-2020 5012.01 2902.30 68.08 10.00 455.93 2656.39
   06:48:52.050.20-May-2020 5012.01 2902.25 68.08 10.00 456.13 2656.39
   06:48:52.250.20-May-2020 5012.01 2902.25 68.08 10.00 456.33 2656.39
   06:48:52.450.20-May-2020 5012.01 2902.26 68.08 10.00 456.53 2656.39
   06:48:52.650.20-May-2020 5012.01 2902.25 68.08 10.00 456.73 2656.39
   06:48:52.850.20-May-2020 5012.01 2902.33 68.08 10.00 456.93 2656.39
   06:48:53.050.20-May-2020 5012.01 2902.29 68.08 10.00 457.13 2656.39
   06:48:53.250.20-May-2020 5012.01 2902.29 68.08 10.00 457.33 2656.39
   06:48:53.450.20-May-2020 5012.01 2902.30 68.08 10.00 457.53 2656.39
   06:48:53.650.20-May-2020 5012.01 2902.27 68.08 10.00 457.73 2656.39
   06:48:53.850.20-May-2020 5012.01 2902.31 68.08 10.00 457.93 2656.39
   06:48:54.050.20-May-2020 5012.01 2902.28 68.08 10.00 458.13 2656.39
   06:48:54.250.20-May-2020 5012.01 2902.28 68.08 10.00 458.33 2656.39
   06:48:54.450.20-May-2020 5012.01 2902.29 68.08 10.00 458.53 2656.39
   06:48:54.650.20-May-2020 5012.01 2902.28 68.08 10.00 458.73 2656.39
   06:48:54.851.20-May-2020 5012.01 2902.28 68.08 10.00 458.93 2656.39
   06:48:55.051.20-May-2020 5012.01 2902.27 68.08 10.00 459.13 2656.39
   06:48:55.251.20-May-2020 5012.01 2902.27 68.08 10.00 459.33 2656.39
   06:48:55.451.20-May-2020 5012.01 2902.19 68.08 10.00 459.53 2656.39
   06:48:55.651.20-May-2020 5012.01 2902.37 68.08 10.00 459.73 2656.39
   06:48:55.851.20-May-2020 5012.01 2902.31 68.08 10.00 459.93 2656.39
   06:48:56.051.20-May-2020 5012.01 2902.29 68.08 10.00 460.13 2656.39
   06:48:56.251.20-May-2020 5012.01 2902.29 68.08 10.00 460.33 2656.39
   06:48:56.451.20-May-2020 5012.01 2902.35 68.08 10.00 460.53 2656.39
   06:48:56.651.20-May-2020 5012.01 2902.32 68.08 10.00 460.73 2656.39
   06:48:56.851.20-May-2020 5012.01 2902.34 68.08 10.00 460.93 2656.39
   06:48:57.051.20-May-2020 5012.01 2902.38 68.08 10.00 461.13 2656.39
   06:48:57.251.20-May-2020 5012.01 2902.38 68.08 10.00 461.33 2656.39
   06:48:57.451.20-May-2020 5012.01 2902.36 68.08 10.00 461.53 2656.39
   06:48:57.651.20-May-2020 5012.01 2902.30 68.08 10.00 461.73 2656.39
   06:48:57.851.20-May-2020 5012.01 2902.39 68.08 10.00 461.93 2656.39
   06:48:58.051.20-May-2020 5012.01 2902.29 68.07 10.00 462.13 2656.39
   06:48:58.252.20-May-2020 5012.01 2902.29 68.08 10.00 462.33 2656.39
   06:48:58.452.20-May-2020 5012.01 2902.44 68.08 10.00 462.53 2656.39
   06:48:58.652.20-May-2020 5012.01 2902.35 68.08 10.00 462.73 2656.39
   06:48:58.852.20-May-2020 5012.01 2902.31 68.07 10.00 462.93 2656.39
   06:48:59.052.20-May-2020 5012.01 2902.38 68.08 10.00 463.13 2656.39
   06:48:59.252.20-May-2020 5012.01 2902.38 68.08 10.00 463.33 2656.39
   06:48:59.452.20-May-2020 5012.01 2902.30 68.08 10.00 463.53 2656.39
   06:48:59.652.20-May-2020 5012.01 2902.33 68.07 10.00 463.73 2656.39
   06:48:59.852.20-May-2020 5012.01 2902.35 68.07 10.00 463.93 2656.39
   06:49:00.052.20-May-2020 5012.01 2902.35 68.07 10.00 464.13 2656.39
   06:49:00.252.20-May-2020 5012.01 2902.35 68.07 10.00 464.33 2656.39
   06:49:00.452.20-May-2020 5012.01 2902.29 68.07 10.00 464.53 2656.39
   06:49:00.652.20-May-2020 5012.01 2902.34 68.07 10.00 464.73 2656.39
   06:49:00.852.20-May-2020 5012.01 2902.30 68.07 10.00 464.93 2656.39
   06:49:01.052.20-May-2020 5012.01 2902.32 68.07 10.00 465.13 2656.39
   06:49:01.252.20-May-2020 5012.01 2902.32 68.07 10.00 465.33 2656.39
   06:49:01.452.20-May-2020 5012.01 2902.30 68.07 10.00 465.53 2656.39
   06:49:01.652.20-May-2020 5012.01 2902.31 68.07 10.00 465.73 2656.39
   06:49:01.853.20-May-2020 5012.01 2902.32 68.07 10.00 465.93 2656.39
   06:49:02.053.20-May-2020 5012.01 2902.30 68.07 10.00 466.13 2656.39
   06:49:02.253.20-May-2020 5012.01 2902.30 68.07 10.00 466.33 2656.39
   06:49:02.453.20-May-2020 5012.01 2902.30 68.07 10.00 466.53 2656.39
   06:49:02.653.20-May-2020 5012.01 2902.34 68.07 10.00 466.73 2656.39
   06:49:02.853.20-May-2020 5012.01 2902.34 68.07 10.00 466.93 2656.39
   06:49:03.053.20-May-2020 5012.01 2902.31 68.07 10.00 467.13 2656.39
   06:49:03.253.20-May-2020 5012.01 2902.31 68.07 10.00 467.33 2656.39
   06:49:03.453.20-May-2020 5012.01 2902.43 68.07 10.00 467.53 2656.39
   06:49:03.653.20-May-2020 5012.01 2902.35 68.07 10.00 467.73 2656.39
   06:49:03.853.20-May-2020 5012.01 2902.32 68.07 10.00 467.93 2656.39
   06:49:04.053.20-May-2020 5012.01 2902.39 68.07 10.00 468.13 2656.39
   06:49:04.253.20-May-2020 5012.01 2902.39 68.07 10.00 468.33 2656.39
   06:49:04.453.20-May-2020 5012.01 2902.36 68.07 10.00 468.53 2656.39
   06:49:04.653.20-May-2020 5012.01 2902.35 68.07 10.00 468.73 2656.39
   06:49:04.853.20-May-2020 5012.01 2902.41 68.07 10.00 468.93 2656.39
   06:49:05.053.20-May-2020 5012.01 2902.29 68.07 10.00 469.13 2656.39
   06:49:05.253.20-May-2020 5012.01 2902.29 68.07 10.00 469.33 2656.39
   06:49:05.454.20-May-2020 5012.01 2902.34 68.07 10.00 469.53 2656.39
   06:49:05.654.20-May-2020 5012.01 2902.36 68.07 10.00 469.73 2656.39
   06:49:05.854.20-May-2020 5012.01 2902.34 68.07 10.00 469.93 2656.39
   06:49:06.054.20-May-2020 5012.01 2902.30 68.07 10.00 470.13 2656.39
   06:49:06.254.20-May-2020 5012.01 2902.38 68.07 10.00 470.33 2656.39
   06:49:06.454.20-May-2020 5012.01 2902.25 68.07 10.00 470.53 2656.39
   06:49:06.654.20-May-2020 5012.01 2902.40 68.07 10.00 470.73 2656.39
   06:49:06.854.20-May-2020 5012.01 2902.37 68.07 10.00 470.93 2656.39
   06:49:07.054.20-May-2020 5012.01 2902.31 68.07 10.00 471.13 2656.39
   06:49:07.254.20-May-2020 5012.01 2902.41 68.07 10.00 471.33 2656.39
   06:49:07.454.20-May-2020 5012.01 2902.28 68.07 10.00 471.53 2656.39
   06:49:07.654.20-May-2020 5012.01 2902.35 68.07 10.00 471.73 2656.39
   06:49:07.854.20-May-2020 5012.01 2902.32 68.07 10.00 471.93 2656.39
   06:49:08.054.20-May-2020 5012.01 2902.32 68.07 10.00 472.13 2656.39
   06:49:08.254.20-May-2020 5012.01 2902.32 68.07 10.00 472.33 2656.39
   06:49:08.454.20-May-2020 5012.01 2902.31 68.07 10.00 472.53 2656.39
   06:49:08.654.20-May-2020 5012.01 2902.31 68.07 10.00 472.73 2656.39
   06:49:08.855.20-May-2020 5012.01 2902.31 68.07 10.00 472.93 2656.39
   06:49:09.055.20-May-2020 5012.01 2902.31 68.07 10.00 473.13 2656.39
   06:49:09.255.20-May-2020 5012.01 2902.31 68.07 10.00 473.33 2656.39
   06:49:09.455.20-May-2020 5012.01 2902.32 68.07 10.00 473.53 2656.39
   06:49:09.655.20-May-2020 5012.01 2902.41 68.07 10.00 473.73 2656.39
   06:49:09.855.20-May-2020 5012.01 2902.27 68.07 10.00 473.93 2656.39
   06:49:10.055.20-May-2020 5012.01 2902.31 68.07 10.00 474.13 2656.39
   06:49:10.255.20-May-2020 5012.01 2902.31 68.07 10.00 474.33 2656.39
   06:49:10.455.20-May-2020 5012.01 2902.38 68.07 10.00 474.53 2656.39
