~Version Information
 VERS.                  2.0:   CWLS log ASCII Standard -VERSION 2.0
 WRAP.                   NO:   One line per depth step
~Well Information Block
#MNEM.UNIT     VALUE/NAME     DESCRIPTION
#---------     -----------    ---------------------------
 STRT.S             15:16:23 19-May-20: START TIME 15:16:23 19-May-20
 STOP.S             15:23:31 19-May-20: STOP TIME  15:23:31 19-May-20
 STEP.S                   0.00: STEP TIME
 NULL.                 -999.25: NULL VALUE
 MDS .        Operator Entered:  MAG DATA SOURCE
 PDAT.          Mean Sea Level:  PERMANENT DATUM
 UNIT.                     N/A:  LOGGING EQUIPMENT ID
 DCON.         Sperry Drilling:  DIRECTNL CONTR
 DOE .                     N/A:  DOE NUMBER
 RIG .              East Azeri:  RIG NAME
 JOBN.        AZ-XX-0905856059:  JOB TICKET NUMB
 WELL.                     D36:  WELL NAME
 MWDS.                    Baku:  MWD SHOP
 SRVC.     Turan Drilling & Engineering:  CONTRACTOR
 FLD .                     ACG:  FIELD NAME
 CTRY.              Azerbaijan:  COUNTRY NAME
 PROV.                    Baku:  PROVINCE
 STAT.                    Baku:  STATE NAME
 REGN.                   EESSA:  REGION
 BASE.              Azerbaijan:  LOGGING EQUIPMENT BASE LOCATION
 UWI .                     N/A:  UNIQUE WELL IDENTIFIER
 API .                     N/A:  API NUMBER
 COMP.     BP Exploration (Caspian Sea) Ltd.:  COMPANY
 WTYP.                Deviated:  WELL TYPE
 SON .        AZ-XX-0905856059:  JOB NUMBER
 FTOP.          Formation Tops:  FORM TOPS DESC
 ILTD.               Lithology:  INTERP LTH DESC
 SVYD.                  Survey:  SURVEY DESC
 DMOD.             Drill Model:  DRILL MOD DESC
 HPTY.       Minimum Curvature:  HOLE POS TYPE
 NREF.                    Grid:  NORTH REFERENCE
 SPUD.               25-Feb-20:  SPUD DATE
 DATE.      08.55.28 01-May-20:  END TIME
 STIM.      08.55.28 25-Feb-20:  START TIME
 DMF .             Drill Floor:  DRILL MEAS FROM
 DFST.                        :  DIST FSL TEXT
 DFWT.                        :  DIST FWL TEXT
 CNTY.                        :  COUNTY
 LOC .                        :  LOCATION
 LMF .             Drill Floor:  LOG MEASURED FROM
 VSNS.m                   6.09:  VERT SEC N/S
 VSEW.m                 -10.79:  VERT SEC E/W
 AGAP.m                  43.60:  AIR GAP
 DEP .m                 388.24:  DEPTH
 APD .m                  43.60:  DEPTH ABOVE PD
 WDMS.m                 151.80:  WD ELEV
 EGL .m                   0.00:  GROUND ELEVATION
 EPD .m                   0.00:  ELEVATION
 AZTC.deg                 6.12:  AZM TOTAL CORR
 GRDC.deg                 0.30:  GRID CORRECTION
 MDEC.deg                 6.42:  MAGNETIC DECL
 MDIP.deg                59.42:  MAGNETIC DIP
 MFLD.nT              50256.00:  MAGNETIC FIELD
 GVFD.g                   1.00:  GRAVITY FIELD
 VSDR.deg               159.57:  VERT SEC DIRECT
 TDD .m                5000.01:  TOTAL DEPTH (DRILLER)
 SDEP.m                 397.00:  START DEPTH
 DFSL.m                   0.00:  DISTANCE FSL
 DFWL.m                   0.00:  DISTANCE FWL
 UTMY.m             4431880.20:  UTM Y
 UTMX.m              538763.98:  UTM X
 WHEW.m                 -10.79:  WELL HEAD E/W
 WHNS.m                   6.09:  WELL HEAD N/S
 LONG.deg                51.45:  LONGITUDE
 LATI.deg                40.02:  LATITUDE
 TVDS.m                  43.60:  TVDSS CORRECTN
 EKB .m                  43.60:  KB ELEVATION
 EDF .m                  43.60:  DF ELEVATION
 MAGU.                 1847640:  MAGUTM CHECKSUM
 VSC .                       0:  VS TO CLOSURE
~Parameter Information Block
#MNEM.UNIT       Value        Description
#---------     -----------    ---------------------------
 AV  .mps                 1.30:  Ann Velocity 
 AVMX.mps                 1.90:  Max Ann Veloc 
 AZIF.deg               115.68:  Azm, Final 
 BHAT.                   Other:  BHA Type 
 BROT.°/30m               0.74:  Build Rotating 
 BS  .in                  8.50:  Bit Size 
 BTPL.psig              430.00:  Bit Press Loss 
 CABU.                      No:  Customer Abuse 
 TCS .hr                 51.31:  Time Ciculation Ended 
 CV  .mps                 2.52:  Crit Velocity 
 CVMX.mps                 2.62:  Max Crit Veloc 
 DD1 .          Teymur Aghayev:  Direct Drillr 1 
 DDSV.                   Other:  DD Service 
 DEFF.%                 100.00:  % Det Eff 
 DLRX.°/30m               1.62:  Dogleg Rot Max 
 DLSO.°/30m               0.74:  Dogleg Oriented 
 DLSX.°/30m               1.62:  Dogleg Str Max 
 DRET.      04.30.56 18-May-20:  Drill End Time 
 DRST.      04.30.56 18-May-20:  Drill Start Tim 
 DTIM.hr                  0.00:  Time Drilling 
 EDEP.m                5337.01:  End Depth 
 ENG1.      Artemiy Matviyanov:  Engineer 1 
 ENG2.      Bakhtiyar Jabbarli:  Engineer 2 
 ENG3.           Emil Huseynov:  Engineer 3 
 ETIM.      18.40.00 22-May-20:  End Time 
 FLOI.gpm               550.00:  Flow In 
 FLON.gpm               350.00:  Flow In Min 
 FLOS.cptm                0.00:  Fluid Loss 
 FLOX.gpm               600.00:  Flow In Max 
 HFLO.                      No:  High Flow 
 HPRE.                      No:  High Pressure 
 HTEM.                      No:  High Temp 
 HYDO.m                   1.80:  Hydro Offset 
 IFIN.deg                67.01:  Inc, Final 
 IMAX.deg                67.49:  Inc Max 
 IMIN.deg                66.50:  Inc Min 
 IMND.m                5144.79:  Inc Min Depth 
 IMXD.m                5116.12:  Inc Max Depth 
 JARR.                      No:  Jarring 
 LETM.      17.55.56 20-May-20:  Log End Time 
 LOST.hr                     0:  Lost Rig Time 
 LSTM.      04.30.56 18-May-20:  Log Start Time 
 MDCL.ppm            193153.00:  Mud Chlorides 
 MDES.     Inversion Oil/Synthetic:  Mud Desc 
 DFD .sg                  1.40:  Mud Density 
 MDMN.sg                  1.40:  Dens Mud Min 
 MDMX.sg                  1.41:  Dens Mud Max 
 MOIL.                      68:  Run Mud Oil % 
 MOWR.                   68:32:  Run Mud OWR 
 MSND.                     0.2:  Run Mud Sand % 
 MSOL.                    18.8:  Run Mud Solids% 
 DFV .spqt               80.00:  Mud Viscosity 
 MWOD.in                  6.75:  MWD Tool OD 
 MWSI.                      No:  Serv Intrp, MWD 
 OTIM.hr                104.84:  Time Operating 
 PMAX.psia            10690.93:  Press Op, Max 
 PV  .cP                 26.00:  Mud PV 
 RUN .                     900:  Run Number 
 ROPA.m/hr                0.00:  ROP Avg 
 ROPN.m/hr                0.00:  ROP Min 
 ROPX.m/hr                0.00:  ROP Max 
 RPMA.rpm               140.00:  RPM Surface Avg 
 RPMN.rpm                70.00:  RPM Surface Min 
 RPMX.rpm               140.00:  RPM Surface Max 
 RRUN.                    0900:  Rig Run Number 
 RTIM.hr                 36.00:  Time Reaming 
 SAZI.deg               115.72:  Azm, Start 
 SDEP.m                5337.01:  Start Depth 
 SIDD.                      No:  Serv Intrp, DD 
 SINC.deg                66.92:  Inc, Start 
 SPPA.psig             4400.00:  SPP Avg 
 SPPN.psig             1135.00:  SPP Min 
 SPPX.psig             4581.00:  SPP Max 
 STIM.      04.30.56 18-May-20:  Start Time 
 SVCS.                     MWD:  Services 
 SVER.                    9.20:  Sperry Version 
 TDAT.m                5337.01:  Tot Depth Attmp 
 TDDF.                      No:  Trip for DD 
 TFF .                      No:  Trip for Fail 
 TQAA.f-kp               23.00:  Torque Abs Avg 
 TQAN.f-kp               18.00:  Torque Abs Min 
 TQAX.f-kp               25.00:  Torque Abs Max 
 TRRT.°/30m               0.74:  Turn Rotating 
 MRT .                    HCIM:  Maximum Recorded Temperature 
 TTMX.degC               76.47:  Max Tool Temp 
 WBMN.klb                 0.00:  WOB Min 
 WITN.             Anar Khalil:  Customer Rep 
 WITN.      Kamran Keberlinski:  Customer Rep 2 
 WOBA.klb                 0.00:  WOB Avg 
 WOBX.klb                 0.00:  WOB Max 
 YP  .lhf2               27.00:  Yield Point 
~Curve Information Block
#MNEM.UNIT                 API CODE     Curve Description
#---------               -----------    ---------------------------
 TIME.HHMMSS            00 000 000 000:  GT Time & Date
 GTDEPTH.m              00 000 000 000:  GT Depth
 GTPQH.psia             00 000 000 000:  GT HR Quartz Pressure
 GTTQ.degC              00 000 000 000:  GT Quartz Temperature
 GTTN.NONE              00 000 000 000:  GT Test Number
 GTET.sec               00 000 000 000:  GT Elapsed Test Time
 GTTVD.m                00 000 000 000:  GT True Vertical Depth
#Other Information
#
#WARRANTY: Halliburton will use its best efforts to furnish customers with 
#accurate information and interpretations that are part of, and incident to, the services 
#provided.  However, Halliburton cannot and does not warrant the accuracy 
#or correctness of such information and interpretations.  Under no circumstances should any 
#such information or interpretation be relied upon as the sole basis for any drilling, 
#completion, production, or financial decision or any procedure involving any risk to the 
#safety of any drilling venture, drilling rig or its crew or any other third party.  The 
#Customer has full responsibility for all drilling, completion and production operation.  
#Halliburton makes no representations or warranties, either expressed or 
#implied, including, but not limited to, the implied warranties of merchantability or fitness 
#for a particular purpose, with respect to the services rendered.  In no event will 
#Halliburton be liable for failure to obtain any particular results or for 
#any damages, including, but not limited to, indirect, special or consequential damages, 
#resulting from the use of any information or interpretation provided by Halliburton.
#
~A           TIME           GTDEPTH  GTPQH  GTTQ  GTTN  GTET   GTTVD  
# ...
   15:20:36.372.19-May-2020 5277.61 3454.25 67.44 1.00 253.06 2760.35
   15:20:36.572.19-May-2020 5277.61 3454.02 67.44 1.00 253.26 2760.35
   15:20:36.772.19-May-2020 5277.61 3454.00 67.44 1.00 253.46 2760.35
   15:20:36.972.19-May-2020 5277.61 3454.12 67.44 1.00 253.66 2760.35
   15:20:37.172.19-May-2020 5277.61 3454.16 67.44 1.00 253.86 2760.35
   15:20:37.372.19-May-2020 5277.61 3453.92 67.44 1.00 254.06 2760.35
   15:20:37.572.19-May-2020 5277.61 3454.45 67.44 1.00 254.26 2760.35
   15:20:37.772.19-May-2020 5277.61 3454.12 67.44 1.00 254.46 2760.35
   15:20:37.972.19-May-2020 5277.61 3454.04 67.44 1.00 254.66 2760.35
   15:20:38.173.19-May-2020 5277.61 3453.88 67.44 1.00 254.86 2760.35
   15:20:38.373.19-May-2020 5277.61 3454.60 67.44 1.00 255.06 2760.35
   15:20:38.573.19-May-2020 5277.61 3454.60 67.44 1.00 255.26 2760.35
   15:20:38.773.19-May-2020 5277.61 3453.95 67.44 1.00 255.46 2760.35
   15:20:38.973.19-May-2020 5277.61 3454.01 67.44 1.00 255.66 2760.35
   15:20:39.173.19-May-2020 5277.61 3454.13 67.44 1.00 255.86 2760.35
   15:20:39.373.19-May-2020 5277.61 3454.08 67.44 1.00 256.06 2760.35
   15:20:39.573.19-May-2020 5277.61 3454.07 67.44 1.00 256.26 2760.35
   15:20:39.773.19-May-2020 5277.61 3454.01 67.44 1.00 256.46 2760.35
   15:20:39.973.19-May-2020 5277.61 3454.05 67.44 1.00 256.66 2760.35
   15:20:40.173.19-May-2020 5277.61 3454.11 67.44 1.00 256.86 2760.35
   15:20:40.373.19-May-2020 5277.61 3454.12 67.44 1.00 257.06 2760.35
   15:20:40.573.19-May-2020 5277.61 3454.12 67.44 1.00 257.26 2760.35
   15:20:40.773.19-May-2020 5277.61 3454.06 67.44 1.00 257.46 2760.35
   15:20:40.973.19-May-2020 5277.61 3454.10 67.44 1.00 257.66 2760.35
   15:20:41.173.19-May-2020 5277.61 3454.00 67.44 1.00 257.86 2760.35
   15:20:41.373.19-May-2020 5277.61 3454.28 67.44 1.00 258.06 2760.35
   15:20:41.573.19-May-2020 5277.61 3454.21 67.44 1.00 258.26 2760.35
   15:20:41.773.19-May-2020 5277.61 3454.01 67.44 1.00 258.46 2760.35
   15:20:41.973.19-May-2020 5277.61 3454.10 67.44 1.00 258.66 2760.35
   15:20:42.173.19-May-2020 5277.61 3454.23 67.44 1.00 258.86 2760.35
   15:20:42.374.19-May-2020 5277.61 3454.32 67.44 1.00 259.06 2760.35
   15:20:42.574.19-May-2020 5277.61 3454.32 67.44 1.00 259.26 2760.35
   15:20:42.774.19-May-2020 5277.61 3454.01 67.44 1.00 259.46 2760.35
   15:20:42.974.19-May-2020 5277.61 3454.10 67.44 1.00 259.66 2760.35
   15:20:43.174.19-May-2020 5277.61 3454.23 67.44 1.00 259.86 2760.35
   15:20:43.374.19-May-2020 5277.61 3454.32 67.44 1.00 260.06 2760.35
   15:20:43.574.19-May-2020 5277.61 3453.99 67.44 1.00 260.26 2760.35
   15:20:43.774.19-May-2020 5277.61 3454.01 67.44 1.00 260.46 2760.35
   15:20:43.974.19-May-2020 5277.61 3454.13 67.44 1.00 260.66 2760.35
   15:20:44.174.19-May-2020 5277.61 3454.15 67.44 1.00 260.86 2760.35
   15:20:44.374.19-May-2020 5277.61 3453.90 67.44 1.00 261.06 2760.35
   15:20:44.574.19-May-2020 5277.61 3454.45 67.44 1.00 261.26 2760.35
   15:20:44.774.19-May-2020 5277.61 3454.02 67.44 1.00 261.46 2760.35
   15:20:44.974.19-May-2020 5277.61 3454.03 67.44 1.00 261.66 2760.35
   15:20:45.174.19-May-2020 5277.61 3453.98 67.44 1.00 261.86 2760.35
   15:20:45.374.19-May-2020 5277.61 3454.58 67.44 1.00 262.06 2760.35
   15:20:45.574.19-May-2020 5277.61 3454.58 67.44 1.00 262.26 2760.35
   15:20:45.774.19-May-2020 5277.61 3453.99 67.44 1.00 262.46 2760.35
   15:20:45.974.19-May-2020 5277.61 3454.12 67.44 1.00 262.66 2760.35
   15:20:46.174.19-May-2020 5277.61 3454.15 67.44 1.00 262.86 2760.35
   15:20:46.374.19-May-2020 5277.61 3454.10 67.44 1.00 263.06 2760.35
   15:20:46.575.19-May-2020 5277.61 3454.10 67.44 1.00 263.26 2760.35
   15:20:46.775.19-May-2020 5277.61 3454.06 67.44 1.00 263.46 2760.35
   15:20:46.975.19-May-2020 5277.61 3454.10 67.44 1.00 263.66 2760.35
   15:20:47.175.19-May-2020 5277.61 3454.13 67.44 1.00 263.86 2760.35
   15:20:47.375.19-May-2020 5277.61 3454.12 67.44 1.00 264.06 2760.35
   15:20:47.575.19-May-2020 5277.61 3454.12 67.44 1.00 264.26 2760.35
   15:20:47.775.19-May-2020 5277.61 3241.72 67.44 1.00 264.46 2760.35
   15:20:47.975.19-May-2020 5277.61 3064.01 67.44 1.00 264.66 2760.35
   15:20:48.175.19-May-2020 5277.61 3005.19 67.44 1.00 264.86 2760.35
   15:20:48.375.19-May-2020 5277.61 2993.63 67.44 1.00 265.06 2760.35
   15:20:48.575.19-May-2020 5277.61 2993.63 67.44 1.00 265.26 2760.35
   15:20:48.775.19-May-2020 5277.61 2983.81 67.44 1.00 265.46 2760.35
   15:20:48.975.19-May-2020 5277.61 2981.16 67.44 1.00 265.66 2760.35
   15:20:49.175.19-May-2020 5277.61 2979.52 67.44 1.00 265.86 2760.35
   15:20:49.375.19-May-2020 5277.61 2978.56 67.44 1.00 266.06 2760.35
   15:20:49.575.19-May-2020 5277.61 2978.56 67.44 1.00 266.26 2760.35
   15:20:49.775.19-May-2020 5277.61 2979.12 67.44 1.00 266.46 2760.35
   15:20:49.975.19-May-2020 5277.61 2977.47 67.44 1.00 266.66 2760.35
   15:20:50.175.19-May-2020 5277.61 2978.08 67.44 1.00 266.86 2760.35
   15:20:50.375.19-May-2020 5277.61 2977.20 67.44 1.00 267.06 2760.35
   15:20:50.575.19-May-2020 5277.61 2977.20 67.44 1.00 267.26 2760.35
   15:20:50.776.19-May-2020 5277.61 2979.08 67.44 1.00 267.46 2760.35
   15:20:50.976.19-May-2020 5277.61 2978.82 67.44 1.00 267.66 2760.35
   15:20:51.176.19-May-2020 5277.61 2977.92 67.44 1.00 267.86 2760.35
   15:20:51.376.19-May-2020 5277.61 2978.01 67.44 1.00 268.06 2760.35
   15:20:51.576.19-May-2020 5277.61 2978.01 67.44 1.00 268.26 2760.35
   15:20:51.776.19-May-2020 5277.61 2976.96 67.44 1.00 268.46 2760.35
   15:20:51.976.19-May-2020 5277.61 2978.08 67.44 1.00 268.66 2760.35
   15:20:52.176.19-May-2020 5277.61 2978.96 67.44 1.00 268.86 2760.35
   15:20:52.376.19-May-2020 5277.61 2978.05 67.44 1.00 269.06 2760.35
   15:20:52.576.19-May-2020 5277.61 2978.05 67.44 1.00 269.26 2760.35
   15:20:52.776.19-May-2020 5277.61 2981.70 67.44 1.00 269.46 2760.35
   15:20:52.976.19-May-2020 5277.61 2982.58 67.44 1.00 269.66 2760.35
   15:20:53.176.19-May-2020 5277.61 2983.32 67.44 1.00 269.86 2760.35
   15:20:53.376.19-May-2020 5277.61 2983.22 67.44 1.00 270.06 2760.35
   15:20:53.576.19-May-2020 5277.61 2983.22 67.44 1.00 270.26 2760.35
   15:20:53.776.19-May-2020 5277.61 2983.89 67.44 1.00 270.46 2760.35
   15:20:53.976.19-May-2020 5277.61 2983.21 67.44 1.00 270.66 2760.35
   15:20:54.176.19-May-2020 5277.61 2983.47 67.44 1.00 270.86 2760.35
   15:20:54.376.19-May-2020 5277.61 2983.65 67.43 1.00 271.06 2760.35
   15:20:54.576.19-May-2020 5277.61 2983.90 67.43 1.00 271.26 2760.35
   15:20:54.776.19-May-2020 5277.61 2984.84 67.43 1.00 271.46 2760.35
   15:20:54.977.19-May-2020 5277.61 2985.36 67.43 1.00 271.66 2760.35
   15:20:55.177.19-May-2020 5277.61 2987.27 67.43 1.00 271.86 2760.35
   15:20:55.377.19-May-2020 5277.61 2986.01 67.43 1.00 272.06 2760.35
   15:20:55.577.19-May-2020 5277.61 2987.11 67.43 1.00 272.26 2760.35
   15:20:55.777.19-May-2020 5277.61 2989.21 67.43 1.00 272.46 2760.35
   15:20:55.977.19-May-2020 5277.61 2987.81 67.43 1.00 272.66 2760.35
   15:20:56.177.19-May-2020 5277.61 2988.21 67.43 1.00 272.86 2760.35
   15:20:56.377.19-May-2020 5277.61 2988.45 67.43 1.00 273.06 2760.35
   15:20:56.577.19-May-2020 5277.61 2988.45 67.43 1.00 273.26 2760.35
   15:20:56.777.19-May-2020 5277.61 2991.66 67.43 1.00 273.46 2760.35
   15:20:56.977.19-May-2020 5277.61 2992.44 67.43 1.00 273.66 2760.35
   15:20:57.177.19-May-2020 5277.61 2991.58 67.43 1.00 273.86 2760.35
   15:20:57.377.19-May-2020 5277.61 2993.12 67.43 1.00 274.06 2760.35
   15:20:57.577.19-May-2020 5277.61 2993.12 67.43 1.00 274.27 2760.35
   15:20:57.777.19-May-2020 5277.61 3046.88 67.43 1.00 274.47 2760.35
   15:20:57.977.19-May-2020 5277.61 3271.98 67.43 1.00 274.67 2760.35
   15:20:58.177.19-May-2020 5277.61 3380.34 67.43 1.00 274.87 2760.35
   15:20:58.377.19-May-2020 5277.61 3423.49 67.43 1.00 275.07 2760.35
   15:20:58.577.19-May-2020 5277.61 3423.49 67.43 1.00 275.27 2760.35
   15:20:58.777.19-May-2020 5277.61 3444.94 67.43 1.00 275.47 2760.35
   15:20:58.977.19-May-2020 5277.61 3447.46 67.43 1.00 275.67 2760.35
   15:20:59.178.19-May-2020 5277.61 3448.93 67.43 1.00 275.87 2760.35
