~Version Information
 VERS.                  2.0:   CWLS log ASCII Standard -VERSION 2.0
 WRAP.                   NO:   One line per depth step
~Well Information Block
#MNEM.UNIT     VALUE/NAME     DESCRIPTION
#---------     -----------    ---------------------------
 STRT.S             06:41:15 20-May-20: START TIME 06:41:15 20-May-20
 STOP.S             06:51:49 20-May-20: STOP TIME  06:51:49 20-May-20
 STEP.S                   0.00: STEP TIME
 NULL.                 -999.25: NULL VALUE
 MDS .        Operator Entered:  MAG DATA SOURCE
 PDAT.          Mean Sea Level:  PERMANENT DATUM
 UNIT.                     N/A:  LOGGING EQUIPMENT ID
 DCON.         Sperry Drilling:  DIRECTNL CONTR
 DOE .                     N/A:  DOE NUMBER
 RIG .              East Azeri:  RIG NAME
 JOBN.        AZ-XX-0905856059:  JOB TICKET NUMB
 WELL.                     D36:  WELL NAME
 MWDS.                    Baku:  MWD SHOP
 SRVC.     Turan Drilling & Engineering:  CONTRACTOR
 FLD .                     ACG:  FIELD NAME
 CTRY.              Azerbaijan:  COUNTRY NAME
 PROV.                    Baku:  PROVINCE
 STAT.                    Baku:  STATE NAME
 REGN.                   EESSA:  REGION
 BASE.              Azerbaijan:  LOGGING EQUIPMENT BASE LOCATION
 UWI .                     N/A:  UNIQUE WELL IDENTIFIER
 API .                     N/A:  API NUMBER
 COMP.     BP Exploration (Caspian Sea) Ltd.:  COMPANY
 WTYP.                Deviated:  WELL TYPE
 SON .        AZ-XX-0905856059:  JOB NUMBER
 FTOP.          Formation Tops:  FORM TOPS DESC
 ILTD.               Lithology:  INTERP LTH DESC
 SVYD.                  Survey:  SURVEY DESC
 DMOD.             Drill Model:  DRILL MOD DESC
 HPTY.       Minimum Curvature:  HOLE POS TYPE
 NREF.                    Grid:  NORTH REFERENCE
 SPUD.               25-Feb-20:  SPUD DATE
 DATE.      08.55.28 01-May-20:  END TIME
 STIM.      08.55.28 25-Feb-20:  START TIME
 DMF .             Drill Floor:  DRILL MEAS FROM
 DFST.                        :  DIST FSL TEXT
 DFWT.                        :  DIST FWL TEXT
 CNTY.                        :  COUNTY
 LOC .                        :  LOCATION
 LMF .             Drill Floor:  LOG MEASURED FROM
 VSNS.m                   6.09:  VERT SEC N/S
 VSEW.m                 -10.79:  VERT SEC E/W
 AGAP.m                  43.60:  AIR GAP
 DEP .m                 388.24:  DEPTH
 APD .m                  43.60:  DEPTH ABOVE PD
 WDMS.m                 151.80:  WD ELEV
 EGL .m                   0.00:  GROUND ELEVATION
 EPD .m                   0.00:  ELEVATION
 AZTC.deg                 6.12:  AZM TOTAL CORR
 GRDC.deg                 0.30:  GRID CORRECTION
 MDEC.deg                 6.42:  MAGNETIC DECL
 MDIP.deg                59.42:  MAGNETIC DIP
 MFLD.nT              50256.00:  MAGNETIC FIELD
 GVFD.g                   1.00:  GRAVITY FIELD
 VSDR.deg               159.57:  VERT SEC DIRECT
 TDD .m                5000.01:  TOTAL DEPTH (DRILLER)
 SDEP.m                 397.00:  START DEPTH
 DFSL.m                   0.00:  DISTANCE FSL
 DFWL.m                   0.00:  DISTANCE FWL
 UTMY.m             4431880.20:  UTM Y
 UTMX.m              538763.98:  UTM X
 WHEW.m                 -10.79:  WELL HEAD E/W
 WHNS.m                   6.09:  WELL HEAD N/S
 LONG.deg                51.45:  LONGITUDE
 LATI.deg                40.02:  LATITUDE
 TVDS.m                  43.60:  TVDSS CORRECTN
 EKB .m                  43.60:  KB ELEVATION
 EDF .m                  43.60:  DF ELEVATION
 MAGU.                 1847640:  MAGUTM CHECKSUM
 VSC .                       0:  VS TO CLOSURE
~Parameter Information Block
#MNEM.UNIT       Value        Description
#---------     -----------    ---------------------------
 AV  .mps                 1.30:  Ann Velocity 
 AVMX.mps                 1.90:  Max Ann Veloc 
 AZIF.deg               115.68:  Azm, Final 
 BHAT.                   Other:  BHA Type 
 BROT.°/30m               0.74:  Build Rotating 
 BS  .in                  8.50:  Bit Size 
 BTPL.psig              430.00:  Bit Press Loss 
 CABU.                      No:  Customer Abuse 
 COMM.                     œÿv:  Run Comments 1 
 TCS .hr                 51.31:  Time Ciculation Ended 
 CV  .mps                 2.52:  Crit Velocity 
 CVMX.mps                 2.62:  Max Crit Veloc 
 DD1 .          Teymur Aghayev:  Direct Drillr 1 
 DDSV.                   Other:  DD Service 
 DEFF.%                 100.00:  % Det Eff 
 DLRX.°/30m               1.62:  Dogleg Rot Max 
 DLSO.°/30m               0.74:  Dogleg Oriented 
 DLSX.°/30m               1.62:  Dogleg Str Max 
 DRET.      04.30.56 18-May-20:  Drill End Time 
 DRST.      04.30.56 18-May-20:  Drill Start Tim 
 DTIM.hr                  0.00:  Time Drilling 
 EDEP.m                5337.01:  End Depth 
 ENG1.      Artemiy Matviyanov:  Engineer 1 
 ENG2.      Bakhtiyar Jabbarli:  Engineer 2 
 ENG3.           Emil Huseynov:  Engineer 3 
 ETIM.      18.40.00 22-May-20:  End Time 
 FLOI.gpm               550.00:  Flow In 
 FLON.gpm               350.00:  Flow In Min 
 FLOS.cptm                0.00:  Fluid Loss 
 FLOX.gpm               600.00:  Flow In Max 
 HFLO.                      No:  High Flow 
 HPRE.                      No:  High Pressure 
 HTEM.                      No:  High Temp 
 HYDO.m                   1.80:  Hydro Offset 
 IFIN.deg                67.01:  Inc, Final 
 IMAX.deg                67.49:  Inc Max 
 IMIN.deg                66.50:  Inc Min 
 IMND.m                5144.79:  Inc Min Depth 
 IMXD.m                5116.12:  Inc Max Depth 
 JARR.                      No:  Jarring 
 LETM.      17.55.56 20-May-20:  Log End Time 
 LOST.hr                     0:  Lost Rig Time 
 LSTM.      04.30.56 18-May-20:  Log Start Time 
 MDCL.ppm            193153.00:  Mud Chlorides 
 MDES.     Inversion Oil/Synthetic:  Mud Desc 
 DFD .sg                  1.40:  Mud Density 
 MDMN.sg                  1.40:  Dens Mud Min 
 MDMX.sg                  1.41:  Dens Mud Max 
 MOIL.                      68:  Run Mud Oil % 
 MOWR.                   68:32:  Run Mud OWR 
 MSND.                     0.2:  Run Mud Sand % 
 MSOL.                    18.8:  Run Mud Solids% 
 DFV .spqt               80.00:  Mud Viscosity 
 MWOD.in                  6.75:  MWD Tool OD 
 MWSI.                      No:  Serv Intrp, MWD 
 OTIM.hr                104.84:  Time Operating 
 PMAX.psia            10690.93:  Press Op, Max 
 PV  .cP                 26.00:  Mud PV 
 RUN .                     900:  Run Number 
 ROPA.m/hr                0.00:  ROP Avg 
 ROPN.m/hr                0.00:  ROP Min 
 ROPX.m/hr                0.00:  ROP Max 
 RPMA.rpm               140.00:  RPM Surface Avg 
 RPMN.rpm                70.00:  RPM Surface Min 
 RPMX.rpm               140.00:  RPM Surface Max 
 RRUN.                    0900:  Rig Run Number 
 RTIM.hr                 36.00:  Time Reaming 
 SAZI.deg               115.72:  Azm, Start 
 SDEP.m                5337.01:  Start Depth 
 SIDD.                      No:  Serv Intrp, DD 
 SINC.deg                66.92:  Inc, Start 
 SPPA.psig             4400.00:  SPP Avg 
 SPPN.psig             1135.00:  SPP Min 
 SPPX.psig             4581.00:  SPP Max 
 STIM.      04.30.56 18-May-20:  Start Time 
 SVCS.                     MWD:  Services 
 SVER.                    9.20:  Sperry Version 
 TDAT.m                5337.01:  Tot Depth Attmp 
 TDDF.                      No:  Trip for DD 
 TFF .                      No:  Trip for Fail 
 TQAA.f-kp               23.00:  Torque Abs Avg 
 TQAN.f-kp               18.00:  Torque Abs Min 
 TQAX.f-kp               25.00:  Torque Abs Max 
 TRRT.°/30m               0.74:  Turn Rotating 
 MRT .                    HCIM:  Maximum Recorded Temperature 
 TTMX.degC               76.47:  Max Tool Temp 
 WBMN.klb                 0.00:  WOB Min 
 WITN.             Anar Khalil:  Customer Rep 
 WITN.      Kamran Keberlinski:  Customer Rep 2 
 WOBA.klb                 0.00:  WOB Avg 
 WOBX.klb                 0.00:  WOB Max 
 YP  .lhf2               27.00:  Yield Point 
~Curve Information Block
#MNEM.UNIT                 API CODE     Curve Description
#---------               -----------    ---------------------------
 TIME.HHMMSS            00 000 000 000:  GT Time & Date
 GTDEPTH.m              00 000 000 000:  GT Depth
 GTPQH.psia             00 000 000 000:  GT HR Quartz Pressure
 GTTQ.degC              00 000 000 000:  GT Quartz Temperature
 GTTN.NONE              00 000 000 000:  GT Test Number
 GTET.sec               00 000 000 000:  GT Elapsed Test Time
 GTTVD.m                00 000 000 000:  GT True Vertical Depth
#Other Information
#
#WARRANTY: Halliburton will use its best efforts to furnish customers with 
#accurate information and interpretations that are part of, and incident to, the services 
#provided.  However, Halliburton cannot and does not warrant the accuracy 
#or correctness of such information and interpretations.  Under no circumstances should any 
#such information or interpretation be relied upon as the sole basis for any drilling, 
#completion, production, or financial decision or any procedure involving any risk to the 
#safety of any drilling venture, drilling rig or its crew or any other third party.  The 
#Customer has full responsibility for all drilling, completion and production operation.  
#Halliburton makes no representations or warranties, either expressed or 
#implied, including, but not limited to, the implied warranties of merchantability or fitness 
#for a particular purpose, with respect to the services rendered.  In no event will 
#Halliburton be liable for failure to obtain any particular results or for 
#any damages, including, but not limited to, indirect, special or consequential damages, 
#resulting from the use of any information or interpretation provided by Halliburton.
#
~A           TIME           GTDEPTH  GTPQH  GTTQ  GTTN   GTET   GTTVD  
# ...
   06:49:33.261.20-May-2020 5012.01 2902.43 68.07 10.00 497.34 2656.39
   06:49:33.461.20-May-2020 5012.01 2902.23 68.07 10.00 497.54 2656.39
   06:49:33.662.20-May-2020 5012.01 2902.45 68.07 10.00 497.74 2656.39
   06:49:33.862.20-May-2020 5012.01 2902.38 68.07 10.00 497.94 2656.39
   06:49:34.062.20-May-2020 5012.01 2902.31 68.07 10.00 498.14 2656.39
   06:49:34.262.20-May-2020 5012.01 2902.40 68.07 10.00 498.34 2656.39
   06:49:34.462.20-May-2020 5012.01 2902.31 68.07 10.00 498.54 2656.39
   06:49:34.662.20-May-2020 5012.01 2902.32 68.07 10.00 498.74 2656.39
   06:49:34.862.20-May-2020 5012.01 2902.35 68.07 10.00 498.94 2656.39
   06:49:35.062.20-May-2020 5012.01 2902.35 68.07 10.00 499.14 2656.39
   06:49:35.262.20-May-2020 5012.01 2902.35 68.07 10.00 499.34 2656.39
   06:49:35.462.20-May-2020 5012.01 2902.37 68.07 10.00 499.54 2656.39
   06:49:35.662.20-May-2020 5012.01 2902.30 68.07 10.00 499.74 2656.39
   06:49:35.862.20-May-2020 5012.01 2902.35 68.07 10.00 499.94 2656.39
   06:49:36.062.20-May-2020 5012.01 2902.31 68.07 10.00 500.14 2656.39
   06:49:36.262.20-May-2020 5012.01 2902.31 68.07 10.00 500.34 2656.39
   06:49:36.462.20-May-2020 5012.01 2902.34 68.07 10.00 500.54 2656.39
   06:49:36.662.20-May-2020 5012.01 2902.32 68.07 10.00 500.74 2656.39
   06:49:36.862.20-May-2020 5012.01 2902.34 68.07 10.00 500.94 2656.39
   06:49:37.062.20-May-2020 5012.01 2902.32 68.07 10.00 501.14 2656.39
   06:49:37.263.20-May-2020 5012.01 2902.32 68.07 10.00 501.34 2656.39
   06:49:37.463.20-May-2020 5012.01 2902.35 68.07 10.00 501.54 2656.39
   06:49:37.663.20-May-2020 5012.01 2902.32 68.07 10.00 501.74 2656.39
   06:49:37.863.20-May-2020 5012.01 2902.35 68.07 10.00 501.94 2656.39
   06:49:38.063.20-May-2020 5012.01 2902.34 68.07 10.00 502.14 2656.39
   06:49:38.263.20-May-2020 5012.01 2902.34 68.07 10.00 502.34 2656.39
   06:49:38.463.20-May-2020 5012.01 2902.23 68.07 10.00 502.54 2656.39
   06:49:38.663.20-May-2020 5012.01 2902.43 68.07 10.00 502.74 2656.39
   06:49:38.863.20-May-2020 5012.01 2902.35 68.07 10.00 502.94 2656.39
   06:49:39.063.20-May-2020 5012.01 2902.30 68.07 10.00 503.14 2656.39
   06:49:39.263.20-May-2020 5012.01 2902.41 68.07 10.00 503.34 2656.39
   06:49:39.463.20-May-2020 5012.01 2902.34 68.07 10.00 503.54 2656.39
   06:49:39.663.20-May-2020 5012.01 2902.34 68.07 10.00 503.74 2656.39
   06:49:39.863.20-May-2020 5012.01 2902.35 68.07 10.00 503.94 2656.39
   06:49:40.063.20-May-2020 5012.01 2902.39 68.07 10.00 504.14 2656.39
   06:49:40.263.20-May-2020 5012.01 2902.39 68.07 10.00 504.34 2656.39
   06:49:40.463.20-May-2020 5012.01 2902.30 68.07 10.00 504.54 2656.39
   06:49:40.664.20-May-2020 5012.01 2902.32 68.07 10.00 504.74 2656.39
   06:49:40.864.20-May-2020 5012.01 2902.37 68.07 10.00 504.94 2656.39
   06:49:41.064.20-May-2020 5012.01 2902.32 68.07 10.00 505.14 2656.39
   06:49:41.264.20-May-2020 5012.01 2902.32 68.07 10.00 505.34 2656.39
   06:49:41.464.20-May-2020 5012.01 2902.40 68.07 10.00 505.54 2656.39
   06:49:41.664.20-May-2020 5012.01 2902.26 68.07 10.00 505.74 2656.39
   06:49:41.864.20-May-2020 5012.01 2902.40 68.07 10.00 505.94 2656.39
   06:49:42.064.20-May-2020 5012.01 2902.37 68.07 10.00 506.14 2656.39
   06:49:42.264.20-May-2020 5012.01 2902.33 68.07 10.00 506.34 2656.39
   06:49:42.464.20-May-2020 5012.01 2902.41 68.07 10.00 506.54 2656.39
   06:49:42.664.20-May-2020 5012.01 2902.28 68.07 10.00 506.74 2656.39
   06:49:42.864.20-May-2020 5012.01 2902.36 68.07 10.00 506.94 2656.39
   06:49:43.064.20-May-2020 5012.01 2902.31 68.07 10.00 507.14 2656.39
   06:49:43.264.20-May-2020 5012.01 2902.31 68.07 10.00 507.34 2656.39
   06:49:43.464.20-May-2020 5012.01 2902.33 68.07 10.00 507.54 2656.39
   06:49:43.664.20-May-2020 5012.01 2902.33 68.07 10.00 507.74 2656.39
   06:49:43.864.20-May-2020 5012.01 2902.34 68.07 10.00 507.94 2656.39
   06:49:44.064.20-May-2020 5012.01 2902.34 68.07 10.00 508.14 2656.39
   06:49:44.265.20-May-2020 5012.01 2902.34 68.07 10.00 508.34 2656.39
   06:49:44.465.20-May-2020 5012.01 2902.33 68.07 10.00 508.54 2656.39
   06:49:44.665.20-May-2020 5012.01 2902.31 68.07 10.00 508.74 2656.39
   06:49:44.865.20-May-2020 5012.01 2902.44 68.07 10.00 508.94 2656.39
   06:49:45.065.20-May-2020 5012.01 2902.24 68.07 10.00 509.14 2656.39
   06:49:45.265.20-May-2020 5012.01 2902.24 68.07 10.00 509.34 2656.39
   06:49:45.465.20-May-2020 5012.01 2902.31 68.07 10.00 509.54 2656.39
   06:49:45.665.20-May-2020 5012.01 2902.41 68.07 10.00 509.74 2656.39
   06:49:45.865.20-May-2020 5012.01 2902.34 68.07 10.00 509.94 2656.39
   06:49:46.065.20-May-2020 5012.01 2902.30 68.07 10.00 510.14 2656.39
   06:49:46.265.20-May-2020 5012.01 2902.25 68.07 10.00 510.34 2656.39
   06:49:46.465.20-May-2020 5012.01 2902.48 68.07 10.00 510.54 2656.39
   06:49:46.665.20-May-2020 5012.01 2902.35 68.07 10.00 510.74 2656.39
   06:49:46.865.20-May-2020 5012.01 2902.30 68.07 10.00 510.94 2656.39
   06:49:47.065.20-May-2020 5012.01 2902.44 68.07 10.00 511.14 2656.39
   06:49:47.265.20-May-2020 5012.01 2902.44 68.07 10.00 511.34 2656.39
   06:49:47.465.20-May-2020 5012.01 2902.33 68.07 10.00 511.54 2656.39
   06:49:47.665.20-May-2020 5012.01 2902.41 68.07 10.00 511.74 2656.39
   06:49:47.866.20-May-2020 5012.01 2902.30 68.07 10.00 511.94 2656.39
   06:49:48.066.20-May-2020 5012.01 2902.30 68.07 10.00 512.14 2656.39
   06:49:48.266.20-May-2020 5012.01 2902.30 68.07 10.00 512.34 2656.39
   06:49:48.466.20-May-2020 5012.01 2902.42 68.07 10.00 512.54 2656.39
   06:49:48.666.20-May-2020 5012.01 2902.33 68.07 10.00 512.75 2656.39
   06:49:48.866.20-May-2020 5012.01 2902.32 68.07 10.00 512.95 2656.39
   06:49:49.066.20-May-2020 5012.01 2902.35 68.07 10.00 513.15 2656.39
   06:49:49.266.20-May-2020 5012.01 2902.35 68.07 10.00 513.35 2656.39
   06:49:49.466.20-May-2020 5012.01 2902.31 68.07 10.00 513.55 2656.39
   06:49:49.666.20-May-2020 5012.01 2902.35 68.07 10.00 513.75 2656.39
   06:49:49.866.20-May-2020 5012.01 2902.34 68.07 10.00 513.95 2656.39
   06:49:50.066.20-May-2020 5012.01 2902.32 68.07 10.00 514.15 2656.39
   06:49:50.266.20-May-2020 5012.01 2902.36 68.07 10.00 514.35 2656.39
   06:49:50.466.20-May-2020 5012.01 2902.34 68.07 10.00 514.55 2656.39
   06:49:50.666.20-May-2020 5012.01 2902.33 68.07 10.00 514.75 2656.39
   06:49:50.866.20-May-2020 5012.01 2902.31 68.07 10.00 514.95 2656.39
   06:49:51.066.20-May-2020 5012.01 2902.34 68.07 10.00 515.15 2656.39
   06:49:51.267.20-May-2020 5012.01 2902.34 68.07 10.00 515.35 2656.39
   06:49:51.467.20-May-2020 5012.01 2902.32 68.07 10.00 515.55 2656.39
   06:49:51.667.20-May-2020 5012.01 2902.33 68.07 10.00 515.75 2656.39
   06:49:51.867.20-May-2020 5012.01 2902.32 68.07 10.00 515.95 2656.39
   06:49:52.067.20-May-2020 5012.01 2902.32 68.07 10.00 516.15 2656.39
   06:49:52.267.20-May-2020 5012.01 2902.32 68.07 10.00 516.35 2656.39
   06:49:52.467.20-May-2020 5012.01 2902.34 68.07 10.00 516.55 2656.39
   06:49:52.667.20-May-2020 5012.01 2902.48 68.07 10.00 516.75 2656.39
   06:49:52.867.20-May-2020 5012.01 2902.22 68.07 10.00 516.95 2656.39
   06:49:53.067.20-May-2020 5012.01 2902.30 68.07 10.00 517.15 2656.39
   06:49:53.267.20-May-2020 5012.01 2902.30 68.07 10.00 517.35 2656.39
   06:49:53.467.20-May-2020 5012.01 2902.41 68.07 10.00 517.55 2656.39
   06:49:53.667.20-May-2020 5012.01 2902.30 68.07 10.00 517.75 2656.39
   06:49:53.867.20-May-2020 5012.01 2902.32 68.07 10.00 517.95 2656.39
   06:49:54.067.20-May-2020 5012.01 2902.35 68.07 10.00 518.15 2656.39
   06:49:54.267.20-May-2020 5012.01 2902.41 68.07 10.00 518.35 2656.39
   06:49:54.467.20-May-2020 5012.01 2902.35 68.07 10.00 518.55 2656.39
   06:49:54.667.20-May-2020 5012.01 2902.28 68.07 10.00 518.75 2656.39
   06:49:54.868.20-May-2020 5012.01 2902.35 68.07 10.00 518.95 2656.39
   06:49:55.068.20-May-2020 5012.01 2902.33 68.07 10.00 519.15 2656.39
   06:49:55.268.20-May-2020 5012.01 2902.33 68.07 10.00 519.35 2656.39
   06:49:55.468.20-May-2020 5012.01 2902.42 68.07 10.00 519.55 2656.39
   06:49:55.668.20-May-2020 5012.01 2902.33 68.07 10.00 519.75 2656.39
