~Version Information
 VERS.                  2.0:   CWLS log ASCII Standard -VERSION 2.0
 WRAP.                   NO:   One line per depth step
~Well Information Block
#MNEM.UNIT     VALUE/NAME     DESCRIPTION
#---------     -----------    ---------------------------
 STRT.S             21:41:59 19-May-20: START TIME 21:41:59 19-May-20
 STOP.S             21:48:44 19-May-20: STOP TIME  21:48:44 19-May-20
 STEP.S                   0.00: STEP TIME
 NULL.                 -999.25: NULL VALUE
 MDS .        Operator Entered:  MAG DATA SOURCE
 PDAT.          Mean Sea Level:  PERMANENT DATUM
 UNIT.                     N/A:  LOGGING EQUIPMENT ID
 DCON.         Sperry Drilling:  DIRECTNL CONTR
 DOE .                     N/A:  DOE NUMBER
 RIG .              East Azeri:  RIG NAME
 JOBN.        AZ-XX-0905856059:  JOB TICKET NUMB
 WELL.                     D36:  WELL NAME
 MWDS.                    Baku:  MWD SHOP
 SRVC.     Turan Drilling & Engineering:  CONTRACTOR
 FLD .                     ACG:  FIELD NAME
 CTRY.              Azerbaijan:  COUNTRY NAME
 PROV.                    Baku:  PROVINCE
 STAT.                    Baku:  STATE NAME
 REGN.                   EESSA:  REGION
 BASE.              Azerbaijan:  LOGGING EQUIPMENT BASE LOCATION
 UWI .                     N/A:  UNIQUE WELL IDENTIFIER
 API .                     N/A:  API NUMBER
 COMP.     BP Exploration (Caspian Sea) Ltd.:  COMPANY
 WTYP.                Deviated:  WELL TYPE
 SON .        AZ-XX-0905856059:  JOB NUMBER
 FTOP.          Formation Tops:  FORM TOPS DESC
 ILTD.               Lithology:  INTERP LTH DESC
 SVYD.                  Survey:  SURVEY DESC
 DMOD.             Drill Model:  DRILL MOD DESC
 HPTY.       Minimum Curvature:  HOLE POS TYPE
 NREF.                    Grid:  NORTH REFERENCE
 SPUD.               25-Feb-20:  SPUD DATE
 DATE.      08.55.28 01-May-20:  END TIME
 STIM.      08.55.28 25-Feb-20:  START TIME
 DMF .             Drill Floor:  DRILL MEAS FROM
 DFST.                        :  DIST FSL TEXT
 DFWT.                        :  DIST FWL TEXT
 CNTY.                        :  COUNTY
 LOC .                        :  LOCATION
 LMF .             Drill Floor:  LOG MEASURED FROM
 VSNS.m                   6.09:  VERT SEC N/S
 VSEW.m                 -10.79:  VERT SEC E/W
 AGAP.m                  43.60:  AIR GAP
 DEP .m                 388.24:  DEPTH
 APD .m                  43.60:  DEPTH ABOVE PD
 WDMS.m                 151.80:  WD ELEV
 EGL .m                   0.00:  GROUND ELEVATION
 EPD .m                   0.00:  ELEVATION
 AZTC.deg                 6.12:  AZM TOTAL CORR
 GRDC.deg                 0.30:  GRID CORRECTION
 MDEC.deg                 6.42:  MAGNETIC DECL
 MDIP.deg                59.42:  MAGNETIC DIP
 MFLD.nT              50256.00:  MAGNETIC FIELD
 GVFD.g                   1.00:  GRAVITY FIELD
 VSDR.deg               159.57:  VERT SEC DIRECT
 TDD .m                5000.01:  TOTAL DEPTH (DRILLER)
 SDEP.m                 397.00:  START DEPTH
 DFSL.m                   0.00:  DISTANCE FSL
 DFWL.m                   0.00:  DISTANCE FWL
 UTMY.m             4431880.20:  UTM Y
 UTMX.m              538763.98:  UTM X
 WHEW.m                 -10.79:  WELL HEAD E/W
 WHNS.m                   6.09:  WELL HEAD N/S
 LONG.deg                51.45:  LONGITUDE
 LATI.deg                40.02:  LATITUDE
 TVDS.m                  43.60:  TVDSS CORRECTN
 EKB .m                  43.60:  KB ELEVATION
 EDF .m                  43.60:  DF ELEVATION
 MAGU.                 1847640:  MAGUTM CHECKSUM
 VSC .                       0:  VS TO CLOSURE
~Parameter Information Block
#MNEM.UNIT       Value        Description
#---------     -----------    ---------------------------
 AV  .mps                 1.30:  Ann Velocity 
 AVMX.mps                 1.90:  Max Ann Veloc 
 AZIF.deg               115.68:  Azm, Final 
 BHAT.                   Other:  BHA Type 
 BROT.°/30m               0.74:  Build Rotating 
 BS  .in                  8.50:  Bit Size 
 BTPL.psig              430.00:  Bit Press Loss 
 CABU.                      No:  Customer Abuse 
 COMM.                     „äS:  Run Comments 1 
 TCS .hr                 51.31:  Time Ciculation Ended 
 CV  .mps                 2.52:  Crit Velocity 
 CVMX.mps                 2.62:  Max Crit Veloc 
 DD1 .          Teymur Aghayev:  Direct Drillr 1 
 DDSV.                   Other:  DD Service 
 DEFF.%                 100.00:  % Det Eff 
 DLRX.°/30m               1.62:  Dogleg Rot Max 
 DLSO.°/30m               0.74:  Dogleg Oriented 
 DLSX.°/30m               1.62:  Dogleg Str Max 
 DRET.      04.30.56 18-May-20:  Drill End Time 
 DRST.      04.30.56 18-May-20:  Drill Start Tim 
 DTIM.hr                  0.00:  Time Drilling 
 EDEP.m                5337.01:  End Depth 
 ENG1.      Artemiy Matviyanov:  Engineer 1 
 ENG2.      Bakhtiyar Jabbarli:  Engineer 2 
 ENG3.           Emil Huseynov:  Engineer 3 
 ETIM.      18.40.00 22-May-20:  End Time 
 FLOI.gpm               550.00:  Flow In 
 FLON.gpm               350.00:  Flow In Min 
 FLOS.cptm                0.00:  Fluid Loss 
 FLOX.gpm               600.00:  Flow In Max 
 HFLO.                      No:  High Flow 
 HPRE.                      No:  High Pressure 
 HTEM.                      No:  High Temp 
 HYDO.m                   1.80:  Hydro Offset 
 IFIN.deg                67.01:  Inc, Final 
 IMAX.deg                67.49:  Inc Max 
 IMIN.deg                66.50:  Inc Min 
 IMND.m                5144.79:  Inc Min Depth 
 IMXD.m                5116.12:  Inc Max Depth 
 JARR.                      No:  Jarring 
 LETM.      17.55.56 20-May-20:  Log End Time 
 LOST.hr                     0:  Lost Rig Time 
 LSTM.      04.30.56 18-May-20:  Log Start Time 
 MDCL.ppm            193153.00:  Mud Chlorides 
 MDES.     Inversion Oil/Synthetic:  Mud Desc 
 DFD .sg                  1.40:  Mud Density 
 MDMN.sg                  1.40:  Dens Mud Min 
 MDMX.sg                  1.41:  Dens Mud Max 
 MOIL.                      68:  Run Mud Oil % 
 MOWR.                   68:32:  Run Mud OWR 
 MSND.                     0.2:  Run Mud Sand % 
 MSOL.                    18.8:  Run Mud Solids% 
 DFV .spqt               80.00:  Mud Viscosity 
 MWOD.in                  6.75:  MWD Tool OD 
 MWSI.                      No:  Serv Intrp, MWD 
 OTIM.hr                104.84:  Time Operating 
 PMAX.psia            10690.93:  Press Op, Max 
 PV  .cP                 26.00:  Mud PV 
 RUN .                     900:  Run Number 
 ROPA.m/hr                0.00:  ROP Avg 
 ROPN.m/hr                0.00:  ROP Min 
 ROPX.m/hr                0.00:  ROP Max 
 RPMA.rpm               140.00:  RPM Surface Avg 
 RPMN.rpm                70.00:  RPM Surface Min 
 RPMX.rpm               140.00:  RPM Surface Max 
 RRUN.                    0900:  Rig Run Number 
 RTIM.hr                 36.00:  Time Reaming 
 SAZI.deg               115.72:  Azm, Start 
 SDEP.m                5337.01:  Start Depth 
 SIDD.                      No:  Serv Intrp, DD 
 SINC.deg                66.92:  Inc, Start 
 SPPA.psig             4400.00:  SPP Avg 
 SPPN.psig             1135.00:  SPP Min 
 SPPX.psig             4581.00:  SPP Max 
 STIM.      04.30.56 18-May-20:  Start Time 
 SVCS.                     MWD:  Services 
 SVER.                    9.20:  Sperry Version 
 TDAT.m                5337.01:  Tot Depth Attmp 
 TDDF.                      No:  Trip for DD 
 TFF .                      No:  Trip for Fail 
 TQAA.f-kp               23.00:  Torque Abs Avg 
 TQAN.f-kp               18.00:  Torque Abs Min 
 TQAX.f-kp               25.00:  Torque Abs Max 
 TRRT.°/30m               0.74:  Turn Rotating 
 MRT .                    HCIM:  Maximum Recorded Temperature 
 TTMX.degC               76.47:  Max Tool Temp 
 WBMN.klb                 0.00:  WOB Min 
 WITN.             Anar Khalil:  Customer Rep 
 WITN.      Kamran Keberlinski:  Customer Rep 2 
 WOBA.klb                 0.00:  WOB Avg 
 WOBX.klb                 0.00:  WOB Max 
 YP  .lhf2               27.00:  Yield Point 
~Curve Information Block
#MNEM.UNIT                 API CODE     Curve Description
#---------               -----------    ---------------------------
 TIME.HHMMSS            00 000 000 000:  GT Time & Date
 GTDEPTH.m              00 000 000 000:  GT Depth
 GTPQH.psia             00 000 000 000:  GT HR Quartz Pressure
 GTTQ.degC              00 000 000 000:  GT Quartz Temperature
 GTTN.NONE              00 000 000 000:  GT Test Number
 GTET.sec               00 000 000 000:  GT Elapsed Test Time
 GTTVD.m                00 000 000 000:  GT True Vertical Depth
#Other Information
#
#WARRANTY: Halliburton will use its best efforts to furnish customers with 
#accurate information and interpretations that are part of, and incident to, the services 
#provided.  However, Halliburton cannot and does not warrant the accuracy 
#or correctness of such information and interpretations.  Under no circumstances should any 
#such information or interpretation be relied upon as the sole basis for any drilling, 
#completion, production, or financial decision or any procedure involving any risk to the 
#safety of any drilling venture, drilling rig or its crew or any other third party.  The 
#Customer has full responsibility for all drilling, completion and production operation.  
#Halliburton makes no representations or warranties, either expressed or 
#implied, including, but not limited to, the implied warranties of merchantability or fitness 
#for a particular purpose, with respect to the services rendered.  In no event will 
#Halliburton be liable for failure to obtain any particular results or for 
#any damages, including, but not limited to, indirect, special or consequential damages, 
#resulting from the use of any information or interpretation provided by Halliburton.
#
~A           TIME           GTDEPTH  GTPQH  GTTQ  GTTN  GTET   GTTVD  
# ...
   21:42:22.372.19-May-2020 5137.01 6412.27 67.57 3.00  23.01 2705.05
   21:42:22.572.19-May-2020 5137.01 6412.27 67.57 3.00  23.21 2705.05
   21:42:22.772.19-May-2020 5137.01 6412.47 67.57 3.00  23.41 2705.05
   21:42:22.972.19-May-2020 5137.01 6410.60 67.57 3.00  23.61 2705.05
   21:42:23.172.19-May-2020 5137.01 6414.58 67.57 3.00  23.81 2705.05
   21:42:23.372.19-May-2020 5137.01 6412.64 67.57 3.00  24.01 2705.05
   21:42:23.572.19-May-2020 5137.01 6412.64 67.57 3.00  24.21 2705.05
   21:42:23.772.19-May-2020 5137.01 6414.46 67.57 3.00  24.41 2705.05
   21:42:23.972.19-May-2020 5137.01 6412.88 67.57 3.00  24.61 2705.05
   21:42:24.172.19-May-2020 5137.01 6417.91 67.57 3.00  24.81 2705.05
   21:42:24.372.19-May-2020 5137.01 6414.04 67.57 3.00  25.01 2705.05
   21:42:24.572.19-May-2020 5137.01 6414.04 67.57 3.00  25.21 2705.05
   21:42:24.772.19-May-2020 5137.01 6414.24 67.57 3.00  25.41 2705.05
   21:42:24.972.19-May-2020 5137.01 6415.91 67.57 3.00  25.61 2705.05
   21:42:25.172.19-May-2020 5137.01 6414.17 67.57 3.00  25.81 2705.05
   21:42:25.372.19-May-2020 5137.01 6415.01 67.57 3.00  26.01 2705.05
   21:42:25.573.19-May-2020 5137.01 6415.01 67.57 3.00  26.21 2705.05
   21:42:25.773.19-May-2020 5137.01 6415.71 67.57 3.00  26.41 2705.05
   21:42:25.973.19-May-2020 5137.01 6414.83 67.57 3.00  26.61 2705.05
   21:42:26.173.19-May-2020 5137.01 6415.43 67.57 3.00  26.81 2705.05
   21:42:26.373.19-May-2020 5137.01 6415.30 67.57 3.00  27.01 2705.05
   21:42:26.573.19-May-2020 5137.01 6415.30 67.57 3.00  27.21 2705.05
   21:42:26.773.19-May-2020 5137.01 6415.94 67.57 3.00  27.41 2705.05
   21:42:26.973.19-May-2020 5137.01 6415.84 67.57 3.00  27.61 2705.05
   21:42:27.173.19-May-2020 5137.01 6419.68 67.57 3.00  27.81 2705.05
   21:42:27.373.19-May-2020 5137.01 6416.40 67.57 3.00  28.01 2705.05
   21:42:27.573.19-May-2020 5137.01 6416.40 67.57 3.00  28.21 2705.05
   21:42:27.773.19-May-2020 5137.01 6419.03 67.57 3.00  28.41 2705.05
   21:42:27.973.19-May-2020 5137.01 6421.36 67.57 3.00  28.61 2705.05
   21:42:28.173.19-May-2020 5137.01 6418.80 67.57 3.00  28.81 2705.05
   21:42:28.373.19-May-2020 5137.01 6420.09 67.57 3.00  29.01 2705.05
   21:42:28.573.19-May-2020 5137.01 6420.09 67.57 3.00  29.21 2705.05
   21:42:28.773.19-May-2020 5137.01 6423.76 67.57 3.00  29.41 2705.05
   21:42:28.973.19-May-2020 5137.01 6419.92 67.57 3.00  29.61 2705.05
   21:42:29.173.19-May-2020 5137.01 6421.91 67.57 3.00  29.81 2705.05
   21:42:29.373.19-May-2020 5137.01 6421.80 67.57 3.00  30.01 2705.05
   21:42:29.574.19-May-2020 5137.01 6421.80 67.57 3.00  30.21 2705.05
   21:42:29.774.19-May-2020 5137.01 6421.85 67.57 3.00  30.41 2705.05
   21:42:29.974.19-May-2020 5137.01 6422.53 67.57 3.00  30.61 2705.05
   21:42:30.174.19-May-2020 5137.01 6422.92 67.57 3.00  30.81 2705.05
   21:42:30.374.19-May-2020 5137.01 6421.64 67.57 3.00  31.01 2705.05
   21:42:30.574.19-May-2020 5137.01 6421.64 67.57 3.00  31.21 2705.05
   21:42:30.774.19-May-2020 5137.01 6422.49 67.57 3.00  31.41 2705.05
   21:42:30.974.19-May-2020 5137.01 6423.73 67.57 3.00  31.61 2705.05
   21:42:31.174.19-May-2020 5137.01 6422.70 67.57 3.00  31.81 2705.05
   21:42:31.374.19-May-2020 5137.01 6424.47 67.57 3.00  32.01 2705.05
   21:42:31.574.19-May-2020 5137.01 6424.47 67.57 3.00  32.21 2705.05
   21:42:31.774.19-May-2020 5137.01 6423.58 67.57 3.00  32.41 2705.05
   21:42:31.974.19-May-2020 5137.01 6423.31 67.57 3.00  32.61 2705.05
   21:42:32.174.19-May-2020 5137.01 6424.36 67.57 3.00  32.81 2705.05
   21:42:32.374.19-May-2020 5137.01 6423.70 67.57 3.00  33.01 2705.05
   21:42:32.574.19-May-2020 5137.01 6423.70 67.57 3.00  33.21 2705.05
   21:42:32.774.19-May-2020 5137.01 6424.38 67.57 3.00  33.41 2705.05
   21:42:32.974.19-May-2020 5137.01 6423.87 67.57 3.00  33.61 2705.05
   21:42:33.174.19-May-2020 5137.01 6424.38 67.57 3.00  33.81 2705.05
   21:42:33.374.19-May-2020 5137.01 6424.17 67.57 3.00  34.01 2705.05
   21:42:33.575.19-May-2020 5137.01 6424.17 67.57 3.00  34.21 2705.05
   21:42:33.775.19-May-2020 5137.01 6424.63 67.57 3.00  34.41 2705.05
   21:42:33.975.19-May-2020 5137.01 6426.93 67.57 3.00  34.61 2705.05
   21:42:34.175.19-May-2020 5137.01 6425.25 67.57 3.00  34.81 2705.05
   21:42:34.375.19-May-2020 5137.01 6429.13 67.57 3.00  35.01 2705.05
   21:42:34.575.19-May-2020 5137.01 6429.13 67.57 3.00  35.21 2705.05
   21:42:34.775.19-May-2020 5137.01 6428.17 67.57 3.00  35.41 2705.05
   21:42:34.975.19-May-2020 5137.01 6427.62 67.56 3.00  35.61 2705.05
   21:42:35.175.19-May-2020 5137.01 6427.43 67.56 3.00  35.81 2705.05
   21:42:35.375.19-May-2020 5137.01 6431.04 67.56 3.00  36.01 2705.05
   21:42:35.575.19-May-2020 5137.01 6431.04 67.56 3.00  36.21 2705.05
   21:42:35.775.19-May-2020 5137.01 6430.17 67.56 3.00  36.41 2705.05
   21:42:35.975.19-May-2020 5137.01 6428.32 67.56 3.00  36.61 2705.05
   21:42:36.175.19-May-2020 5137.01 6434.13 67.56 3.00  36.81 2705.05
   21:42:36.375.19-May-2020 5137.01 6428.58 67.56 3.00  37.01 2705.05
   21:42:36.575.19-May-2020 5137.01 6428.58 67.56 3.00  37.21 2705.05
   21:42:36.775.19-May-2020 5137.01 6429.80 67.56 3.00  37.41 2705.05
   21:42:36.975.19-May-2020 5137.01 6431.63 67.56 3.00  37.61 2705.05
   21:42:37.175.19-May-2020 5137.01 6430.09 67.56 3.00  37.81 2705.05
   21:42:37.375.19-May-2020 5137.01 6433.79 67.56 3.00  38.01 2705.05
   21:42:37.576.19-May-2020 5137.01 6433.79 67.56 3.00  38.21 2705.05
   21:42:37.776.19-May-2020 5137.01 6432.78 67.56 3.00  38.41 2705.05
   21:42:37.976.19-May-2020 5137.01 6572.18 67.56 3.00  38.61 2705.05
   21:42:38.176.19-May-2020 5137.01 6756.04 67.56 3.00  38.81 2705.05
   21:42:38.376.19-May-2020 5137.01 6760.71 67.56 3.00  39.01 2705.05
   21:42:38.576.19-May-2020 5137.01 6760.71 67.56 3.00  39.21 2705.05
   21:42:38.776.19-May-2020 5137.01 6772.36 67.56 3.00  39.41 2705.05
   21:42:38.976.19-May-2020 5137.01 6781.05 67.56 3.00  39.61 2705.05
   21:42:39.176.19-May-2020 5137.01 6786.71 67.56 3.00  39.81 2705.05
   21:42:39.376.19-May-2020 5137.01 6786.46 67.56 3.00  40.01 2705.05
   21:42:39.576.19-May-2020 5137.01 6786.46 67.56 3.00  40.21 2705.05
   21:42:39.776.19-May-2020 5137.01 6820.96 67.56 3.00  40.41 2705.05
   21:42:39.976.19-May-2020 5137.01 6839.62 67.56 3.00  40.61 2705.05
   21:42:40.176.19-May-2020 5137.01 6836.04 67.56 3.00  40.81 2705.05
   21:42:40.376.19-May-2020 5137.01 6829.28 67.56 3.00  41.01 2705.05
   21:42:40.576.19-May-2020 5137.01 6812.12 67.56 3.00  41.21 2705.05
   21:42:40.776.19-May-2020 5137.01 6788.66 67.56 3.00  41.41 2705.05
   21:42:40.976.19-May-2020 5137.01 6756.92 67.57 3.00  41.61 2705.05
   21:42:41.176.19-May-2020 5137.01 6731.08 67.57 3.00  41.81 2705.05
   21:42:41.376.19-May-2020 5137.01 6704.01 67.57 3.00  42.01 2705.05
   21:42:41.577.19-May-2020 5137.01 6704.01 67.57 3.00  42.21 2705.05
   21:42:41.777.19-May-2020 5137.01 6655.83 67.57 3.00  42.41 2705.05
   21:42:41.977.19-May-2020 5137.01 6634.29 67.57 3.00  42.61 2705.05
   21:42:42.177.19-May-2020 5137.01 6615.11 67.57 3.00  42.81 2705.05
   21:42:42.377.19-May-2020 5137.01 6596.69 67.57 3.00  43.01 2705.05
   21:42:42.577.19-May-2020 5137.01 6578.70 67.57 3.00  43.21 2705.05
   21:42:42.777.19-May-2020 5137.01 6562.11 67.57 3.00  43.41 2705.05
   21:42:42.977.19-May-2020 5137.01 6548.61 67.57 3.00  43.61 2705.05
   21:42:43.177.19-May-2020 5137.01 6535.01 67.57 3.00  43.81 2705.05
   21:42:43.377.19-May-2020 5137.01 6525.56 67.57 3.00  44.01 2705.05
   21:42:43.577.19-May-2020 5137.01 6525.56 67.57 3.00  44.21 2705.05
   21:42:43.777.19-May-2020 5137.01 6505.94 67.57 3.00  44.41 2705.05
   21:42:43.977.19-May-2020 5137.01 6493.65 67.57 3.00  44.61 2705.05
   21:42:44.177.19-May-2020 5137.01 6487.61 67.57 3.00  44.81 2705.05
   21:42:44.377.19-May-2020 5137.01 6477.95 67.57 3.00  45.01 2705.05
   21:42:44.577.19-May-2020 5137.01 6477.95 67.57 3.00  45.21 2705.05
   21:42:44.777.19-May-2020 5137.01 6320.04 67.57 3.00  45.41 2705.05
   21:42:44.977.19-May-2020 5137.01 6008.76 67.57 3.00  45.61 2705.05
   21:42:45.177.19-May-2020 5137.01 5454.08 67.57 3.00  45.81 2705.05
