~Version Information
 VERS.                  2.0:   CWLS log ASCII Standard -VERSION 2.0
 WRAP.                   NO:   One line per depth step
~Well Information Block
#MNEM.UNIT     VALUE/NAME     DESCRIPTION
#---------     -----------    ---------------------------
 STRT.S             03:43:00 20-May-20: START TIME 03:43:00 20-May-20
 STOP.S             03:53:08 20-May-20: STOP TIME  03:53:08 20-May-20
 STEP.S                   0.00: STEP TIME
 NULL.                 -999.25: NULL VALUE
 MDS .        Operator Entered:  MAG DATA SOURCE
 PDAT.          Mean Sea Level:  PERMANENT DATUM
 UNIT.                     N/A:  LOGGING EQUIPMENT ID
 DCON.         Sperry Drilling:  DIRECTNL CONTR
 DOE .                     N/A:  DOE NUMBER
 RIG .              East Azeri:  RIG NAME
 JOBN.        AZ-XX-0905856059:  JOB TICKET NUMB
 WELL.                     D36:  WELL NAME
 MWDS.                    Baku:  MWD SHOP
 SRVC.     Turan Drilling & Engineering:  CONTRACTOR
 FLD .                     ACG:  FIELD NAME
 CTRY.              Azerbaijan:  COUNTRY NAME
 PROV.                    Baku:  PROVINCE
 STAT.                    Baku:  STATE NAME
 REGN.                   EESSA:  REGION
 BASE.              Azerbaijan:  LOGGING EQUIPMENT BASE LOCATION
 UWI .                     N/A:  UNIQUE WELL IDENTIFIER
 API .                     N/A:  API NUMBER
 COMP.     BP Exploration (Caspian Sea) Ltd.:  COMPANY
 WTYP.                Deviated:  WELL TYPE
 SON .        AZ-XX-0905856059:  JOB NUMBER
 FTOP.          Formation Tops:  FORM TOPS DESC
 ILTD.               Lithology:  INTERP LTH DESC
 SVYD.                  Survey:  SURVEY DESC
 DMOD.             Drill Model:  DRILL MOD DESC
 HPTY.       Minimum Curvature:  HOLE POS TYPE
 NREF.                    Grid:  NORTH REFERENCE
 SPUD.               25-Feb-20:  SPUD DATE
 DATE.      08.55.28 01-May-20:  END TIME
 STIM.      08.55.28 25-Feb-20:  START TIME
 DMF .             Drill Floor:  DRILL MEAS FROM
 DFST.                        :  DIST FSL TEXT
 DFWT.                        :  DIST FWL TEXT
 CNTY.                        :  COUNTY
 LOC .                        :  LOCATION
 LMF .             Drill Floor:  LOG MEASURED FROM
 VSNS.m                   6.09:  VERT SEC N/S
 VSEW.m                 -10.79:  VERT SEC E/W
 AGAP.m                  43.60:  AIR GAP
 DEP .m                 388.24:  DEPTH
 APD .m                  43.60:  DEPTH ABOVE PD
 WDMS.m                 151.80:  WD ELEV
 EGL .m                   0.00:  GROUND ELEVATION
 EPD .m                   0.00:  ELEVATION
 AZTC.deg                 6.12:  AZM TOTAL CORR
 GRDC.deg                 0.30:  GRID CORRECTION
 MDEC.deg                 6.42:  MAGNETIC DECL
 MDIP.deg                59.42:  MAGNETIC DIP
 MFLD.nT              50256.00:  MAGNETIC FIELD
 GVFD.g                   1.00:  GRAVITY FIELD
 VSDR.deg               159.57:  VERT SEC DIRECT
 TDD .m                5000.01:  TOTAL DEPTH (DRILLER)
 SDEP.m                 397.00:  START DEPTH
 DFSL.m                   0.00:  DISTANCE FSL
 DFWL.m                   0.00:  DISTANCE FWL
 UTMY.m             4431880.20:  UTM Y
 UTMX.m              538763.98:  UTM X
 WHEW.m                 -10.79:  WELL HEAD E/W
 WHNS.m                   6.09:  WELL HEAD N/S
 LONG.deg                51.45:  LONGITUDE
 LATI.deg                40.02:  LATITUDE
 TVDS.m                  43.60:  TVDSS CORRECTN
 EKB .m                  43.60:  KB ELEVATION
 EDF .m                  43.60:  DF ELEVATION
 MAGU.                 1847640:  MAGUTM CHECKSUM
 VSC .                       0:  VS TO CLOSURE
~Parameter Information Block
#MNEM.UNIT       Value        Description
#---------     -----------    ---------------------------
 AV  .mps                 1.30:  Ann Velocity 
 AVMX.mps                 1.90:  Max Ann Veloc 
 AZIF.deg               115.68:  Azm, Final 
 BHAT.                   Other:  BHA Type 
 BROT.°/30m               0.74:  Build Rotating 
 BS  .in                  8.50:  Bit Size 
 BTPL.psig              430.00:  Bit Press Loss 
 CABU.                      No:  Customer Abuse 
 COMM.                     ÌÍk:  Run Comments 1 
 TCS .hr                 51.31:  Time Ciculation Ended 
 CV  .mps                 2.52:  Crit Velocity 
 CVMX.mps                 2.62:  Max Crit Veloc 
 DD1 .          Teymur Aghayev:  Direct Drillr 1 
 DDSV.                   Other:  DD Service 
 DEFF.%                 100.00:  % Det Eff 
 DLRX.°/30m               1.62:  Dogleg Rot Max 
 DLSO.°/30m               0.74:  Dogleg Oriented 
 DLSX.°/30m               1.62:  Dogleg Str Max 
 DRET.      04.30.56 18-May-20:  Drill End Time 
 DRST.      04.30.56 18-May-20:  Drill Start Tim 
 DTIM.hr                  0.00:  Time Drilling 
 EDEP.m                5337.01:  End Depth 
 ENG1.      Artemiy Matviyanov:  Engineer 1 
 ENG2.      Bakhtiyar Jabbarli:  Engineer 2 
 ENG3.           Emil Huseynov:  Engineer 3 
 ETIM.      18.40.00 22-May-20:  End Time 
 FLOI.gpm               550.00:  Flow In 
 FLON.gpm               350.00:  Flow In Min 
 FLOS.cptm                0.00:  Fluid Loss 
 FLOX.gpm               600.00:  Flow In Max 
 HFLO.                      No:  High Flow 
 HPRE.                      No:  High Pressure 
 HTEM.                      No:  High Temp 
 HYDO.m                   1.80:  Hydro Offset 
 IFIN.deg                67.01:  Inc, Final 
 IMAX.deg                67.49:  Inc Max 
 IMIN.deg                66.50:  Inc Min 
 IMND.m                5144.79:  Inc Min Depth 
 IMXD.m                5116.12:  Inc Max Depth 
 JARR.                      No:  Jarring 
 LETM.      17.55.56 20-May-20:  Log End Time 
 LOST.hr                     0:  Lost Rig Time 
 LSTM.      04.30.56 18-May-20:  Log Start Time 
 MDCL.ppm            193153.00:  Mud Chlorides 
 MDES.     Inversion Oil/Synthetic:  Mud Desc 
 DFD .sg                  1.40:  Mud Density 
 MDMN.sg                  1.40:  Dens Mud Min 
 MDMX.sg                  1.41:  Dens Mud Max 
 MOIL.                      68:  Run Mud Oil % 
 MOWR.                   68:32:  Run Mud OWR 
 MSND.                     0.2:  Run Mud Sand % 
 MSOL.                    18.8:  Run Mud Solids% 
 DFV .spqt               80.00:  Mud Viscosity 
 MWOD.in                  6.75:  MWD Tool OD 
 MWSI.                      No:  Serv Intrp, MWD 
 OTIM.hr                104.84:  Time Operating 
 PMAX.psia            10690.93:  Press Op, Max 
 PV  .cP                 26.00:  Mud PV 
 RUN .                     900:  Run Number 
 ROPA.m/hr                0.00:  ROP Avg 
 ROPN.m/hr                0.00:  ROP Min 
 ROPX.m/hr                0.00:  ROP Max 
 RPMA.rpm               140.00:  RPM Surface Avg 
 RPMN.rpm                70.00:  RPM Surface Min 
 RPMX.rpm               140.00:  RPM Surface Max 
 RRUN.                    0900:  Rig Run Number 
 RTIM.hr                 36.00:  Time Reaming 
 SAZI.deg               115.72:  Azm, Start 
 SDEP.m                5337.01:  Start Depth 
 SIDD.                      No:  Serv Intrp, DD 
 SINC.deg                66.92:  Inc, Start 
 SPPA.psig             4400.00:  SPP Avg 
 SPPN.psig             1135.00:  SPP Min 
 SPPX.psig             4581.00:  SPP Max 
 STIM.      04.30.56 18-May-20:  Start Time 
 SVCS.                     MWD:  Services 
 SVER.                    9.20:  Sperry Version 
 TDAT.m                5337.01:  Tot Depth Attmp 
 TDDF.                      No:  Trip for DD 
 TFF .                      No:  Trip for Fail 
 TQAA.f-kp               23.00:  Torque Abs Avg 
 TQAN.f-kp               18.00:  Torque Abs Min 
 TQAX.f-kp               25.00:  Torque Abs Max 
 TRRT.°/30m               0.74:  Turn Rotating 
 MRT .                    HCIM:  Maximum Recorded Temperature 
 TTMX.degC               76.47:  Max Tool Temp 
 WBMN.klb                 0.00:  WOB Min 
 WITN.             Anar Khalil:  Customer Rep 
 WITN.      Kamran Keberlinski:  Customer Rep 2 
 WOBA.klb                 0.00:  WOB Avg 
 WOBX.klb                 0.00:  WOB Max 
 YP  .lhf2               27.00:  Yield Point 
~Curve Information Block
#MNEM.UNIT                 API CODE     Curve Description
#---------               -----------    ---------------------------
 TIME.HHMMSS            00 000 000 000:  GT Time & Date
 GTDEPTH.m              00 000 000 000:  GT Depth
 GTPQH.psia             00 000 000 000:  GT HR Quartz Pressure
 GTTQ.degC              00 000 000 000:  GT Quartz Temperature
 GTTN.NONE              00 000 000 000:  GT Test Number
 GTET.sec               00 000 000 000:  GT Elapsed Test Time
 GTTVD.m                00 000 000 000:  GT True Vertical Depth
#Other Information
#
#WARRANTY: Halliburton will use its best efforts to furnish customers with 
#accurate information and interpretations that are part of, and incident to, the services 
#provided.  However, Halliburton cannot and does not warrant the accuracy 
#or correctness of such information and interpretations.  Under no circumstances should any 
#such information or interpretation be relied upon as the sole basis for any drilling, 
#completion, production, or financial decision or any procedure involving any risk to the 
#safety of any drilling venture, drilling rig or its crew or any other third party.  The 
#Customer has full responsibility for all drilling, completion and production operation.  
#Halliburton makes no representations or warranties, either expressed or 
#implied, including, but not limited to, the implied warranties of merchantability or fitness 
#for a particular purpose, with respect to the services rendered.  In no event will 
#Halliburton be liable for failure to obtain any particular results or for 
#any damages, including, but not limited to, indirect, special or consequential damages, 
#resulting from the use of any information or interpretation provided by Halliburton.
#
~A           TIME           GTDEPTH  GTPQH  GTTQ  GTTN  GTET   GTTVD  
# ...
   03:49:32.007.20-May-2020 5064.01  604.96 68.95 8.00 391.11 2676.56
   03:49:32.207.20-May-2020 5064.01  604.96 68.95 8.00 391.31 2676.56
   03:49:32.407.20-May-2020 5064.01  605.68 68.95 8.00 391.51 2676.56
   03:49:32.607.20-May-2020 5064.01  606.14 68.95 8.00 391.71 2676.56
   03:49:32.807.20-May-2020 5064.01  606.07 68.95 8.00 391.91 2676.56
   03:49:33.007.20-May-2020 5064.01  606.67 68.95 8.00 392.11 2676.56
   03:49:33.207.20-May-2020 5064.01  606.67 68.95 8.00 392.31 2676.56
   03:49:33.407.20-May-2020 5064.01  607.27 68.95 8.00 392.51 2676.56
   03:49:33.607.20-May-2020 5064.01  607.40 68.95 8.00 392.71 2676.56
   03:49:33.807.20-May-2020 5064.01  607.95 68.95 8.00 392.91 2676.56
   03:49:34.007.20-May-2020 5064.01  608.16 68.95 8.00 393.11 2676.56
   03:49:34.207.20-May-2020 5064.01  608.16 68.95 8.00 393.31 2676.56
   03:49:34.407.20-May-2020 5064.01  606.65 68.95 8.00 393.51 2676.56
   03:49:34.607.20-May-2020 5064.01  603.62 68.95 8.00 393.71 2676.56
   03:49:34.807.20-May-2020 5064.01  602.09 68.95 8.00 393.91 2676.56
   03:49:35.007.20-May-2020 5064.01  600.81 68.95 8.00 394.11 2676.56
   03:49:35.208.20-May-2020 5064.01  600.81 68.95 8.00 394.31 2676.56
   03:49:35.408.20-May-2020 5064.01  599.41 68.95 8.00 394.51 2676.56
   03:49:35.608.20-May-2020 5064.01  598.88 68.95 8.00 394.71 2676.56
   03:49:35.808.20-May-2020 5064.01  597.98 68.95 8.00 394.91 2676.56
   03:49:36.008.20-May-2020 5064.01  596.55 68.95 8.00 395.11 2676.56
   03:49:36.208.20-May-2020 5064.01  596.55 68.95 8.00 395.31 2676.56
   03:49:36.408.20-May-2020 5064.01  592.71 68.95 8.00 395.51 2676.56
   03:49:36.608.20-May-2020 5064.01  578.72 68.95 8.00 395.71 2676.56
   03:49:36.808.20-May-2020 5064.01  544.76 68.95 8.00 395.91 2676.56
   03:49:37.008.20-May-2020 5064.01  504.65 68.95 8.00 396.11 2676.56
   03:49:37.208.20-May-2020 5064.01  504.65 68.95 8.00 396.31 2676.56
   03:49:37.408.20-May-2020 5064.01  421.01 68.95 8.00 396.51 2676.56
   03:49:37.608.20-May-2020 5064.01  405.98 68.95 8.00 396.71 2676.56
   03:49:37.808.20-May-2020 5064.01  399.22 68.95 8.00 396.91 2676.56
   03:49:38.008.20-May-2020 5064.01  394.42 68.95 8.00 397.11 2676.56
   03:49:38.208.20-May-2020 5064.01  388.70 68.95 8.00 397.31 2676.56
   03:49:38.408.20-May-2020 5064.01  383.01 68.95 8.00 397.51 2676.56
   03:49:38.608.20-May-2020 5064.01  376.97 68.95 8.00 397.71 2676.56
   03:49:38.809.20-May-2020 5064.01  375.71 68.95 8.00 397.91 2676.56
   03:49:39.009.20-May-2020 5064.01  375.82 68.95 8.00 398.11 2676.56
   03:49:39.209.20-May-2020 5064.01  375.82 68.95 8.00 398.31 2676.56
   03:49:39.409.20-May-2020 5064.01  376.68 68.95 8.00 398.51 2676.56
   03:49:39.609.20-May-2020 5064.01  376.96 68.95 8.00 398.71 2676.56
   03:49:39.809.20-May-2020 5064.01  377.28 68.95 8.00 398.91 2676.56
   03:49:40.009.20-May-2020 5064.01  377.90 68.95 8.00 399.11 2676.56
   03:49:40.209.20-May-2020 5064.01  377.90 68.95 8.00 399.31 2676.56
   03:49:40.409.20-May-2020 5064.01  377.71 68.94 8.00 399.51 2676.56
   03:49:40.609.20-May-2020 5064.01  377.54 68.94 8.00 399.71 2676.56
   03:49:40.809.20-May-2020 5064.01  377.81 68.94 8.00 399.91 2676.56
   03:49:41.009.20-May-2020 5064.01  378.14 68.94 8.00 400.11 2676.56
   03:49:41.209.20-May-2020 5064.01  378.14 68.94 8.00 400.31 2676.56
   03:49:41.409.20-May-2020 5064.01  378.28 68.94 8.00 400.51 2676.56
   03:49:41.609.20-May-2020 5064.01  378.53 68.94 8.00 400.71 2676.56
   03:49:41.809.20-May-2020 5064.01  378.65 68.94 8.00 400.91 2676.56
   03:49:42.009.20-May-2020 5064.01  378.99 68.94 8.00 401.11 2676.56
   03:49:42.210.20-May-2020 5064.01  379.70 68.94 8.00 401.31 2676.56
   03:49:42.410.20-May-2020 5064.01  380.02 68.94 8.00 401.51 2676.56
   03:49:42.610.20-May-2020 5064.01  379.97 68.94 8.00 401.71 2676.56
   03:49:42.810.20-May-2020 5064.01  380.10 68.94 8.00 401.91 2676.56
   03:49:43.010.20-May-2020 5064.01  380.33 68.94 8.00 402.11 2676.56
   03:49:43.210.20-May-2020 5064.01  380.33 68.94 8.00 402.31 2676.56
   03:49:43.410.20-May-2020 5064.01  381.10 68.94 8.00 402.51 2676.56
   03:49:43.610.20-May-2020 5064.01  381.37 68.94 8.00 402.71 2676.56
   03:49:43.810.20-May-2020 5064.01  381.55 68.94 8.00 402.91 2676.56
   03:49:44.010.20-May-2020 5064.01  381.22 68.94 8.00 403.11 2676.56
   03:49:44.210.20-May-2020 5064.01  381.22 68.94 8.00 403.31 2676.56
   03:49:44.410.20-May-2020 5064.01  381.49 68.94 8.00 403.51 2676.56
   03:49:44.610.20-May-2020 5064.01  381.84 68.94 8.00 403.71 2676.56
   03:49:44.810.20-May-2020 5064.01  382.11 68.94 8.00 403.91 2676.56
   03:49:45.010.20-May-2020 5064.01  382.38 68.94 8.00 404.11 2676.56
   03:49:45.210.20-May-2020 5064.01  382.79 68.94 8.00 404.31 2676.56
   03:49:45.410.20-May-2020 5064.01  383.12 68.94 8.00 404.51 2676.56
   03:49:45.610.20-May-2020 5064.01  382.93 68.94 8.00 404.71 2676.56
   03:49:45.811.20-May-2020 5064.01  383.15 68.94 8.00 404.91 2676.56
   03:49:46.011.20-May-2020 5064.01  383.47 68.94 8.00 405.11 2676.56
   03:49:46.211.20-May-2020 5064.01  383.47 68.94 8.00 405.31 2676.56
   03:49:46.411.20-May-2020 5064.01  384.20 68.94 8.00 405.51 2676.56
   03:49:46.611.20-May-2020 5064.01  384.20 68.94 8.00 405.71 2676.56
   03:49:46.811.20-May-2020 5064.01  384.59 68.94 8.00 405.91 2676.56
   03:49:47.011.20-May-2020 5064.01  385.11 68.94 8.00 406.11 2676.56
   03:49:47.211.20-May-2020 5064.01  385.11 68.94 8.00 406.31 2676.56
   03:49:47.411.20-May-2020 5064.01  385.51 68.94 8.00 406.51 2676.56
   03:49:47.611.20-May-2020 5064.01  385.84 68.94 8.00 406.72 2676.56
   03:49:47.811.20-May-2020 5064.01  385.91 68.94 8.00 406.92 2676.56
   03:49:48.011.20-May-2020 5064.01  386.30 68.94 8.00 407.12 2676.56
   03:49:48.211.20-May-2020 5064.01  386.30 68.94 8.00 407.32 2676.56
   03:49:48.411.20-May-2020 5064.01  386.57 68.94 8.00 407.52 2676.56
   03:49:48.611.20-May-2020 5064.01  386.69 68.94 8.00 407.72 2676.56
   03:49:48.811.20-May-2020 5064.01  386.88 68.94 8.00 407.92 2676.56
   03:49:49.011.20-May-2020 5064.01  387.15 68.94 8.00 408.12 2676.56
   03:49:49.211.20-May-2020 5064.01  387.15 68.94 8.00 408.32 2676.56
   03:49:49.412.20-May-2020 5064.01  386.55 68.94 8.00 408.52 2676.56
   03:49:49.612.20-May-2020 5064.01  386.78 68.94 8.00 408.72 2676.56
   03:49:49.812.20-May-2020 5064.01  387.26 68.94 8.00 408.92 2676.56
   03:49:50.012.20-May-2020 5064.01  387.80 68.94 8.00 409.12 2676.56
   03:49:50.212.20-May-2020 5064.01  388.08 68.94 8.00 409.32 2676.56
   03:49:50.412.20-May-2020 5064.01  388.43 68.94 8.00 409.52 2676.56
   03:49:50.612.20-May-2020 5064.01  388.85 68.94 8.00 409.72 2676.56
   03:49:50.812.20-May-2020 5064.01  389.28 68.94 8.00 409.92 2676.56
   03:49:51.012.20-May-2020 5064.01  389.65 68.94 8.00 410.12 2676.56
   03:49:51.212.20-May-2020 5064.01  389.65 68.94 8.00 410.32 2676.56
   03:49:51.412.20-May-2020 5064.01  390.40 68.94 8.00 410.52 2676.56
   03:49:51.612.20-May-2020 5064.01  390.72 68.94 8.00 410.72 2676.56
   03:49:51.812.20-May-2020 5064.01  391.01 68.94 8.00 410.92 2676.56
   03:49:52.012.20-May-2020 5064.01  391.41 68.94 8.00 411.12 2676.56
   03:49:52.212.20-May-2020 5064.01  391.36 68.94 8.00 411.32 2676.56
   03:49:52.412.20-May-2020 5064.01  391.42 68.94 8.00 411.52 2676.56
   03:49:52.612.20-May-2020 5064.01  391.61 68.94 8.00 411.72 2676.56
   03:49:52.813.20-May-2020 5064.01  391.93 68.94 8.00 411.92 2676.56
   03:49:53.013.20-May-2020 5064.01  391.76 68.94 8.00 412.12 2676.56
   03:49:53.213.20-May-2020 5064.01  391.81 68.94 8.00 412.32 2676.56
   03:49:53.413.20-May-2020 5064.01  391.96 68.94 8.00 412.52 2676.56
   03:49:53.613.20-May-2020 5064.01  392.22 68.94 8.00 412.72 2676.56
   03:49:53.813.20-May-2020 5064.01  392.37 68.94 8.00 412.92 2676.56
   03:49:54.013.20-May-2020 5064.01  392.19 68.94 8.00 413.12 2676.56
   03:49:54.213.20-May-2020 5064.01  392.14 68.94 8.00 413.32 2676.56
   03:49:54.413.20-May-2020 5064.01  392.46 68.94 8.00 413.52 2676.56
   03:49:54.613.20-May-2020 5064.01  392.78 68.94 8.00 413.72 2676.56
   03:49:54.813.20-May-2020 5064.01  392.98 68.94 8.00 413.92 2676.56
