~Version Information
 VERS.                  2.0:   CWLS log ASCII Standard -VERSION 2.0
 WRAP.                   NO:   One line per depth step
~Well Information Block
#MNEM.UNIT     VALUE/NAME     DESCRIPTION
#---------     -----------    ---------------------------
 STRT.S             17:37:07 19-May-20: START TIME 17:37:07 19-May-20
 STOP.S             17:43:47 19-May-20: STOP TIME  17:43:47 19-May-20
 STEP.S                   0.00: STEP TIME
 NULL.                 -999.25: NULL VALUE
 MDS .        Operator Entered:  MAG DATA SOURCE
 PDAT.          Mean Sea Level:  PERMANENT DATUM
 UNIT.                     N/A:  LOGGING EQUIPMENT ID
 DCON.         Sperry Drilling:  DIRECTNL CONTR
 DOE .                     N/A:  DOE NUMBER
 RIG .              East Azeri:  RIG NAME
 JOBN.        AZ-XX-0905856059:  JOB TICKET NUMB
 WELL.                     D36:  WELL NAME
 MWDS.                    Baku:  MWD SHOP
 SRVC.     Turan Drilling & Engineering:  CONTRACTOR
 FLD .                     ACG:  FIELD NAME
 CTRY.              Azerbaijan:  COUNTRY NAME
 PROV.                    Baku:  PROVINCE
 STAT.                    Baku:  STATE NAME
 REGN.                   EESSA:  REGION
 BASE.              Azerbaijan:  LOGGING EQUIPMENT BASE LOCATION
 UWI .                     N/A:  UNIQUE WELL IDENTIFIER
 API .                     N/A:  API NUMBER
 COMP.     BP Exploration (Caspian Sea) Ltd.:  COMPANY
 WTYP.                Deviated:  WELL TYPE
 SON .        AZ-XX-0905856059:  JOB NUMBER
 FTOP.          Formation Tops:  FORM TOPS DESC
 ILTD.               Lithology:  INTERP LTH DESC
 SVYD.                  Survey:  SURVEY DESC
 DMOD.             Drill Model:  DRILL MOD DESC
 HPTY.       Minimum Curvature:  HOLE POS TYPE
 NREF.                    Grid:  NORTH REFERENCE
 SPUD.               25-Feb-20:  SPUD DATE
 DATE.      08.55.28 01-May-20:  END TIME
 STIM.      08.55.28 25-Feb-20:  START TIME
 DMF .             Drill Floor:  DRILL MEAS FROM
 DFST.                        :  DIST FSL TEXT
 DFWT.                        :  DIST FWL TEXT
 CNTY.                        :  COUNTY
 LOC .                        :  LOCATION
 LMF .             Drill Floor:  LOG MEASURED FROM
 VSNS.m                   6.09:  VERT SEC N/S
 VSEW.m                 -10.79:  VERT SEC E/W
 AGAP.m                  43.60:  AIR GAP
 DEP .m                 388.24:  DEPTH
 APD .m                  43.60:  DEPTH ABOVE PD
 WDMS.m                 151.80:  WD ELEV
 EGL .m                   0.00:  GROUND ELEVATION
 EPD .m                   0.00:  ELEVATION
 AZTC.deg                 6.12:  AZM TOTAL CORR
 GRDC.deg                 0.30:  GRID CORRECTION
 MDEC.deg                 6.42:  MAGNETIC DECL
 MDIP.deg                59.42:  MAGNETIC DIP
 MFLD.nT              50256.00:  MAGNETIC FIELD
 GVFD.g                   1.00:  GRAVITY FIELD
 VSDR.deg               159.57:  VERT SEC DIRECT
 TDD .m                5000.01:  TOTAL DEPTH (DRILLER)
 SDEP.m                 397.00:  START DEPTH
 DFSL.m                   0.00:  DISTANCE FSL
 DFWL.m                   0.00:  DISTANCE FWL
 UTMY.m             4431880.20:  UTM Y
 UTMX.m              538763.98:  UTM X
 WHEW.m                 -10.79:  WELL HEAD E/W
 WHNS.m                   6.09:  WELL HEAD N/S
 LONG.deg                51.45:  LONGITUDE
 LATI.deg                40.02:  LATITUDE
 TVDS.m                  43.60:  TVDSS CORRECTN
 EKB .m                  43.60:  KB ELEVATION
 EDF .m                  43.60:  DF ELEVATION
 MAGU.                 1847640:  MAGUTM CHECKSUM
 VSC .                       0:  VS TO CLOSURE
~Parameter Information Block
#MNEM.UNIT       Value        Description
#---------     -----------    ---------------------------
 AV  .mps                 1.30:  Ann Velocity 
 AVMX.mps                 1.90:  Max Ann Veloc 
 AZIF.deg               115.68:  Azm, Final 
 BHAT.                   Other:  BHA Type 
 BROT.°/30m               0.74:  Build Rotating 
 BS  .in                  8.50:  Bit Size 
 BTPL.psig              430.00:  Bit Press Loss 
 CABU.                      No:  Customer Abuse 
 COMM.                     t9l:  Run Comments 1 
 TCS .hr                 51.31:  Time Ciculation Ended 
 CV  .mps                 2.52:  Crit Velocity 
 CVMX.mps                 2.62:  Max Crit Veloc 
 DD1 .          Teymur Aghayev:  Direct Drillr 1 
 DDSV.                   Other:  DD Service 
 DEFF.%                 100.00:  % Det Eff 
 DLRX.°/30m               1.62:  Dogleg Rot Max 
 DLSO.°/30m               0.74:  Dogleg Oriented 
 DLSX.°/30m               1.62:  Dogleg Str Max 
 DRET.      04.30.56 18-May-20:  Drill End Time 
 DRST.      04.30.56 18-May-20:  Drill Start Tim 
 DTIM.hr                  0.00:  Time Drilling 
 EDEP.m                5337.01:  End Depth 
 ENG1.      Artemiy Matviyanov:  Engineer 1 
 ENG2.      Bakhtiyar Jabbarli:  Engineer 2 
 ENG3.           Emil Huseynov:  Engineer 3 
 ETIM.      18.40.00 22-May-20:  End Time 
 FLOI.gpm               550.00:  Flow In 
 FLON.gpm               350.00:  Flow In Min 
 FLOS.cptm                0.00:  Fluid Loss 
 FLOX.gpm               600.00:  Flow In Max 
 HFLO.                      No:  High Flow 
 HPRE.                      No:  High Pressure 
 HTEM.                      No:  High Temp 
 HYDO.m                   1.80:  Hydro Offset 
 IFIN.deg                67.01:  Inc, Final 
 IMAX.deg                67.49:  Inc Max 
 IMIN.deg                66.50:  Inc Min 
 IMND.m                5144.79:  Inc Min Depth 
 IMXD.m                5116.12:  Inc Max Depth 
 JARR.                      No:  Jarring 
 LETM.      17.55.56 20-May-20:  Log End Time 
 LOST.hr                     0:  Lost Rig Time 
 LSTM.      04.30.56 18-May-20:  Log Start Time 
 MDCL.ppm            193153.00:  Mud Chlorides 
 MDES.     Inversion Oil/Synthetic:  Mud Desc 
 DFD .sg                  1.40:  Mud Density 
 MDMN.sg                  1.40:  Dens Mud Min 
 MDMX.sg                  1.41:  Dens Mud Max 
 MOIL.                      68:  Run Mud Oil % 
 MOWR.                   68:32:  Run Mud OWR 
 MSND.                     0.2:  Run Mud Sand % 
 MSOL.                    18.8:  Run Mud Solids% 
 DFV .spqt               80.00:  Mud Viscosity 
 MWOD.in                  6.75:  MWD Tool OD 
 MWSI.                      No:  Serv Intrp, MWD 
 OTIM.hr                104.84:  Time Operating 
 PMAX.psia            10690.93:  Press Op, Max 
 PV  .cP                 26.00:  Mud PV 
 RUN .                     900:  Run Number 
 ROPA.m/hr                0.00:  ROP Avg 
 ROPN.m/hr                0.00:  ROP Min 
 ROPX.m/hr                0.00:  ROP Max 
 RPMA.rpm               140.00:  RPM Surface Avg 
 RPMN.rpm                70.00:  RPM Surface Min 
 RPMX.rpm               140.00:  RPM Surface Max 
 RRUN.                    0900:  Rig Run Number 
 RTIM.hr                 36.00:  Time Reaming 
 SAZI.deg               115.72:  Azm, Start 
 SDEP.m                5337.01:  Start Depth 
 SIDD.                      No:  Serv Intrp, DD 
 SINC.deg                66.92:  Inc, Start 
 SPPA.psig             4400.00:  SPP Avg 
 SPPN.psig             1135.00:  SPP Min 
 SPPX.psig             4581.00:  SPP Max 
 STIM.      04.30.56 18-May-20:  Start Time 
 SVCS.                     MWD:  Services 
 SVER.                    9.20:  Sperry Version 
 TDAT.m                5337.01:  Tot Depth Attmp 
 TDDF.                      No:  Trip for DD 
 TFF .                      No:  Trip for Fail 
 TQAA.f-kp               23.00:  Torque Abs Avg 
 TQAN.f-kp               18.00:  Torque Abs Min 
 TQAX.f-kp               25.00:  Torque Abs Max 
 TRRT.°/30m               0.74:  Turn Rotating 
 MRT .                    HCIM:  Maximum Recorded Temperature 
 TTMX.degC               76.47:  Max Tool Temp 
 WBMN.klb                 0.00:  WOB Min 
 WITN.             Anar Khalil:  Customer Rep 
 WITN.      Kamran Keberlinski:  Customer Rep 2 
 WOBA.klb                 0.00:  WOB Avg 
 WOBX.klb                 0.00:  WOB Max 
 YP  .lhf2               27.00:  Yield Point 
~Curve Information Block
#MNEM.UNIT                 API CODE     Curve Description
#---------               -----------    ---------------------------
 TIME.HHMMSS            00 000 000 000:  GT Time & Date
 GTDEPTH.m              00 000 000 000:  GT Depth
 GTPQH.psia             00 000 000 000:  GT HR Quartz Pressure
 GTTQ.degC              00 000 000 000:  GT Quartz Temperature
 GTTN.NONE              00 000 000 000:  GT Test Number
 GTET.sec               00 000 000 000:  GT Elapsed Test Time
 GTTVD.m                00 000 000 000:  GT True Vertical Depth
#Other Information
#
#WARRANTY: Halliburton will use its best efforts to furnish customers with 
#accurate information and interpretations that are part of, and incident to, the services 
#provided.  However, Halliburton cannot and does not warrant the accuracy 
#or correctness of such information and interpretations.  Under no circumstances should any 
#such information or interpretation be relied upon as the sole basis for any drilling, 
#completion, production, or financial decision or any procedure involving any risk to the 
#safety of any drilling venture, drilling rig or its crew or any other third party.  The 
#Customer has full responsibility for all drilling, completion and production operation.  
#Halliburton makes no representations or warranties, either expressed or 
#implied, including, but not limited to, the implied warranties of merchantability or fitness 
#for a particular purpose, with respect to the services rendered.  In no event will 
#Halliburton be liable for failure to obtain any particular results or for 
#any damages, including, but not limited to, indirect, special or consequential damages, 
#resulting from the use of any information or interpretation provided by Halliburton.
#
~A           TIME           GTDEPTH  GTPQH  GTTQ  GTTN  GTET   GTTVD  
# ...
   17:37:30.128.19-May-2020 5195.01 6544.82 67.07 2.00  23.00 2727.85
   17:37:30.328.19-May-2020 5195.01 6544.82 67.07 2.00  23.20 2727.85
   17:37:30.528.19-May-2020 5195.01 6544.67 67.07 2.00  23.40 2727.85
   17:37:30.728.19-May-2020 5195.01 6544.62 67.07 2.00  23.60 2727.85
   17:37:30.928.19-May-2020 5195.01 6545.15 67.07 2.00  23.80 2727.85
   17:37:31.128.19-May-2020 5195.01 6545.20 67.07 2.00  24.00 2727.85
   17:37:31.328.19-May-2020 5195.01 6545.20 67.07 2.00  24.20 2727.85
   17:37:31.528.19-May-2020 5195.01 6545.27 67.07 2.00  24.40 2727.85
   17:37:31.728.19-May-2020 5195.01 6546.35 67.07 2.00  24.60 2727.85
   17:37:31.928.19-May-2020 5195.01 6546.45 67.07 2.00  24.80 2727.85
   17:37:32.128.19-May-2020 5195.01 6546.64 67.07 2.00  25.00 2727.85
   17:37:32.328.19-May-2020 5195.01 6546.82 67.07 2.00  25.20 2727.85
   17:37:32.528.19-May-2020 5195.01 6548.68 67.07 2.00  25.40 2727.85
   17:37:32.728.19-May-2020 5195.01 6550.11 67.07 2.00  25.60 2727.85
   17:37:32.928.19-May-2020 5195.01 6550.76 67.07 2.00  25.80 2727.85
   17:37:33.128.19-May-2020 5195.01 6549.24 67.07 2.00  26.00 2727.85
   17:37:33.328.19-May-2020 5195.01 6549.24 67.07 2.00  26.20 2727.85
   17:37:33.528.19-May-2020 5195.01 6555.17 67.07 2.00  26.40 2727.85
   17:37:33.728.19-May-2020 5195.01 6548.83 67.07 2.00  26.60 2727.85
   17:37:33.928.19-May-2020 5195.01 6553.46 67.07 2.00  26.80 2727.85
   17:37:34.128.19-May-2020 5195.01 6552.52 67.07 2.00  27.00 2727.85
   17:37:34.328.19-May-2020 5195.01 6552.52 67.07 2.00  27.20 2727.85
   17:37:34.528.19-May-2020 5195.01 6555.39 67.07 2.00  27.40 2727.85
   17:37:34.728.19-May-2020 5195.01 6552.29 67.07 2.00  27.60 2727.85
   17:37:34.928.19-May-2020 5195.01 6554.67 67.07 2.00  27.80 2727.85
   17:37:35.129.19-May-2020 5195.01 6553.32 67.07 2.00  28.00 2727.85
   17:37:35.329.19-May-2020 5195.01 6553.32 67.07 2.00  28.20 2727.85
   17:37:35.529.19-May-2020 5195.01 6553.59 67.07 2.00  28.40 2727.85
   17:37:35.729.19-May-2020 5195.01 6557.05 67.07 2.00  28.60 2727.85
   17:37:35.929.19-May-2020 5195.01 6555.01 67.07 2.00  28.80 2727.85
   17:37:36.129.19-May-2020 5195.01 6554.89 67.07 2.00  29.00 2727.85
   17:37:36.329.19-May-2020 5195.01 6558.63 67.07 2.00  29.20 2727.85
   17:37:36.529.19-May-2020 5195.01 6554.70 67.07 2.00  29.40 2727.85
   17:37:36.729.19-May-2020 5195.01 6557.64 67.07 2.00  29.60 2727.85
   17:37:36.929.19-May-2020 5195.01 6556.45 67.07 2.00  29.80 2727.85
   17:37:37.129.19-May-2020 5195.01 6555.72 67.07 2.00  30.00 2727.85
   17:37:37.329.19-May-2020 5195.01 6555.72 67.07 2.00  30.20 2727.85
   17:37:37.529.19-May-2020 5195.01 6555.71 67.07 2.00  30.40 2727.85
   17:37:37.729.19-May-2020 5195.01 6555.74 67.07 2.00  30.60 2727.85
   17:37:37.929.19-May-2020 5195.01 6556.03 67.07 2.00  30.80 2727.85
   17:37:38.129.19-May-2020 5195.01 6556.49 67.07 2.00  31.00 2727.85
   17:37:38.329.19-May-2020 5195.01 6556.49 67.07 2.00  31.20 2727.85
   17:37:38.529.19-May-2020 5195.01 6556.69 67.07 2.00  31.40 2727.85
   17:37:38.729.19-May-2020 5195.01 6556.76 67.07 2.00  31.60 2727.85
   17:37:38.929.19-May-2020 5195.01 6556.54 67.07 2.00  31.80 2727.85
   17:37:39.129.19-May-2020 5195.01 6556.96 67.07 2.00  32.00 2727.85
   17:37:39.329.19-May-2020 5195.01 6556.96 67.07 2.00  32.20 2727.85
   17:37:39.529.19-May-2020 5195.01 6560.33 67.07 2.00  32.40 2727.85
   17:37:39.729.19-May-2020 5195.01 6560.64 67.07 2.00  32.60 2727.85
   17:37:39.929.19-May-2020 5195.01 6558.97 67.07 2.00  32.80 2727.85
   17:37:40.129.19-May-2020 5195.01 6559.37 67.07 2.00  33.00 2727.85
   17:37:40.329.19-May-2020 5195.01 6559.37 67.07 2.00  33.20 2727.85
   17:37:40.529.19-May-2020 5195.01 6558.80 67.07 2.00  33.40 2727.85
   17:37:40.729.19-May-2020 5195.01 6569.02 67.07 2.00  33.60 2727.85
   17:37:40.929.19-May-2020 5195.01 6563.64 67.07 2.00  33.80 2727.85
   17:37:41.129.19-May-2020 5195.01 6560.24 67.07 2.00  34.00 2727.85
   17:37:41.329.19-May-2020 5195.01 6560.24 67.07 2.00  34.20 2727.85
   17:37:41.529.19-May-2020 5195.01 6564.44 67.07 2.00  34.40 2727.85
   17:37:41.729.19-May-2020 5195.01 6563.59 67.07 2.00  34.60 2727.85
   17:37:41.929.19-May-2020 5195.01 6561.67 67.07 2.00  34.80 2727.85
   17:37:42.129.19-May-2020 5195.01 6562.01 67.07 2.00  35.00 2727.85
   17:37:42.329.19-May-2020 5195.01 6562.01 67.07 2.00  35.20 2727.85
   17:37:42.529.19-May-2020 5195.01 6564.51 67.07 2.00  35.40 2727.85
   17:37:42.729.19-May-2020 5195.01 6567.68 67.07 2.00  35.60 2727.85
   17:37:42.929.19-May-2020 5195.01 6566.40 67.07 2.00  35.80 2727.85
   17:37:43.129.19-May-2020 5195.01 6566.44 67.07 2.00  36.00 2727.85
   17:37:43.330.19-May-2020 5195.01 6566.44 67.07 2.00  36.20 2727.85
   17:37:43.530.19-May-2020 5195.01 6571.90 67.07 2.00  36.40 2727.85
   17:37:43.730.19-May-2020 5195.01 6573.69 67.07 2.00  36.60 2727.85
   17:37:43.930.19-May-2020 5195.01 6577.07 67.07 2.00  36.80 2727.85
   17:37:44.130.19-May-2020 5195.01 6578.23 67.07 2.00  37.00 2727.85
   17:37:44.330.19-May-2020 5195.01 6581.31 67.07 2.00  37.20 2727.85
   17:37:44.530.19-May-2020 5195.01 6587.54 67.07 2.00  37.40 2727.85
   17:37:44.730.19-May-2020 5195.01 6592.49 67.07 2.00  37.60 2727.85
   17:37:44.930.19-May-2020 5195.01 6601.55 67.07 2.00  37.80 2727.85
   17:37:45.130.19-May-2020 5195.01 6609.62 67.07 2.00  38.00 2727.85
   17:37:45.330.19-May-2020 5195.01 6609.62 67.07 2.00  38.20 2727.85
   17:37:45.530.19-May-2020 5195.01 6624.74 67.07 2.00  38.40 2727.85
   17:37:45.730.19-May-2020 5195.01 6631.14 67.07 2.00  38.60 2727.85
   17:37:45.930.19-May-2020 5195.01 6634.20 67.07 2.00  38.80 2727.85
   17:37:46.130.19-May-2020 5195.01 6636.89 67.07 2.00  39.00 2727.85
   17:37:46.330.19-May-2020 5195.01 6636.89 67.07 2.00  39.20 2727.85
   17:37:46.530.19-May-2020 5195.01 6643.41 67.07 2.00  39.40 2727.85
   17:37:46.730.19-May-2020 5195.01 6645.43 67.07 2.00  39.60 2727.85
   17:37:46.930.19-May-2020 5195.01 6645.96 67.07 2.00  39.80 2727.85
   17:37:47.130.19-May-2020 5195.01 6646.55 67.07 2.00  40.00 2727.85
   17:37:47.330.19-May-2020 5195.01 6646.55 67.07 2.00  40.20 2727.85
   17:37:47.530.19-May-2020 5195.01 6644.47 67.07 2.00  40.40 2727.85
   17:37:47.730.19-May-2020 5195.01 6643.19 67.07 2.00  40.60 2727.85
   17:37:47.930.19-May-2020 5195.01 6641.63 67.07 2.00  40.80 2727.85
   17:37:48.130.19-May-2020 5195.01 6639.85 67.07 2.00  41.00 2727.85
   17:37:48.330.19-May-2020 5195.01 6639.85 67.07 2.00  41.21 2727.85
   17:37:48.530.19-May-2020 5195.01 6634.63 67.07 2.00  41.41 2727.85
   17:37:48.730.19-May-2020 5195.01 6631.03 67.07 2.00  41.61 2727.85
   17:37:48.930.19-May-2020 5195.01 6626.27 67.07 2.00  41.81 2727.85
   17:37:49.130.19-May-2020 5195.01 6621.42 67.07 2.00  42.01 2727.85
   17:37:49.330.19-May-2020 5195.01 6621.42 67.07 2.00  42.21 2727.85
   17:37:49.530.19-May-2020 5195.01 6609.98 67.07 2.00  42.41 2727.85
   17:37:49.730.19-May-2020 5195.01 6541.99 67.07 2.00  42.61 2727.85
   17:37:49.930.19-May-2020 5195.01 6216.51 67.07 2.00  42.81 2727.85
   17:37:50.130.19-May-2020 5195.01 5601.43 67.07 2.00  43.01 2727.85
   17:37:50.330.19-May-2020 5195.01 5601.43 67.07 2.00  43.21 2727.85
   17:37:50.530.19-May-2020 5195.01 4192.01 67.07 2.00  43.41 2727.85
   17:37:50.730.19-May-2020 5195.01 3594.78 67.07 2.00  43.61 2727.85
   17:37:50.930.19-May-2020 5195.01 3295.60 67.07 2.00  43.81 2727.85
   17:37:51.130.19-May-2020 5195.01 3136.94 67.07 2.00  44.01 2727.85
   17:37:51.330.19-May-2020 5195.01 3136.94 67.07 2.00  44.21 2727.85
   17:37:51.530.19-May-2020 5195.01 3064.70 67.07 2.00  44.41 2727.85
   17:37:51.731.19-May-2020 5195.01 3051.01 67.06 2.00  44.61 2727.85
   17:37:51.931.19-May-2020 5195.01 3039.77 67.06 2.00  44.81 2727.85
   17:37:52.131.19-May-2020 5195.01 3029.64 67.06 2.00  45.01 2727.85
   17:37:52.331.19-May-2020 5195.01 3029.64 67.06 2.00  45.21 2727.85
   17:37:52.531.19-May-2020 5195.01 2820.05 67.06 2.00  45.41 2727.85
   17:37:52.731.19-May-2020 5195.01 2498.20 67.05 2.00  45.61 2727.85
   17:37:52.931.19-May-2020 5195.01 2112.62 67.05 2.00  45.81 2727.85
