~Version Information
 VERS.                  2.0:   CWLS log ASCII Standard -VERSION 2.0
 WRAP.                   NO:   One line per depth step
~Well Information Block
#MNEM.UNIT     VALUE/NAME     DESCRIPTION
#---------     -----------    ---------------------------
 STRT.S             02:05:08 20-May-20: START TIME 02:05:08 20-May-20
 STOP.S             02:15:48 20-May-20: STOP TIME  02:15:48 20-May-20
 STEP.S                   0.00: STEP TIME
 NULL.                 -999.25: NULL VALUE
 MDS .        Operator Entered:  MAG DATA SOURCE
 PDAT.          Mean Sea Level:  PERMANENT DATUM
 UNIT.                     N/A:  LOGGING EQUIPMENT ID
 DCON.         Sperry Drilling:  DIRECTNL CONTR
 DOE .                     N/A:  DOE NUMBER
 RIG .              East Azeri:  RIG NAME
 JOBN.        AZ-XX-0905856059:  JOB TICKET NUMB
 WELL.                     D36:  WELL NAME
 MWDS.                    Baku:  MWD SHOP
 SRVC.     Turan Drilling & Engineering:  CONTRACTOR
 FLD .                     ACG:  FIELD NAME
 CTRY.              Azerbaijan:  COUNTRY NAME
 PROV.                    Baku:  PROVINCE
 STAT.                    Baku:  STATE NAME
 REGN.                   EESSA:  REGION
 BASE.              Azerbaijan:  LOGGING EQUIPMENT BASE LOCATION
 UWI .                     N/A:  UNIQUE WELL IDENTIFIER
 API .                     N/A:  API NUMBER
 COMP.     BP Exploration (Caspian Sea) Ltd.:  COMPANY
 WTYP.                Deviated:  WELL TYPE
 SON .        AZ-XX-0905856059:  JOB NUMBER
 FTOP.          Formation Tops:  FORM TOPS DESC
 ILTD.               Lithology:  INTERP LTH DESC
 SVYD.                  Survey:  SURVEY DESC
 DMOD.             Drill Model:  DRILL MOD DESC
 HPTY.       Minimum Curvature:  HOLE POS TYPE
 NREF.                    Grid:  NORTH REFERENCE
 SPUD.               25-Feb-20:  SPUD DATE
 DATE.      08.55.28 01-May-20:  END TIME
 STIM.      08.55.28 25-Feb-20:  START TIME
 DMF .             Drill Floor:  DRILL MEAS FROM
 DFST.                        :  DIST FSL TEXT
 DFWT.                        :  DIST FWL TEXT
 CNTY.                        :  COUNTY
 LOC .                        :  LOCATION
 LMF .             Drill Floor:  LOG MEASURED FROM
 VSNS.m                   6.09:  VERT SEC N/S
 VSEW.m                 -10.79:  VERT SEC E/W
 AGAP.m                  43.60:  AIR GAP
 DEP .m                 388.24:  DEPTH
 APD .m                  43.60:  DEPTH ABOVE PD
 WDMS.m                 151.80:  WD ELEV
 EGL .m                   0.00:  GROUND ELEVATION
 EPD .m                   0.00:  ELEVATION
 AZTC.deg                 6.12:  AZM TOTAL CORR
 GRDC.deg                 0.30:  GRID CORRECTION
 MDEC.deg                 6.42:  MAGNETIC DECL
 MDIP.deg                59.42:  MAGNETIC DIP
 MFLD.nT              50256.00:  MAGNETIC FIELD
 GVFD.g                   1.00:  GRAVITY FIELD
 VSDR.deg               159.57:  VERT SEC DIRECT
 TDD .m                5000.01:  TOTAL DEPTH (DRILLER)
 SDEP.m                 397.00:  START DEPTH
 DFSL.m                   0.00:  DISTANCE FSL
 DFWL.m                   0.00:  DISTANCE FWL
 UTMY.m             4431880.20:  UTM Y
 UTMX.m              538763.98:  UTM X
 WHEW.m                 -10.79:  WELL HEAD E/W
 WHNS.m                   6.09:  WELL HEAD N/S
 LONG.deg                51.45:  LONGITUDE
 LATI.deg                40.02:  LATITUDE
 TVDS.m                  43.60:  TVDSS CORRECTN
 EKB .m                  43.60:  KB ELEVATION
 EDF .m                  43.60:  DF ELEVATION
 MAGU.                 1847640:  MAGUTM CHECKSUM
 VSC .                       0:  VS TO CLOSURE
~Parameter Information Block
#MNEM.UNIT       Value        Description
#---------     -----------    ---------------------------
 AV  .mps                 1.30:  Ann Velocity 
 AVMX.mps                 1.90:  Max Ann Veloc 
 AZIF.deg               115.68:  Azm, Final 
 BHAT.                   Other:  BHA Type 
 BROT.°/30m               0.74:  Build Rotating 
 BS  .in                  8.50:  Bit Size 
 BTPL.psig              430.00:  Bit Press Loss 
 CABU.                      No:  Customer Abuse 
 TCS .hr                 51.31:  Time Ciculation Ended 
 CV  .mps                 2.52:  Crit Velocity 
 CVMX.mps                 2.62:  Max Crit Veloc 
 DD1 .          Teymur Aghayev:  Direct Drillr 1 
 DDSV.                   Other:  DD Service 
 DEFF.%                 100.00:  % Det Eff 
 DLRX.°/30m               1.62:  Dogleg Rot Max 
 DLSO.°/30m               0.74:  Dogleg Oriented 
 DLSX.°/30m               1.62:  Dogleg Str Max 
 DRET.      04.30.56 18-May-20:  Drill End Time 
 DRST.      04.30.56 18-May-20:  Drill Start Tim 
 DTIM.hr                  0.00:  Time Drilling 
 EDEP.m                5337.01:  End Depth 
 ENG1.      Artemiy Matviyanov:  Engineer 1 
 ENG2.      Bakhtiyar Jabbarli:  Engineer 2 
 ENG3.           Emil Huseynov:  Engineer 3 
 ETIM.      18.40.00 22-May-20:  End Time 
 FLOI.gpm               550.00:  Flow In 
 FLON.gpm               350.00:  Flow In Min 
 FLOS.cptm                0.00:  Fluid Loss 
 FLOX.gpm               600.00:  Flow In Max 
 HFLO.                      No:  High Flow 
 HPRE.                      No:  High Pressure 
 HTEM.                      No:  High Temp 
 HYDO.m                   1.80:  Hydro Offset 
 IFIN.deg                67.01:  Inc, Final 
 IMAX.deg                67.49:  Inc Max 
 IMIN.deg                66.50:  Inc Min 
 IMND.m                5144.79:  Inc Min Depth 
 IMXD.m                5116.12:  Inc Max Depth 
 JARR.                      No:  Jarring 
 LETM.      17.55.56 20-May-20:  Log End Time 
 LOST.hr                     0:  Lost Rig Time 
 LSTM.      04.30.56 18-May-20:  Log Start Time 
 MDCL.ppm            193153.00:  Mud Chlorides 
 MDES.     Inversion Oil/Synthetic:  Mud Desc 
 DFD .sg                  1.40:  Mud Density 
 MDMN.sg                  1.40:  Dens Mud Min 
 MDMX.sg                  1.41:  Dens Mud Max 
 MOIL.                      68:  Run Mud Oil % 
 MOWR.                   68:32:  Run Mud OWR 
 MSND.                     0.2:  Run Mud Sand % 
 MSOL.                    18.8:  Run Mud Solids% 
 DFV .spqt               80.00:  Mud Viscosity 
 MWOD.in                  6.75:  MWD Tool OD 
 MWSI.                      No:  Serv Intrp, MWD 
 OTIM.hr                104.84:  Time Operating 
 PMAX.psia            10690.93:  Press Op, Max 
 PV  .cP                 26.00:  Mud PV 
 RUN .                     900:  Run Number 
 ROPA.m/hr                0.00:  ROP Avg 
 ROPN.m/hr                0.00:  ROP Min 
 ROPX.m/hr                0.00:  ROP Max 
 RPMA.rpm               140.00:  RPM Surface Avg 
 RPMN.rpm                70.00:  RPM Surface Min 
 RPMX.rpm               140.00:  RPM Surface Max 
 RRUN.                    0900:  Rig Run Number 
 RTIM.hr                 36.00:  Time Reaming 
 SAZI.deg               115.72:  Azm, Start 
 SDEP.m                5337.01:  Start Depth 
 SIDD.                      No:  Serv Intrp, DD 
 SINC.deg                66.92:  Inc, Start 
 SPPA.psig             4400.00:  SPP Avg 
 SPPN.psig             1135.00:  SPP Min 
 SPPX.psig             4581.00:  SPP Max 
 STIM.      04.30.56 18-May-20:  Start Time 
 SVCS.                     MWD:  Services 
 SVER.                    9.20:  Sperry Version 
 TDAT.m                5337.01:  Tot Depth Attmp 
 TDDF.                      No:  Trip for DD 
 TFF .                      No:  Trip for Fail 
 TQAA.f-kp               23.00:  Torque Abs Avg 
 TQAN.f-kp               18.00:  Torque Abs Min 
 TQAX.f-kp               25.00:  Torque Abs Max 
 TRRT.°/30m               0.74:  Turn Rotating 
 MRT .                    HCIM:  Maximum Recorded Temperature 
 TTMX.degC               76.47:  Max Tool Temp 
 WBMN.klb                 0.00:  WOB Min 
 WITN.             Anar Khalil:  Customer Rep 
 WITN.      Kamran Keberlinski:  Customer Rep 2 
 WOBA.klb                 0.00:  WOB Avg 
 WOBX.klb                 0.00:  WOB Max 
 YP  .lhf2               27.00:  Yield Point 
~Curve Information Block
#MNEM.UNIT                 API CODE     Curve Description
#---------               -----------    ---------------------------
 TIME.HHMMSS            00 000 000 000:  GT Time & Date
 GTDEPTH.m              00 000 000 000:  GT Depth
 GTPQH.psia             00 000 000 000:  GT HR Quartz Pressure
 GTTQ.degC              00 000 000 000:  GT Quartz Temperature
 GTTN.NONE              00 000 000 000:  GT Test Number
 GTET.sec               00 000 000 000:  GT Elapsed Test Time
 GTTVD.m                00 000 000 000:  GT True Vertical Depth
#Other Information
#
#WARRANTY: Halliburton will use its best efforts to furnish customers with 
#accurate information and interpretations that are part of, and incident to, the services 
#provided.  However, Halliburton cannot and does not warrant the accuracy 
#or correctness of such information and interpretations.  Under no circumstances should any 
#such information or interpretation be relied upon as the sole basis for any drilling, 
#completion, production, or financial decision or any procedure involving any risk to the 
#safety of any drilling venture, drilling rig or its crew or any other third party.  The 
#Customer has full responsibility for all drilling, completion and production operation.  
#Halliburton makes no representations or warranties, either expressed or 
#implied, including, but not limited to, the implied warranties of merchantability or fitness 
#for a particular purpose, with respect to the services rendered.  In no event will 
#Halliburton be liable for failure to obtain any particular results or for 
#any damages, including, but not limited to, indirect, special or consequential damages, 
#resulting from the use of any information or interpretation provided by Halliburton.
#
~A           TIME           GTDEPTH  GTPQH  GTTQ  GTTN  GTET   GTTVD  
# ...
   02:15:29.000.20-May-2020 5070.01 6454.47 68.35 7.00 621.00 2678.90
   02:15:29.200.20-May-2020 5070.01 6453.34 68.35 7.00 621.20 2678.90
   02:15:29.400.20-May-2020 5070.01 6453.83 68.35 7.00 621.40 2678.90
   02:15:29.600.20-May-2020 5070.01 6452.79 68.35 7.00 621.60 2678.90
   02:15:29.800.20-May-2020 5070.01 6452.52 68.35 7.00 621.80 2678.90
   02:15:30.000.20-May-2020 5070.01 6452.91 68.35 7.00 622.00 2678.90
   02:15:30.200.20-May-2020 5070.01 6453.75 68.35 7.00 622.20 2678.90
   02:15:30.400.20-May-2020 5070.01 6455.27 68.35 7.00 622.40 2678.90
   02:15:30.600.20-May-2020 5070.01 6451.62 68.35 7.00 622.60 2678.90
   02:15:30.800.20-May-2020 5070.01 6452.99 68.35 7.00 622.80 2678.90
   02:15:31.000.20-May-2020 5070.01 6454.18 68.35 7.00 623.00 2678.90
   02:15:31.200.20-May-2020 5070.01 6454.18 68.35 7.00 623.20 2678.90
   02:15:31.400.20-May-2020 5070.01 6453.06 68.35 7.00 623.40 2678.90
   02:15:31.600.20-May-2020 5070.01 6451.81 68.35 7.00 623.60 2678.90
   02:15:31.800.20-May-2020 5070.01 6454.93 68.35 7.00 623.80 2678.90
   02:15:32.000.20-May-2020 5070.01 6455.10 68.35 7.00 624.00 2678.90
   02:15:32.200.20-May-2020 5070.01 6455.10 68.35 7.00 624.20 2678.90
   02:15:32.400.20-May-2020 5070.01 6454.33 68.35 7.00 624.40 2678.90
   02:15:32.600.20-May-2020 5070.01 6453.35 68.35 7.00 624.60 2678.90
   02:15:32.800.20-May-2020 5070.01 6454.83 68.35 7.00 624.80 2678.90
   02:15:33.000.20-May-2020 5070.01 6457.65 68.35 7.00 625.00 2678.90
   02:15:33.200.20-May-2020 5070.01 6457.65 68.35 7.00 625.20 2678.90
   02:15:33.400.20-May-2020 5070.01 6453.42 68.35 7.00 625.40 2678.90
   02:15:33.600.20-May-2020 5070.01 6454.57 68.35 7.00 625.60 2678.90
   02:15:33.800.20-May-2020 5070.01 6454.92 68.35 7.00 625.80 2678.90
   02:15:34.000.20-May-2020 5070.01 6455.45 68.35 7.00 626.00 2678.90
   02:15:34.200.20-May-2020 5070.01 6457.32 68.35 7.00 626.20 2678.90
   02:15:34.400.20-May-2020 5070.01 6455.01 68.35 7.00 626.40 2678.90
   02:15:34.600.20-May-2020 5070.01 6454.81 68.35 7.00 626.60 2678.90
   02:15:34.800.20-May-2020 5070.01 6455.71 68.35 7.00 626.80 2678.90
   02:15:35.000.20-May-2020 5070.01 6456.31 68.35 7.00 627.00 2678.90
   02:15:35.200.20-May-2020 5070.01 6456.31 68.35 7.00 627.20 2678.90
   02:15:35.400.20-May-2020 5070.01 6454.98 68.34 7.00 627.40 2678.90
   02:15:35.600.20-May-2020 5070.01 6455.03 68.34 7.00 627.60 2678.90
   02:15:35.800.20-May-2020 5070.01 6454.05 68.34 7.00 627.80 2678.90
   02:15:36.000.20-May-2020 5070.01 6454.67 68.34 7.00 628.00 2678.90
   02:15:36.200.20-May-2020 5070.01 6454.67 68.34 7.00 628.20 2678.90
   02:15:36.400.20-May-2020 5070.01 6454.26 68.34 7.00 628.40 2678.90
   02:15:36.600.20-May-2020 5070.01 6453.45 68.34 7.00 628.60 2678.90
   02:15:36.800.20-May-2020 5070.01 6453.76 68.34 7.00 628.80 2678.90
   02:15:37.000.20-May-2020 5070.01 6454.19 68.34 7.00 629.00 2678.90
   02:15:37.200.20-May-2020 5070.01 6456.58 68.34 7.00 629.20 2678.90
   02:15:37.400.20-May-2020 5070.01 6456.13 68.34 7.00 629.40 2678.90
   02:15:37.600.20-May-2020 5070.01 6454.26 68.34 7.00 629.60 2678.90
   02:15:37.800.20-May-2020 5070.01 6455.57 68.34 7.00 629.80 2678.90
   02:15:38.000.20-May-2020 5070.01 6458.38 68.34 7.00 630.00 2678.90
   02:15:38.200.20-May-2020 5070.01 6456.24 68.34 7.00 630.20 2678.90
   02:15:38.400.20-May-2020 5070.01 6454.31 68.34 7.00 630.40 2678.90
   02:15:38.600.20-May-2020 5070.01 6455.91 68.34 7.00 630.60 2678.90
   02:15:38.800.20-May-2020 5070.01 6455.47 68.34 7.00 630.80 2678.90
   02:15:39.000.20-May-2020 5070.01 6459.06 68.34 7.00 631.00 2678.90
   02:15:39.200.20-May-2020 5070.01 6459.06 68.34 7.00 631.20 2678.90
   02:15:39.400.20-May-2020 5070.01 6454.13 68.34 7.00 631.40 2678.90
   02:15:39.600.20-May-2020 5070.01 6455.96 68.34 7.00 631.60 2678.90
   02:15:39.800.20-May-2020 5070.01 6455.47 68.34 7.00 631.80 2678.90
   02:15:40.000.20-May-2020 5070.01 6458.95 68.34 7.00 632.00 2678.90
   02:15:40.200.20-May-2020 5070.01 6458.95 68.34 7.00 632.20 2678.90
   02:15:40.400.20-May-2020 5070.01 6455.05 68.34 7.00 632.40 2678.90
   02:15:40.600.20-May-2020 5070.01 6454.55 68.34 7.00 632.60 2678.90
   02:15:40.800.20-May-2020 5070.01 6454.28 68.34 7.00 632.80 2678.90
   02:15:41.000.20-May-2020 5070.01 6453.38 68.34 7.00 633.00 2678.90
   02:15:41.200.20-May-2020 5070.01 6453.38 68.34 7.00 633.20 2678.90
   02:15:41.400.20-May-2020 5070.01 6453.49 68.34 7.00 633.40 2678.90
   02:15:41.600.20-May-2020 5070.01 6451.75 68.34 7.00 633.60 2678.90
   02:15:41.800.20-May-2020 5070.01 6452.87 68.34 7.00 633.80 2678.90
   02:15:42.000.20-May-2020 5070.01 6453.62 68.34 7.00 634.00 2678.90
   02:15:42.200.20-May-2020 5070.01 6450.66 68.34 7.00 634.20 2678.90
   02:15:42.400.20-May-2020 5070.01 6451.74 68.34 7.00 634.40 2678.90
   02:15:42.600.20-May-2020 5070.01 6451.70 68.34 7.00 634.60 2678.90
   02:15:42.800.20-May-2020 5070.01 6450.68 68.34 7.00 634.80 2678.90
   02:15:43.000.20-May-2020 5070.01 6451.58 68.34 7.00 635.00 2678.90
   02:15:43.200.20-May-2020 5070.01 6451.58 68.34 7.00 635.20 2678.90
   02:15:43.400.20-May-2020 5070.01 6451.23 68.34 7.00 635.40 2678.90
   02:15:43.600.20-May-2020 5070.01 6450.80 68.34 7.00 635.60 2678.90
   02:15:43.800.20-May-2020 5070.01 6450.53 68.34 7.00 635.80 2678.90
   02:15:44.000.20-May-2020 5070.01 6451.39 68.34 7.00 636.00 2678.90
   02:15:44.200.20-May-2020 5070.01 6451.39 68.34 7.00 636.20 2678.90
   02:15:44.400.20-May-2020 5070.01 6452.84 68.34 7.00 636.40 2678.90
   02:15:44.600.20-May-2020 5070.01 6450.99 68.34 7.00 636.60 2678.90
   02:15:44.800.20-May-2020 5070.01 6452.54 68.34 7.00 636.80 2678.90
   02:15:45.000.20-May-2020 5070.01 6455.39 68.34 7.00 637.00 2678.90
   02:15:45.200.20-May-2020 5070.01 6453.65 68.34 7.00 637.20 2678.90
   02:15:45.400.20-May-2020 5070.01 6451.83 68.33 7.00 637.40 2678.90
   02:15:45.600.20-May-2020 5070.01 6453.50 68.33 7.00 637.60 2678.90
   02:15:45.800.20-May-2020 5070.01 6453.65 68.33 7.00 637.80 2678.90
   02:15:46.000.20-May-2020 5070.01 6456.70 68.33 7.00 638.00 2678.90
   02:15:46.200.20-May-2020 5070.01 6456.70 68.33 7.00 638.20 2678.90
   02:15:46.400.20-May-2020 5070.01 6452.74 68.33 7.00 638.40 2678.90
   02:15:46.600.20-May-2020 5070.01 6454.36 68.33 7.00 638.60 2678.90
   02:15:46.800.20-May-2020 5070.01 6453.45 68.33 7.00 638.80 2678.90
   02:15:47.000.20-May-2020 5070.01 6455.49 68.33 7.00 639.00 2678.90
   02:15:47.200.20-May-2020 5070.01 6455.49 68.33 7.00 639.20 2678.90
   02:15:47.400.20-May-2020 5070.01 6453.43 68.33 7.00 639.40 2678.90
   02:15:47.600.20-May-2020 5070.01 6453.29 68.33 7.00 639.60 2678.90
   02:15:47.800.20-May-2020 5070.01 6453.11 68.33 7.00 639.80 2678.90
   02:15:48.000.20-May-2020 5070.01 6452.48 68.33 7.00 640.00 2678.90
   02:15:48.200.20-May-2020 5070.01 6452.48 68.33 7.00 640.20 2678.90
   02:15:48.400.20-May-2020 5070.01 6453.80 68.33 7.00 640.40 2678.90
   02:15:48.600.20-May-2020 5070.01 6451.05 68.33 7.00 640.60 2678.90
   02:15:48.800.20-May-2020 5070.01 6451.92 68.33 7.00 640.80 2678.90
