~Version Information
 VERS.                  2.0:   CWLS log ASCII Standard -VERSION 2.0
 WRAP.                   NO:   One line per depth step
~Well Information Block
#MNEM.UNIT     VALUE/NAME     DESCRIPTION
#---------     -----------    ---------------------------
 STRT.S             17:37:07 19-May-20: START TIME 17:37:07 19-May-20
 STOP.S             17:43:47 19-May-20: STOP TIME  17:43:47 19-May-20
 STEP.S                   0.00: STEP TIME
 NULL.                 -999.25: NULL VALUE
 MDS .        Operator Entered:  MAG DATA SOURCE
 PDAT.          Mean Sea Level:  PERMANENT DATUM
 UNIT.                     N/A:  LOGGING EQUIPMENT ID
 DCON.         Sperry Drilling:  DIRECTNL CONTR
 DOE .                     N/A:  DOE NUMBER
 RIG .              East Azeri:  RIG NAME
 JOBN.        AZ-XX-0905856059:  JOB TICKET NUMB
 WELL.                     D36:  WELL NAME
 MWDS.                    Baku:  MWD SHOP
 SRVC.     Turan Drilling & Engineering:  CONTRACTOR
 FLD .                     ACG:  FIELD NAME
 CTRY.              Azerbaijan:  COUNTRY NAME
 PROV.                    Baku:  PROVINCE
 STAT.                    Baku:  STATE NAME
 REGN.                   EESSA:  REGION
 BASE.              Azerbaijan:  LOGGING EQUIPMENT BASE LOCATION
 UWI .                     N/A:  UNIQUE WELL IDENTIFIER
 API .                     N/A:  API NUMBER
 COMP.     BP Exploration (Caspian Sea) Ltd.:  COMPANY
 WTYP.                Deviated:  WELL TYPE
 SON .        AZ-XX-0905856059:  JOB NUMBER
 FTOP.          Formation Tops:  FORM TOPS DESC
 ILTD.               Lithology:  INTERP LTH DESC
 SVYD.                  Survey:  SURVEY DESC
 DMOD.             Drill Model:  DRILL MOD DESC
 HPTY.       Minimum Curvature:  HOLE POS TYPE
 NREF.                    Grid:  NORTH REFERENCE
 SPUD.               25-Feb-20:  SPUD DATE
 DATE.      08.55.28 01-May-20:  END TIME
 STIM.      08.55.28 25-Feb-20:  START TIME
 DMF .             Drill Floor:  DRILL MEAS FROM
 DFST.                        :  DIST FSL TEXT
 DFWT.                        :  DIST FWL TEXT
 CNTY.                        :  COUNTY
 LOC .                        :  LOCATION
 LMF .             Drill Floor:  LOG MEASURED FROM
 VSNS.m                   6.09:  VERT SEC N/S
 VSEW.m                 -10.79:  VERT SEC E/W
 AGAP.m                  43.60:  AIR GAP
 DEP .m                 388.24:  DEPTH
 APD .m                  43.60:  DEPTH ABOVE PD
 WDMS.m                 151.80:  WD ELEV
 EGL .m                   0.00:  GROUND ELEVATION
 EPD .m                   0.00:  ELEVATION
 AZTC.deg                 6.12:  AZM TOTAL CORR
 GRDC.deg                 0.30:  GRID CORRECTION
 MDEC.deg                 6.42:  MAGNETIC DECL
 MDIP.deg                59.42:  MAGNETIC DIP
 MFLD.nT              50256.00:  MAGNETIC FIELD
 GVFD.g                   1.00:  GRAVITY FIELD
 VSDR.deg               159.57:  VERT SEC DIRECT
 TDD .m                5000.01:  TOTAL DEPTH (DRILLER)
 SDEP.m                 397.00:  START DEPTH
 DFSL.m                   0.00:  DISTANCE FSL
 DFWL.m                   0.00:  DISTANCE FWL
 UTMY.m             4431880.20:  UTM Y
 UTMX.m              538763.98:  UTM X
 WHEW.m                 -10.79:  WELL HEAD E/W
 WHNS.m                   6.09:  WELL HEAD N/S
 LONG.deg                51.45:  LONGITUDE
 LATI.deg                40.02:  LATITUDE
 TVDS.m                  43.60:  TVDSS CORRECTN
 EKB .m                  43.60:  KB ELEVATION
 EDF .m                  43.60:  DF ELEVATION
 MAGU.                 1847640:  MAGUTM CHECKSUM
 VSC .                       0:  VS TO CLOSURE
~Parameter Information Block
#MNEM.UNIT       Value        Description
#---------     -----------    ---------------------------
 AV  .mps                 1.30:  Ann Velocity 
 AVMX.mps                 1.90:  Max Ann Veloc 
 AZIF.deg               115.68:  Azm, Final 
 BHAT.                   Other:  BHA Type 
 BROT.°/30m               0.74:  Build Rotating 
 BS  .in                  8.50:  Bit Size 
 BTPL.psig              430.00:  Bit Press Loss 
 CABU.                      No:  Customer Abuse 
 COMM.                     t9l:  Run Comments 1 
 TCS .hr                 51.31:  Time Ciculation Ended 
 CV  .mps                 2.52:  Crit Velocity 
 CVMX.mps                 2.62:  Max Crit Veloc 
 DD1 .          Teymur Aghayev:  Direct Drillr 1 
 DDSV.                   Other:  DD Service 
 DEFF.%                 100.00:  % Det Eff 
 DLRX.°/30m               1.62:  Dogleg Rot Max 
 DLSO.°/30m               0.74:  Dogleg Oriented 
 DLSX.°/30m               1.62:  Dogleg Str Max 
 DRET.      04.30.56 18-May-20:  Drill End Time 
 DRST.      04.30.56 18-May-20:  Drill Start Tim 
 DTIM.hr                  0.00:  Time Drilling 
 EDEP.m                5337.01:  End Depth 
 ENG1.      Artemiy Matviyanov:  Engineer 1 
 ENG2.      Bakhtiyar Jabbarli:  Engineer 2 
 ENG3.           Emil Huseynov:  Engineer 3 
 ETIM.      18.40.00 22-May-20:  End Time 
 FLOI.gpm               550.00:  Flow In 
 FLON.gpm               350.00:  Flow In Min 
 FLOS.cptm                0.00:  Fluid Loss 
 FLOX.gpm               600.00:  Flow In Max 
 HFLO.                      No:  High Flow 
 HPRE.                      No:  High Pressure 
 HTEM.                      No:  High Temp 
 HYDO.m                   1.80:  Hydro Offset 
 IFIN.deg                67.01:  Inc, Final 
 IMAX.deg                67.49:  Inc Max 
 IMIN.deg                66.50:  Inc Min 
 IMND.m                5144.79:  Inc Min Depth 
 IMXD.m                5116.12:  Inc Max Depth 
 JARR.                      No:  Jarring 
 LETM.      17.55.56 20-May-20:  Log End Time 
 LOST.hr                     0:  Lost Rig Time 
 LSTM.      04.30.56 18-May-20:  Log Start Time 
 MDCL.ppm            193153.00:  Mud Chlorides 
 MDES.     Inversion Oil/Synthetic:  Mud Desc 
 DFD .sg                  1.40:  Mud Density 
 MDMN.sg                  1.40:  Dens Mud Min 
 MDMX.sg                  1.41:  Dens Mud Max 
 MOIL.                      68:  Run Mud Oil % 
 MOWR.                   68:32:  Run Mud OWR 
 MSND.                     0.2:  Run Mud Sand % 
 MSOL.                    18.8:  Run Mud Solids% 
 DFV .spqt               80.00:  Mud Viscosity 
 MWOD.in                  6.75:  MWD Tool OD 
 MWSI.                      No:  Serv Intrp, MWD 
 OTIM.hr                104.84:  Time Operating 
 PMAX.psia            10690.93:  Press Op, Max 
 PV  .cP                 26.00:  Mud PV 
 RUN .                     900:  Run Number 
 ROPA.m/hr                0.00:  ROP Avg 
 ROPN.m/hr                0.00:  ROP Min 
 ROPX.m/hr                0.00:  ROP Max 
 RPMA.rpm               140.00:  RPM Surface Avg 
 RPMN.rpm                70.00:  RPM Surface Min 
 RPMX.rpm               140.00:  RPM Surface Max 
 RRUN.                    0900:  Rig Run Number 
 RTIM.hr                 36.00:  Time Reaming 
 SAZI.deg               115.72:  Azm, Start 
 SDEP.m                5337.01:  Start Depth 
 SIDD.                      No:  Serv Intrp, DD 
 SINC.deg                66.92:  Inc, Start 
 SPPA.psig             4400.00:  SPP Avg 
 SPPN.psig             1135.00:  SPP Min 
 SPPX.psig             4581.00:  SPP Max 
 STIM.      04.30.56 18-May-20:  Start Time 
 SVCS.                     MWD:  Services 
 SVER.                    9.20:  Sperry Version 
 TDAT.m                5337.01:  Tot Depth Attmp 
 TDDF.                      No:  Trip for DD 
 TFF .                      No:  Trip for Fail 
 TQAA.f-kp               23.00:  Torque Abs Avg 
 TQAN.f-kp               18.00:  Torque Abs Min 
 TQAX.f-kp               25.00:  Torque Abs Max 
 TRRT.°/30m               0.74:  Turn Rotating 
 MRT .                    HCIM:  Maximum Recorded Temperature 
 TTMX.degC               76.47:  Max Tool Temp 
 WBMN.klb                 0.00:  WOB Min 
 WITN.             Anar Khalil:  Customer Rep 
 WITN.      Kamran Keberlinski:  Customer Rep 2 
 WOBA.klb                 0.00:  WOB Avg 
 WOBX.klb                 0.00:  WOB Max 
 YP  .lhf2               27.00:  Yield Point 
~Curve Information Block
#MNEM.UNIT                 API CODE     Curve Description
#---------               -----------    ---------------------------
 TIME.HHMMSS            00 000 000 000:  GT Time & Date
 GTDEPTH.m              00 000 000 000:  GT Depth
 GTPQH.psia             00 000 000 000:  GT HR Quartz Pressure
 GTTQ.degC              00 000 000 000:  GT Quartz Temperature
 GTTN.NONE              00 000 000 000:  GT Test Number
 GTET.sec               00 000 000 000:  GT Elapsed Test Time
 GTTVD.m                00 000 000 000:  GT True Vertical Depth
#Other Information
#
#WARRANTY: Halliburton will use its best efforts to furnish customers with 
#accurate information and interpretations that are part of, and incident to, the services 
#provided.  However, Halliburton cannot and does not warrant the accuracy 
#or correctness of such information and interpretations.  Under no circumstances should any 
#such information or interpretation be relied upon as the sole basis for any drilling, 
#completion, production, or financial decision or any procedure involving any risk to the 
#safety of any drilling venture, drilling rig or its crew or any other third party.  The 
#Customer has full responsibility for all drilling, completion and production operation.  
#Halliburton makes no representations or warranties, either expressed or 
#implied, including, but not limited to, the implied warranties of merchantability or fitness 
#for a particular purpose, with respect to the services rendered.  In no event will 
#Halliburton be liable for failure to obtain any particular results or for 
#any damages, including, but not limited to, indirect, special or consequential damages, 
#resulting from the use of any information or interpretation provided by Halliburton.
#
~A           TIME           GTDEPTH  GTPQH  GTTQ  GTTN  GTET   GTTVD  
# ...
   17:39:02.139.19-May-2020 5195.01 2073.65 67.01 2.00 115.01 2727.85
   17:39:02.339.19-May-2020 5195.01 2073.65 67.01 2.00 115.21 2727.85
   17:39:02.539.19-May-2020 5195.01 2080.68 67.01 2.00 115.41 2727.85
   17:39:02.739.19-May-2020 5195.01 2083.84 67.01 2.00 115.61 2727.85
   17:39:02.939.19-May-2020 5195.01 2086.97 67.01 2.00 115.81 2727.85
   17:39:03.139.19-May-2020 5195.01 2090.14 67.01 2.00 116.01 2727.85
   17:39:03.339.19-May-2020 5195.01 2090.14 67.01 2.00 116.21 2727.85
   17:39:03.539.19-May-2020 5195.01 2096.22 67.02 2.00 116.41 2727.85
   17:39:03.739.19-May-2020 5195.01 2099.69 67.02 2.00 116.61 2727.85
   17:39:03.939.19-May-2020 5195.01 2102.82 67.02 2.00 116.81 2727.85
   17:39:04.139.19-May-2020 5195.01 2105.95 67.02 2.00 117.01 2727.85
   17:39:04.339.19-May-2020 5195.01 2109.04 67.02 2.00 117.21 2727.85
   17:39:04.539.19-May-2020 5195.01 2112.12 67.02 2.00 117.41 2727.85
   17:39:04.739.19-May-2020 5195.01 2115.11 67.02 2.00 117.61 2727.85
   17:39:04.939.19-May-2020 5195.01 2118.11 67.02 2.00 117.81 2727.85
   17:39:05.139.19-May-2020 5195.01 2121.13 67.02 2.00 118.01 2727.85
   17:39:05.339.19-May-2020 5195.01 2121.13 67.02 2.00 118.21 2727.85
   17:39:05.539.19-May-2020 5195.01 2126.99 67.02 2.00 118.41 2727.85
   17:39:05.740.19-May-2020 5195.01 2129.85 67.02 2.00 118.61 2727.85
   17:39:05.940.19-May-2020 5195.01 2132.79 67.02 2.00 118.81 2727.85
   17:39:06.140.19-May-2020 5195.01 2135.60 67.02 2.00 119.01 2727.85
   17:39:06.340.19-May-2020 5195.01 2135.60 67.02 2.00 119.21 2727.85
   17:39:06.540.19-May-2020 5195.01 2141.26 67.02 2.00 119.41 2727.85
   17:39:06.740.19-May-2020 5195.01 2144.26 67.02 2.00 119.61 2727.85
   17:39:06.940.19-May-2020 5195.01 2147.24 67.02 2.00 119.81 2727.85
   17:39:07.140.19-May-2020 5195.01 2149.85 67.02 2.00 120.01 2727.85
   17:39:07.340.19-May-2020 5195.01 2149.85 67.02 2.00 120.21 2727.85
   17:39:07.540.19-May-2020 5195.01 2156.02 67.02 2.00 120.41 2727.85
   17:39:07.740.19-May-2020 5195.01 2158.96 67.02 2.00 120.61 2727.85
   17:39:07.940.19-May-2020 5195.01 2162.04 67.02 2.00 120.81 2727.85
   17:39:08.140.19-May-2020 5195.01 2165.01 67.02 2.00 121.01 2727.85
   17:39:08.340.19-May-2020 5195.01 2165.01 67.02 2.00 121.21 2727.85
   17:39:08.540.19-May-2020 5195.01 2170.27 67.02 2.00 121.41 2727.85
   17:39:08.740.19-May-2020 5195.01 2173.63 67.02 2.00 121.61 2727.85
   17:39:08.940.19-May-2020 5195.01 2176.61 67.02 2.00 121.81 2727.85
   17:39:09.140.19-May-2020 5195.01 2179.46 67.02 2.00 122.01 2727.85
   17:39:09.340.19-May-2020 5195.01 2179.46 67.02 2.00 122.21 2727.85
   17:39:09.540.19-May-2020 5195.01 2184.94 67.02 2.00 122.41 2727.85
   17:39:09.740.19-May-2020 5195.01 2188.01 67.02 2.00 122.61 2727.85
   17:39:09.940.19-May-2020 5195.01 2191.01 67.02 2.00 122.81 2727.85
   17:39:10.140.19-May-2020 5195.01 2194.20 67.02 2.00 123.01 2727.85
   17:39:10.340.19-May-2020 5195.01 2194.20 67.02 2.00 123.21 2727.85
   17:39:10.540.19-May-2020 5195.01 2200.25 67.02 2.00 123.41 2727.85
   17:39:10.740.19-May-2020 5195.01 2203.44 67.02 2.00 123.62 2727.85
   17:39:10.940.19-May-2020 5195.01 2206.43 67.02 2.00 123.82 2727.85
   17:39:11.140.19-May-2020 5195.01 2209.29 67.02 2.00 124.02 2727.85
   17:39:11.340.19-May-2020 5195.01 2209.29 67.02 2.00 124.22 2727.85
   17:39:11.540.19-May-2020 5195.01 2215.07 67.02 2.00 124.42 2727.85
   17:39:11.740.19-May-2020 5195.01 2217.91 67.02 2.00 124.62 2727.85
   17:39:11.940.19-May-2020 5195.01 2220.80 67.02 2.00 124.82 2727.85
   17:39:12.140.19-May-2020 5195.01 2223.58 67.02 2.00 125.02 2727.85
   17:39:12.340.19-May-2020 5195.01 2226.49 67.02 2.00 125.22 2727.85
   17:39:12.540.19-May-2020 5195.01 2229.20 67.02 2.00 125.42 2727.85
   17:39:12.740.19-May-2020 5195.01 2232.01 67.02 2.00 125.62 2727.85
   17:39:12.940.19-May-2020 5195.01 2234.81 67.02 2.00 125.82 2727.85
   17:39:13.140.19-May-2020 5195.01 2237.55 67.02 2.00 126.02 2727.85
   17:39:13.340.19-May-2020 5195.01 2237.55 67.02 2.00 126.22 2727.85
   17:39:13.540.19-May-2020 5195.01 2242.58 67.02 2.00 126.42 2727.85
   17:39:13.740.19-May-2020 5195.01 2245.80 67.03 2.00 126.62 2727.85
   17:39:13.940.19-May-2020 5195.01 2248.63 67.03 2.00 126.82 2727.85
   17:39:14.141.19-May-2020 5195.01 2251.11 67.03 2.00 127.02 2727.85
   17:39:14.341.19-May-2020 5195.01 2251.11 67.03 2.00 127.22 2727.85
   17:39:14.541.19-May-2020 5195.01 2257.44 67.03 2.00 127.42 2727.85
   17:39:14.741.19-May-2020 5195.01 2260.43 67.03 2.00 127.62 2727.85
   17:39:14.941.19-May-2020 5195.01 2262.99 67.03 2.00 127.82 2727.85
   17:39:15.141.19-May-2020 5195.01 2266.27 67.03 2.00 128.02 2727.85
   17:39:15.341.19-May-2020 5195.01 2266.27 67.03 2.00 128.22 2727.85
   17:39:15.541.19-May-2020 5195.01 2272.12 67.03 2.00 128.42 2727.85
   17:39:15.741.19-May-2020 5195.01 2274.94 67.03 2.00 128.62 2727.85
   17:39:15.941.19-May-2020 5195.01 2277.82 67.03 2.00 128.82 2727.85
   17:39:16.141.19-May-2020 5195.01 2280.29 67.03 2.00 129.02 2727.85
   17:39:16.341.19-May-2020 5195.01 2283.31 67.03 2.00 129.22 2727.85
   17:39:16.541.19-May-2020 5195.01 2286.27 67.03 2.00 129.42 2727.85
   17:39:16.741.19-May-2020 5195.01 2289.13 67.03 2.00 129.62 2727.85
   17:39:16.941.19-May-2020 5195.01 2291.94 67.03 2.00 129.82 2727.85
   17:39:17.141.19-May-2020 5195.01 2294.26 67.03 2.00 130.02 2727.85
   17:39:17.341.19-May-2020 5195.01 2294.26 67.03 2.00 130.22 2727.85
   17:39:17.541.19-May-2020 5195.01 2300.39 67.03 2.00 130.42 2727.85
   17:39:17.741.19-May-2020 5195.01 2303.37 67.03 2.00 130.62 2727.85
   17:39:17.941.19-May-2020 5195.01 2306.36 67.03 2.00 130.82 2727.85
   17:39:18.141.19-May-2020 5195.01 2309.22 67.03 2.00 131.02 2727.85
   17:39:18.341.19-May-2020 5195.01 2309.22 67.03 2.00 131.22 2727.85
   17:39:18.541.19-May-2020 5195.01 2314.94 67.03 2.00 131.42 2727.85
   17:39:18.741.19-May-2020 5195.01 2317.78 67.03 2.00 131.62 2727.85
   17:39:18.941.19-May-2020 5195.01 2320.43 67.03 2.00 131.82 2727.85
   17:39:19.141.19-May-2020 5195.01 2323.23 67.03 2.00 132.02 2727.85
   17:39:19.341.19-May-2020 5195.01 2323.23 67.03 2.00 132.22 2727.85
   17:39:19.541.19-May-2020 5195.01 2328.55 67.03 2.00 132.42 2727.85
   17:39:19.741.19-May-2020 5195.01 2331.13 67.03 2.00 132.62 2727.85
   17:39:19.941.19-May-2020 5195.01 2333.77 67.03 2.00 132.82 2727.85
   17:39:20.141.19-May-2020 5195.01 2336.10 67.03 2.00 133.02 2727.85
   17:39:20.341.19-May-2020 5195.01 2336.10 67.03 2.00 133.22 2727.85
   17:39:20.541.19-May-2020 5195.01 2341.84 67.03 2.00 133.42 2727.85
   17:39:20.741.19-May-2020 5195.01 2344.75 67.03 2.00 133.62 2727.85
   17:39:20.941.19-May-2020 5195.01 2347.27 67.03 2.00 133.82 2727.85
   17:39:21.141.19-May-2020 5195.01 2350.41 67.03 2.00 134.02 2727.85
   17:39:21.341.19-May-2020 5195.01 2350.41 67.03 2.00 134.22 2727.85
   17:39:21.541.19-May-2020 5195.01 2356.12 67.03 2.00 134.42 2727.85
   17:39:21.741.19-May-2020 5195.01 2358.86 67.03 2.00 134.62 2727.85
   17:39:21.941.19-May-2020 5195.01 2361.84 67.03 2.00 134.82 2727.85
   17:39:22.141.19-May-2020 5195.01 2364.13 67.03 2.00 135.02 2727.85
   17:39:22.342.19-May-2020 5195.01 2364.13 67.03 2.00 135.22 2727.85
   17:39:22.542.19-May-2020 5195.01 2369.77 67.03 2.00 135.42 2727.85
   17:39:22.742.19-May-2020 5195.01 2372.50 67.03 2.00 135.62 2727.85
   17:39:22.942.19-May-2020 5195.01 2374.76 67.03 2.00 135.82 2727.85
   17:39:23.142.19-May-2020 5195.01 2377.70 67.03 2.00 136.02 2727.85
   17:39:23.342.19-May-2020 5195.01 2377.70 67.03 2.00 136.22 2727.85
   17:39:23.542.19-May-2020 5195.01 2383.06 67.03 2.00 136.42 2727.85
   17:39:23.742.19-May-2020 5195.01 2385.71 67.03 2.00 136.62 2727.85
   17:39:23.942.19-May-2020 5195.01 2387.99 67.03 2.00 136.82 2727.85
   17:39:24.142.19-May-2020 5195.01 2391.14 67.03 2.00 137.02 2727.85
   17:39:24.342.19-May-2020 5195.01 2391.14 67.03 2.00 137.22 2727.85
   17:39:24.542.19-May-2020 5195.01 2396.30 67.03 2.00 137.42 2727.85
   17:39:24.742.19-May-2020 5195.01 2399.03 67.03 2.00 137.62 2727.85
   17:39:24.942.19-May-2020 5195.01 2401.52 67.03 2.00 137.82 2727.85
