~Version Information
 VERS.                  2.0:   CWLS log ASCII Standard -VERSION 2.0
 WRAP.                   NO:   One line per depth step
~Well Information Block
#MNEM.UNIT     VALUE/NAME     DESCRIPTION
#---------     -----------    ---------------------------
 STRT.S             04:23:34 20-May-20: START TIME 04:23:34 20-May-20
 STOP.S             04:34:06 20-May-20: STOP TIME  04:34:06 20-May-20
 STEP.S                   0.00: STEP TIME
 NULL.                 -999.25: NULL VALUE
 MDS .        Operator Entered:  MAG DATA SOURCE
 PDAT.          Mean Sea Level:  PERMANENT DATUM
 UNIT.                     N/A:  LOGGING EQUIPMENT ID
 DCON.         Sperry Drilling:  DIRECTNL CONTR
 DOE .                     N/A:  DOE NUMBER
 RIG .              East Azeri:  RIG NAME
 JOBN.        AZ-XX-0905856059:  JOB TICKET NUMB
 WELL.                     D36:  WELL NAME
 MWDS.                    Baku:  MWD SHOP
 SRVC.     Turan Drilling & Engineering:  CONTRACTOR
 FLD .                     ACG:  FIELD NAME
 CTRY.              Azerbaijan:  COUNTRY NAME
 PROV.                    Baku:  PROVINCE
 STAT.                    Baku:  STATE NAME
 REGN.                   EESSA:  REGION
 BASE.              Azerbaijan:  LOGGING EQUIPMENT BASE LOCATION
 UWI .                     N/A:  UNIQUE WELL IDENTIFIER
 API .                     N/A:  API NUMBER
 COMP.     BP Exploration (Caspian Sea) Ltd.:  COMPANY
 WTYP.                Deviated:  WELL TYPE
 SON .        AZ-XX-0905856059:  JOB NUMBER
 FTOP.          Formation Tops:  FORM TOPS DESC
 ILTD.               Lithology:  INTERP LTH DESC
 SVYD.                  Survey:  SURVEY DESC
 DMOD.             Drill Model:  DRILL MOD DESC
 HPTY.       Minimum Curvature:  HOLE POS TYPE
 NREF.                    Grid:  NORTH REFERENCE
 SPUD.               25-Feb-20:  SPUD DATE
 DATE.      08.55.28 01-May-20:  END TIME
 STIM.      08.55.28 25-Feb-20:  START TIME
 DMF .             Drill Floor:  DRILL MEAS FROM
 DFST.                        :  DIST FSL TEXT
 DFWT.                        :  DIST FWL TEXT
 CNTY.                        :  COUNTY
 LOC .                        :  LOCATION
 LMF .             Drill Floor:  LOG MEASURED FROM
 VSNS.m                   6.09:  VERT SEC N/S
 VSEW.m                 -10.79:  VERT SEC E/W
 AGAP.m                  43.60:  AIR GAP
 DEP .m                 388.24:  DEPTH
 APD .m                  43.60:  DEPTH ABOVE PD
 WDMS.m                 151.80:  WD ELEV
 EGL .m                   0.00:  GROUND ELEVATION
 EPD .m                   0.00:  ELEVATION
 AZTC.deg                 6.12:  AZM TOTAL CORR
 GRDC.deg                 0.30:  GRID CORRECTION
 MDEC.deg                 6.42:  MAGNETIC DECL
 MDIP.deg                59.42:  MAGNETIC DIP
 MFLD.nT              50256.00:  MAGNETIC FIELD
 GVFD.g                   1.00:  GRAVITY FIELD
 VSDR.deg               159.57:  VERT SEC DIRECT
 TDD .m                5000.01:  TOTAL DEPTH (DRILLER)
 SDEP.m                 397.00:  START DEPTH
 DFSL.m                   0.00:  DISTANCE FSL
 DFWL.m                   0.00:  DISTANCE FWL
 UTMY.m             4431880.20:  UTM Y
 UTMX.m              538763.98:  UTM X
 WHEW.m                 -10.79:  WELL HEAD E/W
 WHNS.m                   6.09:  WELL HEAD N/S
 LONG.deg                51.45:  LONGITUDE
 LATI.deg                40.02:  LATITUDE
 TVDS.m                  43.60:  TVDSS CORRECTN
 EKB .m                  43.60:  KB ELEVATION
 EDF .m                  43.60:  DF ELEVATION
 MAGU.                 1847640:  MAGUTM CHECKSUM
 VSC .                       0:  VS TO CLOSURE
~Parameter Information Block
#MNEM.UNIT       Value        Description
#---------     -----------    ---------------------------
 AV  .mps                 1.30:  Ann Velocity 
 AVMX.mps                 1.90:  Max Ann Veloc 
 AZIF.deg               115.68:  Azm, Final 
 BHAT.                   Other:  BHA Type 
 BROT.°/30m               0.74:  Build Rotating 
 BS  .in                  8.50:  Bit Size 
 BTPL.psig              430.00:  Bit Press Loss 
 CABU.                      No:  Customer Abuse 
 TCS .hr                 51.31:  Time Ciculation Ended 
 CV  .mps                 2.52:  Crit Velocity 
 CVMX.mps                 2.62:  Max Crit Veloc 
 DD1 .          Teymur Aghayev:  Direct Drillr 1 
 DDSV.                   Other:  DD Service 
 DEFF.%                 100.00:  % Det Eff 
 DLRX.°/30m               1.62:  Dogleg Rot Max 
 DLSO.°/30m               0.74:  Dogleg Oriented 
 DLSX.°/30m               1.62:  Dogleg Str Max 
 DRET.      04.30.56 18-May-20:  Drill End Time 
 DRST.      04.30.56 18-May-20:  Drill Start Tim 
 DTIM.hr                  0.00:  Time Drilling 
 EDEP.m                5337.01:  End Depth 
 ENG1.      Artemiy Matviyanov:  Engineer 1 
 ENG2.      Bakhtiyar Jabbarli:  Engineer 2 
 ENG3.           Emil Huseynov:  Engineer 3 
 ETIM.      18.40.00 22-May-20:  End Time 
 FLOI.gpm               550.00:  Flow In 
 FLON.gpm               350.00:  Flow In Min 
 FLOS.cptm                0.00:  Fluid Loss 
 FLOX.gpm               600.00:  Flow In Max 
 HFLO.                      No:  High Flow 
 HPRE.                      No:  High Pressure 
 HTEM.                      No:  High Temp 
 HYDO.m                   1.80:  Hydro Offset 
 IFIN.deg                67.01:  Inc, Final 
 IMAX.deg                67.49:  Inc Max 
 IMIN.deg                66.50:  Inc Min 
 IMND.m                5144.79:  Inc Min Depth 
 IMXD.m                5116.12:  Inc Max Depth 
 JARR.                      No:  Jarring 
 LETM.      17.55.56 20-May-20:  Log End Time 
 LOST.hr                     0:  Lost Rig Time 
 LSTM.      04.30.56 18-May-20:  Log Start Time 
 MDCL.ppm            193153.00:  Mud Chlorides 
 MDES.     Inversion Oil/Synthetic:  Mud Desc 
 DFD .sg                  1.40:  Mud Density 
 MDMN.sg                  1.40:  Dens Mud Min 
 MDMX.sg                  1.41:  Dens Mud Max 
 MOIL.                      68:  Run Mud Oil % 
 MOWR.                   68:32:  Run Mud OWR 
 MSND.                     0.2:  Run Mud Sand % 
 MSOL.                    18.8:  Run Mud Solids% 
 DFV .spqt               80.00:  Mud Viscosity 
 MWOD.in                  6.75:  MWD Tool OD 
 MWSI.                      No:  Serv Intrp, MWD 
 OTIM.hr                104.84:  Time Operating 
 PMAX.psia            10690.93:  Press Op, Max 
 PV  .cP                 26.00:  Mud PV 
 RUN .                     900:  Run Number 
 ROPA.m/hr                0.00:  ROP Avg 
 ROPN.m/hr                0.00:  ROP Min 
 ROPX.m/hr                0.00:  ROP Max 
 RPMA.rpm               140.00:  RPM Surface Avg 
 RPMN.rpm                70.00:  RPM Surface Min 
 RPMX.rpm               140.00:  RPM Surface Max 
 RRUN.                    0900:  Rig Run Number 
 RTIM.hr                 36.00:  Time Reaming 
 SAZI.deg               115.72:  Azm, Start 
 SDEP.m                5337.01:  Start Depth 
 SIDD.                      No:  Serv Intrp, DD 
 SINC.deg                66.92:  Inc, Start 
 SPPA.psig             4400.00:  SPP Avg 
 SPPN.psig             1135.00:  SPP Min 
 SPPX.psig             4581.00:  SPP Max 
 STIM.      04.30.56 18-May-20:  Start Time 
 SVCS.                     MWD:  Services 
 SVER.                    9.20:  Sperry Version 
 TDAT.m                5337.01:  Tot Depth Attmp 
 TDDF.                      No:  Trip for DD 
 TFF .                      No:  Trip for Fail 
 TQAA.f-kp               23.00:  Torque Abs Avg 
 TQAN.f-kp               18.00:  Torque Abs Min 
 TQAX.f-kp               25.00:  Torque Abs Max 
 TRRT.°/30m               0.74:  Turn Rotating 
 MRT .                    HCIM:  Maximum Recorded Temperature 
 TTMX.degC               76.47:  Max Tool Temp 
 WBMN.klb                 0.00:  WOB Min 
 WITN.             Anar Khalil:  Customer Rep 
 WITN.      Kamran Keberlinski:  Customer Rep 2 
 WOBA.klb                 0.00:  WOB Avg 
 WOBX.klb                 0.00:  WOB Max 
 YP  .lhf2               27.00:  Yield Point 
~Curve Information Block
#MNEM.UNIT                 API CODE     Curve Description
#---------               -----------    ---------------------------
 TIME.HHMMSS            00 000 000 000:  GT Time & Date
 GTDEPTH.m              00 000 000 000:  GT Depth
 GTPQH.psia             00 000 000 000:  GT HR Quartz Pressure
 GTTQ.degC              00 000 000 000:  GT Quartz Temperature
 GTTN.NONE              00 000 000 000:  GT Test Number
 GTET.sec               00 000 000 000:  GT Elapsed Test Time
 GTTVD.m                00 000 000 000:  GT True Vertical Depth
#Other Information
#
#WARRANTY: Halliburton will use its best efforts to furnish customers with 
#accurate information and interpretations that are part of, and incident to, the services 
#provided.  However, Halliburton cannot and does not warrant the accuracy 
#or correctness of such information and interpretations.  Under no circumstances should any 
#such information or interpretation be relied upon as the sole basis for any drilling, 
#completion, production, or financial decision or any procedure involving any risk to the 
#safety of any drilling venture, drilling rig or its crew or any other third party.  The 
#Customer has full responsibility for all drilling, completion and production operation.  
#Halliburton makes no representations or warranties, either expressed or 
#implied, including, but not limited to, the implied warranties of merchantability or fitness 
#for a particular purpose, with respect to the services rendered.  In no event will 
#Halliburton be liable for failure to obtain any particular results or for 
#any damages, including, but not limited to, indirect, special or consequential damages, 
#resulting from the use of any information or interpretation provided by Halliburton.
#
~A           TIME           GTDEPTH  GTPQH  GTTQ  GTTN  GTET   GTTVD  
# ...
   04:29:42.688.20-May-2020 5064.29 2956.17 68.78 9.00 368.10 2676.66
   04:29:42.888.20-May-2020 5064.29 2956.17 68.78 9.00 368.30 2676.66
   04:29:43.089.20-May-2020 5064.29 2956.10 68.78 9.00 368.50 2676.66
   04:29:43.289.20-May-2020 5064.29 2956.30 68.78 9.00 368.70 2676.66
   04:29:43.489.20-May-2020 5064.29 2956.08 68.78 9.00 368.90 2676.66
   04:29:43.689.20-May-2020 5064.29 2956.18 68.78 9.00 369.10 2676.66
   04:29:43.889.20-May-2020 5064.29 2956.18 68.78 9.00 369.30 2676.66
   04:29:44.089.20-May-2020 5064.29 2956.14 68.78 9.00 369.50 2676.66
   04:29:44.289.20-May-2020 5064.29 2956.12 68.78 9.00 369.70 2676.66
   04:29:44.489.20-May-2020 5064.29 2956.09 68.78 9.00 369.90 2676.66
   04:29:44.689.20-May-2020 5064.29 2956.15 68.78 9.00 370.10 2676.66
   04:29:44.889.20-May-2020 5064.29 2956.15 68.78 9.00 370.30 2676.66
   04:29:45.089.20-May-2020 5064.29 2956.19 68.78 9.00 370.50 2676.66
   04:29:45.289.20-May-2020 5064.29 2956.10 68.78 9.00 370.70 2676.66
   04:29:45.489.20-May-2020 5064.29 2956.10 68.78 9.00 370.90 2676.66
   04:29:45.689.20-May-2020 5064.29 2956.18 68.78 9.00 371.10 2676.66
   04:29:45.889.20-May-2020 5064.29 2956.18 68.78 9.00 371.31 2676.66
   04:29:46.089.20-May-2020 5064.29 2956.12 68.78 9.00 371.51 2676.66
   04:29:46.289.20-May-2020 5064.29 2956.13 68.78 9.00 371.71 2676.66
   04:29:46.489.20-May-2020 5064.29 2956.10 68.78 9.00 371.91 2676.66
   04:29:46.690.20-May-2020 5064.29 2956.16 68.78 9.00 372.11 2676.66
   04:29:46.890.20-May-2020 5064.29 2956.16 68.78 9.00 372.31 2676.66
   04:29:47.090.20-May-2020 5064.29 2956.17 68.78 9.00 372.51 2676.66
   04:29:47.290.20-May-2020 5064.29 2956.11 68.78 9.00 372.71 2676.66
   04:29:47.490.20-May-2020 5064.29 2956.12 68.78 9.00 372.91 2676.66
   04:29:47.690.20-May-2020 5064.29 2956.16 68.78 9.00 373.11 2676.66
   04:29:47.890.20-May-2020 5064.29 2956.16 68.78 9.00 373.31 2676.66
   04:29:48.090.20-May-2020 5064.29 2956.17 68.78 9.00 373.51 2676.66
   04:29:48.290.20-May-2020 5064.29 2956.17 68.78 9.00 373.71 2676.66
   04:29:48.490.20-May-2020 5064.29 2956.12 68.78 9.00 373.91 2676.66
   04:29:48.690.20-May-2020 5064.29 2956.17 68.78 9.00 374.11 2676.66
   04:29:48.890.20-May-2020 5064.29 2956.17 68.78 9.00 374.31 2676.66
   04:29:49.090.20-May-2020 5064.29 2956.16 68.78 9.00 374.51 2676.66
   04:29:49.290.20-May-2020 5064.29 2956.00 68.78 9.00 374.71 2676.66
   04:29:49.490.20-May-2020 5064.29 2956.27 68.78 9.00 374.91 2676.66
   04:29:49.690.20-May-2020 5064.29 2956.15 68.78 9.00 375.11 2676.66
   04:29:49.890.20-May-2020 5064.29 2956.15 68.78 9.00 375.31 2676.66
   04:29:50.090.20-May-2020 5064.29 2956.04 68.78 9.00 375.51 2676.66
   04:29:50.291.20-May-2020 5064.29 2956.28 68.78 9.00 375.71 2676.66
   04:29:50.491.20-May-2020 5064.29 2956.10 68.78 9.00 375.91 2676.66
   04:29:50.691.20-May-2020 5064.29 2956.20 68.78 9.00 376.11 2676.66
   04:29:50.891.20-May-2020 5064.29 2956.20 68.78 9.00 376.31 2676.66
   04:29:51.091.20-May-2020 5064.29 2956.13 68.78 9.00 376.51 2676.66
   04:29:51.291.20-May-2020 5064.29 2956.11 68.78 9.00 376.71 2676.66
   04:29:51.491.20-May-2020 5064.29 2956.13 68.78 9.00 376.91 2676.66
   04:29:51.691.20-May-2020 5064.29 2956.19 68.78 9.00 377.11 2676.66
   04:29:51.891.20-May-2020 5064.29 2956.19 68.78 9.00 377.31 2676.66
   04:29:52.091.20-May-2020 5064.29 2956.20 68.78 9.00 377.51 2676.66
   04:29:52.291.20-May-2020 5064.29 2956.11 68.78 9.00 377.71 2676.66
   04:29:52.491.20-May-2020 5064.29 2956.14 68.78 9.00 377.91 2676.66
   04:29:52.691.20-May-2020 5064.29 2956.17 68.78 9.00 378.11 2676.66
   04:29:52.891.20-May-2020 5064.29 2956.17 68.78 9.00 378.31 2676.66
   04:29:53.091.20-May-2020 5064.29 2956.14 68.78 9.00 378.51 2676.66
   04:29:53.291.20-May-2020 5064.29 2956.11 68.78 9.00 378.71 2676.66
   04:29:53.491.20-May-2020 5064.29 2956.13 68.78 9.00 378.91 2676.66
   04:29:53.692.20-May-2020 5064.29 2956.22 68.78 9.00 379.11 2676.66
   04:29:53.892.20-May-2020 5064.29 2956.22 68.78 9.00 379.31 2676.66
   04:29:54.092.20-May-2020 5064.29 2956.19 68.78 9.00 379.51 2676.66
   04:29:54.292.20-May-2020 5064.29 2956.12 68.78 9.00 379.71 2676.66
   04:29:54.492.20-May-2020 5064.29 2956.13 68.78 9.00 379.91 2676.66
   04:29:54.692.20-May-2020 5064.29 2956.18 68.78 9.00 380.11 2676.66
   04:29:54.892.20-May-2020 5064.29 2956.18 68.78 9.00 380.31 2676.66
   04:29:55.092.20-May-2020 5064.29 2956.16 68.78 9.00 380.51 2676.66
   04:29:55.292.20-May-2020 5064.29 2956.14 68.78 9.00 380.71 2676.66
   04:29:55.492.20-May-2020 5064.29 2956.13 68.78 9.00 380.91 2676.66
   04:29:55.692.20-May-2020 5064.29 2956.18 68.78 9.00 381.11 2676.66
   04:29:55.892.20-May-2020 5064.29 2956.18 68.78 9.00 381.31 2676.66
   04:29:56.092.20-May-2020 5064.29 2956.15 68.78 9.00 381.51 2676.66
   04:29:56.292.20-May-2020 5064.29 2955.98 68.78 9.00 381.71 2676.66
   04:29:56.492.20-May-2020 5064.29 2956.27 68.78 9.00 381.91 2676.66
   04:29:56.692.20-May-2020 5064.29 2956.16 68.78 9.00 382.11 2676.66
   04:29:56.892.20-May-2020 5064.29 2956.16 68.78 9.00 382.31 2676.66
   04:29:57.092.20-May-2020 5064.29 2956.25 68.78 9.00 382.51 2676.66
   04:29:57.293.20-May-2020 5064.29 2956.11 68.78 9.00 382.71 2676.66
   04:29:57.493.20-May-2020 5064.29 2956.09 68.78 9.00 382.91 2676.66
   04:29:57.693.20-May-2020 5064.29 2956.20 68.78 9.00 383.11 2676.66
   04:29:57.893.20-May-2020 5064.29 2956.20 68.78 9.00 383.31 2676.66
   04:29:58.093.20-May-2020 5064.29 2956.04 68.78 9.00 383.51 2676.66
   04:29:58.293.20-May-2020 5064.29 2956.24 68.78 9.00 383.71 2676.66
   04:29:58.493.20-May-2020 5064.29 2956.11 68.78 9.00 383.91 2676.66
   04:29:58.693.20-May-2020 5064.29 2956.18 68.78 9.00 384.11 2676.66
   04:29:58.893.20-May-2020 5064.29 2956.18 68.78 9.00 384.31 2676.66
   04:29:59.093.20-May-2020 5064.29 2956.26 68.78 9.00 384.51 2676.66
   04:29:59.293.20-May-2020 5064.29 2956.12 68.78 9.00 384.71 2676.66
   04:29:59.493.20-May-2020 5064.29 2956.14 68.78 9.00 384.91 2676.66
   04:29:59.693.20-May-2020 5064.29 2956.23 68.78 9.00 385.11 2676.66
   04:29:59.893.20-May-2020 5064.29 2956.23 68.78 9.00 385.31 2676.66
   04:30:00.093.20-May-2020 5064.29 2956.04 68.78 9.00 385.51 2676.66
   04:30:00.293.20-May-2020 5064.29 2956.24 68.78 9.00 385.71 2676.66
   04:30:00.493.20-May-2020 5064.29 2956.12 68.78 9.00 385.91 2676.66
   04:30:00.693.20-May-2020 5064.29 2956.18 68.78 9.00 386.11 2676.66
   04:30:00.894.20-May-2020 5064.29 2956.18 68.78 9.00 386.31 2676.66
   04:30:01.094.20-May-2020 5064.29 2956.14 68.78 9.00 386.51 2676.66
   04:30:01.294.20-May-2020 5064.29 2956.12 68.78 9.00 386.71 2676.66
   04:30:01.494.20-May-2020 5064.29 2956.14 68.78 9.00 386.91 2676.66
   04:30:01.694.20-May-2020 5064.29 2956.17 68.78 9.00 387.11 2676.66
   04:30:01.894.20-May-2020 5064.29 2956.17 68.78 9.00 387.31 2676.66
   04:30:02.094.20-May-2020 5064.29 2956.17 68.78 9.00 387.51 2676.66
   04:30:02.294.20-May-2020 5064.29 2956.13 68.78 9.00 387.71 2676.66
   04:30:02.494.20-May-2020 5064.29 2956.12 68.78 9.00 387.91 2676.66
   04:30:02.694.20-May-2020 5064.29 2956.18 68.78 9.00 388.11 2676.66
   04:30:02.894.20-May-2020 5064.29 2956.18 68.78 9.00 388.31 2676.66
   04:30:03.094.20-May-2020 5064.29 2956.16 68.78 9.00 388.51 2676.66
   04:30:03.294.20-May-2020 5064.29 2956.15 68.78 9.00 388.71 2676.66
   04:30:03.494.20-May-2020 5064.29 2956.13 68.78 9.00 388.91 2676.66
   04:30:03.694.20-May-2020 5064.29 2956.16 68.78 9.00 389.11 2676.66
   04:30:03.894.20-May-2020 5064.29 2956.16 68.78 9.00 389.31 2676.66
   04:30:04.094.20-May-2020 5064.29 2956.23 68.78 9.00 389.51 2676.66
   04:30:04.295.20-May-2020 5064.29 2956.11 68.78 9.00 389.71 2676.66
   04:30:04.495.20-May-2020 5064.29 2956.15 68.78 9.00 389.91 2676.66
   04:30:04.695.20-May-2020 5064.29 2956.17 68.78 9.00 390.11 2676.66
   04:30:04.895.20-May-2020 5064.29 2956.17 68.78 9.00 390.31 2676.66
   04:30:05.095.20-May-2020 5064.29 2956.02 68.78 9.00 390.51 2676.66
   04:30:05.295.20-May-2020 5064.29 2956.28 68.78 9.00 390.71 2676.66
   04:30:05.495.20-May-2020 5064.29 2956.11 68.78 9.00 390.91 2676.66
