~Version Information
 VERS.                  2.0:   CWLS log ASCII Standard -VERSION 2.0
 WRAP.                   NO:   One line per depth step
~Well Information Block
#MNEM.UNIT     VALUE/NAME     DESCRIPTION
#---------     -----------    ---------------------------
 STRT.S             00:06:39 20-May-20: START TIME 00:06:39 20-May-20
 STOP.S             00:17:12 20-May-20: STOP TIME  00:17:12 20-May-20
 STEP.S                   0.00: STEP TIME
 NULL.                 -999.25: NULL VALUE
 MDS .        Operator Entered:  MAG DATA SOURCE
 PDAT.          Mean Sea Level:  PERMANENT DATUM
 UNIT.                     N/A:  LOGGING EQUIPMENT ID
 DCON.         Sperry Drilling:  DIRECTNL CONTR
 DOE .                     N/A:  DOE NUMBER
 RIG .              East Azeri:  RIG NAME
 JOBN.        AZ-XX-0905856059:  JOB TICKET NUMB
 WELL.                     D36:  WELL NAME
 MWDS.                    Baku:  MWD SHOP
 SRVC.     Turan Drilling & Engineering:  CONTRACTOR
 FLD .                     ACG:  FIELD NAME
 CTRY.              Azerbaijan:  COUNTRY NAME
 PROV.                    Baku:  PROVINCE
 STAT.                    Baku:  STATE NAME
 REGN.                   EESSA:  REGION
 BASE.              Azerbaijan:  LOGGING EQUIPMENT BASE LOCATION
 UWI .                     N/A:  UNIQUE WELL IDENTIFIER
 API .                     N/A:  API NUMBER
 COMP.     BP Exploration (Caspian Sea) Ltd.:  COMPANY
 WTYP.                Deviated:  WELL TYPE
 SON .        AZ-XX-0905856059:  JOB NUMBER
 FTOP.          Formation Tops:  FORM TOPS DESC
 ILTD.               Lithology:  INTERP LTH DESC
 SVYD.                  Survey:  SURVEY DESC
 DMOD.             Drill Model:  DRILL MOD DESC
 HPTY.       Minimum Curvature:  HOLE POS TYPE
 NREF.                    Grid:  NORTH REFERENCE
 SPUD.               25-Feb-20:  SPUD DATE
 DATE.      08.55.28 01-May-20:  END TIME
 STIM.      08.55.28 25-Feb-20:  START TIME
 DMF .             Drill Floor:  DRILL MEAS FROM
 DFST.                        :  DIST FSL TEXT
 DFWT.                        :  DIST FWL TEXT
 CNTY.                        :  COUNTY
 LOC .                        :  LOCATION
 LMF .             Drill Floor:  LOG MEASURED FROM
 VSNS.m                   6.09:  VERT SEC N/S
 VSEW.m                 -10.79:  VERT SEC E/W
 AGAP.m                  43.60:  AIR GAP
 DEP .m                 388.24:  DEPTH
 APD .m                  43.60:  DEPTH ABOVE PD
 WDMS.m                 151.80:  WD ELEV
 EGL .m                   0.00:  GROUND ELEVATION
 EPD .m                   0.00:  ELEVATION
 AZTC.deg                 6.12:  AZM TOTAL CORR
 GRDC.deg                 0.30:  GRID CORRECTION
 MDEC.deg                 6.42:  MAGNETIC DECL
 MDIP.deg                59.42:  MAGNETIC DIP
 MFLD.nT              50256.00:  MAGNETIC FIELD
 GVFD.g                   1.00:  GRAVITY FIELD
 VSDR.deg               159.57:  VERT SEC DIRECT
 TDD .m                5000.01:  TOTAL DEPTH (DRILLER)
 SDEP.m                 397.00:  START DEPTH
 DFSL.m                   0.00:  DISTANCE FSL
 DFWL.m                   0.00:  DISTANCE FWL
 UTMY.m             4431880.20:  UTM Y
 UTMX.m              538763.98:  UTM X
 WHEW.m                 -10.79:  WELL HEAD E/W
 WHNS.m                   6.09:  WELL HEAD N/S
 LONG.deg                51.45:  LONGITUDE
 LATI.deg                40.02:  LATITUDE
 TVDS.m                  43.60:  TVDSS CORRECTN
 EKB .m                  43.60:  KB ELEVATION
 EDF .m                  43.60:  DF ELEVATION
 MAGU.                 1847640:  MAGUTM CHECKSUM
 VSC .                       0:  VS TO CLOSURE
~Parameter Information Block
#MNEM.UNIT       Value        Description
#---------     -----------    ---------------------------
 AV  .mps                 1.30:  Ann Velocity 
 AVMX.mps                 1.90:  Max Ann Veloc 
 AZIF.deg               115.68:  Azm, Final 
 BHAT.                   Other:  BHA Type 
 BROT.°/30m               0.74:  Build Rotating 
 BS  .in                  8.50:  Bit Size 
 BTPL.psig              430.00:  Bit Press Loss 
 CABU.                      No:  Customer Abuse 
 COMM.                     \õd:  Run Comments 1 
 TCS .hr                 51.31:  Time Ciculation Ended 
 CV  .mps                 2.52:  Crit Velocity 
 CVMX.mps                 2.62:  Max Crit Veloc 
 DD1 .          Teymur Aghayev:  Direct Drillr 1 
 DDSV.                   Other:  DD Service 
 DEFF.%                 100.00:  % Det Eff 
 DLRX.°/30m               1.62:  Dogleg Rot Max 
 DLSO.°/30m               0.74:  Dogleg Oriented 
 DLSX.°/30m               1.62:  Dogleg Str Max 
 DRET.      04.30.56 18-May-20:  Drill End Time 
 DRST.      04.30.56 18-May-20:  Drill Start Tim 
 DTIM.hr                  0.00:  Time Drilling 
 EDEP.m                5337.01:  End Depth 
 ENG1.      Artemiy Matviyanov:  Engineer 1 
 ENG2.      Bakhtiyar Jabbarli:  Engineer 2 
 ENG3.           Emil Huseynov:  Engineer 3 
 ETIM.      18.40.00 22-May-20:  End Time 
 FLOI.gpm               550.00:  Flow In 
 FLON.gpm               350.00:  Flow In Min 
 FLOS.cptm                0.00:  Fluid Loss 
 FLOX.gpm               600.00:  Flow In Max 
 HFLO.                      No:  High Flow 
 HPRE.                      No:  High Pressure 
 HTEM.                      No:  High Temp 
 HYDO.m                   1.80:  Hydro Offset 
 IFIN.deg                67.01:  Inc, Final 
 IMAX.deg                67.49:  Inc Max 
 IMIN.deg                66.50:  Inc Min 
 IMND.m                5144.79:  Inc Min Depth 
 IMXD.m                5116.12:  Inc Max Depth 
 JARR.                      No:  Jarring 
 LETM.      17.55.56 20-May-20:  Log End Time 
 LOST.hr                     0:  Lost Rig Time 
 LSTM.      04.30.56 18-May-20:  Log Start Time 
 MDCL.ppm            193153.00:  Mud Chlorides 
 MDES.     Inversion Oil/Synthetic:  Mud Desc 
 DFD .sg                  1.40:  Mud Density 
 MDMN.sg                  1.40:  Dens Mud Min 
 MDMX.sg                  1.41:  Dens Mud Max 
 MOIL.                      68:  Run Mud Oil % 
 MOWR.                   68:32:  Run Mud OWR 
 MSND.                     0.2:  Run Mud Sand % 
 MSOL.                    18.8:  Run Mud Solids% 
 DFV .spqt               80.00:  Mud Viscosity 
 MWOD.in                  6.75:  MWD Tool OD 
 MWSI.                      No:  Serv Intrp, MWD 
 OTIM.hr                104.84:  Time Operating 
 PMAX.psia            10690.93:  Press Op, Max 
 PV  .cP                 26.00:  Mud PV 
 RUN .                     900:  Run Number 
 ROPA.m/hr                0.00:  ROP Avg 
 ROPN.m/hr                0.00:  ROP Min 
 ROPX.m/hr                0.00:  ROP Max 
 RPMA.rpm               140.00:  RPM Surface Avg 
 RPMN.rpm                70.00:  RPM Surface Min 
 RPMX.rpm               140.00:  RPM Surface Max 
 RRUN.                    0900:  Rig Run Number 
 RTIM.hr                 36.00:  Time Reaming 
 SAZI.deg               115.72:  Azm, Start 
 SDEP.m                5337.01:  Start Depth 
 SIDD.                      No:  Serv Intrp, DD 
 SINC.deg                66.92:  Inc, Start 
 SPPA.psig             4400.00:  SPP Avg 
 SPPN.psig             1135.00:  SPP Min 
 SPPX.psig             4581.00:  SPP Max 
 STIM.      04.30.56 18-May-20:  Start Time 
 SVCS.                     MWD:  Services 
 SVER.                    9.20:  Sperry Version 
 TDAT.m                5337.01:  Tot Depth Attmp 
 TDDF.                      No:  Trip for DD 
 TFF .                      No:  Trip for Fail 
 TQAA.f-kp               23.00:  Torque Abs Avg 
 TQAN.f-kp               18.00:  Torque Abs Min 
 TQAX.f-kp               25.00:  Torque Abs Max 
 TRRT.°/30m               0.74:  Turn Rotating 
 MRT .                    HCIM:  Maximum Recorded Temperature 
 TTMX.degC               76.47:  Max Tool Temp 
 WBMN.klb                 0.00:  WOB Min 
 WITN.             Anar Khalil:  Customer Rep 
 WITN.      Kamran Keberlinski:  Customer Rep 2 
 WOBA.klb                 0.00:  WOB Avg 
 WOBX.klb                 0.00:  WOB Max 
 YP  .lhf2               27.00:  Yield Point 
~Curve Information Block
#MNEM.UNIT                 API CODE     Curve Description
#---------               -----------    ---------------------------
 TIME.HHMMSS            00 000 000 000:  GT Time & Date
 GTDEPTH.m              00 000 000 000:  GT Depth
 GTPQH.psia             00 000 000 000:  GT HR Quartz Pressure
 GTTQ.degC              00 000 000 000:  GT Quartz Temperature
 GTTN.NONE              00 000 000 000:  GT Test Number
 GTET.sec               00 000 000 000:  GT Elapsed Test Time
 GTTVD.m                00 000 000 000:  GT True Vertical Depth
#Other Information
#
#WARRANTY: Halliburton will use its best efforts to furnish customers with 
#accurate information and interpretations that are part of, and incident to, the services 
#provided.  However, Halliburton cannot and does not warrant the accuracy 
#or correctness of such information and interpretations.  Under no circumstances should any 
#such information or interpretation be relied upon as the sole basis for any drilling, 
#completion, production, or financial decision or any procedure involving any risk to the 
#safety of any drilling venture, drilling rig or its crew or any other third party.  The 
#Customer has full responsibility for all drilling, completion and production operation.  
#Halliburton makes no representations or warranties, either expressed or 
#implied, including, but not limited to, the implied warranties of merchantability or fitness 
#for a particular purpose, with respect to the services rendered.  In no event will 
#Halliburton be liable for failure to obtain any particular results or for 
#any damages, including, but not limited to, indirect, special or consequential damages, 
#resulting from the use of any information or interpretation provided by Halliburton.
#
~A           TIME           GTDEPTH  GTPQH  GTTQ  GTTN  GTET   GTTVD  
# ...
   00:10:06.581.20-May-2020 5121.01 3572.74 67.86 6.00 207.05 2698.81
   00:10:06.781.20-May-2020 5121.01 3572.74 67.86 6.00 207.25 2698.81
   00:10:06.981.20-May-2020 5121.01 3572.73 67.86 6.00 207.45 2698.81
   00:10:07.181.20-May-2020 5121.01 3572.74 67.86 6.00 207.65 2698.81
   00:10:07.382.20-May-2020 5121.01 3572.74 67.86 6.00 207.85 2698.81
   00:10:07.582.20-May-2020 5121.01 3572.74 67.86 6.00 208.05 2698.81
   00:10:07.782.20-May-2020 5121.01 3572.74 67.86 6.00 208.25 2698.81
   00:10:07.982.20-May-2020 5121.01 3572.76 67.86 6.00 208.45 2698.81
   00:10:08.182.20-May-2020 5121.01 3572.73 67.86 6.00 208.65 2698.81
   00:10:08.382.20-May-2020 5121.01 3572.75 67.86 6.00 208.85 2698.81
   00:10:08.582.20-May-2020 5121.01 3572.75 67.86 6.00 209.05 2698.81
   00:10:08.782.20-May-2020 5121.01 3572.74 67.86 6.00 209.25 2698.81
   00:10:08.982.20-May-2020 5121.01 3572.79 67.86 6.00 209.45 2698.81
   00:10:09.182.20-May-2020 5121.01 3572.65 67.86 6.00 209.65 2698.81
   00:10:09.382.20-May-2020 5121.01 3572.80 67.86 6.00 209.85 2698.81
   00:10:09.582.20-May-2020 5121.01 3572.72 67.86 6.00 210.05 2698.81
   00:10:09.782.20-May-2020 5121.01 3572.72 67.86 6.00 210.25 2698.81
   00:10:09.982.20-May-2020 5121.01 3572.75 67.86 6.00 210.45 2698.81
   00:10:10.182.20-May-2020 5121.01 3572.76 67.86 6.00 210.65 2698.81
   00:10:10.382.20-May-2020 5121.01 3572.75 67.86 6.00 210.85 2698.81
   00:10:10.582.20-May-2020 5121.01 3572.72 67.86 6.00 211.05 2698.81
   00:10:10.782.20-May-2020 5121.01 3572.72 67.86 6.00 211.25 2698.81
   00:10:10.982.20-May-2020 5121.01 3572.72 67.86 6.00 211.45 2698.81
   00:10:11.182.20-May-2020 5121.01 3572.74 67.86 6.00 211.65 2698.81
   00:10:11.383.20-May-2020 5121.01 3572.76 67.86 6.00 211.85 2698.81
   00:10:11.583.20-May-2020 5121.01 3572.74 67.86 6.00 212.05 2698.81
   00:10:11.783.20-May-2020 5121.01 3572.74 67.86 6.00 212.25 2698.81
   00:10:11.983.20-May-2020 5121.01 3572.74 67.86 6.00 212.45 2698.81
   00:10:12.183.20-May-2020 5121.01 3572.73 67.86 6.00 212.65 2698.81
   00:10:12.383.20-May-2020 5121.01 3572.76 67.86 6.00 212.85 2698.81
   00:10:12.583.20-May-2020 5121.01 3572.72 67.86 6.00 213.05 2698.81
   00:10:12.783.20-May-2020 5121.01 3572.72 67.86 6.00 213.25 2698.81
   00:10:12.983.20-May-2020 5121.01 3572.71 67.86 6.00 213.45 2698.81
   00:10:13.183.20-May-2020 5121.01 3572.74 67.86 6.00 213.65 2698.81
   00:10:13.383.20-May-2020 5121.01 3572.72 67.86 6.00 213.85 2698.81
   00:10:13.583.20-May-2020 5121.01 3572.77 67.86 6.00 214.05 2698.81
   00:10:13.783.20-May-2020 5121.01 3572.77 67.86 6.00 214.25 2698.81
   00:10:13.983.20-May-2020 5121.01 3572.75 67.86 6.00 214.45 2698.81
   00:10:14.183.20-May-2020 5121.01 3572.67 67.86 6.00 214.65 2698.81
   00:10:14.383.20-May-2020 5121.01 3572.76 67.86 6.00 214.85 2698.81
   00:10:14.583.20-May-2020 5121.01 3572.72 67.86 6.00 215.05 2698.81
   00:10:14.783.20-May-2020 5121.01 3572.72 67.86 6.00 215.25 2698.81
   00:10:14.983.20-May-2020 5121.01 3572.74 67.86 6.00 215.45 2698.81
   00:10:15.183.20-May-2020 5121.01 3572.72 67.86 6.00 215.65 2698.81
   00:10:15.384.20-May-2020 5121.01 3572.74 67.86 6.00 215.85 2698.81
   00:10:15.584.20-May-2020 5121.01 3572.74 67.86 6.00 216.05 2698.81
   00:10:15.784.20-May-2020 5121.01 3572.74 67.86 6.00 216.25 2698.81
   00:10:15.984.20-May-2020 5121.01 3572.74 67.86 6.00 216.45 2698.81
   00:10:16.184.20-May-2020 5121.01 3572.74 67.86 6.00 216.65 2698.81
   00:10:16.384.20-May-2020 5121.01 3572.74 67.86 6.00 216.85 2698.81
   00:10:16.584.20-May-2020 5121.01 3572.78 67.86 6.00 217.05 2698.81
   00:10:16.784.20-May-2020 5121.01 3572.78 67.86 6.00 217.25 2698.81
   00:10:16.984.20-May-2020 5121.01 3572.75 67.86 6.00 217.45 2698.81
   00:10:17.184.20-May-2020 5121.01 3572.71 67.86 6.00 217.65 2698.81
   00:10:17.384.20-May-2020 5121.01 3572.79 67.86 6.00 217.85 2698.81
   00:10:17.584.20-May-2020 5121.01 3572.64 67.86 6.00 218.05 2698.81
   00:10:17.784.20-May-2020 5121.01 3572.64 67.86 6.00 218.25 2698.81
   00:10:17.984.20-May-2020 5121.01 3572.72 67.86 6.00 218.45 2698.81
   00:10:18.184.20-May-2020 5121.01 3572.75 67.86 6.00 218.65 2698.81
   00:10:18.384.20-May-2020 5121.01 3572.72 67.86 6.00 218.85 2698.81
   00:10:18.584.20-May-2020 5121.01 3572.76 67.86 6.00 219.05 2698.81
   00:10:18.784.20-May-2020 5121.01 3572.76 67.86 6.00 219.25 2698.81
   00:10:18.984.20-May-2020 5121.01 3571.51 67.86 6.00 219.45 2698.81
   00:10:19.184.20-May-2020 5121.01 3555.71 67.86 6.00 219.65 2698.81
   00:10:19.385.20-May-2020 5121.01 3548.59 67.86 6.00 219.85 2698.81
   00:10:19.585.20-May-2020 5121.01 3548.48 67.86 6.00 220.05 2698.81
   00:10:19.785.20-May-2020 5121.01 3548.48 67.86 6.00 220.25 2698.81
   00:10:19.985.20-May-2020 5121.01 3549.41 67.86 6.00 220.45 2698.81
   00:10:20.185.20-May-2020 5121.01 3549.07 67.86 6.00 220.66 2698.81
   00:10:20.385.20-May-2020 5121.01 3548.61 67.86 6.00 220.86 2698.81
   00:10:20.585.20-May-2020 5121.01 3549.07 67.86 6.00 221.06 2698.81
   00:10:20.785.20-May-2020 5121.01 3549.07 67.86 6.00 221.26 2698.81
   00:10:20.985.20-May-2020 5121.01 3549.11 67.86 6.00 221.46 2698.81
   00:10:21.185.20-May-2020 5121.01 3549.24 67.86 6.00 221.66 2698.81
   00:10:21.385.20-May-2020 5121.01 3549.53 67.86 6.00 221.86 2698.81
   00:10:21.585.20-May-2020 5121.01 3549.21 67.86 6.00 222.06 2698.81
   00:10:21.785.20-May-2020 5121.01 3549.21 67.86 6.00 222.26 2698.81
   00:10:21.985.20-May-2020 5121.01 3548.91 67.86 6.00 222.46 2698.81
   00:10:22.185.20-May-2020 5121.01 3548.48 67.86 6.00 222.66 2698.81
   00:10:22.385.20-May-2020 5121.01 3548.89 67.86 6.00 222.86 2698.81
   00:10:22.585.20-May-2020 5121.01 3548.25 67.86 6.00 223.06 2698.81
   00:10:22.785.20-May-2020 5121.01 3548.25 67.86 6.00 223.26 2698.81
   00:10:22.985.20-May-2020 5121.01 3549.09 67.86 6.00 223.46 2698.81
   00:10:23.185.20-May-2020 5121.01 3548.88 67.86 6.00 223.66 2698.81
   00:10:23.386.20-May-2020 5121.01 3549.33 67.86 6.00 223.86 2698.81
   00:10:23.586.20-May-2020 5121.01 3549.36 67.86 6.00 224.06 2698.81
   00:10:23.786.20-May-2020 5121.01 3549.36 67.86 6.00 224.26 2698.81
   00:10:23.986.20-May-2020 5121.01 3548.55 67.86 6.00 224.46 2698.81
   00:10:24.186.20-May-2020 5121.01 3548.15 67.86 6.00 224.66 2698.81
   00:10:24.386.20-May-2020 5121.01 3548.74 67.86 6.00 224.86 2698.81
   00:10:24.586.20-May-2020 5121.01 3548.42 67.86 6.00 225.06 2698.81
   00:10:24.786.20-May-2020 5121.01 3548.42 67.86 6.00 225.26 2698.81
   00:10:24.986.20-May-2020 5121.01 3549.00 67.86 6.00 225.46 2698.81
   00:10:25.186.20-May-2020 5121.01 3548.29 67.86 6.00 225.66 2698.81
   00:10:25.386.20-May-2020 5121.01 3548.79 67.86 6.00 225.86 2698.81
   00:10:25.586.20-May-2020 5121.01 3549.13 67.86 6.00 226.06 2698.81
   00:10:25.786.20-May-2020 5121.01 3549.12 67.86 6.00 226.26 2698.81
   00:10:25.986.20-May-2020 5121.01 3548.42 67.86 6.00 226.46 2698.81
   00:10:26.186.20-May-2020 5121.01 3548.68 67.86 6.00 226.66 2698.81
   00:10:26.386.20-May-2020 5121.01 3548.12 67.86 6.00 226.86 2698.81
   00:10:26.586.20-May-2020 5121.01 3548.69 67.86 6.00 227.06 2698.81
   00:10:26.786.20-May-2020 5121.01 3548.46 67.86 6.00 227.26 2698.81
   00:10:26.986.20-May-2020 5121.01 3549.26 67.86 6.00 227.46 2698.81
   00:10:27.186.20-May-2020 5121.01 3548.63 67.86 6.00 227.66 2698.81
   00:10:27.386.20-May-2020 5121.01 3549.19 67.86 6.00 227.86 2698.81
   00:10:27.587.20-May-2020 5121.01 3548.36 67.86 6.00 228.06 2698.81
   00:10:27.787.20-May-2020 5121.01 3548.36 67.86 6.00 228.26 2698.81
   00:10:27.987.20-May-2020 5121.01 3548.99 67.86 6.00 228.46 2698.81
   00:10:28.187.20-May-2020 5121.01 3548.40 67.86 6.00 228.66 2698.81
   00:10:28.387.20-May-2020 5121.01 3548.89 67.86 6.00 228.86 2698.81
   00:10:28.587.20-May-2020 5121.01 3548.89 67.86 6.00 229.06 2698.81
   00:10:28.787.20-May-2020 5121.01 3547.67 67.86 6.00 229.26 2698.81
   00:10:28.987.20-May-2020 5121.01 3549.40 67.86 6.00 229.46 2698.81
   00:10:29.187.20-May-2020 5121.01 3548.82 67.86 6.00 229.66 2698.81
   00:10:29.387.20-May-2020 5121.01 3549.05 67.86 6.00 229.86 2698.81
