~Version Information
 VERS.                  2.0:   CWLS log ASCII Standard -VERSION 2.0
 WRAP.                   NO:   One line per depth step
~Well Information Block
#MNEM.UNIT     VALUE/NAME     DESCRIPTION
#---------     -----------    ---------------------------
 STRT.S             02:05:08 20-May-20: START TIME 02:05:08 20-May-20
 STOP.S             02:15:48 20-May-20: STOP TIME  02:15:48 20-May-20
 STEP.S                   0.00: STEP TIME
 NULL.                 -999.25: NULL VALUE
 MDS .        Operator Entered:  MAG DATA SOURCE
 PDAT.          Mean Sea Level:  PERMANENT DATUM
 UNIT.                     N/A:  LOGGING EQUIPMENT ID
 DCON.         Sperry Drilling:  DIRECTNL CONTR
 DOE .                     N/A:  DOE NUMBER
 RIG .              East Azeri:  RIG NAME
 JOBN.        AZ-XX-0905856059:  JOB TICKET NUMB
 WELL.                     D36:  WELL NAME
 MWDS.                    Baku:  MWD SHOP
 SRVC.     Turan Drilling & Engineering:  CONTRACTOR
 FLD .                     ACG:  FIELD NAME
 CTRY.              Azerbaijan:  COUNTRY NAME
 PROV.                    Baku:  PROVINCE
 STAT.                    Baku:  STATE NAME
 REGN.                   EESSA:  REGION
 BASE.              Azerbaijan:  LOGGING EQUIPMENT BASE LOCATION
 UWI .                     N/A:  UNIQUE WELL IDENTIFIER
 API .                     N/A:  API NUMBER
 COMP.     BP Exploration (Caspian Sea) Ltd.:  COMPANY
 WTYP.                Deviated:  WELL TYPE
 SON .        AZ-XX-0905856059:  JOB NUMBER
 FTOP.          Formation Tops:  FORM TOPS DESC
 ILTD.               Lithology:  INTERP LTH DESC
 SVYD.                  Survey:  SURVEY DESC
 DMOD.             Drill Model:  DRILL MOD DESC
 HPTY.       Minimum Curvature:  HOLE POS TYPE
 NREF.                    Grid:  NORTH REFERENCE
 SPUD.               25-Feb-20:  SPUD DATE
 DATE.      08.55.28 01-May-20:  END TIME
 STIM.      08.55.28 25-Feb-20:  START TIME
 DMF .             Drill Floor:  DRILL MEAS FROM
 DFST.                        :  DIST FSL TEXT
 DFWT.                        :  DIST FWL TEXT
 CNTY.                        :  COUNTY
 LOC .                        :  LOCATION
 LMF .             Drill Floor:  LOG MEASURED FROM
 VSNS.m                   6.09:  VERT SEC N/S
 VSEW.m                 -10.79:  VERT SEC E/W
 AGAP.m                  43.60:  AIR GAP
 DEP .m                 388.24:  DEPTH
 APD .m                  43.60:  DEPTH ABOVE PD
 WDMS.m                 151.80:  WD ELEV
 EGL .m                   0.00:  GROUND ELEVATION
 EPD .m                   0.00:  ELEVATION
 AZTC.deg                 6.12:  AZM TOTAL CORR
 GRDC.deg                 0.30:  GRID CORRECTION
 MDEC.deg                 6.42:  MAGNETIC DECL
 MDIP.deg                59.42:  MAGNETIC DIP
 MFLD.nT              50256.00:  MAGNETIC FIELD
 GVFD.g                   1.00:  GRAVITY FIELD
 VSDR.deg               159.57:  VERT SEC DIRECT
 TDD .m                5000.01:  TOTAL DEPTH (DRILLER)
 SDEP.m                 397.00:  START DEPTH
 DFSL.m                   0.00:  DISTANCE FSL
 DFWL.m                   0.00:  DISTANCE FWL
 UTMY.m             4431880.20:  UTM Y
 UTMX.m              538763.98:  UTM X
 WHEW.m                 -10.79:  WELL HEAD E/W
 WHNS.m                   6.09:  WELL HEAD N/S
 LONG.deg                51.45:  LONGITUDE
 LATI.deg                40.02:  LATITUDE
 TVDS.m                  43.60:  TVDSS CORRECTN
 EKB .m                  43.60:  KB ELEVATION
 EDF .m                  43.60:  DF ELEVATION
 MAGU.                 1847640:  MAGUTM CHECKSUM
 VSC .                       0:  VS TO CLOSURE
~Parameter Information Block
#MNEM.UNIT       Value        Description
#---------     -----------    ---------------------------
 AV  .mps                 1.30:  Ann Velocity 
 AVMX.mps                 1.90:  Max Ann Veloc 
 AZIF.deg               115.68:  Azm, Final 
 BHAT.                   Other:  BHA Type 
 BROT.°/30m               0.74:  Build Rotating 
 BS  .in                  8.50:  Bit Size 
 BTPL.psig              430.00:  Bit Press Loss 
 CABU.                      No:  Customer Abuse 
 TCS .hr                 51.31:  Time Ciculation Ended 
 CV  .mps                 2.52:  Crit Velocity 
 CVMX.mps                 2.62:  Max Crit Veloc 
 DD1 .          Teymur Aghayev:  Direct Drillr 1 
 DDSV.                   Other:  DD Service 
 DEFF.%                 100.00:  % Det Eff 
 DLRX.°/30m               1.62:  Dogleg Rot Max 
 DLSO.°/30m               0.74:  Dogleg Oriented 
 DLSX.°/30m               1.62:  Dogleg Str Max 
 DRET.      04.30.56 18-May-20:  Drill End Time 
 DRST.      04.30.56 18-May-20:  Drill Start Tim 
 DTIM.hr                  0.00:  Time Drilling 
 EDEP.m                5337.01:  End Depth 
 ENG1.      Artemiy Matviyanov:  Engineer 1 
 ENG2.      Bakhtiyar Jabbarli:  Engineer 2 
 ENG3.           Emil Huseynov:  Engineer 3 
 ETIM.      18.40.00 22-May-20:  End Time 
 FLOI.gpm               550.00:  Flow In 
 FLON.gpm               350.00:  Flow In Min 
 FLOS.cptm                0.00:  Fluid Loss 
 FLOX.gpm               600.00:  Flow In Max 
 HFLO.                      No:  High Flow 
 HPRE.                      No:  High Pressure 
 HTEM.                      No:  High Temp 
 HYDO.m                   1.80:  Hydro Offset 
 IFIN.deg                67.01:  Inc, Final 
 IMAX.deg                67.49:  Inc Max 
 IMIN.deg                66.50:  Inc Min 
 IMND.m                5144.79:  Inc Min Depth 
 IMXD.m                5116.12:  Inc Max Depth 
 JARR.                      No:  Jarring 
 LETM.      17.55.56 20-May-20:  Log End Time 
 LOST.hr                     0:  Lost Rig Time 
 LSTM.      04.30.56 18-May-20:  Log Start Time 
 MDCL.ppm            193153.00:  Mud Chlorides 
 MDES.     Inversion Oil/Synthetic:  Mud Desc 
 DFD .sg                  1.40:  Mud Density 
 MDMN.sg                  1.40:  Dens Mud Min 
 MDMX.sg                  1.41:  Dens Mud Max 
 MOIL.                      68:  Run Mud Oil % 
 MOWR.                   68:32:  Run Mud OWR 
 MSND.                     0.2:  Run Mud Sand % 
 MSOL.                    18.8:  Run Mud Solids% 
 DFV .spqt               80.00:  Mud Viscosity 
 MWOD.in                  6.75:  MWD Tool OD 
 MWSI.                      No:  Serv Intrp, MWD 
 OTIM.hr                104.84:  Time Operating 
 PMAX.psia            10690.93:  Press Op, Max 
 PV  .cP                 26.00:  Mud PV 
 RUN .                     900:  Run Number 
 ROPA.m/hr                0.00:  ROP Avg 
 ROPN.m/hr                0.00:  ROP Min 
 ROPX.m/hr                0.00:  ROP Max 
 RPMA.rpm               140.00:  RPM Surface Avg 
 RPMN.rpm                70.00:  RPM Surface Min 
 RPMX.rpm               140.00:  RPM Surface Max 
 RRUN.                    0900:  Rig Run Number 
 RTIM.hr                 36.00:  Time Reaming 
 SAZI.deg               115.72:  Azm, Start 
 SDEP.m                5337.01:  Start Depth 
 SIDD.                      No:  Serv Intrp, DD 
 SINC.deg                66.92:  Inc, Start 
 SPPA.psig             4400.00:  SPP Avg 
 SPPN.psig             1135.00:  SPP Min 
 SPPX.psig             4581.00:  SPP Max 
 STIM.      04.30.56 18-May-20:  Start Time 
 SVCS.                     MWD:  Services 
 SVER.                    9.20:  Sperry Version 
 TDAT.m                5337.01:  Tot Depth Attmp 
 TDDF.                      No:  Trip for DD 
 TFF .                      No:  Trip for Fail 
 TQAA.f-kp               23.00:  Torque Abs Avg 
 TQAN.f-kp               18.00:  Torque Abs Min 
 TQAX.f-kp               25.00:  Torque Abs Max 
 TRRT.°/30m               0.74:  Turn Rotating 
 MRT .                    HCIM:  Maximum Recorded Temperature 
 TTMX.degC               76.47:  Max Tool Temp 
 WBMN.klb                 0.00:  WOB Min 
 WITN.             Anar Khalil:  Customer Rep 
 WITN.      Kamran Keberlinski:  Customer Rep 2 
 WOBA.klb                 0.00:  WOB Avg 
 WOBX.klb                 0.00:  WOB Max 
 YP  .lhf2               27.00:  Yield Point 
~Curve Information Block
#MNEM.UNIT                 API CODE     Curve Description
#---------               -----------    ---------------------------
 TIME.HHMMSS            00 000 000 000:  GT Time & Date
 GTDEPTH.m              00 000 000 000:  GT Depth
 GTPQH.psia             00 000 000 000:  GT HR Quartz Pressure
 GTTQ.degC              00 000 000 000:  GT Quartz Temperature
 GTTN.NONE              00 000 000 000:  GT Test Number
 GTET.sec               00 000 000 000:  GT Elapsed Test Time
 GTTVD.m                00 000 000 000:  GT True Vertical Depth
#Other Information
#
#WARRANTY: Halliburton will use its best efforts to furnish customers with 
#accurate information and interpretations that are part of, and incident to, the services 
#provided.  However, Halliburton cannot and does not warrant the accuracy 
#or correctness of such information and interpretations.  Under no circumstances should any 
#such information or interpretation be relied upon as the sole basis for any drilling, 
#completion, production, or financial decision or any procedure involving any risk to the 
#safety of any drilling venture, drilling rig or its crew or any other third party.  The 
#Customer has full responsibility for all drilling, completion and production operation.  
#Halliburton makes no representations or warranties, either expressed or 
#implied, including, but not limited to, the implied warranties of merchantability or fitness 
#for a particular purpose, with respect to the services rendered.  In no event will 
#Halliburton be liable for failure to obtain any particular results or for 
#any damages, including, but not limited to, indirect, special or consequential damages, 
#resulting from the use of any information or interpretation provided by Halliburton.
#
~A           TIME           GTDEPTH  GTPQH  GTTQ  GTTN  GTET   GTTVD  
# ...
   02:11:16.000.20-May-2020 5070.01 2956.17 68.33 7.00 368.00 2678.90
   02:11:16.200.20-May-2020 5070.01 2956.17 68.33 7.00 368.20 2678.90
   02:11:16.400.20-May-2020 5070.01 2956.00 68.33 7.00 368.40 2678.90
   02:11:16.600.20-May-2020 5070.01 2956.19 68.33 7.00 368.60 2678.90
   02:11:16.800.20-May-2020 5070.01 2956.14 68.33 7.00 368.80 2678.90
   02:11:17.000.20-May-2020 5070.01 2956.12 68.33 7.00 369.00 2678.90
   02:11:17.200.20-May-2020 5070.01 2956.12 68.33 7.00 369.20 2678.90
   02:11:17.400.20-May-2020 5070.01 2956.12 68.33 7.00 369.40 2678.90
   02:11:17.600.20-May-2020 5070.01 2956.15 68.33 7.00 369.60 2678.90
   02:11:17.800.20-May-2020 5070.01 2956.12 68.33 7.00 369.80 2678.90
   02:11:18.000.20-May-2020 5070.01 2956.15 68.33 7.00 370.00 2678.90
   02:11:18.200.20-May-2020 5070.01 2956.15 68.33 7.00 370.20 2678.90
   02:11:18.400.20-May-2020 5070.01 2956.12 68.33 7.00 370.40 2678.90
   02:11:18.600.20-May-2020 5070.01 2956.14 68.33 7.00 370.60 2678.90
   02:11:18.800.20-May-2020 5070.01 2956.12 68.33 7.00 370.80 2678.90
   02:11:19.000.20-May-2020 5070.01 2956.15 68.33 7.00 371.00 2678.90
   02:11:19.200.20-May-2020 5070.01 2956.15 68.33 7.00 371.20 2678.90
   02:11:19.400.20-May-2020 5070.01 2955.88 68.33 7.00 371.40 2678.90
   02:11:19.600.20-May-2020 5070.01 2956.30 68.33 7.00 371.60 2678.90
   02:11:19.800.20-May-2020 5070.01 2956.11 68.33 7.00 371.80 2678.90
   02:11:20.000.20-May-2020 5070.01 2956.13 68.33 7.00 372.00 2678.90
   02:11:20.200.20-May-2020 5070.01 2956.13 68.33 7.00 372.20 2678.90
   02:11:20.400.20-May-2020 5070.01 2956.11 68.33 7.00 372.40 2678.90
   02:11:20.600.20-May-2020 5070.01 2956.15 68.33 7.00 372.60 2678.90
   02:11:20.800.20-May-2020 5070.01 2956.12 68.33 7.00 372.80 2678.90
   02:11:21.000.20-May-2020 5070.01 2956.16 68.33 7.00 373.00 2678.90
   02:11:21.200.20-May-2020 5070.01 2956.16 68.33 7.00 373.20 2678.90
   02:11:21.400.20-May-2020 5070.01 2956.22 68.33 7.00 373.40 2678.90
   02:11:21.600.20-May-2020 5070.01 2956.14 68.33 7.00 373.60 2678.90
   02:11:21.800.20-May-2020 5070.01 2956.12 68.33 7.00 373.80 2678.90
   02:11:22.000.20-May-2020 5070.01 2955.98 68.33 7.00 374.00 2678.90
   02:11:22.200.20-May-2020 5070.01 2956.23 68.33 7.00 374.20 2678.90
   02:11:22.400.20-May-2020 5070.01 2956.08 68.33 7.00 374.40 2678.90
   02:11:22.600.20-May-2020 5070.01 2956.19 68.33 7.00 374.60 2678.90
   02:11:22.800.20-May-2020 5070.01 2956.13 68.33 7.00 374.80 2678.90
   02:11:23.000.20-May-2020 5070.01 2956.13 68.33 7.00 375.00 2678.90
   02:11:23.200.20-May-2020 5070.01 2956.13 68.33 7.00 375.20 2678.90
   02:11:23.400.20-May-2020 5070.01 2956.21 68.33 7.00 375.40 2678.90
   02:11:23.600.20-May-2020 5070.01 2956.15 68.33 7.00 375.60 2678.90
   02:11:23.800.20-May-2020 5070.01 2956.14 68.33 7.00 375.80 2678.90
   02:11:24.000.20-May-2020 5070.01 2956.16 68.33 7.00 376.00 2678.90
   02:11:24.200.20-May-2020 5070.01 2956.16 68.33 7.00 376.20 2678.90
   02:11:24.400.20-May-2020 5070.01 2956.11 68.33 7.00 376.40 2678.90
   02:11:24.600.20-May-2020 5070.01 2956.16 68.33 7.00 376.60 2678.90
   02:11:24.800.20-May-2020 5070.01 2956.09 68.33 7.00 376.80 2678.90
   02:11:25.000.20-May-2020 5070.01 2956.15 68.33 7.00 377.00 2678.90
   02:11:25.200.20-May-2020 5070.01 2956.12 68.33 7.00 377.20 2678.90
   02:11:25.400.20-May-2020 5070.01 2956.10 68.33 7.00 377.40 2678.90
   02:11:25.600.20-May-2020 5070.01 2956.13 68.33 7.00 377.60 2678.90
   02:11:25.800.20-May-2020 5070.01 2956.11 68.33 7.00 377.80 2678.90
   02:11:26.000.20-May-2020 5070.01 2956.14 68.33 7.00 378.00 2678.90
   02:11:26.200.20-May-2020 5070.01 2956.14 68.33 7.00 378.20 2678.90
   02:11:26.400.20-May-2020 5070.01 2955.96 68.33 7.00 378.40 2678.90
   02:11:26.600.20-May-2020 5070.01 2956.18 68.33 7.00 378.60 2678.90
   02:11:26.800.20-May-2020 5070.01 2956.09 68.33 7.00 378.80 2678.90
   02:11:27.000.20-May-2020 5070.01 2956.14 68.33 7.00 379.00 2678.90
   02:11:27.200.20-May-2020 5070.01 2956.14 68.33 7.00 379.20 2678.90
   02:11:27.400.20-May-2020 5070.01 2956.11 68.33 7.00 379.40 2678.90
   02:11:27.600.20-May-2020 5070.01 2956.17 68.33 7.00 379.60 2678.90
   02:11:27.800.20-May-2020 5070.01 2956.07 68.33 7.00 379.80 2678.90
   02:11:28.000.20-May-2020 5070.01 2956.16 68.33 7.00 380.00 2678.90
   02:11:28.200.20-May-2020 5070.01 2956.16 68.33 7.00 380.20 2678.90
   02:11:28.400.20-May-2020 5070.01 2956.24 68.33 7.00 380.40 2678.90
   02:11:28.600.20-May-2020 5070.01 2956.14 68.33 7.00 380.60 2678.90
   02:11:28.800.20-May-2020 5070.01 2956.14 68.33 7.00 380.80 2678.90
   02:11:29.000.20-May-2020 5070.01 2955.91 68.33 7.00 381.00 2678.90
   02:11:29.200.20-May-2020 5070.01 2956.40 68.33 7.00 381.20 2678.90
   02:11:29.400.20-May-2020 5070.01 2956.57 68.33 7.00 381.40 2678.90
   02:11:29.600.20-May-2020 5070.01 2956.30 68.33 7.00 381.60 2678.90
   02:11:29.800.20-May-2020 5070.01 2956.11 68.33 7.00 381.80 2678.90
   02:11:30.000.20-May-2020 5070.01 2956.15 68.33 7.00 382.00 2678.90
   02:11:30.200.20-May-2020 5070.01 2955.88 68.33 7.00 382.20 2678.90
   02:11:30.400.20-May-2020 5070.01 2956.25 68.33 7.00 382.40 2678.90
   02:11:30.600.20-May-2020 5070.01 2956.14 68.33 7.00 382.60 2678.90
   02:11:30.800.20-May-2020 5070.01 2956.14 68.33 7.00 382.80 2678.90
   02:11:31.000.20-May-2020 5070.01 2956.14 68.33 7.00 383.00 2678.90
   02:11:31.200.20-May-2020 5070.01 2956.14 68.33 7.00 383.20 2678.90
   02:11:31.400.20-May-2020 5070.01 2956.13 68.33 7.00 383.40 2678.90
   02:11:31.600.20-May-2020 5070.01 2956.15 68.33 7.00 383.60 2678.90
   02:11:31.800.20-May-2020 5070.01 2956.10 68.33 7.00 383.80 2678.90
   02:11:32.000.20-May-2020 5070.01 2956.14 68.33 7.00 384.00 2678.90
   02:11:32.200.20-May-2020 5070.01 2956.14 68.33 7.00 384.20 2678.90
   02:11:32.400.20-May-2020 5070.01 2956.10 68.33 7.00 384.40 2678.90
   02:11:32.600.20-May-2020 5070.01 2956.15 68.33 7.00 384.60 2678.90
   02:11:32.800.20-May-2020 5070.01 2956.10 68.33 7.00 384.80 2678.90
   02:11:33.000.20-May-2020 5070.01 2956.13 68.33 7.00 385.00 2678.90
   02:11:33.200.20-May-2020 5070.01 2956.13 68.33 7.00 385.20 2678.90
   02:11:33.400.20-May-2020 5070.01 2955.97 68.33 7.00 385.40 2678.90
   02:11:33.600.20-May-2020 5070.01 2956.16 68.33 7.00 385.60 2678.90
   02:11:33.800.20-May-2020 5070.01 2956.12 68.33 7.00 385.80 2678.90
   02:11:34.000.20-May-2020 5070.01 2955.91 68.33 7.00 386.00 2678.90
   02:11:34.200.20-May-2020 5070.01 2956.26 68.33 7.00 386.20 2678.90
   02:11:34.400.20-May-2020 5070.01 2956.08 68.33 7.00 386.40 2678.90
   02:11:34.600.20-May-2020 5070.01 2956.15 68.33 7.00 386.60 2678.90
   02:11:34.800.20-May-2020 5070.01 2956.14 68.33 7.00 386.80 2678.90
   02:11:35.000.20-May-2020 5070.01 2956.13 68.33 7.00 387.00 2678.90
   02:11:35.200.20-May-2020 5070.01 2956.13 68.33 7.00 387.20 2678.90
   02:11:35.400.20-May-2020 5070.01 2956.24 68.33 7.00 387.40 2678.90
   02:11:35.600.20-May-2020 5070.01 2956.15 68.33 7.00 387.60 2678.90
   02:11:35.800.20-May-2020 5070.01 2956.09 68.33 7.00 387.80 2678.90
   02:11:36.000.20-May-2020 5070.01 2955.94 68.33 7.00 388.00 2678.90
   02:11:36.200.20-May-2020 5070.01 2955.94 68.33 7.00 388.20 2678.90
   02:11:36.400.20-May-2020 5070.01 2956.44 68.33 7.00 388.40 2678.90
   02:11:36.600.20-May-2020 5070.01 2956.76 68.33 7.00 388.60 2678.90
   02:11:36.800.20-May-2020 5070.01 2956.32 68.33 7.00 388.80 2678.90
   02:11:37.000.20-May-2020 5070.01 2956.48 68.33 7.00 389.00 2678.90
   02:11:37.200.20-May-2020 5070.01 2956.19 68.33 7.00 389.20 2678.90
   02:11:37.400.20-May-2020 5070.01 2956.73 68.33 7.00 389.40 2678.90
   02:11:37.600.20-May-2020 5070.01 2956.55 68.33 7.00 389.60 2678.90
   02:11:37.800.20-May-2020 5070.01 2956.35 68.33 7.00 389.80 2678.90
   02:11:38.000.20-May-2020 5070.01 2956.39 68.33 7.00 390.00 2678.90
   02:11:38.200.20-May-2020 5070.01 2956.25 68.33 7.00 390.20 2678.90
   02:11:38.400.20-May-2020 5070.01 2956.27 68.33 7.00 390.40 2678.90
   02:11:38.600.20-May-2020 5070.01 2956.25 68.33 7.00 390.60 2678.90
   02:11:38.800.20-May-2020 5070.01 2956.13 68.33 7.00 390.80 2678.90
