~Version Information
 VERS.                  2.0:   CWLS log ASCII Standard -VERSION 2.0
 WRAP.                   NO:   One line per depth step
~Well Information Block
#MNEM.UNIT     VALUE/NAME     DESCRIPTION
#---------     -----------    ---------------------------
 STRT.S             04:23:34 20-May-20: START TIME 04:23:34 20-May-20
 STOP.S             04:34:06 20-May-20: STOP TIME  04:34:06 20-May-20
 STEP.S                   0.00: STEP TIME
 NULL.                 -999.25: NULL VALUE
 MDS .        Operator Entered:  MAG DATA SOURCE
 PDAT.          Mean Sea Level:  PERMANENT DATUM
 UNIT.                     N/A:  LOGGING EQUIPMENT ID
 DCON.         Sperry Drilling:  DIRECTNL CONTR
 DOE .                     N/A:  DOE NUMBER
 RIG .              East Azeri:  RIG NAME
 JOBN.        AZ-XX-0905856059:  JOB TICKET NUMB
 WELL.                     D36:  WELL NAME
 MWDS.                    Baku:  MWD SHOP
 SRVC.     Turan Drilling & Engineering:  CONTRACTOR
 FLD .                     ACG:  FIELD NAME
 CTRY.              Azerbaijan:  COUNTRY NAME
 PROV.                    Baku:  PROVINCE
 STAT.                    Baku:  STATE NAME
 REGN.                   EESSA:  REGION
 BASE.              Azerbaijan:  LOGGING EQUIPMENT BASE LOCATION
 UWI .                     N/A:  UNIQUE WELL IDENTIFIER
 API .                     N/A:  API NUMBER
 COMP.     BP Exploration (Caspian Sea) Ltd.:  COMPANY
 WTYP.                Deviated:  WELL TYPE
 SON .        AZ-XX-0905856059:  JOB NUMBER
 FTOP.          Formation Tops:  FORM TOPS DESC
 ILTD.               Lithology:  INTERP LTH DESC
 SVYD.                  Survey:  SURVEY DESC
 DMOD.             Drill Model:  DRILL MOD DESC
 HPTY.       Minimum Curvature:  HOLE POS TYPE
 NREF.                    Grid:  NORTH REFERENCE
 SPUD.               25-Feb-20:  SPUD DATE
 DATE.      08.55.28 01-May-20:  END TIME
 STIM.      08.55.28 25-Feb-20:  START TIME
 DMF .             Drill Floor:  DRILL MEAS FROM
 DFST.                        :  DIST FSL TEXT
 DFWT.                        :  DIST FWL TEXT
 CNTY.                        :  COUNTY
 LOC .                        :  LOCATION
 LMF .             Drill Floor:  LOG MEASURED FROM
 VSNS.m                   6.09:  VERT SEC N/S
 VSEW.m                 -10.79:  VERT SEC E/W
 AGAP.m                  43.60:  AIR GAP
 DEP .m                 388.24:  DEPTH
 APD .m                  43.60:  DEPTH ABOVE PD
 WDMS.m                 151.80:  WD ELEV
 EGL .m                   0.00:  GROUND ELEVATION
 EPD .m                   0.00:  ELEVATION
 AZTC.deg                 6.12:  AZM TOTAL CORR
 GRDC.deg                 0.30:  GRID CORRECTION
 MDEC.deg                 6.42:  MAGNETIC DECL
 MDIP.deg                59.42:  MAGNETIC DIP
 MFLD.nT              50256.00:  MAGNETIC FIELD
 GVFD.g                   1.00:  GRAVITY FIELD
 VSDR.deg               159.57:  VERT SEC DIRECT
 TDD .m                5000.01:  TOTAL DEPTH (DRILLER)
 SDEP.m                 397.00:  START DEPTH
 DFSL.m                   0.00:  DISTANCE FSL
 DFWL.m                   0.00:  DISTANCE FWL
 UTMY.m             4431880.20:  UTM Y
 UTMX.m              538763.98:  UTM X
 WHEW.m                 -10.79:  WELL HEAD E/W
 WHNS.m                   6.09:  WELL HEAD N/S
 LONG.deg                51.45:  LONGITUDE
 LATI.deg                40.02:  LATITUDE
 TVDS.m                  43.60:  TVDSS CORRECTN
 EKB .m                  43.60:  KB ELEVATION
 EDF .m                  43.60:  DF ELEVATION
 MAGU.                 1847640:  MAGUTM CHECKSUM
 VSC .                       0:  VS TO CLOSURE
~Parameter Information Block
#MNEM.UNIT       Value        Description
#---------     -----------    ---------------------------
 AV  .mps                 1.30:  Ann Velocity 
 AVMX.mps                 1.90:  Max Ann Veloc 
 AZIF.deg               115.68:  Azm, Final 
 BHAT.                   Other:  BHA Type 
 BROT.°/30m               0.74:  Build Rotating 
 BS  .in                  8.50:  Bit Size 
 BTPL.psig              430.00:  Bit Press Loss 
 CABU.                      No:  Customer Abuse 
 TCS .hr                 51.31:  Time Ciculation Ended 
 CV  .mps                 2.52:  Crit Velocity 
 CVMX.mps                 2.62:  Max Crit Veloc 
 DD1 .          Teymur Aghayev:  Direct Drillr 1 
 DDSV.                   Other:  DD Service 
 DEFF.%                 100.00:  % Det Eff 
 DLRX.°/30m               1.62:  Dogleg Rot Max 
 DLSO.°/30m               0.74:  Dogleg Oriented 
 DLSX.°/30m               1.62:  Dogleg Str Max 
 DRET.      04.30.56 18-May-20:  Drill End Time 
 DRST.      04.30.56 18-May-20:  Drill Start Tim 
 DTIM.hr                  0.00:  Time Drilling 
 EDEP.m                5337.01:  End Depth 
 ENG1.      Artemiy Matviyanov:  Engineer 1 
 ENG2.      Bakhtiyar Jabbarli:  Engineer 2 
 ENG3.           Emil Huseynov:  Engineer 3 
 ETIM.      18.40.00 22-May-20:  End Time 
 FLOI.gpm               550.00:  Flow In 
 FLON.gpm               350.00:  Flow In Min 
 FLOS.cptm                0.00:  Fluid Loss 
 FLOX.gpm               600.00:  Flow In Max 
 HFLO.                      No:  High Flow 
 HPRE.                      No:  High Pressure 
 HTEM.                      No:  High Temp 
 HYDO.m                   1.80:  Hydro Offset 
 IFIN.deg                67.01:  Inc, Final 
 IMAX.deg                67.49:  Inc Max 
 IMIN.deg                66.50:  Inc Min 
 IMND.m                5144.79:  Inc Min Depth 
 IMXD.m                5116.12:  Inc Max Depth 
 JARR.                      No:  Jarring 
 LETM.      17.55.56 20-May-20:  Log End Time 
 LOST.hr                     0:  Lost Rig Time 
 LSTM.      04.30.56 18-May-20:  Log Start Time 
 MDCL.ppm            193153.00:  Mud Chlorides 
 MDES.     Inversion Oil/Synthetic:  Mud Desc 
 DFD .sg                  1.40:  Mud Density 
 MDMN.sg                  1.40:  Dens Mud Min 
 MDMX.sg                  1.41:  Dens Mud Max 
 MOIL.                      68:  Run Mud Oil % 
 MOWR.                   68:32:  Run Mud OWR 
 MSND.                     0.2:  Run Mud Sand % 
 MSOL.                    18.8:  Run Mud Solids% 
 DFV .spqt               80.00:  Mud Viscosity 
 MWOD.in                  6.75:  MWD Tool OD 
 MWSI.                      No:  Serv Intrp, MWD 
 OTIM.hr                104.84:  Time Operating 
 PMAX.psia            10690.93:  Press Op, Max 
 PV  .cP                 26.00:  Mud PV 
 RUN .                     900:  Run Number 
 ROPA.m/hr                0.00:  ROP Avg 
 ROPN.m/hr                0.00:  ROP Min 
 ROPX.m/hr                0.00:  ROP Max 
 RPMA.rpm               140.00:  RPM Surface Avg 
 RPMN.rpm                70.00:  RPM Surface Min 
 RPMX.rpm               140.00:  RPM Surface Max 
 RRUN.                    0900:  Rig Run Number 
 RTIM.hr                 36.00:  Time Reaming 
 SAZI.deg               115.72:  Azm, Start 
 SDEP.m                5337.01:  Start Depth 
 SIDD.                      No:  Serv Intrp, DD 
 SINC.deg                66.92:  Inc, Start 
 SPPA.psig             4400.00:  SPP Avg 
 SPPN.psig             1135.00:  SPP Min 
 SPPX.psig             4581.00:  SPP Max 
 STIM.      04.30.56 18-May-20:  Start Time 
 SVCS.                     MWD:  Services 
 SVER.                    9.20:  Sperry Version 
 TDAT.m                5337.01:  Tot Depth Attmp 
 TDDF.                      No:  Trip for DD 
 TFF .                      No:  Trip for Fail 
 TQAA.f-kp               23.00:  Torque Abs Avg 
 TQAN.f-kp               18.00:  Torque Abs Min 
 TQAX.f-kp               25.00:  Torque Abs Max 
 TRRT.°/30m               0.74:  Turn Rotating 
 MRT .                    HCIM:  Maximum Recorded Temperature 
 TTMX.degC               76.47:  Max Tool Temp 
 WBMN.klb                 0.00:  WOB Min 
 WITN.             Anar Khalil:  Customer Rep 
 WITN.      Kamran Keberlinski:  Customer Rep 2 
 WOBA.klb                 0.00:  WOB Avg 
 WOBX.klb                 0.00:  WOB Max 
 YP  .lhf2               27.00:  Yield Point 
~Curve Information Block
#MNEM.UNIT                 API CODE     Curve Description
#---------               -----------    ---------------------------
 TIME.HHMMSS            00 000 000 000:  GT Time & Date
 GTDEPTH.m              00 000 000 000:  GT Depth
 GTPQH.psia             00 000 000 000:  GT HR Quartz Pressure
 GTTQ.degC              00 000 000 000:  GT Quartz Temperature
 GTTN.NONE              00 000 000 000:  GT Test Number
 GTET.sec               00 000 000 000:  GT Elapsed Test Time
 GTTVD.m                00 000 000 000:  GT True Vertical Depth
#Other Information
#
#WARRANTY: Halliburton will use its best efforts to furnish customers with 
#accurate information and interpretations that are part of, and incident to, the services 
#provided.  However, Halliburton cannot and does not warrant the accuracy 
#or correctness of such information and interpretations.  Under no circumstances should any 
#such information or interpretation be relied upon as the sole basis for any drilling, 
#completion, production, or financial decision or any procedure involving any risk to the 
#safety of any drilling venture, drilling rig or its crew or any other third party.  The 
#Customer has full responsibility for all drilling, completion and production operation.  
#Halliburton makes no representations or warranties, either expressed or 
#implied, including, but not limited to, the implied warranties of merchantability or fitness 
#for a particular purpose, with respect to the services rendered.  In no event will 
#Halliburton be liable for failure to obtain any particular results or for 
#any damages, including, but not limited to, indirect, special or consequential damages, 
#resulting from the use of any information or interpretation provided by Halliburton.
#
~A           TIME           GTDEPTH  GTPQH  GTTQ  GTTN  GTET   GTTVD  
# ...
   04:28:56.675.20-May-2020 5064.29 2956.09 68.78 9.00 322.09 2676.66
   04:28:56.875.20-May-2020 5064.29 2956.09 68.78 9.00 322.29 2676.66
   04:28:57.076.20-May-2020 5064.29 2956.13 68.78 9.00 322.49 2676.66
   04:28:57.276.20-May-2020 5064.29 2956.13 68.78 9.00 322.69 2676.66
   04:28:57.476.20-May-2020 5064.29 2955.94 68.78 9.00 322.89 2676.66
   04:28:57.676.20-May-2020 5064.29 2956.26 68.78 9.00 323.09 2676.66
   04:28:57.876.20-May-2020 5064.29 2956.26 68.78 9.00 323.29 2676.66
   04:28:58.076.20-May-2020 5064.29 2956.16 68.78 9.00 323.49 2676.66
   04:28:58.276.20-May-2020 5064.29 2956.12 68.78 9.00 323.69 2676.66
   04:28:58.476.20-May-2020 5064.29 2956.08 68.78 9.00 323.89 2676.66
   04:28:58.676.20-May-2020 5064.29 2956.12 68.78 9.00 324.09 2676.66
   04:28:58.876.20-May-2020 5064.29 2956.12 68.78 9.00 324.29 2676.66
   04:28:59.076.20-May-2020 5064.29 2956.11 68.78 9.00 324.49 2676.66
   04:28:59.276.20-May-2020 5064.29 2956.12 68.78 9.00 324.69 2676.66
   04:28:59.476.20-May-2020 5064.29 2956.10 68.78 9.00 324.89 2676.66
   04:28:59.676.20-May-2020 5064.29 2956.12 68.78 9.00 325.09 2676.66
   04:28:59.876.20-May-2020 5064.29 2956.12 68.78 9.00 325.29 2676.66
   04:29:00.076.20-May-2020 5064.29 2956.12 68.78 9.00 325.49 2676.66
   04:29:00.276.20-May-2020 5064.29 2956.13 68.78 9.00 325.69 2676.66
   04:29:00.476.20-May-2020 5064.29 2956.09 68.78 9.00 325.89 2676.66
   04:29:00.677.20-May-2020 5064.29 2956.13 68.78 9.00 326.09 2676.66
   04:29:00.877.20-May-2020 5064.29 2956.13 68.78 9.00 326.29 2676.66
   04:29:01.077.20-May-2020 5064.29 2956.15 68.78 9.00 326.49 2676.66
   04:29:01.277.20-May-2020 5064.29 2956.01 68.78 9.00 326.69 2676.66
   04:29:01.477.20-May-2020 5064.29 2956.22 68.78 9.00 326.89 2676.66
   04:29:01.677.20-May-2020 5064.29 2956.11 68.78 9.00 327.09 2676.66
   04:29:01.877.20-May-2020 5064.29 2956.11 68.78 9.00 327.29 2676.66
   04:29:02.077.20-May-2020 5064.29 2956.19 68.78 9.00 327.49 2676.66
   04:29:02.277.20-May-2020 5064.29 2956.11 68.78 9.00 327.69 2676.66
   04:29:02.477.20-May-2020 5064.29 2955.92 68.78 9.00 327.89 2676.66
   04:29:02.677.20-May-2020 5064.29 2956.28 68.78 9.00 328.09 2676.66
   04:29:02.877.20-May-2020 5064.29 2956.28 68.78 9.00 328.29 2676.66
   04:29:03.077.20-May-2020 5064.29 2956.15 68.78 9.00 328.49 2676.66
   04:29:03.277.20-May-2020 5064.29 2956.03 68.78 9.00 328.69 2676.66
   04:29:03.477.20-May-2020 5064.29 2956.19 68.78 9.00 328.89 2676.66
   04:29:03.677.20-May-2020 5064.29 2956.11 68.78 9.00 329.09 2676.66
   04:29:03.877.20-May-2020 5064.29 2956.11 68.78 9.00 329.29 2676.66
   04:29:04.077.20-May-2020 5064.29 2956.18 68.78 9.00 329.49 2676.66
   04:29:04.278.20-May-2020 5064.29 2956.11 68.78 9.00 329.69 2676.66
   04:29:04.478.20-May-2020 5064.29 2955.93 68.78 9.00 329.89 2676.66
   04:29:04.678.20-May-2020 5064.29 2956.29 68.78 9.00 330.09 2676.66
   04:29:04.878.20-May-2020 5064.29 2956.29 68.78 9.00 330.29 2676.66
   04:29:05.078.20-May-2020 5064.29 2956.15 68.78 9.00 330.49 2676.66
   04:29:05.278.20-May-2020 5064.29 2956.18 68.78 9.00 330.69 2676.66
   04:29:05.478.20-May-2020 5064.29 2956.06 68.78 9.00 330.89 2676.66
   04:29:05.678.20-May-2020 5064.29 2956.13 68.78 9.00 331.09 2676.66
   04:29:05.878.20-May-2020 5064.29 2956.13 68.78 9.00 331.29 2676.66
   04:29:06.078.20-May-2020 5064.29 2956.12 68.78 9.00 331.49 2676.66
   04:29:06.278.20-May-2020 5064.29 2956.14 68.78 9.00 331.69 2676.66
   04:29:06.478.20-May-2020 5064.29 2956.11 68.78 9.00 331.89 2676.66
   04:29:06.678.20-May-2020 5064.29 2956.13 68.78 9.00 332.09 2676.66
   04:29:06.878.20-May-2020 5064.29 2956.13 68.78 9.00 332.29 2676.66
   04:29:07.078.20-May-2020 5064.29 2956.13 68.78 9.00 332.49 2676.66
   04:29:07.278.20-May-2020 5064.29 2956.13 68.78 9.00 332.69 2676.66
   04:29:07.478.20-May-2020 5064.29 2956.00 68.78 9.00 332.89 2676.66
   04:29:07.679.20-May-2020 5064.29 2956.26 68.78 9.00 333.09 2676.66
   04:29:07.879.20-May-2020 5064.29 2956.26 68.78 9.00 333.29 2676.66
   04:29:08.079.20-May-2020 5064.29 2956.13 68.78 9.00 333.49 2676.66
   04:29:08.279.20-May-2020 5064.29 2956.07 68.78 9.00 333.69 2676.66
   04:29:08.479.20-May-2020 5064.29 2956.21 68.78 9.00 333.89 2676.66
   04:29:08.679.20-May-2020 5064.29 2956.10 68.78 9.00 334.09 2676.66
   04:29:08.879.20-May-2020 5064.29 2956.10 68.78 9.00 334.29 2676.66
   04:29:09.079.20-May-2020 5064.29 2956.16 68.78 9.00 334.49 2676.66
   04:29:09.279.20-May-2020 5064.29 2956.12 68.78 9.00 334.69 2676.66
   04:29:09.479.20-May-2020 5064.29 2956.07 68.78 9.00 334.89 2676.66
   04:29:09.679.20-May-2020 5064.29 2956.15 68.78 9.00 335.09 2676.66
   04:29:09.879.20-May-2020 5064.29 2956.15 68.78 9.00 335.29 2676.66
   04:29:10.079.20-May-2020 5064.29 2956.16 68.78 9.00 335.49 2676.66
   04:29:10.279.20-May-2020 5064.29 2956.18 68.78 9.00 335.69 2676.66
   04:29:10.479.20-May-2020 5064.29 2956.05 68.78 9.00 335.89 2676.66
   04:29:10.679.20-May-2020 5064.29 2956.14 68.78 9.00 336.10 2676.66
   04:29:10.879.20-May-2020 5064.29 2956.14 68.78 9.00 336.30 2676.66
   04:29:11.079.20-May-2020 5064.29 2956.17 68.78 9.00 336.50 2676.66
   04:29:11.280.20-May-2020 5064.29 2956.11 68.78 9.00 336.70 2676.66
   04:29:11.480.20-May-2020 5064.29 2956.09 68.78 9.00 336.90 2676.66
   04:29:11.680.20-May-2020 5064.29 2956.14 68.78 9.00 337.10 2676.66
   04:29:11.880.20-May-2020 5064.29 2956.14 68.78 9.00 337.30 2676.66
   04:29:12.080.20-May-2020 5064.29 2956.15 68.78 9.00 337.50 2676.66
   04:29:12.280.20-May-2020 5064.29 2956.16 68.78 9.00 337.70 2676.66
   04:29:12.480.20-May-2020 5064.29 2956.07 68.78 9.00 337.90 2676.66
   04:29:12.680.20-May-2020 5064.29 2956.16 68.78 9.00 338.10 2676.66
   04:29:12.880.20-May-2020 5064.29 2956.16 68.78 9.00 338.30 2676.66
   04:29:13.080.20-May-2020 5064.29 2956.12 68.78 9.00 338.50 2676.66
   04:29:13.280.20-May-2020 5064.29 2956.13 68.78 9.00 338.70 2676.66
   04:29:13.480.20-May-2020 5064.29 2956.11 68.78 9.00 338.90 2676.66
   04:29:13.680.20-May-2020 5064.29 2956.14 68.78 9.00 339.10 2676.66
   04:29:13.880.20-May-2020 5064.29 2956.14 68.78 9.00 339.30 2676.66
   04:29:14.080.20-May-2020 5064.29 2956.14 68.78 9.00 339.50 2676.66
   04:29:14.280.20-May-2020 5064.29 2956.13 68.78 9.00 339.70 2676.66
   04:29:14.480.20-May-2020 5064.29 2955.97 68.78 9.00 339.90 2676.66
   04:29:14.680.20-May-2020 5064.29 2956.30 68.78 9.00 340.10 2676.66
   04:29:14.881.20-May-2020 5064.29 2956.30 68.78 9.00 340.30 2676.66
   04:29:15.081.20-May-2020 5064.29 2956.16 68.78 9.00 340.50 2676.66
   04:29:15.281.20-May-2020 5064.29 2956.01 68.78 9.00 340.70 2676.66
   04:29:15.481.20-May-2020 5064.29 2956.21 68.78 9.00 340.90 2676.66
   04:29:15.681.20-May-2020 5064.29 2956.12 68.78 9.00 341.10 2676.66
   04:29:15.881.20-May-2020 5064.29 2956.12 68.78 9.00 341.30 2676.66
   04:29:16.081.20-May-2020 5064.29 2956.20 68.78 9.00 341.50 2676.66
   04:29:16.281.20-May-2020 5064.29 2956.12 68.78 9.00 341.70 2676.66
   04:29:16.481.20-May-2020 5064.29 2956.06 68.78 9.00 341.90 2676.66
   04:29:16.681.20-May-2020 5064.29 2956.16 68.78 9.00 342.10 2676.66
   04:29:16.881.20-May-2020 5064.29 2956.16 68.78 9.00 342.30 2676.66
   04:29:17.081.20-May-2020 5064.29 2956.12 68.78 9.00 342.50 2676.66
   04:29:17.281.20-May-2020 5064.29 2956.16 68.78 9.00 342.70 2676.66
   04:29:17.481.20-May-2020 5064.29 2956.05 68.78 9.00 342.90 2676.66
   04:29:17.681.20-May-2020 5064.29 2956.18 68.78 9.00 343.10 2676.66
   04:29:17.881.20-May-2020 5064.29 2956.18 68.78 9.00 343.30 2676.66
   04:29:18.081.20-May-2020 5064.29 2956.17 68.78 9.00 343.50 2676.66
   04:29:18.282.20-May-2020 5064.29 2956.13 68.78 9.00 343.70 2676.66
   04:29:18.482.20-May-2020 5064.29 2956.07 68.78 9.00 343.90 2676.66
   04:29:18.682.20-May-2020 5064.29 2956.17 68.78 9.00 344.10 2676.66
   04:29:18.882.20-May-2020 5064.29 2956.17 68.78 9.00 344.30 2676.66
   04:29:19.082.20-May-2020 5064.29 2956.12 68.78 9.00 344.50 2676.66
   04:29:19.282.20-May-2020 5064.29 2956.17 68.78 9.00 344.70 2676.66
   04:29:19.482.20-May-2020 5064.29 2956.08 68.78 9.00 344.90 2676.66
