~Version Information
 VERS.                  2.0:   CWLS log ASCII Standard -VERSION 2.0
 WRAP.                   NO:   One line per depth step
~Well Information Block
#MNEM.UNIT     VALUE/NAME     DESCRIPTION
#---------     -----------    ---------------------------
 STRT.S             03:43:00 20-May-20: START TIME 03:43:00 20-May-20
 STOP.S             03:53:08 20-May-20: STOP TIME  03:53:08 20-May-20
 STEP.S                   0.00: STEP TIME
 NULL.                 -999.25: NULL VALUE
 MDS .        Operator Entered:  MAG DATA SOURCE
 PDAT.          Mean Sea Level:  PERMANENT DATUM
 UNIT.                     N/A:  LOGGING EQUIPMENT ID
 DCON.         Sperry Drilling:  DIRECTNL CONTR
 DOE .                     N/A:  DOE NUMBER
 RIG .              East Azeri:  RIG NAME
 JOBN.        AZ-XX-0905856059:  JOB TICKET NUMB
 WELL.                     D36:  WELL NAME
 MWDS.                    Baku:  MWD SHOP
 SRVC.     Turan Drilling & Engineering:  CONTRACTOR
 FLD .                     ACG:  FIELD NAME
 CTRY.              Azerbaijan:  COUNTRY NAME
 PROV.                    Baku:  PROVINCE
 STAT.                    Baku:  STATE NAME
 REGN.                   EESSA:  REGION
 BASE.              Azerbaijan:  LOGGING EQUIPMENT BASE LOCATION
 UWI .                     N/A:  UNIQUE WELL IDENTIFIER
 API .                     N/A:  API NUMBER
 COMP.     BP Exploration (Caspian Sea) Ltd.:  COMPANY
 WTYP.                Deviated:  WELL TYPE
 SON .        AZ-XX-0905856059:  JOB NUMBER
 FTOP.          Formation Tops:  FORM TOPS DESC
 ILTD.               Lithology:  INTERP LTH DESC
 SVYD.                  Survey:  SURVEY DESC
 DMOD.             Drill Model:  DRILL MOD DESC
 HPTY.       Minimum Curvature:  HOLE POS TYPE
 NREF.                    Grid:  NORTH REFERENCE
 SPUD.               25-Feb-20:  SPUD DATE
 DATE.      08.55.28 01-May-20:  END TIME
 STIM.      08.55.28 25-Feb-20:  START TIME
 DMF .             Drill Floor:  DRILL MEAS FROM
 DFST.                        :  DIST FSL TEXT
 DFWT.                        :  DIST FWL TEXT
 CNTY.                        :  COUNTY
 LOC .                        :  LOCATION
 LMF .             Drill Floor:  LOG MEASURED FROM
 VSNS.m                   6.09:  VERT SEC N/S
 VSEW.m                 -10.79:  VERT SEC E/W
 AGAP.m                  43.60:  AIR GAP
 DEP .m                 388.24:  DEPTH
 APD .m                  43.60:  DEPTH ABOVE PD
 WDMS.m                 151.80:  WD ELEV
 EGL .m                   0.00:  GROUND ELEVATION
 EPD .m                   0.00:  ELEVATION
 AZTC.deg                 6.12:  AZM TOTAL CORR
 GRDC.deg                 0.30:  GRID CORRECTION
 MDEC.deg                 6.42:  MAGNETIC DECL
 MDIP.deg                59.42:  MAGNETIC DIP
 MFLD.nT              50256.00:  MAGNETIC FIELD
 GVFD.g                   1.00:  GRAVITY FIELD
 VSDR.deg               159.57:  VERT SEC DIRECT
 TDD .m                5000.01:  TOTAL DEPTH (DRILLER)
 SDEP.m                 397.00:  START DEPTH
 DFSL.m                   0.00:  DISTANCE FSL
 DFWL.m                   0.00:  DISTANCE FWL
 UTMY.m             4431880.20:  UTM Y
 UTMX.m              538763.98:  UTM X
 WHEW.m                 -10.79:  WELL HEAD E/W
 WHNS.m                   6.09:  WELL HEAD N/S
 LONG.deg                51.45:  LONGITUDE
 LATI.deg                40.02:  LATITUDE
 TVDS.m                  43.60:  TVDSS CORRECTN
 EKB .m                  43.60:  KB ELEVATION
 EDF .m                  43.60:  DF ELEVATION
 MAGU.                 1847640:  MAGUTM CHECKSUM
 VSC .                       0:  VS TO CLOSURE
~Parameter Information Block
#MNEM.UNIT       Value        Description
#---------     -----------    ---------------------------
 AV  .mps                 1.30:  Ann Velocity 
 AVMX.mps                 1.90:  Max Ann Veloc 
 AZIF.deg               115.68:  Azm, Final 
 BHAT.                   Other:  BHA Type 
 BROT.°/30m               0.74:  Build Rotating 
 BS  .in                  8.50:  Bit Size 
 BTPL.psig              430.00:  Bit Press Loss 
 CABU.                      No:  Customer Abuse 
 COMM.                     ÌÍk:  Run Comments 1 
 TCS .hr                 51.31:  Time Ciculation Ended 
 CV  .mps                 2.52:  Crit Velocity 
 CVMX.mps                 2.62:  Max Crit Veloc 
 DD1 .          Teymur Aghayev:  Direct Drillr 1 
 DDSV.                   Other:  DD Service 
 DEFF.%                 100.00:  % Det Eff 
 DLRX.°/30m               1.62:  Dogleg Rot Max 
 DLSO.°/30m               0.74:  Dogleg Oriented 
 DLSX.°/30m               1.62:  Dogleg Str Max 
 DRET.      04.30.56 18-May-20:  Drill End Time 
 DRST.      04.30.56 18-May-20:  Drill Start Tim 
 DTIM.hr                  0.00:  Time Drilling 
 EDEP.m                5337.01:  End Depth 
 ENG1.      Artemiy Matviyanov:  Engineer 1 
 ENG2.      Bakhtiyar Jabbarli:  Engineer 2 
 ENG3.           Emil Huseynov:  Engineer 3 
 ETIM.      18.40.00 22-May-20:  End Time 
 FLOI.gpm               550.00:  Flow In 
 FLON.gpm               350.00:  Flow In Min 
 FLOS.cptm                0.00:  Fluid Loss 
 FLOX.gpm               600.00:  Flow In Max 
 HFLO.                      No:  High Flow 
 HPRE.                      No:  High Pressure 
 HTEM.                      No:  High Temp 
 HYDO.m                   1.80:  Hydro Offset 
 IFIN.deg                67.01:  Inc, Final 
 IMAX.deg                67.49:  Inc Max 
 IMIN.deg                66.50:  Inc Min 
 IMND.m                5144.79:  Inc Min Depth 
 IMXD.m                5116.12:  Inc Max Depth 
 JARR.                      No:  Jarring 
 LETM.      17.55.56 20-May-20:  Log End Time 
 LOST.hr                     0:  Lost Rig Time 
 LSTM.      04.30.56 18-May-20:  Log Start Time 
 MDCL.ppm            193153.00:  Mud Chlorides 
 MDES.     Inversion Oil/Synthetic:  Mud Desc 
 DFD .sg                  1.40:  Mud Density 
 MDMN.sg                  1.40:  Dens Mud Min 
 MDMX.sg                  1.41:  Dens Mud Max 
 MOIL.                      68:  Run Mud Oil % 
 MOWR.                   68:32:  Run Mud OWR 
 MSND.                     0.2:  Run Mud Sand % 
 MSOL.                    18.8:  Run Mud Solids% 
 DFV .spqt               80.00:  Mud Viscosity 
 MWOD.in                  6.75:  MWD Tool OD 
 MWSI.                      No:  Serv Intrp, MWD 
 OTIM.hr                104.84:  Time Operating 
 PMAX.psia            10690.93:  Press Op, Max 
 PV  .cP                 26.00:  Mud PV 
 RUN .                     900:  Run Number 
 ROPA.m/hr                0.00:  ROP Avg 
 ROPN.m/hr                0.00:  ROP Min 
 ROPX.m/hr                0.00:  ROP Max 
 RPMA.rpm               140.00:  RPM Surface Avg 
 RPMN.rpm                70.00:  RPM Surface Min 
 RPMX.rpm               140.00:  RPM Surface Max 
 RRUN.                    0900:  Rig Run Number 
 RTIM.hr                 36.00:  Time Reaming 
 SAZI.deg               115.72:  Azm, Start 
 SDEP.m                5337.01:  Start Depth 
 SIDD.                      No:  Serv Intrp, DD 
 SINC.deg                66.92:  Inc, Start 
 SPPA.psig             4400.00:  SPP Avg 
 SPPN.psig             1135.00:  SPP Min 
 SPPX.psig             4581.00:  SPP Max 
 STIM.      04.30.56 18-May-20:  Start Time 
 SVCS.                     MWD:  Services 
 SVER.                    9.20:  Sperry Version 
 TDAT.m                5337.01:  Tot Depth Attmp 
 TDDF.                      No:  Trip for DD 
 TFF .                      No:  Trip for Fail 
 TQAA.f-kp               23.00:  Torque Abs Avg 
 TQAN.f-kp               18.00:  Torque Abs Min 
 TQAX.f-kp               25.00:  Torque Abs Max 
 TRRT.°/30m               0.74:  Turn Rotating 
 MRT .                    HCIM:  Maximum Recorded Temperature 
 TTMX.degC               76.47:  Max Tool Temp 
 WBMN.klb                 0.00:  WOB Min 
 WITN.             Anar Khalil:  Customer Rep 
 WITN.      Kamran Keberlinski:  Customer Rep 2 
 WOBA.klb                 0.00:  WOB Avg 
 WOBX.klb                 0.00:  WOB Max 
 YP  .lhf2               27.00:  Yield Point 
~Curve Information Block
#MNEM.UNIT                 API CODE     Curve Description
#---------               -----------    ---------------------------
 TIME.HHMMSS            00 000 000 000:  GT Time & Date
 GTDEPTH.m              00 000 000 000:  GT Depth
 GTPQH.psia             00 000 000 000:  GT HR Quartz Pressure
 GTTQ.degC              00 000 000 000:  GT Quartz Temperature
 GTTN.NONE              00 000 000 000:  GT Test Number
 GTET.sec               00 000 000 000:  GT Elapsed Test Time
 GTTVD.m                00 000 000 000:  GT True Vertical Depth
#Other Information
#
#WARRANTY: Halliburton will use its best efforts to furnish customers with 
#accurate information and interpretations that are part of, and incident to, the services 
#provided.  However, Halliburton cannot and does not warrant the accuracy 
#or correctness of such information and interpretations.  Under no circumstances should any 
#such information or interpretation be relied upon as the sole basis for any drilling, 
#completion, production, or financial decision or any procedure involving any risk to the 
#safety of any drilling venture, drilling rig or its crew or any other third party.  The 
#Customer has full responsibility for all drilling, completion and production operation.  
#Halliburton makes no representations or warranties, either expressed or 
#implied, including, but not limited to, the implied warranties of merchantability or fitness 
#for a particular purpose, with respect to the services rendered.  In no event will 
#Halliburton be liable for failure to obtain any particular results or for 
#any damages, including, but not limited to, indirect, special or consequential damages, 
#resulting from the use of any information or interpretation provided by Halliburton.
#
~A           TIME           GTDEPTH  GTPQH  GTTQ  GTTN  GTET   GTTVD  
# ...
   03:52:36.059.20-May-2020 5064.01 6409.66 68.97 8.00 575.16 2676.56
   03:52:36.259.20-May-2020 5064.01 6409.66 68.97 8.00 575.36 2676.56
   03:52:36.459.20-May-2020 5064.01 6405.02 68.98 8.00 575.56 2676.56
   03:52:36.659.20-May-2020 5064.01 6406.31 68.99 8.00 575.76 2676.56
   03:52:36.859.20-May-2020 5064.01 6411.94 68.99 8.00 575.96 2676.56
   03:52:37.059.20-May-2020 5064.01 6409.92 69.00 8.00 576.16 2676.56
   03:52:37.259.20-May-2020 5064.01 6409.92 69.00 8.00 576.36 2676.56
   03:52:37.459.20-May-2020 5064.01 6407.76 69.01 8.00 576.56 2676.56
   03:52:37.659.20-May-2020 5064.01 6409.76 69.01 8.00 576.76 2676.56
   03:52:37.859.20-May-2020 5064.01 6408.40 69.01 8.00 576.96 2676.56
   03:52:38.059.20-May-2020 5064.01 6412.59 69.02 8.00 577.16 2676.56
   03:52:38.259.20-May-2020 5064.01 6412.59 69.02 8.00 577.36 2676.56
   03:52:38.459.20-May-2020 5064.01 6409.00 69.03 8.00 577.56 2676.56
   03:52:38.659.20-May-2020 5064.01 6409.33 69.03 8.00 577.76 2676.56
   03:52:38.859.20-May-2020 5064.01 6413.44 69.03 8.00 577.96 2676.56
   03:52:39.060.20-May-2020 5064.01 6409.67 69.04 8.00 578.16 2676.56
   03:52:39.260.20-May-2020 5064.01 6409.67 69.04 8.00 578.36 2676.56
   03:52:39.460.20-May-2020 5064.01 6409.57 69.04 8.00 578.56 2676.56
   03:52:39.660.20-May-2020 5064.01 6410.88 69.05 8.00 578.76 2676.56
   03:52:39.860.20-May-2020 5064.01 6408.78 69.05 8.00 578.96 2676.56
   03:52:40.060.20-May-2020 5064.01 6408.66 69.05 8.00 579.16 2676.56
   03:52:40.260.20-May-2020 5064.01 6408.66 69.05 8.00 579.36 2676.56
   03:52:40.460.20-May-2020 5064.01 6408.56 69.06 8.00 579.56 2676.56
   03:52:40.660.20-May-2020 5064.01 6408.41 69.06 8.00 579.76 2676.56
   03:52:40.860.20-May-2020 5064.01 6408.16 69.06 8.00 579.96 2676.56
   03:52:41.060.20-May-2020 5064.01 6408.28 69.06 8.00 580.16 2676.56
   03:52:41.260.20-May-2020 5064.01 6408.28 69.06 8.00 580.36 2676.56
   03:52:41.460.20-May-2020 5064.01 6408.21 69.07 8.00 580.56 2676.56
   03:52:41.660.20-May-2020 5064.01 6407.94 69.07 8.00 580.76 2676.56
   03:52:41.860.20-May-2020 5064.01 6410.79 69.07 8.00 580.96 2676.56
   03:52:42.060.20-May-2020 5064.01 6411.21 69.07 8.00 581.16 2676.56
   03:52:42.260.20-May-2020 5064.01 6411.21 69.07 8.00 581.36 2676.56
   03:52:42.460.20-May-2020 5064.01 6408.84 69.07 8.00 581.56 2676.56
   03:52:42.661.20-May-2020 5064.01 6409.91 69.08 8.00 581.76 2676.56
   03:52:42.861.20-May-2020 5064.01 6413.36 69.08 8.00 581.96 2676.56
   03:52:43.061.20-May-2020 5064.01 6409.58 69.08 8.00 582.16 2676.56
   03:52:43.261.20-May-2020 5064.01 6409.58 69.08 8.00 582.36 2676.56
   03:52:43.461.20-May-2020 5064.01 6410.35 69.08 8.00 582.56 2676.56
   03:52:43.661.20-May-2020 5064.01 6410.41 69.08 8.00 582.76 2676.56
   03:52:43.861.20-May-2020 5064.01 6408.85 69.08 8.00 582.96 2676.56
   03:52:44.061.20-May-2020 5064.01 6411.40 69.08 8.00 583.16 2676.56
   03:52:44.261.20-May-2020 5064.01 6411.40 69.08 8.00 583.36 2676.56
   03:52:44.461.20-May-2020 5064.01 6408.72 69.09 8.00 583.57 2676.56
   03:52:44.661.20-May-2020 5064.01 6409.54 69.09 8.00 583.77 2676.56
   03:52:44.861.20-May-2020 5064.01 6411.15 69.09 8.00 583.97 2676.56
   03:52:45.061.20-May-2020 5064.01 6410.06 69.09 8.00 584.17 2676.56
   03:52:45.261.20-May-2020 5064.01 6411.52 69.09 8.00 584.37 2676.56
   03:52:45.461.20-May-2020 5064.01 6411.97 69.09 8.00 584.57 2676.56
   03:52:45.661.20-May-2020 5064.01 6409.78 69.09 8.00 584.77 2676.56
   03:52:45.861.20-May-2020 5064.01 6409.94 69.09 8.00 584.97 2676.56
   03:52:46.062.20-May-2020 5064.01 6410.97 69.09 8.00 585.17 2676.56
   03:52:46.262.20-May-2020 5064.01 6410.97 69.09 8.00 585.37 2676.56
   03:52:46.462.20-May-2020 5064.01 6409.55 69.09 8.00 585.57 2676.56
   03:52:46.662.20-May-2020 5064.01 6414.22 69.09 8.00 585.77 2676.56
   03:52:46.862.20-May-2020 5064.01 6410.07 69.09 8.00 585.97 2676.56
   03:52:47.062.20-May-2020 5064.01 6409.04 69.09 8.00 586.17 2676.56
   03:52:47.262.20-May-2020 5064.01 6409.04 69.09 8.00 586.37 2676.56
   03:52:47.462.20-May-2020 5064.01 6411.13 69.09 8.00 586.57 2676.56
   03:52:47.662.20-May-2020 5064.01 6409.67 69.09 8.00 586.77 2676.56
   03:52:47.862.20-May-2020 5064.01 6409.38 69.09 8.00 586.97 2676.56
   03:52:48.062.20-May-2020 5064.01 6409.62 69.09 8.00 587.17 2676.56
   03:52:48.262.20-May-2020 5064.01 6409.62 69.09 8.00 587.37 2676.56
   03:52:48.462.20-May-2020 5064.01 6409.00 69.09 8.00 587.57 2676.56
   03:52:48.662.20-May-2020 5064.01 6408.68 69.09 8.00 587.77 2676.56
   03:52:48.862.20-May-2020 5064.01 6408.60 69.09 8.00 587.97 2676.56
   03:52:49.062.20-May-2020 5064.01 6408.73 69.09 8.00 588.17 2676.56
   03:52:49.262.20-May-2020 5064.01 6408.73 69.09 8.00 588.37 2676.56
   03:52:49.462.20-May-2020 5064.01 6408.12 69.09 8.00 588.57 2676.56
   03:52:49.663.20-May-2020 5064.01 6412.15 69.09 8.00 588.77 2676.56
   03:52:49.863.20-May-2020 5064.01 6409.12 69.09 8.00 588.97 2676.56
   03:52:50.063.20-May-2020 5064.01 6408.51 69.09 8.00 589.17 2676.56
   03:52:50.263.20-May-2020 5064.01 6408.51 69.09 8.00 589.37 2676.56
   03:52:50.463.20-May-2020 5064.01 6410.86 69.09 8.00 589.57 2676.56
   03:52:50.663.20-May-2020 5064.01 6413.45 69.09 8.00 589.77 2676.56
   03:52:50.863.20-May-2020 5064.01 6410.05 69.09 8.00 589.97 2676.56
   03:52:51.063.20-May-2020 5064.01 6409.02 69.09 8.00 590.17 2676.56
   03:52:51.263.20-May-2020 5064.01 6409.02 69.09 8.00 590.37 2676.56
   03:52:51.463.20-May-2020 5064.01 6415.83 69.09 8.00 590.57 2676.56
   03:52:51.663.20-May-2020 5064.01 6409.73 69.09 8.00 590.77 2676.56
   03:52:51.863.20-May-2020 5064.01 6408.72 69.08 8.00 590.97 2676.56
   03:52:52.063.20-May-2020 5064.01 6411.05 69.08 8.00 591.17 2676.56
   03:52:52.263.20-May-2020 5064.01 6411.05 69.08 8.00 591.37 2676.56
   03:52:52.463.20-May-2020 5064.01 6410.71 69.08 8.00 591.57 2676.56
   03:52:52.663.20-May-2020 5064.01 6409.07 69.08 8.00 591.77 2676.56
   03:52:52.863.20-May-2020 5064.01 6411.12 69.08 8.00 591.97 2676.56
   03:52:53.063.20-May-2020 5064.01 6411.40 69.08 8.00 592.17 2676.56
   03:52:53.264.20-May-2020 5064.01 6411.40 69.08 8.00 592.37 2676.56
   03:52:53.464.20-May-2020 5064.01 6411.79 69.08 8.00 592.57 2676.56
   03:52:53.664.20-May-2020 5064.01 6413.05 69.08 8.00 592.77 2676.56
   03:52:53.864.20-May-2020 5064.01 6408.77 69.08 8.00 592.97 2676.56
   03:52:54.064.20-May-2020 5064.01 6409.73 69.08 8.00 593.17 2676.56
   03:52:54.264.20-May-2020 5064.01 6409.73 69.08 8.00 593.37 2676.56
   03:52:54.464.20-May-2020 5064.01 6410.14 69.08 8.00 593.57 2676.56
   03:52:54.664.20-May-2020 5064.01 6409.48 69.08 8.00 593.77 2676.56
   03:52:54.864.20-May-2020 5064.01 6409.07 69.08 8.00 593.97 2676.56
   03:52:55.064.20-May-2020 5064.01 6409.59 69.08 8.00 594.17 2676.56
   03:52:55.264.20-May-2020 5064.01 6409.59 69.08 8.00 594.37 2676.56
   03:52:55.464.20-May-2020 5064.01 6408.94 69.08 8.00 594.57 2676.56
   03:52:55.664.20-May-2020 5064.01 6408.88 69.08 8.00 594.77 2676.56
   03:52:55.864.20-May-2020 5064.01 6408.67 69.08 8.00 594.97 2676.56
   03:52:56.064.20-May-2020 5064.01 6408.58 69.08 8.00 595.17 2676.56
   03:52:56.264.20-May-2020 5064.01 6408.58 69.08 8.00 595.37 2676.56
   03:52:56.464.20-May-2020 5064.01 6408.06 69.07 8.00 595.57 2676.56
   03:52:56.665.20-May-2020 5064.01 6412.91 69.07 8.00 595.77 2676.56
   03:52:56.865.20-May-2020 5064.01 6408.62 69.07 8.00 595.97 2676.56
   03:52:57.065.20-May-2020 5064.01 6408.53 69.07 8.00 596.17 2676.56
   03:52:57.265.20-May-2020 5064.01 6408.53 69.07 8.00 596.37 2676.56
   03:52:57.465.20-May-2020 5064.01 6413.60 69.07 8.00 596.57 2676.56
   03:52:57.665.20-May-2020 5064.01 6409.61 69.07 8.00 596.77 2676.56
   03:52:57.865.20-May-2020 5064.01 6408.24 69.07 8.00 596.97 2676.56
   03:52:58.065.20-May-2020 5064.01 6410.46 69.07 8.00 597.17 2676.56
   03:52:58.265.20-May-2020 5064.01 6410.46 69.07 8.00 597.37 2676.56
   03:52:58.465.20-May-2020 5064.01 6410.34 69.07 8.00 597.57 2676.56
   03:52:58.665.20-May-2020 5064.01 6409.07 69.07 8.00 597.77 2676.56
   03:52:58.865.20-May-2020 5064.01 6409.87 69.07 8.00 597.97 2676.56
