~Version Information
 VERS.                  2.0:   CWLS log ASCII Standard -VERSION 2.0
 WRAP.                   NO:   One line per depth step
~Well Information Block
#MNEM.UNIT     VALUE/NAME     DESCRIPTION
#---------     -----------    ---------------------------
 STRT.S             23:11:25 19-May-20: START TIME 23:11:25 19-May-20
 STOP.S             23:19:39 19-May-20: STOP TIME  23:19:39 19-May-20
 STEP.S                   0.00: STEP TIME
 NULL.                 -999.25: NULL VALUE
 MDS .        Operator Entered:  MAG DATA SOURCE
 PDAT.          Mean Sea Level:  PERMANENT DATUM
 UNIT.                     N/A:  LOGGING EQUIPMENT ID
 DCON.         Sperry Drilling:  DIRECTNL CONTR
 DOE .                     N/A:  DOE NUMBER
 RIG .              East Azeri:  RIG NAME
 JOBN.        AZ-XX-0905856059:  JOB TICKET NUMB
 WELL.                     D36:  WELL NAME
 MWDS.                    Baku:  MWD SHOP
 SRVC.     Turan Drilling & Engineering:  CONTRACTOR
 FLD .                     ACG:  FIELD NAME
 CTRY.              Azerbaijan:  COUNTRY NAME
 PROV.                    Baku:  PROVINCE
 STAT.                    Baku:  STATE NAME
 REGN.                   EESSA:  REGION
 BASE.              Azerbaijan:  LOGGING EQUIPMENT BASE LOCATION
 UWI .                     N/A:  UNIQUE WELL IDENTIFIER
 API .                     N/A:  API NUMBER
 COMP.     BP Exploration (Caspian Sea) Ltd.:  COMPANY
 WTYP.                Deviated:  WELL TYPE
 SON .        AZ-XX-0905856059:  JOB NUMBER
 FTOP.          Formation Tops:  FORM TOPS DESC
 ILTD.               Lithology:  INTERP LTH DESC
 SVYD.                  Survey:  SURVEY DESC
 DMOD.             Drill Model:  DRILL MOD DESC
 HPTY.       Minimum Curvature:  HOLE POS TYPE
 NREF.                    Grid:  NORTH REFERENCE
 SPUD.               25-Feb-20:  SPUD DATE
 DATE.      08.55.28 01-May-20:  END TIME
 STIM.      08.55.28 25-Feb-20:  START TIME
 DMF .             Drill Floor:  DRILL MEAS FROM
 DFST.                        :  DIST FSL TEXT
 DFWT.                        :  DIST FWL TEXT
 CNTY.                        :  COUNTY
 LOC .                        :  LOCATION
 LMF .             Drill Floor:  LOG MEASURED FROM
 VSNS.m                   6.09:  VERT SEC N/S
 VSEW.m                 -10.79:  VERT SEC E/W
 AGAP.m                  43.60:  AIR GAP
 DEP .m                 388.24:  DEPTH
 APD .m                  43.60:  DEPTH ABOVE PD
 WDMS.m                 151.80:  WD ELEV
 EGL .m                   0.00:  GROUND ELEVATION
 EPD .m                   0.00:  ELEVATION
 AZTC.deg                 6.12:  AZM TOTAL CORR
 GRDC.deg                 0.30:  GRID CORRECTION
 MDEC.deg                 6.42:  MAGNETIC DECL
 MDIP.deg                59.42:  MAGNETIC DIP
 MFLD.nT              50256.00:  MAGNETIC FIELD
 GVFD.g                   1.00:  GRAVITY FIELD
 VSDR.deg               159.57:  VERT SEC DIRECT
 TDD .m                5000.01:  TOTAL DEPTH (DRILLER)
 SDEP.m                 397.00:  START DEPTH
 DFSL.m                   0.00:  DISTANCE FSL
 DFWL.m                   0.00:  DISTANCE FWL
 UTMY.m             4431880.20:  UTM Y
 UTMX.m              538763.98:  UTM X
 WHEW.m                 -10.79:  WELL HEAD E/W
 WHNS.m                   6.09:  WELL HEAD N/S
 LONG.deg                51.45:  LONGITUDE
 LATI.deg                40.02:  LATITUDE
 TVDS.m                  43.60:  TVDSS CORRECTN
 EKB .m                  43.60:  KB ELEVATION
 EDF .m                  43.60:  DF ELEVATION
 MAGU.                 1847640:  MAGUTM CHECKSUM
 VSC .                       0:  VS TO CLOSURE
~Parameter Information Block
#MNEM.UNIT       Value        Description
#---------     -----------    ---------------------------
 AV  .mps                 1.30:  Ann Velocity 
 AVMX.mps                 1.90:  Max Ann Veloc 
 AZIF.deg               115.68:  Azm, Final 
 BHAT.                   Other:  BHA Type 
 BROT.°/30m               0.74:  Build Rotating 
 BS  .in                  8.50:  Bit Size 
 BTPL.psig              430.00:  Bit Press Loss 
 CABU.                      No:  Customer Abuse 
 COMM.                     Tr}:  Run Comments 1 
 TCS .hr                 51.31:  Time Ciculation Ended 
 CV  .mps                 2.52:  Crit Velocity 
 CVMX.mps                 2.62:  Max Crit Veloc 
 DD1 .          Teymur Aghayev:  Direct Drillr 1 
 DDSV.                   Other:  DD Service 
 DEFF.%                 100.00:  % Det Eff 
 DLRX.°/30m               1.62:  Dogleg Rot Max 
 DLSO.°/30m               0.74:  Dogleg Oriented 
 DLSX.°/30m               1.62:  Dogleg Str Max 
 DRET.      04.30.56 18-May-20:  Drill End Time 
 DRST.      04.30.56 18-May-20:  Drill Start Tim 
 DTIM.hr                  0.00:  Time Drilling 
 EDEP.m                5337.01:  End Depth 
 ENG1.      Artemiy Matviyanov:  Engineer 1 
 ENG2.      Bakhtiyar Jabbarli:  Engineer 2 
 ENG3.           Emil Huseynov:  Engineer 3 
 ETIM.      18.40.00 22-May-20:  End Time 
 FLOI.gpm               550.00:  Flow In 
 FLON.gpm               350.00:  Flow In Min 
 FLOS.cptm                0.00:  Fluid Loss 
 FLOX.gpm               600.00:  Flow In Max 
 HFLO.                      No:  High Flow 
 HPRE.                      No:  High Pressure 
 HTEM.                      No:  High Temp 
 HYDO.m                   1.80:  Hydro Offset 
 IFIN.deg                67.01:  Inc, Final 
 IMAX.deg                67.49:  Inc Max 
 IMIN.deg                66.50:  Inc Min 
 IMND.m                5144.79:  Inc Min Depth 
 IMXD.m                5116.12:  Inc Max Depth 
 JARR.                      No:  Jarring 
 LETM.      17.55.56 20-May-20:  Log End Time 
 LOST.hr                     0:  Lost Rig Time 
 LSTM.      04.30.56 18-May-20:  Log Start Time 
 MDCL.ppm            193153.00:  Mud Chlorides 
 MDES.     Inversion Oil/Synthetic:  Mud Desc 
 DFD .sg                  1.40:  Mud Density 
 MDMN.sg                  1.40:  Dens Mud Min 
 MDMX.sg                  1.41:  Dens Mud Max 
 MOIL.                      68:  Run Mud Oil % 
 MOWR.                   68:32:  Run Mud OWR 
 MSND.                     0.2:  Run Mud Sand % 
 MSOL.                    18.8:  Run Mud Solids% 
 DFV .spqt               80.00:  Mud Viscosity 
 MWOD.in                  6.75:  MWD Tool OD 
 MWSI.                      No:  Serv Intrp, MWD 
 OTIM.hr                104.84:  Time Operating 
 PMAX.psia            10690.93:  Press Op, Max 
 PV  .cP                 26.00:  Mud PV 
 RUN .                     900:  Run Number 
 ROPA.m/hr                0.00:  ROP Avg 
 ROPN.m/hr                0.00:  ROP Min 
 ROPX.m/hr                0.00:  ROP Max 
 RPMA.rpm               140.00:  RPM Surface Avg 
 RPMN.rpm                70.00:  RPM Surface Min 
 RPMX.rpm               140.00:  RPM Surface Max 
 RRUN.                    0900:  Rig Run Number 
 RTIM.hr                 36.00:  Time Reaming 
 SAZI.deg               115.72:  Azm, Start 
 SDEP.m                5337.01:  Start Depth 
 SIDD.                      No:  Serv Intrp, DD 
 SINC.deg                66.92:  Inc, Start 
 SPPA.psig             4400.00:  SPP Avg 
 SPPN.psig             1135.00:  SPP Min 
 SPPX.psig             4581.00:  SPP Max 
 STIM.      04.30.56 18-May-20:  Start Time 
 SVCS.                     MWD:  Services 
 SVER.                    9.20:  Sperry Version 
 TDAT.m                5337.01:  Tot Depth Attmp 
 TDDF.                      No:  Trip for DD 
 TFF .                      No:  Trip for Fail 
 TQAA.f-kp               23.00:  Torque Abs Avg 
 TQAN.f-kp               18.00:  Torque Abs Min 
 TQAX.f-kp               25.00:  Torque Abs Max 
 TRRT.°/30m               0.74:  Turn Rotating 
 MRT .                    HCIM:  Maximum Recorded Temperature 
 TTMX.degC               76.47:  Max Tool Temp 
 WBMN.klb                 0.00:  WOB Min 
 WITN.             Anar Khalil:  Customer Rep 
 WITN.      Kamran Keberlinski:  Customer Rep 2 
 WOBA.klb                 0.00:  WOB Avg 
 WOBX.klb                 0.00:  WOB Max 
 YP  .lhf2               27.00:  Yield Point 
~Curve Information Block
#MNEM.UNIT                 API CODE     Curve Description
#---------               -----------    ---------------------------
 TIME.HHMMSS            00 000 000 000:  GT Time & Date
 GTDEPTH.m              00 000 000 000:  GT Depth
 GTPQH.psia             00 000 000 000:  GT HR Quartz Pressure
 GTTQ.degC              00 000 000 000:  GT Quartz Temperature
 GTTN.NONE              00 000 000 000:  GT Test Number
 GTET.sec               00 000 000 000:  GT Elapsed Test Time
 GTTVD.m                00 000 000 000:  GT True Vertical Depth
#Other Information
#
#WARRANTY: Halliburton will use its best efforts to furnish customers with 
#accurate information and interpretations that are part of, and incident to, the services 
#provided.  However, Halliburton cannot and does not warrant the accuracy 
#or correctness of such information and interpretations.  Under no circumstances should any 
#such information or interpretation be relied upon as the sole basis for any drilling, 
#completion, production, or financial decision or any procedure involving any risk to the 
#safety of any drilling venture, drilling rig or its crew or any other third party.  The 
#Customer has full responsibility for all drilling, completion and production operation.  
#Halliburton makes no representations or warranties, either expressed or 
#implied, including, but not limited to, the implied warranties of merchantability or fitness 
#for a particular purpose, with respect to the services rendered.  In no event will 
#Halliburton be liable for failure to obtain any particular results or for 
#any damages, including, but not limited to, indirect, special or consequential damages, 
#resulting from the use of any information or interpretation provided by Halliburton.
#
~A           TIME           GTDEPTH  GTPQH  GTTQ  GTTN  GTET   GTTVD  
# ...
   23:12:57.727.19-May-2020 5121.01 1596.87 67.92 5.00  92.02 2698.81
   23:12:57.927.19-May-2020 5121.01 1596.87 67.92 5.00  92.22 2698.81
   23:12:58.127.19-May-2020 5121.01 1604.29 67.92 5.00  92.42 2698.81
   23:12:58.327.19-May-2020 5121.01 1607.75 67.92 5.00  92.62 2698.81
   23:12:58.527.19-May-2020 5121.01 1611.07 67.92 5.00  92.82 2698.81
   23:12:58.727.19-May-2020 5121.01 1614.74 67.92 5.00  93.02 2698.81
   23:12:58.927.19-May-2020 5121.01 1614.74 67.92 5.00  93.22 2698.81
   23:12:59.127.19-May-2020 5121.01 1622.04 67.92 5.00  93.42 2698.81
   23:12:59.327.19-May-2020 5121.01 1625.66 67.92 5.00  93.62 2698.81
   23:12:59.527.19-May-2020 5121.01 1629.17 67.92 5.00  93.82 2698.81
   23:12:59.727.19-May-2020 5121.01 1632.74 67.92 5.00  94.02 2698.81
   23:12:59.927.19-May-2020 5121.01 1632.74 67.92 5.00  94.22 2698.81
   23:13:00.127.19-May-2020 5121.01 1639.76 67.92 5.00  94.42 2698.81
   23:13:00.327.19-May-2020 5121.01 1643.19 67.92 5.00  94.62 2698.81
   23:13:00.527.19-May-2020 5121.01 1646.75 67.92 5.00  94.82 2698.81
   23:13:00.727.19-May-2020 5121.01 1652.07 67.92 5.00  95.02 2698.81
   23:13:00.927.19-May-2020 5121.01 1652.07 67.92 5.00  95.22 2698.81
   23:13:01.127.19-May-2020 5121.01 1659.55 67.92 5.00  95.42 2698.81
   23:13:01.328.19-May-2020 5121.01 1662.56 67.92 5.00  95.62 2698.81
   23:13:01.528.19-May-2020 5121.01 1665.81 67.92 5.00  95.82 2698.81
   23:13:01.728.19-May-2020 5121.01 1669.16 67.92 5.00  96.02 2698.81
   23:13:01.928.19-May-2020 5121.01 1669.16 67.92 5.00  96.22 2698.81
   23:13:02.128.19-May-2020 5121.01 1675.85 67.92 5.00  96.42 2698.81
   23:13:02.328.19-May-2020 5121.01 1678.84 67.92 5.00  96.62 2698.81
   23:13:02.528.19-May-2020 5121.01 1682.30 67.92 5.00  96.82 2698.81
   23:13:02.728.19-May-2020 5121.01 1685.75 67.92 5.00  97.02 2698.81
   23:13:02.928.19-May-2020 5121.01 1685.75 67.92 5.00  97.22 2698.81
   23:13:03.128.19-May-2020 5121.01 1692.44 67.93 5.00  97.42 2698.81
   23:13:03.328.19-May-2020 5121.01 1695.55 67.93 5.00  97.62 2698.81
   23:13:03.528.19-May-2020 5121.01 1698.55 67.93 5.00  97.82 2698.81
   23:13:03.728.19-May-2020 5121.01 1701.96 67.93 5.00  98.02 2698.81
   23:13:03.928.19-May-2020 5121.01 1705.46 67.93 5.00  98.22 2698.81
   23:13:04.128.19-May-2020 5121.01 1708.90 67.93 5.00  98.42 2698.81
   23:13:04.328.19-May-2020 5121.01 1712.17 67.93 5.00  98.62 2698.81
   23:13:04.528.19-May-2020 5121.01 1715.30 67.93 5.00  98.82 2698.81
   23:13:04.728.19-May-2020 5121.01 1717.98 67.93 5.00  99.02 2698.81
   23:13:04.928.19-May-2020 5121.01 1721.33 67.93 5.00  99.22 2698.81
   23:13:05.128.19-May-2020 5121.01 1724.85 67.93 5.00  99.42 2698.81
   23:13:05.329.19-May-2020 5121.01 1727.96 67.93 5.00  99.62 2698.81
   23:13:05.529.19-May-2020 5121.01 1731.32 67.93 5.00  99.82 2698.81
   23:13:05.729.19-May-2020 5121.01 1734.03 67.93 5.00 100.02 2698.81
   23:13:05.929.19-May-2020 5121.01 1734.03 67.93 5.00 100.22 2698.81
   23:13:06.129.19-May-2020 5121.01 1740.62 67.93 5.00 100.43 2698.81
   23:13:06.329.19-May-2020 5121.01 1743.66 67.93 5.00 100.63 2698.81
   23:13:06.529.19-May-2020 5121.01 1746.87 67.93 5.00 100.83 2698.81
   23:13:06.729.19-May-2020 5121.01 1749.87 67.93 5.00 101.03 2698.81
   23:13:06.929.19-May-2020 5121.01 1749.87 67.93 5.00 101.23 2698.81
   23:13:07.129.19-May-2020 5121.01 1756.02 67.93 5.00 101.43 2698.81
   23:13:07.329.19-May-2020 5121.01 1758.99 67.93 5.00 101.63 2698.81
   23:13:07.529.19-May-2020 5121.01 1762.09 67.93 5.00 101.83 2698.81
   23:13:07.729.19-May-2020 5121.01 1765.12 67.93 5.00 102.03 2698.81
   23:13:07.929.19-May-2020 5121.01 1768.14 67.93 5.00 102.23 2698.81
   23:13:08.129.19-May-2020 5121.01 1771.22 67.93 5.00 102.43 2698.81
   23:13:08.329.19-May-2020 5121.01 1774.13 67.93 5.00 102.63 2698.81
   23:13:08.529.19-May-2020 5121.01 1777.16 67.93 5.00 102.83 2698.81
   23:13:08.729.19-May-2020 5121.01 1779.75 67.93 5.00 103.03 2698.81
   23:13:08.929.19-May-2020 5121.01 1782.75 67.93 5.00 103.23 2698.81
   23:13:09.129.19-May-2020 5121.01 1785.93 67.93 5.00 103.43 2698.81
   23:13:09.330.19-May-2020 5121.01 1788.81 67.93 5.00 103.63 2698.81
   23:13:09.530.19-May-2020 5121.01 1791.51 67.93 5.00 103.83 2698.81
   23:13:09.730.19-May-2020 5121.01 1794.48 67.93 5.00 104.03 2698.81
   23:13:09.930.19-May-2020 5121.01 1794.48 67.93 5.00 104.23 2698.81
   23:13:10.130.19-May-2020 5121.01 1800.52 67.93 5.00 104.43 2698.81
   23:13:10.330.19-May-2020 5121.01 1803.47 67.93 5.00 104.63 2698.81
   23:13:10.530.19-May-2020 5121.01 1806.00 67.93 5.00 104.83 2698.81
   23:13:10.730.19-May-2020 5121.01 1809.01 67.93 5.00 105.03 2698.81
   23:13:10.930.19-May-2020 5121.01 1809.01 67.93 5.00 105.23 2698.81
   23:13:11.130.19-May-2020 5121.01 1815.05 67.93 5.00 105.43 2698.81
   23:13:11.330.19-May-2020 5121.01 1818.01 67.93 5.00 105.63 2698.81
   23:13:11.530.19-May-2020 5121.01 1820.91 67.93 5.00 105.83 2698.81
   23:13:11.730.19-May-2020 5121.01 1823.59 67.93 5.00 106.03 2698.81
   23:13:11.930.19-May-2020 5121.01 1826.49 67.93 5.00 106.23 2698.81
   23:13:12.130.19-May-2020 5121.01 1829.55 67.93 5.00 106.43 2698.81
   23:13:12.330.19-May-2020 5121.01 1832.49 67.94 5.00 106.63 2698.81
   23:13:12.530.19-May-2020 5121.01 1835.36 67.94 5.00 106.83 2698.81
   23:13:12.730.19-May-2020 5121.01 1838.29 67.94 5.00 107.03 2698.81
   23:13:12.930.19-May-2020 5121.01 1838.29 67.94 5.00 107.23 2698.81
   23:13:13.130.19-May-2020 5121.01 1843.87 67.94 5.00 107.43 2698.81
   23:13:13.330.19-May-2020 5121.01 1846.85 67.94 5.00 107.63 2698.81
   23:13:13.531.19-May-2020 5121.01 1849.71 67.94 5.00 107.83 2698.81
   23:13:13.731.19-May-2020 5121.01 1852.72 67.94 5.00 108.03 2698.81
   23:13:13.931.19-May-2020 5121.01 1852.72 67.94 5.00 108.23 2698.81
   23:13:14.131.19-May-2020 5121.01 1858.42 67.94 5.00 108.43 2698.81
   23:13:14.331.19-May-2020 5121.01 1861.21 67.94 5.00 108.63 2698.81
   23:13:14.531.19-May-2020 5121.01 1864.12 67.94 5.00 108.83 2698.81
   23:13:14.731.19-May-2020 5121.01 1866.95 67.94 5.00 109.03 2698.81
   23:13:14.931.19-May-2020 5121.01 1866.95 67.94 5.00 109.23 2698.81
   23:13:15.131.19-May-2020 5121.01 1872.61 67.94 5.00 109.43 2698.81
   23:13:15.331.19-May-2020 5121.01 1875.40 67.94 5.00 109.63 2698.81
   23:13:15.531.19-May-2020 5121.01 1878.22 67.94 5.00 109.83 2698.81
   23:13:15.731.19-May-2020 5121.01 1881.03 67.94 5.00 110.03 2698.81
   23:13:15.931.19-May-2020 5121.01 1881.03 67.94 5.00 110.23 2698.81
   23:13:16.131.19-May-2020 5121.01 1890.81 67.94 5.00 110.43 2698.81
   23:13:16.331.19-May-2020 5121.01 1893.81 67.94 5.00 110.63 2698.81
   23:13:16.531.19-May-2020 5121.01 1896.43 67.94 5.00 110.83 2698.81
   23:13:16.731.19-May-2020 5121.01 1898.86 67.94 5.00 111.03 2698.81
   23:13:16.931.19-May-2020 5121.01 1901.69 67.94 5.00 111.23 2698.81
   23:13:17.131.19-May-2020 5121.01 1904.72 67.94 5.00 111.43 2698.81
   23:13:17.331.19-May-2020 5121.01 1907.33 67.94 5.00 111.63 2698.81
   23:13:17.532.19-May-2020 5121.01 1910.29 67.94 5.00 111.83 2698.81
   23:13:17.732.19-May-2020 5121.01 1912.95 67.94 5.00 112.03 2698.81
   23:13:17.932.19-May-2020 5121.01 1912.95 67.94 5.00 112.23 2698.81
   23:13:18.132.19-May-2020 5121.01 1918.54 67.94 5.00 112.43 2698.81
   23:13:18.332.19-May-2020 5121.01 1921.66 67.94 5.00 112.63 2698.81
   23:13:18.532.19-May-2020 5121.01 1925.05 67.94 5.00 112.83 2698.81
   23:13:18.732.19-May-2020 5121.01 1927.92 67.94 5.00 113.03 2698.81
   23:13:18.932.19-May-2020 5121.01 1927.92 67.94 5.00 113.23 2698.81
   23:13:19.132.19-May-2020 5121.01 1933.27 67.94 5.00 113.43 2698.81
   23:13:19.332.19-May-2020 5121.01 1936.13 67.94 5.00 113.63 2698.81
   23:13:19.532.19-May-2020 5121.01 1939.07 67.94 5.00 113.83 2698.81
   23:13:19.732.19-May-2020 5121.01 1941.74 67.94 5.00 114.03 2698.81
   23:13:19.932.19-May-2020 5121.01 1941.74 67.94 5.00 114.23 2698.81
   23:13:20.132.19-May-2020 5121.01 1947.12 67.94 5.00 114.43 2698.81
   23:13:20.332.19-May-2020 5121.01 1949.87 67.94 5.00 114.63 2698.81
   23:13:20.532.19-May-2020 5121.01 1952.75 67.94 5.00 114.83 2698.81
