~Version Information
 VERS.                  2.0:   CWLS log ASCII Standard -VERSION 2.0
 WRAP.                   NO:   One line per depth step
~Well Information Block
#MNEM.UNIT     VALUE/NAME     DESCRIPTION
#---------     -----------    ---------------------------
 STRT.S             17:37:07 19-May-20: START TIME 17:37:07 19-May-20
 STOP.S             17:43:47 19-May-20: STOP TIME  17:43:47 19-May-20
 STEP.S                   0.00: STEP TIME
 NULL.                 -999.25: NULL VALUE
 MDS .        Operator Entered:  MAG DATA SOURCE
 PDAT.          Mean Sea Level:  PERMANENT DATUM
 UNIT.                     N/A:  LOGGING EQUIPMENT ID
 DCON.         Sperry Drilling:  DIRECTNL CONTR
 DOE .                     N/A:  DOE NUMBER
 RIG .              East Azeri:  RIG NAME
 JOBN.        AZ-XX-0905856059:  JOB TICKET NUMB
 WELL.                     D36:  WELL NAME
 MWDS.                    Baku:  MWD SHOP
 SRVC.     Turan Drilling & Engineering:  CONTRACTOR
 FLD .                     ACG:  FIELD NAME
 CTRY.              Azerbaijan:  COUNTRY NAME
 PROV.                    Baku:  PROVINCE
 STAT.                    Baku:  STATE NAME
 REGN.                   EESSA:  REGION
 BASE.              Azerbaijan:  LOGGING EQUIPMENT BASE LOCATION
 UWI .                     N/A:  UNIQUE WELL IDENTIFIER
 API .                     N/A:  API NUMBER
 COMP.     BP Exploration (Caspian Sea) Ltd.:  COMPANY
 WTYP.                Deviated:  WELL TYPE
 SON .        AZ-XX-0905856059:  JOB NUMBER
 FTOP.          Formation Tops:  FORM TOPS DESC
 ILTD.               Lithology:  INTERP LTH DESC
 SVYD.                  Survey:  SURVEY DESC
 DMOD.             Drill Model:  DRILL MOD DESC
 HPTY.       Minimum Curvature:  HOLE POS TYPE
 NREF.                    Grid:  NORTH REFERENCE
 SPUD.               25-Feb-20:  SPUD DATE
 DATE.      08.55.28 01-May-20:  END TIME
 STIM.      08.55.28 25-Feb-20:  START TIME
 DMF .             Drill Floor:  DRILL MEAS FROM
 DFST.                        :  DIST FSL TEXT
 DFWT.                        :  DIST FWL TEXT
 CNTY.                        :  COUNTY
 LOC .                        :  LOCATION
 LMF .             Drill Floor:  LOG MEASURED FROM
 VSNS.m                   6.09:  VERT SEC N/S
 VSEW.m                 -10.79:  VERT SEC E/W
 AGAP.m                  43.60:  AIR GAP
 DEP .m                 388.24:  DEPTH
 APD .m                  43.60:  DEPTH ABOVE PD
 WDMS.m                 151.80:  WD ELEV
 EGL .m                   0.00:  GROUND ELEVATION
 EPD .m                   0.00:  ELEVATION
 AZTC.deg                 6.12:  AZM TOTAL CORR
 GRDC.deg                 0.30:  GRID CORRECTION
 MDEC.deg                 6.42:  MAGNETIC DECL
 MDIP.deg                59.42:  MAGNETIC DIP
 MFLD.nT              50256.00:  MAGNETIC FIELD
 GVFD.g                   1.00:  GRAVITY FIELD
 VSDR.deg               159.57:  VERT SEC DIRECT
 TDD .m                5000.01:  TOTAL DEPTH (DRILLER)
 SDEP.m                 397.00:  START DEPTH
 DFSL.m                   0.00:  DISTANCE FSL
 DFWL.m                   0.00:  DISTANCE FWL
 UTMY.m             4431880.20:  UTM Y
 UTMX.m              538763.98:  UTM X
 WHEW.m                 -10.79:  WELL HEAD E/W
 WHNS.m                   6.09:  WELL HEAD N/S
 LONG.deg                51.45:  LONGITUDE
 LATI.deg                40.02:  LATITUDE
 TVDS.m                  43.60:  TVDSS CORRECTN
 EKB .m                  43.60:  KB ELEVATION
 EDF .m                  43.60:  DF ELEVATION
 MAGU.                 1847640:  MAGUTM CHECKSUM
 VSC .                       0:  VS TO CLOSURE
~Parameter Information Block
#MNEM.UNIT       Value        Description
#---------     -----------    ---------------------------
 AV  .mps                 1.30:  Ann Velocity 
 AVMX.mps                 1.90:  Max Ann Veloc 
 AZIF.deg               115.68:  Azm, Final 
 BHAT.                   Other:  BHA Type 
 BROT.°/30m               0.74:  Build Rotating 
 BS  .in                  8.50:  Bit Size 
 BTPL.psig              430.00:  Bit Press Loss 
 CABU.                      No:  Customer Abuse 
 COMM.                     t9l:  Run Comments 1 
 TCS .hr                 51.31:  Time Ciculation Ended 
 CV  .mps                 2.52:  Crit Velocity 
 CVMX.mps                 2.62:  Max Crit Veloc 
 DD1 .          Teymur Aghayev:  Direct Drillr 1 
 DDSV.                   Other:  DD Service 
 DEFF.%                 100.00:  % Det Eff 
 DLRX.°/30m               1.62:  Dogleg Rot Max 
 DLSO.°/30m               0.74:  Dogleg Oriented 
 DLSX.°/30m               1.62:  Dogleg Str Max 
 DRET.      04.30.56 18-May-20:  Drill End Time 
 DRST.      04.30.56 18-May-20:  Drill Start Tim 
 DTIM.hr                  0.00:  Time Drilling 
 EDEP.m                5337.01:  End Depth 
 ENG1.      Artemiy Matviyanov:  Engineer 1 
 ENG2.      Bakhtiyar Jabbarli:  Engineer 2 
 ENG3.           Emil Huseynov:  Engineer 3 
 ETIM.      18.40.00 22-May-20:  End Time 
 FLOI.gpm               550.00:  Flow In 
 FLON.gpm               350.00:  Flow In Min 
 FLOS.cptm                0.00:  Fluid Loss 
 FLOX.gpm               600.00:  Flow In Max 
 HFLO.                      No:  High Flow 
 HPRE.                      No:  High Pressure 
 HTEM.                      No:  High Temp 
 HYDO.m                   1.80:  Hydro Offset 
 IFIN.deg                67.01:  Inc, Final 
 IMAX.deg                67.49:  Inc Max 
 IMIN.deg                66.50:  Inc Min 
 IMND.m                5144.79:  Inc Min Depth 
 IMXD.m                5116.12:  Inc Max Depth 
 JARR.                      No:  Jarring 
 LETM.      17.55.56 20-May-20:  Log End Time 
 LOST.hr                     0:  Lost Rig Time 
 LSTM.      04.30.56 18-May-20:  Log Start Time 
 MDCL.ppm            193153.00:  Mud Chlorides 
 MDES.     Inversion Oil/Synthetic:  Mud Desc 
 DFD .sg                  1.40:  Mud Density 
 MDMN.sg                  1.40:  Dens Mud Min 
 MDMX.sg                  1.41:  Dens Mud Max 
 MOIL.                      68:  Run Mud Oil % 
 MOWR.                   68:32:  Run Mud OWR 
 MSND.                     0.2:  Run Mud Sand % 
 MSOL.                    18.8:  Run Mud Solids% 
 DFV .spqt               80.00:  Mud Viscosity 
 MWOD.in                  6.75:  MWD Tool OD 
 MWSI.                      No:  Serv Intrp, MWD 
 OTIM.hr                104.84:  Time Operating 
 PMAX.psia            10690.93:  Press Op, Max 
 PV  .cP                 26.00:  Mud PV 
 RUN .                     900:  Run Number 
 ROPA.m/hr                0.00:  ROP Avg 
 ROPN.m/hr                0.00:  ROP Min 
 ROPX.m/hr                0.00:  ROP Max 
 RPMA.rpm               140.00:  RPM Surface Avg 
 RPMN.rpm                70.00:  RPM Surface Min 
 RPMX.rpm               140.00:  RPM Surface Max 
 RRUN.                    0900:  Rig Run Number 
 RTIM.hr                 36.00:  Time Reaming 
 SAZI.deg               115.72:  Azm, Start 
 SDEP.m                5337.01:  Start Depth 
 SIDD.                      No:  Serv Intrp, DD 
 SINC.deg                66.92:  Inc, Start 
 SPPA.psig             4400.00:  SPP Avg 
 SPPN.psig             1135.00:  SPP Min 
 SPPX.psig             4581.00:  SPP Max 
 STIM.      04.30.56 18-May-20:  Start Time 
 SVCS.                     MWD:  Services 
 SVER.                    9.20:  Sperry Version 
 TDAT.m                5337.01:  Tot Depth Attmp 
 TDDF.                      No:  Trip for DD 
 TFF .                      No:  Trip for Fail 
 TQAA.f-kp               23.00:  Torque Abs Avg 
 TQAN.f-kp               18.00:  Torque Abs Min 
 TQAX.f-kp               25.00:  Torque Abs Max 
 TRRT.°/30m               0.74:  Turn Rotating 
 MRT .                    HCIM:  Maximum Recorded Temperature 
 TTMX.degC               76.47:  Max Tool Temp 
 WBMN.klb                 0.00:  WOB Min 
 WITN.             Anar Khalil:  Customer Rep 
 WITN.      Kamran Keberlinski:  Customer Rep 2 
 WOBA.klb                 0.00:  WOB Avg 
 WOBX.klb                 0.00:  WOB Max 
 YP  .lhf2               27.00:  Yield Point 
~Curve Information Block
#MNEM.UNIT                 API CODE     Curve Description
#---------               -----------    ---------------------------
 TIME.HHMMSS            00 000 000 000:  GT Time & Date
 GTDEPTH.m              00 000 000 000:  GT Depth
 GTPQH.psia             00 000 000 000:  GT HR Quartz Pressure
 GTTQ.degC              00 000 000 000:  GT Quartz Temperature
 GTTN.NONE              00 000 000 000:  GT Test Number
 GTET.sec               00 000 000 000:  GT Elapsed Test Time
 GTTVD.m                00 000 000 000:  GT True Vertical Depth
#Other Information
#
#WARRANTY: Halliburton will use its best efforts to furnish customers with 
#accurate information and interpretations that are part of, and incident to, the services 
#provided.  However, Halliburton cannot and does not warrant the accuracy 
#or correctness of such information and interpretations.  Under no circumstances should any 
#such information or interpretation be relied upon as the sole basis for any drilling, 
#completion, production, or financial decision or any procedure involving any risk to the 
#safety of any drilling venture, drilling rig or its crew or any other third party.  The 
#Customer has full responsibility for all drilling, completion and production operation.  
#Halliburton makes no representations or warranties, either expressed or 
#implied, including, but not limited to, the implied warranties of merchantability or fitness 
#for a particular purpose, with respect to the services rendered.  In no event will 
#Halliburton be liable for failure to obtain any particular results or for 
#any damages, including, but not limited to, indirect, special or consequential damages, 
#resulting from the use of any information or interpretation provided by Halliburton.
#
~A           TIME           GTDEPTH  GTPQH  GTTQ  GTTN  GTET   GTTVD  
   17:37:07.125.19-May-2020 5195.01 6492.35 67.07 2.00   0.00 2727.85
   17:37:07.325.19-May-2020 5195.01 6492.35 67.07 2.00   0.20 2727.85
   17:37:07.525.19-May-2020 5195.01 6496.20 67.07 2.00   0.40 2727.85
   17:37:07.725.19-May-2020 5195.01 6495.81 67.07 2.00   0.60 2727.85
   17:37:07.925.19-May-2020 5195.01 6495.70 67.07 2.00   0.80 2727.85
   17:37:08.125.19-May-2020 5195.01 6501.49 67.07 2.00   1.00 2727.85
   17:37:08.325.19-May-2020 5195.01 6501.49 67.07 2.00   1.20 2727.85
   17:37:08.525.19-May-2020 5195.01 6499.46 67.07 2.00   1.40 2727.85
   17:37:08.725.19-May-2020 5195.01 6497.71 67.07 2.00   1.60 2727.85
   17:37:08.925.19-May-2020 5195.01 6500.26 67.07 2.00   1.80 2727.85
   17:37:09.125.19-May-2020 5195.01 6496.40 67.07 2.00   2.00 2727.85
   17:37:09.325.19-May-2020 5195.01 6496.40 67.07 2.00   2.20 2727.85
   17:37:09.525.19-May-2020 5195.01 6497.73 67.07 2.00   2.40 2727.85
   17:37:09.725.19-May-2020 5195.01 6497.73 67.07 2.00   2.60 2727.85
   17:37:09.925.19-May-2020 5195.01 6501.89 67.07 2.00   2.80 2727.85
   17:37:10.125.19-May-2020 5195.01 6500.21 67.07 2.00   3.00 2727.85
   17:37:10.325.19-May-2020 5195.01 6500.21 67.07 2.00   3.20 2727.85
   17:37:10.526.19-May-2020 5195.01 6500.42 67.07 2.00   3.40 2727.85
   17:37:10.726.19-May-2020 5195.01 6504.80 67.07 2.00   3.60 2727.85
   17:37:10.926.19-May-2020 5195.01 6502.90 67.07 2.00   3.80 2727.85
   17:37:11.126.19-May-2020 5195.01 6503.60 67.07 2.00   4.00 2727.85
   17:37:11.326.19-May-2020 5195.01 6503.60 67.07 2.00   4.20 2727.85
   17:37:11.526.19-May-2020 5195.01 6503.60 67.07 2.00   4.40 2727.85
   17:37:11.726.19-May-2020 5195.01 6507.16 67.07 2.00   4.60 2727.85
   17:37:11.926.19-May-2020 5195.01 6506.87 67.07 2.00   4.80 2727.85
   17:37:12.126.19-May-2020 5195.01 6500.21 67.07 2.00   5.00 2727.85
   17:37:12.326.19-May-2020 5195.01 6510.57 67.07 2.00   5.20 2727.85
   17:37:12.526.19-May-2020 5195.01 6510.57 67.07 2.00   5.40 2727.85
   17:37:12.726.19-May-2020 5195.01 6510.57 67.07 2.00   5.60 2727.85
   17:37:12.926.19-May-2020 5195.01 6508.64 67.07 2.00   5.80 2727.85
   17:37:13.126.19-May-2020 5195.01 6509.18 67.07 2.00   6.00 2727.85
   17:37:13.326.19-May-2020 5195.01 6509.18 67.07 2.00   6.20 2727.85
   17:37:13.526.19-May-2020 5195.01 6508.76 67.07 2.00   6.40 2727.85
   17:37:13.726.19-May-2020 5195.01 6512.17 67.07 2.00   6.60 2727.85
   17:37:13.926.19-May-2020 5195.01 6510.28 67.07 2.00   6.80 2727.85
   17:37:14.126.19-May-2020 5195.01 6510.56 67.07 2.00   7.00 2727.85
   17:37:14.326.19-May-2020 5195.01 6510.56 67.07 2.00   7.20 2727.85
   17:37:14.526.19-May-2020 5195.01 6510.85 67.07 2.00   7.40 2727.85
   17:37:14.726.19-May-2020 5195.01 6510.80 67.07 2.00   7.60 2727.85
   17:37:14.926.19-May-2020 5195.01 6512.00 67.07 2.00   7.80 2727.85
   17:37:15.126.19-May-2020 5195.01 6512.08 67.07 2.00   8.00 2727.85
   17:37:15.326.19-May-2020 5195.01 6512.08 67.07 2.00   8.20 2727.85
   17:37:15.526.19-May-2020 5195.01 6512.54 67.07 2.00   8.40 2727.85
   17:37:15.726.19-May-2020 5195.01 6513.31 67.07 2.00   8.60 2727.85
   17:37:15.926.19-May-2020 5195.01 6516.32 67.07 2.00   8.80 2727.85
   17:37:16.126.19-May-2020 5195.01 6517.93 67.07 2.00   9.00 2727.85
   17:37:16.326.19-May-2020 5195.01 6518.46 67.07 2.00   9.20 2727.85
   17:37:16.526.19-May-2020 5195.01 6516.41 67.07 2.00   9.40 2727.85
   17:37:16.726.19-May-2020 5195.01 6517.06 67.07 2.00   9.60 2727.85
   17:37:16.926.19-May-2020 5195.01 6518.50 67.07 2.00   9.80 2727.85
   17:37:17.126.19-May-2020 5195.01 6517.19 67.07 2.00  10.00 2727.85
   17:37:17.326.19-May-2020 5195.01 6517.19 67.07 2.00  10.20 2727.85
   17:37:17.526.19-May-2020 5195.01 6517.80 67.07 2.00  10.40 2727.85
   17:37:17.726.19-May-2020 5195.01 6517.95 67.07 2.00  10.60 2727.85
   17:37:17.926.19-May-2020 5195.01 6518.33 67.07 2.00  10.80 2727.85
   17:37:18.126.19-May-2020 5195.01 6519.33 67.07 2.00  11.00 2727.85
   17:37:18.326.19-May-2020 5195.01 6519.33 67.07 2.00  11.20 2727.85
   17:37:18.526.19-May-2020 5195.01 6519.37 67.07 2.00  11.40 2727.85
   17:37:18.727.19-May-2020 5195.01 6519.60 67.07 2.00  11.60 2727.85
   17:37:18.927.19-May-2020 5195.01 6521.75 67.07 2.00  11.80 2727.85
   17:37:19.127.19-May-2020 5195.01 6523.26 67.07 2.00  12.00 2727.85
   17:37:19.327.19-May-2020 5195.01 6523.26 67.07 2.00  12.20 2727.85
   17:37:19.527.19-May-2020 5195.01 6523.08 67.07 2.00  12.40 2727.85
   17:37:19.727.19-May-2020 5195.01 6523.27 67.07 2.00  12.60 2727.85
   17:37:19.927.19-May-2020 5195.01 6528.32 67.07 2.00  12.80 2727.85
   17:37:20.127.19-May-2020 5195.01 6525.47 67.07 2.00  13.00 2727.85
   17:37:20.327.19-May-2020 5195.01 6525.81 67.07 2.00  13.20 2727.85
   17:37:20.527.19-May-2020 5195.01 6529.85 67.07 2.00  13.40 2727.85
   17:37:20.727.19-May-2020 5195.01 6526.48 67.07 2.00  13.60 2727.85
   17:37:20.927.19-May-2020 5195.01 6528.81 67.07 2.00  13.80 2727.85
   17:37:21.127.19-May-2020 5195.01 6528.09 67.07 2.00  14.00 2727.85
   17:37:21.327.19-May-2020 5195.01 6528.09 67.07 2.00  14.20 2727.85
   17:37:21.527.19-May-2020 5195.01 6526.70 67.07 2.00  14.40 2727.85
   17:37:21.727.19-May-2020 5195.01 6531.78 67.07 2.00  14.60 2727.85
   17:37:21.927.19-May-2020 5195.01 6529.69 67.07 2.00  14.80 2727.85
   17:37:22.127.19-May-2020 5195.01 6532.49 67.07 2.00  15.00 2727.85
   17:37:22.327.19-May-2020 5195.01 6532.49 67.07 2.00  15.20 2727.85
   17:37:22.527.19-May-2020 5195.01 6532.93 67.07 2.00  15.40 2727.85
   17:37:22.727.19-May-2020 5195.01 6530.68 67.07 2.00  15.60 2727.85
   17:37:22.927.19-May-2020 5195.01 6530.73 67.07 2.00  15.80 2727.85
   17:37:23.127.19-May-2020 5195.01 6530.90 67.07 2.00  16.00 2727.85
   17:37:23.327.19-May-2020 5195.01 6530.90 67.07 2.00  16.20 2727.85
   17:37:23.527.19-May-2020 5195.01 6530.95 67.07 2.00  16.40 2727.85
   17:37:23.727.19-May-2020 5195.01 6531.30 67.07 2.00  16.60 2727.85
   17:37:23.927.19-May-2020 5195.01 6531.44 67.07 2.00  16.80 2727.85
   17:37:24.127.19-May-2020 5195.01 6532.09 67.07 2.00  17.00 2727.85
   17:37:24.327.19-May-2020 5195.01 6532.26 67.07 2.00  17.20 2727.85
   17:37:24.527.19-May-2020 5195.01 6532.90 67.07 2.00  17.40 2727.85
   17:37:24.727.19-May-2020 5195.01 6532.87 67.07 2.00  17.60 2727.85
   17:37:24.927.19-May-2020 5195.01 6533.55 67.07 2.00  17.80 2727.85
   17:37:25.127.19-May-2020 5195.01 6538.67 67.07 2.00  18.00 2727.85
   17:37:25.327.19-May-2020 5195.01 6538.67 67.07 2.00  18.20 2727.85
   17:37:25.527.19-May-2020 5195.01 6537.45 67.07 2.00  18.40 2727.85
   17:37:25.727.19-May-2020 5195.01 6536.12 67.07 2.00  18.60 2727.85
   17:37:25.927.19-May-2020 5195.01 6535.74 67.07 2.00  18.80 2727.85
   17:37:26.127.19-May-2020 5195.01 6539.35 67.07 2.00  19.00 2727.85
   17:37:26.327.19-May-2020 5195.01 6539.35 67.07 2.00  19.20 2727.85
   17:37:26.527.19-May-2020 5195.01 6537.73 67.07 2.00  19.40 2727.85
   17:37:26.727.19-May-2020 5195.01 6538.04 67.07 2.00  19.60 2727.85
   17:37:26.928.19-May-2020 5195.01 6544.17 67.07 2.00  19.80 2727.85
   17:37:27.128.19-May-2020 5195.01 6537.09 67.07 2.00  20.00 2727.85
   17:37:27.328.19-May-2020 5195.01 6537.09 67.07 2.00  20.20 2727.85
   17:37:27.528.19-May-2020 5195.01 6540.91 67.07 2.00  20.40 2727.85
   17:37:27.728.19-May-2020 5195.01 6539.95 67.07 2.00  20.60 2727.85
   17:37:27.928.19-May-2020 5195.01 6540.25 67.07 2.00  20.80 2727.85
   17:37:28.128.19-May-2020 5195.01 6542.21 67.07 2.00  21.00 2727.85
   17:37:28.328.19-May-2020 5195.01 6542.21 67.07 2.00  21.20 2727.85
   17:37:28.528.19-May-2020 5195.01 6543.70 67.07 2.00  21.40 2727.85
   17:37:28.728.19-May-2020 5195.01 6542.94 67.07 2.00  21.60 2727.85
   17:37:28.928.19-May-2020 5195.01 6542.70 67.07 2.00  21.80 2727.85
   17:37:29.128.19-May-2020 5195.01 6543.94 67.07 2.00  22.00 2727.85
   17:37:29.328.19-May-2020 5195.01 6543.94 67.07 2.00  22.20 2727.85
   17:37:29.528.19-May-2020 5195.01 6547.05 67.07 2.00  22.40 2727.85
   17:37:29.728.19-May-2020 5195.01 6542.93 67.07 2.00  22.60 2727.85
   17:37:29.928.19-May-2020 5195.01 6546.29 67.07 2.00  22.80 2727.85
