~Version Information
 VERS.                  2.0:   CWLS log ASCII Standard -VERSION 2.0
 WRAP.                   NO:   One line per depth step
~Well Information Block
#MNEM.UNIT     VALUE/NAME     DESCRIPTION
#---------     -----------    ---------------------------
 STRT.S             22:24:43 19-May-20: START TIME 22:24:43 19-May-20
 STOP.S             22:33:01 19-May-20: STOP TIME  22:33:01 19-May-20
 STEP.S                   0.00: STEP TIME
 NULL.                 -999.25: NULL VALUE
 MDS .        Operator Entered:  MAG DATA SOURCE
 PDAT.          Mean Sea Level:  PERMANENT DATUM
 UNIT.                     N/A:  LOGGING EQUIPMENT ID
 DCON.         Sperry Drilling:  DIRECTNL CONTR
 DOE .                     N/A:  DOE NUMBER
 RIG .              East Azeri:  RIG NAME
 JOBN.        AZ-XX-0905856059:  JOB TICKET NUMB
 WELL.                     D36:  WELL NAME
 MWDS.                    Baku:  MWD SHOP
 SRVC.     Turan Drilling & Engineering:  CONTRACTOR
 FLD .                     ACG:  FIELD NAME
 CTRY.              Azerbaijan:  COUNTRY NAME
 PROV.                    Baku:  PROVINCE
 STAT.                    Baku:  STATE NAME
 REGN.                   EESSA:  REGION
 BASE.              Azerbaijan:  LOGGING EQUIPMENT BASE LOCATION
 UWI .                     N/A:  UNIQUE WELL IDENTIFIER
 API .                     N/A:  API NUMBER
 COMP.     BP Exploration (Caspian Sea) Ltd.:  COMPANY
 WTYP.                Deviated:  WELL TYPE
 SON .        AZ-XX-0905856059:  JOB NUMBER
 FTOP.          Formation Tops:  FORM TOPS DESC
 ILTD.               Lithology:  INTERP LTH DESC
 SVYD.                  Survey:  SURVEY DESC
 DMOD.             Drill Model:  DRILL MOD DESC
 HPTY.       Minimum Curvature:  HOLE POS TYPE
 NREF.                    Grid:  NORTH REFERENCE
 SPUD.               25-Feb-20:  SPUD DATE
 DATE.      08.55.28 01-May-20:  END TIME
 STIM.      08.55.28 25-Feb-20:  START TIME
 DMF .             Drill Floor:  DRILL MEAS FROM
 DFST.                        :  DIST FSL TEXT
 DFWT.                        :  DIST FWL TEXT
 CNTY.                        :  COUNTY
 LOC .                        :  LOCATION
 LMF .             Drill Floor:  LOG MEASURED FROM
 VSNS.m                   6.09:  VERT SEC N/S
 VSEW.m                 -10.79:  VERT SEC E/W
 AGAP.m                  43.60:  AIR GAP
 DEP .m                 388.24:  DEPTH
 APD .m                  43.60:  DEPTH ABOVE PD
 WDMS.m                 151.80:  WD ELEV
 EGL .m                   0.00:  GROUND ELEVATION
 EPD .m                   0.00:  ELEVATION
 AZTC.deg                 6.12:  AZM TOTAL CORR
 GRDC.deg                 0.30:  GRID CORRECTION
 MDEC.deg                 6.42:  MAGNETIC DECL
 MDIP.deg                59.42:  MAGNETIC DIP
 MFLD.nT              50256.00:  MAGNETIC FIELD
 GVFD.g                   1.00:  GRAVITY FIELD
 VSDR.deg               159.57:  VERT SEC DIRECT
 TDD .m                5000.01:  TOTAL DEPTH (DRILLER)
 SDEP.m                 397.00:  START DEPTH
 DFSL.m                   0.00:  DISTANCE FSL
 DFWL.m                   0.00:  DISTANCE FWL
 UTMY.m             4431880.20:  UTM Y
 UTMX.m              538763.98:  UTM X
 WHEW.m                 -10.79:  WELL HEAD E/W
 WHNS.m                   6.09:  WELL HEAD N/S
 LONG.deg                51.45:  LONGITUDE
 LATI.deg                40.02:  LATITUDE
 TVDS.m                  43.60:  TVDSS CORRECTN
 EKB .m                  43.60:  KB ELEVATION
 EDF .m                  43.60:  DF ELEVATION
 MAGU.                 1847640:  MAGUTM CHECKSUM
 VSC .                       0:  VS TO CLOSURE
~Parameter Information Block
#MNEM.UNIT       Value        Description
#---------     -----------    ---------------------------
 AV  .mps                 1.30:  Ann Velocity 
 AVMX.mps                 1.90:  Max Ann Veloc 
 AZIF.deg               115.68:  Azm, Final 
 BHAT.                   Other:  BHA Type 
 BROT.°/30m               0.74:  Build Rotating 
 BS  .in                  8.50:  Bit Size 
 BTPL.psig              430.00:  Bit Press Loss 
 CABU.                      No:  Customer Abuse 
 COMM.                     ”le:  Run Comments 1 
 TCS .hr                 51.31:  Time Ciculation Ended 
 CV  .mps                 2.52:  Crit Velocity 
 CVMX.mps                 2.62:  Max Crit Veloc 
 DD1 .          Teymur Aghayev:  Direct Drillr 1 
 DDSV.                   Other:  DD Service 
 DEFF.%                 100.00:  % Det Eff 
 DLRX.°/30m               1.62:  Dogleg Rot Max 
 DLSO.°/30m               0.74:  Dogleg Oriented 
 DLSX.°/30m               1.62:  Dogleg Str Max 
 DRET.      04.30.56 18-May-20:  Drill End Time 
 DRST.      04.30.56 18-May-20:  Drill Start Tim 
 DTIM.hr                  0.00:  Time Drilling 
 EDEP.m                5337.01:  End Depth 
 ENG1.      Artemiy Matviyanov:  Engineer 1 
 ENG2.      Bakhtiyar Jabbarli:  Engineer 2 
 ENG3.           Emil Huseynov:  Engineer 3 
 ETIM.      18.40.00 22-May-20:  End Time 
 FLOI.gpm               550.00:  Flow In 
 FLON.gpm               350.00:  Flow In Min 
 FLOS.cptm                0.00:  Fluid Loss 
 FLOX.gpm               600.00:  Flow In Max 
 HFLO.                      No:  High Flow 
 HPRE.                      No:  High Pressure 
 HTEM.                      No:  High Temp 
 HYDO.m                   1.80:  Hydro Offset 
 IFIN.deg                67.01:  Inc, Final 
 IMAX.deg                67.49:  Inc Max 
 IMIN.deg                66.50:  Inc Min 
 IMND.m                5144.79:  Inc Min Depth 
 IMXD.m                5116.12:  Inc Max Depth 
 JARR.                      No:  Jarring 
 LETM.      17.55.56 20-May-20:  Log End Time 
 LOST.hr                     0:  Lost Rig Time 
 LSTM.      04.30.56 18-May-20:  Log Start Time 
 MDCL.ppm            193153.00:  Mud Chlorides 
 MDES.     Inversion Oil/Synthetic:  Mud Desc 
 DFD .sg                  1.40:  Mud Density 
 MDMN.sg                  1.40:  Dens Mud Min 
 MDMX.sg                  1.41:  Dens Mud Max 
 MOIL.                      68:  Run Mud Oil % 
 MOWR.                   68:32:  Run Mud OWR 
 MSND.                     0.2:  Run Mud Sand % 
 MSOL.                    18.8:  Run Mud Solids% 
 DFV .spqt               80.00:  Mud Viscosity 
 MWOD.in                  6.75:  MWD Tool OD 
 MWSI.                      No:  Serv Intrp, MWD 
 OTIM.hr                104.84:  Time Operating 
 PMAX.psia            10690.93:  Press Op, Max 
 PV  .cP                 26.00:  Mud PV 
 RUN .                     900:  Run Number 
 ROPA.m/hr                0.00:  ROP Avg 
 ROPN.m/hr                0.00:  ROP Min 
 ROPX.m/hr                0.00:  ROP Max 
 RPMA.rpm               140.00:  RPM Surface Avg 
 RPMN.rpm                70.00:  RPM Surface Min 
 RPMX.rpm               140.00:  RPM Surface Max 
 RRUN.                    0900:  Rig Run Number 
 RTIM.hr                 36.00:  Time Reaming 
 SAZI.deg               115.72:  Azm, Start 
 SDEP.m                5337.01:  Start Depth 
 SIDD.                      No:  Serv Intrp, DD 
 SINC.deg                66.92:  Inc, Start 
 SPPA.psig             4400.00:  SPP Avg 
 SPPN.psig             1135.00:  SPP Min 
 SPPX.psig             4581.00:  SPP Max 
 STIM.      04.30.56 18-May-20:  Start Time 
 SVCS.                     MWD:  Services 
 SVER.                    9.20:  Sperry Version 
 TDAT.m                5337.01:  Tot Depth Attmp 
 TDDF.                      No:  Trip for DD 
 TFF .                      No:  Trip for Fail 
 TQAA.f-kp               23.00:  Torque Abs Avg 
 TQAN.f-kp               18.00:  Torque Abs Min 
 TQAX.f-kp               25.00:  Torque Abs Max 
 TRRT.°/30m               0.74:  Turn Rotating 
 MRT .                    HCIM:  Maximum Recorded Temperature 
 TTMX.degC               76.47:  Max Tool Temp 
 WBMN.klb                 0.00:  WOB Min 
 WITN.             Anar Khalil:  Customer Rep 
 WITN.      Kamran Keberlinski:  Customer Rep 2 
 WOBA.klb                 0.00:  WOB Avg 
 WOBX.klb                 0.00:  WOB Max 
 YP  .lhf2               27.00:  Yield Point 
~Curve Information Block
#MNEM.UNIT                 API CODE     Curve Description
#---------               -----------    ---------------------------
 TIME.HHMMSS            00 000 000 000:  GT Time & Date
 GTDEPTH.m              00 000 000 000:  GT Depth
 GTPQH.psia             00 000 000 000:  GT HR Quartz Pressure
 GTTQ.degC              00 000 000 000:  GT Quartz Temperature
 GTTN.NONE              00 000 000 000:  GT Test Number
 GTET.sec               00 000 000 000:  GT Elapsed Test Time
 GTTVD.m                00 000 000 000:  GT True Vertical Depth
#Other Information
#
#WARRANTY: Halliburton will use its best efforts to furnish customers with 
#accurate information and interpretations that are part of, and incident to, the services 
#provided.  However, Halliburton cannot and does not warrant the accuracy 
#or correctness of such information and interpretations.  Under no circumstances should any 
#such information or interpretation be relied upon as the sole basis for any drilling, 
#completion, production, or financial decision or any procedure involving any risk to the 
#safety of any drilling venture, drilling rig or its crew or any other third party.  The 
#Customer has full responsibility for all drilling, completion and production operation.  
#Halliburton makes no representations or warranties, either expressed or 
#implied, including, but not limited to, the implied warranties of merchantability or fitness 
#for a particular purpose, with respect to the services rendered.  In no event will 
#Halliburton be liable for failure to obtain any particular results or for 
#any damages, including, but not limited to, indirect, special or consequential damages, 
#resulting from the use of any information or interpretation provided by Halliburton.
#
~A           TIME           GTDEPTH  GTPQH  GTTQ  GTTN  GTET   GTTVD  
# ...
   22:27:01.039.19-May-2020 5137.01 6468.16 67.90 4.00 138.03 2705.05
   22:27:01.240.19-May-2020 5137.01 6468.16 67.90 4.00 138.23 2705.05
   22:27:01.440.19-May-2020 5137.01 6466.07 67.90 4.00 138.43 2705.05
   22:27:01.640.19-May-2020 5137.01 6464.25 67.90 4.00 138.63 2705.05
   22:27:01.840.19-May-2020 5137.01 6464.79 67.90 4.00 138.83 2705.05
   22:27:02.040.19-May-2020 5137.01 6467.35 67.90 4.00 139.03 2705.05
   22:27:02.240.19-May-2020 5137.01 6464.27 67.90 4.00 139.23 2705.05
   22:27:02.440.19-May-2020 5137.01 6466.54 67.90 4.00 139.43 2705.05
   22:27:02.640.19-May-2020 5137.01 6463.57 67.90 4.00 139.63 2705.05
   22:27:02.840.19-May-2020 5137.01 6466.38 67.90 4.00 139.83 2705.05
   22:27:03.040.19-May-2020 5137.01 6467.61 67.90 4.00 140.03 2705.05
   22:27:03.240.19-May-2020 5137.01 6467.61 67.90 4.00 140.23 2705.05
   22:27:03.440.19-May-2020 5137.01 6467.18 67.90 4.00 140.44 2705.05
   22:27:03.640.19-May-2020 5137.01 6464.11 67.90 4.00 140.64 2705.05
   22:27:03.840.19-May-2020 5137.01 6466.73 67.90 4.00 140.84 2705.05
   22:27:04.040.19-May-2020 5137.01 6467.75 67.90 4.00 141.04 2705.05
   22:27:04.240.19-May-2020 5137.01 6467.75 67.90 4.00 141.24 2705.05
   22:27:04.440.19-May-2020 5137.01 6467.09 67.90 4.00 141.44 2705.05
   22:27:04.640.19-May-2020 5137.01 6464.17 67.90 4.00 141.64 2705.05
   22:27:04.840.19-May-2020 5137.01 6470.17 67.90 4.00 141.84 2705.05
   22:27:05.040.19-May-2020 5137.01 6464.70 67.90 4.00 142.04 2705.05
   22:27:05.241.19-May-2020 5137.01 6464.70 67.90 4.00 142.24 2705.05
   22:27:05.441.19-May-2020 5137.01 6465.05 67.90 4.00 142.44 2705.05
   22:27:05.641.19-May-2020 5137.01 6466.74 67.90 4.00 142.64 2705.05
   22:27:05.841.19-May-2020 5137.01 6464.20 67.90 4.00 142.84 2705.05
   22:27:06.041.19-May-2020 5137.01 6465.62 67.90 4.00 143.04 2705.05
   22:27:06.241.19-May-2020 5137.01 6464.27 67.90 4.00 143.24 2705.05
   22:27:06.441.19-May-2020 5137.01 6465.19 67.90 4.00 143.44 2705.05
   22:27:06.641.19-May-2020 5137.01 6463.66 67.90 4.00 143.64 2705.05
   22:27:06.841.19-May-2020 5137.01 6464.22 67.90 4.00 143.84 2705.05
   22:27:07.041.19-May-2020 5137.01 6464.16 67.90 4.00 144.04 2705.05
   22:27:07.241.19-May-2020 5137.01 6464.16 67.90 4.00 144.24 2705.05
   22:27:07.441.19-May-2020 5137.01 6463.94 67.90 4.00 144.44 2705.05
   22:27:07.641.19-May-2020 5137.01 6463.32 67.90 4.00 144.64 2705.05
   22:27:07.841.19-May-2020 5137.01 6466.78 67.90 4.00 144.84 2705.05
   22:27:08.041.19-May-2020 5137.01 6463.89 67.90 4.00 145.04 2705.05
   22:27:08.241.19-May-2020 5137.01 6463.89 67.90 4.00 145.24 2705.05
   22:27:08.441.19-May-2020 5137.01 6464.33 67.90 4.00 145.44 2705.05
   22:27:08.641.19-May-2020 5137.01 6465.86 67.90 4.00 145.64 2705.05
   22:27:08.841.19-May-2020 5137.01 6465.79 67.90 4.00 145.84 2705.05
   22:27:09.041.19-May-2020 5137.01 6465.49 67.90 4.00 146.04 2705.05
   22:27:09.242.19-May-2020 5137.01 6465.49 67.90 4.00 146.24 2705.05
   22:27:09.442.19-May-2020 5137.01 6464.99 67.90 4.00 146.44 2705.05
   22:27:09.642.19-May-2020 5137.01 6466.57 67.90 4.00 146.64 2705.05
   22:27:09.842.19-May-2020 5137.01 6466.74 67.90 4.00 146.84 2705.05
   22:27:10.042.19-May-2020 5137.01 6466.34 67.90 4.00 147.04 2705.05
   22:27:10.242.19-May-2020 5137.01 6466.62 67.90 4.00 147.24 2705.05
   22:27:10.442.19-May-2020 5137.01 6465.30 67.90 4.00 147.44 2705.05
   22:27:10.642.19-May-2020 5137.01 6467.23 67.90 4.00 147.64 2705.05
   22:27:10.842.19-May-2020 5137.01 6466.82 67.90 4.00 147.84 2705.05
   22:27:11.042.19-May-2020 5137.01 6466.66 67.90 4.00 148.04 2705.05
   22:27:11.242.19-May-2020 5137.01 6466.66 67.90 4.00 148.24 2705.05
   22:27:11.442.19-May-2020 5137.01 6466.81 67.90 4.00 148.44 2705.05
   22:27:11.642.19-May-2020 5137.01 6468.35 67.90 4.00 148.64 2705.05
   22:27:11.842.19-May-2020 5137.01 6465.65 67.90 4.00 148.84 2705.05
   22:27:12.042.19-May-2020 5137.01 6467.98 67.90 4.00 149.04 2705.05
   22:27:12.242.19-May-2020 5137.01 6467.98 67.90 4.00 149.24 2705.05
   22:27:12.442.19-May-2020 5137.01 6467.36 67.90 4.00 149.44 2705.05
   22:27:12.642.19-May-2020 5137.01 6464.40 67.90 4.00 149.64 2705.05
   22:27:12.842.19-May-2020 5137.01 6465.52 67.90 4.00 149.84 2705.05
   22:27:13.042.19-May-2020 5137.01 6465.06 67.90 4.00 150.04 2705.05
   22:27:13.242.19-May-2020 5137.01 6465.06 67.90 4.00 150.24 2705.05
   22:27:13.443.19-May-2020 5137.01 6464.88 67.90 4.00 150.44 2705.05
   22:27:13.643.19-May-2020 5137.01 6464.01 67.90 4.00 150.64 2705.05
   22:27:13.843.19-May-2020 5137.01 6464.14 67.90 4.00 150.84 2705.05
   22:27:14.043.19-May-2020 5137.01 6464.27 67.90 4.00 151.04 2705.05
   22:27:14.243.19-May-2020 5137.01 6464.27 67.90 4.00 151.24 2705.05
   22:27:14.443.19-May-2020 5137.01 6464.04 67.90 4.00 151.44 2705.05
   22:27:14.643.19-May-2020 5137.01 6466.47 67.90 4.00 151.64 2705.05
   22:27:14.843.19-May-2020 5137.01 6464.05 67.90 4.00 151.84 2705.05
   22:27:15.043.19-May-2020 5137.01 6465.82 67.90 4.00 152.04 2705.05
   22:27:15.243.19-May-2020 5137.01 6465.82 67.90 4.00 152.24 2705.05
   22:27:15.443.19-May-2020 5137.01 6469.38 67.90 4.00 152.44 2705.05
   22:27:15.643.19-May-2020 5137.01 6463.51 67.90 4.00 152.64 2705.05
   22:27:15.843.19-May-2020 5137.01 6466.47 67.90 4.00 152.84 2705.05
   22:27:16.043.19-May-2020 5137.01 6465.73 67.90 4.00 153.04 2705.05
   22:27:16.243.19-May-2020 5137.01 6465.73 67.90 4.00 153.24 2705.05
   22:27:16.443.19-May-2020 5137.01 6464.95 67.90 4.00 153.44 2705.05
   22:27:16.643.19-May-2020 5137.01 6467.12 67.90 4.00 153.64 2705.05
   22:27:16.843.19-May-2020 5137.01 6465.20 67.90 4.00 153.84 2705.05
   22:27:17.043.19-May-2020 5137.01 6466.82 67.90 4.00 154.04 2705.05
   22:27:17.243.19-May-2020 5137.01 6466.82 67.90 4.00 154.24 2705.05
   22:27:17.444.19-May-2020 5137.01 6466.75 67.90 4.00 154.44 2705.05
   22:27:17.644.19-May-2020 5137.01 6465.89 67.90 4.00 154.64 2705.05
   22:27:17.844.19-May-2020 5137.01 6466.85 67.90 4.00 154.84 2705.05
   22:27:18.044.19-May-2020 5137.01 6468.65 67.90 4.00 155.04 2705.05
   22:27:18.244.19-May-2020 5137.01 6465.48 67.90 4.00 155.24 2705.05
   22:27:18.444.19-May-2020 5137.01 6467.24 67.90 4.00 155.44 2705.05
   22:27:18.644.19-May-2020 5137.01 6465.98 67.90 4.00 155.64 2705.05
   22:27:18.844.19-May-2020 5137.01 6466.20 67.90 4.00 155.84 2705.05
   22:27:19.044.19-May-2020 5137.01 6465.38 67.90 4.00 156.04 2705.05
   22:27:19.244.19-May-2020 5137.01 6465.38 67.90 4.00 156.24 2705.05
   22:27:19.444.19-May-2020 5137.01 6465.34 67.90 4.00 156.44 2705.05
   22:27:19.644.19-May-2020 5137.01 6464.36 67.90 4.00 156.64 2705.05
   22:27:19.844.19-May-2020 5137.01 6464.83 67.90 4.00 156.84 2705.05
   22:27:20.044.19-May-2020 5137.01 6464.39 67.90 4.00 157.04 2705.05
   22:27:20.244.19-May-2020 5137.01 6464.39 67.90 4.00 157.24 2705.05
   22:27:20.444.19-May-2020 5137.01 6464.69 67.90 4.00 157.44 2705.05
   22:27:20.644.19-May-2020 5137.01 6463.59 67.90 4.00 157.64 2705.05
   22:27:20.844.19-May-2020 5137.01 6463.99 67.90 4.00 157.84 2705.05
   22:27:21.044.19-May-2020 5137.01 6465.08 67.90 4.00 158.04 2705.05
   22:27:21.244.19-May-2020 5137.01 6465.08 67.90 4.00 158.24 2705.05
   22:27:21.445.19-May-2020 5137.01 6465.13 67.90 4.00 158.44 2705.05
   22:27:21.645.19-May-2020 5137.01 6465.40 67.90 4.00 158.64 2705.05
   22:27:21.845.19-May-2020 5137.01 6463.92 67.90 4.00 158.84 2705.05
   22:27:22.045.19-May-2020 5137.01 6470.53 67.90 4.00 159.04 2705.05
   22:27:22.245.19-May-2020 5137.01 6461.84 67.90 4.00 159.24 2705.05
   22:27:22.445.19-May-2020 5137.01 6467.47 67.90 4.00 159.44 2705.05
   22:27:22.645.19-May-2020 5137.01 6465.22 67.90 4.00 159.64 2705.05
   22:27:22.845.19-May-2020 5137.01 6469.70 67.90 4.00 159.84 2705.05
   22:27:23.045.19-May-2020 5137.01 6464.91 67.90 4.00 160.04 2705.05
   22:27:23.245.19-May-2020 5137.01 6464.91 67.90 4.00 160.24 2705.05
   22:27:23.445.19-May-2020 5137.01 6465.29 67.90 4.00 160.44 2705.05
   22:27:23.645.19-May-2020 5137.01 6466.94 67.90 4.00 160.64 2705.05
   22:27:23.845.19-May-2020 5137.01 6467.73 67.90 4.00 160.84 2705.05
