~Version Information
 VERS.                  2.0:   CWLS log ASCII Standard -VERSION 2.0
 WRAP.                   NO:   One line per depth step
~Well Information Block
#MNEM.UNIT     VALUE/NAME     DESCRIPTION
#---------     -----------    ---------------------------
 STRT.S             02:05:08 20-May-20: START TIME 02:05:08 20-May-20
 STOP.S             02:15:48 20-May-20: STOP TIME  02:15:48 20-May-20
 STEP.S                   0.00: STEP TIME
 NULL.                 -999.25: NULL VALUE
 MDS .        Operator Entered:  MAG DATA SOURCE
 PDAT.          Mean Sea Level:  PERMANENT DATUM
 UNIT.                     N/A:  LOGGING EQUIPMENT ID
 DCON.         Sperry Drilling:  DIRECTNL CONTR
 DOE .                     N/A:  DOE NUMBER
 RIG .              East Azeri:  RIG NAME
 JOBN.        AZ-XX-0905856059:  JOB TICKET NUMB
 WELL.                     D36:  WELL NAME
 MWDS.                    Baku:  MWD SHOP
 SRVC.     Turan Drilling & Engineering:  CONTRACTOR
 FLD .                     ACG:  FIELD NAME
 CTRY.              Azerbaijan:  COUNTRY NAME
 PROV.                    Baku:  PROVINCE
 STAT.                    Baku:  STATE NAME
 REGN.                   EESSA:  REGION
 BASE.              Azerbaijan:  LOGGING EQUIPMENT BASE LOCATION
 UWI .                     N/A:  UNIQUE WELL IDENTIFIER
 API .                     N/A:  API NUMBER
 COMP.     BP Exploration (Caspian Sea) Ltd.:  COMPANY
 WTYP.                Deviated:  WELL TYPE
 SON .        AZ-XX-0905856059:  JOB NUMBER
 FTOP.          Formation Tops:  FORM TOPS DESC
 ILTD.               Lithology:  INTERP LTH DESC
 SVYD.                  Survey:  SURVEY DESC
 DMOD.             Drill Model:  DRILL MOD DESC
 HPTY.       Minimum Curvature:  HOLE POS TYPE
 NREF.                    Grid:  NORTH REFERENCE
 SPUD.               25-Feb-20:  SPUD DATE
 DATE.      08.55.28 01-May-20:  END TIME
 STIM.      08.55.28 25-Feb-20:  START TIME
 DMF .             Drill Floor:  DRILL MEAS FROM
 DFST.                        :  DIST FSL TEXT
 DFWT.                        :  DIST FWL TEXT
 CNTY.                        :  COUNTY
 LOC .                        :  LOCATION
 LMF .             Drill Floor:  LOG MEASURED FROM
 VSNS.m                   6.09:  VERT SEC N/S
 VSEW.m                 -10.79:  VERT SEC E/W
 AGAP.m                  43.60:  AIR GAP
 DEP .m                 388.24:  DEPTH
 APD .m                  43.60:  DEPTH ABOVE PD
 WDMS.m                 151.80:  WD ELEV
 EGL .m                   0.00:  GROUND ELEVATION
 EPD .m                   0.00:  ELEVATION
 AZTC.deg                 6.12:  AZM TOTAL CORR
 GRDC.deg                 0.30:  GRID CORRECTION
 MDEC.deg                 6.42:  MAGNETIC DECL
 MDIP.deg                59.42:  MAGNETIC DIP
 MFLD.nT              50256.00:  MAGNETIC FIELD
 GVFD.g                   1.00:  GRAVITY FIELD
 VSDR.deg               159.57:  VERT SEC DIRECT
 TDD .m                5000.01:  TOTAL DEPTH (DRILLER)
 SDEP.m                 397.00:  START DEPTH
 DFSL.m                   0.00:  DISTANCE FSL
 DFWL.m                   0.00:  DISTANCE FWL
 UTMY.m             4431880.20:  UTM Y
 UTMX.m              538763.98:  UTM X
 WHEW.m                 -10.79:  WELL HEAD E/W
 WHNS.m                   6.09:  WELL HEAD N/S
 LONG.deg                51.45:  LONGITUDE
 LATI.deg                40.02:  LATITUDE
 TVDS.m                  43.60:  TVDSS CORRECTN
 EKB .m                  43.60:  KB ELEVATION
 EDF .m                  43.60:  DF ELEVATION
 MAGU.                 1847640:  MAGUTM CHECKSUM
 VSC .                       0:  VS TO CLOSURE
~Parameter Information Block
#MNEM.UNIT       Value        Description
#---------     -----------    ---------------------------
 AV  .mps                 1.30:  Ann Velocity 
 AVMX.mps                 1.90:  Max Ann Veloc 
 AZIF.deg               115.68:  Azm, Final 
 BHAT.                   Other:  BHA Type 
 BROT.°/30m               0.74:  Build Rotating 
 BS  .in                  8.50:  Bit Size 
 BTPL.psig              430.00:  Bit Press Loss 
 CABU.                      No:  Customer Abuse 
 TCS .hr                 51.31:  Time Ciculation Ended 
 CV  .mps                 2.52:  Crit Velocity 
 CVMX.mps                 2.62:  Max Crit Veloc 
 DD1 .          Teymur Aghayev:  Direct Drillr 1 
 DDSV.                   Other:  DD Service 
 DEFF.%                 100.00:  % Det Eff 
 DLRX.°/30m               1.62:  Dogleg Rot Max 
 DLSO.°/30m               0.74:  Dogleg Oriented 
 DLSX.°/30m               1.62:  Dogleg Str Max 
 DRET.      04.30.56 18-May-20:  Drill End Time 
 DRST.      04.30.56 18-May-20:  Drill Start Tim 
 DTIM.hr                  0.00:  Time Drilling 
 EDEP.m                5337.01:  End Depth 
 ENG1.      Artemiy Matviyanov:  Engineer 1 
 ENG2.      Bakhtiyar Jabbarli:  Engineer 2 
 ENG3.           Emil Huseynov:  Engineer 3 
 ETIM.      18.40.00 22-May-20:  End Time 
 FLOI.gpm               550.00:  Flow In 
 FLON.gpm               350.00:  Flow In Min 
 FLOS.cptm                0.00:  Fluid Loss 
 FLOX.gpm               600.00:  Flow In Max 
 HFLO.                      No:  High Flow 
 HPRE.                      No:  High Pressure 
 HTEM.                      No:  High Temp 
 HYDO.m                   1.80:  Hydro Offset 
 IFIN.deg                67.01:  Inc, Final 
 IMAX.deg                67.49:  Inc Max 
 IMIN.deg                66.50:  Inc Min 
 IMND.m                5144.79:  Inc Min Depth 
 IMXD.m                5116.12:  Inc Max Depth 
 JARR.                      No:  Jarring 
 LETM.      17.55.56 20-May-20:  Log End Time 
 LOST.hr                     0:  Lost Rig Time 
 LSTM.      04.30.56 18-May-20:  Log Start Time 
 MDCL.ppm            193153.00:  Mud Chlorides 
 MDES.     Inversion Oil/Synthetic:  Mud Desc 
 DFD .sg                  1.40:  Mud Density 
 MDMN.sg                  1.40:  Dens Mud Min 
 MDMX.sg                  1.41:  Dens Mud Max 
 MOIL.                      68:  Run Mud Oil % 
 MOWR.                   68:32:  Run Mud OWR 
 MSND.                     0.2:  Run Mud Sand % 
 MSOL.                    18.8:  Run Mud Solids% 
 DFV .spqt               80.00:  Mud Viscosity 
 MWOD.in                  6.75:  MWD Tool OD 
 MWSI.                      No:  Serv Intrp, MWD 
 OTIM.hr                104.84:  Time Operating 
 PMAX.psia            10690.93:  Press Op, Max 
 PV  .cP                 26.00:  Mud PV 
 RUN .                     900:  Run Number 
 ROPA.m/hr                0.00:  ROP Avg 
 ROPN.m/hr                0.00:  ROP Min 
 ROPX.m/hr                0.00:  ROP Max 
 RPMA.rpm               140.00:  RPM Surface Avg 
 RPMN.rpm                70.00:  RPM Surface Min 
 RPMX.rpm               140.00:  RPM Surface Max 
 RRUN.                    0900:  Rig Run Number 
 RTIM.hr                 36.00:  Time Reaming 
 SAZI.deg               115.72:  Azm, Start 
 SDEP.m                5337.01:  Start Depth 
 SIDD.                      No:  Serv Intrp, DD 
 SINC.deg                66.92:  Inc, Start 
 SPPA.psig             4400.00:  SPP Avg 
 SPPN.psig             1135.00:  SPP Min 
 SPPX.psig             4581.00:  SPP Max 
 STIM.      04.30.56 18-May-20:  Start Time 
 SVCS.                     MWD:  Services 
 SVER.                    9.20:  Sperry Version 
 TDAT.m                5337.01:  Tot Depth Attmp 
 TDDF.                      No:  Trip for DD 
 TFF .                      No:  Trip for Fail 
 TQAA.f-kp               23.00:  Torque Abs Avg 
 TQAN.f-kp               18.00:  Torque Abs Min 
 TQAX.f-kp               25.00:  Torque Abs Max 
 TRRT.°/30m               0.74:  Turn Rotating 
 MRT .                    HCIM:  Maximum Recorded Temperature 
 TTMX.degC               76.47:  Max Tool Temp 
 WBMN.klb                 0.00:  WOB Min 
 WITN.             Anar Khalil:  Customer Rep 
 WITN.      Kamran Keberlinski:  Customer Rep 2 
 WOBA.klb                 0.00:  WOB Avg 
 WOBX.klb                 0.00:  WOB Max 
 YP  .lhf2               27.00:  Yield Point 
~Curve Information Block
#MNEM.UNIT                 API CODE     Curve Description
#---------               -----------    ---------------------------
 TIME.HHMMSS            00 000 000 000:  GT Time & Date
 GTDEPTH.m              00 000 000 000:  GT Depth
 GTPQH.psia             00 000 000 000:  GT HR Quartz Pressure
 GTTQ.degC              00 000 000 000:  GT Quartz Temperature
 GTTN.NONE              00 000 000 000:  GT Test Number
 GTET.sec               00 000 000 000:  GT Elapsed Test Time
 GTTVD.m                00 000 000 000:  GT True Vertical Depth
#Other Information
#
#WARRANTY: Halliburton will use its best efforts to furnish customers with 
#accurate information and interpretations that are part of, and incident to, the services 
#provided.  However, Halliburton cannot and does not warrant the accuracy 
#or correctness of such information and interpretations.  Under no circumstances should any 
#such information or interpretation be relied upon as the sole basis for any drilling, 
#completion, production, or financial decision or any procedure involving any risk to the 
#safety of any drilling venture, drilling rig or its crew or any other third party.  The 
#Customer has full responsibility for all drilling, completion and production operation.  
#Halliburton makes no representations or warranties, either expressed or 
#implied, including, but not limited to, the implied warranties of merchantability or fitness 
#for a particular purpose, with respect to the services rendered.  In no event will 
#Halliburton be liable for failure to obtain any particular results or for 
#any damages, including, but not limited to, indirect, special or consequential damages, 
#resulting from the use of any information or interpretation provided by Halliburton.
#
~A           TIME           GTDEPTH  GTPQH  GTTQ  GTTN  GTET   GTTVD  
# ...
   02:14:43.000.20-May-2020 5070.01 2956.08 68.29 7.00 575.00 2678.90
   02:14:43.200.20-May-2020 5070.01 2956.08 68.29 7.00 575.20 2678.90
   02:14:43.400.20-May-2020 5070.01 2956.06 68.29 7.00 575.40 2678.90
   02:14:43.600.20-May-2020 5070.01 2955.76 68.29 7.00 575.60 2678.90
   02:14:43.800.20-May-2020 5070.01 2956.00 68.29 7.00 575.80 2678.90
   02:14:44.000.20-May-2020 5070.01 2956.02 68.29 7.00 576.00 2678.90
   02:14:44.200.20-May-2020 5070.01 2956.02 68.29 7.00 576.20 2678.90
   02:14:44.400.20-May-2020 5070.01 2955.86 68.29 7.00 576.40 2678.90
   02:14:44.600.20-May-2020 5070.01 2955.98 68.29 7.00 576.60 2678.90
   02:14:44.800.20-May-2020 5070.01 2956.00 68.29 7.00 576.80 2678.90
   02:14:45.000.20-May-2020 5070.01 2956.08 68.29 7.00 577.00 2678.90
   02:14:45.200.20-May-2020 5070.01 2956.05 68.29 7.00 577.20 2678.90
   02:14:45.400.20-May-2020 5070.01 2956.05 68.29 7.00 577.40 2678.90
   02:14:45.600.20-May-2020 5070.01 2955.75 68.29 7.00 577.60 2678.90
   02:14:45.800.20-May-2020 5070.01 2955.98 68.29 7.00 577.80 2678.90
   02:14:46.000.20-May-2020 5070.01 2956.05 68.29 7.00 578.00 2678.90
   02:14:46.200.20-May-2020 5070.01 2956.05 68.29 7.00 578.20 2678.90
   02:14:46.400.20-May-2020 5070.01 2956.09 68.29 7.00 578.40 2678.90
   02:14:46.600.20-May-2020 5070.01 2956.00 68.29 7.00 578.60 2678.90
   02:14:46.800.20-May-2020 5070.01 2956.04 68.29 7.00 578.80 2678.90
   02:14:47.000.20-May-2020 5070.01 2956.06 68.29 7.00 579.00 2678.90
   02:14:47.200.20-May-2020 5070.01 2956.06 68.29 7.00 579.20 2678.90
   02:14:47.400.20-May-2020 5070.01 2956.05 68.29 7.00 579.40 2678.90
   02:14:47.600.20-May-2020 5070.01 2956.00 68.29 7.00 579.60 2678.90
   02:14:47.800.20-May-2020 5070.01 2956.00 68.29 7.00 579.80 2678.90
   02:14:48.000.20-May-2020 5070.01 2956.05 68.29 7.00 580.00 2678.90
   02:14:48.200.20-May-2020 5070.01 2956.05 68.29 7.00 580.20 2678.90
   02:14:48.400.20-May-2020 5070.01 2956.05 68.29 7.00 580.40 2678.90
   02:14:48.600.20-May-2020 5070.01 2955.74 68.29 7.00 580.60 2678.90
   02:14:48.800.20-May-2020 5070.01 2956.03 68.29 7.00 580.80 2678.90
   02:14:49.000.20-May-2020 5070.01 2956.01 68.29 7.00 581.00 2678.90
   02:14:49.200.20-May-2020 5070.01 2956.03 68.29 7.00 581.20 2678.90
   02:14:49.400.20-May-2020 5070.01 2955.76 68.29 7.00 581.40 2678.90
   02:14:49.600.20-May-2020 5070.01 2956.09 68.29 7.00 581.60 2678.90
   02:14:49.800.20-May-2020 5070.01 2956.00 68.29 7.00 581.80 2678.90
   02:14:50.000.20-May-2020 5070.01 2956.05 68.29 7.00 582.00 2678.90
   02:14:50.200.20-May-2020 5070.01 2956.06 68.29 7.00 582.20 2678.90
   02:14:50.400.20-May-2020 5070.01 2956.05 68.29 7.00 582.40 2678.90
   02:14:50.600.20-May-2020 5070.01 2955.75 68.29 7.00 582.60 2678.90
   02:14:50.800.20-May-2020 5070.01 2956.01 68.29 7.00 582.80 2678.90
   02:14:51.000.20-May-2020 5070.01 2956.25 68.29 7.00 583.00 2678.90
   02:14:51.200.20-May-2020 5070.01 2956.25 68.29 7.00 583.20 2678.90
   02:14:51.400.20-May-2020 5070.01 3063.12 68.29 7.00 583.40 2678.90
   02:14:51.600.20-May-2020 5070.01 5470.53 68.29 7.00 583.60 2678.90
   02:14:51.800.20-May-2020 5070.01 6443.32 68.29 7.00 583.80 2678.90
   02:14:52.000.20-May-2020 5070.01 6446.00 68.29 7.00 584.00 2678.90
   02:14:52.200.20-May-2020 5070.01 6446.00 68.29 7.00 584.20 2678.90
   02:14:52.400.20-May-2020 5070.01 6443.60 68.29 7.00 584.40 2678.90
   02:14:52.600.20-May-2020 5070.01 6448.73 68.29 7.00 584.60 2678.90
   02:14:52.800.20-May-2020 5070.01 6445.46 68.29 7.00 584.80 2678.90
   02:14:53.000.20-May-2020 5070.01 6446.21 68.29 7.00 585.00 2678.90
   02:14:53.200.20-May-2020 5070.01 6446.21 68.29 7.00 585.20 2678.90
   02:14:53.400.20-May-2020 5070.01 6448.38 68.30 7.00 585.40 2678.90
   02:14:53.600.20-May-2020 5070.01 6447.17 68.30 7.00 585.60 2678.90
   02:14:53.800.20-May-2020 5070.01 6447.04 68.30 7.00 585.80 2678.90
   02:14:54.000.20-May-2020 5070.01 6449.11 68.31 7.00 586.00 2678.90
   02:14:54.200.20-May-2020 5070.01 6447.38 68.31 7.00 586.20 2678.90
   02:14:54.400.20-May-2020 5070.01 6448.96 68.31 7.00 586.40 2678.90
   02:14:54.600.20-May-2020 5070.01 6448.78 68.31 7.00 586.60 2678.90
   02:14:54.800.20-May-2020 5070.01 6447.90 68.32 7.00 586.80 2678.90
   02:14:55.000.20-May-2020 5070.01 6449.49 68.32 7.00 587.00 2678.90
   02:14:55.200.20-May-2020 5070.01 6449.49 68.32 7.00 587.20 2678.90
   02:14:55.400.20-May-2020 5070.01 6449.21 68.32 7.00 587.40 2678.90
   02:14:55.600.20-May-2020 5070.01 6454.36 68.33 7.00 587.60 2678.90
   02:14:55.800.20-May-2020 5070.01 6449.43 68.33 7.00 587.80 2678.90
   02:14:56.000.20-May-2020 5070.01 6450.15 68.33 7.00 588.00 2678.90
   02:14:56.200.20-May-2020 5070.01 6450.15 68.33 7.00 588.20 2678.90
   02:14:56.400.20-May-2020 5070.01 6455.25 68.34 7.00 588.40 2678.90
   02:14:56.600.20-May-2020 5070.01 6452.12 68.34 7.00 588.60 2678.90
   02:14:56.800.20-May-2020 5070.01 6449.53 68.34 7.00 588.80 2678.90
   02:14:57.000.20-May-2020 5070.01 6453.44 68.34 7.00 589.00 2678.90
   02:14:57.200.20-May-2020 5070.01 6451.84 68.35 7.00 589.20 2678.90
   02:14:57.400.20-May-2020 5070.01 6453.21 68.35 7.00 589.40 2678.90
   02:14:57.600.20-May-2020 5070.01 6453.07 68.35 7.00 589.60 2678.90
   02:14:57.800.20-May-2020 5070.01 6450.94 68.35 7.00 589.80 2678.90
   02:14:58.000.20-May-2020 5070.01 6452.56 68.35 7.00 590.00 2678.90
   02:14:58.200.20-May-2020 5070.01 6453.15 68.36 7.00 590.20 2678.90
   02:14:58.400.20-May-2020 5070.01 6454.78 68.36 7.00 590.40 2678.90
   02:14:58.600.20-May-2020 5070.01 6450.11 68.36 7.00 590.60 2678.90
   02:14:58.800.20-May-2020 5070.01 6451.35 68.36 7.00 590.80 2678.90
   02:14:59.000.20-May-2020 5070.01 6453.98 68.36 7.00 591.00 2678.90
   02:14:59.200.20-May-2020 5070.01 6453.98 68.36 7.00 591.20 2678.90
   02:14:59.400.20-May-2020 5070.01 6453.35 68.36 7.00 591.40 2678.90
   02:14:59.600.20-May-2020 5070.01 6453.97 68.37 7.00 591.60 2678.90
   02:14:59.800.20-May-2020 5070.01 6451.66 68.37 7.00 591.80 2678.90
   02:15:00.000.20-May-2020 5070.01 6453.46 68.37 7.00 592.00 2678.90
   02:15:00.200.20-May-2020 5070.01 6453.46 68.37 7.00 592.20 2678.90
   02:15:00.400.20-May-2020 5070.01 6453.41 68.37 7.00 592.40 2678.90
   02:15:00.600.20-May-2020 5070.01 6451.63 68.37 7.00 592.60 2678.90
   02:15:00.800.20-May-2020 5070.01 6451.26 68.37 7.00 592.80 2678.90
   02:15:01.000.20-May-2020 5070.01 6452.96 68.37 7.00 593.00 2678.90
   02:15:01.200.20-May-2020 5070.01 6452.96 68.37 7.00 593.20 2678.90
   02:15:01.400.20-May-2020 5070.01 6451.81 68.37 7.00 593.40 2678.90
   02:15:01.600.20-May-2020 5070.01 6451.32 68.38 7.00 593.60 2678.90
   02:15:01.800.20-May-2020 5070.01 6450.45 68.38 7.00 593.80 2678.90
   02:15:02.000.20-May-2020 5070.01 6451.53 68.38 7.00 594.00 2678.90
   02:15:02.200.20-May-2020 5070.01 6450.31 68.38 7.00 594.20 2678.90
   02:15:02.400.20-May-2020 5070.01 6450.88 68.38 7.00 594.40 2678.90
   02:15:02.600.20-May-2020 5070.01 6455.05 68.38 7.00 594.60 2678.90
   02:15:02.800.20-May-2020 5070.01 6450.95 68.38 7.00 594.80 2678.90
   02:15:03.000.20-May-2020 5070.01 6451.84 68.38 7.00 595.00 2678.90
   02:15:03.200.20-May-2020 5070.01 6451.84 68.38 7.00 595.20 2678.90
   02:15:03.400.20-May-2020 5070.01 6457.01 68.38 7.00 595.40 2678.90
   02:15:03.600.20-May-2020 5070.01 6452.30 68.38 7.00 595.60 2678.90
   02:15:03.800.20-May-2020 5070.01 6450.57 68.38 7.00 595.80 2678.90
   02:15:04.000.20-May-2020 5070.01 6453.86 68.38 7.00 596.00 2678.90
   02:15:04.200.20-May-2020 5070.01 6452.96 68.38 7.00 596.20 2678.90
   02:15:04.400.20-May-2020 5070.01 6456.10 68.38 7.00 596.40 2678.90
   02:15:04.600.20-May-2020 5070.01 6452.54 68.38 7.00 596.60 2678.90
   02:15:04.800.20-May-2020 5070.01 6451.23 68.38 7.00 596.80 2678.90
   02:15:05.000.20-May-2020 5070.01 6453.92 68.38 7.00 597.00 2678.90
   02:15:05.200.20-May-2020 5070.01 6455.23 68.38 7.00 597.20 2678.90
   02:15:05.400.20-May-2020 5070.01 6455.48 68.38 7.00 597.40 2678.90
   02:15:05.600.20-May-2020 5070.01 6451.64 68.38 7.00 597.60 2678.90
   02:15:05.800.20-May-2020 5070.01 6453.43 68.38 7.00 597.80 2678.90
