~Version Information
 VERS.                  2.0:   CWLS log ASCII Standard -VERSION 2.0
 WRAP.                   NO:   One line per depth step
~Well Information Block
#MNEM.UNIT     VALUE/NAME     DESCRIPTION
#---------     -----------    ---------------------------
 STRT.S             21:41:59 19-May-20: START TIME 21:41:59 19-May-20
 STOP.S             21:48:44 19-May-20: STOP TIME  21:48:44 19-May-20
 STEP.S                   0.00: STEP TIME
 NULL.                 -999.25: NULL VALUE
 MDS .        Operator Entered:  MAG DATA SOURCE
 PDAT.          Mean Sea Level:  PERMANENT DATUM
 UNIT.                     N/A:  LOGGING EQUIPMENT ID
 DCON.         Sperry Drilling:  DIRECTNL CONTR
 DOE .                     N/A:  DOE NUMBER
 RIG .              East Azeri:  RIG NAME
 JOBN.        AZ-XX-0905856059:  JOB TICKET NUMB
 WELL.                     D36:  WELL NAME
 MWDS.                    Baku:  MWD SHOP
 SRVC.     Turan Drilling & Engineering:  CONTRACTOR
 FLD .                     ACG:  FIELD NAME
 CTRY.              Azerbaijan:  COUNTRY NAME
 PROV.                    Baku:  PROVINCE
 STAT.                    Baku:  STATE NAME
 REGN.                   EESSA:  REGION
 BASE.              Azerbaijan:  LOGGING EQUIPMENT BASE LOCATION
 UWI .                     N/A:  UNIQUE WELL IDENTIFIER
 API .                     N/A:  API NUMBER
 COMP.     BP Exploration (Caspian Sea) Ltd.:  COMPANY
 WTYP.                Deviated:  WELL TYPE
 SON .        AZ-XX-0905856059:  JOB NUMBER
 FTOP.          Formation Tops:  FORM TOPS DESC
 ILTD.               Lithology:  INTERP LTH DESC
 SVYD.                  Survey:  SURVEY DESC
 DMOD.             Drill Model:  DRILL MOD DESC
 HPTY.       Minimum Curvature:  HOLE POS TYPE
 NREF.                    Grid:  NORTH REFERENCE
 SPUD.               25-Feb-20:  SPUD DATE
 DATE.      08.55.28 01-May-20:  END TIME
 STIM.      08.55.28 25-Feb-20:  START TIME
 DMF .             Drill Floor:  DRILL MEAS FROM
 DFST.                        :  DIST FSL TEXT
 DFWT.                        :  DIST FWL TEXT
 CNTY.                        :  COUNTY
 LOC .                        :  LOCATION
 LMF .             Drill Floor:  LOG MEASURED FROM
 VSNS.m                   6.09:  VERT SEC N/S
 VSEW.m                 -10.79:  VERT SEC E/W
 AGAP.m                  43.60:  AIR GAP
 DEP .m                 388.24:  DEPTH
 APD .m                  43.60:  DEPTH ABOVE PD
 WDMS.m                 151.80:  WD ELEV
 EGL .m                   0.00:  GROUND ELEVATION
 EPD .m                   0.00:  ELEVATION
 AZTC.deg                 6.12:  AZM TOTAL CORR
 GRDC.deg                 0.30:  GRID CORRECTION
 MDEC.deg                 6.42:  MAGNETIC DECL
 MDIP.deg                59.42:  MAGNETIC DIP
 MFLD.nT              50256.00:  MAGNETIC FIELD
 GVFD.g                   1.00:  GRAVITY FIELD
 VSDR.deg               159.57:  VERT SEC DIRECT
 TDD .m                5000.01:  TOTAL DEPTH (DRILLER)
 SDEP.m                 397.00:  START DEPTH
 DFSL.m                   0.00:  DISTANCE FSL
 DFWL.m                   0.00:  DISTANCE FWL
 UTMY.m             4431880.20:  UTM Y
 UTMX.m              538763.98:  UTM X
 WHEW.m                 -10.79:  WELL HEAD E/W
 WHNS.m                   6.09:  WELL HEAD N/S
 LONG.deg                51.45:  LONGITUDE
 LATI.deg                40.02:  LATITUDE
 TVDS.m                  43.60:  TVDSS CORRECTN
 EKB .m                  43.60:  KB ELEVATION
 EDF .m                  43.60:  DF ELEVATION
 MAGU.                 1847640:  MAGUTM CHECKSUM
 VSC .                       0:  VS TO CLOSURE
~Parameter Information Block
#MNEM.UNIT       Value        Description
#---------     -----------    ---------------------------
 AV  .mps                 1.30:  Ann Velocity 
 AVMX.mps                 1.90:  Max Ann Veloc 
 AZIF.deg               115.68:  Azm, Final 
 BHAT.                   Other:  BHA Type 
 BROT.°/30m               0.74:  Build Rotating 
 BS  .in                  8.50:  Bit Size 
 BTPL.psig              430.00:  Bit Press Loss 
 CABU.                      No:  Customer Abuse 
 COMM.                     „äS:  Run Comments 1 
 TCS .hr                 51.31:  Time Ciculation Ended 
 CV  .mps                 2.52:  Crit Velocity 
 CVMX.mps                 2.62:  Max Crit Veloc 
 DD1 .          Teymur Aghayev:  Direct Drillr 1 
 DDSV.                   Other:  DD Service 
 DEFF.%                 100.00:  % Det Eff 
 DLRX.°/30m               1.62:  Dogleg Rot Max 
 DLSO.°/30m               0.74:  Dogleg Oriented 
 DLSX.°/30m               1.62:  Dogleg Str Max 
 DRET.      04.30.56 18-May-20:  Drill End Time 
 DRST.      04.30.56 18-May-20:  Drill Start Tim 
 DTIM.hr                  0.00:  Time Drilling 
 EDEP.m                5337.01:  End Depth 
 ENG1.      Artemiy Matviyanov:  Engineer 1 
 ENG2.      Bakhtiyar Jabbarli:  Engineer 2 
 ENG3.           Emil Huseynov:  Engineer 3 
 ETIM.      18.40.00 22-May-20:  End Time 
 FLOI.gpm               550.00:  Flow In 
 FLON.gpm               350.00:  Flow In Min 
 FLOS.cptm                0.00:  Fluid Loss 
 FLOX.gpm               600.00:  Flow In Max 
 HFLO.                      No:  High Flow 
 HPRE.                      No:  High Pressure 
 HTEM.                      No:  High Temp 
 HYDO.m                   1.80:  Hydro Offset 
 IFIN.deg                67.01:  Inc, Final 
 IMAX.deg                67.49:  Inc Max 
 IMIN.deg                66.50:  Inc Min 
 IMND.m                5144.79:  Inc Min Depth 
 IMXD.m                5116.12:  Inc Max Depth 
 JARR.                      No:  Jarring 
 LETM.      17.55.56 20-May-20:  Log End Time 
 LOST.hr                     0:  Lost Rig Time 
 LSTM.      04.30.56 18-May-20:  Log Start Time 
 MDCL.ppm            193153.00:  Mud Chlorides 
 MDES.     Inversion Oil/Synthetic:  Mud Desc 
 DFD .sg                  1.40:  Mud Density 
 MDMN.sg                  1.40:  Dens Mud Min 
 MDMX.sg                  1.41:  Dens Mud Max 
 MOIL.                      68:  Run Mud Oil % 
 MOWR.                   68:32:  Run Mud OWR 
 MSND.                     0.2:  Run Mud Sand % 
 MSOL.                    18.8:  Run Mud Solids% 
 DFV .spqt               80.00:  Mud Viscosity 
 MWOD.in                  6.75:  MWD Tool OD 
 MWSI.                      No:  Serv Intrp, MWD 
 OTIM.hr                104.84:  Time Operating 
 PMAX.psia            10690.93:  Press Op, Max 
 PV  .cP                 26.00:  Mud PV 
 RUN .                     900:  Run Number 
 ROPA.m/hr                0.00:  ROP Avg 
 ROPN.m/hr                0.00:  ROP Min 
 ROPX.m/hr                0.00:  ROP Max 
 RPMA.rpm               140.00:  RPM Surface Avg 
 RPMN.rpm                70.00:  RPM Surface Min 
 RPMX.rpm               140.00:  RPM Surface Max 
 RRUN.                    0900:  Rig Run Number 
 RTIM.hr                 36.00:  Time Reaming 
 SAZI.deg               115.72:  Azm, Start 
 SDEP.m                5337.01:  Start Depth 
 SIDD.                      No:  Serv Intrp, DD 
 SINC.deg                66.92:  Inc, Start 
 SPPA.psig             4400.00:  SPP Avg 
 SPPN.psig             1135.00:  SPP Min 
 SPPX.psig             4581.00:  SPP Max 
 STIM.      04.30.56 18-May-20:  Start Time 
 SVCS.                     MWD:  Services 
 SVER.                    9.20:  Sperry Version 
 TDAT.m                5337.01:  Tot Depth Attmp 
 TDDF.                      No:  Trip for DD 
 TFF .                      No:  Trip for Fail 
 TQAA.f-kp               23.00:  Torque Abs Avg 
 TQAN.f-kp               18.00:  Torque Abs Min 
 TQAX.f-kp               25.00:  Torque Abs Max 
 TRRT.°/30m               0.74:  Turn Rotating 
 MRT .                    HCIM:  Maximum Recorded Temperature 
 TTMX.degC               76.47:  Max Tool Temp 
 WBMN.klb                 0.00:  WOB Min 
 WITN.             Anar Khalil:  Customer Rep 
 WITN.      Kamran Keberlinski:  Customer Rep 2 
 WOBA.klb                 0.00:  WOB Avg 
 WOBX.klb                 0.00:  WOB Max 
 YP  .lhf2               27.00:  Yield Point 
~Curve Information Block
#MNEM.UNIT                 API CODE     Curve Description
#---------               -----------    ---------------------------
 TIME.HHMMSS            00 000 000 000:  GT Time & Date
 GTDEPTH.m              00 000 000 000:  GT Depth
 GTPQH.psia             00 000 000 000:  GT HR Quartz Pressure
 GTTQ.degC              00 000 000 000:  GT Quartz Temperature
 GTTN.NONE              00 000 000 000:  GT Test Number
 GTET.sec               00 000 000 000:  GT Elapsed Test Time
 GTTVD.m                00 000 000 000:  GT True Vertical Depth
#Other Information
#
#WARRANTY: Halliburton will use its best efforts to furnish customers with 
#accurate information and interpretations that are part of, and incident to, the services 
#provided.  However, Halliburton cannot and does not warrant the accuracy 
#or correctness of such information and interpretations.  Under no circumstances should any 
#such information or interpretation be relied upon as the sole basis for any drilling, 
#completion, production, or financial decision or any procedure involving any risk to the 
#safety of any drilling venture, drilling rig or its crew or any other third party.  The 
#Customer has full responsibility for all drilling, completion and production operation.  
#Halliburton makes no representations or warranties, either expressed or 
#implied, including, but not limited to, the implied warranties of merchantability or fitness 
#for a particular purpose, with respect to the services rendered.  In no event will 
#Halliburton be liable for failure to obtain any particular results or for 
#any damages, including, but not limited to, indirect, special or consequential damages, 
#resulting from the use of any information or interpretation provided by Halliburton.
#
~A           TIME           GTDEPTH  GTPQH  GTTQ  GTTN  GTET   GTTVD  
# ...
   21:45:49.423.19-May-2020 5137.01 3917.49 67.52 3.00 230.06 2705.05
   21:45:49.623.19-May-2020 5137.01 3917.49 67.52 3.00 230.26 2705.05
   21:45:49.823.19-May-2020 5137.01 3922.11 67.52 3.00 230.46 2705.05
   21:45:50.024.19-May-2020 5137.01 3924.07 67.52 3.00 230.66 2705.05
   21:45:50.224.19-May-2020 5137.01 3925.60 67.52 3.00 230.86 2705.05
   21:45:50.424.19-May-2020 5137.01 3927.66 67.52 3.00 231.06 2705.05
   21:45:50.624.19-May-2020 5137.01 3927.66 67.52 3.00 231.26 2705.05
   21:45:50.824.19-May-2020 5137.01 3931.62 67.52 3.00 231.46 2705.05
   21:45:51.024.19-May-2020 5137.01 3933.56 67.52 3.00 231.66 2705.05
   21:45:51.224.19-May-2020 5137.01 3935.34 67.52 3.00 231.86 2705.05
   21:45:51.424.19-May-2020 5137.01 3937.22 67.52 3.00 232.06 2705.05
   21:45:51.624.19-May-2020 5137.01 3937.22 67.52 3.00 232.26 2705.05
   21:45:51.824.19-May-2020 5137.01 3940.87 67.52 3.00 232.46 2705.05
   21:45:52.024.19-May-2020 5137.01 3942.75 67.52 3.00 232.66 2705.05
   21:45:52.224.19-May-2020 5137.01 3944.51 67.52 3.00 232.86 2705.05
   21:45:52.424.19-May-2020 5137.01 3946.27 67.52 3.00 233.06 2705.05
   21:45:52.624.19-May-2020 5137.01 3946.27 67.52 3.00 233.26 2705.05
   21:45:52.824.19-May-2020 5137.01 3949.89 67.52 3.00 233.46 2705.05
   21:45:53.024.19-May-2020 5137.01 3951.66 67.52 3.00 233.66 2705.05
   21:45:53.224.19-May-2020 5137.01 3953.37 67.52 3.00 233.86 2705.05
   21:45:53.424.19-May-2020 5137.01 3954.41 67.52 3.00 234.06 2705.05
   21:45:53.624.19-May-2020 5137.01 3954.41 67.52 3.00 234.26 2705.05
   21:45:53.824.19-May-2020 5137.01 3958.44 67.52 3.00 234.46 2705.05
   21:45:54.025.19-May-2020 5137.01 3960.19 67.52 3.00 234.66 2705.05
   21:45:54.225.19-May-2020 5137.01 3961.08 67.52 3.00 234.86 2705.05
   21:45:54.425.19-May-2020 5137.01 3963.63 67.52 3.00 235.06 2705.05
   21:45:54.625.19-May-2020 5137.01 3963.63 67.52 3.00 235.26 2705.05
   21:45:54.825.19-May-2020 5137.01 3966.82 67.52 3.00 235.46 2705.05
   21:45:55.025.19-May-2020 5137.01 3968.57 67.52 3.00 235.66 2705.05
   21:45:55.225.19-May-2020 5137.01 3969.51 67.52 3.00 235.86 2705.05
   21:45:55.425.19-May-2020 5137.01 3971.74 67.52 3.00 236.06 2705.05
   21:45:55.625.19-May-2020 5137.01 3971.74 67.52 3.00 236.26 2705.05
   21:45:55.825.19-May-2020 5137.01 3975.02 67.52 3.00 236.46 2705.05
   21:45:56.025.19-May-2020 5137.01 3976.11 67.52 3.00 236.66 2705.05
   21:45:56.225.19-May-2020 5137.01 3978.29 67.52 3.00 236.86 2705.05
   21:45:56.425.19-May-2020 5137.01 3979.84 67.52 3.00 237.06 2705.05
   21:45:56.625.19-May-2020 5137.01 3979.84 67.52 3.00 237.26 2705.05
   21:45:56.825.19-May-2020 5137.01 3983.03 67.52 3.00 237.46 2705.05
   21:45:57.025.19-May-2020 5137.01 3984.01 67.52 3.00 237.66 2705.05
   21:45:57.225.19-May-2020 5137.01 3986.15 67.52 3.00 237.86 2705.05
   21:45:57.425.19-May-2020 5137.01 3987.67 67.52 3.00 238.06 2705.05
   21:45:57.625.19-May-2020 5137.01 3987.67 67.52 3.00 238.26 2705.05
   21:45:57.825.19-May-2020 5137.01 3990.80 67.52 3.00 238.46 2705.05
   21:45:58.026.19-May-2020 5137.01 3992.31 67.52 3.00 238.66 2705.05
   21:45:58.226.19-May-2020 5137.01 3993.83 67.52 3.00 238.86 2705.05
   21:45:58.426.19-May-2020 5137.01 3995.34 67.52 3.00 239.06 2705.05
   21:45:58.626.19-May-2020 5137.01 3995.34 67.52 3.00 239.26 2705.05
   21:45:58.826.19-May-2020 5137.01 3998.33 67.52 3.00 239.46 2705.05
   21:45:59.026.19-May-2020 5137.01 3999.87 67.52 3.00 239.66 2705.05
   21:45:59.226.19-May-2020 5137.01 4001.34 67.52 3.00 239.86 2705.05
   21:45:59.426.19-May-2020 5137.01 4002.79 67.52 3.00 240.06 2705.05
   21:45:59.626.19-May-2020 5137.01 4002.79 67.52 3.00 240.26 2705.05
   21:45:59.826.19-May-2020 5137.01 4005.71 67.52 3.00 240.46 2705.05
   21:46:00.026.19-May-2020 5137.01 4006.53 67.52 3.00 240.66 2705.05
   21:46:00.226.19-May-2020 5137.01 4008.57 67.52 3.00 240.86 2705.05
   21:46:00.426.19-May-2020 5137.01 4009.91 67.52 3.00 241.06 2705.05
   21:46:00.626.19-May-2020 5137.01 4009.91 67.52 3.00 241.26 2705.05
   21:46:00.826.19-May-2020 5137.01 4012.27 67.52 3.00 241.46 2705.05
   21:46:01.026.19-May-2020 5137.01 4013.98 67.52 3.00 241.66 2705.05
   21:46:01.226.19-May-2020 5137.01 4015.52 67.52 3.00 241.86 2705.05
   21:46:01.426.19-May-2020 5137.01 4016.94 67.52 3.00 242.06 2705.05
   21:46:01.626.19-May-2020 5137.01 4016.94 67.52 3.00 242.26 2705.05
   21:46:01.826.19-May-2020 5137.01 4019.22 67.52 3.00 242.46 2705.05
   21:46:02.027.19-May-2020 5137.01 4020.84 67.52 3.00 242.66 2705.05
   21:46:02.227.19-May-2020 5137.01 4022.38 67.52 3.00 242.86 2705.05
   21:46:02.427.19-May-2020 5137.01 4023.76 67.52 3.00 243.06 2705.05
   21:46:02.627.19-May-2020 5137.01 4023.76 67.52 3.00 243.26 2705.05
   21:46:02.827.19-May-2020 5137.01 4026.38 67.52 3.00 243.46 2705.05
   21:46:03.027.19-May-2020 5137.01 4027.17 67.52 3.00 243.66 2705.05
   21:46:03.227.19-May-2020 5137.01 4029.11 67.52 3.00 243.86 2705.05
   21:46:03.427.19-May-2020 5137.01 4030.40 67.52 3.00 244.06 2705.05
   21:46:03.627.19-May-2020 5137.01 4030.40 67.52 3.00 244.26 2705.05
   21:46:03.827.19-May-2020 5137.01 4032.98 67.52 3.00 244.46 2705.05
   21:46:04.027.19-May-2020 5137.01 4034.36 67.52 3.00 244.66 2705.05
   21:46:04.227.19-May-2020 5137.01 4034.87 67.52 3.00 244.86 2705.05
   21:46:04.427.19-May-2020 5137.01 4036.87 67.52 3.00 245.06 2705.05
   21:46:04.627.19-May-2020 5137.01 4036.87 67.52 3.00 245.26 2705.05
   21:46:04.827.19-May-2020 5137.01 4039.47 67.52 3.00 245.46 2705.05
   21:46:05.027.19-May-2020 5137.01 4040.66 67.52 3.00 245.66 2705.05
   21:46:05.227.19-May-2020 5137.01 4041.92 67.52 3.00 245.86 2705.05
   21:46:05.427.19-May-2020 5137.01 4043.17 67.52 3.00 246.06 2705.05
   21:46:05.627.19-May-2020 5137.01 4043.17 67.52 3.00 246.26 2705.05
   21:46:05.827.19-May-2020 5137.01 4045.69 67.52 3.00 246.46 2705.05
   21:46:06.028.19-May-2020 5137.01 4046.94 67.52 3.00 246.66 2705.05
   21:46:06.228.19-May-2020 5137.01 4048.12 67.52 3.00 246.86 2705.05
   21:46:06.428.19-May-2020 5137.01 4049.37 67.52 3.00 247.06 2705.05
   21:46:06.628.19-May-2020 5137.01 4050.63 67.52 3.00 247.26 2705.05
   21:46:06.828.19-May-2020 5137.01 4051.81 67.52 3.00 247.46 2705.05
   21:46:07.028.19-May-2020 5137.01 4053.03 67.52 3.00 247.66 2705.05
   21:46:07.228.19-May-2020 5137.01 4054.20 67.52 3.00 247.86 2705.05
   21:46:07.428.19-May-2020 5137.01 4054.72 67.52 3.00 248.06 2705.05
   21:46:07.628.19-May-2020 5137.01 4054.72 67.52 3.00 248.26 2705.05
   21:46:07.828.19-May-2020 5137.01 4057.70 67.52 3.00 248.46 2705.05
   21:46:08.028.19-May-2020 5137.01 4058.82 67.52 3.00 248.66 2705.05
   21:46:08.228.19-May-2020 5137.01 4059.31 67.52 3.00 248.86 2705.05
   21:46:08.428.19-May-2020 5137.01 4061.14 67.52 3.00 249.06 2705.05
   21:46:08.628.19-May-2020 5137.01 4062.27 67.52 3.00 249.26 2705.05
   21:46:08.828.19-May-2020 5137.01 4063.46 67.52 3.00 249.46 2705.05
   21:46:09.028.19-May-2020 5137.01 4064.62 67.52 3.00 249.66 2705.05
   21:46:09.228.19-May-2020 5137.01 4065.70 67.52 3.00 249.86 2705.05
   21:46:09.428.19-May-2020 5137.01 4066.00 67.52 3.00 250.06 2705.05
   21:46:09.628.19-May-2020 5137.01 4066.00 67.52 3.00 250.26 2705.05
   21:46:09.828.19-May-2020 5137.01 4069.09 67.52 3.00 250.46 2705.05
   21:46:10.028.19-May-2020 5137.01 4070.20 67.52 3.00 250.66 2705.05
   21:46:10.229.19-May-2020 5137.01 4070.62 67.52 3.00 250.86 2705.05
   21:46:10.429.19-May-2020 5137.01 4072.40 67.52 3.00 251.06 2705.05
   21:46:10.629.19-May-2020 5137.01 4072.40 67.52 3.00 251.26 2705.05
   21:46:10.829.19-May-2020 5137.01 4074.55 67.52 3.00 251.46 2705.05
   21:46:11.029.19-May-2020 5137.01 4074.90 67.52 3.00 251.66 2705.05
   21:46:11.229.19-May-2020 5137.01 4076.88 67.52 3.00 251.86 2705.05
   21:46:11.429.19-May-2020 5137.01 4077.83 67.52 3.00 252.06 2705.05
   21:46:11.629.19-May-2020 5137.01 4077.83 67.52 3.00 252.26 2705.05
   21:46:11.829.19-May-2020 5137.01 4080.04 67.52 3.00 252.46 2705.05
   21:46:12.029.19-May-2020 5137.01 4081.08 67.52 3.00 252.66 2705.05
   21:46:12.229.19-May-2020 5137.01 4082.07 67.52 3.00 252.86 2705.05
