~Version Information
 VERS.                  2.0:   CWLS log ASCII Standard -VERSION 2.0
 WRAP.                   NO:   One line per depth step
~Well Information Block
#MNEM.UNIT     VALUE/NAME     DESCRIPTION
#---------     -----------    ---------------------------
 STRT.S             03:43:00 20-May-20: START TIME 03:43:00 20-May-20
 STOP.S             03:53:08 20-May-20: STOP TIME  03:53:08 20-May-20
 STEP.S                   0.00: STEP TIME
 NULL.                 -999.25: NULL VALUE
 MDS .        Operator Entered:  MAG DATA SOURCE
 PDAT.          Mean Sea Level:  PERMANENT DATUM
 UNIT.                     N/A:  LOGGING EQUIPMENT ID
 DCON.         Sperry Drilling:  DIRECTNL CONTR
 DOE .                     N/A:  DOE NUMBER
 RIG .              East Azeri:  RIG NAME
 JOBN.        AZ-XX-0905856059:  JOB TICKET NUMB
 WELL.                     D36:  WELL NAME
 MWDS.                    Baku:  MWD SHOP
 SRVC.     Turan Drilling & Engineering:  CONTRACTOR
 FLD .                     ACG:  FIELD NAME
 CTRY.              Azerbaijan:  COUNTRY NAME
 PROV.                    Baku:  PROVINCE
 STAT.                    Baku:  STATE NAME
 REGN.                   EESSA:  REGION
 BASE.              Azerbaijan:  LOGGING EQUIPMENT BASE LOCATION
 UWI .                     N/A:  UNIQUE WELL IDENTIFIER
 API .                     N/A:  API NUMBER
 COMP.     BP Exploration (Caspian Sea) Ltd.:  COMPANY
 WTYP.                Deviated:  WELL TYPE
 SON .        AZ-XX-0905856059:  JOB NUMBER
 FTOP.          Formation Tops:  FORM TOPS DESC
 ILTD.               Lithology:  INTERP LTH DESC
 SVYD.                  Survey:  SURVEY DESC
 DMOD.             Drill Model:  DRILL MOD DESC
 HPTY.       Minimum Curvature:  HOLE POS TYPE
 NREF.                    Grid:  NORTH REFERENCE
 SPUD.               25-Feb-20:  SPUD DATE
 DATE.      08.55.28 01-May-20:  END TIME
 STIM.      08.55.28 25-Feb-20:  START TIME
 DMF .             Drill Floor:  DRILL MEAS FROM
 DFST.                        :  DIST FSL TEXT
 DFWT.                        :  DIST FWL TEXT
 CNTY.                        :  COUNTY
 LOC .                        :  LOCATION
 LMF .             Drill Floor:  LOG MEASURED FROM
 VSNS.m                   6.09:  VERT SEC N/S
 VSEW.m                 -10.79:  VERT SEC E/W
 AGAP.m                  43.60:  AIR GAP
 DEP .m                 388.24:  DEPTH
 APD .m                  43.60:  DEPTH ABOVE PD
 WDMS.m                 151.80:  WD ELEV
 EGL .m                   0.00:  GROUND ELEVATION
 EPD .m                   0.00:  ELEVATION
 AZTC.deg                 6.12:  AZM TOTAL CORR
 GRDC.deg                 0.30:  GRID CORRECTION
 MDEC.deg                 6.42:  MAGNETIC DECL
 MDIP.deg                59.42:  MAGNETIC DIP
 MFLD.nT              50256.00:  MAGNETIC FIELD
 GVFD.g                   1.00:  GRAVITY FIELD
 VSDR.deg               159.57:  VERT SEC DIRECT
 TDD .m                5000.01:  TOTAL DEPTH (DRILLER)
 SDEP.m                 397.00:  START DEPTH
 DFSL.m                   0.00:  DISTANCE FSL
 DFWL.m                   0.00:  DISTANCE FWL
 UTMY.m             4431880.20:  UTM Y
 UTMX.m              538763.98:  UTM X
 WHEW.m                 -10.79:  WELL HEAD E/W
 WHNS.m                   6.09:  WELL HEAD N/S
 LONG.deg                51.45:  LONGITUDE
 LATI.deg                40.02:  LATITUDE
 TVDS.m                  43.60:  TVDSS CORRECTN
 EKB .m                  43.60:  KB ELEVATION
 EDF .m                  43.60:  DF ELEVATION
 MAGU.                 1847640:  MAGUTM CHECKSUM
 VSC .                       0:  VS TO CLOSURE
~Parameter Information Block
#MNEM.UNIT       Value        Description
#---------     -----------    ---------------------------
 AV  .mps                 1.30:  Ann Velocity 
 AVMX.mps                 1.90:  Max Ann Veloc 
 AZIF.deg               115.68:  Azm, Final 
 BHAT.                   Other:  BHA Type 
 BROT.°/30m               0.74:  Build Rotating 
 BS  .in                  8.50:  Bit Size 
 BTPL.psig              430.00:  Bit Press Loss 
 CABU.                      No:  Customer Abuse 
 COMM.                     ÌÍk:  Run Comments 1 
 TCS .hr                 51.31:  Time Ciculation Ended 
 CV  .mps                 2.52:  Crit Velocity 
 CVMX.mps                 2.62:  Max Crit Veloc 
 DD1 .          Teymur Aghayev:  Direct Drillr 1 
 DDSV.                   Other:  DD Service 
 DEFF.%                 100.00:  % Det Eff 
 DLRX.°/30m               1.62:  Dogleg Rot Max 
 DLSO.°/30m               0.74:  Dogleg Oriented 
 DLSX.°/30m               1.62:  Dogleg Str Max 
 DRET.      04.30.56 18-May-20:  Drill End Time 
 DRST.      04.30.56 18-May-20:  Drill Start Tim 
 DTIM.hr                  0.00:  Time Drilling 
 EDEP.m                5337.01:  End Depth 
 ENG1.      Artemiy Matviyanov:  Engineer 1 
 ENG2.      Bakhtiyar Jabbarli:  Engineer 2 
 ENG3.           Emil Huseynov:  Engineer 3 
 ETIM.      18.40.00 22-May-20:  End Time 
 FLOI.gpm               550.00:  Flow In 
 FLON.gpm               350.00:  Flow In Min 
 FLOS.cptm                0.00:  Fluid Loss 
 FLOX.gpm               600.00:  Flow In Max 
 HFLO.                      No:  High Flow 
 HPRE.                      No:  High Pressure 
 HTEM.                      No:  High Temp 
 HYDO.m                   1.80:  Hydro Offset 
 IFIN.deg                67.01:  Inc, Final 
 IMAX.deg                67.49:  Inc Max 
 IMIN.deg                66.50:  Inc Min 
 IMND.m                5144.79:  Inc Min Depth 
 IMXD.m                5116.12:  Inc Max Depth 
 JARR.                      No:  Jarring 
 LETM.      17.55.56 20-May-20:  Log End Time 
 LOST.hr                     0:  Lost Rig Time 
 LSTM.      04.30.56 18-May-20:  Log Start Time 
 MDCL.ppm            193153.00:  Mud Chlorides 
 MDES.     Inversion Oil/Synthetic:  Mud Desc 
 DFD .sg                  1.40:  Mud Density 
 MDMN.sg                  1.40:  Dens Mud Min 
 MDMX.sg                  1.41:  Dens Mud Max 
 MOIL.                      68:  Run Mud Oil % 
 MOWR.                   68:32:  Run Mud OWR 
 MSND.                     0.2:  Run Mud Sand % 
 MSOL.                    18.8:  Run Mud Solids% 
 DFV .spqt               80.00:  Mud Viscosity 
 MWOD.in                  6.75:  MWD Tool OD 
 MWSI.                      No:  Serv Intrp, MWD 
 OTIM.hr                104.84:  Time Operating 
 PMAX.psia            10690.93:  Press Op, Max 
 PV  .cP                 26.00:  Mud PV 
 RUN .                     900:  Run Number 
 ROPA.m/hr                0.00:  ROP Avg 
 ROPN.m/hr                0.00:  ROP Min 
 ROPX.m/hr                0.00:  ROP Max 
 RPMA.rpm               140.00:  RPM Surface Avg 
 RPMN.rpm                70.00:  RPM Surface Min 
 RPMX.rpm               140.00:  RPM Surface Max 
 RRUN.                    0900:  Rig Run Number 
 RTIM.hr                 36.00:  Time Reaming 
 SAZI.deg               115.72:  Azm, Start 
 SDEP.m                5337.01:  Start Depth 
 SIDD.                      No:  Serv Intrp, DD 
 SINC.deg                66.92:  Inc, Start 
 SPPA.psig             4400.00:  SPP Avg 
 SPPN.psig             1135.00:  SPP Min 
 SPPX.psig             4581.00:  SPP Max 
 STIM.      04.30.56 18-May-20:  Start Time 
 SVCS.                     MWD:  Services 
 SVER.                    9.20:  Sperry Version 
 TDAT.m                5337.01:  Tot Depth Attmp 
 TDDF.                      No:  Trip for DD 
 TFF .                      No:  Trip for Fail 
 TQAA.f-kp               23.00:  Torque Abs Avg 
 TQAN.f-kp               18.00:  Torque Abs Min 
 TQAX.f-kp               25.00:  Torque Abs Max 
 TRRT.°/30m               0.74:  Turn Rotating 
 MRT .                    HCIM:  Maximum Recorded Temperature 
 TTMX.degC               76.47:  Max Tool Temp 
 WBMN.klb                 0.00:  WOB Min 
 WITN.             Anar Khalil:  Customer Rep 
 WITN.      Kamran Keberlinski:  Customer Rep 2 
 WOBA.klb                 0.00:  WOB Avg 
 WOBX.klb                 0.00:  WOB Max 
 YP  .lhf2               27.00:  Yield Point 
~Curve Information Block
#MNEM.UNIT                 API CODE     Curve Description
#---------               -----------    ---------------------------
 TIME.HHMMSS            00 000 000 000:  GT Time & Date
 GTDEPTH.m              00 000 000 000:  GT Depth
 GTPQH.psia             00 000 000 000:  GT HR Quartz Pressure
 GTTQ.degC              00 000 000 000:  GT Quartz Temperature
 GTTN.NONE              00 000 000 000:  GT Test Number
 GTET.sec               00 000 000 000:  GT Elapsed Test Time
 GTTVD.m                00 000 000 000:  GT True Vertical Depth
#Other Information
#
#WARRANTY: Halliburton will use its best efforts to furnish customers with 
#accurate information and interpretations that are part of, and incident to, the services 
#provided.  However, Halliburton cannot and does not warrant the accuracy 
#or correctness of such information and interpretations.  Under no circumstances should any 
#such information or interpretation be relied upon as the sole basis for any drilling, 
#completion, production, or financial decision or any procedure involving any risk to the 
#safety of any drilling venture, drilling rig or its crew or any other third party.  The 
#Customer has full responsibility for all drilling, completion and production operation.  
#Halliburton makes no representations or warranties, either expressed or 
#implied, including, but not limited to, the implied warranties of merchantability or fitness 
#for a particular purpose, with respect to the services rendered.  In no event will 
#Halliburton be liable for failure to obtain any particular results or for 
#any damages, including, but not limited to, indirect, special or consequential damages, 
#resulting from the use of any information or interpretation provided by Halliburton.
#
~A           TIME           GTDEPTH  GTPQH  GTTQ  GTTN  GTET   GTTVD  
# ...
   03:44:09.916.20-May-2020 5064.01  385.91 68.91 8.00  69.02 2676.56
   03:44:10.116.20-May-2020 5064.01  386.82 68.91 8.00  69.22 2676.56
   03:44:10.316.20-May-2020 5064.01  387.27 68.91 8.00  69.42 2676.56
   03:44:10.516.20-May-2020 5064.01  388.25 68.91 8.00  69.62 2676.56
   03:44:10.716.20-May-2020 5064.01  389.27 68.91 8.00  69.82 2676.56
   03:44:10.916.20-May-2020 5064.01  390.10 68.91 8.00  70.02 2676.56
   03:44:11.116.20-May-2020 5064.01  390.10 68.91 8.00  70.22 2676.56
   03:44:11.316.20-May-2020 5064.01  390.76 68.91 8.00  70.42 2676.56
   03:44:11.516.20-May-2020 5064.01  391.46 68.91 8.00  70.62 2676.56
   03:44:11.716.20-May-2020 5064.01  392.20 68.91 8.00  70.82 2676.56
   03:44:11.916.20-May-2020 5064.01  393.16 68.91 8.00  71.02 2676.56
   03:44:12.116.20-May-2020 5064.01  393.16 68.91 8.00  71.22 2676.56
   03:44:12.316.20-May-2020 5064.01  394.64 68.91 8.00  71.42 2676.56
   03:44:12.516.20-May-2020 5064.01  395.28 68.91 8.00  71.62 2676.56
   03:44:12.716.20-May-2020 5064.01  395.46 68.91 8.00  71.82 2676.56
   03:44:12.916.20-May-2020 5064.01  395.71 68.91 8.00  72.02 2676.56
   03:44:13.116.20-May-2020 5064.01  395.71 68.91 8.00  72.22 2676.56
   03:44:13.316.20-May-2020 5064.01  391.64 68.91 8.00  72.42 2676.56
   03:44:13.517.20-May-2020 5064.01  387.55 68.92 8.00  72.62 2676.56
   03:44:13.717.20-May-2020 5064.01  384.69 68.92 8.00  72.82 2676.56
   03:44:13.917.20-May-2020 5064.01  382.21 68.92 8.00  73.02 2676.56
   03:44:14.117.20-May-2020 5064.01  380.84 68.92 8.00  73.22 2676.56
   03:44:14.317.20-May-2020 5064.01  381.10 68.92 8.00  73.42 2676.56
   03:44:14.517.20-May-2020 5064.01  381.85 68.92 8.00  73.62 2676.56
   03:44:14.717.20-May-2020 5064.01  382.62 68.92 8.00  73.82 2676.56
   03:44:14.917.20-May-2020 5064.01  383.86 68.92 8.00  74.02 2676.56
   03:44:15.117.20-May-2020 5064.01  383.86 68.92 8.00  74.22 2676.56
   03:44:15.317.20-May-2020 5064.01  384.49 68.92 8.00  74.42 2676.56
   03:44:15.517.20-May-2020 5064.01  385.20 68.92 8.00  74.62 2676.56
   03:44:15.717.20-May-2020 5064.01  385.54 68.92 8.00  74.82 2676.56
   03:44:15.917.20-May-2020 5064.01  386.17 68.92 8.00  75.02 2676.56
   03:44:16.117.20-May-2020 5064.01  386.17 68.92 8.00  75.22 2676.56
   03:44:16.317.20-May-2020 5064.01  387.59 68.92 8.00  75.42 2676.56
   03:44:16.517.20-May-2020 5064.01  388.47 68.92 8.00  75.62 2676.56
   03:44:16.717.20-May-2020 5064.01  389.41 68.92 8.00  75.82 2676.56
   03:44:16.918.20-May-2020 5064.01  390.33 68.92 8.00  76.02 2676.56
   03:44:17.118.20-May-2020 5064.01  390.74 68.92 8.00  76.22 2676.56
   03:44:17.318.20-May-2020 5064.01  391.64 68.92 8.00  76.42 2676.56
   03:44:17.518.20-May-2020 5064.01  392.60 68.92 8.00  76.62 2676.56
   03:44:17.718.20-May-2020 5064.01  393.35 68.92 8.00  76.82 2676.56
   03:44:17.918.20-May-2020 5064.01  394.60 68.92 8.00  77.02 2676.56
   03:44:18.118.20-May-2020 5064.01  395.40 68.92 8.00  77.22 2676.56
   03:44:18.318.20-May-2020 5064.01  397.19 68.92 8.00  77.42 2676.56
   03:44:18.518.20-May-2020 5064.01  399.63 68.92 8.00  77.62 2676.56
   03:44:18.718.20-May-2020 5064.01  403.06 68.92 8.00  77.82 2676.56
   03:44:18.918.20-May-2020 5064.01  408.61 68.92 8.00  78.02 2676.56
   03:44:19.118.20-May-2020 5064.01  408.61 68.92 8.00  78.22 2676.56
   03:44:19.318.20-May-2020 5064.01  426.08 68.92 8.00  78.42 2676.56
   03:44:19.518.20-May-2020 5064.01  432.54 68.92 8.00  78.62 2676.56
   03:44:19.718.20-May-2020 5064.01  436.39 68.93 8.00  78.82 2676.56
   03:44:19.918.20-May-2020 5064.01  433.90 68.93 8.00  79.02 2676.56
   03:44:20.118.20-May-2020 5064.01  433.90 68.93 8.00  79.22 2676.56
   03:44:20.318.20-May-2020 5064.01  418.48 68.93 8.00  79.42 2676.56
   03:44:20.519.20-May-2020 5064.01  409.43 68.93 8.00  79.62 2676.56
   03:44:20.719.20-May-2020 5064.01  400.59 68.93 8.00  79.82 2676.56
   03:44:20.919.20-May-2020 5064.01  398.01 68.93 8.00  80.02 2676.56
   03:44:21.119.20-May-2020 5064.01  396.62 68.93 8.00  80.22 2676.56
   03:44:21.319.20-May-2020 5064.01  391.48 68.93 8.00  80.42 2676.56
   03:44:21.519.20-May-2020 5064.01  383.11 68.93 8.00  80.62 2676.56
   03:44:21.719.20-May-2020 5064.01  382.89 68.93 8.00  80.82 2676.56
   03:44:21.919.20-May-2020 5064.01  384.24 68.93 8.00  81.02 2676.56
   03:44:22.119.20-May-2020 5064.01  385.70 68.93 8.00  81.22 2676.56
   03:44:22.319.20-May-2020 5064.01  387.32 68.93 8.00  81.42 2676.56
   03:44:22.519.20-May-2020 5064.01  388.31 68.93 8.00  81.62 2676.56
   03:44:22.719.20-May-2020 5064.01  389.65 68.93 8.00  81.82 2676.56
   03:44:22.919.20-May-2020 5064.01  390.69 68.93 8.00  82.02 2676.56
   03:44:23.119.20-May-2020 5064.01  390.69 68.93 8.00  82.22 2676.56
   03:44:23.319.20-May-2020 5064.01  392.89 68.93 8.00  82.42 2676.56
   03:44:23.519.20-May-2020 5064.01  393.71 68.93 8.00  82.62 2676.56
   03:44:23.719.20-May-2020 5064.01  394.73 68.93 8.00  82.82 2676.56
   03:44:23.919.20-May-2020 5064.01  395.67 68.93 8.00  83.02 2676.56
   03:44:24.120.20-May-2020 5064.01  395.67 68.93 8.00  83.22 2676.56
   03:44:24.320.20-May-2020 5064.01  397.68 68.93 8.00  83.42 2676.56
   03:44:24.520.20-May-2020 5064.01  398.23 68.93 8.00  83.62 2676.56
   03:44:24.720.20-May-2020 5064.01  399.19 68.93 8.00  83.82 2676.56
   03:44:24.920.20-May-2020 5064.01  400.24 68.93 8.00  84.02 2676.56
   03:44:25.120.20-May-2020 5064.01  401.08 68.93 8.00  84.22 2676.56
   03:44:25.320.20-May-2020 5064.01  402.04 68.93 8.00  84.42 2676.56
   03:44:25.520.20-May-2020 5064.01  402.92 68.93 8.00  84.62 2676.56
   03:44:25.720.20-May-2020 5064.01  403.88 68.93 8.00  84.82 2676.56
   03:44:25.920.20-May-2020 5064.01  404.70 68.93 8.00  85.02 2676.56
   03:44:26.120.20-May-2020 5064.01  405.52 68.93 8.00  85.22 2676.56
   03:44:26.320.20-May-2020 5064.01  406.39 68.93 8.00  85.42 2676.56
   03:44:26.520.20-May-2020 5064.01  407.24 68.93 8.00  85.62 2676.56
   03:44:26.720.20-May-2020 5064.01  408.09 68.93 8.00  85.82 2676.56
   03:44:26.920.20-May-2020 5064.01  408.91 68.93 8.00  86.02 2676.56
   03:44:27.120.20-May-2020 5064.01  409.37 68.93 8.00  86.22 2676.56
   03:44:27.320.20-May-2020 5064.01  410.22 68.94 8.00  86.42 2676.56
   03:44:27.521.20-May-2020 5064.01  410.64 68.94 8.00  86.62 2676.56
   03:44:27.721.20-May-2020 5064.01  411.46 68.94 8.00  86.82 2676.56
   03:44:27.921.20-May-2020 5064.01  411.08 68.94 8.00  87.02 2676.56
   03:44:28.121.20-May-2020 5064.01  411.55 68.94 8.00  87.22 2676.56
   03:44:28.321.20-May-2020 5064.01  412.09 68.94 8.00  87.42 2676.56
   03:44:28.521.20-May-2020 5064.01  412.71 68.94 8.00  87.62 2676.56
   03:44:28.721.20-May-2020 5064.01  412.42 68.94 8.00  87.82 2676.56
   03:44:28.921.20-May-2020 5064.01  407.29 68.94 8.00  88.02 2676.56
   03:44:29.121.20-May-2020 5064.01  407.29 68.94 8.00  88.22 2676.56
   03:44:29.321.20-May-2020 5064.01  397.15 68.94 8.00  88.43 2676.56
   03:44:29.521.20-May-2020 5064.01  398.72 68.94 8.00  88.63 2676.56
   03:44:29.721.20-May-2020 5064.01  403.40 68.94 8.00  88.83 2676.56
   03:44:29.921.20-May-2020 5064.01  404.04 68.94 8.00  89.03 2676.56
   03:44:30.121.20-May-2020 5064.01  405.17 68.94 8.00  89.23 2676.56
   03:44:30.321.20-May-2020 5064.01  405.79 68.94 8.00  89.43 2676.56
   03:44:30.521.20-May-2020 5064.01  406.62 68.94 8.00  89.63 2676.56
   03:44:30.721.20-May-2020 5064.01  407.42 68.94 8.00  89.83 2676.56
   03:44:30.921.20-May-2020 5064.01  408.31 68.94 8.00  90.03 2676.56
   03:44:31.122.20-May-2020 5064.01  409.17 68.94 8.00  90.23 2676.56
   03:44:31.322.20-May-2020 5064.01  409.57 68.94 8.00  90.43 2676.56
   03:44:31.522.20-May-2020 5064.01  410.45 68.94 8.00  90.63 2676.56
   03:44:31.722.20-May-2020 5064.01  411.19 68.94 8.00  90.83 2676.56
   03:44:31.922.20-May-2020 5064.01  411.99 68.94 8.00  91.03 2676.56
   03:44:32.122.20-May-2020 5064.01  412.85 68.94 8.00  91.23 2676.56
   03:44:32.322.20-May-2020 5064.01  413.64 68.94 8.00  91.43 2676.56
   03:44:32.522.20-May-2020 5064.01  414.42 68.94 8.00  91.63 2676.56
   03:44:32.722.20-May-2020 5064.01  415.27 68.94 8.00  91.83 2676.56
