~Version Information
 VERS.                  2.0:   CWLS log ASCII Standard -VERSION 2.0
 WRAP.                   NO:   One line per depth step
~Well Information Block
#MNEM.UNIT     VALUE/NAME     DESCRIPTION
#---------     -----------    ---------------------------
 STRT.S             17:37:07 19-May-20: START TIME 17:37:07 19-May-20
 STOP.S             17:43:47 19-May-20: STOP TIME  17:43:47 19-May-20
 STEP.S                   0.00: STEP TIME
 NULL.                 -999.25: NULL VALUE
 MDS .        Operator Entered:  MAG DATA SOURCE
 PDAT.          Mean Sea Level:  PERMANENT DATUM
 UNIT.                     N/A:  LOGGING EQUIPMENT ID
 DCON.         Sperry Drilling:  DIRECTNL CONTR
 DOE .                     N/A:  DOE NUMBER
 RIG .              East Azeri:  RIG NAME
 JOBN.        AZ-XX-0905856059:  JOB TICKET NUMB
 WELL.                     D36:  WELL NAME
 MWDS.                    Baku:  MWD SHOP
 SRVC.     Turan Drilling & Engineering:  CONTRACTOR
 FLD .                     ACG:  FIELD NAME
 CTRY.              Azerbaijan:  COUNTRY NAME
 PROV.                    Baku:  PROVINCE
 STAT.                    Baku:  STATE NAME
 REGN.                   EESSA:  REGION
 BASE.              Azerbaijan:  LOGGING EQUIPMENT BASE LOCATION
 UWI .                     N/A:  UNIQUE WELL IDENTIFIER
 API .                     N/A:  API NUMBER
 COMP.     BP Exploration (Caspian Sea) Ltd.:  COMPANY
 WTYP.                Deviated:  WELL TYPE
 SON .        AZ-XX-0905856059:  JOB NUMBER
 FTOP.          Formation Tops:  FORM TOPS DESC
 ILTD.               Lithology:  INTERP LTH DESC
 SVYD.                  Survey:  SURVEY DESC
 DMOD.             Drill Model:  DRILL MOD DESC
 HPTY.       Minimum Curvature:  HOLE POS TYPE
 NREF.                    Grid:  NORTH REFERENCE
 SPUD.               25-Feb-20:  SPUD DATE
 DATE.      08.55.28 01-May-20:  END TIME
 STIM.      08.55.28 25-Feb-20:  START TIME
 DMF .             Drill Floor:  DRILL MEAS FROM
 DFST.                        :  DIST FSL TEXT
 DFWT.                        :  DIST FWL TEXT
 CNTY.                        :  COUNTY
 LOC .                        :  LOCATION
 LMF .             Drill Floor:  LOG MEASURED FROM
 VSNS.m                   6.09:  VERT SEC N/S
 VSEW.m                 -10.79:  VERT SEC E/W
 AGAP.m                  43.60:  AIR GAP
 DEP .m                 388.24:  DEPTH
 APD .m                  43.60:  DEPTH ABOVE PD
 WDMS.m                 151.80:  WD ELEV
 EGL .m                   0.00:  GROUND ELEVATION
 EPD .m                   0.00:  ELEVATION
 AZTC.deg                 6.12:  AZM TOTAL CORR
 GRDC.deg                 0.30:  GRID CORRECTION
 MDEC.deg                 6.42:  MAGNETIC DECL
 MDIP.deg                59.42:  MAGNETIC DIP
 MFLD.nT              50256.00:  MAGNETIC FIELD
 GVFD.g                   1.00:  GRAVITY FIELD
 VSDR.deg               159.57:  VERT SEC DIRECT
 TDD .m                5000.01:  TOTAL DEPTH (DRILLER)
 SDEP.m                 397.00:  START DEPTH
 DFSL.m                   0.00:  DISTANCE FSL
 DFWL.m                   0.00:  DISTANCE FWL
 UTMY.m             4431880.20:  UTM Y
 UTMX.m              538763.98:  UTM X
 WHEW.m                 -10.79:  WELL HEAD E/W
 WHNS.m                   6.09:  WELL HEAD N/S
 LONG.deg                51.45:  LONGITUDE
 LATI.deg                40.02:  LATITUDE
 TVDS.m                  43.60:  TVDSS CORRECTN
 EKB .m                  43.60:  KB ELEVATION
 EDF .m                  43.60:  DF ELEVATION
 MAGU.                 1847640:  MAGUTM CHECKSUM
 VSC .                       0:  VS TO CLOSURE
~Parameter Information Block
#MNEM.UNIT       Value        Description
#---------     -----------    ---------------------------
 AV  .mps                 1.30:  Ann Velocity 
 AVMX.mps                 1.90:  Max Ann Veloc 
 AZIF.deg               115.68:  Azm, Final 
 BHAT.                   Other:  BHA Type 
 BROT.°/30m               0.74:  Build Rotating 
 BS  .in                  8.50:  Bit Size 
 BTPL.psig              430.00:  Bit Press Loss 
 CABU.                      No:  Customer Abuse 
 COMM.                     t9l:  Run Comments 1 
 TCS .hr                 51.31:  Time Ciculation Ended 
 CV  .mps                 2.52:  Crit Velocity 
 CVMX.mps                 2.62:  Max Crit Veloc 
 DD1 .          Teymur Aghayev:  Direct Drillr 1 
 DDSV.                   Other:  DD Service 
 DEFF.%                 100.00:  % Det Eff 
 DLRX.°/30m               1.62:  Dogleg Rot Max 
 DLSO.°/30m               0.74:  Dogleg Oriented 
 DLSX.°/30m               1.62:  Dogleg Str Max 
 DRET.      04.30.56 18-May-20:  Drill End Time 
 DRST.      04.30.56 18-May-20:  Drill Start Tim 
 DTIM.hr                  0.00:  Time Drilling 
 EDEP.m                5337.01:  End Depth 
 ENG1.      Artemiy Matviyanov:  Engineer 1 
 ENG2.      Bakhtiyar Jabbarli:  Engineer 2 
 ENG3.           Emil Huseynov:  Engineer 3 
 ETIM.      18.40.00 22-May-20:  End Time 
 FLOI.gpm               550.00:  Flow In 
 FLON.gpm               350.00:  Flow In Min 
 FLOS.cptm                0.00:  Fluid Loss 
 FLOX.gpm               600.00:  Flow In Max 
 HFLO.                      No:  High Flow 
 HPRE.                      No:  High Pressure 
 HTEM.                      No:  High Temp 
 HYDO.m                   1.80:  Hydro Offset 
 IFIN.deg                67.01:  Inc, Final 
 IMAX.deg                67.49:  Inc Max 
 IMIN.deg                66.50:  Inc Min 
 IMND.m                5144.79:  Inc Min Depth 
 IMXD.m                5116.12:  Inc Max Depth 
 JARR.                      No:  Jarring 
 LETM.      17.55.56 20-May-20:  Log End Time 
 LOST.hr                     0:  Lost Rig Time 
 LSTM.      04.30.56 18-May-20:  Log Start Time 
 MDCL.ppm            193153.00:  Mud Chlorides 
 MDES.     Inversion Oil/Synthetic:  Mud Desc 
 DFD .sg                  1.40:  Mud Density 
 MDMN.sg                  1.40:  Dens Mud Min 
 MDMX.sg                  1.41:  Dens Mud Max 
 MOIL.                      68:  Run Mud Oil % 
 MOWR.                   68:32:  Run Mud OWR 
 MSND.                     0.2:  Run Mud Sand % 
 MSOL.                    18.8:  Run Mud Solids% 
 DFV .spqt               80.00:  Mud Viscosity 
 MWOD.in                  6.75:  MWD Tool OD 
 MWSI.                      No:  Serv Intrp, MWD 
 OTIM.hr                104.84:  Time Operating 
 PMAX.psia            10690.93:  Press Op, Max 
 PV  .cP                 26.00:  Mud PV 
 RUN .                     900:  Run Number 
 ROPA.m/hr                0.00:  ROP Avg 
 ROPN.m/hr                0.00:  ROP Min 
 ROPX.m/hr                0.00:  ROP Max 
 RPMA.rpm               140.00:  RPM Surface Avg 
 RPMN.rpm                70.00:  RPM Surface Min 
 RPMX.rpm               140.00:  RPM Surface Max 
 RRUN.                    0900:  Rig Run Number 
 RTIM.hr                 36.00:  Time Reaming 
 SAZI.deg               115.72:  Azm, Start 
 SDEP.m                5337.01:  Start Depth 
 SIDD.                      No:  Serv Intrp, DD 
 SINC.deg                66.92:  Inc, Start 
 SPPA.psig             4400.00:  SPP Avg 
 SPPN.psig             1135.00:  SPP Min 
 SPPX.psig             4581.00:  SPP Max 
 STIM.      04.30.56 18-May-20:  Start Time 
 SVCS.                     MWD:  Services 
 SVER.                    9.20:  Sperry Version 
 TDAT.m                5337.01:  Tot Depth Attmp 
 TDDF.                      No:  Trip for DD 
 TFF .                      No:  Trip for Fail 
 TQAA.f-kp               23.00:  Torque Abs Avg 
 TQAN.f-kp               18.00:  Torque Abs Min 
 TQAX.f-kp               25.00:  Torque Abs Max 
 TRRT.°/30m               0.74:  Turn Rotating 
 MRT .                    HCIM:  Maximum Recorded Temperature 
 TTMX.degC               76.47:  Max Tool Temp 
 WBMN.klb                 0.00:  WOB Min 
 WITN.             Anar Khalil:  Customer Rep 
 WITN.      Kamran Keberlinski:  Customer Rep 2 
 WOBA.klb                 0.00:  WOB Avg 
 WOBX.klb                 0.00:  WOB Max 
 YP  .lhf2               27.00:  Yield Point 
~Curve Information Block
#MNEM.UNIT                 API CODE     Curve Description
#---------               -----------    ---------------------------
 TIME.HHMMSS            00 000 000 000:  GT Time & Date
 GTDEPTH.m              00 000 000 000:  GT Depth
 GTPQH.psia             00 000 000 000:  GT HR Quartz Pressure
 GTTQ.degC              00 000 000 000:  GT Quartz Temperature
 GTTN.NONE              00 000 000 000:  GT Test Number
 GTET.sec               00 000 000 000:  GT Elapsed Test Time
 GTTVD.m                00 000 000 000:  GT True Vertical Depth
#Other Information
#
#WARRANTY: Halliburton will use its best efforts to furnish customers with 
#accurate information and interpretations that are part of, and incident to, the services 
#provided.  However, Halliburton cannot and does not warrant the accuracy 
#or correctness of such information and interpretations.  Under no circumstances should any 
#such information or interpretation be relied upon as the sole basis for any drilling, 
#completion, production, or financial decision or any procedure involving any risk to the 
#safety of any drilling venture, drilling rig or its crew or any other third party.  The 
#Customer has full responsibility for all drilling, completion and production operation.  
#Halliburton makes no representations or warranties, either expressed or 
#implied, including, but not limited to, the implied warranties of merchantability or fitness 
#for a particular purpose, with respect to the services rendered.  In no event will 
#Halliburton be liable for failure to obtain any particular results or for 
#any damages, including, but not limited to, indirect, special or consequential damages, 
#resulting from the use of any information or interpretation provided by Halliburton.
#
~A           TIME           GTDEPTH  GTPQH  GTTQ  GTTN  GTET   GTTVD  
# ...
   17:42:06.161.19-May-2020 5195.01 1221.03 67.06 2.00 299.04 2727.85
   17:42:06.361.19-May-2020 5195.01 1221.03 67.06 2.00 299.24 2727.85
   17:42:06.561.19-May-2020 5195.01 1226.84 67.06 2.00 299.44 2727.85
   17:42:06.761.19-May-2020 5195.01 1229.90 67.06 2.00 299.64 2727.85
   17:42:06.961.19-May-2020 5195.01 1232.75 67.06 2.00 299.84 2727.85
   17:42:07.162.19-May-2020 5195.01 1235.79 67.06 2.00 300.04 2727.85
   17:42:07.362.19-May-2020 5195.01 1235.79 67.06 2.00 300.24 2727.85
   17:42:07.562.19-May-2020 5195.01 1241.67 67.06 2.00 300.44 2727.85
   17:42:07.762.19-May-2020 5195.01 1244.57 67.06 2.00 300.64 2727.85
   17:42:07.962.19-May-2020 5195.01 1247.49 67.06 2.00 300.84 2727.85
   17:42:08.162.19-May-2020 5195.01 1250.45 67.06 2.00 301.04 2727.85
   17:42:08.362.19-May-2020 5195.01 1250.45 67.06 2.00 301.24 2727.85
   17:42:08.562.19-May-2020 5195.01 1256.24 67.06 2.00 301.44 2727.85
   17:42:08.762.19-May-2020 5195.01 1258.53 67.07 2.00 301.64 2727.85
   17:42:08.962.19-May-2020 5195.01 1261.83 67.07 2.00 301.84 2727.85
   17:42:09.162.19-May-2020 5195.01 1264.64 67.07 2.00 302.04 2727.85
   17:42:09.362.19-May-2020 5195.01 1264.64 67.07 2.00 302.24 2727.85
   17:42:09.562.19-May-2020 5195.01 1269.86 67.07 2.00 302.44 2727.85
   17:42:09.762.19-May-2020 5195.01 1273.14 67.07 2.00 302.64 2727.85
   17:42:09.962.19-May-2020 5195.01 1276.09 67.07 2.00 302.84 2727.85
   17:42:10.162.19-May-2020 5195.01 1278.81 67.07 2.00 303.04 2727.85
   17:42:10.362.19-May-2020 5195.01 1278.81 67.07 2.00 303.24 2727.85
   17:42:10.562.19-May-2020 5195.01 1284.12 67.07 2.00 303.44 2727.85
   17:42:10.762.19-May-2020 5195.01 1287.14 67.07 2.00 303.64 2727.85
   17:42:10.962.19-May-2020 5195.01 1290.03 67.07 2.00 303.84 2727.85
   17:42:11.162.19-May-2020 5195.01 1292.85 67.07 2.00 304.04 2727.85
   17:42:11.362.19-May-2020 5195.01 1292.85 67.07 2.00 304.24 2727.85
   17:42:11.562.19-May-2020 5195.01 1298.47 67.07 2.00 304.44 2727.85
   17:42:11.762.19-May-2020 5195.01 1300.92 67.07 2.00 304.64 2727.85
   17:42:11.962.19-May-2020 5195.01 1304.05 67.07 2.00 304.84 2727.85
   17:42:12.162.19-May-2020 5195.01 1306.96 67.07 2.00 305.04 2727.85
   17:42:12.362.19-May-2020 5195.01 1306.96 67.07 2.00 305.24 2727.85
   17:42:12.562.19-May-2020 5195.01 1312.52 67.07 2.00 305.44 2727.85
   17:42:12.762.19-May-2020 5195.01 1315.26 67.07 2.00 305.64 2727.85
   17:42:12.962.19-May-2020 5195.01 1317.62 67.07 2.00 305.84 2727.85
   17:42:13.162.19-May-2020 5195.01 1320.59 67.07 2.00 306.04 2727.85
   17:42:13.362.19-May-2020 5195.01 1320.59 67.07 2.00 306.24 2727.85
   17:42:13.562.19-May-2020 5195.01 1326.15 67.07 2.00 306.44 2727.85
   17:42:13.762.19-May-2020 5195.01 1328.92 67.07 2.00 306.64 2727.85
   17:42:13.962.19-May-2020 5195.01 1331.65 67.07 2.00 306.84 2727.85
   17:42:14.162.19-May-2020 5195.01 1334.37 67.07 2.00 307.04 2727.85
   17:42:14.362.19-May-2020 5195.01 1334.37 67.07 2.00 307.24 2727.85
   17:42:14.562.19-May-2020 5195.01 1339.91 67.07 2.00 307.44 2727.85
   17:42:14.762.19-May-2020 5195.01 1342.63 67.07 2.00 307.64 2727.85
   17:42:14.962.19-May-2020 5195.01 1345.39 67.07 2.00 307.84 2727.85
   17:42:15.162.19-May-2020 5195.01 1348.05 67.07 2.00 308.04 2727.85
   17:42:15.363.19-May-2020 5195.01 1348.05 67.07 2.00 308.24 2727.85
   17:42:15.563.19-May-2020 5195.01 1353.51 67.07 2.00 308.44 2727.85
   17:42:15.763.19-May-2020 5195.01 1356.13 67.07 2.00 308.64 2727.85
   17:42:15.963.19-May-2020 5195.01 1358.56 67.07 2.00 308.84 2727.85
   17:42:16.163.19-May-2020 5195.01 1361.47 67.07 2.00 309.04 2727.85
   17:42:16.363.19-May-2020 5195.01 1361.47 67.07 2.00 309.24 2727.85
   17:42:16.563.19-May-2020 5195.01 1366.66 67.07 2.00 309.44 2727.85
   17:42:16.763.19-May-2020 5195.01 1369.30 67.07 2.00 309.64 2727.85
   17:42:16.963.19-May-2020 5195.01 1372.13 67.07 2.00 309.84 2727.85
   17:42:17.163.19-May-2020 5195.01 1374.88 67.07 2.00 310.04 2727.85
   17:42:17.363.19-May-2020 5195.01 1374.88 67.07 2.00 310.24 2727.85
   17:42:17.563.19-May-2020 5195.01 1380.25 67.07 2.00 310.44 2727.85
   17:42:17.763.19-May-2020 5195.01 1382.83 67.07 2.00 310.64 2727.85
   17:42:17.963.19-May-2020 5195.01 1385.06 67.07 2.00 310.84 2727.85
   17:42:18.163.19-May-2020 5195.01 1388.09 67.07 2.00 311.04 2727.85
   17:42:18.363.19-May-2020 5195.01 1388.09 67.07 2.00 311.24 2727.85
   17:42:18.563.19-May-2020 5195.01 1393.36 67.07 2.00 311.44 2727.85
   17:42:18.763.19-May-2020 5195.01 1396.01 67.07 2.00 311.64 2727.85
   17:42:18.963.19-May-2020 5195.01 1398.28 67.07 2.00 311.84 2727.85
   17:42:19.163.19-May-2020 5195.01 1401.14 67.07 2.00 312.04 2727.85
   17:42:19.363.19-May-2020 5195.01 1401.14 67.07 2.00 312.24 2727.85
   17:42:19.563.19-May-2020 5195.01 1406.48 67.07 2.00 312.44 2727.85
   17:42:19.763.19-May-2020 5195.01 1409.10 67.07 2.00 312.64 2727.85
   17:42:19.963.19-May-2020 5195.01 1411.76 67.07 2.00 312.84 2727.85
   17:42:20.163.19-May-2020 5195.01 1414.00 67.08 2.00 313.04 2727.85
   17:42:20.363.19-May-2020 5195.01 1414.00 67.08 2.00 313.24 2727.85
   17:42:20.563.19-May-2020 5195.01 1419.46 67.08 2.00 313.44 2727.85
   17:42:20.763.19-May-2020 5195.01 1422.13 67.08 2.00 313.64 2727.85
   17:42:20.963.19-May-2020 5195.01 1424.64 67.08 2.00 313.84 2727.85
   17:42:21.163.19-May-2020 5195.01 1427.32 67.08 2.00 314.04 2727.85
   17:42:21.363.19-May-2020 5195.01 1427.32 67.08 2.00 314.24 2727.85
   17:42:21.563.19-May-2020 5195.01 1432.47 67.08 2.00 314.44 2727.85
   17:42:21.763.19-May-2020 5195.01 1435.14 67.08 2.00 314.64 2727.85
   17:42:21.963.19-May-2020 5195.01 1437.60 67.08 2.00 314.84 2727.85
   17:42:22.163.19-May-2020 5195.01 1440.23 67.08 2.00 315.04 2727.85
   17:42:22.363.19-May-2020 5195.01 1440.23 67.08 2.00 315.24 2727.85
   17:42:22.563.19-May-2020 5195.01 1445.34 67.08 2.00 315.44 2727.85
   17:42:22.763.19-May-2020 5195.01 1447.87 67.08 2.00 315.64 2727.85
   17:42:22.963.19-May-2020 5195.01 1450.41 67.08 2.00 315.84 2727.85
   17:42:23.163.19-May-2020 5195.01 1452.48 67.08 2.00 316.04 2727.85
   17:42:23.363.19-May-2020 5195.01 1452.48 67.08 2.00 316.24 2727.85
   17:42:23.564.19-May-2020 5195.01 1458.00 67.08 2.00 316.44 2727.85
   17:42:23.764.19-May-2020 5195.01 1460.40 67.08 2.00 316.64 2727.85
   17:42:23.964.19-May-2020 5195.01 1462.70 67.08 2.00 316.84 2727.85
   17:42:24.164.19-May-2020 5195.01 1465.29 67.08 2.00 317.04 2727.85
   17:42:24.364.19-May-2020 5195.01 1465.29 67.08 2.00 317.24 2727.85
   17:42:24.564.19-May-2020 5195.01 1470.49 67.08 2.00 317.44 2727.85
   17:42:24.764.19-May-2020 5195.01 1472.54 67.08 2.00 317.64 2727.85
   17:42:24.964.19-May-2020 5195.01 1475.29 67.08 2.00 317.84 2727.85
   17:42:25.164.19-May-2020 5195.01 1477.80 67.08 2.00 318.04 2727.85
   17:42:25.364.19-May-2020 5195.01 1477.80 67.08 2.00 318.24 2727.85
   17:42:25.564.19-May-2020 5195.01 1482.87 67.08 2.00 318.44 2727.85
   17:42:25.764.19-May-2020 5195.01 1485.06 67.08 2.00 318.64 2727.85
   17:42:25.964.19-May-2020 5195.01 1487.62 67.08 2.00 318.84 2727.85
   17:42:26.164.19-May-2020 5195.01 1490.20 67.08 2.00 319.04 2727.85
   17:42:26.364.19-May-2020 5195.01 1490.20 67.08 2.00 319.24 2727.85
   17:42:26.564.19-May-2020 5195.01 1494.90 67.08 2.00 319.44 2727.85
   17:42:26.764.19-May-2020 5195.01 1497.35 67.08 2.00 319.64 2727.85
   17:42:26.964.19-May-2020 5195.01 1499.94 67.08 2.00 319.84 2727.85
   17:42:27.164.19-May-2020 5195.01 1502.44 67.08 2.00 320.04 2727.85
   17:42:27.364.19-May-2020 5195.01 1502.44 67.08 2.00 320.24 2727.85
   17:42:27.564.19-May-2020 5195.01 1507.35 67.08 2.00 320.44 2727.85
   17:42:27.764.19-May-2020 5195.01 1509.78 67.08 2.00 320.64 2727.85
   17:42:27.964.19-May-2020 5195.01 1512.23 67.08 2.00 320.84 2727.85
   17:42:28.164.19-May-2020 5195.01 1514.67 67.08 2.00 321.04 2727.85
   17:42:28.364.19-May-2020 5195.01 1514.67 67.08 2.00 321.24 2727.85
   17:42:28.564.19-May-2020 5195.01 1519.60 67.08 2.00 321.44 2727.85
   17:42:28.764.19-May-2020 5195.01 1521.93 67.08 2.00 321.64 2727.85
   17:42:28.964.19-May-2020 5195.01 1524.41 67.08 2.00 321.84 2727.85
