~Version Information
 VERS.                  2.0:   CWLS log ASCII Standard -VERSION 2.0
 WRAP.                   NO:   One line per depth step
~Well Information Block
#MNEM.UNIT     VALUE/NAME     DESCRIPTION
#---------     -----------    ---------------------------
 STRT.S             02:05:08 20-May-20: START TIME 02:05:08 20-May-20
 STOP.S             02:15:48 20-May-20: STOP TIME  02:15:48 20-May-20
 STEP.S                   0.00: STEP TIME
 NULL.                 -999.25: NULL VALUE
 MDS .        Operator Entered:  MAG DATA SOURCE
 PDAT.          Mean Sea Level:  PERMANENT DATUM
 UNIT.                     N/A:  LOGGING EQUIPMENT ID
 DCON.         Sperry Drilling:  DIRECTNL CONTR
 DOE .                     N/A:  DOE NUMBER
 RIG .              East Azeri:  RIG NAME
 JOBN.        AZ-XX-0905856059:  JOB TICKET NUMB
 WELL.                     D36:  WELL NAME
 MWDS.                    Baku:  MWD SHOP
 SRVC.     Turan Drilling & Engineering:  CONTRACTOR
 FLD .                     ACG:  FIELD NAME
 CTRY.              Azerbaijan:  COUNTRY NAME
 PROV.                    Baku:  PROVINCE
 STAT.                    Baku:  STATE NAME
 REGN.                   EESSA:  REGION
 BASE.              Azerbaijan:  LOGGING EQUIPMENT BASE LOCATION
 UWI .                     N/A:  UNIQUE WELL IDENTIFIER
 API .                     N/A:  API NUMBER
 COMP.     BP Exploration (Caspian Sea) Ltd.:  COMPANY
 WTYP.                Deviated:  WELL TYPE
 SON .        AZ-XX-0905856059:  JOB NUMBER
 FTOP.          Formation Tops:  FORM TOPS DESC
 ILTD.               Lithology:  INTERP LTH DESC
 SVYD.                  Survey:  SURVEY DESC
 DMOD.             Drill Model:  DRILL MOD DESC
 HPTY.       Minimum Curvature:  HOLE POS TYPE
 NREF.                    Grid:  NORTH REFERENCE
 SPUD.               25-Feb-20:  SPUD DATE
 DATE.      08.55.28 01-May-20:  END TIME
 STIM.      08.55.28 25-Feb-20:  START TIME
 DMF .             Drill Floor:  DRILL MEAS FROM
 DFST.                        :  DIST FSL TEXT
 DFWT.                        :  DIST FWL TEXT
 CNTY.                        :  COUNTY
 LOC .                        :  LOCATION
 LMF .             Drill Floor:  LOG MEASURED FROM
 VSNS.m                   6.09:  VERT SEC N/S
 VSEW.m                 -10.79:  VERT SEC E/W
 AGAP.m                  43.60:  AIR GAP
 DEP .m                 388.24:  DEPTH
 APD .m                  43.60:  DEPTH ABOVE PD
 WDMS.m                 151.80:  WD ELEV
 EGL .m                   0.00:  GROUND ELEVATION
 EPD .m                   0.00:  ELEVATION
 AZTC.deg                 6.12:  AZM TOTAL CORR
 GRDC.deg                 0.30:  GRID CORRECTION
 MDEC.deg                 6.42:  MAGNETIC DECL
 MDIP.deg                59.42:  MAGNETIC DIP
 MFLD.nT              50256.00:  MAGNETIC FIELD
 GVFD.g                   1.00:  GRAVITY FIELD
 VSDR.deg               159.57:  VERT SEC DIRECT
 TDD .m                5000.01:  TOTAL DEPTH (DRILLER)
 SDEP.m                 397.00:  START DEPTH
 DFSL.m                   0.00:  DISTANCE FSL
 DFWL.m                   0.00:  DISTANCE FWL
 UTMY.m             4431880.20:  UTM Y
 UTMX.m              538763.98:  UTM X
 WHEW.m                 -10.79:  WELL HEAD E/W
 WHNS.m                   6.09:  WELL HEAD N/S
 LONG.deg                51.45:  LONGITUDE
 LATI.deg                40.02:  LATITUDE
 TVDS.m                  43.60:  TVDSS CORRECTN
 EKB .m                  43.60:  KB ELEVATION
 EDF .m                  43.60:  DF ELEVATION
 MAGU.                 1847640:  MAGUTM CHECKSUM
 VSC .                       0:  VS TO CLOSURE
~Parameter Information Block
#MNEM.UNIT       Value        Description
#---------     -----------    ---------------------------
 AV  .mps                 1.30:  Ann Velocity 
 AVMX.mps                 1.90:  Max Ann Veloc 
 AZIF.deg               115.68:  Azm, Final 
 BHAT.                   Other:  BHA Type 
 BROT.°/30m               0.74:  Build Rotating 
 BS  .in                  8.50:  Bit Size 
 BTPL.psig              430.00:  Bit Press Loss 
 CABU.                      No:  Customer Abuse 
 TCS .hr                 51.31:  Time Ciculation Ended 
 CV  .mps                 2.52:  Crit Velocity 
 CVMX.mps                 2.62:  Max Crit Veloc 
 DD1 .          Teymur Aghayev:  Direct Drillr 1 
 DDSV.                   Other:  DD Service 
 DEFF.%                 100.00:  % Det Eff 
 DLRX.°/30m               1.62:  Dogleg Rot Max 
 DLSO.°/30m               0.74:  Dogleg Oriented 
 DLSX.°/30m               1.62:  Dogleg Str Max 
 DRET.      04.30.56 18-May-20:  Drill End Time 
 DRST.      04.30.56 18-May-20:  Drill Start Tim 
 DTIM.hr                  0.00:  Time Drilling 
 EDEP.m                5337.01:  End Depth 
 ENG1.      Artemiy Matviyanov:  Engineer 1 
 ENG2.      Bakhtiyar Jabbarli:  Engineer 2 
 ENG3.           Emil Huseynov:  Engineer 3 
 ETIM.      18.40.00 22-May-20:  End Time 
 FLOI.gpm               550.00:  Flow In 
 FLON.gpm               350.00:  Flow In Min 
 FLOS.cptm                0.00:  Fluid Loss 
 FLOX.gpm               600.00:  Flow In Max 
 HFLO.                      No:  High Flow 
 HPRE.                      No:  High Pressure 
 HTEM.                      No:  High Temp 
 HYDO.m                   1.80:  Hydro Offset 
 IFIN.deg                67.01:  Inc, Final 
 IMAX.deg                67.49:  Inc Max 
 IMIN.deg                66.50:  Inc Min 
 IMND.m                5144.79:  Inc Min Depth 
 IMXD.m                5116.12:  Inc Max Depth 
 JARR.                      No:  Jarring 
 LETM.      17.55.56 20-May-20:  Log End Time 
 LOST.hr                     0:  Lost Rig Time 
 LSTM.      04.30.56 18-May-20:  Log Start Time 
 MDCL.ppm            193153.00:  Mud Chlorides 
 MDES.     Inversion Oil/Synthetic:  Mud Desc 
 DFD .sg                  1.40:  Mud Density 
 MDMN.sg                  1.40:  Dens Mud Min 
 MDMX.sg                  1.41:  Dens Mud Max 
 MOIL.                      68:  Run Mud Oil % 
 MOWR.                   68:32:  Run Mud OWR 
 MSND.                     0.2:  Run Mud Sand % 
 MSOL.                    18.8:  Run Mud Solids% 
 DFV .spqt               80.00:  Mud Viscosity 
 MWOD.in                  6.75:  MWD Tool OD 
 MWSI.                      No:  Serv Intrp, MWD 
 OTIM.hr                104.84:  Time Operating 
 PMAX.psia            10690.93:  Press Op, Max 
 PV  .cP                 26.00:  Mud PV 
 RUN .                     900:  Run Number 
 ROPA.m/hr                0.00:  ROP Avg 
 ROPN.m/hr                0.00:  ROP Min 
 ROPX.m/hr                0.00:  ROP Max 
 RPMA.rpm               140.00:  RPM Surface Avg 
 RPMN.rpm                70.00:  RPM Surface Min 
 RPMX.rpm               140.00:  RPM Surface Max 
 RRUN.                    0900:  Rig Run Number 
 RTIM.hr                 36.00:  Time Reaming 
 SAZI.deg               115.72:  Azm, Start 
 SDEP.m                5337.01:  Start Depth 
 SIDD.                      No:  Serv Intrp, DD 
 SINC.deg                66.92:  Inc, Start 
 SPPA.psig             4400.00:  SPP Avg 
 SPPN.psig             1135.00:  SPP Min 
 SPPX.psig             4581.00:  SPP Max 
 STIM.      04.30.56 18-May-20:  Start Time 
 SVCS.                     MWD:  Services 
 SVER.                    9.20:  Sperry Version 
 TDAT.m                5337.01:  Tot Depth Attmp 
 TDDF.                      No:  Trip for DD 
 TFF .                      No:  Trip for Fail 
 TQAA.f-kp               23.00:  Torque Abs Avg 
 TQAN.f-kp               18.00:  Torque Abs Min 
 TQAX.f-kp               25.00:  Torque Abs Max 
 TRRT.°/30m               0.74:  Turn Rotating 
 MRT .                    HCIM:  Maximum Recorded Temperature 
 TTMX.degC               76.47:  Max Tool Temp 
 WBMN.klb                 0.00:  WOB Min 
 WITN.             Anar Khalil:  Customer Rep 
 WITN.      Kamran Keberlinski:  Customer Rep 2 
 WOBA.klb                 0.00:  WOB Avg 
 WOBX.klb                 0.00:  WOB Max 
 YP  .lhf2               27.00:  Yield Point 
~Curve Information Block
#MNEM.UNIT                 API CODE     Curve Description
#---------               -----------    ---------------------------
 TIME.HHMMSS            00 000 000 000:  GT Time & Date
 GTDEPTH.m              00 000 000 000:  GT Depth
 GTPQH.psia             00 000 000 000:  GT HR Quartz Pressure
 GTTQ.degC              00 000 000 000:  GT Quartz Temperature
 GTTN.NONE              00 000 000 000:  GT Test Number
 GTET.sec               00 000 000 000:  GT Elapsed Test Time
 GTTVD.m                00 000 000 000:  GT True Vertical Depth
#Other Information
#
#WARRANTY: Halliburton will use its best efforts to furnish customers with 
#accurate information and interpretations that are part of, and incident to, the services 
#provided.  However, Halliburton cannot and does not warrant the accuracy 
#or correctness of such information and interpretations.  Under no circumstances should any 
#such information or interpretation be relied upon as the sole basis for any drilling, 
#completion, production, or financial decision or any procedure involving any risk to the 
#safety of any drilling venture, drilling rig or its crew or any other third party.  The 
#Customer has full responsibility for all drilling, completion and production operation.  
#Halliburton makes no representations or warranties, either expressed or 
#implied, including, but not limited to, the implied warranties of merchantability or fitness 
#for a particular purpose, with respect to the services rendered.  In no event will 
#Halliburton be liable for failure to obtain any particular results or for 
#any damages, including, but not limited to, indirect, special or consequential damages, 
#resulting from the use of any information or interpretation provided by Halliburton.
#
~A           TIME           GTDEPTH  GTPQH  GTTQ  GTTN  GTET   GTTVD  
# ...
   02:12:48.000.20-May-2020 5070.01 2955.35 68.31 7.00 460.00 2678.90
   02:12:48.200.20-May-2020 5070.01 2955.45 68.31 7.00 460.20 2678.90
   02:12:48.400.20-May-2020 5070.01 2955.48 68.31 7.00 460.40 2678.90
   02:12:48.600.20-May-2020 5070.01 2955.52 68.31 7.00 460.60 2678.90
   02:12:48.800.20-May-2020 5070.01 2955.47 68.31 7.00 460.80 2678.90
   02:12:49.000.20-May-2020 5070.01 2955.52 68.31 7.00 461.00 2678.90
   02:12:49.200.20-May-2020 5070.01 2955.51 68.31 7.00 461.20 2678.90
   02:12:49.400.20-May-2020 5070.01 2955.56 68.31 7.00 461.40 2678.90
   02:12:49.600.20-May-2020 5070.01 2955.57 68.31 7.00 461.60 2678.90
   02:12:49.800.20-May-2020 5070.01 2955.37 68.31 7.00 461.80 2678.90
   02:12:50.000.20-May-2020 5070.01 2955.53 68.31 7.00 462.00 2678.90
   02:12:50.200.20-May-2020 5070.01 2955.81 68.31 7.00 462.20 2678.90
   02:12:50.400.20-May-2020 5070.01 2955.93 68.31 7.00 462.40 2678.90
   02:12:50.600.20-May-2020 5070.01 2955.80 68.31 7.00 462.60 2678.90
   02:12:50.800.20-May-2020 5070.01 2955.97 68.31 7.00 462.80 2678.90
   02:12:51.000.20-May-2020 5070.01 2955.96 68.31 7.00 463.00 2678.90
   02:12:51.200.20-May-2020 5070.01 2955.96 68.31 7.00 463.20 2678.90
   02:12:51.400.20-May-2020 5070.01 2956.00 68.31 7.00 463.40 2678.90
   02:12:51.600.20-May-2020 5070.01 2955.93 68.31 7.00 463.60 2678.90
   02:12:51.800.20-May-2020 5070.01 2955.88 68.31 7.00 463.80 2678.90
   02:12:52.000.20-May-2020 5070.01 2956.00 68.31 7.00 464.00 2678.90
   02:12:52.200.20-May-2020 5070.01 2956.00 68.31 7.00 464.20 2678.90
   02:12:52.400.20-May-2020 5070.01 2955.98 68.31 7.00 464.40 2678.90
   02:12:52.600.20-May-2020 5070.01 2955.84 68.31 7.00 464.60 2678.90
   02:12:52.800.20-May-2020 5070.01 2956.05 68.31 7.00 464.80 2678.90
   02:12:53.000.20-May-2020 5070.01 2956.00 68.31 7.00 465.00 2678.90
   02:12:53.200.20-May-2020 5070.01 2956.00 68.31 7.00 465.20 2678.90
   02:12:53.400.20-May-2020 5070.01 2956.03 68.31 7.00 465.40 2678.90
   02:12:53.600.20-May-2020 5070.01 2955.97 68.31 7.00 465.60 2678.90
   02:12:53.800.20-May-2020 5070.01 2955.97 68.31 7.00 465.80 2678.90
   02:12:54.000.20-May-2020 5070.01 2955.96 68.31 7.00 466.00 2678.90
   02:12:54.200.20-May-2020 5070.01 2956.00 68.31 7.00 466.20 2678.90
   02:12:54.400.20-May-2020 5070.01 2956.01 68.31 7.00 466.40 2678.90
   02:12:54.600.20-May-2020 5070.01 2956.01 68.31 7.00 466.60 2678.90
   02:12:54.800.20-May-2020 5070.01 2956.00 68.31 7.00 466.80 2678.90
   02:12:55.000.20-May-2020 5070.01 2956.01 68.31 7.00 467.00 2678.90
   02:12:55.200.20-May-2020 5070.01 2956.01 68.31 7.00 467.20 2678.90
   02:12:55.400.20-May-2020 5070.01 2956.00 68.31 7.00 467.40 2678.90
   02:12:55.600.20-May-2020 5070.01 2955.99 68.31 7.00 467.60 2678.90
   02:12:55.800.20-May-2020 5070.01 2955.97 68.31 7.00 467.80 2678.90
   02:12:56.000.20-May-2020 5070.01 2955.99 68.31 7.00 468.00 2678.90
   02:12:56.200.20-May-2020 5070.01 2955.99 68.31 7.00 468.20 2678.90
   02:12:56.400.20-May-2020 5070.01 2955.99 68.31 7.00 468.40 2678.90
   02:12:56.600.20-May-2020 5070.01 2955.97 68.31 7.00 468.60 2678.90
   02:12:56.800.20-May-2020 5070.01 2955.96 68.31 7.00 468.80 2678.90
   02:12:57.000.20-May-2020 5070.01 2955.84 68.31 7.00 469.00 2678.90
   02:12:57.200.20-May-2020 5070.01 2956.09 68.31 7.00 469.20 2678.90
   02:12:57.400.20-May-2020 5070.01 2956.00 68.31 7.00 469.40 2678.90
   02:12:57.600.20-May-2020 5070.01 2956.04 68.31 7.00 469.60 2678.90
   02:12:57.800.20-May-2020 5070.01 2955.89 68.31 7.00 469.80 2678.90
   02:12:58.000.20-May-2020 5070.01 2956.09 68.31 7.00 470.00 2678.90
   02:12:58.200.20-May-2020 5070.01 2956.01 68.31 7.00 470.20 2678.90
   02:12:58.400.20-May-2020 5070.01 2956.02 68.31 7.00 470.40 2678.90
   02:12:58.600.20-May-2020 5070.01 2956.06 68.31 7.00 470.60 2678.90
   02:12:58.800.20-May-2020 5070.01 2956.00 68.31 7.00 470.80 2678.90
   02:12:59.000.20-May-2020 5070.01 2955.97 68.31 7.00 471.00 2678.90
   02:12:59.200.20-May-2020 5070.01 2955.97 68.31 7.00 471.20 2678.90
   02:12:59.400.20-May-2020 5070.01 2956.05 68.31 7.00 471.40 2678.90
   02:12:59.600.20-May-2020 5070.01 2956.02 68.31 7.00 471.60 2678.90
   02:12:59.800.20-May-2020 5070.01 2956.00 68.31 7.00 471.80 2678.90
   02:13:00.000.20-May-2020 5070.01 2956.05 68.31 7.00 472.00 2678.90
   02:13:00.200.20-May-2020 5070.01 2956.05 68.31 7.00 472.20 2678.90
   02:13:00.400.20-May-2020 5070.01 2956.03 68.31 7.00 472.40 2678.90
   02:13:00.600.20-May-2020 5070.01 2956.04 68.31 7.00 472.60 2678.90
   02:13:00.800.20-May-2020 5070.01 2956.01 68.31 7.00 472.80 2678.90
   02:13:01.000.20-May-2020 5070.01 2955.89 68.31 7.00 473.00 2678.90
   02:13:01.200.20-May-2020 5070.01 2955.89 68.31 7.00 473.20 2678.90
   02:13:01.400.20-May-2020 5070.01 2956.05 68.31 7.00 473.40 2678.90
   02:13:01.600.20-May-2020 5070.01 2956.01 68.31 7.00 473.60 2678.90
   02:13:01.800.20-May-2020 5070.01 2956.06 68.31 7.00 473.80 2678.90
   02:13:02.000.20-May-2020 5070.01 2956.04 68.31 7.00 474.00 2678.90
   02:13:02.200.20-May-2020 5070.01 2956.04 68.31 7.00 474.20 2678.90
   02:13:02.400.20-May-2020 5070.01 2956.04 68.31 7.00 474.40 2678.90
   02:13:02.600.20-May-2020 5070.01 2956.01 68.31 7.00 474.60 2678.90
   02:13:02.800.20-May-2020 5070.01 2956.00 68.31 7.00 474.80 2678.90
   02:13:03.000.20-May-2020 5070.01 2956.02 68.31 7.00 475.00 2678.90
   02:13:03.200.20-May-2020 5070.01 2956.02 68.31 7.00 475.20 2678.90
   02:13:03.400.20-May-2020 5070.01 2956.02 68.31 7.00 475.40 2678.90
   02:13:03.600.20-May-2020 5070.01 2956.00 68.31 7.00 475.60 2678.90
   02:13:03.800.20-May-2020 5070.01 2956.00 68.31 7.00 475.80 2678.90
   02:13:04.000.20-May-2020 5070.01 2955.85 68.31 7.00 476.00 2678.90
   02:13:04.200.20-May-2020 5070.01 2955.85 68.31 7.00 476.20 2678.90
   02:13:04.400.20-May-2020 5070.01 2956.03 68.31 7.00 476.40 2678.90
   02:13:04.600.20-May-2020 5070.01 2956.04 68.31 7.00 476.60 2678.90
   02:13:04.800.20-May-2020 5070.01 2955.89 68.31 7.00 476.80 2678.90
   02:13:05.000.20-May-2020 5070.01 2956.18 68.31 7.00 477.00 2678.90
   02:13:05.200.20-May-2020 5070.01 2956.18 68.31 7.00 477.20 2678.90
   02:13:05.400.20-May-2020 5070.01 2956.07 68.31 7.00 477.40 2678.90
   02:13:05.600.20-May-2020 5070.01 2956.04 68.31 7.00 477.60 2678.90
   02:13:05.800.20-May-2020 5070.01 2956.00 68.31 7.00 477.80 2678.90
   02:13:06.000.20-May-2020 5070.01 2955.90 68.31 7.00 478.00 2678.90
   02:13:06.200.20-May-2020 5070.01 2955.90 68.31 7.00 478.20 2678.90
   02:13:06.400.20-May-2020 5070.01 2956.07 68.31 7.00 478.40 2678.90
   02:13:06.600.20-May-2020 5070.01 2956.01 68.31 7.00 478.60 2678.90
   02:13:06.800.20-May-2020 5070.01 2956.01 68.31 7.00 478.80 2678.90
   02:13:07.000.20-May-2020 5070.01 2956.05 68.31 7.00 479.00 2678.90
   02:13:07.200.20-May-2020 5070.01 2956.05 68.31 7.00 479.20 2678.90
   02:13:07.400.20-May-2020 5070.01 2956.07 68.31 7.00 479.40 2678.90
   02:13:07.600.20-May-2020 5070.01 2956.05 68.31 7.00 479.60 2678.90
   02:13:07.800.20-May-2020 5070.01 2956.01 68.31 7.00 479.80 2678.90
   02:13:08.000.20-May-2020 5070.01 2955.89 68.31 7.00 480.00 2678.90
   02:13:08.200.20-May-2020 5070.01 2955.89 68.31 7.00 480.20 2678.90
   02:13:08.400.20-May-2020 5070.01 2956.05 68.31 7.00 480.40 2678.90
   02:13:08.600.20-May-2020 5070.01 2956.07 68.31 7.00 480.60 2678.90
   02:13:08.800.20-May-2020 5070.01 2956.01 68.31 7.00 480.80 2678.90
   02:13:09.000.20-May-2020 5070.01 2956.06 68.31 7.00 481.00 2678.90
   02:13:09.200.20-May-2020 5070.01 2956.06 68.31 7.00 481.20 2678.90
   02:13:09.400.20-May-2020 5070.01 2956.04 68.31 7.00 481.40 2678.90
   02:13:09.600.20-May-2020 5070.01 2956.02 68.31 7.00 481.60 2678.90
   02:13:09.800.20-May-2020 5070.01 2956.02 68.31 7.00 481.80 2678.90
   02:13:10.000.20-May-2020 5070.01 2956.04 68.31 7.00 482.00 2678.90
   02:13:10.200.20-May-2020 5070.01 2956.04 68.31 7.00 482.20 2678.90
   02:13:10.400.20-May-2020 5070.01 2956.03 68.31 7.00 482.40 2678.90
   02:13:10.600.20-May-2020 5070.01 2956.01 68.31 7.00 482.60 2678.90
   02:13:10.800.20-May-2020 5070.01 2956.01 68.31 7.00 482.80 2678.90
