~Version Information
 VERS.                  2.0:   CWLS log ASCII Standard -VERSION 2.0
 WRAP.                   NO:   One line per depth step
~Well Information Block
#MNEM.UNIT     VALUE/NAME     DESCRIPTION
#---------     -----------    ---------------------------
 STRT.S             02:05:08 20-May-20: START TIME 02:05:08 20-May-20
 STOP.S             02:15:48 20-May-20: STOP TIME  02:15:48 20-May-20
 STEP.S                   0.00: STEP TIME
 NULL.                 -999.25: NULL VALUE
 MDS .        Operator Entered:  MAG DATA SOURCE
 PDAT.          Mean Sea Level:  PERMANENT DATUM
 UNIT.                     N/A:  LOGGING EQUIPMENT ID
 DCON.         Sperry Drilling:  DIRECTNL CONTR
 DOE .                     N/A:  DOE NUMBER
 RIG .              East Azeri:  RIG NAME
 JOBN.        AZ-XX-0905856059:  JOB TICKET NUMB
 WELL.                     D36:  WELL NAME
 MWDS.                    Baku:  MWD SHOP
 SRVC.     Turan Drilling & Engineering:  CONTRACTOR
 FLD .                     ACG:  FIELD NAME
 CTRY.              Azerbaijan:  COUNTRY NAME
 PROV.                    Baku:  PROVINCE
 STAT.                    Baku:  STATE NAME
 REGN.                   EESSA:  REGION
 BASE.              Azerbaijan:  LOGGING EQUIPMENT BASE LOCATION
 UWI .                     N/A:  UNIQUE WELL IDENTIFIER
 API .                     N/A:  API NUMBER
 COMP.     BP Exploration (Caspian Sea) Ltd.:  COMPANY
 WTYP.                Deviated:  WELL TYPE
 SON .        AZ-XX-0905856059:  JOB NUMBER
 FTOP.          Formation Tops:  FORM TOPS DESC
 ILTD.               Lithology:  INTERP LTH DESC
 SVYD.                  Survey:  SURVEY DESC
 DMOD.             Drill Model:  DRILL MOD DESC
 HPTY.       Minimum Curvature:  HOLE POS TYPE
 NREF.                    Grid:  NORTH REFERENCE
 SPUD.               25-Feb-20:  SPUD DATE
 DATE.      08.55.28 01-May-20:  END TIME
 STIM.      08.55.28 25-Feb-20:  START TIME
 DMF .             Drill Floor:  DRILL MEAS FROM
 DFST.                        :  DIST FSL TEXT
 DFWT.                        :  DIST FWL TEXT
 CNTY.                        :  COUNTY
 LOC .                        :  LOCATION
 LMF .             Drill Floor:  LOG MEASURED FROM
 VSNS.m                   6.09:  VERT SEC N/S
 VSEW.m                 -10.79:  VERT SEC E/W
 AGAP.m                  43.60:  AIR GAP
 DEP .m                 388.24:  DEPTH
 APD .m                  43.60:  DEPTH ABOVE PD
 WDMS.m                 151.80:  WD ELEV
 EGL .m                   0.00:  GROUND ELEVATION
 EPD .m                   0.00:  ELEVATION
 AZTC.deg                 6.12:  AZM TOTAL CORR
 GRDC.deg                 0.30:  GRID CORRECTION
 MDEC.deg                 6.42:  MAGNETIC DECL
 MDIP.deg                59.42:  MAGNETIC DIP
 MFLD.nT              50256.00:  MAGNETIC FIELD
 GVFD.g                   1.00:  GRAVITY FIELD
 VSDR.deg               159.57:  VERT SEC DIRECT
 TDD .m                5000.01:  TOTAL DEPTH (DRILLER)
 SDEP.m                 397.00:  START DEPTH
 DFSL.m                   0.00:  DISTANCE FSL
 DFWL.m                   0.00:  DISTANCE FWL
 UTMY.m             4431880.20:  UTM Y
 UTMX.m              538763.98:  UTM X
 WHEW.m                 -10.79:  WELL HEAD E/W
 WHNS.m                   6.09:  WELL HEAD N/S
 LONG.deg                51.45:  LONGITUDE
 LATI.deg                40.02:  LATITUDE
 TVDS.m                  43.60:  TVDSS CORRECTN
 EKB .m                  43.60:  KB ELEVATION
 EDF .m                  43.60:  DF ELEVATION
 MAGU.                 1847640:  MAGUTM CHECKSUM
 VSC .                       0:  VS TO CLOSURE
~Parameter Information Block
#MNEM.UNIT       Value        Description
#---------     -----------    ---------------------------
 AV  .mps                 1.30:  Ann Velocity 
 AVMX.mps                 1.90:  Max Ann Veloc 
 AZIF.deg               115.68:  Azm, Final 
 BHAT.                   Other:  BHA Type 
 BROT.°/30m               0.74:  Build Rotating 
 BS  .in                  8.50:  Bit Size 
 BTPL.psig              430.00:  Bit Press Loss 
 CABU.                      No:  Customer Abuse 
 TCS .hr                 51.31:  Time Ciculation Ended 
 CV  .mps                 2.52:  Crit Velocity 
 CVMX.mps                 2.62:  Max Crit Veloc 
 DD1 .          Teymur Aghayev:  Direct Drillr 1 
 DDSV.                   Other:  DD Service 
 DEFF.%                 100.00:  % Det Eff 
 DLRX.°/30m               1.62:  Dogleg Rot Max 
 DLSO.°/30m               0.74:  Dogleg Oriented 
 DLSX.°/30m               1.62:  Dogleg Str Max 
 DRET.      04.30.56 18-May-20:  Drill End Time 
 DRST.      04.30.56 18-May-20:  Drill Start Tim 
 DTIM.hr                  0.00:  Time Drilling 
 EDEP.m                5337.01:  End Depth 
 ENG1.      Artemiy Matviyanov:  Engineer 1 
 ENG2.      Bakhtiyar Jabbarli:  Engineer 2 
 ENG3.           Emil Huseynov:  Engineer 3 
 ETIM.      18.40.00 22-May-20:  End Time 
 FLOI.gpm               550.00:  Flow In 
 FLON.gpm               350.00:  Flow In Min 
 FLOS.cptm                0.00:  Fluid Loss 
 FLOX.gpm               600.00:  Flow In Max 
 HFLO.                      No:  High Flow 
 HPRE.                      No:  High Pressure 
 HTEM.                      No:  High Temp 
 HYDO.m                   1.80:  Hydro Offset 
 IFIN.deg                67.01:  Inc, Final 
 IMAX.deg                67.49:  Inc Max 
 IMIN.deg                66.50:  Inc Min 
 IMND.m                5144.79:  Inc Min Depth 
 IMXD.m                5116.12:  Inc Max Depth 
 JARR.                      No:  Jarring 
 LETM.      17.55.56 20-May-20:  Log End Time 
 LOST.hr                     0:  Lost Rig Time 
 LSTM.      04.30.56 18-May-20:  Log Start Time 
 MDCL.ppm            193153.00:  Mud Chlorides 
 MDES.     Inversion Oil/Synthetic:  Mud Desc 
 DFD .sg                  1.40:  Mud Density 
 MDMN.sg                  1.40:  Dens Mud Min 
 MDMX.sg                  1.41:  Dens Mud Max 
 MOIL.                      68:  Run Mud Oil % 
 MOWR.                   68:32:  Run Mud OWR 
 MSND.                     0.2:  Run Mud Sand % 
 MSOL.                    18.8:  Run Mud Solids% 
 DFV .spqt               80.00:  Mud Viscosity 
 MWOD.in                  6.75:  MWD Tool OD 
 MWSI.                      No:  Serv Intrp, MWD 
 OTIM.hr                104.84:  Time Operating 
 PMAX.psia            10690.93:  Press Op, Max 
 PV  .cP                 26.00:  Mud PV 
 RUN .                     900:  Run Number 
 ROPA.m/hr                0.00:  ROP Avg 
 ROPN.m/hr                0.00:  ROP Min 
 ROPX.m/hr                0.00:  ROP Max 
 RPMA.rpm               140.00:  RPM Surface Avg 
 RPMN.rpm                70.00:  RPM Surface Min 
 RPMX.rpm               140.00:  RPM Surface Max 
 RRUN.                    0900:  Rig Run Number 
 RTIM.hr                 36.00:  Time Reaming 
 SAZI.deg               115.72:  Azm, Start 
 SDEP.m                5337.01:  Start Depth 
 SIDD.                      No:  Serv Intrp, DD 
 SINC.deg                66.92:  Inc, Start 
 SPPA.psig             4400.00:  SPP Avg 
 SPPN.psig             1135.00:  SPP Min 
 SPPX.psig             4581.00:  SPP Max 
 STIM.      04.30.56 18-May-20:  Start Time 
 SVCS.                     MWD:  Services 
 SVER.                    9.20:  Sperry Version 
 TDAT.m                5337.01:  Tot Depth Attmp 
 TDDF.                      No:  Trip for DD 
 TFF .                      No:  Trip for Fail 
 TQAA.f-kp               23.00:  Torque Abs Avg 
 TQAN.f-kp               18.00:  Torque Abs Min 
 TQAX.f-kp               25.00:  Torque Abs Max 
 TRRT.°/30m               0.74:  Turn Rotating 
 MRT .                    HCIM:  Maximum Recorded Temperature 
 TTMX.degC               76.47:  Max Tool Temp 
 WBMN.klb                 0.00:  WOB Min 
 WITN.             Anar Khalil:  Customer Rep 
 WITN.      Kamran Keberlinski:  Customer Rep 2 
 WOBA.klb                 0.00:  WOB Avg 
 WOBX.klb                 0.00:  WOB Max 
 YP  .lhf2               27.00:  Yield Point 
~Curve Information Block
#MNEM.UNIT                 API CODE     Curve Description
#---------               -----------    ---------------------------
 TIME.HHMMSS            00 000 000 000:  GT Time & Date
 GTDEPTH.m              00 000 000 000:  GT Depth
 GTPQH.psia             00 000 000 000:  GT HR Quartz Pressure
 GTTQ.degC              00 000 000 000:  GT Quartz Temperature
 GTTN.NONE              00 000 000 000:  GT Test Number
 GTET.sec               00 000 000 000:  GT Elapsed Test Time
 GTTVD.m                00 000 000 000:  GT True Vertical Depth
#Other Information
#
#WARRANTY: Halliburton will use its best efforts to furnish customers with 
#accurate information and interpretations that are part of, and incident to, the services 
#provided.  However, Halliburton cannot and does not warrant the accuracy 
#or correctness of such information and interpretations.  Under no circumstances should any 
#such information or interpretation be relied upon as the sole basis for any drilling, 
#completion, production, or financial decision or any procedure involving any risk to the 
#safety of any drilling venture, drilling rig or its crew or any other third party.  The 
#Customer has full responsibility for all drilling, completion and production operation.  
#Halliburton makes no representations or warranties, either expressed or 
#implied, including, but not limited to, the implied warranties of merchantability or fitness 
#for a particular purpose, with respect to the services rendered.  In no event will 
#Halliburton be liable for failure to obtain any particular results or for 
#any damages, including, but not limited to, indirect, special or consequential damages, 
#resulting from the use of any information or interpretation provided by Halliburton.
#
~A           TIME           GTDEPTH  GTPQH  GTTQ  GTTN  GTET   GTTVD  
# ...
   02:07:03.000.20-May-2020 5070.01 2956.74 68.38 7.00 115.00 2678.90
   02:07:03.200.20-May-2020 5070.01 2956.74 68.38 7.00 115.20 2678.90
   02:07:03.400.20-May-2020 5070.01 2956.76 68.38 7.00 115.40 2678.90
   02:07:03.600.20-May-2020 5070.01 2956.74 68.38 7.00 115.60 2678.90
   02:07:03.800.20-May-2020 5070.01 2956.76 68.38 7.00 115.80 2678.90
   02:07:04.000.20-May-2020 5070.01 2956.73 68.38 7.00 116.00 2678.90
   02:07:04.200.20-May-2020 5070.01 2956.73 68.38 7.00 116.20 2678.90
   02:07:04.400.20-May-2020 5070.01 2956.70 68.39 7.00 116.40 2678.90
   02:07:04.600.20-May-2020 5070.01 2956.71 68.38 7.00 116.60 2678.90
   02:07:04.800.20-May-2020 5070.01 2956.76 68.38 7.00 116.80 2678.90
   02:07:05.000.20-May-2020 5070.01 2956.62 68.38 7.00 117.00 2678.90
   02:07:05.200.20-May-2020 5070.01 2956.62 68.38 7.00 117.20 2678.90
   02:07:05.400.20-May-2020 5070.01 2956.69 68.38 7.00 117.40 2678.90
   02:07:05.600.20-May-2020 5070.01 2956.69 68.39 7.00 117.60 2678.90
   02:07:05.800.20-May-2020 5070.01 2956.70 68.38 7.00 117.80 2678.90
   02:07:06.000.20-May-2020 5070.01 2956.68 68.38 7.00 118.00 2678.90
   02:07:06.200.20-May-2020 5070.01 2956.68 68.38 7.00 118.20 2678.90
   02:07:06.400.20-May-2020 5070.01 2956.68 68.39 7.00 118.40 2678.90
   02:07:06.600.20-May-2020 5070.01 2956.69 68.38 7.00 118.60 2678.90
   02:07:06.800.20-May-2020 5070.01 2956.69 68.39 7.00 118.80 2678.90
   02:07:07.000.20-May-2020 5070.01 2956.67 68.38 7.00 119.00 2678.90
   02:07:07.200.20-May-2020 5070.01 2956.67 68.38 7.00 119.20 2678.90
   02:07:07.400.20-May-2020 5070.01 2956.69 68.39 7.00 119.40 2678.90
   02:07:07.600.20-May-2020 5070.01 2956.68 68.38 7.00 119.60 2678.90
   02:07:07.800.20-May-2020 5070.01 2956.70 68.39 7.00 119.80 2678.90
   02:07:08.000.20-May-2020 5070.01 2956.67 68.39 7.00 120.00 2678.90
   02:07:08.200.20-May-2020 5070.01 2956.67 68.39 7.00 120.20 2678.90
   02:07:08.400.20-May-2020 5070.01 2956.67 68.39 7.00 120.40 2678.90
   02:07:08.600.20-May-2020 5070.01 2956.69 68.39 7.00 120.60 2678.90
   02:07:08.800.20-May-2020 5070.01 2956.69 68.39 7.00 120.80 2678.90
   02:07:09.000.20-May-2020 5070.01 2956.69 68.39 7.00 121.00 2678.90
   02:07:09.200.20-May-2020 5070.01 2956.69 68.39 7.00 121.20 2678.90
   02:07:09.400.20-May-2020 5070.01 2956.71 68.39 7.00 121.40 2678.90
   02:07:09.600.20-May-2020 5070.01 2956.71 68.39 7.00 121.60 2678.90
   02:07:09.800.20-May-2020 5070.01 2956.72 68.39 7.00 121.80 2678.90
   02:07:10.000.20-May-2020 5070.01 2956.72 68.39 7.00 122.00 2678.90
   02:07:10.200.20-May-2020 5070.01 2956.72 68.39 7.00 122.20 2678.90
   02:07:10.400.20-May-2020 5070.01 2956.72 68.39 7.00 122.40 2678.90
   02:07:10.600.20-May-2020 5070.01 2956.72 68.39 7.00 122.60 2678.90
   02:07:10.800.20-May-2020 5070.01 2956.73 68.39 7.00 122.80 2678.90
   02:07:11.000.20-May-2020 5070.01 2956.74 68.39 7.00 123.00 2678.90
   02:07:11.200.20-May-2020 5070.01 2956.74 68.39 7.00 123.20 2678.90
   02:07:11.400.20-May-2020 5070.01 2956.68 68.39 7.00 123.40 2678.90
   02:07:11.600.20-May-2020 5070.01 2956.68 68.39 7.00 123.60 2678.90
   02:07:11.800.20-May-2020 5070.01 2956.67 68.39 7.00 123.80 2678.90
   02:07:12.000.20-May-2020 5070.01 2956.66 68.39 7.00 124.00 2678.90
   02:07:12.200.20-May-2020 5070.01 2956.66 68.39 7.00 124.20 2678.90
   02:07:12.400.20-May-2020 5070.01 2956.67 68.39 7.00 124.40 2678.90
   02:07:12.600.20-May-2020 5070.01 2956.67 68.39 7.00 124.60 2678.90
   02:07:12.800.20-May-2020 5070.01 2956.66 68.39 7.00 124.80 2678.90
   02:07:13.000.20-May-2020 5070.01 2956.68 68.39 7.00 125.00 2678.90
   02:07:13.200.20-May-2020 5070.01 2956.68 68.39 7.00 125.20 2678.90
   02:07:13.400.20-May-2020 5070.01 2956.67 68.39 7.00 125.40 2678.90
   02:07:13.600.20-May-2020 5070.01 2956.64 68.39 7.00 125.60 2678.90
   02:07:13.800.20-May-2020 5070.01 2956.70 68.39 7.00 125.80 2678.90
   02:07:14.000.20-May-2020 5070.01 2956.64 68.39 7.00 126.00 2678.90
   02:07:14.200.20-May-2020 5070.01 2956.64 68.39 7.00 126.20 2678.90
   02:07:14.400.20-May-2020 5070.01 2956.66 68.39 7.00 126.40 2678.90
   02:07:14.600.20-May-2020 5070.01 2956.66 68.39 7.00 126.60 2678.90
   02:07:14.800.20-May-2020 5070.01 2956.65 68.39 7.00 126.80 2678.90
   02:07:15.000.20-May-2020 5070.01 2956.67 68.39 7.00 127.00 2678.90
   02:07:15.200.20-May-2020 5070.01 2956.67 68.39 7.00 127.20 2678.90
   02:07:15.400.20-May-2020 5070.01 2956.66 68.39 7.00 127.40 2678.90
   02:07:15.600.20-May-2020 5070.01 2956.65 68.39 7.00 127.60 2678.90
   02:07:15.800.20-May-2020 5070.01 2956.67 68.39 7.00 127.80 2678.90
   02:07:16.000.20-May-2020 5070.01 2956.67 68.39 7.00 128.00 2678.90
   02:07:16.200.20-May-2020 5070.01 2956.67 68.39 7.00 128.20 2678.90
   02:07:16.400.20-May-2020 5070.01 2956.68 68.39 7.00 128.40 2678.90
   02:07:16.600.20-May-2020 5070.01 2956.68 68.39 7.00 128.60 2678.90
   02:07:16.800.20-May-2020 5070.01 2956.69 68.39 7.00 128.80 2678.90
   02:07:17.000.20-May-2020 5070.01 2956.69 68.39 7.00 129.00 2678.90
   02:07:17.200.20-May-2020 5070.01 2956.69 68.39 7.00 129.20 2678.90
   02:07:17.400.20-May-2020 5070.01 2956.69 68.39 7.00 129.40 2678.90
   02:07:17.600.20-May-2020 5070.01 2956.69 68.39 7.00 129.60 2678.90
   02:07:17.800.20-May-2020 5070.01 2956.71 68.39 7.00 129.80 2678.90
   02:07:18.000.20-May-2020 5070.01 2956.65 68.39 7.00 130.00 2678.90
   02:07:18.200.20-May-2020 5070.01 2956.66 68.39 7.00 130.20 2678.90
   02:07:18.400.20-May-2020 5070.01 2956.65 68.39 7.00 130.40 2678.90
   02:07:18.600.20-May-2020 5070.01 2956.66 68.39 7.00 130.60 2678.90
   02:07:18.800.20-May-2020 5070.01 2956.66 68.39 7.00 130.80 2678.90
   02:07:19.000.20-May-2020 5070.01 2956.63 68.39 7.00 131.00 2678.90
   02:07:19.200.20-May-2020 5070.01 2956.63 68.39 7.00 131.20 2678.90
   02:07:19.400.20-May-2020 5070.01 2956.66 68.39 7.00 131.40 2678.90
   02:07:19.600.20-May-2020 5070.01 2956.64 68.39 7.00 131.60 2678.90
   02:07:19.800.20-May-2020 5070.01 2956.65 68.39 7.00 131.80 2678.90
   02:07:20.000.20-May-2020 5070.01 2956.64 68.39 7.00 132.00 2678.90
   02:07:20.200.20-May-2020 5070.01 2956.64 68.39 7.00 132.20 2678.90
   02:07:20.400.20-May-2020 5070.01 2956.65 68.39 7.00 132.40 2678.90
   02:07:20.600.20-May-2020 5070.01 2956.63 68.39 7.00 132.60 2678.90
   02:07:20.800.20-May-2020 5070.01 2956.64 68.39 7.00 132.80 2678.90
   02:07:21.000.20-May-2020 5070.01 2956.61 68.39 7.00 133.00 2678.90
   02:07:21.200.20-May-2020 5070.01 2956.61 68.39 7.00 133.20 2678.90
   02:07:21.400.20-May-2020 5070.01 2956.64 68.39 7.00 133.40 2678.90
   02:07:21.600.20-May-2020 5070.01 2956.64 68.39 7.00 133.60 2678.90
   02:07:21.800.20-May-2020 5070.01 2956.64 68.39 7.00 133.80 2678.90
   02:07:22.000.20-May-2020 5070.01 2956.63 68.39 7.00 134.00 2678.90
   02:07:22.200.20-May-2020 5070.01 2956.63 68.39 7.00 134.20 2678.90
   02:07:22.400.20-May-2020 5070.01 2956.64 68.38 7.00 134.40 2678.90
   02:07:22.600.20-May-2020 5070.01 2956.64 68.39 7.00 134.60 2678.90
   02:07:22.800.20-May-2020 5070.01 2956.64 68.38 7.00 134.80 2678.90
   02:07:23.000.20-May-2020 5070.01 2956.64 68.39 7.00 135.00 2678.90
   02:07:23.200.20-May-2020 5070.01 2956.64 68.39 7.00 135.20 2678.90
   02:07:23.400.20-May-2020 5070.01 2956.64 68.39 7.00 135.40 2678.90
   02:07:23.600.20-May-2020 5070.01 2956.66 68.38 7.00 135.60 2678.90
   02:07:23.800.20-May-2020 5070.01 2956.66 68.39 7.00 135.80 2678.90
   02:07:24.000.20-May-2020 5070.01 2956.65 68.38 7.00 136.00 2678.90
   02:07:24.200.20-May-2020 5070.01 2956.65 68.38 7.00 136.20 2678.90
   02:07:24.400.20-May-2020 5070.01 2956.66 68.38 7.00 136.40 2678.90
   02:07:24.600.20-May-2020 5070.01 2956.67 68.38 7.00 136.60 2678.90
   02:07:24.800.20-May-2020 5070.01 2956.67 68.39 7.00 136.80 2678.90
   02:07:25.000.20-May-2020 5070.01 2956.65 68.38 7.00 137.00 2678.90
   02:07:25.200.20-May-2020 5070.01 2956.65 68.38 7.00 137.20 2678.90
   02:07:25.400.20-May-2020 5070.01 2956.63 68.38 7.00 137.40 2678.90
   02:07:25.600.20-May-2020 5070.01 2956.60 68.38 7.00 137.60 2678.90
   02:07:25.800.20-May-2020 5070.01 2956.67 68.38 7.00 137.80 2678.90
