~Version Information
 VERS.                  2.0:   CWLS log ASCII Standard -VERSION 2.0
 WRAP.                   NO:   One line per depth step
~Well Information Block
#MNEM.UNIT     VALUE/NAME     DESCRIPTION
#---------     -----------    ---------------------------
 STRT.S             06:41:15 20-May-20: START TIME 06:41:15 20-May-20
 STOP.S             06:51:49 20-May-20: STOP TIME  06:51:49 20-May-20
 STEP.S                   0.00: STEP TIME
 NULL.                 -999.25: NULL VALUE
 MDS .        Operator Entered:  MAG DATA SOURCE
 PDAT.          Mean Sea Level:  PERMANENT DATUM
 UNIT.                     N/A:  LOGGING EQUIPMENT ID
 DCON.         Sperry Drilling:  DIRECTNL CONTR
 DOE .                     N/A:  DOE NUMBER
 RIG .              East Azeri:  RIG NAME
 JOBN.        AZ-XX-0905856059:  JOB TICKET NUMB
 WELL.                     D36:  WELL NAME
 MWDS.                    Baku:  MWD SHOP
 SRVC.     Turan Drilling & Engineering:  CONTRACTOR
 FLD .                     ACG:  FIELD NAME
 CTRY.              Azerbaijan:  COUNTRY NAME
 PROV.                    Baku:  PROVINCE
 STAT.                    Baku:  STATE NAME
 REGN.                   EESSA:  REGION
 BASE.              Azerbaijan:  LOGGING EQUIPMENT BASE LOCATION
 UWI .                     N/A:  UNIQUE WELL IDENTIFIER
 API .                     N/A:  API NUMBER
 COMP.     BP Exploration (Caspian Sea) Ltd.:  COMPANY
 WTYP.                Deviated:  WELL TYPE
 SON .        AZ-XX-0905856059:  JOB NUMBER
 FTOP.          Formation Tops:  FORM TOPS DESC
 ILTD.               Lithology:  INTERP LTH DESC
 SVYD.                  Survey:  SURVEY DESC
 DMOD.             Drill Model:  DRILL MOD DESC
 HPTY.       Minimum Curvature:  HOLE POS TYPE
 NREF.                    Grid:  NORTH REFERENCE
 SPUD.               25-Feb-20:  SPUD DATE
 DATE.      08.55.28 01-May-20:  END TIME
 STIM.      08.55.28 25-Feb-20:  START TIME
 DMF .             Drill Floor:  DRILL MEAS FROM
 DFST.                        :  DIST FSL TEXT
 DFWT.                        :  DIST FWL TEXT
 CNTY.                        :  COUNTY
 LOC .                        :  LOCATION
 LMF .             Drill Floor:  LOG MEASURED FROM
 VSNS.m                   6.09:  VERT SEC N/S
 VSEW.m                 -10.79:  VERT SEC E/W
 AGAP.m                  43.60:  AIR GAP
 DEP .m                 388.24:  DEPTH
 APD .m                  43.60:  DEPTH ABOVE PD
 WDMS.m                 151.80:  WD ELEV
 EGL .m                   0.00:  GROUND ELEVATION
 EPD .m                   0.00:  ELEVATION
 AZTC.deg                 6.12:  AZM TOTAL CORR
 GRDC.deg                 0.30:  GRID CORRECTION
 MDEC.deg                 6.42:  MAGNETIC DECL
 MDIP.deg                59.42:  MAGNETIC DIP
 MFLD.nT              50256.00:  MAGNETIC FIELD
 GVFD.g                   1.00:  GRAVITY FIELD
 VSDR.deg               159.57:  VERT SEC DIRECT
 TDD .m                5000.01:  TOTAL DEPTH (DRILLER)
 SDEP.m                 397.00:  START DEPTH
 DFSL.m                   0.00:  DISTANCE FSL
 DFWL.m                   0.00:  DISTANCE FWL
 UTMY.m             4431880.20:  UTM Y
 UTMX.m              538763.98:  UTM X
 WHEW.m                 -10.79:  WELL HEAD E/W
 WHNS.m                   6.09:  WELL HEAD N/S
 LONG.deg                51.45:  LONGITUDE
 LATI.deg                40.02:  LATITUDE
 TVDS.m                  43.60:  TVDSS CORRECTN
 EKB .m                  43.60:  KB ELEVATION
 EDF .m                  43.60:  DF ELEVATION
 MAGU.                 1847640:  MAGUTM CHECKSUM
 VSC .                       0:  VS TO CLOSURE
~Parameter Information Block
#MNEM.UNIT       Value        Description
#---------     -----------    ---------------------------
 AV  .mps                 1.30:  Ann Velocity 
 AVMX.mps                 1.90:  Max Ann Veloc 
 AZIF.deg               115.68:  Azm, Final 
 BHAT.                   Other:  BHA Type 
 BROT.°/30m               0.74:  Build Rotating 
 BS  .in                  8.50:  Bit Size 
 BTPL.psig              430.00:  Bit Press Loss 
 CABU.                      No:  Customer Abuse 
 COMM.                     œÿv:  Run Comments 1 
 TCS .hr                 51.31:  Time Ciculation Ended 
 CV  .mps                 2.52:  Crit Velocity 
 CVMX.mps                 2.62:  Max Crit Veloc 
 DD1 .          Teymur Aghayev:  Direct Drillr 1 
 DDSV.                   Other:  DD Service 
 DEFF.%                 100.00:  % Det Eff 
 DLRX.°/30m               1.62:  Dogleg Rot Max 
 DLSO.°/30m               0.74:  Dogleg Oriented 
 DLSX.°/30m               1.62:  Dogleg Str Max 
 DRET.      04.30.56 18-May-20:  Drill End Time 
 DRST.      04.30.56 18-May-20:  Drill Start Tim 
 DTIM.hr                  0.00:  Time Drilling 
 EDEP.m                5337.01:  End Depth 
 ENG1.      Artemiy Matviyanov:  Engineer 1 
 ENG2.      Bakhtiyar Jabbarli:  Engineer 2 
 ENG3.           Emil Huseynov:  Engineer 3 
 ETIM.      18.40.00 22-May-20:  End Time 
 FLOI.gpm               550.00:  Flow In 
 FLON.gpm               350.00:  Flow In Min 
 FLOS.cptm                0.00:  Fluid Loss 
 FLOX.gpm               600.00:  Flow In Max 
 HFLO.                      No:  High Flow 
 HPRE.                      No:  High Pressure 
 HTEM.                      No:  High Temp 
 HYDO.m                   1.80:  Hydro Offset 
 IFIN.deg                67.01:  Inc, Final 
 IMAX.deg                67.49:  Inc Max 
 IMIN.deg                66.50:  Inc Min 
 IMND.m                5144.79:  Inc Min Depth 
 IMXD.m                5116.12:  Inc Max Depth 
 JARR.                      No:  Jarring 
 LETM.      17.55.56 20-May-20:  Log End Time 
 LOST.hr                     0:  Lost Rig Time 
 LSTM.      04.30.56 18-May-20:  Log Start Time 
 MDCL.ppm            193153.00:  Mud Chlorides 
 MDES.     Inversion Oil/Synthetic:  Mud Desc 
 DFD .sg                  1.40:  Mud Density 
 MDMN.sg                  1.40:  Dens Mud Min 
 MDMX.sg                  1.41:  Dens Mud Max 
 MOIL.                      68:  Run Mud Oil % 
 MOWR.                   68:32:  Run Mud OWR 
 MSND.                     0.2:  Run Mud Sand % 
 MSOL.                    18.8:  Run Mud Solids% 
 DFV .spqt               80.00:  Mud Viscosity 
 MWOD.in                  6.75:  MWD Tool OD 
 MWSI.                      No:  Serv Intrp, MWD 
 OTIM.hr                104.84:  Time Operating 
 PMAX.psia            10690.93:  Press Op, Max 
 PV  .cP                 26.00:  Mud PV 
 RUN .                     900:  Run Number 
 ROPA.m/hr                0.00:  ROP Avg 
 ROPN.m/hr                0.00:  ROP Min 
 ROPX.m/hr                0.00:  ROP Max 
 RPMA.rpm               140.00:  RPM Surface Avg 
 RPMN.rpm                70.00:  RPM Surface Min 
 RPMX.rpm               140.00:  RPM Surface Max 
 RRUN.                    0900:  Rig Run Number 
 RTIM.hr                 36.00:  Time Reaming 
 SAZI.deg               115.72:  Azm, Start 
 SDEP.m                5337.01:  Start Depth 
 SIDD.                      No:  Serv Intrp, DD 
 SINC.deg                66.92:  Inc, Start 
 SPPA.psig             4400.00:  SPP Avg 
 SPPN.psig             1135.00:  SPP Min 
 SPPX.psig             4581.00:  SPP Max 
 STIM.      04.30.56 18-May-20:  Start Time 
 SVCS.                     MWD:  Services 
 SVER.                    9.20:  Sperry Version 
 TDAT.m                5337.01:  Tot Depth Attmp 
 TDDF.                      No:  Trip for DD 
 TFF .                      No:  Trip for Fail 
 TQAA.f-kp               23.00:  Torque Abs Avg 
 TQAN.f-kp               18.00:  Torque Abs Min 
 TQAX.f-kp               25.00:  Torque Abs Max 
 TRRT.°/30m               0.74:  Turn Rotating 
 MRT .                    HCIM:  Maximum Recorded Temperature 
 TTMX.degC               76.47:  Max Tool Temp 
 WBMN.klb                 0.00:  WOB Min 
 WITN.             Anar Khalil:  Customer Rep 
 WITN.      Kamran Keberlinski:  Customer Rep 2 
 WOBA.klb                 0.00:  WOB Avg 
 WOBX.klb                 0.00:  WOB Max 
 YP  .lhf2               27.00:  Yield Point 
~Curve Information Block
#MNEM.UNIT                 API CODE     Curve Description
#---------               -----------    ---------------------------
 TIME.HHMMSS            00 000 000 000:  GT Time & Date
 GTDEPTH.m              00 000 000 000:  GT Depth
 GTPQH.psia             00 000 000 000:  GT HR Quartz Pressure
 GTTQ.degC              00 000 000 000:  GT Quartz Temperature
 GTTN.NONE              00 000 000 000:  GT Test Number
 GTET.sec               00 000 000 000:  GT Elapsed Test Time
 GTTVD.m                00 000 000 000:  GT True Vertical Depth
#Other Information
#
#WARRANTY: Halliburton will use its best efforts to furnish customers with 
#accurate information and interpretations that are part of, and incident to, the services 
#provided.  However, Halliburton cannot and does not warrant the accuracy 
#or correctness of such information and interpretations.  Under no circumstances should any 
#such information or interpretation be relied upon as the sole basis for any drilling, 
#completion, production, or financial decision or any procedure involving any risk to the 
#safety of any drilling venture, drilling rig or its crew or any other third party.  The 
#Customer has full responsibility for all drilling, completion and production operation.  
#Halliburton makes no representations or warranties, either expressed or 
#implied, including, but not limited to, the implied warranties of merchantability or fitness 
#for a particular purpose, with respect to the services rendered.  In no event will 
#Halliburton be liable for failure to obtain any particular results or for 
#any damages, including, but not limited to, indirect, special or consequential damages, 
#resulting from the use of any information or interpretation provided by Halliburton.
#
~A           TIME           GTDEPTH  GTPQH  GTTQ  GTTN   GTET   GTTVD  
   06:41:15.921.20-May-2020 5012.01 6284.52 68.20 10.00   0.00 2656.39
   06:41:16.121.20-May-2020 5012.01 6284.52 68.20 10.00   0.20 2656.39
   06:41:16.321.20-May-2020 5012.01 6286.26 68.20 10.00   0.40 2656.39
   06:41:16.521.20-May-2020 5012.01 6288.37 68.20 10.00   0.60 2656.39
   06:41:16.721.20-May-2020 5012.01 6286.52 68.20 10.00   0.80 2656.39
   06:41:16.921.20-May-2020 5012.01 6285.56 68.20 10.00   1.00 2656.39
   06:41:17.121.20-May-2020 5012.01 6285.56 68.20 10.00   1.20 2656.39
   06:41:17.321.20-May-2020 5012.01 6287.46 68.20 10.00   1.40 2656.39
   06:41:17.521.20-May-2020 5012.01 6287.22 68.20 10.00   1.60 2656.39
   06:41:17.721.20-May-2020 5012.01 6291.35 68.20 10.00   1.80 2656.39
   06:41:17.921.20-May-2020 5012.01 6287.26 68.20 10.00   2.00 2656.39
   06:41:18.121.20-May-2020 5012.01 6287.26 68.20 10.00   2.20 2656.39
   06:41:18.321.20-May-2020 5012.01 6288.91 68.20 10.00   2.40 2656.39
   06:41:18.521.20-May-2020 5012.01 6292.43 68.20 10.00   2.60 2656.39
   06:41:18.722.20-May-2020 5012.01 6294.77 68.20 10.00   2.80 2656.39
   06:41:18.922.20-May-2020 5012.01 6291.64 68.20 10.00   3.00 2656.39
   06:41:19.122.20-May-2020 5012.01 6291.64 68.20 10.00   3.20 2656.39
   06:41:19.322.20-May-2020 5012.01 6293.58 68.20 10.00   3.40 2656.39
   06:41:19.522.20-May-2020 5012.01 6295.05 68.20 10.00   3.60 2656.39
   06:41:19.722.20-May-2020 5012.01 6299.09 68.20 10.00   3.80 2656.39
   06:41:19.922.20-May-2020 5012.01 6293.66 68.20 10.00   4.00 2656.39
   06:41:20.122.20-May-2020 5012.01 6293.66 68.20 10.00   4.20 2656.39
   06:41:20.322.20-May-2020 5012.01 6295.01 68.20 10.00   4.40 2656.39
   06:41:20.522.20-May-2020 5012.01 6302.36 68.20 10.00   4.60 2656.39
   06:41:20.722.20-May-2020 5012.01 6294.58 68.20 10.00   4.80 2656.39
   06:41:20.922.20-May-2020 5012.01 6297.80 68.20 10.00   5.00 2656.39
   06:41:21.122.20-May-2020 5012.01 6297.80 68.20 10.00   5.20 2656.39
   06:41:21.322.20-May-2020 5012.01 6301.98 68.20 10.00   5.40 2656.39
   06:41:21.522.20-May-2020 5012.01 6299.57 68.20 10.00   5.60 2656.39
   06:41:21.722.20-May-2020 5012.01 6299.43 68.20 10.00   5.80 2656.39
   06:41:21.922.20-May-2020 5012.01 6298.77 68.19 10.00   6.00 2656.39
   06:41:22.123.20-May-2020 5012.01 6301.16 68.19 10.00   6.20 2656.39
   06:41:22.323.20-May-2020 5012.01 6299.88 68.20 10.00   6.40 2656.39
   06:41:22.523.20-May-2020 5012.01 6305.79 68.19 10.00   6.60 2656.39
   06:41:22.723.20-May-2020 5012.01 6300.88 68.19 10.00   6.80 2656.39
   06:41:22.923.20-May-2020 5012.01 6301.37 68.19 10.00   7.00 2656.39
   06:41:23.123.20-May-2020 5012.01 6301.37 68.19 10.00   7.20 2656.39
   06:41:23.323.20-May-2020 5012.01 6303.65 68.19 10.00   7.40 2656.39
   06:41:23.523.20-May-2020 5012.01 6305.27 68.19 10.00   7.60 2656.39
   06:41:23.723.20-May-2020 5012.01 6302.63 68.19 10.00   7.80 2656.39
   06:41:23.923.20-May-2020 5012.01 6312.93 68.19 10.00   8.00 2656.39
   06:41:24.123.20-May-2020 5012.01 6312.93 68.19 10.00   8.20 2656.39
   06:41:24.323.20-May-2020 5012.01 6304.63 68.19 10.00   8.40 2656.39
   06:41:24.523.20-May-2020 5012.01 6307.28 68.19 10.00   8.60 2656.39
   06:41:24.723.20-May-2020 5012.01 6312.57 68.19 10.00   8.80 2656.39
   06:41:24.923.20-May-2020 5012.01 6307.36 68.19 10.00   9.00 2656.39
   06:41:25.123.20-May-2020 5012.01 6307.36 68.19 10.00   9.20 2656.39
   06:41:25.323.20-May-2020 5012.01 6307.36 68.19 10.00   9.40 2656.39
   06:41:25.523.20-May-2020 5012.01 6313.28 68.19 10.00   9.60 2656.39
   06:41:25.724.20-May-2020 5012.01 6309.46 68.19 10.00   9.80 2656.39
   06:41:25.924.20-May-2020 5012.01 6307.50 68.19 10.00  10.00 2656.39
   06:41:26.124.20-May-2020 5012.01 6310.43 68.19 10.00  10.20 2656.39
   06:41:26.324.20-May-2020 5012.01 6311.68 68.19 10.00  10.40 2656.39
   06:41:26.524.20-May-2020 5012.01 6311.02 68.19 10.00  10.60 2656.39
   06:41:26.724.20-May-2020 5012.01 6310.07 68.19 10.00  10.80 2656.39
   06:41:26.924.20-May-2020 5012.01 6310.82 68.19 10.00  11.00 2656.39
   06:41:27.124.20-May-2020 5012.01 6310.82 68.19 10.00  11.20 2656.39
   06:41:27.324.20-May-2020 5012.01 6311.98 68.19 10.00  11.40 2656.39
   06:41:27.524.20-May-2020 5012.01 6312.01 68.19 10.00  11.60 2656.39
   06:41:27.724.20-May-2020 5012.01 6312.19 68.19 10.00  11.80 2656.39
   06:41:27.924.20-May-2020 5012.01 6312.41 68.19 10.00  12.00 2656.39
   06:41:28.124.20-May-2020 5012.01 6312.41 68.19 10.00  12.20 2656.39
   06:41:28.324.20-May-2020 5012.01 6311.96 68.19 10.00  12.40 2656.39
   06:41:28.524.20-May-2020 5012.01 6312.39 68.19 10.00  12.60 2656.39
   06:41:28.724.20-May-2020 5012.01 6313.73 68.19 10.00  12.80 2656.39
   06:41:28.924.20-May-2020 5012.01 6316.35 68.19 10.00  13.00 2656.39
   06:41:29.124.20-May-2020 5012.01 6316.35 68.19 10.00  13.20 2656.39
   06:41:29.325.20-May-2020 5012.01 6314.76 68.19 10.00  13.40 2656.39
   06:41:29.525.20-May-2020 5012.01 6315.65 68.19 10.00  13.60 2656.39
   06:41:29.725.20-May-2020 5012.01 6316.06 68.19 10.00  13.80 2656.39
   06:41:29.925.20-May-2020 5012.01 6316.29 68.19 10.00  14.00 2656.39
   06:41:30.125.20-May-2020 5012.01 6316.89 68.19 10.00  14.20 2656.39
   06:41:30.325.20-May-2020 5012.01 6316.96 68.19 10.00  14.40 2656.39
   06:41:30.525.20-May-2020 5012.01 6317.16 68.19 10.00  14.60 2656.39
   06:41:30.725.20-May-2020 5012.01 6317.56 68.19 10.00  14.80 2656.39
   06:41:30.925.20-May-2020 5012.01 6317.70 68.19 10.00  15.00 2656.39
   06:41:31.125.20-May-2020 5012.01 6317.70 68.19 10.00  15.20 2656.39
   06:41:31.325.20-May-2020 5012.01 6317.60 68.19 10.00  15.40 2656.39
   06:41:31.525.20-May-2020 5012.01 6317.69 68.19 10.00  15.60 2656.39
   06:41:31.725.20-May-2020 5012.01 6319.09 68.19 10.00  15.80 2656.39
   06:41:31.925.20-May-2020 5012.01 6328.62 68.19 10.00  16.00 2656.39
   06:41:32.125.20-May-2020 5012.01 6328.62 68.19 10.00  16.20 2656.39
   06:41:32.325.20-May-2020 5012.01 6320.11 68.19 10.00  16.40 2656.39
   06:41:32.525.20-May-2020 5012.01 6321.62 68.19 10.00  16.60 2656.39
   06:41:32.726.20-May-2020 5012.01 6329.68 68.19 10.00  16.80 2656.39
   06:41:32.926.20-May-2020 5012.01 6321.58 68.19 10.00  17.00 2656.39
   06:41:33.126.20-May-2020 5012.01 6321.58 68.19 10.00  17.20 2656.39
   06:41:33.326.20-May-2020 5012.01 6325.30 68.19 10.00  17.40 2656.39
   06:41:33.526.20-May-2020 5012.01 6328.97 68.19 10.00  17.60 2656.39
   06:41:33.726.20-May-2020 5012.01 6325.32 68.19 10.00  17.81 2656.39
   06:41:33.926.20-May-2020 5012.01 6323.46 68.19 10.00  18.01 2656.39
   06:41:34.126.20-May-2020 5012.01 6332.12 68.19 10.00  18.21 2656.39
   06:41:34.326.20-May-2020 5012.01 6325.05 68.19 10.00  18.41 2656.39
   06:41:34.526.20-May-2020 5012.01 6327.44 68.19 10.00  18.61 2656.39
   06:41:34.726.20-May-2020 5012.01 6325.42 68.19 10.00  18.81 2656.39
   06:41:34.926.20-May-2020 5012.01 6330.51 68.19 10.00  19.01 2656.39
   06:41:35.126.20-May-2020 5012.01 6330.51 68.19 10.00  19.21 2656.39
   06:41:35.326.20-May-2020 5012.01 6327.06 68.19 10.00  19.41 2656.39
   06:41:35.526.20-May-2020 5012.01 6327.67 68.19 10.00  19.61 2656.39
   06:41:35.726.20-May-2020 5012.01 6328.63 68.19 10.00  19.81 2656.39
   06:41:35.926.20-May-2020 5012.01 6327.92 68.19 10.00  20.01 2656.39
   06:41:36.126.20-May-2020 5012.01 6327.92 68.19 10.00  20.21 2656.39
   06:41:36.327.20-May-2020 5012.01 6328.51 68.19 10.00  20.41 2656.39
   06:41:36.527.20-May-2020 5012.01 6328.89 68.19 10.00  20.61 2656.39
   06:41:36.727.20-May-2020 5012.01 6329.35 68.19 10.00  20.81 2656.39
   06:41:36.927.20-May-2020 5012.01 6329.18 68.19 10.00  21.01 2656.39
   06:41:37.127.20-May-2020 5012.01 6329.18 68.19 10.00  21.21 2656.39
   06:41:37.327.20-May-2020 5012.01 6332.25 68.19 10.00  21.41 2656.39
   06:41:37.527.20-May-2020 5012.01 6330.80 68.19 10.00  21.61 2656.39
   06:41:37.727.20-May-2020 5012.01 6329.92 68.19 10.00  21.81 2656.39
   06:41:37.927.20-May-2020 5012.01 6331.54 68.19 10.00  22.01 2656.39
   06:41:38.127.20-May-2020 5012.01 6331.54 68.19 10.00  22.21 2656.39
   06:41:38.327.20-May-2020 5012.01 6330.71 68.19 10.00  22.41 2656.39
