~Version Information
 VERS.                  2.0:   CWLS log ASCII Standard -VERSION 2.0
 WRAP.                   NO:   One line per depth step
~Well Information Block
#MNEM.UNIT     VALUE/NAME     DESCRIPTION
#---------     -----------    ---------------------------
 STRT.S             00:06:39 20-May-20: START TIME 00:06:39 20-May-20
 STOP.S             00:17:12 20-May-20: STOP TIME  00:17:12 20-May-20
 STEP.S                   0.00: STEP TIME
 NULL.                 -999.25: NULL VALUE
 MDS .        Operator Entered:  MAG DATA SOURCE
 PDAT.          Mean Sea Level:  PERMANENT DATUM
 UNIT.                     N/A:  LOGGING EQUIPMENT ID
 DCON.         Sperry Drilling:  DIRECTNL CONTR
 DOE .                     N/A:  DOE NUMBER
 RIG .              East Azeri:  RIG NAME
 JOBN.        AZ-XX-0905856059:  JOB TICKET NUMB
 WELL.                     D36:  WELL NAME
 MWDS.                    Baku:  MWD SHOP
 SRVC.     Turan Drilling & Engineering:  CONTRACTOR
 FLD .                     ACG:  FIELD NAME
 CTRY.              Azerbaijan:  COUNTRY NAME
 PROV.                    Baku:  PROVINCE
 STAT.                    Baku:  STATE NAME
 REGN.                   EESSA:  REGION
 BASE.              Azerbaijan:  LOGGING EQUIPMENT BASE LOCATION
 UWI .                     N/A:  UNIQUE WELL IDENTIFIER
 API .                     N/A:  API NUMBER
 COMP.     BP Exploration (Caspian Sea) Ltd.:  COMPANY
 WTYP.                Deviated:  WELL TYPE
 SON .        AZ-XX-0905856059:  JOB NUMBER
 FTOP.          Formation Tops:  FORM TOPS DESC
 ILTD.               Lithology:  INTERP LTH DESC
 SVYD.                  Survey:  SURVEY DESC
 DMOD.             Drill Model:  DRILL MOD DESC
 HPTY.       Minimum Curvature:  HOLE POS TYPE
 NREF.                    Grid:  NORTH REFERENCE
 SPUD.               25-Feb-20:  SPUD DATE
 DATE.      08.55.28 01-May-20:  END TIME
 STIM.      08.55.28 25-Feb-20:  START TIME
 DMF .             Drill Floor:  DRILL MEAS FROM
 DFST.                        :  DIST FSL TEXT
 DFWT.                        :  DIST FWL TEXT
 CNTY.                        :  COUNTY
 LOC .                        :  LOCATION
 LMF .             Drill Floor:  LOG MEASURED FROM
 VSNS.m                   6.09:  VERT SEC N/S
 VSEW.m                 -10.79:  VERT SEC E/W
 AGAP.m                  43.60:  AIR GAP
 DEP .m                 388.24:  DEPTH
 APD .m                  43.60:  DEPTH ABOVE PD
 WDMS.m                 151.80:  WD ELEV
 EGL .m                   0.00:  GROUND ELEVATION
 EPD .m                   0.00:  ELEVATION
 AZTC.deg                 6.12:  AZM TOTAL CORR
 GRDC.deg                 0.30:  GRID CORRECTION
 MDEC.deg                 6.42:  MAGNETIC DECL
 MDIP.deg                59.42:  MAGNETIC DIP
 MFLD.nT              50256.00:  MAGNETIC FIELD
 GVFD.g                   1.00:  GRAVITY FIELD
 VSDR.deg               159.57:  VERT SEC DIRECT
 TDD .m                5000.01:  TOTAL DEPTH (DRILLER)
 SDEP.m                 397.00:  START DEPTH
 DFSL.m                   0.00:  DISTANCE FSL
 DFWL.m                   0.00:  DISTANCE FWL
 UTMY.m             4431880.20:  UTM Y
 UTMX.m              538763.98:  UTM X
 WHEW.m                 -10.79:  WELL HEAD E/W
 WHNS.m                   6.09:  WELL HEAD N/S
 LONG.deg                51.45:  LONGITUDE
 LATI.deg                40.02:  LATITUDE
 TVDS.m                  43.60:  TVDSS CORRECTN
 EKB .m                  43.60:  KB ELEVATION
 EDF .m                  43.60:  DF ELEVATION
 MAGU.                 1847640:  MAGUTM CHECKSUM
 VSC .                       0:  VS TO CLOSURE
~Parameter Information Block
#MNEM.UNIT       Value        Description
#---------     -----------    ---------------------------
 AV  .mps                 1.30:  Ann Velocity 
 AVMX.mps                 1.90:  Max Ann Veloc 
 AZIF.deg               115.68:  Azm, Final 
 BHAT.                   Other:  BHA Type 
 BROT.°/30m               0.74:  Build Rotating 
 BS  .in                  8.50:  Bit Size 
 BTPL.psig              430.00:  Bit Press Loss 
 CABU.                      No:  Customer Abuse 
 COMM.                     \õd:  Run Comments 1 
 TCS .hr                 51.31:  Time Ciculation Ended 
 CV  .mps                 2.52:  Crit Velocity 
 CVMX.mps                 2.62:  Max Crit Veloc 
 DD1 .          Teymur Aghayev:  Direct Drillr 1 
 DDSV.                   Other:  DD Service 
 DEFF.%                 100.00:  % Det Eff 
 DLRX.°/30m               1.62:  Dogleg Rot Max 
 DLSO.°/30m               0.74:  Dogleg Oriented 
 DLSX.°/30m               1.62:  Dogleg Str Max 
 DRET.      04.30.56 18-May-20:  Drill End Time 
 DRST.      04.30.56 18-May-20:  Drill Start Tim 
 DTIM.hr                  0.00:  Time Drilling 
 EDEP.m                5337.01:  End Depth 
 ENG1.      Artemiy Matviyanov:  Engineer 1 
 ENG2.      Bakhtiyar Jabbarli:  Engineer 2 
 ENG3.           Emil Huseynov:  Engineer 3 
 ETIM.      18.40.00 22-May-20:  End Time 
 FLOI.gpm               550.00:  Flow In 
 FLON.gpm               350.00:  Flow In Min 
 FLOS.cptm                0.00:  Fluid Loss 
 FLOX.gpm               600.00:  Flow In Max 
 HFLO.                      No:  High Flow 
 HPRE.                      No:  High Pressure 
 HTEM.                      No:  High Temp 
 HYDO.m                   1.80:  Hydro Offset 
 IFIN.deg                67.01:  Inc, Final 
 IMAX.deg                67.49:  Inc Max 
 IMIN.deg                66.50:  Inc Min 
 IMND.m                5144.79:  Inc Min Depth 
 IMXD.m                5116.12:  Inc Max Depth 
 JARR.                      No:  Jarring 
 LETM.      17.55.56 20-May-20:  Log End Time 
 LOST.hr                     0:  Lost Rig Time 
 LSTM.      04.30.56 18-May-20:  Log Start Time 
 MDCL.ppm            193153.00:  Mud Chlorides 
 MDES.     Inversion Oil/Synthetic:  Mud Desc 
 DFD .sg                  1.40:  Mud Density 
 MDMN.sg                  1.40:  Dens Mud Min 
 MDMX.sg                  1.41:  Dens Mud Max 
 MOIL.                      68:  Run Mud Oil % 
 MOWR.                   68:32:  Run Mud OWR 
 MSND.                     0.2:  Run Mud Sand % 
 MSOL.                    18.8:  Run Mud Solids% 
 DFV .spqt               80.00:  Mud Viscosity 
 MWOD.in                  6.75:  MWD Tool OD 
 MWSI.                      No:  Serv Intrp, MWD 
 OTIM.hr                104.84:  Time Operating 
 PMAX.psia            10690.93:  Press Op, Max 
 PV  .cP                 26.00:  Mud PV 
 RUN .                     900:  Run Number 
 ROPA.m/hr                0.00:  ROP Avg 
 ROPN.m/hr                0.00:  ROP Min 
 ROPX.m/hr                0.00:  ROP Max 
 RPMA.rpm               140.00:  RPM Surface Avg 
 RPMN.rpm                70.00:  RPM Surface Min 
 RPMX.rpm               140.00:  RPM Surface Max 
 RRUN.                    0900:  Rig Run Number 
 RTIM.hr                 36.00:  Time Reaming 
 SAZI.deg               115.72:  Azm, Start 
 SDEP.m                5337.01:  Start Depth 
 SIDD.                      No:  Serv Intrp, DD 
 SINC.deg                66.92:  Inc, Start 
 SPPA.psig             4400.00:  SPP Avg 
 SPPN.psig             1135.00:  SPP Min 
 SPPX.psig             4581.00:  SPP Max 
 STIM.      04.30.56 18-May-20:  Start Time 
 SVCS.                     MWD:  Services 
 SVER.                    9.20:  Sperry Version 
 TDAT.m                5337.01:  Tot Depth Attmp 
 TDDF.                      No:  Trip for DD 
 TFF .                      No:  Trip for Fail 
 TQAA.f-kp               23.00:  Torque Abs Avg 
 TQAN.f-kp               18.00:  Torque Abs Min 
 TQAX.f-kp               25.00:  Torque Abs Max 
 TRRT.°/30m               0.74:  Turn Rotating 
 MRT .                    HCIM:  Maximum Recorded Temperature 
 TTMX.degC               76.47:  Max Tool Temp 
 WBMN.klb                 0.00:  WOB Min 
 WITN.             Anar Khalil:  Customer Rep 
 WITN.      Kamran Keberlinski:  Customer Rep 2 
 WOBA.klb                 0.00:  WOB Avg 
 WOBX.klb                 0.00:  WOB Max 
 YP  .lhf2               27.00:  Yield Point 
~Curve Information Block
#MNEM.UNIT                 API CODE     Curve Description
#---------               -----------    ---------------------------
 TIME.HHMMSS            00 000 000 000:  GT Time & Date
 GTDEPTH.m              00 000 000 000:  GT Depth
 GTPQH.psia             00 000 000 000:  GT HR Quartz Pressure
 GTTQ.degC              00 000 000 000:  GT Quartz Temperature
 GTTN.NONE              00 000 000 000:  GT Test Number
 GTET.sec               00 000 000 000:  GT Elapsed Test Time
 GTTVD.m                00 000 000 000:  GT True Vertical Depth
#Other Information
#
#WARRANTY: Halliburton will use its best efforts to furnish customers with 
#accurate information and interpretations that are part of, and incident to, the services 
#provided.  However, Halliburton cannot and does not warrant the accuracy 
#or correctness of such information and interpretations.  Under no circumstances should any 
#such information or interpretation be relied upon as the sole basis for any drilling, 
#completion, production, or financial decision or any procedure involving any risk to the 
#safety of any drilling venture, drilling rig or its crew or any other third party.  The 
#Customer has full responsibility for all drilling, completion and production operation.  
#Halliburton makes no representations or warranties, either expressed or 
#implied, including, but not limited to, the implied warranties of merchantability or fitness 
#for a particular purpose, with respect to the services rendered.  In no event will 
#Halliburton be liable for failure to obtain any particular results or for 
#any damages, including, but not limited to, indirect, special or consequential damages, 
#resulting from the use of any information or interpretation provided by Halliburton.
#
~A           TIME           GTDEPTH  GTPQH  GTTQ  GTTN  GTET   GTTVD  
# ...
   00:10:52.593.20-May-2020 5121.01 3549.17 67.86 6.00 253.06 2698.81
   00:10:52.793.20-May-2020 5121.01 3549.17 67.86 6.00 253.26 2698.81
   00:10:52.993.20-May-2020 5121.01 3549.07 67.86 6.00 253.46 2698.81
   00:10:53.193.20-May-2020 5121.01 3549.17 67.86 6.00 253.66 2698.81
   00:10:53.393.20-May-2020 5121.01 3549.44 67.86 6.00 253.86 2698.81
   00:10:53.593.20-May-2020 5121.01 3547.83 67.86 6.00 254.06 2698.81
   00:10:53.793.20-May-2020 5121.01 3547.83 67.86 6.00 254.26 2698.81
   00:10:53.993.20-May-2020 5121.01 3549.62 67.86 6.00 254.46 2698.81
   00:10:54.193.20-May-2020 5121.01 3550.10 67.86 6.00 254.66 2698.81
   00:10:54.393.20-May-2020 5121.01 3548.52 67.86 6.00 254.86 2698.81
   00:10:54.593.20-May-2020 5121.01 3549.77 67.86 6.00 255.06 2698.81
   00:10:54.793.20-May-2020 5121.01 3549.77 67.86 6.00 255.26 2698.81
   00:10:54.993.20-May-2020 5121.01 3548.98 67.86 6.00 255.46 2698.81
   00:10:55.193.20-May-2020 5121.01 3548.97 67.86 6.00 255.66 2698.81
   00:10:55.393.20-May-2020 5121.01 3549.11 67.86 6.00 255.86 2698.81
   00:10:55.594.20-May-2020 5121.01 3548.81 67.86 6.00 256.06 2698.81
   00:10:55.794.20-May-2020 5121.01 3548.81 67.86 6.00 256.26 2698.81
   00:10:55.994.20-May-2020 5121.01 3549.81 67.86 6.00 256.46 2698.81
   00:10:56.194.20-May-2020 5121.01 3550.17 67.86 6.00 256.66 2698.81
   00:10:56.394.20-May-2020 5121.01 3549.72 67.86 6.00 256.86 2698.81
   00:10:56.594.20-May-2020 5121.01 3550.42 67.86 6.00 257.06 2698.81
   00:10:56.794.20-May-2020 5121.01 3550.42 67.86 6.00 257.26 2698.81
   00:10:56.994.20-May-2020 5121.01 3549.95 67.86 6.00 257.46 2698.81
   00:10:57.194.20-May-2020 5121.01 3548.92 67.86 6.00 257.66 2698.81
   00:10:57.394.20-May-2020 5121.01 3549.35 67.86 6.00 257.86 2698.81
   00:10:57.594.20-May-2020 5121.01 3549.32 67.86 6.00 258.06 2698.81
   00:10:57.794.20-May-2020 5121.01 3549.32 67.86 6.00 258.26 2698.81
   00:10:57.994.20-May-2020 5121.01 3549.69 67.86 6.00 258.46 2698.81
   00:10:58.194.20-May-2020 5121.01 3549.33 67.86 6.00 258.66 2698.81
   00:10:58.394.20-May-2020 5121.01 3550.36 67.86 6.00 258.86 2698.81
   00:10:58.594.20-May-2020 5121.01 3549.35 67.86 6.00 259.06 2698.81
   00:10:58.794.20-May-2020 5121.01 3549.35 67.86 6.00 259.26 2698.81
   00:10:58.994.20-May-2020 5121.01 3549.65 67.86 6.00 259.46 2698.81
   00:10:59.194.20-May-2020 5121.01 3548.92 67.86 6.00 259.66 2698.81
   00:10:59.394.20-May-2020 5121.01 3549.44 67.86 6.00 259.86 2698.81
   00:10:59.595.20-May-2020 5121.01 3549.18 67.86 6.00 260.06 2698.81
   00:10:59.795.20-May-2020 5121.01 3549.18 67.86 6.00 260.26 2698.81
   00:10:59.995.20-May-2020 5121.01 3549.36 67.86 6.00 260.46 2698.81
   00:11:00.195.20-May-2020 5121.01 3549.34 67.86 6.00 260.66 2698.81
   00:11:00.395.20-May-2020 5121.01 3549.88 67.86 6.00 260.87 2698.81
   00:11:00.595.20-May-2020 5121.01 3549.58 67.86 6.00 261.07 2698.81
   00:11:00.795.20-May-2020 5121.01 3548.13 67.86 6.00 261.27 2698.81
   00:11:00.995.20-May-2020 5121.01 3549.75 67.86 6.00 261.47 2698.81
   00:11:01.195.20-May-2020 5121.01 3549.53 67.86 6.00 261.67 2698.81
   00:11:01.395.20-May-2020 5121.01 3549.97 67.86 6.00 261.87 2698.81
   00:11:01.595.20-May-2020 5121.01 3548.22 67.86 6.00 262.07 2698.81
   00:11:01.795.20-May-2020 5121.01 3548.22 67.86 6.00 262.27 2698.81
   00:11:01.995.20-May-2020 5121.01 3549.37 67.86 6.00 262.47 2698.81
   00:11:02.195.20-May-2020 5121.01 3549.38 67.86 6.00 262.67 2698.81
   00:11:02.395.20-May-2020 5121.01 3549.64 67.86 6.00 262.87 2698.81
   00:11:02.595.20-May-2020 5121.01 3549.74 67.86 6.00 263.07 2698.81
   00:11:02.795.20-May-2020 5121.01 3548.94 67.86 6.00 263.27 2698.81
   00:11:02.995.20-May-2020 5121.01 3549.42 67.86 6.00 263.47 2698.81
   00:11:03.195.20-May-2020 5121.01 3549.61 67.86 6.00 263.67 2698.81
   00:11:03.395.20-May-2020 5121.01 3549.56 67.86 6.00 263.87 2698.81
   00:11:03.596.20-May-2020 5121.01 3549.10 67.86 6.00 264.07 2698.81
   00:11:03.796.20-May-2020 5121.01 3549.10 67.86 6.00 264.27 2698.81
   00:11:03.996.20-May-2020 5121.01 3549.24 67.86 6.00 264.47 2698.81
   00:11:04.196.20-May-2020 5121.01 3549.04 67.86 6.00 264.67 2698.81
   00:11:04.396.20-May-2020 5121.01 3549.45 67.86 6.00 264.87 2698.81
   00:11:04.596.20-May-2020 5121.01 3549.45 67.86 6.00 265.07 2698.81
   00:11:04.796.20-May-2020 5121.01 3549.45 67.86 6.00 265.27 2698.81
   00:11:04.996.20-May-2020 5121.01 3549.16 67.86 6.00 265.47 2698.81
   00:11:05.196.20-May-2020 5121.01 3549.10 67.86 6.00 265.67 2698.81
   00:11:05.396.20-May-2020 5121.01 3549.61 67.86 6.00 265.87 2698.81
   00:11:05.596.20-May-2020 5121.01 3548.83 67.86 6.00 266.07 2698.81
   00:11:05.796.20-May-2020 5121.01 3549.34 67.86 6.00 266.27 2698.81
   00:11:05.996.20-May-2020 5121.01 3549.41 67.86 6.00 266.47 2698.81
   00:11:06.196.20-May-2020 5121.01 3548.96 67.86 6.00 266.67 2698.81
   00:11:06.396.20-May-2020 5121.01 3549.40 67.86 6.00 266.87 2698.81
   00:11:06.596.20-May-2020 5121.01 3549.21 67.86 6.00 267.07 2698.81
   00:11:06.796.20-May-2020 5121.01 3549.21 67.86 6.00 267.27 2698.81
   00:11:06.996.20-May-2020 5121.01 3549.13 67.86 6.00 267.47 2698.81
   00:11:07.196.20-May-2020 5121.01 3549.33 67.86 6.00 267.67 2698.81
   00:11:07.396.20-May-2020 5121.01 3549.34 67.86 6.00 267.87 2698.81
   00:11:07.597.20-May-2020 5121.01 3548.89 67.86 6.00 268.07 2698.81
   00:11:07.797.20-May-2020 5121.01 3548.89 67.86 6.00 268.27 2698.81
   00:11:07.997.20-May-2020 5121.01 3548.71 67.86 6.00 268.47 2698.81
   00:11:08.197.20-May-2020 5121.01 3549.04 67.86 6.00 268.67 2698.81
   00:11:08.397.20-May-2020 5121.01 3549.40 67.86 6.00 268.87 2698.81
   00:11:08.597.20-May-2020 5121.01 3549.26 67.86 6.00 269.07 2698.81
   00:11:08.797.20-May-2020 5121.01 3549.26 67.86 6.00 269.27 2698.81
   00:11:08.997.20-May-2020 5121.01 3566.70 67.86 6.00 269.47 2698.81
   00:11:09.197.20-May-2020 5121.01 3572.46 67.86 6.00 269.67 2698.81
   00:11:09.397.20-May-2020 5121.01 3572.40 67.86 6.00 269.87 2698.81
   00:11:09.597.20-May-2020 5121.01 3572.40 67.86 6.00 270.07 2698.81
   00:11:09.797.20-May-2020 5121.01 3572.40 67.86 6.00 270.27 2698.81
   00:11:09.997.20-May-2020 5121.01 3572.66 67.86 6.00 270.47 2698.81
   00:11:10.197.20-May-2020 5121.01 3572.44 67.86 6.00 270.67 2698.81
   00:11:10.397.20-May-2020 5121.01 3572.48 67.86 6.00 270.87 2698.81
   00:11:10.597.20-May-2020 5121.01 3572.46 67.86 6.00 271.07 2698.81
   00:11:10.797.20-May-2020 5121.01 3572.46 67.86 6.00 271.27 2698.81
   00:11:10.997.20-May-2020 5121.01 3572.48 67.86 6.00 271.47 2698.81
   00:11:11.197.20-May-2020 5121.01 3572.51 67.86 6.00 271.67 2698.81
   00:11:11.397.20-May-2020 5121.01 3572.46 67.86 6.00 271.87 2698.81
   00:11:11.598.20-May-2020 5121.01 3572.57 67.86 6.00 272.07 2698.81
   00:11:11.798.20-May-2020 5121.01 3572.57 67.86 6.00 272.27 2698.81
   00:11:11.998.20-May-2020 5121.01 3572.60 67.86 6.00 272.47 2698.81
   00:11:12.198.20-May-2020 5121.01 3572.48 67.86 6.00 272.67 2698.81
   00:11:12.398.20-May-2020 5121.01 3572.47 67.86 6.00 272.87 2698.81
   00:11:12.598.20-May-2020 5121.01 3572.61 67.86 6.00 273.07 2698.81
   00:11:12.798.20-May-2020 5121.01 3572.61 67.86 6.00 273.27 2698.81
   00:11:12.998.20-May-2020 5121.01 3572.60 67.86 6.00 273.47 2698.81
   00:11:13.198.20-May-2020 5121.01 3572.51 67.86 6.00 273.67 2698.81
   00:11:13.398.20-May-2020 5121.01 3572.58 67.86 6.00 273.87 2698.81
   00:11:13.598.20-May-2020 5121.01 3572.55 67.86 6.00 274.07 2698.81
   00:11:13.798.20-May-2020 5121.01 3572.55 67.86 6.00 274.27 2698.81
   00:11:13.998.20-May-2020 5121.01 3572.57 67.86 6.00 274.47 2698.81
   00:11:14.198.20-May-2020 5121.01 3572.55 67.86 6.00 274.67 2698.81
   00:11:14.398.20-May-2020 5121.01 3572.57 67.86 6.00 274.87 2698.81
   00:11:14.598.20-May-2020 5121.01 3572.55 67.86 6.00 275.07 2698.81
   00:11:14.798.20-May-2020 5121.01 3572.55 67.86 6.00 275.27 2698.81
   00:11:14.998.20-May-2020 5121.01 3572.57 67.86 6.00 275.47 2698.81
   00:11:15.198.20-May-2020 5121.01 3572.52 67.86 6.00 275.67 2698.81
   00:11:15.398.20-May-2020 5121.01 3572.60 67.86 6.00 275.87 2698.81
