~Version Information
 VERS.                  2.0:   CWLS log ASCII Standard -VERSION 2.0
 WRAP.                   NO:   One line per depth step
~Well Information Block
#MNEM.UNIT     VALUE/NAME     DESCRIPTION
#---------     -----------    ---------------------------
 STRT.S             22:24:43 19-May-20: START TIME 22:24:43 19-May-20
 STOP.S             22:33:01 19-May-20: STOP TIME  22:33:01 19-May-20
 STEP.S                   0.00: STEP TIME
 NULL.                 -999.25: NULL VALUE
 MDS .        Operator Entered:  MAG DATA SOURCE
 PDAT.          Mean Sea Level:  PERMANENT DATUM
 UNIT.                     N/A:  LOGGING EQUIPMENT ID
 DCON.         Sperry Drilling:  DIRECTNL CONTR
 DOE .                     N/A:  DOE NUMBER
 RIG .              East Azeri:  RIG NAME
 JOBN.        AZ-XX-0905856059:  JOB TICKET NUMB
 WELL.                     D36:  WELL NAME
 MWDS.                    Baku:  MWD SHOP
 SRVC.     Turan Drilling & Engineering:  CONTRACTOR
 FLD .                     ACG:  FIELD NAME
 CTRY.              Azerbaijan:  COUNTRY NAME
 PROV.                    Baku:  PROVINCE
 STAT.                    Baku:  STATE NAME
 REGN.                   EESSA:  REGION
 BASE.              Azerbaijan:  LOGGING EQUIPMENT BASE LOCATION
 UWI .                     N/A:  UNIQUE WELL IDENTIFIER
 API .                     N/A:  API NUMBER
 COMP.     BP Exploration (Caspian Sea) Ltd.:  COMPANY
 WTYP.                Deviated:  WELL TYPE
 SON .        AZ-XX-0905856059:  JOB NUMBER
 FTOP.          Formation Tops:  FORM TOPS DESC
 ILTD.               Lithology:  INTERP LTH DESC
 SVYD.                  Survey:  SURVEY DESC
 DMOD.             Drill Model:  DRILL MOD DESC
 HPTY.       Minimum Curvature:  HOLE POS TYPE
 NREF.                    Grid:  NORTH REFERENCE
 SPUD.               25-Feb-20:  SPUD DATE
 DATE.      08.55.28 01-May-20:  END TIME
 STIM.      08.55.28 25-Feb-20:  START TIME
 DMF .             Drill Floor:  DRILL MEAS FROM
 DFST.                        :  DIST FSL TEXT
 DFWT.                        :  DIST FWL TEXT
 CNTY.                        :  COUNTY
 LOC .                        :  LOCATION
 LMF .             Drill Floor:  LOG MEASURED FROM
 VSNS.m                   6.09:  VERT SEC N/S
 VSEW.m                 -10.79:  VERT SEC E/W
 AGAP.m                  43.60:  AIR GAP
 DEP .m                 388.24:  DEPTH
 APD .m                  43.60:  DEPTH ABOVE PD
 WDMS.m                 151.80:  WD ELEV
 EGL .m                   0.00:  GROUND ELEVATION
 EPD .m                   0.00:  ELEVATION
 AZTC.deg                 6.12:  AZM TOTAL CORR
 GRDC.deg                 0.30:  GRID CORRECTION
 MDEC.deg                 6.42:  MAGNETIC DECL
 MDIP.deg                59.42:  MAGNETIC DIP
 MFLD.nT              50256.00:  MAGNETIC FIELD
 GVFD.g                   1.00:  GRAVITY FIELD
 VSDR.deg               159.57:  VERT SEC DIRECT
 TDD .m                5000.01:  TOTAL DEPTH (DRILLER)
 SDEP.m                 397.00:  START DEPTH
 DFSL.m                   0.00:  DISTANCE FSL
 DFWL.m                   0.00:  DISTANCE FWL
 UTMY.m             4431880.20:  UTM Y
 UTMX.m              538763.98:  UTM X
 WHEW.m                 -10.79:  WELL HEAD E/W
 WHNS.m                   6.09:  WELL HEAD N/S
 LONG.deg                51.45:  LONGITUDE
 LATI.deg                40.02:  LATITUDE
 TVDS.m                  43.60:  TVDSS CORRECTN
 EKB .m                  43.60:  KB ELEVATION
 EDF .m                  43.60:  DF ELEVATION
 MAGU.                 1847640:  MAGUTM CHECKSUM
 VSC .                       0:  VS TO CLOSURE
~Parameter Information Block
#MNEM.UNIT       Value        Description
#---------     -----------    ---------------------------
 AV  .mps                 1.30:  Ann Velocity 
 AVMX.mps                 1.90:  Max Ann Veloc 
 AZIF.deg               115.68:  Azm, Final 
 BHAT.                   Other:  BHA Type 
 BROT.°/30m               0.74:  Build Rotating 
 BS  .in                  8.50:  Bit Size 
 BTPL.psig              430.00:  Bit Press Loss 
 CABU.                      No:  Customer Abuse 
 COMM.                     ”le:  Run Comments 1 
 TCS .hr                 51.31:  Time Ciculation Ended 
 CV  .mps                 2.52:  Crit Velocity 
 CVMX.mps                 2.62:  Max Crit Veloc 
 DD1 .          Teymur Aghayev:  Direct Drillr 1 
 DDSV.                   Other:  DD Service 
 DEFF.%                 100.00:  % Det Eff 
 DLRX.°/30m               1.62:  Dogleg Rot Max 
 DLSO.°/30m               0.74:  Dogleg Oriented 
 DLSX.°/30m               1.62:  Dogleg Str Max 
 DRET.      04.30.56 18-May-20:  Drill End Time 
 DRST.      04.30.56 18-May-20:  Drill Start Tim 
 DTIM.hr                  0.00:  Time Drilling 
 EDEP.m                5337.01:  End Depth 
 ENG1.      Artemiy Matviyanov:  Engineer 1 
 ENG2.      Bakhtiyar Jabbarli:  Engineer 2 
 ENG3.           Emil Huseynov:  Engineer 3 
 ETIM.      18.40.00 22-May-20:  End Time 
 FLOI.gpm               550.00:  Flow In 
 FLON.gpm               350.00:  Flow In Min 
 FLOS.cptm                0.00:  Fluid Loss 
 FLOX.gpm               600.00:  Flow In Max 
 HFLO.                      No:  High Flow 
 HPRE.                      No:  High Pressure 
 HTEM.                      No:  High Temp 
 HYDO.m                   1.80:  Hydro Offset 
 IFIN.deg                67.01:  Inc, Final 
 IMAX.deg                67.49:  Inc Max 
 IMIN.deg                66.50:  Inc Min 
 IMND.m                5144.79:  Inc Min Depth 
 IMXD.m                5116.12:  Inc Max Depth 
 JARR.                      No:  Jarring 
 LETM.      17.55.56 20-May-20:  Log End Time 
 LOST.hr                     0:  Lost Rig Time 
 LSTM.      04.30.56 18-May-20:  Log Start Time 
 MDCL.ppm            193153.00:  Mud Chlorides 
 MDES.     Inversion Oil/Synthetic:  Mud Desc 
 DFD .sg                  1.40:  Mud Density 
 MDMN.sg                  1.40:  Dens Mud Min 
 MDMX.sg                  1.41:  Dens Mud Max 
 MOIL.                      68:  Run Mud Oil % 
 MOWR.                   68:32:  Run Mud OWR 
 MSND.                     0.2:  Run Mud Sand % 
 MSOL.                    18.8:  Run Mud Solids% 
 DFV .spqt               80.00:  Mud Viscosity 
 MWOD.in                  6.75:  MWD Tool OD 
 MWSI.                      No:  Serv Intrp, MWD 
 OTIM.hr                104.84:  Time Operating 
 PMAX.psia            10690.93:  Press Op, Max 
 PV  .cP                 26.00:  Mud PV 
 RUN .                     900:  Run Number 
 ROPA.m/hr                0.00:  ROP Avg 
 ROPN.m/hr                0.00:  ROP Min 
 ROPX.m/hr                0.00:  ROP Max 
 RPMA.rpm               140.00:  RPM Surface Avg 
 RPMN.rpm                70.00:  RPM Surface Min 
 RPMX.rpm               140.00:  RPM Surface Max 
 RRUN.                    0900:  Rig Run Number 
 RTIM.hr                 36.00:  Time Reaming 
 SAZI.deg               115.72:  Azm, Start 
 SDEP.m                5337.01:  Start Depth 
 SIDD.                      No:  Serv Intrp, DD 
 SINC.deg                66.92:  Inc, Start 
 SPPA.psig             4400.00:  SPP Avg 
 SPPN.psig             1135.00:  SPP Min 
 SPPX.psig             4581.00:  SPP Max 
 STIM.      04.30.56 18-May-20:  Start Time 
 SVCS.                     MWD:  Services 
 SVER.                    9.20:  Sperry Version 
 TDAT.m                5337.01:  Tot Depth Attmp 
 TDDF.                      No:  Trip for DD 
 TFF .                      No:  Trip for Fail 
 TQAA.f-kp               23.00:  Torque Abs Avg 
 TQAN.f-kp               18.00:  Torque Abs Min 
 TQAX.f-kp               25.00:  Torque Abs Max 
 TRRT.°/30m               0.74:  Turn Rotating 
 MRT .                    HCIM:  Maximum Recorded Temperature 
 TTMX.degC               76.47:  Max Tool Temp 
 WBMN.klb                 0.00:  WOB Min 
 WITN.             Anar Khalil:  Customer Rep 
 WITN.      Kamran Keberlinski:  Customer Rep 2 
 WOBA.klb                 0.00:  WOB Avg 
 WOBX.klb                 0.00:  WOB Max 
 YP  .lhf2               27.00:  Yield Point 
~Curve Information Block
#MNEM.UNIT                 API CODE     Curve Description
#---------               -----------    ---------------------------
 TIME.HHMMSS            00 000 000 000:  GT Time & Date
 GTDEPTH.m              00 000 000 000:  GT Depth
 GTPQH.psia             00 000 000 000:  GT HR Quartz Pressure
 GTTQ.degC              00 000 000 000:  GT Quartz Temperature
 GTTN.NONE              00 000 000 000:  GT Test Number
 GTET.sec               00 000 000 000:  GT Elapsed Test Time
 GTTVD.m                00 000 000 000:  GT True Vertical Depth
#Other Information
#
#WARRANTY: Halliburton will use its best efforts to furnish customers with 
#accurate information and interpretations that are part of, and incident to, the services 
#provided.  However, Halliburton cannot and does not warrant the accuracy 
#or correctness of such information and interpretations.  Under no circumstances should any 
#such information or interpretation be relied upon as the sole basis for any drilling, 
#completion, production, or financial decision or any procedure involving any risk to the 
#safety of any drilling venture, drilling rig or its crew or any other third party.  The 
#Customer has full responsibility for all drilling, completion and production operation.  
#Halliburton makes no representations or warranties, either expressed or 
#implied, including, but not limited to, the implied warranties of merchantability or fitness 
#for a particular purpose, with respect to the services rendered.  In no event will 
#Halliburton be liable for failure to obtain any particular results or for 
#any damages, including, but not limited to, indirect, special or consequential damages, 
#resulting from the use of any information or interpretation provided by Halliburton.
#
~A           TIME           GTDEPTH  GTPQH  GTTQ  GTTN  GTET   GTTVD  
# ...
   22:27:24.045.19-May-2020 5137.01 6465.76 67.90 4.00 161.04 2705.05
   22:27:24.245.19-May-2020 5137.01 6465.76 67.90 4.00 161.24 2705.05
   22:27:24.445.19-May-2020 5137.01 6467.29 67.90 4.00 161.44 2705.05
   22:27:24.645.19-May-2020 5137.01 6468.42 67.90 4.00 161.64 2705.05
   22:27:24.845.19-May-2020 5137.01 6465.77 67.90 4.00 161.84 2705.05
   22:27:25.045.19-May-2020 5137.01 6468.07 67.90 4.00 162.04 2705.05
   22:27:25.245.19-May-2020 5137.01 6468.07 67.90 4.00 162.24 2705.05
   22:27:25.446.19-May-2020 5137.01 6467.43 67.90 4.00 162.44 2705.05
   22:27:25.646.19-May-2020 5137.01 6463.94 67.90 4.00 162.64 2705.05
   22:27:25.846.19-May-2020 5137.01 6465.51 67.90 4.00 162.84 2705.05
   22:27:26.046.19-May-2020 5137.01 6464.88 67.90 4.00 163.04 2705.05
   22:27:26.246.19-May-2020 5137.01 6464.51 67.90 4.00 163.24 2705.05
   22:27:26.446.19-May-2020 5137.01 6465.00 67.90 4.00 163.44 2705.05
   22:27:26.646.19-May-2020 5137.01 6463.91 67.90 4.00 163.64 2705.05
   22:27:26.846.19-May-2020 5137.01 6464.48 67.90 4.00 163.84 2705.05
   22:27:27.046.19-May-2020 5137.01 6464.49 67.90 4.00 164.04 2705.05
   22:27:27.246.19-May-2020 5137.01 6464.49 67.90 4.00 164.24 2705.05
   22:27:27.446.19-May-2020 5137.01 6464.29 67.90 4.00 164.44 2705.05
   22:27:27.646.19-May-2020 5137.01 6466.78 67.90 4.00 164.64 2705.05
   22:27:27.846.19-May-2020 5137.01 6464.45 67.90 4.00 164.84 2705.05
   22:27:28.046.19-May-2020 5137.01 6466.30 67.90 4.00 165.04 2705.05
   22:27:28.246.19-May-2020 5137.01 6466.30 67.90 4.00 165.24 2705.05
   22:27:28.446.19-May-2020 5137.01 6470.06 67.90 4.00 165.44 2705.05
   22:27:28.646.19-May-2020 5137.01 6464.11 67.90 4.00 165.64 2705.05
   22:27:28.846.19-May-2020 5137.01 6467.22 67.90 4.00 165.84 2705.05
   22:27:29.046.19-May-2020 5137.01 6465.98 67.90 4.00 166.04 2705.05
   22:27:29.246.19-May-2020 5137.01 6465.98 67.90 4.00 166.24 2705.05
   22:27:29.447.19-May-2020 5137.01 6465.67 67.90 4.00 166.44 2705.05
   22:27:29.647.19-May-2020 5137.01 6467.69 67.90 4.00 166.64 2705.05
   22:27:29.847.19-May-2020 5137.01 6465.81 67.90 4.00 166.84 2705.05
   22:27:30.047.19-May-2020 5137.01 6467.17 67.90 4.00 167.04 2705.05
   22:27:30.247.19-May-2020 5137.01 6467.38 67.90 4.00 167.24 2705.05
   22:27:30.447.19-May-2020 5137.01 6467.10 67.90 4.00 167.44 2705.05
   22:27:30.647.19-May-2020 5137.01 6466.23 67.90 4.00 167.64 2705.05
   22:27:30.847.19-May-2020 5137.01 6466.90 67.90 4.00 167.84 2705.05
   22:27:31.047.19-May-2020 5137.01 6469.17 67.90 4.00 168.04 2705.05
   22:27:31.247.19-May-2020 5137.01 6469.17 67.90 4.00 168.24 2705.05
   22:27:31.447.19-May-2020 5137.01 6467.58 67.90 4.00 168.44 2705.05
   22:27:31.647.19-May-2020 5137.01 6466.32 67.90 4.00 168.64 2705.05
   22:27:31.847.19-May-2020 5137.01 6466.33 67.90 4.00 168.84 2705.05
   22:27:32.047.19-May-2020 5137.01 6465.47 67.90 4.00 169.04 2705.05
   22:27:32.247.19-May-2020 5137.01 6465.47 67.90 4.00 169.24 2705.05
   22:27:32.447.19-May-2020 5137.01 6465.51 67.90 4.00 169.44 2705.05
   22:27:32.647.19-May-2020 5137.01 6464.32 67.90 4.00 169.64 2705.05
   22:27:32.847.19-May-2020 5137.01 6464.98 67.90 4.00 169.84 2705.05
   22:27:33.047.19-May-2020 5137.01 6464.46 67.90 4.00 170.04 2705.05
   22:27:33.247.19-May-2020 5137.01 6464.46 67.90 4.00 170.24 2705.05
   22:27:33.448.19-May-2020 5137.01 6464.88 67.90 4.00 170.44 2705.05
   22:27:33.648.19-May-2020 5137.01 6463.55 67.90 4.00 170.64 2705.05
   22:27:33.848.19-May-2020 5137.01 6464.06 67.90 4.00 170.84 2705.05
   22:27:34.048.19-May-2020 5137.01 6465.04 67.90 4.00 171.04 2705.05
   22:27:34.248.19-May-2020 5137.01 6465.04 67.90 4.00 171.24 2705.05
   22:27:34.448.19-May-2020 5137.01 6465.11 67.90 4.00 171.44 2705.05
   22:27:34.648.19-May-2020 5137.01 6465.27 67.90 4.00 171.64 2705.05
   22:27:34.848.19-May-2020 5137.01 6463.85 67.90 4.00 171.84 2705.05
   22:27:35.048.19-May-2020 5137.01 6470.16 67.90 4.00 172.04 2705.05
   22:27:35.248.19-May-2020 5137.01 6470.16 67.90 4.00 172.24 2705.05
   22:27:35.448.19-May-2020 5137.01 6467.38 67.90 4.00 172.44 2705.05
   22:27:35.648.19-May-2020 5137.01 6465.16 67.90 4.00 172.64 2705.05
   22:27:35.848.19-May-2020 5137.01 6466.03 67.90 4.00 172.84 2705.05
   22:27:36.048.19-May-2020 5137.01 6469.21 67.89 4.00 173.04 2705.05
   22:27:36.248.19-May-2020 5137.01 6469.21 67.89 4.00 173.24 2705.05
   22:27:36.448.19-May-2020 5137.01 6467.62 67.89 4.00 173.44 2705.05
   22:27:36.648.19-May-2020 5137.01 6465.87 67.89 4.00 173.64 2705.05
   22:27:36.848.19-May-2020 5137.01 6466.36 67.89 4.00 173.84 2705.05
   22:27:37.048.19-May-2020 5137.01 6469.52 67.89 4.00 174.04 2705.05
   22:27:37.248.19-May-2020 5137.01 6469.52 67.89 4.00 174.24 2705.05
   22:27:37.449.19-May-2020 5137.01 6467.66 67.89 4.00 174.44 2705.05
   22:27:37.649.19-May-2020 5137.01 6465.90 67.89 4.00 174.64 2705.05
   22:27:37.849.19-May-2020 5137.01 6470.91 67.89 4.00 174.84 2705.05
   22:27:38.049.19-May-2020 5137.01 6463.23 67.89 4.00 175.04 2705.05
   22:27:38.249.19-May-2020 5137.01 6467.13 67.89 4.00 175.24 2705.05
   22:27:38.449.19-May-2020 5137.01 6466.66 67.89 4.00 175.44 2705.05
   22:27:38.649.19-May-2020 5137.01 6465.68 67.89 4.00 175.64 2705.05
   22:27:38.849.19-May-2020 5137.01 6464.60 67.89 4.00 175.84 2705.05
   22:27:39.049.19-May-2020 5137.01 6464.87 67.89 4.00 176.04 2705.05
   22:27:39.249.19-May-2020 5137.01 6464.87 67.89 4.00 176.24 2705.05
   22:27:39.449.19-May-2020 5137.01 6464.96 67.89 4.00 176.44 2705.05
   22:27:39.649.19-May-2020 5137.01 6463.48 67.89 4.00 176.64 2705.05
   22:27:39.849.19-May-2020 5137.01 6463.67 67.89 4.00 176.84 2705.05
   22:27:40.049.19-May-2020 5137.01 6463.41 67.89 4.00 177.04 2705.05
   22:27:40.249.19-May-2020 5137.01 6463.41 67.89 4.00 177.24 2705.05
   22:27:40.449.19-May-2020 5137.01 6463.54 67.89 4.00 177.44 2705.05
   22:27:40.649.19-May-2020 5137.01 6462.52 67.89 4.00 177.64 2705.05
   22:27:40.849.19-May-2020 5137.01 6465.93 67.89 4.00 177.84 2705.05
   22:27:41.049.19-May-2020 5137.01 6463.21 67.89 4.00 178.04 2705.05
   22:27:41.249.19-May-2020 5137.01 6463.21 67.89 4.00 178.24 2705.05
   22:27:41.450.19-May-2020 5137.01 6464.53 67.89 4.00 178.44 2705.05
   22:27:41.650.19-May-2020 5137.01 6463.18 67.89 4.00 178.64 2705.05
   22:27:41.850.19-May-2020 5137.01 6466.98 67.89 4.00 178.84 2705.05
   22:27:42.050.19-May-2020 5137.01 6463.46 67.89 4.00 179.04 2705.05
   22:27:42.250.19-May-2020 5137.01 6465.45 67.89 4.00 179.24 2705.05
   22:27:42.450.19-May-2020 5137.01 6465.25 67.89 4.00 179.44 2705.05
   22:27:42.650.19-May-2020 5137.01 6466.85 67.89 4.00 179.64 2705.05
   22:27:42.850.19-May-2020 5137.01 6464.26 67.89 4.00 179.84 2705.05
   22:27:43.050.19-May-2020 5137.01 6466.70 67.89 4.00 180.04 2705.05
   22:27:43.250.19-May-2020 5137.01 6466.70 67.89 4.00 180.24 2705.05
   22:27:43.450.19-May-2020 5137.01 6466.25 67.89 4.00 180.44 2705.05
   22:27:43.650.19-May-2020 5137.01 6466.29 67.89 4.00 180.65 2705.05
   22:27:43.850.19-May-2020 5137.01 6465.05 67.89 4.00 180.85 2705.05
   22:27:44.050.19-May-2020 5137.01 6465.99 67.89 4.00 181.05 2705.05
   22:27:44.250.19-May-2020 5137.01 6465.99 67.89 4.00 181.25 2705.05
   22:27:44.450.19-May-2020 5137.01 6466.95 67.89 4.00 181.45 2705.05
   22:27:44.650.19-May-2020 5137.01 6464.90 67.89 4.00 181.65 2705.05
   22:27:44.850.19-May-2020 5137.01 6466.01 67.89 4.00 181.85 2705.05
   22:27:45.050.19-May-2020 5137.01 6465.20 67.89 4.00 182.05 2705.05
   22:27:45.250.19-May-2020 5137.01 6465.20 67.89 4.00 182.25 2705.05
   22:27:45.451.19-May-2020 5137.01 6464.64 67.89 4.00 182.45 2705.05
   22:27:45.651.19-May-2020 5137.01 6463.72 67.89 4.00 182.65 2705.05
   22:27:45.851.19-May-2020 5137.01 6464.03 67.89 4.00 182.85 2705.05
   22:27:46.051.19-May-2020 5137.01 6463.98 67.89 4.00 183.05 2705.05
   22:27:46.251.19-May-2020 5137.01 6463.27 67.89 4.00 183.25 2705.05
   22:27:46.451.19-May-2020 5137.01 6463.78 67.89 4.00 183.45 2705.05
   22:27:46.651.19-May-2020 5137.01 6462.93 67.89 4.00 183.65 2705.05
   22:27:46.851.19-May-2020 5137.01 6463.53 67.89 4.00 183.85 2705.05
