~Version Information
 VERS.                  2.0:   CWLS log ASCII Standard -VERSION 2.0
 WRAP.                   NO:   One line per depth step
~Well Information Block
#MNEM.UNIT     VALUE/NAME     DESCRIPTION
#---------     -----------    ---------------------------
 STRT.S             04:23:34 20-May-20: START TIME 04:23:34 20-May-20
 STOP.S             04:34:06 20-May-20: STOP TIME  04:34:06 20-May-20
 STEP.S                   0.00: STEP TIME
 NULL.                 -999.25: NULL VALUE
 MDS .        Operator Entered:  MAG DATA SOURCE
 PDAT.          Mean Sea Level:  PERMANENT DATUM
 UNIT.                     N/A:  LOGGING EQUIPMENT ID
 DCON.         Sperry Drilling:  DIRECTNL CONTR
 DOE .                     N/A:  DOE NUMBER
 RIG .              East Azeri:  RIG NAME
 JOBN.        AZ-XX-0905856059:  JOB TICKET NUMB
 WELL.                     D36:  WELL NAME
 MWDS.                    Baku:  MWD SHOP
 SRVC.     Turan Drilling & Engineering:  CONTRACTOR
 FLD .                     ACG:  FIELD NAME
 CTRY.              Azerbaijan:  COUNTRY NAME
 PROV.                    Baku:  PROVINCE
 STAT.                    Baku:  STATE NAME
 REGN.                   EESSA:  REGION
 BASE.              Azerbaijan:  LOGGING EQUIPMENT BASE LOCATION
 UWI .                     N/A:  UNIQUE WELL IDENTIFIER
 API .                     N/A:  API NUMBER
 COMP.     BP Exploration (Caspian Sea) Ltd.:  COMPANY
 WTYP.                Deviated:  WELL TYPE
 SON .        AZ-XX-0905856059:  JOB NUMBER
 FTOP.          Formation Tops:  FORM TOPS DESC
 ILTD.               Lithology:  INTERP LTH DESC
 SVYD.                  Survey:  SURVEY DESC
 DMOD.             Drill Model:  DRILL MOD DESC
 HPTY.       Minimum Curvature:  HOLE POS TYPE
 NREF.                    Grid:  NORTH REFERENCE
 SPUD.               25-Feb-20:  SPUD DATE
 DATE.      08.55.28 01-May-20:  END TIME
 STIM.      08.55.28 25-Feb-20:  START TIME
 DMF .             Drill Floor:  DRILL MEAS FROM
 DFST.                        :  DIST FSL TEXT
 DFWT.                        :  DIST FWL TEXT
 CNTY.                        :  COUNTY
 LOC .                        :  LOCATION
 LMF .             Drill Floor:  LOG MEASURED FROM
 VSNS.m                   6.09:  VERT SEC N/S
 VSEW.m                 -10.79:  VERT SEC E/W
 AGAP.m                  43.60:  AIR GAP
 DEP .m                 388.24:  DEPTH
 APD .m                  43.60:  DEPTH ABOVE PD
 WDMS.m                 151.80:  WD ELEV
 EGL .m                   0.00:  GROUND ELEVATION
 EPD .m                   0.00:  ELEVATION
 AZTC.deg                 6.12:  AZM TOTAL CORR
 GRDC.deg                 0.30:  GRID CORRECTION
 MDEC.deg                 6.42:  MAGNETIC DECL
 MDIP.deg                59.42:  MAGNETIC DIP
 MFLD.nT              50256.00:  MAGNETIC FIELD
 GVFD.g                   1.00:  GRAVITY FIELD
 VSDR.deg               159.57:  VERT SEC DIRECT
 TDD .m                5000.01:  TOTAL DEPTH (DRILLER)
 SDEP.m                 397.00:  START DEPTH
 DFSL.m                   0.00:  DISTANCE FSL
 DFWL.m                   0.00:  DISTANCE FWL
 UTMY.m             4431880.20:  UTM Y
 UTMX.m              538763.98:  UTM X
 WHEW.m                 -10.79:  WELL HEAD E/W
 WHNS.m                   6.09:  WELL HEAD N/S
 LONG.deg                51.45:  LONGITUDE
 LATI.deg                40.02:  LATITUDE
 TVDS.m                  43.60:  TVDSS CORRECTN
 EKB .m                  43.60:  KB ELEVATION
 EDF .m                  43.60:  DF ELEVATION
 MAGU.                 1847640:  MAGUTM CHECKSUM
 VSC .                       0:  VS TO CLOSURE
~Parameter Information Block
#MNEM.UNIT       Value        Description
#---------     -----------    ---------------------------
 AV  .mps                 1.30:  Ann Velocity 
 AVMX.mps                 1.90:  Max Ann Veloc 
 AZIF.deg               115.68:  Azm, Final 
 BHAT.                   Other:  BHA Type 
 BROT.°/30m               0.74:  Build Rotating 
 BS  .in                  8.50:  Bit Size 
 BTPL.psig              430.00:  Bit Press Loss 
 CABU.                      No:  Customer Abuse 
 TCS .hr                 51.31:  Time Ciculation Ended 
 CV  .mps                 2.52:  Crit Velocity 
 CVMX.mps                 2.62:  Max Crit Veloc 
 DD1 .          Teymur Aghayev:  Direct Drillr 1 
 DDSV.                   Other:  DD Service 
 DEFF.%                 100.00:  % Det Eff 
 DLRX.°/30m               1.62:  Dogleg Rot Max 
 DLSO.°/30m               0.74:  Dogleg Oriented 
 DLSX.°/30m               1.62:  Dogleg Str Max 
 DRET.      04.30.56 18-May-20:  Drill End Time 
 DRST.      04.30.56 18-May-20:  Drill Start Tim 
 DTIM.hr                  0.00:  Time Drilling 
 EDEP.m                5337.01:  End Depth 
 ENG1.      Artemiy Matviyanov:  Engineer 1 
 ENG2.      Bakhtiyar Jabbarli:  Engineer 2 
 ENG3.           Emil Huseynov:  Engineer 3 
 ETIM.      18.40.00 22-May-20:  End Time 
 FLOI.gpm               550.00:  Flow In 
 FLON.gpm               350.00:  Flow In Min 
 FLOS.cptm                0.00:  Fluid Loss 
 FLOX.gpm               600.00:  Flow In Max 
 HFLO.                      No:  High Flow 
 HPRE.                      No:  High Pressure 
 HTEM.                      No:  High Temp 
 HYDO.m                   1.80:  Hydro Offset 
 IFIN.deg                67.01:  Inc, Final 
 IMAX.deg                67.49:  Inc Max 
 IMIN.deg                66.50:  Inc Min 
 IMND.m                5144.79:  Inc Min Depth 
 IMXD.m                5116.12:  Inc Max Depth 
 JARR.                      No:  Jarring 
 LETM.      17.55.56 20-May-20:  Log End Time 
 LOST.hr                     0:  Lost Rig Time 
 LSTM.      04.30.56 18-May-20:  Log Start Time 
 MDCL.ppm            193153.00:  Mud Chlorides 
 MDES.     Inversion Oil/Synthetic:  Mud Desc 
 DFD .sg                  1.40:  Mud Density 
 MDMN.sg                  1.40:  Dens Mud Min 
 MDMX.sg                  1.41:  Dens Mud Max 
 MOIL.                      68:  Run Mud Oil % 
 MOWR.                   68:32:  Run Mud OWR 
 MSND.                     0.2:  Run Mud Sand % 
 MSOL.                    18.8:  Run Mud Solids% 
 DFV .spqt               80.00:  Mud Viscosity 
 MWOD.in                  6.75:  MWD Tool OD 
 MWSI.                      No:  Serv Intrp, MWD 
 OTIM.hr                104.84:  Time Operating 
 PMAX.psia            10690.93:  Press Op, Max 
 PV  .cP                 26.00:  Mud PV 
 RUN .                     900:  Run Number 
 ROPA.m/hr                0.00:  ROP Avg 
 ROPN.m/hr                0.00:  ROP Min 
 ROPX.m/hr                0.00:  ROP Max 
 RPMA.rpm               140.00:  RPM Surface Avg 
 RPMN.rpm                70.00:  RPM Surface Min 
 RPMX.rpm               140.00:  RPM Surface Max 
 RRUN.                    0900:  Rig Run Number 
 RTIM.hr                 36.00:  Time Reaming 
 SAZI.deg               115.72:  Azm, Start 
 SDEP.m                5337.01:  Start Depth 
 SIDD.                      No:  Serv Intrp, DD 
 SINC.deg                66.92:  Inc, Start 
 SPPA.psig             4400.00:  SPP Avg 
 SPPN.psig             1135.00:  SPP Min 
 SPPX.psig             4581.00:  SPP Max 
 STIM.      04.30.56 18-May-20:  Start Time 
 SVCS.                     MWD:  Services 
 SVER.                    9.20:  Sperry Version 
 TDAT.m                5337.01:  Tot Depth Attmp 
 TDDF.                      No:  Trip for DD 
 TFF .                      No:  Trip for Fail 
 TQAA.f-kp               23.00:  Torque Abs Avg 
 TQAN.f-kp               18.00:  Torque Abs Min 
 TQAX.f-kp               25.00:  Torque Abs Max 
 TRRT.°/30m               0.74:  Turn Rotating 
 MRT .                    HCIM:  Maximum Recorded Temperature 
 TTMX.degC               76.47:  Max Tool Temp 
 WBMN.klb                 0.00:  WOB Min 
 WITN.             Anar Khalil:  Customer Rep 
 WITN.      Kamran Keberlinski:  Customer Rep 2 
 WOBA.klb                 0.00:  WOB Avg 
 WOBX.klb                 0.00:  WOB Max 
 YP  .lhf2               27.00:  Yield Point 
~Curve Information Block
#MNEM.UNIT                 API CODE     Curve Description
#---------               -----------    ---------------------------
 TIME.HHMMSS            00 000 000 000:  GT Time & Date
 GTDEPTH.m              00 000 000 000:  GT Depth
 GTPQH.psia             00 000 000 000:  GT HR Quartz Pressure
 GTTQ.degC              00 000 000 000:  GT Quartz Temperature
 GTTN.NONE              00 000 000 000:  GT Test Number
 GTET.sec               00 000 000 000:  GT Elapsed Test Time
 GTTVD.m                00 000 000 000:  GT True Vertical Depth
#Other Information
#
#WARRANTY: Halliburton will use its best efforts to furnish customers with 
#accurate information and interpretations that are part of, and incident to, the services 
#provided.  However, Halliburton cannot and does not warrant the accuracy 
#or correctness of such information and interpretations.  Under no circumstances should any 
#such information or interpretation be relied upon as the sole basis for any drilling, 
#completion, production, or financial decision or any procedure involving any risk to the 
#safety of any drilling venture, drilling rig or its crew or any other third party.  The 
#Customer has full responsibility for all drilling, completion and production operation.  
#Halliburton makes no representations or warranties, either expressed or 
#implied, including, but not limited to, the implied warranties of merchantability or fitness 
#for a particular purpose, with respect to the services rendered.  In no event will 
#Halliburton be liable for failure to obtain any particular results or for 
#any damages, including, but not limited to, indirect, special or consequential damages, 
#resulting from the use of any information or interpretation provided by Halliburton.
#
~A           TIME           GTDEPTH  GTPQH  GTTQ  GTTN  GTET   GTTVD  
# ...
   04:24:43.604.20-May-2020 5064.29 2886.22 68.73 9.00  69.02 2676.66
   04:24:43.804.20-May-2020 5064.29 2886.22 68.73 9.00  69.22 2676.66
   04:24:44.004.20-May-2020 5064.29 2884.58 68.73 9.00  69.42 2676.66
   04:24:44.204.20-May-2020 5064.29 2883.55 68.73 9.00  69.62 2676.66
   04:24:44.404.20-May-2020 5064.29 2883.49 68.73 9.00  69.82 2676.66
   04:24:44.604.20-May-2020 5064.29 2884.05 68.73 9.00  70.02 2676.66
   04:24:44.804.20-May-2020 5064.29 2884.05 68.73 9.00  70.22 2676.66
   04:24:45.004.20-May-2020 5064.29 2883.44 68.73 9.00  70.42 2676.66
   04:24:45.204.20-May-2020 5064.29 2884.98 68.73 9.00  70.62 2676.66
   04:24:45.404.20-May-2020 5064.29 2886.66 68.73 9.00  70.82 2676.66
   04:24:45.604.20-May-2020 5064.29 2885.34 68.73 9.00  71.02 2676.66
   04:24:45.804.20-May-2020 5064.29 2884.52 68.73 9.00  71.22 2676.66
   04:24:46.004.20-May-2020 5064.29 2884.80 68.73 9.00  71.42 2676.66
   04:24:46.205.20-May-2020 5064.29 2883.61 68.73 9.00  71.62 2676.66
   04:24:46.405.20-May-2020 5064.29 2883.24 68.73 9.00  71.82 2676.66
   04:24:46.605.20-May-2020 5064.29 2882.50 68.73 9.00  72.02 2676.66
   04:24:46.805.20-May-2020 5064.29 2882.50 68.73 9.00  72.22 2676.66
   04:24:47.005.20-May-2020 5064.29 2884.45 68.73 9.00  72.42 2676.66
   04:24:47.205.20-May-2020 5064.29 2884.93 68.73 9.00  72.62 2676.66
   04:24:47.405.20-May-2020 5064.29 2885.62 68.73 9.00  72.82 2676.66
   04:24:47.605.20-May-2020 5064.29 2883.95 68.73 9.00  73.02 2676.66
   04:24:47.805.20-May-2020 5064.29 2883.95 68.73 9.00  73.22 2676.66
   04:24:48.005.20-May-2020 5064.29 2883.99 68.73 9.00  73.42 2676.66
   04:24:48.205.20-May-2020 5064.29 2884.45 68.73 9.00  73.62 2676.66
   04:24:48.405.20-May-2020 5064.29 2882.90 68.73 9.00  73.82 2676.66
   04:24:48.605.20-May-2020 5064.29 2882.18 68.73 9.00  74.02 2676.66
   04:24:48.805.20-May-2020 5064.29 2882.18 68.73 9.00  74.22 2676.66
   04:24:49.005.20-May-2020 5064.29 2884.05 68.73 9.00  74.42 2676.66
   04:24:49.205.20-May-2020 5064.29 2885.29 68.73 9.00  74.62 2676.66
   04:24:49.405.20-May-2020 5064.29 2884.32 68.73 9.00  74.82 2676.66
   04:24:49.606.20-May-2020 5064.29 2885.21 68.73 9.00  75.02 2676.66
   04:24:49.806.20-May-2020 5064.29 2885.21 68.73 9.00  75.22 2676.66
   04:24:50.006.20-May-2020 5064.29 2884.45 68.73 9.00  75.42 2676.66
   04:24:50.206.20-May-2020 5064.29 2883.65 68.74 9.00  75.62 2676.66
   04:24:50.406.20-May-2020 5064.29 2883.00 68.74 9.00  75.82 2676.66
   04:24:50.606.20-May-2020 5064.29 2882.94 68.74 9.00  76.02 2676.66
   04:24:50.806.20-May-2020 5064.29 2882.94 68.74 9.00  76.22 2676.66
   04:24:51.006.20-May-2020 5064.29 2884.40 68.74 9.00  76.42 2676.66
   04:24:51.206.20-May-2020 5064.29 2884.27 68.74 9.00  76.62 2676.66
   04:24:51.406.20-May-2020 5064.29 2885.00 68.74 9.00  76.82 2676.66
   04:24:51.606.20-May-2020 5064.29 2883.23 68.74 9.00  77.02 2676.66
   04:24:51.806.20-May-2020 5064.29 2883.23 68.74 9.00  77.22 2676.66
   04:24:52.006.20-May-2020 5064.29 2884.42 68.74 9.00  77.42 2676.66
   04:24:52.206.20-May-2020 5064.29 2883.76 68.74 9.00  77.62 2676.66
   04:24:52.406.20-May-2020 5064.29 2883.56 68.74 9.00  77.82 2676.66
   04:24:52.606.20-May-2020 5064.29 2882.13 68.74 9.00  78.02 2676.66
   04:24:52.806.20-May-2020 5064.29 2882.13 68.74 9.00  78.22 2676.66
   04:24:53.006.20-May-2020 5064.29 2884.12 68.74 9.00  78.42 2676.66
   04:24:53.207.20-May-2020 5064.29 2884.63 68.74 9.00  78.62 2676.66
   04:24:53.407.20-May-2020 5064.29 2885.28 68.74 9.00  78.82 2676.66
   04:24:53.607.20-May-2020 5064.29 2885.70 68.74 9.00  79.02 2676.66
   04:24:53.807.20-May-2020 5064.29 2887.40 68.74 9.00  79.22 2676.66
   04:24:54.007.20-May-2020 5064.29 2884.85 68.74 9.00  79.42 2676.66
   04:24:54.207.20-May-2020 5064.29 2885.20 68.74 9.00  79.62 2676.66
   04:24:54.407.20-May-2020 5064.29 2884.04 68.74 9.00  79.82 2676.66
   04:24:54.607.20-May-2020 5064.29 2884.67 68.74 9.00  80.02 2676.66
   04:24:54.807.20-May-2020 5064.29 2884.67 68.74 9.00  80.22 2676.66
   04:24:55.007.20-May-2020 5064.29 2885.67 68.74 9.00  80.42 2676.66
   04:24:55.207.20-May-2020 5064.29 2885.68 68.74 9.00  80.62 2676.66
   04:24:55.407.20-May-2020 5064.29 2885.19 68.74 9.00  80.82 2676.66
   04:24:55.607.20-May-2020 5064.29 2887.10 68.74 9.00  81.02 2676.66
   04:24:55.807.20-May-2020 5064.29 2887.10 68.74 9.00  81.22 2676.66
   04:24:56.007.20-May-2020 5064.29 2886.85 68.74 9.00  81.42 2676.66
   04:24:56.207.20-May-2020 5064.29 2886.80 68.74 9.00  81.62 2676.66
   04:24:56.407.20-May-2020 5064.29 2886.34 68.74 9.00  81.82 2676.66
   04:24:56.607.20-May-2020 5064.29 2886.01 68.74 9.00  82.02 2676.66
   04:24:56.808.20-May-2020 5064.29 2886.01 68.74 9.00  82.22 2676.66
   04:24:57.008.20-May-2020 5064.29 2886.05 68.74 9.00  82.42 2676.66
   04:24:57.208.20-May-2020 5064.29 2886.60 68.74 9.00  82.62 2676.66
   04:24:57.408.20-May-2020 5064.29 2888.31 68.74 9.00  82.82 2676.66
   04:24:57.608.20-May-2020 5064.29 2888.24 68.74 9.00  83.02 2676.66
   04:24:57.808.20-May-2020 5064.29 2887.78 68.74 9.00  83.22 2676.66
   04:24:58.008.20-May-2020 5064.29 2888.01 68.74 9.00  83.42 2676.66
   04:24:58.208.20-May-2020 5064.29 2886.87 68.74 9.00  83.62 2676.66
   04:24:58.408.20-May-2020 5064.29 2885.40 68.74 9.00  83.82 2676.66
   04:24:58.608.20-May-2020 5064.29 2884.69 68.74 9.00  84.02 2676.66
   04:24:58.808.20-May-2020 5064.29 2884.69 68.74 9.00  84.22 2676.66
   04:24:59.008.20-May-2020 5064.29 2885.33 68.74 9.00  84.42 2676.66
   04:24:59.208.20-May-2020 5064.29 2884.07 68.74 9.00  84.62 2676.66
   04:24:59.408.20-May-2020 5064.29 2885.76 68.74 9.00  84.82 2676.66
   04:24:59.608.20-May-2020 5064.29 2885.02 68.74 9.00  85.02 2676.66
   04:24:59.808.20-May-2020 5064.29 2885.02 68.74 9.00  85.22 2676.66
   04:25:00.008.20-May-2020 5064.29 2884.69 68.74 9.00  85.42 2676.66
   04:25:00.209.20-May-2020 5064.29 2885.53 68.74 9.00  85.62 2676.66
   04:25:00.409.20-May-2020 5064.29 2885.44 68.74 9.00  85.82 2676.66
   04:25:00.609.20-May-2020 5064.29 2884.04 68.74 9.00  86.02 2676.66
   04:25:00.809.20-May-2020 5064.29 2884.04 68.74 9.00  86.22 2676.66
   04:25:01.009.20-May-2020 5064.29 2884.46 68.74 9.00  86.42 2676.66
   04:25:01.209.20-May-2020 5064.29 2886.74 68.74 9.00  86.62 2676.66
   04:25:01.409.20-May-2020 5064.29 2886.87 68.75 9.00  86.82 2676.66
   04:25:01.609.20-May-2020 5064.29 2887.66 68.75 9.00  87.02 2676.66
   04:25:01.809.20-May-2020 5064.29 2887.66 68.75 9.00  87.22 2676.66
   04:25:02.009.20-May-2020 5064.29 2899.23 68.75 9.00  87.42 2676.66
   04:25:02.209.20-May-2020 5064.29 2924.47 68.75 9.00  87.62 2676.66
   04:25:02.409.20-May-2020 5064.29 2908.73 68.75 9.00  87.82 2676.66
   04:25:02.609.20-May-2020 5064.29 2889.49 68.75 9.00  88.02 2676.66
   04:25:02.809.20-May-2020 5064.29 2889.49 68.75 9.00  88.22 2676.66
   04:25:03.009.20-May-2020 5064.29 2884.75 68.75 9.00  88.43 2676.66
   04:25:03.209.20-May-2020 5064.29 2886.60 68.75 9.00  88.63 2676.66
   04:25:03.409.20-May-2020 5064.29 2887.08 68.75 9.00  88.83 2676.66
   04:25:03.609.20-May-2020 5064.29 2887.16 68.75 9.00  89.03 2676.66
   04:25:03.810.20-May-2020 5064.29 2887.16 68.75 9.00  89.23 2676.66
   04:25:04.010.20-May-2020 5064.29 2887.14 68.75 9.00  89.43 2676.66
   04:25:04.210.20-May-2020 5064.29 2886.13 68.75 9.00  89.63 2676.66
   04:25:04.410.20-May-2020 5064.29 2885.89 68.75 9.00  89.83 2676.66
   04:25:04.610.20-May-2020 5064.29 2884.82 68.75 9.00  90.03 2676.66
   04:25:04.810.20-May-2020 5064.29 2884.82 68.75 9.00  90.23 2676.66
   04:25:05.010.20-May-2020 5064.29 2882.46 68.75 9.00  90.43 2676.66
   04:25:05.210.20-May-2020 5064.29 2885.09 68.75 9.00  90.63 2676.66
   04:25:05.410.20-May-2020 5064.29 2885.66 68.75 9.00  90.83 2676.66
   04:25:05.610.20-May-2020 5064.29 2886.42 68.75 9.00  91.03 2676.66
   04:25:05.810.20-May-2020 5064.29 2886.19 68.75 9.00  91.23 2676.66
   04:25:06.010.20-May-2020 5064.29 2887.64 68.75 9.00  91.43 2676.66
   04:25:06.210.20-May-2020 5064.29 2892.91 68.75 9.00  91.63 2676.66
   04:25:06.410.20-May-2020 5064.29 2937.69 68.75 9.00  91.83 2676.66
