~Version Information
 VERS.                  2.0:   CWLS log ASCII Standard -VERSION 2.0
 WRAP.                   NO:   One line per depth step
~Well Information Block
#MNEM.UNIT     VALUE/NAME     DESCRIPTION
#---------     -----------    ---------------------------
 STRT.S             22:24:43 19-May-20: START TIME 22:24:43 19-May-20
 STOP.S             22:33:01 19-May-20: STOP TIME  22:33:01 19-May-20
 STEP.S                   0.00: STEP TIME
 NULL.                 -999.25: NULL VALUE
 MDS .        Operator Entered:  MAG DATA SOURCE
 PDAT.          Mean Sea Level:  PERMANENT DATUM
 UNIT.                     N/A:  LOGGING EQUIPMENT ID
 DCON.         Sperry Drilling:  DIRECTNL CONTR
 DOE .                     N/A:  DOE NUMBER
 RIG .              East Azeri:  RIG NAME
 JOBN.        AZ-XX-0905856059:  JOB TICKET NUMB
 WELL.                     D36:  WELL NAME
 MWDS.                    Baku:  MWD SHOP
 SRVC.     Turan Drilling & Engineering:  CONTRACTOR
 FLD .                     ACG:  FIELD NAME
 CTRY.              Azerbaijan:  COUNTRY NAME
 PROV.                    Baku:  PROVINCE
 STAT.                    Baku:  STATE NAME
 REGN.                   EESSA:  REGION
 BASE.              Azerbaijan:  LOGGING EQUIPMENT BASE LOCATION
 UWI .                     N/A:  UNIQUE WELL IDENTIFIER
 API .                     N/A:  API NUMBER
 COMP.     BP Exploration (Caspian Sea) Ltd.:  COMPANY
 WTYP.                Deviated:  WELL TYPE
 SON .        AZ-XX-0905856059:  JOB NUMBER
 FTOP.          Formation Tops:  FORM TOPS DESC
 ILTD.               Lithology:  INTERP LTH DESC
 SVYD.                  Survey:  SURVEY DESC
 DMOD.             Drill Model:  DRILL MOD DESC
 HPTY.       Minimum Curvature:  HOLE POS TYPE
 NREF.                    Grid:  NORTH REFERENCE
 SPUD.               25-Feb-20:  SPUD DATE
 DATE.      08.55.28 01-May-20:  END TIME
 STIM.      08.55.28 25-Feb-20:  START TIME
 DMF .             Drill Floor:  DRILL MEAS FROM
 DFST.                        :  DIST FSL TEXT
 DFWT.                        :  DIST FWL TEXT
 CNTY.                        :  COUNTY
 LOC .                        :  LOCATION
 LMF .             Drill Floor:  LOG MEASURED FROM
 VSNS.m                   6.09:  VERT SEC N/S
 VSEW.m                 -10.79:  VERT SEC E/W
 AGAP.m                  43.60:  AIR GAP
 DEP .m                 388.24:  DEPTH
 APD .m                  43.60:  DEPTH ABOVE PD
 WDMS.m                 151.80:  WD ELEV
 EGL .m                   0.00:  GROUND ELEVATION
 EPD .m                   0.00:  ELEVATION
 AZTC.deg                 6.12:  AZM TOTAL CORR
 GRDC.deg                 0.30:  GRID CORRECTION
 MDEC.deg                 6.42:  MAGNETIC DECL
 MDIP.deg                59.42:  MAGNETIC DIP
 MFLD.nT              50256.00:  MAGNETIC FIELD
 GVFD.g                   1.00:  GRAVITY FIELD
 VSDR.deg               159.57:  VERT SEC DIRECT
 TDD .m                5000.01:  TOTAL DEPTH (DRILLER)
 SDEP.m                 397.00:  START DEPTH
 DFSL.m                   0.00:  DISTANCE FSL
 DFWL.m                   0.00:  DISTANCE FWL
 UTMY.m             4431880.20:  UTM Y
 UTMX.m              538763.98:  UTM X
 WHEW.m                 -10.79:  WELL HEAD E/W
 WHNS.m                   6.09:  WELL HEAD N/S
 LONG.deg                51.45:  LONGITUDE
 LATI.deg                40.02:  LATITUDE
 TVDS.m                  43.60:  TVDSS CORRECTN
 EKB .m                  43.60:  KB ELEVATION
 EDF .m                  43.60:  DF ELEVATION
 MAGU.                 1847640:  MAGUTM CHECKSUM
 VSC .                       0:  VS TO CLOSURE
~Parameter Information Block
#MNEM.UNIT       Value        Description
#---------     -----------    ---------------------------
 AV  .mps                 1.30:  Ann Velocity 
 AVMX.mps                 1.90:  Max Ann Veloc 
 AZIF.deg               115.68:  Azm, Final 
 BHAT.                   Other:  BHA Type 
 BROT.°/30m               0.74:  Build Rotating 
 BS  .in                  8.50:  Bit Size 
 BTPL.psig              430.00:  Bit Press Loss 
 CABU.                      No:  Customer Abuse 
 COMM.                     ”le:  Run Comments 1 
 TCS .hr                 51.31:  Time Ciculation Ended 
 CV  .mps                 2.52:  Crit Velocity 
 CVMX.mps                 2.62:  Max Crit Veloc 
 DD1 .          Teymur Aghayev:  Direct Drillr 1 
 DDSV.                   Other:  DD Service 
 DEFF.%                 100.00:  % Det Eff 
 DLRX.°/30m               1.62:  Dogleg Rot Max 
 DLSO.°/30m               0.74:  Dogleg Oriented 
 DLSX.°/30m               1.62:  Dogleg Str Max 
 DRET.      04.30.56 18-May-20:  Drill End Time 
 DRST.      04.30.56 18-May-20:  Drill Start Tim 
 DTIM.hr                  0.00:  Time Drilling 
 EDEP.m                5337.01:  End Depth 
 ENG1.      Artemiy Matviyanov:  Engineer 1 
 ENG2.      Bakhtiyar Jabbarli:  Engineer 2 
 ENG3.           Emil Huseynov:  Engineer 3 
 ETIM.      18.40.00 22-May-20:  End Time 
 FLOI.gpm               550.00:  Flow In 
 FLON.gpm               350.00:  Flow In Min 
 FLOS.cptm                0.00:  Fluid Loss 
 FLOX.gpm               600.00:  Flow In Max 
 HFLO.                      No:  High Flow 
 HPRE.                      No:  High Pressure 
 HTEM.                      No:  High Temp 
 HYDO.m                   1.80:  Hydro Offset 
 IFIN.deg                67.01:  Inc, Final 
 IMAX.deg                67.49:  Inc Max 
 IMIN.deg                66.50:  Inc Min 
 IMND.m                5144.79:  Inc Min Depth 
 IMXD.m                5116.12:  Inc Max Depth 
 JARR.                      No:  Jarring 
 LETM.      17.55.56 20-May-20:  Log End Time 
 LOST.hr                     0:  Lost Rig Time 
 LSTM.      04.30.56 18-May-20:  Log Start Time 
 MDCL.ppm            193153.00:  Mud Chlorides 
 MDES.     Inversion Oil/Synthetic:  Mud Desc 
 DFD .sg                  1.40:  Mud Density 
 MDMN.sg                  1.40:  Dens Mud Min 
 MDMX.sg                  1.41:  Dens Mud Max 
 MOIL.                      68:  Run Mud Oil % 
 MOWR.                   68:32:  Run Mud OWR 
 MSND.                     0.2:  Run Mud Sand % 
 MSOL.                    18.8:  Run Mud Solids% 
 DFV .spqt               80.00:  Mud Viscosity 
 MWOD.in                  6.75:  MWD Tool OD 
 MWSI.                      No:  Serv Intrp, MWD 
 OTIM.hr                104.84:  Time Operating 
 PMAX.psia            10690.93:  Press Op, Max 
 PV  .cP                 26.00:  Mud PV 
 RUN .                     900:  Run Number 
 ROPA.m/hr                0.00:  ROP Avg 
 ROPN.m/hr                0.00:  ROP Min 
 ROPX.m/hr                0.00:  ROP Max 
 RPMA.rpm               140.00:  RPM Surface Avg 
 RPMN.rpm                70.00:  RPM Surface Min 
 RPMX.rpm               140.00:  RPM Surface Max 
 RRUN.                    0900:  Rig Run Number 
 RTIM.hr                 36.00:  Time Reaming 
 SAZI.deg               115.72:  Azm, Start 
 SDEP.m                5337.01:  Start Depth 
 SIDD.                      No:  Serv Intrp, DD 
 SINC.deg                66.92:  Inc, Start 
 SPPA.psig             4400.00:  SPP Avg 
 SPPN.psig             1135.00:  SPP Min 
 SPPX.psig             4581.00:  SPP Max 
 STIM.      04.30.56 18-May-20:  Start Time 
 SVCS.                     MWD:  Services 
 SVER.                    9.20:  Sperry Version 
 TDAT.m                5337.01:  Tot Depth Attmp 
 TDDF.                      No:  Trip for DD 
 TFF .                      No:  Trip for Fail 
 TQAA.f-kp               23.00:  Torque Abs Avg 
 TQAN.f-kp               18.00:  Torque Abs Min 
 TQAX.f-kp               25.00:  Torque Abs Max 
 TRRT.°/30m               0.74:  Turn Rotating 
 MRT .                    HCIM:  Maximum Recorded Temperature 
 TTMX.degC               76.47:  Max Tool Temp 
 WBMN.klb                 0.00:  WOB Min 
 WITN.             Anar Khalil:  Customer Rep 
 WITN.      Kamran Keberlinski:  Customer Rep 2 
 WOBA.klb                 0.00:  WOB Avg 
 WOBX.klb                 0.00:  WOB Max 
 YP  .lhf2               27.00:  Yield Point 
~Curve Information Block
#MNEM.UNIT                 API CODE     Curve Description
#---------               -----------    ---------------------------
 TIME.HHMMSS            00 000 000 000:  GT Time & Date
 GTDEPTH.m              00 000 000 000:  GT Depth
 GTPQH.psia             00 000 000 000:  GT HR Quartz Pressure
 GTTQ.degC              00 000 000 000:  GT Quartz Temperature
 GTTN.NONE              00 000 000 000:  GT Test Number
 GTET.sec               00 000 000 000:  GT Elapsed Test Time
 GTTVD.m                00 000 000 000:  GT True Vertical Depth
#Other Information
#
#WARRANTY: Halliburton will use its best efforts to furnish customers with 
#accurate information and interpretations that are part of, and incident to, the services 
#provided.  However, Halliburton cannot and does not warrant the accuracy 
#or correctness of such information and interpretations.  Under no circumstances should any 
#such information or interpretation be relied upon as the sole basis for any drilling, 
#completion, production, or financial decision or any procedure involving any risk to the 
#safety of any drilling venture, drilling rig or its crew or any other third party.  The 
#Customer has full responsibility for all drilling, completion and production operation.  
#Halliburton makes no representations or warranties, either expressed or 
#implied, including, but not limited to, the implied warranties of merchantability or fitness 
#for a particular purpose, with respect to the services rendered.  In no event will 
#Halliburton be liable for failure to obtain any particular results or for 
#any damages, including, but not limited to, indirect, special or consequential damages, 
#resulting from the use of any information or interpretation provided by Halliburton.
#
~A           TIME           GTDEPTH  GTPQH  GTTQ  GTTN  GTET   GTTVD  
# ...
   22:32:23.120.19-May-2020 5137.01 6463.10 67.86 4.00 460.11 2705.05
   22:32:23.320.19-May-2020 5137.01 6463.10 67.86 4.00 460.31 2705.05
   22:32:23.520.19-May-2020 5137.01 6462.58 67.86 4.00 460.51 2705.05
   22:32:23.720.19-May-2020 5137.01 6463.19 67.86 4.00 460.71 2705.05
   22:32:23.920.19-May-2020 5137.01 6462.65 67.86 4.00 460.91 2705.05
   22:32:24.120.19-May-2020 5137.01 6465.60 67.86 4.00 461.11 2705.05
   22:32:24.320.19-May-2020 5137.01 6465.60 67.86 4.00 461.31 2705.05
   22:32:24.520.19-May-2020 5137.01 6464.48 67.86 4.00 461.52 2705.05
   22:32:24.720.19-May-2020 5137.01 6463.64 67.86 4.00 461.72 2705.05
   22:32:24.920.19-May-2020 5137.01 6465.06 67.86 4.00 461.92 2705.05
   22:32:25.120.19-May-2020 5137.01 6464.63 67.86 4.00 462.12 2705.05
   22:32:25.320.19-May-2020 5137.01 6464.63 67.86 4.00 462.32 2705.05
   22:32:25.520.19-May-2020 5137.01 6464.80 67.86 4.00 462.52 2705.05
   22:32:25.720.19-May-2020 5137.01 6468.78 67.86 4.00 462.72 2705.05
   22:32:25.920.19-May-2020 5137.01 6463.06 67.86 4.00 462.92 2705.05
   22:32:26.120.19-May-2020 5137.01 6465.61 67.86 4.00 463.12 2705.05
   22:32:26.321.19-May-2020 5137.01 6465.61 67.86 4.00 463.32 2705.05
   22:32:26.521.19-May-2020 5137.01 6464.71 67.86 4.00 463.52 2705.05
   22:32:26.721.19-May-2020 5137.01 6467.46 67.86 4.00 463.72 2705.05
   22:32:26.921.19-May-2020 5137.01 6464.73 67.86 4.00 463.92 2705.05
   22:32:27.121.19-May-2020 5137.01 6465.58 67.86 4.00 464.12 2705.05
   22:32:27.321.19-May-2020 5137.01 6465.58 67.86 4.00 464.32 2705.05
   22:32:27.521.19-May-2020 5137.01 6467.41 67.86 4.00 464.52 2705.05
   22:32:27.721.19-May-2020 5137.01 6465.00 67.86 4.00 464.72 2705.05
   22:32:27.921.19-May-2020 5137.01 6466.25 67.86 4.00 464.92 2705.05
   22:32:28.121.19-May-2020 5137.01 6464.23 67.86 4.00 465.12 2705.05
   22:32:28.321.19-May-2020 5137.01 6464.23 67.86 4.00 465.32 2705.05
   22:32:28.521.19-May-2020 5137.01 6462.54 67.86 4.00 465.52 2705.05
   22:32:28.721.19-May-2020 5137.01 6464.83 67.86 4.00 465.72 2705.05
   22:32:28.921.19-May-2020 5137.01 6463.18 67.86 4.00 465.92 2705.05
   22:32:29.121.19-May-2020 5137.01 6463.45 67.86 4.00 466.12 2705.05
   22:32:29.321.19-May-2020 5137.01 6463.45 67.86 4.00 466.32 2705.05
   22:32:29.521.19-May-2020 5137.01 6462.34 67.86 4.00 466.52 2705.05
   22:32:29.721.19-May-2020 5137.01 6463.49 67.86 4.00 466.72 2705.05
   22:32:29.921.19-May-2020 5137.01 6462.80 67.86 4.00 466.92 2705.05
   22:32:30.121.19-May-2020 5137.01 6462.45 67.86 4.00 467.12 2705.05
   22:32:30.322.19-May-2020 5137.01 6462.45 67.86 4.00 467.32 2705.05
   22:32:30.522.19-May-2020 5137.01 6466.57 67.86 4.00 467.52 2705.05
   22:32:30.722.19-May-2020 5137.01 6461.85 67.86 4.00 467.72 2705.05
   22:32:30.922.19-May-2020 5137.01 6464.47 67.86 4.00 467.92 2705.05
   22:32:31.122.19-May-2020 5137.01 6464.17 67.86 4.00 468.12 2705.05
   22:32:31.322.19-May-2020 5137.01 6464.17 67.86 4.00 468.32 2705.05
   22:32:31.522.19-May-2020 5137.01 6465.38 67.86 4.00 468.52 2705.05
   22:32:31.722.19-May-2020 5137.01 6464.43 67.86 4.00 468.72 2705.05
   22:32:31.922.19-May-2020 5137.01 6464.79 67.86 4.00 468.92 2705.05
   22:32:32.122.19-May-2020 5137.01 6466.09 67.86 4.00 469.12 2705.05
   22:32:32.322.19-May-2020 5137.01 6466.09 67.86 4.00 469.32 2705.05
   22:32:32.522.19-May-2020 5137.01 6464.16 67.86 4.00 469.52 2705.05
   22:32:32.722.19-May-2020 5137.01 6466.18 67.86 4.00 469.72 2705.05
   22:32:32.922.19-May-2020 5137.01 6464.21 67.86 4.00 469.92 2705.05
   22:32:33.122.19-May-2020 5137.01 6465.76 67.86 4.00 470.12 2705.05
   22:32:33.322.19-May-2020 5137.01 6465.76 67.86 4.00 470.32 2705.05
   22:32:33.522.19-May-2020 5137.01 6464.29 67.86 4.00 470.52 2705.05
   22:32:33.722.19-May-2020 5137.01 6467.12 67.86 4.00 470.72 2705.05
   22:32:33.922.19-May-2020 5137.01 6468.38 67.86 4.00 470.92 2705.05
   22:32:34.122.19-May-2020 5137.01 6464.31 67.86 4.00 471.12 2705.05
   22:32:34.323.19-May-2020 5137.01 6464.31 67.86 4.00 471.32 2705.05
   22:32:34.523.19-May-2020 5137.01 6465.42 67.86 4.00 471.52 2705.05
   22:32:34.723.19-May-2020 5137.01 6466.09 67.86 4.00 471.72 2705.05
   22:32:34.923.19-May-2020 5137.01 6463.41 67.86 4.00 471.92 2705.05
   22:32:35.123.19-May-2020 5137.01 6464.22 67.86 4.00 472.12 2705.05
   22:32:35.323.19-May-2020 5137.01 6464.22 67.86 4.00 472.32 2705.05
   22:32:35.523.19-May-2020 5137.01 6462.98 67.86 4.00 472.52 2705.05
   22:32:35.723.19-May-2020 5137.01 6464.27 67.86 4.00 472.72 2705.05
   22:32:35.923.19-May-2020 5137.01 6463.20 67.86 4.00 472.92 2705.05
   22:32:36.123.19-May-2020 5137.01 6462.76 67.86 4.00 473.12 2705.05
   22:32:36.323.19-May-2020 5137.01 6462.76 67.86 4.00 473.32 2705.05
   22:32:36.523.19-May-2020 5137.01 6462.08 67.86 4.00 473.52 2705.05
   22:32:36.723.19-May-2020 5137.01 6463.10 67.86 4.00 473.72 2705.05
   22:32:36.923.19-May-2020 5137.01 6465.00 67.85 4.00 473.92 2705.05
   22:32:37.123.19-May-2020 5137.01 6462.65 67.85 4.00 474.12 2705.05
   22:32:37.323.19-May-2020 5137.01 6462.65 67.85 4.00 474.32 2705.05
   22:32:37.523.19-May-2020 5137.01 6462.96 67.85 4.00 474.52 2705.05
   22:32:37.723.19-May-2020 5137.01 6463.86 67.86 4.00 474.72 2705.05
   22:32:37.923.19-May-2020 5137.01 6465.81 67.85 4.00 474.92 2705.05
   22:32:38.123.19-May-2020 5137.01 6463.08 67.85 4.00 475.12 2705.05
   22:32:38.324.19-May-2020 5137.01 6463.08 67.85 4.00 475.32 2705.05
   22:32:38.524.19-May-2020 5137.01 6462.94 67.85 4.00 475.52 2705.05
   22:32:38.724.19-May-2020 5137.01 6465.58 67.85 4.00 475.72 2705.05
   22:32:38.924.19-May-2020 5137.01 6466.00 67.85 4.00 475.92 2705.05
   22:32:39.124.19-May-2020 5137.01 6464.27 67.85 4.00 476.12 2705.05
   22:32:39.324.19-May-2020 5137.01 6464.27 67.85 4.00 476.32 2705.05
   22:32:39.524.19-May-2020 5137.01 6463.70 67.85 4.00 476.52 2705.05
   22:32:39.724.19-May-2020 5137.01 6466.06 67.85 4.00 476.72 2705.05
   22:32:39.924.19-May-2020 5137.01 6466.45 67.85 4.00 476.92 2705.05
   22:32:40.124.19-May-2020 5137.01 6464.65 67.85 4.00 477.12 2705.05
   22:32:40.324.19-May-2020 5137.01 6464.65 67.85 4.00 477.32 2705.05
   22:32:40.524.19-May-2020 5137.01 6464.01 67.85 4.00 477.52 2705.05
   22:32:40.724.19-May-2020 5137.01 6469.45 67.85 4.00 477.72 2705.05
   22:32:40.924.19-May-2020 5137.01 6463.22 67.85 4.00 477.92 2705.05
   22:32:41.124.19-May-2020 5137.01 6467.24 67.85 4.00 478.12 2705.05
   22:32:41.324.19-May-2020 5137.01 6467.24 67.85 4.00 478.32 2705.05
   22:32:41.524.19-May-2020 5137.01 6465.04 67.85 4.00 478.52 2705.05
   22:32:41.724.19-May-2020 5137.01 6464.01 67.85 4.00 478.72 2705.05
   22:32:41.924.19-May-2020 5137.01 6463.45 67.85 4.00 478.92 2705.05
   22:32:42.124.19-May-2020 5137.01 6463.52 67.85 4.00 479.12 2705.05
   22:32:42.325.19-May-2020 5137.01 6463.52 67.85 4.00 479.32 2705.05
   22:32:42.525.19-May-2020 5137.01 6462.41 67.85 4.00 479.52 2705.05
   22:32:42.725.19-May-2020 5137.01 6463.67 67.85 4.00 479.72 2705.05
   22:32:42.925.19-May-2020 5137.01 6462.69 67.85 4.00 479.92 2705.05
   22:32:43.125.19-May-2020 5137.01 6462.70 67.85 4.00 480.12 2705.05
   22:32:43.325.19-May-2020 5137.01 6462.70 67.85 4.00 480.32 2705.05
   22:32:43.525.19-May-2020 5137.01 6461.89 67.85 4.00 480.52 2705.05
   22:32:43.725.19-May-2020 5137.01 6467.47 67.85 4.00 480.72 2705.05
   22:32:43.925.19-May-2020 5137.01 6460.50 67.85 4.00 480.92 2705.05
   22:32:44.125.19-May-2020 5137.01 6464.40 67.85 4.00 481.12 2705.05
   22:32:44.325.19-May-2020 5137.01 6464.40 67.85 4.00 481.32 2705.05
   22:32:44.525.19-May-2020 5137.01 6462.88 67.85 4.00 481.52 2705.05
   22:32:44.725.19-May-2020 5137.01 6466.43 67.85 4.00 481.72 2705.05
   22:32:44.925.19-May-2020 5137.01 6462.86 67.85 4.00 481.92 2705.05
   22:32:45.125.19-May-2020 5137.01 6464.98 67.85 4.00 482.12 2705.05
   22:32:45.325.19-May-2020 5137.01 6464.98 67.85 4.00 482.32 2705.05
   22:32:45.525.19-May-2020 5137.01 6464.70 67.85 4.00 482.52 2705.05
   22:32:45.725.19-May-2020 5137.01 6467.08 67.85 4.00 482.72 2705.05
   22:32:45.925.19-May-2020 5137.01 6463.87 67.85 4.00 482.92 2705.05
