~Version Information
 VERS.                  2.0:   CWLS log ASCII Standard -VERSION 2.0
 WRAP.                   NO:   One line per depth step
~Well Information Block
#MNEM.UNIT     VALUE/NAME     DESCRIPTION
#---------     -----------    ---------------------------
 STRT.S             21:41:59 19-May-20: START TIME 21:41:59 19-May-20
 STOP.S             21:48:44 19-May-20: STOP TIME  21:48:44 19-May-20
 STEP.S                   0.00: STEP TIME
 NULL.                 -999.25: NULL VALUE
 MDS .        Operator Entered:  MAG DATA SOURCE
 PDAT.          Mean Sea Level:  PERMANENT DATUM
 UNIT.                     N/A:  LOGGING EQUIPMENT ID
 DCON.         Sperry Drilling:  DIRECTNL CONTR
 DOE .                     N/A:  DOE NUMBER
 RIG .              East Azeri:  RIG NAME
 JOBN.        AZ-XX-0905856059:  JOB TICKET NUMB
 WELL.                     D36:  WELL NAME
 MWDS.                    Baku:  MWD SHOP
 SRVC.     Turan Drilling & Engineering:  CONTRACTOR
 FLD .                     ACG:  FIELD NAME
 CTRY.              Azerbaijan:  COUNTRY NAME
 PROV.                    Baku:  PROVINCE
 STAT.                    Baku:  STATE NAME
 REGN.                   EESSA:  REGION
 BASE.              Azerbaijan:  LOGGING EQUIPMENT BASE LOCATION
 UWI .                     N/A:  UNIQUE WELL IDENTIFIER
 API .                     N/A:  API NUMBER
 COMP.     BP Exploration (Caspian Sea) Ltd.:  COMPANY
 WTYP.                Deviated:  WELL TYPE
 SON .        AZ-XX-0905856059:  JOB NUMBER
 FTOP.          Formation Tops:  FORM TOPS DESC
 ILTD.               Lithology:  INTERP LTH DESC
 SVYD.                  Survey:  SURVEY DESC
 DMOD.             Drill Model:  DRILL MOD DESC
 HPTY.       Minimum Curvature:  HOLE POS TYPE
 NREF.                    Grid:  NORTH REFERENCE
 SPUD.               25-Feb-20:  SPUD DATE
 DATE.      08.55.28 01-May-20:  END TIME
 STIM.      08.55.28 25-Feb-20:  START TIME
 DMF .             Drill Floor:  DRILL MEAS FROM
 DFST.                        :  DIST FSL TEXT
 DFWT.                        :  DIST FWL TEXT
 CNTY.                        :  COUNTY
 LOC .                        :  LOCATION
 LMF .             Drill Floor:  LOG MEASURED FROM
 VSNS.m                   6.09:  VERT SEC N/S
 VSEW.m                 -10.79:  VERT SEC E/W
 AGAP.m                  43.60:  AIR GAP
 DEP .m                 388.24:  DEPTH
 APD .m                  43.60:  DEPTH ABOVE PD
 WDMS.m                 151.80:  WD ELEV
 EGL .m                   0.00:  GROUND ELEVATION
 EPD .m                   0.00:  ELEVATION
 AZTC.deg                 6.12:  AZM TOTAL CORR
 GRDC.deg                 0.30:  GRID CORRECTION
 MDEC.deg                 6.42:  MAGNETIC DECL
 MDIP.deg                59.42:  MAGNETIC DIP
 MFLD.nT              50256.00:  MAGNETIC FIELD
 GVFD.g                   1.00:  GRAVITY FIELD
 VSDR.deg               159.57:  VERT SEC DIRECT
 TDD .m                5000.01:  TOTAL DEPTH (DRILLER)
 SDEP.m                 397.00:  START DEPTH
 DFSL.m                   0.00:  DISTANCE FSL
 DFWL.m                   0.00:  DISTANCE FWL
 UTMY.m             4431880.20:  UTM Y
 UTMX.m              538763.98:  UTM X
 WHEW.m                 -10.79:  WELL HEAD E/W
 WHNS.m                   6.09:  WELL HEAD N/S
 LONG.deg                51.45:  LONGITUDE
 LATI.deg                40.02:  LATITUDE
 TVDS.m                  43.60:  TVDSS CORRECTN
 EKB .m                  43.60:  KB ELEVATION
 EDF .m                  43.60:  DF ELEVATION
 MAGU.                 1847640:  MAGUTM CHECKSUM
 VSC .                       0:  VS TO CLOSURE
~Parameter Information Block
#MNEM.UNIT       Value        Description
#---------     -----------    ---------------------------
 AV  .mps                 1.30:  Ann Velocity 
 AVMX.mps                 1.90:  Max Ann Veloc 
 AZIF.deg               115.68:  Azm, Final 
 BHAT.                   Other:  BHA Type 
 BROT.°/30m               0.74:  Build Rotating 
 BS  .in                  8.50:  Bit Size 
 BTPL.psig              430.00:  Bit Press Loss 
 CABU.                      No:  Customer Abuse 
 COMM.                     „äS:  Run Comments 1 
 TCS .hr                 51.31:  Time Ciculation Ended 
 CV  .mps                 2.52:  Crit Velocity 
 CVMX.mps                 2.62:  Max Crit Veloc 
 DD1 .          Teymur Aghayev:  Direct Drillr 1 
 DDSV.                   Other:  DD Service 
 DEFF.%                 100.00:  % Det Eff 
 DLRX.°/30m               1.62:  Dogleg Rot Max 
 DLSO.°/30m               0.74:  Dogleg Oriented 
 DLSX.°/30m               1.62:  Dogleg Str Max 
 DRET.      04.30.56 18-May-20:  Drill End Time 
 DRST.      04.30.56 18-May-20:  Drill Start Tim 
 DTIM.hr                  0.00:  Time Drilling 
 EDEP.m                5337.01:  End Depth 
 ENG1.      Artemiy Matviyanov:  Engineer 1 
 ENG2.      Bakhtiyar Jabbarli:  Engineer 2 
 ENG3.           Emil Huseynov:  Engineer 3 
 ETIM.      18.40.00 22-May-20:  End Time 
 FLOI.gpm               550.00:  Flow In 
 FLON.gpm               350.00:  Flow In Min 
 FLOS.cptm                0.00:  Fluid Loss 
 FLOX.gpm               600.00:  Flow In Max 
 HFLO.                      No:  High Flow 
 HPRE.                      No:  High Pressure 
 HTEM.                      No:  High Temp 
 HYDO.m                   1.80:  Hydro Offset 
 IFIN.deg                67.01:  Inc, Final 
 IMAX.deg                67.49:  Inc Max 
 IMIN.deg                66.50:  Inc Min 
 IMND.m                5144.79:  Inc Min Depth 
 IMXD.m                5116.12:  Inc Max Depth 
 JARR.                      No:  Jarring 
 LETM.      17.55.56 20-May-20:  Log End Time 
 LOST.hr                     0:  Lost Rig Time 
 LSTM.      04.30.56 18-May-20:  Log Start Time 
 MDCL.ppm            193153.00:  Mud Chlorides 
 MDES.     Inversion Oil/Synthetic:  Mud Desc 
 DFD .sg                  1.40:  Mud Density 
 MDMN.sg                  1.40:  Dens Mud Min 
 MDMX.sg                  1.41:  Dens Mud Max 
 MOIL.                      68:  Run Mud Oil % 
 MOWR.                   68:32:  Run Mud OWR 
 MSND.                     0.2:  Run Mud Sand % 
 MSOL.                    18.8:  Run Mud Solids% 
 DFV .spqt               80.00:  Mud Viscosity 
 MWOD.in                  6.75:  MWD Tool OD 
 MWSI.                      No:  Serv Intrp, MWD 
 OTIM.hr                104.84:  Time Operating 
 PMAX.psia            10690.93:  Press Op, Max 
 PV  .cP                 26.00:  Mud PV 
 RUN .                     900:  Run Number 
 ROPA.m/hr                0.00:  ROP Avg 
 ROPN.m/hr                0.00:  ROP Min 
 ROPX.m/hr                0.00:  ROP Max 
 RPMA.rpm               140.00:  RPM Surface Avg 
 RPMN.rpm                70.00:  RPM Surface Min 
 RPMX.rpm               140.00:  RPM Surface Max 
 RRUN.                    0900:  Rig Run Number 
 RTIM.hr                 36.00:  Time Reaming 
 SAZI.deg               115.72:  Azm, Start 
 SDEP.m                5337.01:  Start Depth 
 SIDD.                      No:  Serv Intrp, DD 
 SINC.deg                66.92:  Inc, Start 
 SPPA.psig             4400.00:  SPP Avg 
 SPPN.psig             1135.00:  SPP Min 
 SPPX.psig             4581.00:  SPP Max 
 STIM.      04.30.56 18-May-20:  Start Time 
 SVCS.                     MWD:  Services 
 SVER.                    9.20:  Sperry Version 
 TDAT.m                5337.01:  Tot Depth Attmp 
 TDDF.                      No:  Trip for DD 
 TFF .                      No:  Trip for Fail 
 TQAA.f-kp               23.00:  Torque Abs Avg 
 TQAN.f-kp               18.00:  Torque Abs Min 
 TQAX.f-kp               25.00:  Torque Abs Max 
 TRRT.°/30m               0.74:  Turn Rotating 
 MRT .                    HCIM:  Maximum Recorded Temperature 
 TTMX.degC               76.47:  Max Tool Temp 
 WBMN.klb                 0.00:  WOB Min 
 WITN.             Anar Khalil:  Customer Rep 
 WITN.      Kamran Keberlinski:  Customer Rep 2 
 WOBA.klb                 0.00:  WOB Avg 
 WOBX.klb                 0.00:  WOB Max 
 YP  .lhf2               27.00:  Yield Point 
~Curve Information Block
#MNEM.UNIT                 API CODE     Curve Description
#---------               -----------    ---------------------------
 TIME.HHMMSS            00 000 000 000:  GT Time & Date
 GTDEPTH.m              00 000 000 000:  GT Depth
 GTPQH.psia             00 000 000 000:  GT HR Quartz Pressure
 GTTQ.degC              00 000 000 000:  GT Quartz Temperature
 GTTN.NONE              00 000 000 000:  GT Test Number
 GTET.sec               00 000 000 000:  GT Elapsed Test Time
 GTTVD.m                00 000 000 000:  GT True Vertical Depth
#Other Information
#
#WARRANTY: Halliburton will use its best efforts to furnish customers with 
#accurate information and interpretations that are part of, and incident to, the services 
#provided.  However, Halliburton cannot and does not warrant the accuracy 
#or correctness of such information and interpretations.  Under no circumstances should any 
#such information or interpretation be relied upon as the sole basis for any drilling, 
#completion, production, or financial decision or any procedure involving any risk to the 
#safety of any drilling venture, drilling rig or its crew or any other third party.  The 
#Customer has full responsibility for all drilling, completion and production operation.  
#Halliburton makes no representations or warranties, either expressed or 
#implied, including, but not limited to, the implied warranties of merchantability or fitness 
#for a particular purpose, with respect to the services rendered.  In no event will 
#Halliburton be liable for failure to obtain any particular results or for 
#any damages, including, but not limited to, indirect, special or consequential damages, 
#resulting from the use of any information or interpretation provided by Halliburton.
#
~A           TIME           GTDEPTH  GTPQH  GTTQ  GTTN  GTET   GTTVD  
# ...
   21:45:26.418.19-May-2020 5137.01 3584.99 67.52 3.00 207.05 2705.05
   21:45:26.618.19-May-2020 5137.01 3584.99 67.52 3.00 207.25 2705.05
   21:45:26.818.19-May-2020 5137.01 3593.44 67.52 3.00 207.45 2705.05
   21:45:27.018.19-May-2020 5137.01 3597.19 67.52 3.00 207.65 2705.05
   21:45:27.218.19-May-2020 5137.01 3601.49 67.52 3.00 207.85 2705.05
   21:45:27.418.19-May-2020 5137.01 3605.72 67.52 3.00 208.05 2705.05
   21:45:27.618.19-May-2020 5137.01 3605.72 67.52 3.00 208.25 2705.05
   21:45:27.818.19-May-2020 5137.01 3609.86 67.52 3.00 208.45 2705.05
   21:45:28.018.19-May-2020 5137.01 3617.85 67.52 3.00 208.65 2705.05
   21:45:28.218.19-May-2020 5137.01 3621.88 67.52 3.00 208.85 2705.05
   21:45:28.418.19-May-2020 5137.01 3625.13 67.52 3.00 209.05 2705.05
   21:45:28.618.19-May-2020 5137.01 3625.13 67.52 3.00 209.25 2705.05
   21:45:28.818.19-May-2020 5137.01 3633.47 67.52 3.00 209.45 2705.05
   21:45:29.018.19-May-2020 5137.01 3637.40 67.52 3.00 209.65 2705.05
   21:45:29.218.19-May-2020 5137.01 3641.25 67.52 3.00 209.85 2705.05
   21:45:29.418.19-May-2020 5137.01 3644.22 67.52 3.00 210.05 2705.05
   21:45:29.618.19-May-2020 5137.01 3644.22 67.52 3.00 210.25 2705.05
   21:45:29.818.19-May-2020 5137.01 3652.48 67.52 3.00 210.45 2705.05
   21:45:30.019.19-May-2020 5137.01 3656.22 67.52 3.00 210.65 2705.05
   21:45:30.219.19-May-2020 5137.01 3659.96 67.52 3.00 210.85 2705.05
   21:45:30.419.19-May-2020 5137.01 3663.56 67.52 3.00 211.05 2705.05
   21:45:30.619.19-May-2020 5137.01 3663.56 67.52 3.00 211.25 2705.05
   21:45:30.819.19-May-2020 5137.01 3670.91 67.52 3.00 211.45 2705.05
   21:45:31.019.19-May-2020 5137.01 3674.50 67.52 3.00 211.65 2705.05
   21:45:31.219.19-May-2020 5137.01 3678.00 67.52 3.00 211.85 2705.05
   21:45:31.419.19-May-2020 5137.01 3681.58 67.52 3.00 212.05 2705.05
   21:45:31.619.19-May-2020 5137.01 3681.58 67.52 3.00 212.25 2705.05
   21:45:31.819.19-May-2020 5137.01 3688.59 67.52 3.00 212.45 2705.05
   21:45:32.019.19-May-2020 5137.01 3692.07 67.52 3.00 212.65 2705.05
   21:45:32.219.19-May-2020 5137.01 3695.49 67.52 3.00 212.85 2705.05
   21:45:32.419.19-May-2020 5137.01 3698.19 67.52 3.00 213.05 2705.05
   21:45:32.619.19-May-2020 5137.01 3698.19 67.52 3.00 213.25 2705.05
   21:45:32.819.19-May-2020 5137.01 3705.43 67.52 3.00 213.45 2705.05
   21:45:33.019.19-May-2020 5137.01 3708.90 67.52 3.00 213.65 2705.05
   21:45:33.219.19-May-2020 5137.01 3711.65 67.52 3.00 213.85 2705.05
   21:45:33.419.19-May-2020 5137.01 3715.20 67.52 3.00 214.05 2705.05
   21:45:33.619.19-May-2020 5137.01 3715.20 67.52 3.00 214.25 2705.05
   21:45:33.819.19-May-2020 5137.01 3721.90 67.52 3.00 214.45 2705.05
   21:45:34.020.19-May-2020 5137.01 3725.18 67.52 3.00 214.65 2705.05
   21:45:34.220.19-May-2020 5137.01 3728.32 67.52 3.00 214.85 2705.05
   21:45:34.420.19-May-2020 5137.01 3730.73 67.52 3.00 215.05 2705.05
   21:45:34.620.19-May-2020 5137.01 3730.73 67.52 3.00 215.25 2705.05
   21:45:34.820.19-May-2020 5137.01 3737.76 67.52 3.00 215.45 2705.05
   21:45:35.020.19-May-2020 5137.01 3740.85 67.52 3.00 215.65 2705.05
   21:45:35.220.19-May-2020 5137.01 3744.05 67.52 3.00 215.85 2705.05
   21:45:35.420.19-May-2020 5137.01 3747.12 67.52 3.00 216.05 2705.05
   21:45:35.620.19-May-2020 5137.01 3747.12 67.52 3.00 216.25 2705.05
   21:45:35.820.19-May-2020 5137.01 3753.18 67.52 3.00 216.45 2705.05
   21:45:36.020.19-May-2020 5137.01 3756.13 67.52 3.00 216.65 2705.05
   21:45:36.220.19-May-2020 5137.01 3759.17 67.52 3.00 216.85 2705.05
   21:45:36.420.19-May-2020 5137.01 3761.60 67.52 3.00 217.05 2705.05
   21:45:36.620.19-May-2020 5137.01 3761.60 67.52 3.00 217.25 2705.05
   21:45:36.820.19-May-2020 5137.01 3767.92 67.52 3.00 217.45 2705.05
   21:45:37.020.19-May-2020 5137.01 3770.87 67.52 3.00 217.65 2705.05
   21:45:37.220.19-May-2020 5137.01 3773.79 67.52 3.00 217.85 2705.05
   21:45:37.420.19-May-2020 5137.01 3776.60 67.52 3.00 218.05 2705.05
   21:45:37.620.19-May-2020 5137.01 3776.60 67.52 3.00 218.25 2705.05
   21:45:37.820.19-May-2020 5137.01 3782.30 67.52 3.00 218.45 2705.05
   21:45:38.021.19-May-2020 5137.01 3785.18 67.52 3.00 218.65 2705.05
   21:45:38.221.19-May-2020 5137.01 3787.99 67.52 3.00 218.85 2705.05
   21:45:38.421.19-May-2020 5137.01 3790.73 67.52 3.00 219.05 2705.05
   21:45:38.621.19-May-2020 5137.01 3790.73 67.52 3.00 219.25 2705.05
   21:45:38.821.19-May-2020 5137.01 3796.23 67.52 3.00 219.45 2705.05
   21:45:39.021.19-May-2020 5137.01 3799.02 67.52 3.00 219.65 2705.05
   21:45:39.221.19-May-2020 5137.01 3801.70 67.52 3.00 219.85 2705.05
   21:45:39.421.19-May-2020 5137.01 3804.36 67.52 3.00 220.05 2705.05
   21:45:39.621.19-May-2020 5137.01 3804.36 67.52 3.00 220.25 2705.05
   21:45:39.821.19-May-2020 5137.01 3809.51 67.52 3.00 220.45 2705.05
   21:45:40.021.19-May-2020 5137.01 3812.17 67.52 3.00 220.66 2705.05
   21:45:40.221.19-May-2020 5137.01 3814.79 67.52 3.00 220.86 2705.05
   21:45:40.421.19-May-2020 5137.01 3816.70 67.52 3.00 221.06 2705.05
   21:45:40.621.19-May-2020 5137.01 3816.70 67.52 3.00 221.26 2705.05
   21:45:40.821.19-May-2020 5137.01 3822.40 67.52 3.00 221.46 2705.05
   21:45:41.021.19-May-2020 5137.01 3824.98 67.52 3.00 221.66 2705.05
   21:45:41.221.19-May-2020 5137.01 3827.54 67.52 3.00 221.86 2705.05
   21:45:41.421.19-May-2020 5137.01 3829.39 67.52 3.00 222.06 2705.05
   21:45:41.621.19-May-2020 5137.01 3829.39 67.52 3.00 222.26 2705.05
   21:45:41.821.19-May-2020 5137.01 3834.93 67.52 3.00 222.46 2705.05
   21:45:42.022.19-May-2020 5137.01 3837.40 67.52 3.00 222.66 2705.05
   21:45:42.222.19-May-2020 5137.01 3839.91 67.52 3.00 222.86 2705.05
   21:45:42.422.19-May-2020 5137.01 3841.68 67.52 3.00 223.06 2705.05
   21:45:42.622.19-May-2020 5137.01 3841.68 67.52 3.00 223.26 2705.05
   21:45:42.822.19-May-2020 5137.01 3847.09 67.52 3.00 223.46 2705.05
   21:45:43.022.19-May-2020 5137.01 3849.52 67.52 3.00 223.66 2705.05
   21:45:43.222.19-May-2020 5137.01 3851.10 67.52 3.00 223.86 2705.05
   21:45:43.422.19-May-2020 5137.01 3854.32 67.52 3.00 224.06 2705.05
   21:45:43.622.19-May-2020 5137.01 3854.32 67.52 3.00 224.26 2705.05
   21:45:43.822.19-May-2020 5137.01 3858.81 67.52 3.00 224.46 2705.05
   21:45:44.022.19-May-2020 5137.01 3861.24 67.52 3.00 224.66 2705.05
   21:45:44.222.19-May-2020 5137.01 3863.47 67.52 3.00 224.86 2705.05
   21:45:44.422.19-May-2020 5137.01 3865.76 67.52 3.00 225.06 2705.05
   21:45:44.622.19-May-2020 5137.01 3865.76 67.52 3.00 225.26 2705.05
   21:45:44.822.19-May-2020 5137.01 3870.30 67.52 3.00 225.46 2705.05
   21:45:45.022.19-May-2020 5137.01 3872.55 67.52 3.00 225.66 2705.05
   21:45:45.222.19-May-2020 5137.01 3874.81 67.52 3.00 225.86 2705.05
   21:45:45.422.19-May-2020 5137.01 3877.03 67.52 3.00 226.06 2705.05
   21:45:45.622.19-May-2020 5137.01 3877.03 67.52 3.00 226.26 2705.05
   21:45:45.822.19-May-2020 5137.01 3881.38 67.52 3.00 226.46 2705.05
   21:45:46.023.19-May-2020 5137.01 3883.63 67.52 3.00 226.66 2705.05
   21:45:46.223.19-May-2020 5137.01 3885.32 67.52 3.00 226.86 2705.05
   21:45:46.423.19-May-2020 5137.01 3887.58 67.52 3.00 227.06 2705.05
   21:45:46.623.19-May-2020 5137.01 3887.58 67.52 3.00 227.26 2705.05
   21:45:46.823.19-May-2020 5137.01 3892.02 67.52 3.00 227.46 2705.05
   21:45:47.023.19-May-2020 5137.01 3893.70 67.52 3.00 227.66 2705.05
   21:45:47.223.19-May-2020 5137.01 3895.95 67.52 3.00 227.86 2705.05
   21:45:47.423.19-May-2020 5137.01 3898.20 67.52 3.00 228.06 2705.05
   21:45:47.623.19-May-2020 5137.01 3898.20 67.52 3.00 228.26 2705.05
   21:45:47.823.19-May-2020 5137.01 3900.31 67.52 3.00 228.46 2705.05
   21:45:48.023.19-May-2020 5137.01 3904.35 67.52 3.00 228.66 2705.05
   21:45:48.223.19-May-2020 5137.01 3905.75 67.52 3.00 228.86 2705.05
   21:45:48.423.19-May-2020 5137.01 3908.41 67.52 3.00 229.06 2705.05
   21:45:48.623.19-May-2020 5137.01 3908.41 67.52 3.00 229.26 2705.05
   21:45:48.823.19-May-2020 5137.01 3912.29 67.52 3.00 229.46 2705.05
   21:45:49.023.19-May-2020 5137.01 3914.40 67.52 3.00 229.66 2705.05
   21:45:49.223.19-May-2020 5137.01 3916.38 67.52 3.00 229.86 2705.05
