~Version Information
 VERS.                  2.0:   CWLS log ASCII Standard -VERSION 2.0
 WRAP.                   NO:   One line per depth step
~Well Information Block
#MNEM.UNIT     VALUE/NAME     DESCRIPTION
#---------     -----------    ---------------------------
 STRT.S             03:43:00 20-May-20: START TIME 03:43:00 20-May-20
 STOP.S             03:53:08 20-May-20: STOP TIME  03:53:08 20-May-20
 STEP.S                   0.00: STEP TIME
 NULL.                 -999.25: NULL VALUE
 MDS .        Operator Entered:  MAG DATA SOURCE
 PDAT.          Mean Sea Level:  PERMANENT DATUM
 UNIT.                     N/A:  LOGGING EQUIPMENT ID
 DCON.         Sperry Drilling:  DIRECTNL CONTR
 DOE .                     N/A:  DOE NUMBER
 RIG .              East Azeri:  RIG NAME
 JOBN.        AZ-XX-0905856059:  JOB TICKET NUMB
 WELL.                     D36:  WELL NAME
 MWDS.                    Baku:  MWD SHOP
 SRVC.     Turan Drilling & Engineering:  CONTRACTOR
 FLD .                     ACG:  FIELD NAME
 CTRY.              Azerbaijan:  COUNTRY NAME
 PROV.                    Baku:  PROVINCE
 STAT.                    Baku:  STATE NAME
 REGN.                   EESSA:  REGION
 BASE.              Azerbaijan:  LOGGING EQUIPMENT BASE LOCATION
 UWI .                     N/A:  UNIQUE WELL IDENTIFIER
 API .                     N/A:  API NUMBER
 COMP.     BP Exploration (Caspian Sea) Ltd.:  COMPANY
 WTYP.                Deviated:  WELL TYPE
 SON .        AZ-XX-0905856059:  JOB NUMBER
 FTOP.          Formation Tops:  FORM TOPS DESC
 ILTD.               Lithology:  INTERP LTH DESC
 SVYD.                  Survey:  SURVEY DESC
 DMOD.             Drill Model:  DRILL MOD DESC
 HPTY.       Minimum Curvature:  HOLE POS TYPE
 NREF.                    Grid:  NORTH REFERENCE
 SPUD.               25-Feb-20:  SPUD DATE
 DATE.      08.55.28 01-May-20:  END TIME
 STIM.      08.55.28 25-Feb-20:  START TIME
 DMF .             Drill Floor:  DRILL MEAS FROM
 DFST.                        :  DIST FSL TEXT
 DFWT.                        :  DIST FWL TEXT
 CNTY.                        :  COUNTY
 LOC .                        :  LOCATION
 LMF .             Drill Floor:  LOG MEASURED FROM
 VSNS.m                   6.09:  VERT SEC N/S
 VSEW.m                 -10.79:  VERT SEC E/W
 AGAP.m                  43.60:  AIR GAP
 DEP .m                 388.24:  DEPTH
 APD .m                  43.60:  DEPTH ABOVE PD
 WDMS.m                 151.80:  WD ELEV
 EGL .m                   0.00:  GROUND ELEVATION
 EPD .m                   0.00:  ELEVATION
 AZTC.deg                 6.12:  AZM TOTAL CORR
 GRDC.deg                 0.30:  GRID CORRECTION
 MDEC.deg                 6.42:  MAGNETIC DECL
 MDIP.deg                59.42:  MAGNETIC DIP
 MFLD.nT              50256.00:  MAGNETIC FIELD
 GVFD.g                   1.00:  GRAVITY FIELD
 VSDR.deg               159.57:  VERT SEC DIRECT
 TDD .m                5000.01:  TOTAL DEPTH (DRILLER)
 SDEP.m                 397.00:  START DEPTH
 DFSL.m                   0.00:  DISTANCE FSL
 DFWL.m                   0.00:  DISTANCE FWL
 UTMY.m             4431880.20:  UTM Y
 UTMX.m              538763.98:  UTM X
 WHEW.m                 -10.79:  WELL HEAD E/W
 WHNS.m                   6.09:  WELL HEAD N/S
 LONG.deg                51.45:  LONGITUDE
 LATI.deg                40.02:  LATITUDE
 TVDS.m                  43.60:  TVDSS CORRECTN
 EKB .m                  43.60:  KB ELEVATION
 EDF .m                  43.60:  DF ELEVATION
 MAGU.                 1847640:  MAGUTM CHECKSUM
 VSC .                       0:  VS TO CLOSURE
~Parameter Information Block
#MNEM.UNIT       Value        Description
#---------     -----------    ---------------------------
 AV  .mps                 1.30:  Ann Velocity 
 AVMX.mps                 1.90:  Max Ann Veloc 
 AZIF.deg               115.68:  Azm, Final 
 BHAT.                   Other:  BHA Type 
 BROT.°/30m               0.74:  Build Rotating 
 BS  .in                  8.50:  Bit Size 
 BTPL.psig              430.00:  Bit Press Loss 
 CABU.                      No:  Customer Abuse 
 COMM.                     ÌÍk:  Run Comments 1 
 TCS .hr                 51.31:  Time Ciculation Ended 
 CV  .mps                 2.52:  Crit Velocity 
 CVMX.mps                 2.62:  Max Crit Veloc 
 DD1 .          Teymur Aghayev:  Direct Drillr 1 
 DDSV.                   Other:  DD Service 
 DEFF.%                 100.00:  % Det Eff 
 DLRX.°/30m               1.62:  Dogleg Rot Max 
 DLSO.°/30m               0.74:  Dogleg Oriented 
 DLSX.°/30m               1.62:  Dogleg Str Max 
 DRET.      04.30.56 18-May-20:  Drill End Time 
 DRST.      04.30.56 18-May-20:  Drill Start Tim 
 DTIM.hr                  0.00:  Time Drilling 
 EDEP.m                5337.01:  End Depth 
 ENG1.      Artemiy Matviyanov:  Engineer 1 
 ENG2.      Bakhtiyar Jabbarli:  Engineer 2 
 ENG3.           Emil Huseynov:  Engineer 3 
 ETIM.      18.40.00 22-May-20:  End Time 
 FLOI.gpm               550.00:  Flow In 
 FLON.gpm               350.00:  Flow In Min 
 FLOS.cptm                0.00:  Fluid Loss 
 FLOX.gpm               600.00:  Flow In Max 
 HFLO.                      No:  High Flow 
 HPRE.                      No:  High Pressure 
 HTEM.                      No:  High Temp 
 HYDO.m                   1.80:  Hydro Offset 
 IFIN.deg                67.01:  Inc, Final 
 IMAX.deg                67.49:  Inc Max 
 IMIN.deg                66.50:  Inc Min 
 IMND.m                5144.79:  Inc Min Depth 
 IMXD.m                5116.12:  Inc Max Depth 
 JARR.                      No:  Jarring 
 LETM.      17.55.56 20-May-20:  Log End Time 
 LOST.hr                     0:  Lost Rig Time 
 LSTM.      04.30.56 18-May-20:  Log Start Time 
 MDCL.ppm            193153.00:  Mud Chlorides 
 MDES.     Inversion Oil/Synthetic:  Mud Desc 
 DFD .sg                  1.40:  Mud Density 
 MDMN.sg                  1.40:  Dens Mud Min 
 MDMX.sg                  1.41:  Dens Mud Max 
 MOIL.                      68:  Run Mud Oil % 
 MOWR.                   68:32:  Run Mud OWR 
 MSND.                     0.2:  Run Mud Sand % 
 MSOL.                    18.8:  Run Mud Solids% 
 DFV .spqt               80.00:  Mud Viscosity 
 MWOD.in                  6.75:  MWD Tool OD 
 MWSI.                      No:  Serv Intrp, MWD 
 OTIM.hr                104.84:  Time Operating 
 PMAX.psia            10690.93:  Press Op, Max 
 PV  .cP                 26.00:  Mud PV 
 RUN .                     900:  Run Number 
 ROPA.m/hr                0.00:  ROP Avg 
 ROPN.m/hr                0.00:  ROP Min 
 ROPX.m/hr                0.00:  ROP Max 
 RPMA.rpm               140.00:  RPM Surface Avg 
 RPMN.rpm                70.00:  RPM Surface Min 
 RPMX.rpm               140.00:  RPM Surface Max 
 RRUN.                    0900:  Rig Run Number 
 RTIM.hr                 36.00:  Time Reaming 
 SAZI.deg               115.72:  Azm, Start 
 SDEP.m                5337.01:  Start Depth 
 SIDD.                      No:  Serv Intrp, DD 
 SINC.deg                66.92:  Inc, Start 
 SPPA.psig             4400.00:  SPP Avg 
 SPPN.psig             1135.00:  SPP Min 
 SPPX.psig             4581.00:  SPP Max 
 STIM.      04.30.56 18-May-20:  Start Time 
 SVCS.                     MWD:  Services 
 SVER.                    9.20:  Sperry Version 
 TDAT.m                5337.01:  Tot Depth Attmp 
 TDDF.                      No:  Trip for DD 
 TFF .                      No:  Trip for Fail 
 TQAA.f-kp               23.00:  Torque Abs Avg 
 TQAN.f-kp               18.00:  Torque Abs Min 
 TQAX.f-kp               25.00:  Torque Abs Max 
 TRRT.°/30m               0.74:  Turn Rotating 
 MRT .                    HCIM:  Maximum Recorded Temperature 
 TTMX.degC               76.47:  Max Tool Temp 
 WBMN.klb                 0.00:  WOB Min 
 WITN.             Anar Khalil:  Customer Rep 
 WITN.      Kamran Keberlinski:  Customer Rep 2 
 WOBA.klb                 0.00:  WOB Avg 
 WOBX.klb                 0.00:  WOB Max 
 YP  .lhf2               27.00:  Yield Point 
~Curve Information Block
#MNEM.UNIT                 API CODE     Curve Description
#---------               -----------    ---------------------------
 TIME.HHMMSS            00 000 000 000:  GT Time & Date
 GTDEPTH.m              00 000 000 000:  GT Depth
 GTPQH.psia             00 000 000 000:  GT HR Quartz Pressure
 GTTQ.degC              00 000 000 000:  GT Quartz Temperature
 GTTN.NONE              00 000 000 000:  GT Test Number
 GTET.sec               00 000 000 000:  GT Elapsed Test Time
 GTTVD.m                00 000 000 000:  GT True Vertical Depth
#Other Information
#
#WARRANTY: Halliburton will use its best efforts to furnish customers with 
#accurate information and interpretations that are part of, and incident to, the services 
#provided.  However, Halliburton cannot and does not warrant the accuracy 
#or correctness of such information and interpretations.  Under no circumstances should any 
#such information or interpretation be relied upon as the sole basis for any drilling, 
#completion, production, or financial decision or any procedure involving any risk to the 
#safety of any drilling venture, drilling rig or its crew or any other third party.  The 
#Customer has full responsibility for all drilling, completion and production operation.  
#Halliburton makes no representations or warranties, either expressed or 
#implied, including, but not limited to, the implied warranties of merchantability or fitness 
#for a particular purpose, with respect to the services rendered.  In no event will 
#Halliburton be liable for failure to obtain any particular results or for 
#any damages, including, but not limited to, indirect, special or consequential damages, 
#resulting from the use of any information or interpretation provided by Halliburton.
#
~A           TIME           GTDEPTH  GTPQH  GTTQ  GTTN  GTET   GTTVD  
# ...
   03:47:36.974.20-May-2020 5064.01  398.09 68.96 8.00 276.08 2676.56
   03:47:37.174.20-May-2020 5064.01  398.74 68.96 8.00 276.28 2676.56
   03:47:37.374.20-May-2020 5064.01  398.99 68.96 8.00 276.48 2676.56
   03:47:37.574.20-May-2020 5064.01  399.46 68.96 8.00 276.68 2676.56
   03:47:37.774.20-May-2020 5064.01  399.44 68.96 8.00 276.88 2676.56
   03:47:37.974.20-May-2020 5064.01  399.99 68.96 8.00 277.08 2676.56
   03:47:38.174.20-May-2020 5064.01  400.31 68.96 8.00 277.28 2676.56
   03:47:38.374.20-May-2020 5064.01  400.69 68.96 8.00 277.48 2676.56
   03:47:38.575.20-May-2020 5064.01  401.17 68.96 8.00 277.68 2676.56
   03:47:38.775.20-May-2020 5064.01  401.13 68.96 8.00 277.88 2676.56
   03:47:38.975.20-May-2020 5064.01  401.77 68.96 8.00 278.08 2676.56
   03:47:39.175.20-May-2020 5064.01  401.77 68.96 8.00 278.28 2676.56
   03:47:39.375.20-May-2020 5064.01  402.48 68.96 8.00 278.48 2676.56
   03:47:39.575.20-May-2020 5064.01  402.98 68.96 8.00 278.68 2676.56
   03:47:39.775.20-May-2020 5064.01  403.37 68.96 8.00 278.88 2676.56
   03:47:39.975.20-May-2020 5064.01  403.51 68.96 8.00 279.08 2676.56
   03:47:40.175.20-May-2020 5064.01  403.51 68.96 8.00 279.28 2676.56
   03:47:40.375.20-May-2020 5064.01  404.26 68.96 8.00 279.48 2676.56
   03:47:40.575.20-May-2020 5064.01  404.70 68.96 8.00 279.68 2676.56
   03:47:40.775.20-May-2020 5064.01  404.76 68.96 8.00 279.88 2676.56
   03:47:40.975.20-May-2020 5064.01  405.23 68.96 8.00 280.08 2676.56
   03:47:41.175.20-May-2020 5064.01  405.48 68.96 8.00 280.28 2676.56
   03:47:41.375.20-May-2020 5064.01  405.92 68.96 8.00 280.48 2676.56
   03:47:41.575.20-May-2020 5064.01  406.32 68.96 8.00 280.68 2676.56
   03:47:41.775.20-May-2020 5064.01  406.75 68.96 8.00 280.88 2676.56
   03:47:41.976.20-May-2020 5064.01  407.10 68.96 8.00 281.08 2676.56
   03:47:42.176.20-May-2020 5064.01  407.58 68.96 8.00 281.28 2676.56
   03:47:42.376.20-May-2020 5064.01  408.00 68.96 8.00 281.48 2676.56
   03:47:42.576.20-May-2020 5064.01  408.46 68.96 8.00 281.68 2676.56
   03:47:42.776.20-May-2020 5064.01  408.93 68.96 8.00 281.88 2676.56
   03:47:42.976.20-May-2020 5064.01  409.38 68.96 8.00 282.08 2676.56
   03:47:43.176.20-May-2020 5064.01  409.38 68.96 8.00 282.28 2676.56
   03:47:43.376.20-May-2020 5064.01  410.25 68.96 8.00 282.48 2676.56
   03:47:43.576.20-May-2020 5064.01  410.73 68.96 8.00 282.68 2676.56
   03:47:43.776.20-May-2020 5064.01  410.72 68.96 8.00 282.88 2676.56
   03:47:43.976.20-May-2020 5064.01  411.36 68.96 8.00 283.08 2676.56
   03:47:44.176.20-May-2020 5064.01  411.36 68.96 8.00 283.28 2676.56
   03:47:44.376.20-May-2020 5064.01  412.06 68.96 8.00 283.48 2676.56
   03:47:44.576.20-May-2020 5064.01  412.15 68.96 8.00 283.68 2676.56
   03:47:44.776.20-May-2020 5064.01  412.55 68.96 8.00 283.88 2676.56
   03:47:44.976.20-May-2020 5064.01  412.87 68.96 8.00 284.08 2676.56
   03:47:45.176.20-May-2020 5064.01  413.32 68.96 8.00 284.28 2676.56
   03:47:45.376.20-May-2020 5064.01  413.77 68.96 8.00 284.48 2676.56
   03:47:45.577.20-May-2020 5064.01  413.89 68.96 8.00 284.68 2676.56
   03:47:45.777.20-May-2020 5064.01  414.30 68.96 8.00 284.88 2676.56
   03:47:45.977.20-May-2020 5064.01  414.62 68.96 8.00 285.08 2676.56
   03:47:46.177.20-May-2020 5064.01  414.98 68.96 8.00 285.28 2676.56
   03:47:46.377.20-May-2020 5064.01  415.41 68.96 8.00 285.48 2676.56
   03:47:46.577.20-May-2020 5064.01  415.42 68.96 8.00 285.68 2676.56
   03:47:46.777.20-May-2020 5064.01  415.91 68.96 8.00 285.88 2676.56
   03:47:46.977.20-May-2020 5064.01  416.20 68.96 8.00 286.08 2676.56
   03:47:47.177.20-May-2020 5064.01  416.20 68.96 8.00 286.28 2676.56
   03:47:47.377.20-May-2020 5064.01  417.13 68.96 8.00 286.48 2676.56
   03:47:47.577.20-May-2020 5064.01  417.48 68.96 8.00 286.68 2676.56
   03:47:47.777.20-May-2020 5064.01  417.45 68.96 8.00 286.88 2676.56
   03:47:47.977.20-May-2020 5064.01  417.98 68.96 8.00 287.08 2676.56
   03:47:48.177.20-May-2020 5064.01  417.98 68.96 8.00 287.28 2676.56
   03:47:48.377.20-May-2020 5064.01  418.78 68.96 8.00 287.48 2676.56
   03:47:48.577.20-May-2020 5064.01  419.24 68.96 8.00 287.68 2676.56
   03:47:48.777.20-May-2020 5064.01  419.63 68.96 8.00 287.88 2676.56
   03:47:48.977.20-May-2020 5064.01  420.01 68.96 8.00 288.08 2676.56
   03:47:49.178.20-May-2020 5064.01  420.01 68.96 8.00 288.28 2676.56
   03:47:49.378.20-May-2020 5064.01  420.90 68.96 8.00 288.48 2676.56
   03:47:49.578.20-May-2020 5064.01  421.39 68.96 8.00 288.68 2676.56
   03:47:49.778.20-May-2020 5064.01  421.82 68.96 8.00 288.88 2676.56
   03:47:49.978.20-May-2020 5064.01  422.23 68.96 8.00 289.08 2676.56
   03:47:50.178.20-May-2020 5064.01  422.71 68.96 8.00 289.28 2676.56
   03:47:50.378.20-May-2020 5064.01  423.15 68.96 8.00 289.48 2676.56
   03:47:50.578.20-May-2020 5064.01  423.58 68.96 8.00 289.68 2676.56
   03:47:50.778.20-May-2020 5064.01  423.57 68.96 8.00 289.88 2676.56
   03:47:50.978.20-May-2020 5064.01  424.13 68.96 8.00 290.08 2676.56
   03:47:51.178.20-May-2020 5064.01  424.13 68.96 8.00 290.28 2676.56
   03:47:51.378.20-May-2020 5064.01  424.67 68.96 8.00 290.48 2676.56
   03:47:51.578.20-May-2020 5064.01  425.15 68.96 8.00 290.68 2676.56
   03:47:51.778.20-May-2020 5064.01  425.42 68.96 8.00 290.88 2676.56
   03:47:51.978.20-May-2020 5064.01  425.79 68.96 8.00 291.08 2676.56
   03:47:52.178.20-May-2020 5064.01  425.79 68.96 8.00 291.28 2676.56
   03:47:52.378.20-May-2020 5064.01  426.62 68.96 8.00 291.48 2676.56
   03:47:52.579.20-May-2020 5064.01  426.55 68.96 8.00 291.68 2676.56
   03:47:52.779.20-May-2020 5064.01  427.21 68.96 8.00 291.88 2676.56
   03:47:52.979.20-May-2020 5064.01  427.44 68.96 8.00 292.08 2676.56
   03:47:53.179.20-May-2020 5064.01  427.86 68.96 8.00 292.28 2676.56
   03:47:53.379.20-May-2020 5064.01  428.12 68.96 8.00 292.48 2676.56
   03:47:53.579.20-May-2020 5064.01  428.46 68.96 8.00 292.68 2676.56
   03:47:53.779.20-May-2020 5064.01  428.75 68.96 8.00 292.88 2676.56
   03:47:53.979.20-May-2020 5064.01  429.18 68.96 8.00 293.08 2676.56
   03:47:54.179.20-May-2020 5064.01  429.60 68.96 8.00 293.28 2676.56
   03:47:54.379.20-May-2020 5064.01  429.55 68.96 8.00 293.48 2676.56
   03:47:54.579.20-May-2020 5064.01  430.03 68.96 8.00 293.68 2676.56
   03:47:54.779.20-May-2020 5064.01  430.37 68.96 8.00 293.88 2676.56
   03:47:54.979.20-May-2020 5064.01  430.74 68.96 8.00 294.08 2676.56
   03:47:55.179.20-May-2020 5064.01  430.74 68.96 8.00 294.28 2676.56
   03:47:55.379.20-May-2020 5064.01  431.66 68.96 8.00 294.48 2676.56
   03:47:55.579.20-May-2020 5064.01  432.04 68.96 8.00 294.68 2676.56
   03:47:55.779.20-May-2020 5064.01  432.48 68.96 8.00 294.88 2676.56
   03:47:55.979.20-May-2020 5064.01  432.91 68.96 8.00 295.08 2676.56
   03:47:56.180.20-May-2020 5064.01  432.91 68.96 8.00 295.28 2676.56
   03:47:56.380.20-May-2020 5064.01  433.80 68.96 8.00 295.48 2676.56
   03:47:56.580.20-May-2020 5064.01  434.25 68.96 8.00 295.68 2676.56
   03:47:56.780.20-May-2020 5064.01  434.67 68.96 8.00 295.88 2676.56
   03:47:56.980.20-May-2020 5064.01  435.09 68.96 8.00 296.08 2676.56
   03:47:57.180.20-May-2020 5064.01  435.35 68.96 8.00 296.28 2676.56
   03:47:57.380.20-May-2020 5064.01  435.75 68.96 8.00 296.48 2676.56
   03:47:57.580.20-May-2020 5064.01  436.10 68.96 8.00 296.68 2676.56
   03:47:57.780.20-May-2020 5064.01  436.55 68.96 8.00 296.88 2676.56
   03:47:57.980.20-May-2020 5064.01  436.57 68.96 8.00 297.08 2676.56
   03:47:58.180.20-May-2020 5064.01  437.12 68.96 8.00 297.28 2676.56
   03:47:58.380.20-May-2020 5064.01  437.31 68.96 8.00 297.48 2676.56
   03:47:58.580.20-May-2020 5064.01  437.78 68.96 8.00 297.68 2676.56
   03:47:58.780.20-May-2020 5064.01  438.14 68.96 8.00 297.88 2676.56
   03:47:58.980.20-May-2020 5064.01  438.55 68.96 8.00 298.08 2676.56
   03:47:59.180.20-May-2020 5064.01  438.64 68.96 8.00 298.28 2676.56
   03:47:59.380.20-May-2020 5064.01  439.26 68.96 8.00 298.48 2676.56
   03:47:59.580.20-May-2020 5064.01  439.49 68.96 8.00 298.68 2676.56
   03:47:59.781.20-May-2020 5064.01  439.97 68.96 8.00 298.88 2676.56
