~Version Information
 VERS.                  2.0:   CWLS log ASCII Standard -VERSION 2.0
 WRAP.                   NO:   One line per depth step
~Well Information Block
#MNEM.UNIT     VALUE/NAME     DESCRIPTION
#---------     -----------    ---------------------------
 STRT.S             15:16:23 19-May-20: START TIME 15:16:23 19-May-20
 STOP.S             15:23:31 19-May-20: STOP TIME  15:23:31 19-May-20
 STEP.S                   0.00: STEP TIME
 NULL.                 -999.25: NULL VALUE
 MDS .        Operator Entered:  MAG DATA SOURCE
 PDAT.          Mean Sea Level:  PERMANENT DATUM
 UNIT.                     N/A:  LOGGING EQUIPMENT ID
 DCON.         Sperry Drilling:  DIRECTNL CONTR
 DOE .                     N/A:  DOE NUMBER
 RIG .              East Azeri:  RIG NAME
 JOBN.        AZ-XX-0905856059:  JOB TICKET NUMB
 WELL.                     D36:  WELL NAME
 MWDS.                    Baku:  MWD SHOP
 SRVC.     Turan Drilling & Engineering:  CONTRACTOR
 FLD .                     ACG:  FIELD NAME
 CTRY.              Azerbaijan:  COUNTRY NAME
 PROV.                    Baku:  PROVINCE
 STAT.                    Baku:  STATE NAME
 REGN.                   EESSA:  REGION
 BASE.              Azerbaijan:  LOGGING EQUIPMENT BASE LOCATION
 UWI .                     N/A:  UNIQUE WELL IDENTIFIER
 API .                     N/A:  API NUMBER
 COMP.     BP Exploration (Caspian Sea) Ltd.:  COMPANY
 WTYP.                Deviated:  WELL TYPE
 SON .        AZ-XX-0905856059:  JOB NUMBER
 FTOP.          Formation Tops:  FORM TOPS DESC
 ILTD.               Lithology:  INTERP LTH DESC
 SVYD.                  Survey:  SURVEY DESC
 DMOD.             Drill Model:  DRILL MOD DESC
 HPTY.       Minimum Curvature:  HOLE POS TYPE
 NREF.                    Grid:  NORTH REFERENCE
 SPUD.               25-Feb-20:  SPUD DATE
 DATE.      08.55.28 01-May-20:  END TIME
 STIM.      08.55.28 25-Feb-20:  START TIME
 DMF .             Drill Floor:  DRILL MEAS FROM
 DFST.                        :  DIST FSL TEXT
 DFWT.                        :  DIST FWL TEXT
 CNTY.                        :  COUNTY
 LOC .                        :  LOCATION
 LMF .             Drill Floor:  LOG MEASURED FROM
 VSNS.m                   6.09:  VERT SEC N/S
 VSEW.m                 -10.79:  VERT SEC E/W
 AGAP.m                  43.60:  AIR GAP
 DEP .m                 388.24:  DEPTH
 APD .m                  43.60:  DEPTH ABOVE PD
 WDMS.m                 151.80:  WD ELEV
 EGL .m                   0.00:  GROUND ELEVATION
 EPD .m                   0.00:  ELEVATION
 AZTC.deg                 6.12:  AZM TOTAL CORR
 GRDC.deg                 0.30:  GRID CORRECTION
 MDEC.deg                 6.42:  MAGNETIC DECL
 MDIP.deg                59.42:  MAGNETIC DIP
 MFLD.nT              50256.00:  MAGNETIC FIELD
 GVFD.g                   1.00:  GRAVITY FIELD
 VSDR.deg               159.57:  VERT SEC DIRECT
 TDD .m                5000.01:  TOTAL DEPTH (DRILLER)
 SDEP.m                 397.00:  START DEPTH
 DFSL.m                   0.00:  DISTANCE FSL
 DFWL.m                   0.00:  DISTANCE FWL
 UTMY.m             4431880.20:  UTM Y
 UTMX.m              538763.98:  UTM X
 WHEW.m                 -10.79:  WELL HEAD E/W
 WHNS.m                   6.09:  WELL HEAD N/S
 LONG.deg                51.45:  LONGITUDE
 LATI.deg                40.02:  LATITUDE
 TVDS.m                  43.60:  TVDSS CORRECTN
 EKB .m                  43.60:  KB ELEVATION
 EDF .m                  43.60:  DF ELEVATION
 MAGU.                 1847640:  MAGUTM CHECKSUM
 VSC .                       0:  VS TO CLOSURE
~Parameter Information Block
#MNEM.UNIT       Value        Description
#---------     -----------    ---------------------------
 AV  .mps                 1.30:  Ann Velocity 
 AVMX.mps                 1.90:  Max Ann Veloc 
 AZIF.deg               115.68:  Azm, Final 
 BHAT.                   Other:  BHA Type 
 BROT.°/30m               0.74:  Build Rotating 
 BS  .in                  8.50:  Bit Size 
 BTPL.psig              430.00:  Bit Press Loss 
 CABU.                      No:  Customer Abuse 
 TCS .hr                 51.31:  Time Ciculation Ended 
 CV  .mps                 2.52:  Crit Velocity 
 CVMX.mps                 2.62:  Max Crit Veloc 
 DD1 .          Teymur Aghayev:  Direct Drillr 1 
 DDSV.                   Other:  DD Service 
 DEFF.%                 100.00:  % Det Eff 
 DLRX.°/30m               1.62:  Dogleg Rot Max 
 DLSO.°/30m               0.74:  Dogleg Oriented 
 DLSX.°/30m               1.62:  Dogleg Str Max 
 DRET.      04.30.56 18-May-20:  Drill End Time 
 DRST.      04.30.56 18-May-20:  Drill Start Tim 
 DTIM.hr                  0.00:  Time Drilling 
 EDEP.m                5337.01:  End Depth 
 ENG1.      Artemiy Matviyanov:  Engineer 1 
 ENG2.      Bakhtiyar Jabbarli:  Engineer 2 
 ENG3.           Emil Huseynov:  Engineer 3 
 ETIM.      18.40.00 22-May-20:  End Time 
 FLOI.gpm               550.00:  Flow In 
 FLON.gpm               350.00:  Flow In Min 
 FLOS.cptm                0.00:  Fluid Loss 
 FLOX.gpm               600.00:  Flow In Max 
 HFLO.                      No:  High Flow 
 HPRE.                      No:  High Pressure 
 HTEM.                      No:  High Temp 
 HYDO.m                   1.80:  Hydro Offset 
 IFIN.deg                67.01:  Inc, Final 
 IMAX.deg                67.49:  Inc Max 
 IMIN.deg                66.50:  Inc Min 
 IMND.m                5144.79:  Inc Min Depth 
 IMXD.m                5116.12:  Inc Max Depth 
 JARR.                      No:  Jarring 
 LETM.      17.55.56 20-May-20:  Log End Time 
 LOST.hr                     0:  Lost Rig Time 
 LSTM.      04.30.56 18-May-20:  Log Start Time 
 MDCL.ppm            193153.00:  Mud Chlorides 
 MDES.     Inversion Oil/Synthetic:  Mud Desc 
 DFD .sg                  1.40:  Mud Density 
 MDMN.sg                  1.40:  Dens Mud Min 
 MDMX.sg                  1.41:  Dens Mud Max 
 MOIL.                      68:  Run Mud Oil % 
 MOWR.                   68:32:  Run Mud OWR 
 MSND.                     0.2:  Run Mud Sand % 
 MSOL.                    18.8:  Run Mud Solids% 
 DFV .spqt               80.00:  Mud Viscosity 
 MWOD.in                  6.75:  MWD Tool OD 
 MWSI.                      No:  Serv Intrp, MWD 
 OTIM.hr                104.84:  Time Operating 
 PMAX.psia            10690.93:  Press Op, Max 
 PV  .cP                 26.00:  Mud PV 
 RUN .                     900:  Run Number 
 ROPA.m/hr                0.00:  ROP Avg 
 ROPN.m/hr                0.00:  ROP Min 
 ROPX.m/hr                0.00:  ROP Max 
 RPMA.rpm               140.00:  RPM Surface Avg 
 RPMN.rpm                70.00:  RPM Surface Min 
 RPMX.rpm               140.00:  RPM Surface Max 
 RRUN.                    0900:  Rig Run Number 
 RTIM.hr                 36.00:  Time Reaming 
 SAZI.deg               115.72:  Azm, Start 
 SDEP.m                5337.01:  Start Depth 
 SIDD.                      No:  Serv Intrp, DD 
 SINC.deg                66.92:  Inc, Start 
 SPPA.psig             4400.00:  SPP Avg 
 SPPN.psig             1135.00:  SPP Min 
 SPPX.psig             4581.00:  SPP Max 
 STIM.      04.30.56 18-May-20:  Start Time 
 SVCS.                     MWD:  Services 
 SVER.                    9.20:  Sperry Version 
 TDAT.m                5337.01:  Tot Depth Attmp 
 TDDF.                      No:  Trip for DD 
 TFF .                      No:  Trip for Fail 
 TQAA.f-kp               23.00:  Torque Abs Avg 
 TQAN.f-kp               18.00:  Torque Abs Min 
 TQAX.f-kp               25.00:  Torque Abs Max 
 TRRT.°/30m               0.74:  Turn Rotating 
 MRT .                    HCIM:  Maximum Recorded Temperature 
 TTMX.degC               76.47:  Max Tool Temp 
 WBMN.klb                 0.00:  WOB Min 
 WITN.             Anar Khalil:  Customer Rep 
 WITN.      Kamran Keberlinski:  Customer Rep 2 
 WOBA.klb                 0.00:  WOB Avg 
 WOBX.klb                 0.00:  WOB Max 
 YP  .lhf2               27.00:  Yield Point 
~Curve Information Block
#MNEM.UNIT                 API CODE     Curve Description
#---------               -----------    ---------------------------
 TIME.HHMMSS            00 000 000 000:  GT Time & Date
 GTDEPTH.m              00 000 000 000:  GT Depth
 GTPQH.psia             00 000 000 000:  GT HR Quartz Pressure
 GTTQ.degC              00 000 000 000:  GT Quartz Temperature
 GTTN.NONE              00 000 000 000:  GT Test Number
 GTET.sec               00 000 000 000:  GT Elapsed Test Time
 GTTVD.m                00 000 000 000:  GT True Vertical Depth
#Other Information
#
#WARRANTY: Halliburton will use its best efforts to furnish customers with 
#accurate information and interpretations that are part of, and incident to, the services 
#provided.  However, Halliburton cannot and does not warrant the accuracy 
#or correctness of such information and interpretations.  Under no circumstances should any 
#such information or interpretation be relied upon as the sole basis for any drilling, 
#completion, production, or financial decision or any procedure involving any risk to the 
#safety of any drilling venture, drilling rig or its crew or any other third party.  The 
#Customer has full responsibility for all drilling, completion and production operation.  
#Halliburton makes no representations or warranties, either expressed or 
#implied, including, but not limited to, the implied warranties of merchantability or fitness 
#for a particular purpose, with respect to the services rendered.  In no event will 
#Halliburton be liable for failure to obtain any particular results or for 
#any damages, including, but not limited to, indirect, special or consequential damages, 
#resulting from the use of any information or interpretation provided by Halliburton.
#
~A           TIME           GTDEPTH  GTPQH  GTTQ  GTTN  GTET   GTTVD  
# ...
   15:19:27.356.19-May-2020 5277.61 3454.01 67.43 1.00 184.04 2760.35
   15:19:27.556.19-May-2020 5277.61 3453.86 67.43 1.00 184.24 2760.35
   15:19:27.756.19-May-2020 5277.61 3453.69 67.43 1.00 184.44 2760.35
   15:19:27.956.19-May-2020 5277.61 3453.75 67.43 1.00 184.64 2760.35
   15:19:28.156.19-May-2020 5277.61 3453.57 67.43 1.00 184.84 2760.35
   15:19:28.356.19-May-2020 5277.61 3454.15 67.43 1.00 185.04 2760.35
   15:19:28.556.19-May-2020 5277.61 3454.15 67.43 1.00 185.24 2760.35
   15:19:28.756.19-May-2020 5277.61 3453.59 67.43 1.00 185.44 2760.35
   15:19:28.956.19-May-2020 5277.61 3453.70 67.43 1.00 185.64 2760.35
   15:19:29.156.19-May-2020 5277.61 3453.85 67.43 1.00 185.84 2760.35
   15:19:29.356.19-May-2020 5277.61 3453.76 67.43 1.00 186.04 2760.35
   15:19:29.556.19-May-2020 5277.61 3453.76 67.43 1.00 186.24 2760.35
   15:19:29.756.19-May-2020 5277.61 3453.70 67.43 1.00 186.44 2760.35
   15:19:29.956.19-May-2020 5277.61 3453.78 67.43 1.00 186.64 2760.35
   15:19:30.156.19-May-2020 5277.61 3453.79 67.43 1.00 186.84 2760.35
   15:19:30.356.19-May-2020 5277.61 3453.77 67.43 1.00 187.04 2760.35
   15:19:30.556.19-May-2020 5277.61 3453.77 67.43 1.00 187.24 2760.35
   15:19:30.757.19-May-2020 5277.61 3453.80 67.43 1.00 187.44 2760.35
   15:19:30.957.19-May-2020 5277.61 3453.83 67.43 1.00 187.64 2760.35
   15:19:31.157.19-May-2020 5277.61 3453.67 67.43 1.00 187.84 2760.35
   15:19:31.357.19-May-2020 5277.61 3454.01 67.43 1.00 188.04 2760.35
   15:19:31.557.19-May-2020 5277.61 3453.95 67.43 1.00 188.24 2760.35
   15:19:31.757.19-May-2020 5277.61 3453.78 67.43 1.00 188.44 2760.35
   15:19:31.957.19-May-2020 5277.61 3453.81 67.43 1.00 188.64 2760.35
   15:19:32.157.19-May-2020 5277.61 3453.96 67.43 1.00 188.84 2760.35
   15:19:32.357.19-May-2020 5277.61 3454.03 67.43 1.00 189.04 2760.35
   15:19:32.557.19-May-2020 5277.61 3454.03 67.43 1.00 189.24 2760.35
   15:19:32.757.19-May-2020 5277.61 3453.75 67.43 1.00 189.44 2760.35
   15:19:32.957.19-May-2020 5277.61 3453.78 67.43 1.00 189.64 2760.35
   15:19:33.157.19-May-2020 5277.61 3454.13 67.43 1.00 189.85 2760.35
   15:19:33.357.19-May-2020 5277.61 3453.94 67.43 1.00 190.05 2760.35
   15:19:33.557.19-May-2020 5277.61 3453.94 67.43 1.00 190.25 2760.35
   15:19:33.757.19-May-2020 5277.61 3453.84 67.43 1.00 190.45 2760.35
   15:19:33.957.19-May-2020 5277.61 3453.90 67.43 1.00 190.65 2760.35
   15:19:34.157.19-May-2020 5277.61 3453.88 67.43 1.00 190.85 2760.35
   15:19:34.357.19-May-2020 5277.61 3453.68 67.43 1.00 191.05 2760.35
   15:19:34.557.19-May-2020 5277.61 3453.68 67.43 1.00 191.25 2760.35
   15:19:34.757.19-May-2020 5277.61 3453.79 67.43 1.00 191.45 2760.35
   15:19:34.958.19-May-2020 5277.61 3453.81 67.43 1.00 191.65 2760.35
   15:19:35.158.19-May-2020 5277.61 3453.83 67.43 1.00 191.85 2760.35
   15:19:35.358.19-May-2020 5277.61 3454.18 67.43 1.00 192.05 2760.35
   15:19:35.558.19-May-2020 5277.61 3453.98 67.43 1.00 192.25 2760.35
   15:19:35.758.19-May-2020 5277.61 3453.75 67.43 1.00 192.45 2760.35
   15:19:35.958.19-May-2020 5277.61 3453.82 67.43 1.00 192.65 2760.35
   15:19:36.158.19-May-2020 5277.61 3453.84 67.43 1.00 192.85 2760.35
   15:19:36.358.19-May-2020 5277.61 3453.89 67.43 1.00 193.05 2760.35
   15:19:36.558.19-May-2020 5277.61 3453.89 67.43 1.00 193.25 2760.35
   15:19:36.758.19-May-2020 5277.61 3453.83 67.43 1.00 193.45 2760.35
   15:19:36.958.19-May-2020 5277.61 3453.86 67.43 1.00 193.65 2760.35
   15:19:37.158.19-May-2020 5277.61 3453.88 67.43 1.00 193.85 2760.35
   15:19:37.358.19-May-2020 5277.61 3453.86 67.43 1.00 194.05 2760.35
   15:19:37.558.19-May-2020 5277.61 3453.86 67.43 1.00 194.25 2760.35
   15:19:37.758.19-May-2020 5277.61 3453.87 67.43 1.00 194.45 2760.35
   15:19:37.958.19-May-2020 5277.61 3453.90 67.43 1.00 194.65 2760.35
   15:19:38.158.19-May-2020 5277.61 3453.89 67.43 1.00 194.85 2760.35
   15:19:38.358.19-May-2020 5277.61 3453.97 67.43 1.00 195.05 2760.35
   15:19:38.558.19-May-2020 5277.61 3453.97 67.43 1.00 195.25 2760.35
   15:19:38.758.19-May-2020 5277.61 3453.94 67.43 1.00 195.45 2760.35
   15:19:38.958.19-May-2020 5277.61 3453.88 67.43 1.00 195.65 2760.35
   15:19:39.159.19-May-2020 5277.61 3454.14 67.43 1.00 195.85 2760.35
   15:19:39.359.19-May-2020 5277.61 3454.12 67.43 1.00 196.05 2760.35
   15:19:39.559.19-May-2020 5277.61 3453.84 67.43 1.00 196.25 2760.35
   15:19:39.759.19-May-2020 5277.61 3453.84 67.43 1.00 196.45 2760.35
   15:19:39.959.19-May-2020 5277.61 3453.92 67.43 1.00 196.65 2760.35
   15:19:40.159.19-May-2020 5277.61 3454.05 67.43 1.00 196.85 2760.35
   15:19:40.359.19-May-2020 5277.61 3454.04 67.43 1.00 197.05 2760.35
   15:19:40.559.19-May-2020 5277.61 3454.04 67.43 1.00 197.25 2760.35
   15:19:40.759.19-May-2020 5277.61 3453.79 67.43 1.00 197.45 2760.35
   15:19:40.959.19-May-2020 5277.61 3454.01 67.43 1.00 197.65 2760.35
   15:19:41.159.19-May-2020 5277.61 3454.02 67.43 1.00 197.85 2760.35
   15:19:41.359.19-May-2020 5277.61 3453.75 67.43 1.00 198.05 2760.35
   15:19:41.559.19-May-2020 5277.61 3453.75 67.43 1.00 198.25 2760.35
   15:19:41.759.19-May-2020 5277.61 3453.96 67.43 1.00 198.45 2760.35
   15:19:41.959.19-May-2020 5277.61 3453.86 67.43 1.00 198.65 2760.35
   15:19:42.159.19-May-2020 5277.61 3453.90 67.43 1.00 198.85 2760.35
   15:19:42.359.19-May-2020 5277.61 3454.13 67.43 1.00 199.05 2760.35
   15:19:42.559.19-May-2020 5277.61 3454.13 67.43 1.00 199.25 2760.35
   15:19:42.759.19-May-2020 5277.61 3453.88 67.43 1.00 199.45 2760.35
   15:19:42.959.19-May-2020 5277.61 3453.80 67.43 1.00 199.65 2760.35
   15:19:43.159.19-May-2020 5277.61 3453.95 67.43 1.00 199.85 2760.35
   15:19:43.360.19-May-2020 5277.61 3453.96 67.43 1.00 200.05 2760.35
   15:19:43.560.19-May-2020 5277.61 3453.96 67.43 1.00 200.25 2760.35
   15:19:43.760.19-May-2020 5277.61 3453.89 67.43 1.00 200.45 2760.35
   15:19:43.960.19-May-2020 5277.61 3453.92 67.43 1.00 200.65 2760.35
   15:19:44.160.19-May-2020 5277.61 3453.97 67.43 1.00 200.85 2760.35
   15:19:44.360.19-May-2020 5277.61 3453.94 67.43 1.00 201.05 2760.35
   15:19:44.560.19-May-2020 5277.61 3453.94 67.43 1.00 201.25 2760.35
   15:19:44.760.19-May-2020 5277.61 3453.96 67.43 1.00 201.45 2760.35
   15:19:44.960.19-May-2020 5277.61 3453.98 67.43 1.00 201.65 2760.35
   15:19:45.160.19-May-2020 5277.61 3453.95 67.43 1.00 201.85 2760.35
   15:19:45.360.19-May-2020 5277.61 3454.05 67.43 1.00 202.05 2760.35
   15:19:45.560.19-May-2020 5277.61 3454.05 67.43 1.00 202.25 2760.35
   15:19:45.760.19-May-2020 5277.61 3453.91 67.43 1.00 202.45 2760.35
   15:19:45.960.19-May-2020 5277.61 3453.94 67.43 1.00 202.65 2760.35
   15:19:46.160.19-May-2020 5277.61 3453.85 67.43 1.00 202.85 2760.35
   15:19:46.360.19-May-2020 5277.61 3454.36 67.43 1.00 203.05 2760.35
   15:19:46.560.19-May-2020 5277.61 3454.36 67.43 1.00 203.25 2760.35
   15:19:46.760.19-May-2020 5277.61 3453.84 67.43 1.00 203.45 2760.35
   15:19:46.960.19-May-2020 5277.61 3453.99 67.43 1.00 203.65 2760.35
   15:19:47.160.19-May-2020 5277.61 3454.18 67.43 1.00 203.85 2760.35
   15:19:47.360.19-May-2020 5277.61 3454.15 67.43 1.00 204.05 2760.35
   15:19:47.561.19-May-2020 5277.61 3454.15 67.43 1.00 204.25 2760.35
   15:19:47.761.19-May-2020 5277.61 3453.87 67.43 1.00 204.45 2760.35
   15:19:47.961.19-May-2020 5277.61 3454.00 67.43 1.00 204.65 2760.35
   15:19:48.161.19-May-2020 5277.61 3454.06 67.43 1.00 204.85 2760.35
   15:19:48.361.19-May-2020 5277.61 3453.87 67.43 1.00 205.05 2760.35
   15:19:48.561.19-May-2020 5277.61 3453.87 67.43 1.00 205.25 2760.35
   15:19:48.761.19-May-2020 5277.61 3454.15 67.43 1.00 205.45 2760.35
   15:19:48.961.19-May-2020 5277.61 3453.94 67.43 1.00 205.65 2760.35
   15:19:49.161.19-May-2020 5277.61 3453.98 67.43 1.00 205.85 2760.35
   15:19:49.361.19-May-2020 5277.61 3454.13 67.43 1.00 206.05 2760.35
   15:19:49.561.19-May-2020 5277.61 3454.13 67.43 1.00 206.25 2760.35
   15:19:49.761.19-May-2020 5277.61 3453.89 67.43 1.00 206.45 2760.35
   15:19:49.961.19-May-2020 5277.61 3453.92 67.43 1.00 206.65 2760.35
   15:19:50.161.19-May-2020 5277.61 3454.00 67.43 1.00 206.85 2760.35
