~Version Information
 VERS.                  2.0:   CWLS log ASCII Standard -VERSION 2.0
 WRAP.                   NO:   One line per depth step
~Well Information Block
#MNEM.UNIT     VALUE/NAME     DESCRIPTION
#---------     -----------    ---------------------------
 STRT.S             03:43:00 20-May-20: START TIME 03:43:00 20-May-20
 STOP.S             03:53:08 20-May-20: STOP TIME  03:53:08 20-May-20
 STEP.S                   0.00: STEP TIME
 NULL.                 -999.25: NULL VALUE
 MDS .        Operator Entered:  MAG DATA SOURCE
 PDAT.          Mean Sea Level:  PERMANENT DATUM
 UNIT.                     N/A:  LOGGING EQUIPMENT ID
 DCON.         Sperry Drilling:  DIRECTNL CONTR
 DOE .                     N/A:  DOE NUMBER
 RIG .              East Azeri:  RIG NAME
 JOBN.        AZ-XX-0905856059:  JOB TICKET NUMB
 WELL.                     D36:  WELL NAME
 MWDS.                    Baku:  MWD SHOP
 SRVC.     Turan Drilling & Engineering:  CONTRACTOR
 FLD .                     ACG:  FIELD NAME
 CTRY.              Azerbaijan:  COUNTRY NAME
 PROV.                    Baku:  PROVINCE
 STAT.                    Baku:  STATE NAME
 REGN.                   EESSA:  REGION
 BASE.              Azerbaijan:  LOGGING EQUIPMENT BASE LOCATION
 UWI .                     N/A:  UNIQUE WELL IDENTIFIER
 API .                     N/A:  API NUMBER
 COMP.     BP Exploration (Caspian Sea) Ltd.:  COMPANY
 WTYP.                Deviated:  WELL TYPE
 SON .        AZ-XX-0905856059:  JOB NUMBER
 FTOP.          Formation Tops:  FORM TOPS DESC
 ILTD.               Lithology:  INTERP LTH DESC
 SVYD.                  Survey:  SURVEY DESC
 DMOD.             Drill Model:  DRILL MOD DESC
 HPTY.       Minimum Curvature:  HOLE POS TYPE
 NREF.                    Grid:  NORTH REFERENCE
 SPUD.               25-Feb-20:  SPUD DATE
 DATE.      08.55.28 01-May-20:  END TIME
 STIM.      08.55.28 25-Feb-20:  START TIME
 DMF .             Drill Floor:  DRILL MEAS FROM
 DFST.                        :  DIST FSL TEXT
 DFWT.                        :  DIST FWL TEXT
 CNTY.                        :  COUNTY
 LOC .                        :  LOCATION
 LMF .             Drill Floor:  LOG MEASURED FROM
 VSNS.m                   6.09:  VERT SEC N/S
 VSEW.m                 -10.79:  VERT SEC E/W
 AGAP.m                  43.60:  AIR GAP
 DEP .m                 388.24:  DEPTH
 APD .m                  43.60:  DEPTH ABOVE PD
 WDMS.m                 151.80:  WD ELEV
 EGL .m                   0.00:  GROUND ELEVATION
 EPD .m                   0.00:  ELEVATION
 AZTC.deg                 6.12:  AZM TOTAL CORR
 GRDC.deg                 0.30:  GRID CORRECTION
 MDEC.deg                 6.42:  MAGNETIC DECL
 MDIP.deg                59.42:  MAGNETIC DIP
 MFLD.nT              50256.00:  MAGNETIC FIELD
 GVFD.g                   1.00:  GRAVITY FIELD
 VSDR.deg               159.57:  VERT SEC DIRECT
 TDD .m                5000.01:  TOTAL DEPTH (DRILLER)
 SDEP.m                 397.00:  START DEPTH
 DFSL.m                   0.00:  DISTANCE FSL
 DFWL.m                   0.00:  DISTANCE FWL
 UTMY.m             4431880.20:  UTM Y
 UTMX.m              538763.98:  UTM X
 WHEW.m                 -10.79:  WELL HEAD E/W
 WHNS.m                   6.09:  WELL HEAD N/S
 LONG.deg                51.45:  LONGITUDE
 LATI.deg                40.02:  LATITUDE
 TVDS.m                  43.60:  TVDSS CORRECTN
 EKB .m                  43.60:  KB ELEVATION
 EDF .m                  43.60:  DF ELEVATION
 MAGU.                 1847640:  MAGUTM CHECKSUM
 VSC .                       0:  VS TO CLOSURE
~Parameter Information Block
#MNEM.UNIT       Value        Description
#---------     -----------    ---------------------------
 AV  .mps                 1.30:  Ann Velocity 
 AVMX.mps                 1.90:  Max Ann Veloc 
 AZIF.deg               115.68:  Azm, Final 
 BHAT.                   Other:  BHA Type 
 BROT.°/30m               0.74:  Build Rotating 
 BS  .in                  8.50:  Bit Size 
 BTPL.psig              430.00:  Bit Press Loss 
 CABU.                      No:  Customer Abuse 
 COMM.                     ÌÍk:  Run Comments 1 
 TCS .hr                 51.31:  Time Ciculation Ended 
 CV  .mps                 2.52:  Crit Velocity 
 CVMX.mps                 2.62:  Max Crit Veloc 
 DD1 .          Teymur Aghayev:  Direct Drillr 1 
 DDSV.                   Other:  DD Service 
 DEFF.%                 100.00:  % Det Eff 
 DLRX.°/30m               1.62:  Dogleg Rot Max 
 DLSO.°/30m               0.74:  Dogleg Oriented 
 DLSX.°/30m               1.62:  Dogleg Str Max 
 DRET.      04.30.56 18-May-20:  Drill End Time 
 DRST.      04.30.56 18-May-20:  Drill Start Tim 
 DTIM.hr                  0.00:  Time Drilling 
 EDEP.m                5337.01:  End Depth 
 ENG1.      Artemiy Matviyanov:  Engineer 1 
 ENG2.      Bakhtiyar Jabbarli:  Engineer 2 
 ENG3.           Emil Huseynov:  Engineer 3 
 ETIM.      18.40.00 22-May-20:  End Time 
 FLOI.gpm               550.00:  Flow In 
 FLON.gpm               350.00:  Flow In Min 
 FLOS.cptm                0.00:  Fluid Loss 
 FLOX.gpm               600.00:  Flow In Max 
 HFLO.                      No:  High Flow 
 HPRE.                      No:  High Pressure 
 HTEM.                      No:  High Temp 
 HYDO.m                   1.80:  Hydro Offset 
 IFIN.deg                67.01:  Inc, Final 
 IMAX.deg                67.49:  Inc Max 
 IMIN.deg                66.50:  Inc Min 
 IMND.m                5144.79:  Inc Min Depth 
 IMXD.m                5116.12:  Inc Max Depth 
 JARR.                      No:  Jarring 
 LETM.      17.55.56 20-May-20:  Log End Time 
 LOST.hr                     0:  Lost Rig Time 
 LSTM.      04.30.56 18-May-20:  Log Start Time 
 MDCL.ppm            193153.00:  Mud Chlorides 
 MDES.     Inversion Oil/Synthetic:  Mud Desc 
 DFD .sg                  1.40:  Mud Density 
 MDMN.sg                  1.40:  Dens Mud Min 
 MDMX.sg                  1.41:  Dens Mud Max 
 MOIL.                      68:  Run Mud Oil % 
 MOWR.                   68:32:  Run Mud OWR 
 MSND.                     0.2:  Run Mud Sand % 
 MSOL.                    18.8:  Run Mud Solids% 
 DFV .spqt               80.00:  Mud Viscosity 
 MWOD.in                  6.75:  MWD Tool OD 
 MWSI.                      No:  Serv Intrp, MWD 
 OTIM.hr                104.84:  Time Operating 
 PMAX.psia            10690.93:  Press Op, Max 
 PV  .cP                 26.00:  Mud PV 
 RUN .                     900:  Run Number 
 ROPA.m/hr                0.00:  ROP Avg 
 ROPN.m/hr                0.00:  ROP Min 
 ROPX.m/hr                0.00:  ROP Max 
 RPMA.rpm               140.00:  RPM Surface Avg 
 RPMN.rpm                70.00:  RPM Surface Min 
 RPMX.rpm               140.00:  RPM Surface Max 
 RRUN.                    0900:  Rig Run Number 
 RTIM.hr                 36.00:  Time Reaming 
 SAZI.deg               115.72:  Azm, Start 
 SDEP.m                5337.01:  Start Depth 
 SIDD.                      No:  Serv Intrp, DD 
 SINC.deg                66.92:  Inc, Start 
 SPPA.psig             4400.00:  SPP Avg 
 SPPN.psig             1135.00:  SPP Min 
 SPPX.psig             4581.00:  SPP Max 
 STIM.      04.30.56 18-May-20:  Start Time 
 SVCS.                     MWD:  Services 
 SVER.                    9.20:  Sperry Version 
 TDAT.m                5337.01:  Tot Depth Attmp 
 TDDF.                      No:  Trip for DD 
 TFF .                      No:  Trip for Fail 
 TQAA.f-kp               23.00:  Torque Abs Avg 
 TQAN.f-kp               18.00:  Torque Abs Min 
 TQAX.f-kp               25.00:  Torque Abs Max 
 TRRT.°/30m               0.74:  Turn Rotating 
 MRT .                    HCIM:  Maximum Recorded Temperature 
 TTMX.degC               76.47:  Max Tool Temp 
 WBMN.klb                 0.00:  WOB Min 
 WITN.             Anar Khalil:  Customer Rep 
 WITN.      Kamran Keberlinski:  Customer Rep 2 
 WOBA.klb                 0.00:  WOB Avg 
 WOBX.klb                 0.00:  WOB Max 
 YP  .lhf2               27.00:  Yield Point 
~Curve Information Block
#MNEM.UNIT                 API CODE     Curve Description
#---------               -----------    ---------------------------
 TIME.HHMMSS            00 000 000 000:  GT Time & Date
 GTDEPTH.m              00 000 000 000:  GT Depth
 GTPQH.psia             00 000 000 000:  GT HR Quartz Pressure
 GTTQ.degC              00 000 000 000:  GT Quartz Temperature
 GTTN.NONE              00 000 000 000:  GT Test Number
 GTET.sec               00 000 000 000:  GT Elapsed Test Time
 GTTVD.m                00 000 000 000:  GT True Vertical Depth
#Other Information
#
#WARRANTY: Halliburton will use its best efforts to furnish customers with 
#accurate information and interpretations that are part of, and incident to, the services 
#provided.  However, Halliburton cannot and does not warrant the accuracy 
#or correctness of such information and interpretations.  Under no circumstances should any 
#such information or interpretation be relied upon as the sole basis for any drilling, 
#completion, production, or financial decision or any procedure involving any risk to the 
#safety of any drilling venture, drilling rig or its crew or any other third party.  The 
#Customer has full responsibility for all drilling, completion and production operation.  
#Halliburton makes no representations or warranties, either expressed or 
#implied, including, but not limited to, the implied warranties of merchantability or fitness 
#for a particular purpose, with respect to the services rendered.  In no event will 
#Halliburton be liable for failure to obtain any particular results or for 
#any damages, including, but not limited to, indirect, special or consequential damages, 
#resulting from the use of any information or interpretation provided by Halliburton.
#
~A           TIME           GTDEPTH  GTPQH  GTTQ  GTTN  GTET   GTTVD  
# ...
   03:46:50.961.20-May-2020 5064.01  381.05 68.96 8.00 230.07 2676.56
   03:46:51.161.20-May-2020 5064.01  381.05 68.96 8.00 230.27 2676.56
   03:46:51.361.20-May-2020 5064.01  381.52 68.96 8.00 230.47 2676.56
   03:46:51.561.20-May-2020 5064.01  381.45 68.96 8.00 230.67 2676.56
   03:46:51.761.20-May-2020 5064.01  380.52 68.96 8.00 230.87 2676.56
   03:46:51.961.20-May-2020 5064.01  380.09 68.96 8.00 231.07 2676.56
   03:46:52.161.20-May-2020 5064.01  380.09 68.96 8.00 231.27 2676.56
   03:46:52.361.20-May-2020 5064.01  380.21 68.96 8.00 231.47 2676.56
   03:46:52.562.20-May-2020 5064.01  380.41 68.96 8.00 231.67 2676.56
   03:46:52.762.20-May-2020 5064.01  380.28 68.96 8.00 231.87 2676.56
   03:46:52.962.20-May-2020 5064.01  380.58 68.96 8.00 232.07 2676.56
   03:46:53.162.20-May-2020 5064.01  380.58 68.96 8.00 232.27 2676.56
   03:46:53.362.20-May-2020 5064.01  380.76 68.96 8.00 232.47 2676.56
   03:46:53.562.20-May-2020 5064.01  380.58 68.96 8.00 232.67 2676.56
   03:46:53.762.20-May-2020 5064.01  380.96 68.96 8.00 232.87 2676.56
   03:46:53.962.20-May-2020 5064.01  381.15 68.96 8.00 233.07 2676.56
   03:46:54.162.20-May-2020 5064.01  381.27 68.96 8.00 233.27 2676.56
   03:46:54.362.20-May-2020 5064.01  381.30 68.96 8.00 233.47 2676.56
   03:46:54.562.20-May-2020 5064.01  381.24 68.96 8.00 233.67 2676.56
   03:46:54.762.20-May-2020 5064.01  381.38 68.96 8.00 233.87 2676.56
   03:46:54.962.20-May-2020 5064.01  381.04 68.96 8.00 234.07 2676.56
   03:46:55.162.20-May-2020 5064.01  381.04 68.96 8.00 234.27 2676.56
   03:46:55.362.20-May-2020 5064.01  380.73 68.96 8.00 234.47 2676.56
   03:46:55.562.20-May-2020 5064.01  380.58 68.96 8.00 234.67 2676.56
   03:46:55.762.20-May-2020 5064.01  380.51 68.96 8.00 234.87 2676.56
   03:46:55.962.20-May-2020 5064.01  379.87 68.96 8.00 235.07 2676.56
   03:46:56.163.20-May-2020 5064.01  379.87 68.96 8.00 235.27 2676.56
   03:46:56.363.20-May-2020 5064.01  377.30 68.96 8.00 235.47 2676.56
   03:46:56.563.20-May-2020 5064.01  377.25 68.96 8.00 235.67 2676.56
   03:46:56.763.20-May-2020 5064.01  377.66 68.96 8.00 235.87 2676.56
   03:46:56.963.20-May-2020 5064.01  377.76 68.96 8.00 236.07 2676.56
   03:46:57.163.20-May-2020 5064.01  377.73 68.96 8.00 236.27 2676.56
   03:46:57.363.20-May-2020 5064.01  377.98 68.96 8.00 236.47 2676.56
   03:46:57.563.20-May-2020 5064.01  378.51 68.96 8.00 236.67 2676.56
   03:46:57.763.20-May-2020 5064.01  379.10 68.96 8.00 236.87 2676.56
   03:46:57.963.20-May-2020 5064.01  378.65 68.96 8.00 237.07 2676.56
   03:46:58.163.20-May-2020 5064.01  378.39 68.96 8.00 237.27 2676.56
   03:46:58.363.20-May-2020 5064.01  378.62 68.96 8.00 237.47 2676.56
   03:46:58.563.20-May-2020 5064.01  378.86 68.96 8.00 237.67 2676.56
   03:46:58.763.20-May-2020 5064.01  379.17 68.96 8.00 237.87 2676.56
   03:46:58.963.20-May-2020 5064.01  379.17 68.96 8.00 238.07 2676.56
   03:46:59.163.20-May-2020 5064.01  379.17 68.96 8.00 238.27 2676.56
   03:46:59.363.20-May-2020 5064.01  378.93 68.96 8.00 238.47 2676.56
   03:46:59.564.20-May-2020 5064.01  378.79 68.96 8.00 238.67 2676.56
   03:46:59.764.20-May-2020 5064.01  379.32 68.96 8.00 238.87 2676.56
   03:46:59.964.20-May-2020 5064.01  379.42 68.96 8.00 239.07 2676.56
   03:47:00.164.20-May-2020 5064.01  379.42 68.96 8.00 239.27 2676.56
   03:47:00.364.20-May-2020 5064.01  379.65 68.96 8.00 239.47 2676.56
   03:47:00.564.20-May-2020 5064.01  380.03 68.96 8.00 239.67 2676.56
   03:47:00.764.20-May-2020 5064.01  380.57 68.96 8.00 239.87 2676.56
   03:47:00.964.20-May-2020 5064.01  380.73 68.96 8.00 240.07 2676.56
   03:47:01.164.20-May-2020 5064.01  380.73 68.96 8.00 240.27 2676.56
   03:47:01.364.20-May-2020 5064.01  381.61 68.96 8.00 240.47 2676.56
   03:47:01.564.20-May-2020 5064.01  381.87 68.96 8.00 240.67 2676.56
   03:47:01.764.20-May-2020 5064.01  382.26 68.96 8.00 240.87 2676.56
   03:47:01.964.20-May-2020 5064.01  382.63 68.96 8.00 241.07 2676.56
   03:47:02.164.20-May-2020 5064.01  382.94 68.96 8.00 241.27 2676.56
   03:47:02.364.20-May-2020 5064.01  383.13 68.96 8.00 241.47 2676.56
   03:47:02.564.20-May-2020 5064.01  383.24 68.96 8.00 241.67 2676.56
   03:47:02.764.20-May-2020 5064.01  383.54 68.96 8.00 241.87 2676.56
   03:47:02.964.20-May-2020 5064.01  383.20 68.96 8.00 242.07 2676.56
   03:47:03.165.20-May-2020 5064.01  383.20 68.96 8.00 242.27 2676.56
   03:47:03.365.20-May-2020 5064.01  383.21 68.96 8.00 242.47 2676.56
   03:47:03.565.20-May-2020 5064.01  383.56 68.96 8.00 242.67 2676.56
   03:47:03.765.20-May-2020 5064.01  383.63 68.96 8.00 242.87 2676.56
   03:47:03.965.20-May-2020 5064.01  383.50 68.96 8.00 243.07 2676.56
   03:47:04.165.20-May-2020 5064.01  383.50 68.96 8.00 243.27 2676.56
   03:47:04.365.20-May-2020 5064.01  383.99 68.96 8.00 243.47 2676.56
   03:47:04.565.20-May-2020 5064.01  384.06 68.96 8.00 243.67 2676.56
   03:47:04.765.20-May-2020 5064.01  383.92 68.96 8.00 243.87 2676.56
   03:47:04.965.20-May-2020 5064.01  383.60 68.96 8.00 244.07 2676.56
   03:47:05.165.20-May-2020 5064.01  384.00 68.96 8.00 244.27 2676.56
   03:47:05.365.20-May-2020 5064.01  384.28 68.96 8.00 244.47 2676.56
   03:47:05.565.20-May-2020 5064.01  384.53 68.96 8.00 244.67 2676.56
   03:47:05.765.20-May-2020 5064.01  384.86 68.96 8.00 244.87 2676.56
   03:47:05.965.20-May-2020 5064.01  384.64 68.96 8.00 245.07 2676.56
   03:47:06.165.20-May-2020 5064.01  384.66 68.96 8.00 245.27 2676.56
   03:47:06.365.20-May-2020 5064.01  384.78 68.96 8.00 245.47 2676.56
   03:47:06.565.20-May-2020 5064.01  384.93 68.96 8.00 245.67 2676.56
   03:47:06.766.20-May-2020 5064.01  384.42 68.96 8.00 245.87 2676.56
   03:47:06.966.20-May-2020 5064.01  383.85 68.96 8.00 246.07 2676.56
   03:47:07.166.20-May-2020 5064.01  383.85 68.96 8.00 246.27 2676.56
   03:47:07.366.20-May-2020 5064.01  384.45 68.96 8.00 246.47 2676.56
   03:47:07.566.20-May-2020 5064.01  384.93 68.96 8.00 246.67 2676.56
   03:47:07.766.20-May-2020 5064.01  385.34 68.96 8.00 246.87 2676.56
   03:47:07.966.20-May-2020 5064.01  385.67 68.96 8.00 247.07 2676.56
   03:47:08.166.20-May-2020 5064.01  385.67 68.96 8.00 247.27 2676.56
   03:47:08.366.20-May-2020 5064.01  386.49 68.96 8.00 247.47 2676.56
   03:47:08.566.20-May-2020 5064.01  386.84 68.96 8.00 247.67 2676.56
   03:47:08.766.20-May-2020 5064.01  387.26 68.96 8.00 247.87 2676.56
   03:47:08.966.20-May-2020 5064.01  387.49 68.96 8.00 248.07 2676.56
   03:47:09.166.20-May-2020 5064.01  387.49 68.96 8.00 248.27 2676.56
   03:47:09.366.20-May-2020 5064.01  388.21 68.96 8.00 248.47 2676.56
   03:47:09.566.20-May-2020 5064.01  388.58 68.96 8.00 248.67 2676.56
   03:47:09.766.20-May-2020 5064.01  388.63 68.96 8.00 248.87 2676.56
   03:47:09.966.20-May-2020 5064.01  388.86 68.96 8.00 249.07 2676.56
   03:47:10.167.20-May-2020 5064.01  388.94 68.96 8.00 249.27 2676.56
   03:47:10.367.20-May-2020 5064.01  389.39 68.96 8.00 249.47 2676.56
   03:47:10.567.20-May-2020 5064.01  389.41 68.96 8.00 249.67 2676.56
   03:47:10.767.20-May-2020 5064.01  389.54 68.96 8.00 249.87 2676.56
   03:47:10.967.20-May-2020 5064.01  389.55 68.96 8.00 250.07 2676.56
   03:47:11.167.20-May-2020 5064.01  389.55 68.96 8.00 250.27 2676.56
   03:47:11.367.20-May-2020 5064.01  390.35 68.96 8.00 250.47 2676.56
   03:47:11.567.20-May-2020 5064.01  389.78 68.96 8.00 250.67 2676.56
   03:47:11.767.20-May-2020 5064.01  389.85 68.96 8.00 250.87 2676.56
   03:47:11.967.20-May-2020 5064.01  390.04 68.96 8.00 251.07 2676.56
   03:47:12.167.20-May-2020 5064.01  390.04 68.96 8.00 251.27 2676.56
   03:47:12.367.20-May-2020 5064.01  391.07 68.96 8.00 251.47 2676.56
   03:47:12.567.20-May-2020 5064.01  391.32 68.96 8.00 251.67 2676.56
   03:47:12.767.20-May-2020 5064.01  391.70 68.96 8.00 251.87 2676.56
   03:47:12.967.20-May-2020 5064.01  391.56 68.96 8.00 252.07 2676.56
   03:47:13.167.20-May-2020 5064.01  391.89 68.96 8.00 252.27 2676.56
   03:47:13.367.20-May-2020 5064.01  392.21 68.96 8.00 252.47 2676.56
   03:47:13.567.20-May-2020 5064.01  392.48 68.96 8.00 252.67 2676.56
   03:47:13.768.20-May-2020 5064.01  392.61 68.96 8.00 252.87 2676.56
