~Version Information
 VERS.                  2.0:   CWLS log ASCII Standard -VERSION 2.0
 WRAP.                   NO:   One line per depth step
~Well Information Block
#MNEM.UNIT     VALUE/NAME     DESCRIPTION
#---------     -----------    ---------------------------
 STRT.S             23:11:25 19-May-20: START TIME 23:11:25 19-May-20
 STOP.S             23:19:39 19-May-20: STOP TIME  23:19:39 19-May-20
 STEP.S                   0.00: STEP TIME
 NULL.                 -999.25: NULL VALUE
 MDS .        Operator Entered:  MAG DATA SOURCE
 PDAT.          Mean Sea Level:  PERMANENT DATUM
 UNIT.                     N/A:  LOGGING EQUIPMENT ID
 DCON.         Sperry Drilling:  DIRECTNL CONTR
 DOE .                     N/A:  DOE NUMBER
 RIG .              East Azeri:  RIG NAME
 JOBN.        AZ-XX-0905856059:  JOB TICKET NUMB
 WELL.                     D36:  WELL NAME
 MWDS.                    Baku:  MWD SHOP
 SRVC.     Turan Drilling & Engineering:  CONTRACTOR
 FLD .                     ACG:  FIELD NAME
 CTRY.              Azerbaijan:  COUNTRY NAME
 PROV.                    Baku:  PROVINCE
 STAT.                    Baku:  STATE NAME
 REGN.                   EESSA:  REGION
 BASE.              Azerbaijan:  LOGGING EQUIPMENT BASE LOCATION
 UWI .                     N/A:  UNIQUE WELL IDENTIFIER
 API .                     N/A:  API NUMBER
 COMP.     BP Exploration (Caspian Sea) Ltd.:  COMPANY
 WTYP.                Deviated:  WELL TYPE
 SON .        AZ-XX-0905856059:  JOB NUMBER
 FTOP.          Formation Tops:  FORM TOPS DESC
 ILTD.               Lithology:  INTERP LTH DESC
 SVYD.                  Survey:  SURVEY DESC
 DMOD.             Drill Model:  DRILL MOD DESC
 HPTY.       Minimum Curvature:  HOLE POS TYPE
 NREF.                    Grid:  NORTH REFERENCE
 SPUD.               25-Feb-20:  SPUD DATE
 DATE.      08.55.28 01-May-20:  END TIME
 STIM.      08.55.28 25-Feb-20:  START TIME
 DMF .             Drill Floor:  DRILL MEAS FROM
 DFST.                        :  DIST FSL TEXT
 DFWT.                        :  DIST FWL TEXT
 CNTY.                        :  COUNTY
 LOC .                        :  LOCATION
 LMF .             Drill Floor:  LOG MEASURED FROM
 VSNS.m                   6.09:  VERT SEC N/S
 VSEW.m                 -10.79:  VERT SEC E/W
 AGAP.m                  43.60:  AIR GAP
 DEP .m                 388.24:  DEPTH
 APD .m                  43.60:  DEPTH ABOVE PD
 WDMS.m                 151.80:  WD ELEV
 EGL .m                   0.00:  GROUND ELEVATION
 EPD .m                   0.00:  ELEVATION
 AZTC.deg                 6.12:  AZM TOTAL CORR
 GRDC.deg                 0.30:  GRID CORRECTION
 MDEC.deg                 6.42:  MAGNETIC DECL
 MDIP.deg                59.42:  MAGNETIC DIP
 MFLD.nT              50256.00:  MAGNETIC FIELD
 GVFD.g                   1.00:  GRAVITY FIELD
 VSDR.deg               159.57:  VERT SEC DIRECT
 TDD .m                5000.01:  TOTAL DEPTH (DRILLER)
 SDEP.m                 397.00:  START DEPTH
 DFSL.m                   0.00:  DISTANCE FSL
 DFWL.m                   0.00:  DISTANCE FWL
 UTMY.m             4431880.20:  UTM Y
 UTMX.m              538763.98:  UTM X
 WHEW.m                 -10.79:  WELL HEAD E/W
 WHNS.m                   6.09:  WELL HEAD N/S
 LONG.deg                51.45:  LONGITUDE
 LATI.deg                40.02:  LATITUDE
 TVDS.m                  43.60:  TVDSS CORRECTN
 EKB .m                  43.60:  KB ELEVATION
 EDF .m                  43.60:  DF ELEVATION
 MAGU.                 1847640:  MAGUTM CHECKSUM
 VSC .                       0:  VS TO CLOSURE
~Parameter Information Block
#MNEM.UNIT       Value        Description
#---------     -----------    ---------------------------
 AV  .mps                 1.30:  Ann Velocity 
 AVMX.mps                 1.90:  Max Ann Veloc 
 AZIF.deg               115.68:  Azm, Final 
 BHAT.                   Other:  BHA Type 
 BROT.°/30m               0.74:  Build Rotating 
 BS  .in                  8.50:  Bit Size 
 BTPL.psig              430.00:  Bit Press Loss 
 CABU.                      No:  Customer Abuse 
 COMM.                     Tr}:  Run Comments 1 
 TCS .hr                 51.31:  Time Ciculation Ended 
 CV  .mps                 2.52:  Crit Velocity 
 CVMX.mps                 2.62:  Max Crit Veloc 
 DD1 .          Teymur Aghayev:  Direct Drillr 1 
 DDSV.                   Other:  DD Service 
 DEFF.%                 100.00:  % Det Eff 
 DLRX.°/30m               1.62:  Dogleg Rot Max 
 DLSO.°/30m               0.74:  Dogleg Oriented 
 DLSX.°/30m               1.62:  Dogleg Str Max 
 DRET.      04.30.56 18-May-20:  Drill End Time 
 DRST.      04.30.56 18-May-20:  Drill Start Tim 
 DTIM.hr                  0.00:  Time Drilling 
 EDEP.m                5337.01:  End Depth 
 ENG1.      Artemiy Matviyanov:  Engineer 1 
 ENG2.      Bakhtiyar Jabbarli:  Engineer 2 
 ENG3.           Emil Huseynov:  Engineer 3 
 ETIM.      18.40.00 22-May-20:  End Time 
 FLOI.gpm               550.00:  Flow In 
 FLON.gpm               350.00:  Flow In Min 
 FLOS.cptm                0.00:  Fluid Loss 
 FLOX.gpm               600.00:  Flow In Max 
 HFLO.                      No:  High Flow 
 HPRE.                      No:  High Pressure 
 HTEM.                      No:  High Temp 
 HYDO.m                   1.80:  Hydro Offset 
 IFIN.deg                67.01:  Inc, Final 
 IMAX.deg                67.49:  Inc Max 
 IMIN.deg                66.50:  Inc Min 
 IMND.m                5144.79:  Inc Min Depth 
 IMXD.m                5116.12:  Inc Max Depth 
 JARR.                      No:  Jarring 
 LETM.      17.55.56 20-May-20:  Log End Time 
 LOST.hr                     0:  Lost Rig Time 
 LSTM.      04.30.56 18-May-20:  Log Start Time 
 MDCL.ppm            193153.00:  Mud Chlorides 
 MDES.     Inversion Oil/Synthetic:  Mud Desc 
 DFD .sg                  1.40:  Mud Density 
 MDMN.sg                  1.40:  Dens Mud Min 
 MDMX.sg                  1.41:  Dens Mud Max 
 MOIL.                      68:  Run Mud Oil % 
 MOWR.                   68:32:  Run Mud OWR 
 MSND.                     0.2:  Run Mud Sand % 
 MSOL.                    18.8:  Run Mud Solids% 
 DFV .spqt               80.00:  Mud Viscosity 
 MWOD.in                  6.75:  MWD Tool OD 
 MWSI.                      No:  Serv Intrp, MWD 
 OTIM.hr                104.84:  Time Operating 
 PMAX.psia            10690.93:  Press Op, Max 
 PV  .cP                 26.00:  Mud PV 
 RUN .                     900:  Run Number 
 ROPA.m/hr                0.00:  ROP Avg 
 ROPN.m/hr                0.00:  ROP Min 
 ROPX.m/hr                0.00:  ROP Max 
 RPMA.rpm               140.00:  RPM Surface Avg 
 RPMN.rpm                70.00:  RPM Surface Min 
 RPMX.rpm               140.00:  RPM Surface Max 
 RRUN.                    0900:  Rig Run Number 
 RTIM.hr                 36.00:  Time Reaming 
 SAZI.deg               115.72:  Azm, Start 
 SDEP.m                5337.01:  Start Depth 
 SIDD.                      No:  Serv Intrp, DD 
 SINC.deg                66.92:  Inc, Start 
 SPPA.psig             4400.00:  SPP Avg 
 SPPN.psig             1135.00:  SPP Min 
 SPPX.psig             4581.00:  SPP Max 
 STIM.      04.30.56 18-May-20:  Start Time 
 SVCS.                     MWD:  Services 
 SVER.                    9.20:  Sperry Version 
 TDAT.m                5337.01:  Tot Depth Attmp 
 TDDF.                      No:  Trip for DD 
 TFF .                      No:  Trip for Fail 
 TQAA.f-kp               23.00:  Torque Abs Avg 
 TQAN.f-kp               18.00:  Torque Abs Min 
 TQAX.f-kp               25.00:  Torque Abs Max 
 TRRT.°/30m               0.74:  Turn Rotating 
 MRT .                    HCIM:  Maximum Recorded Temperature 
 TTMX.degC               76.47:  Max Tool Temp 
 WBMN.klb                 0.00:  WOB Min 
 WITN.             Anar Khalil:  Customer Rep 
 WITN.      Kamran Keberlinski:  Customer Rep 2 
 WOBA.klb                 0.00:  WOB Avg 
 WOBX.klb                 0.00:  WOB Max 
 YP  .lhf2               27.00:  Yield Point 
~Curve Information Block
#MNEM.UNIT                 API CODE     Curve Description
#---------               -----------    ---------------------------
 TIME.HHMMSS            00 000 000 000:  GT Time & Date
 GTDEPTH.m              00 000 000 000:  GT Depth
 GTPQH.psia             00 000 000 000:  GT HR Quartz Pressure
 GTTQ.degC              00 000 000 000:  GT Quartz Temperature
 GTTN.NONE              00 000 000 000:  GT Test Number
 GTET.sec               00 000 000 000:  GT Elapsed Test Time
 GTTVD.m                00 000 000 000:  GT True Vertical Depth
#Other Information
#
#WARRANTY: Halliburton will use its best efforts to furnish customers with 
#accurate information and interpretations that are part of, and incident to, the services 
#provided.  However, Halliburton cannot and does not warrant the accuracy 
#or correctness of such information and interpretations.  Under no circumstances should any 
#such information or interpretation be relied upon as the sole basis for any drilling, 
#completion, production, or financial decision or any procedure involving any risk to the 
#safety of any drilling venture, drilling rig or its crew or any other third party.  The 
#Customer has full responsibility for all drilling, completion and production operation.  
#Halliburton makes no representations or warranties, either expressed or 
#implied, including, but not limited to, the implied warranties of merchantability or fitness 
#for a particular purpose, with respect to the services rendered.  In no event will 
#Halliburton be liable for failure to obtain any particular results or for 
#any damages, including, but not limited to, indirect, special or consequential damages, 
#resulting from the use of any information or interpretation provided by Halliburton.
#
~A           TIME           GTDEPTH  GTPQH  GTTQ  GTTN  GTET   GTTVD  
# ...
   23:11:48.709.19-May-2020 5121.01 6404.80 68.03 5.00  23.01 2698.81
   23:11:48.909.19-May-2020 5121.01 6404.38 68.03 5.00  23.21 2698.81
   23:11:49.110.19-May-2020 5121.01 6404.08 68.03 5.00  23.41 2698.81
   23:11:49.310.19-May-2020 5121.01 6405.23 68.03 5.00  23.61 2698.81
   23:11:49.510.19-May-2020 5121.01 6404.62 68.03 5.00  23.81 2698.81
   23:11:49.710.19-May-2020 5121.01 6405.71 68.03 5.00  24.01 2698.81
   23:11:49.910.19-May-2020 5121.01 6405.71 68.03 5.00  24.21 2698.81
   23:11:50.110.19-May-2020 5121.01 6405.21 68.03 5.00  24.41 2698.81
   23:11:50.310.19-May-2020 5121.01 6405.66 68.03 5.00  24.61 2698.81
   23:11:50.510.19-May-2020 5121.01 6405.14 68.03 5.00  24.81 2698.81
   23:11:50.710.19-May-2020 5121.01 6406.42 68.03 5.00  25.01 2698.81
   23:11:50.910.19-May-2020 5121.01 6406.42 68.03 5.00  25.21 2698.81
   23:11:51.110.19-May-2020 5121.01 6411.22 68.03 5.00  25.41 2698.81
   23:11:51.310.19-May-2020 5121.01 6404.50 68.03 5.00  25.61 2698.81
   23:11:51.510.19-May-2020 5121.01 6408.63 68.03 5.00  25.81 2698.81
   23:11:51.710.19-May-2020 5121.01 6408.77 68.03 5.00  26.01 2698.81
   23:11:51.910.19-May-2020 5121.01 6408.77 68.03 5.00  26.21 2698.81
   23:11:52.110.19-May-2020 5121.01 6412.28 68.03 5.00  26.41 2698.81
   23:11:52.310.19-May-2020 5121.01 6408.19 68.03 5.00  26.61 2698.81
   23:11:52.510.19-May-2020 5121.01 6409.36 68.03 5.00  26.81 2698.81
   23:11:52.710.19-May-2020 5121.01 6408.89 68.03 5.00  27.01 2698.81
   23:11:52.910.19-May-2020 5121.01 6410.96 68.03 5.00  27.21 2698.81
   23:11:53.111.19-May-2020 5121.01 6409.33 68.03 5.00  27.41 2698.81
   23:11:53.311.19-May-2020 5121.01 6414.20 68.03 5.00  27.61 2698.81
   23:11:53.511.19-May-2020 5121.01 6409.47 68.03 5.00  27.81 2698.81
   23:11:53.711.19-May-2020 5121.01 6412.55 68.03 5.00  28.01 2698.81
   23:11:53.911.19-May-2020 5121.01 6412.55 68.03 5.00  28.21 2698.81
   23:11:54.111.19-May-2020 5121.01 6412.04 68.03 5.00  28.41 2698.81
   23:11:54.311.19-May-2020 5121.01 6411.18 68.03 5.00  28.61 2698.81
   23:11:54.511.19-May-2020 5121.01 6416.19 68.03 5.00  28.81 2698.81
   23:11:54.711.19-May-2020 5121.01 6410.35 68.03 5.00  29.01 2698.81
   23:11:54.911.19-May-2020 5121.01 6410.35 68.03 5.00  29.21 2698.81
   23:11:55.111.19-May-2020 5121.01 6413.82 68.03 5.00  29.41 2698.81
   23:11:55.311.19-May-2020 5121.01 6413.39 68.03 5.00  29.61 2698.81
   23:11:55.511.19-May-2020 5121.01 6413.01 68.03 5.00  29.81 2698.81
   23:11:55.711.19-May-2020 5121.01 6418.44 68.03 5.00  30.01 2698.81
   23:11:55.911.19-May-2020 5121.01 6418.44 68.03 5.00  30.21 2698.81
   23:11:56.111.19-May-2020 5121.01 6415.54 68.03 5.00  30.41 2698.81
   23:11:56.311.19-May-2020 5121.01 6413.97 68.03 5.00  30.61 2698.81
   23:11:56.511.19-May-2020 5121.01 6416.01 68.03 5.00  30.81 2698.81
   23:11:56.711.19-May-2020 5121.01 6414.88 68.03 5.00  31.01 2698.81
   23:11:56.911.19-May-2020 5121.01 6414.61 68.03 5.00  31.21 2698.81
   23:11:57.111.19-May-2020 5121.01 6415.63 68.03 5.00  31.41 2698.81
   23:11:57.312.19-May-2020 5121.01 6415.49 68.02 5.00  31.61 2698.81
   23:11:57.512.19-May-2020 5121.01 6414.59 68.03 5.00  31.81 2698.81
   23:11:57.712.19-May-2020 5121.01 6415.76 68.02 5.00  32.01 2698.81
   23:11:57.912.19-May-2020 5121.01 6415.76 68.02 5.00  32.21 2698.81
   23:11:58.112.19-May-2020 5121.01 6415.81 68.02 5.00  32.41 2698.81
   23:11:58.312.19-May-2020 5121.01 6415.95 68.02 5.00  32.61 2698.81
   23:11:58.512.19-May-2020 5121.01 6415.61 68.02 5.00  32.81 2698.81
   23:11:58.712.19-May-2020 5121.01 6420.96 68.02 5.00  33.01 2698.81
   23:11:58.912.19-May-2020 5121.01 6420.96 68.02 5.00  33.21 2698.81
   23:11:59.112.19-May-2020 5121.01 6418.42 68.02 5.00  33.41 2698.81
   23:11:59.312.19-May-2020 5121.01 6418.28 68.02 5.00  33.61 2698.81
   23:11:59.512.19-May-2020 5121.01 6422.93 68.02 5.00  33.81 2698.81
   23:11:59.712.19-May-2020 5121.01 6418.51 68.02 5.00  34.01 2698.81
   23:11:59.912.19-May-2020 5121.01 6418.51 68.02 5.00  34.21 2698.81
   23:12:00.112.19-May-2020 5121.01 6420.40 68.02 5.00  34.41 2698.81
   23:12:00.312.19-May-2020 5121.01 6425.92 68.02 5.00  34.61 2698.81
   23:12:00.512.19-May-2020 5121.01 6454.51 68.02 5.00  34.81 2698.81
   23:12:00.712.19-May-2020 5121.01 6451.37 68.02 5.00  35.01 2698.81
   23:12:00.912.19-May-2020 5121.01 6451.37 68.02 5.00  35.21 2698.81
   23:12:01.112.19-May-2020 5121.01 6441.02 68.02 5.00  35.41 2698.81
   23:12:01.313.19-May-2020 5121.01 6429.14 68.02 5.00  35.61 2698.81
   23:12:01.513.19-May-2020 5121.01 6417.03 68.02 5.00  35.81 2698.81
   23:12:01.713.19-May-2020 5121.01 6389.64 68.02 5.00  36.01 2698.81
   23:12:01.913.19-May-2020 5121.01 6389.64 68.02 5.00  36.21 2698.81
   23:12:02.113.19-May-2020 5121.01 6323.79 68.02 5.00  36.41 2698.81
   23:12:02.313.19-May-2020 5121.01 6282.58 68.02 5.00  36.61 2698.81
   23:12:02.513.19-May-2020 5121.01 6249.38 68.02 5.00  36.81 2698.81
   23:12:02.713.19-May-2020 5121.01 6220.16 68.02 5.00  37.01 2698.81
   23:12:02.913.19-May-2020 5121.01 6220.16 68.02 5.00  37.21 2698.81
   23:12:03.113.19-May-2020 5121.01 6144.31 68.02 5.00  37.41 2698.81
   23:12:03.313.19-May-2020 5121.01 6103.21 68.02 5.00  37.61 2698.81
   23:12:03.513.19-May-2020 5121.01 6060.34 68.02 5.00  37.81 2698.81
   23:12:03.713.19-May-2020 5121.01 6014.13 68.02 5.00  38.01 2698.81
   23:12:03.913.19-May-2020 5121.01 6014.13 68.02 5.00  38.21 2698.81
   23:12:04.113.19-May-2020 5121.01 5907.34 68.02 5.00  38.41 2698.81
   23:12:04.313.19-May-2020 5121.01 5854.39 68.02 5.00  38.61 2698.81
   23:12:04.513.19-May-2020 5121.01 5800.62 68.02 5.00  38.81 2698.81
   23:12:04.713.19-May-2020 5121.01 5746.53 68.02 5.00  39.01 2698.81
   23:12:04.913.19-May-2020 5121.01 5690.43 68.02 5.00  39.21 2698.81
   23:12:05.113.19-May-2020 5121.01 5632.70 68.02 5.00  39.41 2698.81
   23:12:05.314.19-May-2020 5121.01 5573.36 68.02 5.00  39.61 2698.81
   23:12:05.514.19-May-2020 5121.01 5512.54 68.02 5.00  39.81 2698.81
   23:12:05.714.19-May-2020 5121.01 5451.28 68.02 5.00  40.01 2698.81
   23:12:05.914.19-May-2020 5121.01 5451.28 68.02 5.00  40.21 2698.81
   23:12:06.114.19-May-2020 5121.01 5327.13 68.02 5.00  40.41 2698.81
   23:12:06.314.19-May-2020 5121.01 5267.33 68.02 5.00  40.61 2698.81
   23:12:06.514.19-May-2020 5121.01 5208.94 68.02 5.00  40.81 2698.81
   23:12:06.714.19-May-2020 5121.01 5153.19 68.01 5.00  41.01 2698.81
   23:12:06.914.19-May-2020 5121.01 5153.19 68.01 5.00  41.21 2698.81
   23:12:07.114.19-May-2020 5121.01 5049.09 68.01 5.00  41.41 2698.81
   23:12:07.314.19-May-2020 5121.01 5005.42 68.01 5.00  41.61 2698.81
   23:12:07.514.19-May-2020 5121.01 4968.49 68.01 5.00  41.81 2698.81
   23:12:07.714.19-May-2020 5121.01 4937.26 68.01 5.00  42.01 2698.81
   23:12:07.914.19-May-2020 5121.01 4912.14 68.01 5.00  42.21 2698.81
   23:12:08.114.19-May-2020 5121.01 4889.59 68.01 5.00  42.41 2698.81
   23:12:08.314.19-May-2020 5121.01 4873.33 68.01 5.00  42.61 2698.81
   23:12:08.514.19-May-2020 5121.01 4859.96 68.01 5.00  42.81 2698.81
   23:12:08.714.19-May-2020 5121.01 4850.09 68.01 5.00  43.01 2698.81
   23:12:08.914.19-May-2020 5121.01 4841.59 68.00 5.00  43.21 2698.81
   23:12:09.114.19-May-2020 5121.01 4840.73 68.00 5.00  43.41 2698.81
   23:12:09.315.19-May-2020 5121.01 4801.58 68.00 5.00  43.61 2698.81
   23:12:09.515.19-May-2020 5121.01 4096.53 68.00 5.00  43.81 2698.81
   23:12:09.715.19-May-2020 5121.01 3500.96 68.00 5.00  44.01 2698.81
   23:12:09.915.19-May-2020 5121.01 3500.96 68.00 5.00  44.21 2698.81
   23:12:10.115.19-May-2020 5121.01 3494.61 68.00 5.00  44.41 2698.81
   23:12:10.315.19-May-2020 5121.01 3486.92 68.00 5.00  44.61 2698.81
   23:12:10.515.19-May-2020 5121.01 3472.32 67.99 5.00  44.81 2698.81
   23:12:10.715.19-May-2020 5121.01 3456.04 67.99 5.00  45.01 2698.81
   23:12:10.915.19-May-2020 5121.01 3456.04 67.99 5.00  45.21 2698.81
   23:12:11.115.19-May-2020 5121.01 3403.96 67.99 5.00  45.41 2698.81
   23:12:11.315.19-May-2020 5121.01 3339.98 67.99 5.00  45.61 2698.81
   23:12:11.515.19-May-2020 5121.01 3233.04 67.99 5.00  45.81 2698.81
