~Version Information
 VERS.                  2.0:   CWLS log ASCII Standard -VERSION 2.0
 WRAP.                   NO:   One line per depth step
~Well Information Block
#MNEM.UNIT     VALUE/NAME     DESCRIPTION
#---------     -----------    ---------------------------
 STRT.S             17:37:07 19-May-20: START TIME 17:37:07 19-May-20
 STOP.S             17:43:47 19-May-20: STOP TIME  17:43:47 19-May-20
 STEP.S                   0.00: STEP TIME
 NULL.                 -999.25: NULL VALUE
 MDS .        Operator Entered:  MAG DATA SOURCE
 PDAT.          Mean Sea Level:  PERMANENT DATUM
 UNIT.                     N/A:  LOGGING EQUIPMENT ID
 DCON.         Sperry Drilling:  DIRECTNL CONTR
 DOE .                     N/A:  DOE NUMBER
 RIG .              East Azeri:  RIG NAME
 JOBN.        AZ-XX-0905856059:  JOB TICKET NUMB
 WELL.                     D36:  WELL NAME
 MWDS.                    Baku:  MWD SHOP
 SRVC.     Turan Drilling & Engineering:  CONTRACTOR
 FLD .                     ACG:  FIELD NAME
 CTRY.              Azerbaijan:  COUNTRY NAME
 PROV.                    Baku:  PROVINCE
 STAT.                    Baku:  STATE NAME
 REGN.                   EESSA:  REGION
 BASE.              Azerbaijan:  LOGGING EQUIPMENT BASE LOCATION
 UWI .                     N/A:  UNIQUE WELL IDENTIFIER
 API .                     N/A:  API NUMBER
 COMP.     BP Exploration (Caspian Sea) Ltd.:  COMPANY
 WTYP.                Deviated:  WELL TYPE
 SON .        AZ-XX-0905856059:  JOB NUMBER
 FTOP.          Formation Tops:  FORM TOPS DESC
 ILTD.               Lithology:  INTERP LTH DESC
 SVYD.                  Survey:  SURVEY DESC
 DMOD.             Drill Model:  DRILL MOD DESC
 HPTY.       Minimum Curvature:  HOLE POS TYPE
 NREF.                    Grid:  NORTH REFERENCE
 SPUD.               25-Feb-20:  SPUD DATE
 DATE.      08.55.28 01-May-20:  END TIME
 STIM.      08.55.28 25-Feb-20:  START TIME
 DMF .             Drill Floor:  DRILL MEAS FROM
 DFST.                        :  DIST FSL TEXT
 DFWT.                        :  DIST FWL TEXT
 CNTY.                        :  COUNTY
 LOC .                        :  LOCATION
 LMF .             Drill Floor:  LOG MEASURED FROM
 VSNS.m                   6.09:  VERT SEC N/S
 VSEW.m                 -10.79:  VERT SEC E/W
 AGAP.m                  43.60:  AIR GAP
 DEP .m                 388.24:  DEPTH
 APD .m                  43.60:  DEPTH ABOVE PD
 WDMS.m                 151.80:  WD ELEV
 EGL .m                   0.00:  GROUND ELEVATION
 EPD .m                   0.00:  ELEVATION
 AZTC.deg                 6.12:  AZM TOTAL CORR
 GRDC.deg                 0.30:  GRID CORRECTION
 MDEC.deg                 6.42:  MAGNETIC DECL
 MDIP.deg                59.42:  MAGNETIC DIP
 MFLD.nT              50256.00:  MAGNETIC FIELD
 GVFD.g                   1.00:  GRAVITY FIELD
 VSDR.deg               159.57:  VERT SEC DIRECT
 TDD .m                5000.01:  TOTAL DEPTH (DRILLER)
 SDEP.m                 397.00:  START DEPTH
 DFSL.m                   0.00:  DISTANCE FSL
 DFWL.m                   0.00:  DISTANCE FWL
 UTMY.m             4431880.20:  UTM Y
 UTMX.m              538763.98:  UTM X
 WHEW.m                 -10.79:  WELL HEAD E/W
 WHNS.m                   6.09:  WELL HEAD N/S
 LONG.deg                51.45:  LONGITUDE
 LATI.deg                40.02:  LATITUDE
 TVDS.m                  43.60:  TVDSS CORRECTN
 EKB .m                  43.60:  KB ELEVATION
 EDF .m                  43.60:  DF ELEVATION
 MAGU.                 1847640:  MAGUTM CHECKSUM
 VSC .                       0:  VS TO CLOSURE
~Parameter Information Block
#MNEM.UNIT       Value        Description
#---------     -----------    ---------------------------
 AV  .mps                 1.30:  Ann Velocity 
 AVMX.mps                 1.90:  Max Ann Veloc 
 AZIF.deg               115.68:  Azm, Final 
 BHAT.                   Other:  BHA Type 
 BROT.°/30m               0.74:  Build Rotating 
 BS  .in                  8.50:  Bit Size 
 BTPL.psig              430.00:  Bit Press Loss 
 CABU.                      No:  Customer Abuse 
 COMM.                     t9l:  Run Comments 1 
 TCS .hr                 51.31:  Time Ciculation Ended 
 CV  .mps                 2.52:  Crit Velocity 
 CVMX.mps                 2.62:  Max Crit Veloc 
 DD1 .          Teymur Aghayev:  Direct Drillr 1 
 DDSV.                   Other:  DD Service 
 DEFF.%                 100.00:  % Det Eff 
 DLRX.°/30m               1.62:  Dogleg Rot Max 
 DLSO.°/30m               0.74:  Dogleg Oriented 
 DLSX.°/30m               1.62:  Dogleg Str Max 
 DRET.      04.30.56 18-May-20:  Drill End Time 
 DRST.      04.30.56 18-May-20:  Drill Start Tim 
 DTIM.hr                  0.00:  Time Drilling 
 EDEP.m                5337.01:  End Depth 
 ENG1.      Artemiy Matviyanov:  Engineer 1 
 ENG2.      Bakhtiyar Jabbarli:  Engineer 2 
 ENG3.           Emil Huseynov:  Engineer 3 
 ETIM.      18.40.00 22-May-20:  End Time 
 FLOI.gpm               550.00:  Flow In 
 FLON.gpm               350.00:  Flow In Min 
 FLOS.cptm                0.00:  Fluid Loss 
 FLOX.gpm               600.00:  Flow In Max 
 HFLO.                      No:  High Flow 
 HPRE.                      No:  High Pressure 
 HTEM.                      No:  High Temp 
 HYDO.m                   1.80:  Hydro Offset 
 IFIN.deg                67.01:  Inc, Final 
 IMAX.deg                67.49:  Inc Max 
 IMIN.deg                66.50:  Inc Min 
 IMND.m                5144.79:  Inc Min Depth 
 IMXD.m                5116.12:  Inc Max Depth 
 JARR.                      No:  Jarring 
 LETM.      17.55.56 20-May-20:  Log End Time 
 LOST.hr                     0:  Lost Rig Time 
 LSTM.      04.30.56 18-May-20:  Log Start Time 
 MDCL.ppm            193153.00:  Mud Chlorides 
 MDES.     Inversion Oil/Synthetic:  Mud Desc 
 DFD .sg                  1.40:  Mud Density 
 MDMN.sg                  1.40:  Dens Mud Min 
 MDMX.sg                  1.41:  Dens Mud Max 
 MOIL.                      68:  Run Mud Oil % 
 MOWR.                   68:32:  Run Mud OWR 
 MSND.                     0.2:  Run Mud Sand % 
 MSOL.                    18.8:  Run Mud Solids% 
 DFV .spqt               80.00:  Mud Viscosity 
 MWOD.in                  6.75:  MWD Tool OD 
 MWSI.                      No:  Serv Intrp, MWD 
 OTIM.hr                104.84:  Time Operating 
 PMAX.psia            10690.93:  Press Op, Max 
 PV  .cP                 26.00:  Mud PV 
 RUN .                     900:  Run Number 
 ROPA.m/hr                0.00:  ROP Avg 
 ROPN.m/hr                0.00:  ROP Min 
 ROPX.m/hr                0.00:  ROP Max 
 RPMA.rpm               140.00:  RPM Surface Avg 
 RPMN.rpm                70.00:  RPM Surface Min 
 RPMX.rpm               140.00:  RPM Surface Max 
 RRUN.                    0900:  Rig Run Number 
 RTIM.hr                 36.00:  Time Reaming 
 SAZI.deg               115.72:  Azm, Start 
 SDEP.m                5337.01:  Start Depth 
 SIDD.                      No:  Serv Intrp, DD 
 SINC.deg                66.92:  Inc, Start 
 SPPA.psig             4400.00:  SPP Avg 
 SPPN.psig             1135.00:  SPP Min 
 SPPX.psig             4581.00:  SPP Max 
 STIM.      04.30.56 18-May-20:  Start Time 
 SVCS.                     MWD:  Services 
 SVER.                    9.20:  Sperry Version 
 TDAT.m                5337.01:  Tot Depth Attmp 
 TDDF.                      No:  Trip for DD 
 TFF .                      No:  Trip for Fail 
 TQAA.f-kp               23.00:  Torque Abs Avg 
 TQAN.f-kp               18.00:  Torque Abs Min 
 TQAX.f-kp               25.00:  Torque Abs Max 
 TRRT.°/30m               0.74:  Turn Rotating 
 MRT .                    HCIM:  Maximum Recorded Temperature 
 TTMX.degC               76.47:  Max Tool Temp 
 WBMN.klb                 0.00:  WOB Min 
 WITN.             Anar Khalil:  Customer Rep 
 WITN.      Kamran Keberlinski:  Customer Rep 2 
 WOBA.klb                 0.00:  WOB Avg 
 WOBX.klb                 0.00:  WOB Max 
 YP  .lhf2               27.00:  Yield Point 
~Curve Information Block
#MNEM.UNIT                 API CODE     Curve Description
#---------               -----------    ---------------------------
 TIME.HHMMSS            00 000 000 000:  GT Time & Date
 GTDEPTH.m              00 000 000 000:  GT Depth
 GTPQH.psia             00 000 000 000:  GT HR Quartz Pressure
 GTTQ.degC              00 000 000 000:  GT Quartz Temperature
 GTTN.NONE              00 000 000 000:  GT Test Number
 GTET.sec               00 000 000 000:  GT Elapsed Test Time
 GTTVD.m                00 000 000 000:  GT True Vertical Depth
#Other Information
#
#WARRANTY: Halliburton will use its best efforts to furnish customers with 
#accurate information and interpretations that are part of, and incident to, the services 
#provided.  However, Halliburton cannot and does not warrant the accuracy 
#or correctness of such information and interpretations.  Under no circumstances should any 
#such information or interpretation be relied upon as the sole basis for any drilling, 
#completion, production, or financial decision or any procedure involving any risk to the 
#safety of any drilling venture, drilling rig or its crew or any other third party.  The 
#Customer has full responsibility for all drilling, completion and production operation.  
#Halliburton makes no representations or warranties, either expressed or 
#implied, including, but not limited to, the implied warranties of merchantability or fitness 
#for a particular purpose, with respect to the services rendered.  In no event will 
#Halliburton be liable for failure to obtain any particular results or for 
#any damages, including, but not limited to, indirect, special or consequential damages, 
#resulting from the use of any information or interpretation provided by Halliburton.
#
~A           TIME           GTDEPTH  GTPQH  GTTQ  GTTN  GTET   GTTVD  
# ...
   17:37:53.131.19-May-2020 5195.01 1833.84 67.05 2.00  46.01 2727.85
   17:37:53.331.19-May-2020 5195.01 1833.84 67.05 2.00  46.21 2727.85
   17:37:53.531.19-May-2020 5195.01 1291.29 67.04 2.00  46.41 2727.85
   17:37:53.731.19-May-2020 5195.01  990.11 67.04 2.00  46.61 2727.85
   17:37:53.931.19-May-2020 5195.01  785.58 67.04 2.00  46.81 2727.85
   17:37:54.131.19-May-2020 5195.01  709.10 67.03 2.00  47.01 2727.85
   17:37:54.331.19-May-2020 5195.01  709.10 67.03 2.00  47.21 2727.85
   17:37:54.531.19-May-2020 5195.01  660.36 67.02 2.00  47.41 2727.85
   17:37:54.731.19-May-2020 5195.01  646.86 67.02 2.00  47.61 2727.85
   17:37:54.931.19-May-2020 5195.01  638.46 67.02 2.00  47.81 2727.85
   17:37:55.131.19-May-2020 5195.01  633.33 67.01 2.00  48.01 2727.85
   17:37:55.331.19-May-2020 5195.01  633.33 67.01 2.00  48.21 2727.85
   17:37:55.531.19-May-2020 5195.01  638.87 67.01 2.00  48.41 2727.85
   17:37:55.731.19-May-2020 5195.01  639.03 67.00 2.00  48.61 2727.85
   17:37:55.931.19-May-2020 5195.01  632.39 67.00 2.00  48.81 2727.85
   17:37:56.131.19-May-2020 5195.01  627.91 66.99 2.00  49.01 2727.85
   17:37:56.331.19-May-2020 5195.01  627.91 66.99 2.00  49.21 2727.85
   17:37:56.531.19-May-2020 5195.01  623.03 66.99 2.00  49.41 2727.85
   17:37:56.731.19-May-2020 5195.01  621.96 66.98 2.00  49.61 2727.85
   17:37:56.931.19-May-2020 5195.01  618.86 66.98 2.00  49.81 2727.85
   17:37:57.131.19-May-2020 5195.01  615.59 66.97 2.00  50.01 2727.85
   17:37:57.331.19-May-2020 5195.01  615.59 66.97 2.00  50.21 2727.85
   17:37:57.531.19-May-2020 5195.01  608.70 66.97 2.00  50.41 2727.85
   17:37:57.731.19-May-2020 5195.01  611.29 66.96 2.00  50.61 2727.85
   17:37:57.931.19-May-2020 5195.01  612.22 66.96 2.00  50.81 2727.85
   17:37:58.131.19-May-2020 5195.01  610.17 66.96 2.00  51.01 2727.85
   17:37:58.331.19-May-2020 5195.01  610.17 66.96 2.00  51.21 2727.85
   17:37:58.531.19-May-2020 5195.01  604.73 66.95 2.00  51.41 2727.85
   17:37:58.731.19-May-2020 5195.01  602.12 66.95 2.00  51.61 2727.85
   17:37:58.931.19-May-2020 5195.01  601.67 66.94 2.00  51.81 2727.85
   17:37:59.131.19-May-2020 5195.01  605.22 66.94 2.00  52.01 2727.85
   17:37:59.331.19-May-2020 5195.01  605.22 66.94 2.00  52.21 2727.85
   17:37:59.531.19-May-2020 5195.01  605.54 66.94 2.00  52.41 2727.85
   17:37:59.731.19-May-2020 5195.01  611.19 66.93 2.00  52.61 2727.85
   17:37:59.932.19-May-2020 5195.01  623.97 66.93 2.00  52.81 2727.85
   17:38:00.132.19-May-2020 5195.01  636.13 66.93 2.00  53.01 2727.85
   17:38:00.332.19-May-2020 5195.01  636.13 66.93 2.00  53.21 2727.85
   17:38:00.532.19-May-2020 5195.01  656.31 66.93 2.00  53.41 2727.85
   17:38:00.732.19-May-2020 5195.01  666.49 66.92 2.00  53.61 2727.85
   17:38:00.932.19-May-2020 5195.01  676.07 66.92 2.00  53.81 2727.85
   17:38:01.132.19-May-2020 5195.01  685.23 66.92 2.00  54.01 2727.85
   17:38:01.332.19-May-2020 5195.01  685.23 66.92 2.00  54.21 2727.85
   17:38:01.532.19-May-2020 5195.01  703.76 66.92 2.00  54.41 2727.85
   17:38:01.732.19-May-2020 5195.01  712.94 66.92 2.00  54.61 2727.85
   17:38:01.932.19-May-2020 5195.01  721.85 66.92 2.00  54.81 2727.85
   17:38:02.132.19-May-2020 5195.01  730.63 66.91 2.00  55.01 2727.85
   17:38:02.332.19-May-2020 5195.01  730.63 66.91 2.00  55.21 2727.85
   17:38:02.532.19-May-2020 5195.01  747.59 66.91 2.00  55.41 2727.85
   17:38:02.732.19-May-2020 5195.01  755.95 66.91 2.00  55.61 2727.85
   17:38:02.932.19-May-2020 5195.01  763.82 66.91 2.00  55.81 2727.85
   17:38:03.132.19-May-2020 5195.01  773.64 66.91 2.00  56.01 2727.85
   17:38:03.332.19-May-2020 5195.01  773.64 66.91 2.00  56.21 2727.85
   17:38:03.532.19-May-2020 5195.01  792.33 66.91 2.00  56.41 2727.85
   17:38:03.732.19-May-2020 5195.01  800.87 66.91 2.00  56.61 2727.85
   17:38:03.932.19-May-2020 5195.01  809.57 66.91 2.00  56.81 2727.85
   17:38:04.132.19-May-2020 5195.01  817.54 66.91 2.00  57.01 2727.85
   17:38:04.332.19-May-2020 5195.01  825.15 66.91 2.00  57.21 2727.85
   17:38:04.532.19-May-2020 5195.01  832.87 66.91 2.00  57.41 2727.85
   17:38:04.732.19-May-2020 5195.01  839.85 66.91 2.00  57.61 2727.85
   17:38:04.932.19-May-2020 5195.01  847.82 66.91 2.00  57.81 2727.85
   17:38:05.132.19-May-2020 5195.01  855.37 66.91 2.00  58.01 2727.85
   17:38:05.332.19-May-2020 5195.01  855.37 66.91 2.00  58.21 2727.85
   17:38:05.532.19-May-2020 5195.01  870.03 66.90 2.00  58.41 2727.85
   17:38:05.732.19-May-2020 5195.01  877.25 66.91 2.00  58.61 2727.85
   17:38:05.932.19-May-2020 5195.01  884.04 66.90 2.00  58.81 2727.85
   17:38:06.132.19-May-2020 5195.01  891.29 66.91 2.00  59.01 2727.85
   17:38:06.332.19-May-2020 5195.01  891.29 66.91 2.00  59.21 2727.85
   17:38:06.532.19-May-2020 5195.01  905.48 66.91 2.00  59.41 2727.85
   17:38:06.732.19-May-2020 5195.01  912.45 66.91 2.00  59.61 2727.85
   17:38:06.932.19-May-2020 5195.01  918.94 66.91 2.00  59.81 2727.85
   17:38:07.132.19-May-2020 5195.01  925.59 66.91 2.00  60.01 2727.85
   17:38:07.332.19-May-2020 5195.01  925.59 66.91 2.00  60.21 2727.85
   17:38:07.532.19-May-2020 5195.01  939.46 66.91 2.00  60.41 2727.85
   17:38:07.732.19-May-2020 5195.01  946.25 66.91 2.00  60.61 2727.85
   17:38:07.932.19-May-2020 5195.01  952.74 66.91 2.00  60.81 2727.85
   17:38:08.133.19-May-2020 5195.01  959.30 66.91 2.00  61.01 2727.85
   17:38:08.333.19-May-2020 5195.01  959.30 66.91 2.00  61.21 2727.85
   17:38:08.533.19-May-2020 5195.01  972.36 66.91 2.00  61.41 2727.85
   17:38:08.733.19-May-2020 5195.01  978.74 66.91 2.00  61.61 2727.85
   17:38:08.933.19-May-2020 5195.01  985.06 66.91 2.00  61.81 2727.85
   17:38:09.133.19-May-2020 5195.01  991.41 66.91 2.00  62.01 2727.85
   17:38:09.333.19-May-2020 5195.01  991.41 66.91 2.00  62.21 2727.85
   17:38:09.533.19-May-2020 5195.01 1003.67 66.91 2.00  62.41 2727.85
   17:38:09.733.19-May-2020 5195.01 1009.65 66.91 2.00  62.61 2727.85
   17:38:09.933.19-May-2020 5195.01 1015.51 66.91 2.00  62.81 2727.85
   17:38:10.133.19-May-2020 5195.01 1021.36 66.91 2.00  63.01 2727.85
   17:38:10.333.19-May-2020 5195.01 1021.36 66.91 2.00  63.21 2727.85
   17:38:10.533.19-May-2020 5195.01 1033.81 66.91 2.00  63.41 2727.85
   17:38:10.733.19-May-2020 5195.01 1039.30 66.91 2.00  63.61 2727.85
   17:38:10.933.19-May-2020 5195.01 1046.03 66.91 2.00  63.81 2727.85
   17:38:11.133.19-May-2020 5195.01 1052.05 66.91 2.00  64.01 2727.85
   17:38:11.333.19-May-2020 5195.01 1052.05 66.91 2.00  64.21 2727.85
   17:38:11.533.19-May-2020 5195.01 1064.00 66.91 2.00  64.41 2727.85
   17:38:11.733.19-May-2020 5195.01 1069.92 66.92 2.00  64.61 2727.85
   17:38:11.933.19-May-2020 5195.01 1075.33 66.92 2.00  64.81 2727.85
   17:38:12.133.19-May-2020 5195.01 1081.41 66.92 2.00  65.01 2727.85
   17:38:12.333.19-May-2020 5195.01 1087.51 66.92 2.00  65.21 2727.85
   17:38:12.533.19-May-2020 5195.01 1093.28 66.92 2.00  65.41 2727.85
   17:38:12.733.19-May-2020 5195.01 1099.10 66.92 2.00  65.61 2727.85
   17:38:12.933.19-May-2020 5195.01 1104.63 66.92 2.00  65.81 2727.85
   17:38:13.133.19-May-2020 5195.01 1110.04 66.92 2.00  66.01 2727.85
   17:38:13.333.19-May-2020 5195.01 1110.04 66.92 2.00  66.21 2727.85
   17:38:13.533.19-May-2020 5195.01 1121.74 66.92 2.00  66.41 2727.85
   17:38:13.733.19-May-2020 5195.01 1127.25 66.92 2.00  66.61 2727.85
   17:38:13.933.19-May-2020 5195.01 1132.72 66.92 2.00  66.81 2727.85
   17:38:14.133.19-May-2020 5195.01 1138.11 66.92 2.00  67.01 2727.85
   17:38:14.333.19-May-2020 5195.01 1138.11 66.92 2.00  67.21 2727.85
   17:38:14.533.19-May-2020 5195.01 1148.61 66.92 2.00  67.41 2727.85
   17:38:14.733.19-May-2020 5195.01 1154.22 66.92 2.00  67.61 2727.85
   17:38:14.933.19-May-2020 5195.01 1159.62 66.92 2.00  67.81 2727.85
   17:38:15.133.19-May-2020 5195.01 1164.89 66.93 2.00  68.01 2727.85
   17:38:15.333.19-May-2020 5195.01 1164.89 66.93 2.00  68.21 2727.85
   17:38:15.533.19-May-2020 5195.01 1175.37 66.93 2.00  68.41 2727.85
   17:38:15.733.19-May-2020 5195.01 1180.55 66.93 2.00  68.61 2727.85
   17:38:15.933.19-May-2020 5195.01 1185.81 66.93 2.00  68.81 2727.85
