~Version Information
 VERS.                  2.0:   CWLS log ASCII Standard -VERSION 2.0
 WRAP.                   NO:   One line per depth step
~Well Information Block
#MNEM.UNIT     VALUE/NAME     DESCRIPTION
#---------     -----------    ---------------------------
 STRT.S             04:23:34 20-May-20: START TIME 04:23:34 20-May-20
 STOP.S             04:34:06 20-May-20: STOP TIME  04:34:06 20-May-20
 STEP.S                   0.00: STEP TIME
 NULL.                 -999.25: NULL VALUE
 MDS .        Operator Entered:  MAG DATA SOURCE
 PDAT.          Mean Sea Level:  PERMANENT DATUM
 UNIT.                     N/A:  LOGGING EQUIPMENT ID
 DCON.         Sperry Drilling:  DIRECTNL CONTR
 DOE .                     N/A:  DOE NUMBER
 RIG .              East Azeri:  RIG NAME
 JOBN.        AZ-XX-0905856059:  JOB TICKET NUMB
 WELL.                     D36:  WELL NAME
 MWDS.                    Baku:  MWD SHOP
 SRVC.     Turan Drilling & Engineering:  CONTRACTOR
 FLD .                     ACG:  FIELD NAME
 CTRY.              Azerbaijan:  COUNTRY NAME
 PROV.                    Baku:  PROVINCE
 STAT.                    Baku:  STATE NAME
 REGN.                   EESSA:  REGION
 BASE.              Azerbaijan:  LOGGING EQUIPMENT BASE LOCATION
 UWI .                     N/A:  UNIQUE WELL IDENTIFIER
 API .                     N/A:  API NUMBER
 COMP.     BP Exploration (Caspian Sea) Ltd.:  COMPANY
 WTYP.                Deviated:  WELL TYPE
 SON .        AZ-XX-0905856059:  JOB NUMBER
 FTOP.          Formation Tops:  FORM TOPS DESC
 ILTD.               Lithology:  INTERP LTH DESC
 SVYD.                  Survey:  SURVEY DESC
 DMOD.             Drill Model:  DRILL MOD DESC
 HPTY.       Minimum Curvature:  HOLE POS TYPE
 NREF.                    Grid:  NORTH REFERENCE
 SPUD.               25-Feb-20:  SPUD DATE
 DATE.      08.55.28 01-May-20:  END TIME
 STIM.      08.55.28 25-Feb-20:  START TIME
 DMF .             Drill Floor:  DRILL MEAS FROM
 DFST.                        :  DIST FSL TEXT
 DFWT.                        :  DIST FWL TEXT
 CNTY.                        :  COUNTY
 LOC .                        :  LOCATION
 LMF .             Drill Floor:  LOG MEASURED FROM
 VSNS.m                   6.09:  VERT SEC N/S
 VSEW.m                 -10.79:  VERT SEC E/W
 AGAP.m                  43.60:  AIR GAP
 DEP .m                 388.24:  DEPTH
 APD .m                  43.60:  DEPTH ABOVE PD
 WDMS.m                 151.80:  WD ELEV
 EGL .m                   0.00:  GROUND ELEVATION
 EPD .m                   0.00:  ELEVATION
 AZTC.deg                 6.12:  AZM TOTAL CORR
 GRDC.deg                 0.30:  GRID CORRECTION
 MDEC.deg                 6.42:  MAGNETIC DECL
 MDIP.deg                59.42:  MAGNETIC DIP
 MFLD.nT              50256.00:  MAGNETIC FIELD
 GVFD.g                   1.00:  GRAVITY FIELD
 VSDR.deg               159.57:  VERT SEC DIRECT
 TDD .m                5000.01:  TOTAL DEPTH (DRILLER)
 SDEP.m                 397.00:  START DEPTH
 DFSL.m                   0.00:  DISTANCE FSL
 DFWL.m                   0.00:  DISTANCE FWL
 UTMY.m             4431880.20:  UTM Y
 UTMX.m              538763.98:  UTM X
 WHEW.m                 -10.79:  WELL HEAD E/W
 WHNS.m                   6.09:  WELL HEAD N/S
 LONG.deg                51.45:  LONGITUDE
 LATI.deg                40.02:  LATITUDE
 TVDS.m                  43.60:  TVDSS CORRECTN
 EKB .m                  43.60:  KB ELEVATION
 EDF .m                  43.60:  DF ELEVATION
 MAGU.                 1847640:  MAGUTM CHECKSUM
 VSC .                       0:  VS TO CLOSURE
~Parameter Information Block
#MNEM.UNIT       Value        Description
#---------     -----------    ---------------------------
 AV  .mps                 1.30:  Ann Velocity 
 AVMX.mps                 1.90:  Max Ann Veloc 
 AZIF.deg               115.68:  Azm, Final 
 BHAT.                   Other:  BHA Type 
 BROT.°/30m               0.74:  Build Rotating 
 BS  .in                  8.50:  Bit Size 
 BTPL.psig              430.00:  Bit Press Loss 
 CABU.                      No:  Customer Abuse 
 TCS .hr                 51.31:  Time Ciculation Ended 
 CV  .mps                 2.52:  Crit Velocity 
 CVMX.mps                 2.62:  Max Crit Veloc 
 DD1 .          Teymur Aghayev:  Direct Drillr 1 
 DDSV.                   Other:  DD Service 
 DEFF.%                 100.00:  % Det Eff 
 DLRX.°/30m               1.62:  Dogleg Rot Max 
 DLSO.°/30m               0.74:  Dogleg Oriented 
 DLSX.°/30m               1.62:  Dogleg Str Max 
 DRET.      04.30.56 18-May-20:  Drill End Time 
 DRST.      04.30.56 18-May-20:  Drill Start Tim 
 DTIM.hr                  0.00:  Time Drilling 
 EDEP.m                5337.01:  End Depth 
 ENG1.      Artemiy Matviyanov:  Engineer 1 
 ENG2.      Bakhtiyar Jabbarli:  Engineer 2 
 ENG3.           Emil Huseynov:  Engineer 3 
 ETIM.      18.40.00 22-May-20:  End Time 
 FLOI.gpm               550.00:  Flow In 
 FLON.gpm               350.00:  Flow In Min 
 FLOS.cptm                0.00:  Fluid Loss 
 FLOX.gpm               600.00:  Flow In Max 
 HFLO.                      No:  High Flow 
 HPRE.                      No:  High Pressure 
 HTEM.                      No:  High Temp 
 HYDO.m                   1.80:  Hydro Offset 
 IFIN.deg                67.01:  Inc, Final 
 IMAX.deg                67.49:  Inc Max 
 IMIN.deg                66.50:  Inc Min 
 IMND.m                5144.79:  Inc Min Depth 
 IMXD.m                5116.12:  Inc Max Depth 
 JARR.                      No:  Jarring 
 LETM.      17.55.56 20-May-20:  Log End Time 
 LOST.hr                     0:  Lost Rig Time 
 LSTM.      04.30.56 18-May-20:  Log Start Time 
 MDCL.ppm            193153.00:  Mud Chlorides 
 MDES.     Inversion Oil/Synthetic:  Mud Desc 
 DFD .sg                  1.40:  Mud Density 
 MDMN.sg                  1.40:  Dens Mud Min 
 MDMX.sg                  1.41:  Dens Mud Max 
 MOIL.                      68:  Run Mud Oil % 
 MOWR.                   68:32:  Run Mud OWR 
 MSND.                     0.2:  Run Mud Sand % 
 MSOL.                    18.8:  Run Mud Solids% 
 DFV .spqt               80.00:  Mud Viscosity 
 MWOD.in                  6.75:  MWD Tool OD 
 MWSI.                      No:  Serv Intrp, MWD 
 OTIM.hr                104.84:  Time Operating 
 PMAX.psia            10690.93:  Press Op, Max 
 PV  .cP                 26.00:  Mud PV 
 RUN .                     900:  Run Number 
 ROPA.m/hr                0.00:  ROP Avg 
 ROPN.m/hr                0.00:  ROP Min 
 ROPX.m/hr                0.00:  ROP Max 
 RPMA.rpm               140.00:  RPM Surface Avg 
 RPMN.rpm                70.00:  RPM Surface Min 
 RPMX.rpm               140.00:  RPM Surface Max 
 RRUN.                    0900:  Rig Run Number 
 RTIM.hr                 36.00:  Time Reaming 
 SAZI.deg               115.72:  Azm, Start 
 SDEP.m                5337.01:  Start Depth 
 SIDD.                      No:  Serv Intrp, DD 
 SINC.deg                66.92:  Inc, Start 
 SPPA.psig             4400.00:  SPP Avg 
 SPPN.psig             1135.00:  SPP Min 
 SPPX.psig             4581.00:  SPP Max 
 STIM.      04.30.56 18-May-20:  Start Time 
 SVCS.                     MWD:  Services 
 SVER.                    9.20:  Sperry Version 
 TDAT.m                5337.01:  Tot Depth Attmp 
 TDDF.                      No:  Trip for DD 
 TFF .                      No:  Trip for Fail 
 TQAA.f-kp               23.00:  Torque Abs Avg 
 TQAN.f-kp               18.00:  Torque Abs Min 
 TQAX.f-kp               25.00:  Torque Abs Max 
 TRRT.°/30m               0.74:  Turn Rotating 
 MRT .                    HCIM:  Maximum Recorded Temperature 
 TTMX.degC               76.47:  Max Tool Temp 
 WBMN.klb                 0.00:  WOB Min 
 WITN.             Anar Khalil:  Customer Rep 
 WITN.      Kamran Keberlinski:  Customer Rep 2 
 WOBA.klb                 0.00:  WOB Avg 
 WOBX.klb                 0.00:  WOB Max 
 YP  .lhf2               27.00:  Yield Point 
~Curve Information Block
#MNEM.UNIT                 API CODE     Curve Description
#---------               -----------    ---------------------------
 TIME.HHMMSS            00 000 000 000:  GT Time & Date
 GTDEPTH.m              00 000 000 000:  GT Depth
 GTPQH.psia             00 000 000 000:  GT HR Quartz Pressure
 GTTQ.degC              00 000 000 000:  GT Quartz Temperature
 GTTN.NONE              00 000 000 000:  GT Test Number
 GTET.sec               00 000 000 000:  GT Elapsed Test Time
 GTTVD.m                00 000 000 000:  GT True Vertical Depth
#Other Information
#
#WARRANTY: Halliburton will use its best efforts to furnish customers with 
#accurate information and interpretations that are part of, and incident to, the services 
#provided.  However, Halliburton cannot and does not warrant the accuracy 
#or correctness of such information and interpretations.  Under no circumstances should any 
#such information or interpretation be relied upon as the sole basis for any drilling, 
#completion, production, or financial decision or any procedure involving any risk to the 
#safety of any drilling venture, drilling rig or its crew or any other third party.  The 
#Customer has full responsibility for all drilling, completion and production operation.  
#Halliburton makes no representations or warranties, either expressed or 
#implied, including, but not limited to, the implied warranties of merchantability or fitness 
#for a particular purpose, with respect to the services rendered.  In no event will 
#Halliburton be liable for failure to obtain any particular results or for 
#any damages, including, but not limited to, indirect, special or consequential damages, 
#resulting from the use of any information or interpretation provided by Halliburton.
#
~A           TIME           GTDEPTH  GTPQH  GTTQ  GTTN  GTET   GTTVD  
# ...
   04:33:32.753.20-May-2020 5064.29 6410.89 68.87 9.00 598.17 2676.66
   04:33:32.954.20-May-2020 5064.29 6410.89 68.87 9.00 598.37 2676.66
   04:33:33.154.20-May-2020 5064.29 6408.19 68.87 9.00 598.57 2676.66
   04:33:33.354.20-May-2020 5064.29 6408.12 68.87 9.00 598.77 2676.66
   04:33:33.554.20-May-2020 5064.29 6413.55 68.87 9.00 598.97 2676.66
   04:33:33.754.20-May-2020 5064.29 6407.98 68.87 9.00 599.17 2676.66
   04:33:33.954.20-May-2020 5064.29 6407.98 68.87 9.00 599.37 2676.66
   04:33:34.154.20-May-2020 5064.29 6414.06 68.87 9.00 599.57 2676.66
   04:33:34.354.20-May-2020 5064.29 6410.16 68.87 9.00 599.77 2676.66
   04:33:34.554.20-May-2020 5064.29 6408.89 68.87 9.00 599.97 2676.66
   04:33:34.754.20-May-2020 5064.29 6409.05 68.87 9.00 600.17 2676.66
   04:33:34.954.20-May-2020 5064.29 6409.05 68.87 9.00 600.37 2676.66
   04:33:35.154.20-May-2020 5064.29 6409.52 68.87 9.00 600.57 2676.66
   04:33:35.354.20-May-2020 5064.29 6411.40 68.87 9.00 600.77 2676.66
   04:33:35.554.20-May-2020 5064.29 6409.36 68.87 9.00 600.97 2676.66
   04:33:35.754.20-May-2020 5064.29 6408.98 68.87 9.00 601.17 2676.66
   04:33:35.954.20-May-2020 5064.29 6408.98 68.87 9.00 601.37 2676.66
   04:33:36.154.20-May-2020 5064.29 6410.01 68.87 9.00 601.57 2676.66
   04:33:36.354.20-May-2020 5064.29 6407.83 68.87 9.00 601.77 2676.66
   04:33:36.555.20-May-2020 5064.29 6409.18 68.87 9.00 601.97 2676.66
   04:33:36.755.20-May-2020 5064.29 6408.69 68.87 9.00 602.17 2676.66
   04:33:36.955.20-May-2020 5064.29 6408.69 68.87 9.00 602.37 2676.66
   04:33:37.155.20-May-2020 5064.29 6408.44 68.87 9.00 602.57 2676.66
   04:33:37.355.20-May-2020 5064.29 6407.17 68.87 9.00 602.77 2676.66
   04:33:37.555.20-May-2020 5064.29 6408.34 68.87 9.00 602.97 2676.66
   04:33:37.755.20-May-2020 5064.29 6407.29 68.87 9.00 603.17 2676.66
   04:33:37.955.20-May-2020 5064.29 6407.29 68.87 9.00 603.37 2676.66
   04:33:38.155.20-May-2020 5064.29 6407.68 68.86 9.00 603.57 2676.66
   04:33:38.355.20-May-2020 5064.29 6409.16 68.86 9.00 603.77 2676.66
   04:33:38.555.20-May-2020 5064.29 6409.27 68.86 9.00 603.97 2676.66
   04:33:38.755.20-May-2020 5064.29 6406.59 68.86 9.00 604.17 2676.66
   04:33:38.955.20-May-2020 5064.29 6406.59 68.86 9.00 604.37 2676.66
   04:33:39.155.20-May-2020 5064.29 6411.01 68.86 9.00 604.57 2676.66
   04:33:39.355.20-May-2020 5064.29 6409.98 68.86 9.00 604.77 2676.66
   04:33:39.555.20-May-2020 5064.29 6407.45 68.86 9.00 604.97 2676.66
   04:33:39.755.20-May-2020 5064.29 6408.05 68.86 9.00 605.17 2676.66
   04:33:39.956.20-May-2020 5064.29 6408.05 68.86 9.00 605.37 2676.66
   04:33:40.156.20-May-2020 5064.29 6412.83 68.86 9.00 605.57 2676.66
   04:33:40.356.20-May-2020 5064.29 6407.21 68.86 9.00 605.77 2676.66
   04:33:40.556.20-May-2020 5064.29 6409.25 68.86 9.00 605.97 2676.66
   04:33:40.756.20-May-2020 5064.29 6413.79 68.86 9.00 606.17 2676.66
   04:33:40.956.20-May-2020 5064.29 6413.79 68.86 9.00 606.37 2676.66
   04:33:41.156.20-May-2020 5064.29 6408.78 68.86 9.00 606.57 2676.66
   04:33:41.356.20-May-2020 5064.29 6408.53 68.86 9.00 606.77 2676.66
   04:33:41.556.20-May-2020 5064.29 6412.62 68.86 9.00 606.97 2676.66
   04:33:41.756.20-May-2020 5064.29 6408.82 68.86 9.00 607.17 2676.66
   04:33:41.956.20-May-2020 5064.29 6408.82 68.86 9.00 607.37 2676.66
   04:33:42.156.20-May-2020 5064.29 6409.76 68.86 9.00 607.57 2676.66
   04:33:42.356.20-May-2020 5064.29 6407.74 68.86 9.00 607.77 2676.66
   04:33:42.556.20-May-2020 5064.29 6410.13 68.86 9.00 607.97 2676.66
   04:33:42.756.20-May-2020 5064.29 6410.03 68.86 9.00 608.17 2676.66
   04:33:42.956.20-May-2020 5064.29 6410.03 68.86 9.00 608.37 2676.66
   04:33:43.156.20-May-2020 5064.29 6409.08 68.86 9.00 608.57 2676.66
   04:33:43.356.20-May-2020 5064.29 6407.48 68.86 9.00 608.77 2676.66
   04:33:43.557.20-May-2020 5064.29 6409.07 68.86 9.00 608.97 2676.66
   04:33:43.757.20-May-2020 5064.29 6407.84 68.86 9.00 609.17 2676.66
   04:33:43.957.20-May-2020 5064.29 6407.84 68.86 9.00 609.37 2676.66
   04:33:44.157.20-May-2020 5064.29 6408.50 68.86 9.00 609.57 2676.66
   04:33:44.357.20-May-2020 5064.29 6406.91 68.86 9.00 609.77 2676.66
   04:33:44.557.20-May-2020 5064.29 6407.72 68.86 9.00 609.97 2676.66
   04:33:44.757.20-May-2020 5064.29 6407.02 68.86 9.00 610.17 2676.66
   04:33:44.957.20-May-2020 5064.29 6407.02 68.86 9.00 610.37 2676.66
   04:33:45.157.20-May-2020 5064.29 6409.02 68.86 9.00 610.57 2676.66
   04:33:45.357.20-May-2020 5064.29 6406.36 68.86 9.00 610.77 2676.66
   04:33:45.557.20-May-2020 5064.29 6408.78 68.86 9.00 610.97 2676.66
   04:33:45.757.20-May-2020 5064.29 6409.84 68.86 9.00 611.17 2676.66
   04:33:45.957.20-May-2020 5064.29 6409.84 68.86 9.00 611.37 2676.66
   04:33:46.157.20-May-2020 5064.29 6409.74 68.86 9.00 611.57 2676.66
   04:33:46.357.20-May-2020 5064.29 6406.63 68.86 9.00 611.77 2676.66
   04:33:46.557.20-May-2020 5064.29 6410.66 68.86 9.00 611.97 2676.66
   04:33:46.757.20-May-2020 5064.29 6413.92 68.86 9.00 612.17 2676.66
   04:33:46.957.20-May-2020 5064.29 6413.92 68.86 9.00 612.37 2676.66
   04:33:47.158.20-May-2020 5064.29 6408.81 68.85 9.00 612.57 2676.66
   04:33:47.358.20-May-2020 5064.29 6409.99 68.85 9.00 612.77 2676.66
   04:33:47.558.20-May-2020 5064.29 6413.35 68.85 9.00 612.97 2676.66
   04:33:47.758.20-May-2020 5064.29 6410.15 68.85 9.00 613.17 2676.66
   04:33:47.958.20-May-2020 5064.29 6410.15 68.85 9.00 613.37 2676.66
   04:33:48.158.20-May-2020 5064.29 6411.46 68.85 9.00 613.57 2676.66
   04:33:48.358.20-May-2020 5064.29 6414.55 68.85 9.00 613.77 2676.66
   04:33:48.558.20-May-2020 5064.29 6409.36 68.85 9.00 613.97 2676.66
   04:33:48.758.20-May-2020 5064.29 6407.68 68.85 9.00 614.17 2676.66
   04:33:48.958.20-May-2020 5064.29 6407.68 68.85 9.00 614.37 2676.66
   04:33:49.158.20-May-2020 5064.29 6411.18 68.85 9.00 614.57 2676.66
   04:33:49.358.20-May-2020 5064.29 6407.92 68.85 9.00 614.77 2676.66
   04:33:49.558.20-May-2020 5064.29 6409.45 68.85 9.00 614.97 2676.66
   04:33:49.758.20-May-2020 5064.29 6408.57 68.85 9.00 615.17 2676.66
   04:33:49.958.20-May-2020 5064.29 6408.57 68.85 9.00 615.37 2676.66
   04:33:50.158.20-May-2020 5064.29 6408.54 68.85 9.00 615.57 2676.66
   04:33:50.358.20-May-2020 5064.29 6407.26 68.85 9.00 615.77 2676.66
   04:33:50.559.20-May-2020 5064.29 6408.56 68.85 9.00 615.97 2676.66
   04:33:50.759.20-May-2020 5064.29 6407.64 68.85 9.00 616.17 2676.66
   04:33:50.959.20-May-2020 5064.29 6407.64 68.85 9.00 616.37 2676.66
   04:33:51.159.20-May-2020 5064.29 6408.20 68.85 9.00 616.57 2676.66
   04:33:51.359.20-May-2020 5064.29 6410.18 68.85 9.00 616.77 2676.66
   04:33:51.559.20-May-2020 5064.29 6409.67 68.85 9.00 616.97 2676.66
   04:33:51.759.20-May-2020 5064.29 6407.15 68.85 9.00 617.17 2676.66
   04:33:51.959.20-May-2020 5064.29 6407.15 68.85 9.00 617.37 2676.66
   04:33:52.159.20-May-2020 5064.29 6411.03 68.85 9.00 617.57 2676.66
   04:33:52.359.20-May-2020 5064.29 6410.25 68.85 9.00 617.77 2676.66
   04:33:52.559.20-May-2020 5064.29 6410.64 68.85 9.00 617.97 2676.66
   04:33:52.759.20-May-2020 5064.29 6407.73 68.85 9.00 618.17 2676.66
   04:33:52.959.20-May-2020 5064.29 6407.73 68.85 9.00 618.37 2676.66
   04:33:53.159.20-May-2020 5064.29 6415.05 68.85 9.00 618.57 2676.66
   04:33:53.359.20-May-2020 5064.29 6408.23 68.85 9.00 618.78 2676.66
   04:33:53.559.20-May-2020 5064.29 6409.29 68.85 9.00 618.98 2676.66
   04:33:53.759.20-May-2020 5064.29 6410.63 68.85 9.00 619.18 2676.66
   04:33:53.959.20-May-2020 5064.29 6410.63 68.85 9.00 619.38 2676.66
   04:33:54.160.20-May-2020 5064.29 6411.47 68.85 9.00 619.58 2676.66
   04:33:54.360.20-May-2020 5064.29 6407.99 68.85 9.00 619.78 2676.66
   04:33:54.560.20-May-2020 5064.29 6412.25 68.85 9.00 619.98 2676.66
   04:33:54.760.20-May-2020 5064.29 6415.43 68.85 9.00 620.18 2676.66
   04:33:54.960.20-May-2020 5064.29 6415.43 68.85 9.00 620.38 2676.66
   04:33:55.160.20-May-2020 5064.29 6408.78 68.85 9.00 620.58 2676.66
   04:33:55.360.20-May-2020 5064.29 6410.25 68.85 9.00 620.78 2676.66
   04:33:55.560.20-May-2020 5064.29 6412.24 68.85 9.00 620.98 2676.66
