~Version Information
 VERS.                  2.0:   CWLS log ASCII Standard -VERSION 2.0
 WRAP.                   NO:   One line per depth step
~Well Information Block
#MNEM.UNIT     VALUE/NAME     DESCRIPTION
#---------     -----------    ---------------------------
 STRT.S             04:23:34 20-May-20: START TIME 04:23:34 20-May-20
 STOP.S             04:34:06 20-May-20: STOP TIME  04:34:06 20-May-20
 STEP.S                   0.00: STEP TIME
 NULL.                 -999.25: NULL VALUE
 MDS .        Operator Entered:  MAG DATA SOURCE
 PDAT.          Mean Sea Level:  PERMANENT DATUM
 UNIT.                     N/A:  LOGGING EQUIPMENT ID
 DCON.         Sperry Drilling:  DIRECTNL CONTR
 DOE .                     N/A:  DOE NUMBER
 RIG .              East Azeri:  RIG NAME
 JOBN.        AZ-XX-0905856059:  JOB TICKET NUMB
 WELL.                     D36:  WELL NAME
 MWDS.                    Baku:  MWD SHOP
 SRVC.     Turan Drilling & Engineering:  CONTRACTOR
 FLD .                     ACG:  FIELD NAME
 CTRY.              Azerbaijan:  COUNTRY NAME
 PROV.                    Baku:  PROVINCE
 STAT.                    Baku:  STATE NAME
 REGN.                   EESSA:  REGION
 BASE.              Azerbaijan:  LOGGING EQUIPMENT BASE LOCATION
 UWI .                     N/A:  UNIQUE WELL IDENTIFIER
 API .                     N/A:  API NUMBER
 COMP.     BP Exploration (Caspian Sea) Ltd.:  COMPANY
 WTYP.                Deviated:  WELL TYPE
 SON .        AZ-XX-0905856059:  JOB NUMBER
 FTOP.          Formation Tops:  FORM TOPS DESC
 ILTD.               Lithology:  INTERP LTH DESC
 SVYD.                  Survey:  SURVEY DESC
 DMOD.             Drill Model:  DRILL MOD DESC
 HPTY.       Minimum Curvature:  HOLE POS TYPE
 NREF.                    Grid:  NORTH REFERENCE
 SPUD.               25-Feb-20:  SPUD DATE
 DATE.      08.55.28 01-May-20:  END TIME
 STIM.      08.55.28 25-Feb-20:  START TIME
 DMF .             Drill Floor:  DRILL MEAS FROM
 DFST.                        :  DIST FSL TEXT
 DFWT.                        :  DIST FWL TEXT
 CNTY.                        :  COUNTY
 LOC .                        :  LOCATION
 LMF .             Drill Floor:  LOG MEASURED FROM
 VSNS.m                   6.09:  VERT SEC N/S
 VSEW.m                 -10.79:  VERT SEC E/W
 AGAP.m                  43.60:  AIR GAP
 DEP .m                 388.24:  DEPTH
 APD .m                  43.60:  DEPTH ABOVE PD
 WDMS.m                 151.80:  WD ELEV
 EGL .m                   0.00:  GROUND ELEVATION
 EPD .m                   0.00:  ELEVATION
 AZTC.deg                 6.12:  AZM TOTAL CORR
 GRDC.deg                 0.30:  GRID CORRECTION
 MDEC.deg                 6.42:  MAGNETIC DECL
 MDIP.deg                59.42:  MAGNETIC DIP
 MFLD.nT              50256.00:  MAGNETIC FIELD
 GVFD.g                   1.00:  GRAVITY FIELD
 VSDR.deg               159.57:  VERT SEC DIRECT
 TDD .m                5000.01:  TOTAL DEPTH (DRILLER)
 SDEP.m                 397.00:  START DEPTH
 DFSL.m                   0.00:  DISTANCE FSL
 DFWL.m                   0.00:  DISTANCE FWL
 UTMY.m             4431880.20:  UTM Y
 UTMX.m              538763.98:  UTM X
 WHEW.m                 -10.79:  WELL HEAD E/W
 WHNS.m                   6.09:  WELL HEAD N/S
 LONG.deg                51.45:  LONGITUDE
 LATI.deg                40.02:  LATITUDE
 TVDS.m                  43.60:  TVDSS CORRECTN
 EKB .m                  43.60:  KB ELEVATION
 EDF .m                  43.60:  DF ELEVATION
 MAGU.                 1847640:  MAGUTM CHECKSUM
 VSC .                       0:  VS TO CLOSURE
~Parameter Information Block
#MNEM.UNIT       Value        Description
#---------     -----------    ---------------------------
 AV  .mps                 1.30:  Ann Velocity 
 AVMX.mps                 1.90:  Max Ann Veloc 
 AZIF.deg               115.68:  Azm, Final 
 BHAT.                   Other:  BHA Type 
 BROT.°/30m               0.74:  Build Rotating 
 BS  .in                  8.50:  Bit Size 
 BTPL.psig              430.00:  Bit Press Loss 
 CABU.                      No:  Customer Abuse 
 TCS .hr                 51.31:  Time Ciculation Ended 
 CV  .mps                 2.52:  Crit Velocity 
 CVMX.mps                 2.62:  Max Crit Veloc 
 DD1 .          Teymur Aghayev:  Direct Drillr 1 
 DDSV.                   Other:  DD Service 
 DEFF.%                 100.00:  % Det Eff 
 DLRX.°/30m               1.62:  Dogleg Rot Max 
 DLSO.°/30m               0.74:  Dogleg Oriented 
 DLSX.°/30m               1.62:  Dogleg Str Max 
 DRET.      04.30.56 18-May-20:  Drill End Time 
 DRST.      04.30.56 18-May-20:  Drill Start Tim 
 DTIM.hr                  0.00:  Time Drilling 
 EDEP.m                5337.01:  End Depth 
 ENG1.      Artemiy Matviyanov:  Engineer 1 
 ENG2.      Bakhtiyar Jabbarli:  Engineer 2 
 ENG3.           Emil Huseynov:  Engineer 3 
 ETIM.      18.40.00 22-May-20:  End Time 
 FLOI.gpm               550.00:  Flow In 
 FLON.gpm               350.00:  Flow In Min 
 FLOS.cptm                0.00:  Fluid Loss 
 FLOX.gpm               600.00:  Flow In Max 
 HFLO.                      No:  High Flow 
 HPRE.                      No:  High Pressure 
 HTEM.                      No:  High Temp 
 HYDO.m                   1.80:  Hydro Offset 
 IFIN.deg                67.01:  Inc, Final 
 IMAX.deg                67.49:  Inc Max 
 IMIN.deg                66.50:  Inc Min 
 IMND.m                5144.79:  Inc Min Depth 
 IMXD.m                5116.12:  Inc Max Depth 
 JARR.                      No:  Jarring 
 LETM.      17.55.56 20-May-20:  Log End Time 
 LOST.hr                     0:  Lost Rig Time 
 LSTM.      04.30.56 18-May-20:  Log Start Time 
 MDCL.ppm            193153.00:  Mud Chlorides 
 MDES.     Inversion Oil/Synthetic:  Mud Desc 
 DFD .sg                  1.40:  Mud Density 
 MDMN.sg                  1.40:  Dens Mud Min 
 MDMX.sg                  1.41:  Dens Mud Max 
 MOIL.                      68:  Run Mud Oil % 
 MOWR.                   68:32:  Run Mud OWR 
 MSND.                     0.2:  Run Mud Sand % 
 MSOL.                    18.8:  Run Mud Solids% 
 DFV .spqt               80.00:  Mud Viscosity 
 MWOD.in                  6.75:  MWD Tool OD 
 MWSI.                      No:  Serv Intrp, MWD 
 OTIM.hr                104.84:  Time Operating 
 PMAX.psia            10690.93:  Press Op, Max 
 PV  .cP                 26.00:  Mud PV 
 RUN .                     900:  Run Number 
 ROPA.m/hr                0.00:  ROP Avg 
 ROPN.m/hr                0.00:  ROP Min 
 ROPX.m/hr                0.00:  ROP Max 
 RPMA.rpm               140.00:  RPM Surface Avg 
 RPMN.rpm                70.00:  RPM Surface Min 
 RPMX.rpm               140.00:  RPM Surface Max 
 RRUN.                    0900:  Rig Run Number 
 RTIM.hr                 36.00:  Time Reaming 
 SAZI.deg               115.72:  Azm, Start 
 SDEP.m                5337.01:  Start Depth 
 SIDD.                      No:  Serv Intrp, DD 
 SINC.deg                66.92:  Inc, Start 
 SPPA.psig             4400.00:  SPP Avg 
 SPPN.psig             1135.00:  SPP Min 
 SPPX.psig             4581.00:  SPP Max 
 STIM.      04.30.56 18-May-20:  Start Time 
 SVCS.                     MWD:  Services 
 SVER.                    9.20:  Sperry Version 
 TDAT.m                5337.01:  Tot Depth Attmp 
 TDDF.                      No:  Trip for DD 
 TFF .                      No:  Trip for Fail 
 TQAA.f-kp               23.00:  Torque Abs Avg 
 TQAN.f-kp               18.00:  Torque Abs Min 
 TQAX.f-kp               25.00:  Torque Abs Max 
 TRRT.°/30m               0.74:  Turn Rotating 
 MRT .                    HCIM:  Maximum Recorded Temperature 
 TTMX.degC               76.47:  Max Tool Temp 
 WBMN.klb                 0.00:  WOB Min 
 WITN.             Anar Khalil:  Customer Rep 
 WITN.      Kamran Keberlinski:  Customer Rep 2 
 WOBA.klb                 0.00:  WOB Avg 
 WOBX.klb                 0.00:  WOB Max 
 YP  .lhf2               27.00:  Yield Point 
~Curve Information Block
#MNEM.UNIT                 API CODE     Curve Description
#---------               -----------    ---------------------------
 TIME.HHMMSS            00 000 000 000:  GT Time & Date
 GTDEPTH.m              00 000 000 000:  GT Depth
 GTPQH.psia             00 000 000 000:  GT HR Quartz Pressure
 GTTQ.degC              00 000 000 000:  GT Quartz Temperature
 GTTN.NONE              00 000 000 000:  GT Test Number
 GTET.sec               00 000 000 000:  GT Elapsed Test Time
 GTTVD.m                00 000 000 000:  GT True Vertical Depth
#Other Information
#
#WARRANTY: Halliburton will use its best efforts to furnish customers with 
#accurate information and interpretations that are part of, and incident to, the services 
#provided.  However, Halliburton cannot and does not warrant the accuracy 
#or correctness of such information and interpretations.  Under no circumstances should any 
#such information or interpretation be relied upon as the sole basis for any drilling, 
#completion, production, or financial decision or any procedure involving any risk to the 
#safety of any drilling venture, drilling rig or its crew or any other third party.  The 
#Customer has full responsibility for all drilling, completion and production operation.  
#Halliburton makes no representations or warranties, either expressed or 
#implied, including, but not limited to, the implied warranties of merchantability or fitness 
#for a particular purpose, with respect to the services rendered.  In no event will 
#Halliburton be liable for failure to obtain any particular results or for 
#any damages, including, but not limited to, indirect, special or consequential damages, 
#resulting from the use of any information or interpretation provided by Halliburton.
#
~A           TIME           GTDEPTH  GTPQH  GTTQ  GTTN  GTET   GTTVD  
# ...
   04:30:05.695.20-May-2020 5064.29 2956.21 68.78 9.00 391.11 2676.66
   04:30:05.895.20-May-2020 5064.29 2956.21 68.78 9.00 391.31 2676.66
   04:30:06.095.20-May-2020 5064.29 2956.30 68.78 9.00 391.51 2676.66
   04:30:06.295.20-May-2020 5064.29 2956.11 68.78 9.00 391.71 2676.66
   04:30:06.495.20-May-2020 5064.29 2956.17 68.78 9.00 391.91 2676.66
   04:30:06.695.20-May-2020 5064.29 2956.18 68.78 9.00 392.11 2676.66
   04:30:06.895.20-May-2020 5064.29 2956.18 68.78 9.00 392.31 2676.66
   04:30:07.095.20-May-2020 5064.29 2956.03 68.78 9.00 392.51 2676.66
   04:30:07.295.20-May-2020 5064.29 2956.29 68.78 9.00 392.71 2676.66
   04:30:07.495.20-May-2020 5064.29 2956.12 68.78 9.00 392.91 2676.66
   04:30:07.695.20-May-2020 5064.29 2956.21 68.78 9.00 393.11 2676.66
   04:30:07.896.20-May-2020 5064.29 2956.21 68.78 9.00 393.31 2676.66
   04:30:08.096.20-May-2020 5064.29 2956.16 68.78 9.00 393.51 2676.66
   04:30:08.296.20-May-2020 5064.29 2956.13 68.78 9.00 393.71 2676.66
   04:30:08.496.20-May-2020 5064.29 2956.13 68.78 9.00 393.91 2676.66
   04:30:08.696.20-May-2020 5064.29 2956.18 68.78 9.00 394.11 2676.66
   04:30:08.896.20-May-2020 5064.29 2956.18 68.78 9.00 394.31 2676.66
   04:30:09.096.20-May-2020 5064.29 2956.17 68.78 9.00 394.51 2676.66
   04:30:09.296.20-May-2020 5064.29 2956.12 68.78 9.00 394.71 2676.66
   04:30:09.496.20-May-2020 5064.29 2956.14 68.78 9.00 394.91 2676.66
   04:30:09.696.20-May-2020 5064.29 2956.17 68.78 9.00 395.11 2676.66
   04:30:09.896.20-May-2020 5064.29 2956.17 68.78 9.00 395.31 2676.66
   04:30:10.096.20-May-2020 5064.29 2956.17 68.78 9.00 395.51 2676.66
   04:30:10.296.20-May-2020 5064.29 2956.13 68.78 9.00 395.71 2676.66
   04:30:10.496.20-May-2020 5064.29 2956.13 68.78 9.00 395.91 2676.66
   04:30:10.696.20-May-2020 5064.29 2956.21 68.78 9.00 396.11 2676.66
   04:30:10.896.20-May-2020 5064.29 2956.21 68.78 9.00 396.31 2676.66
   04:30:11.096.20-May-2020 5064.29 2956.33 68.78 9.00 396.51 2676.66
   04:30:11.296.20-May-2020 5064.29 2956.12 68.78 9.00 396.71 2676.66
   04:30:11.497.20-May-2020 5064.29 2955.45 68.78 9.00 396.91 2676.66
   04:30:11.697.20-May-2020 5064.29 2949.87 68.78 9.00 397.11 2676.66
   04:30:11.897.20-May-2020 5064.29 2949.87 68.78 9.00 397.31 2676.66
   04:30:12.097.20-May-2020 5064.29 2902.94 68.78 9.00 397.51 2676.66
   04:30:12.297.20-May-2020 5064.29 2884.70 68.78 9.00 397.71 2676.66
   04:30:12.497.20-May-2020 5064.29 2875.53 68.78 9.00 397.91 2676.66
   04:30:12.697.20-May-2020 5064.29 2873.08 68.78 9.00 398.11 2676.66
   04:30:12.897.20-May-2020 5064.29 2873.08 68.78 9.00 398.31 2676.66
   04:30:13.097.20-May-2020 5064.29 2881.83 68.78 9.00 398.51 2676.66
   04:30:13.297.20-May-2020 5064.29 2894.54 68.78 9.00 398.71 2676.66
   04:30:13.497.20-May-2020 5064.29 2903.34 68.78 9.00 398.91 2676.66
   04:30:13.697.20-May-2020 5064.29 2898.57 68.78 9.00 399.11 2676.66
   04:30:13.897.20-May-2020 5064.29 2898.57 68.78 9.00 399.31 2676.66
   04:30:14.097.20-May-2020 5064.29 2899.90 68.78 9.00 399.51 2676.66
   04:30:14.297.20-May-2020 5064.29 2898.41 68.78 9.00 399.71 2676.66
   04:30:14.497.20-May-2020 5064.29 2905.05 68.78 9.00 399.91 2676.66
   04:30:14.697.20-May-2020 5064.29 2905.88 68.78 9.00 400.11 2676.66
   04:30:14.898.20-May-2020 5064.29 2905.88 68.78 9.00 400.31 2676.66
   04:30:15.098.20-May-2020 5064.29 2904.48 68.78 9.00 400.51 2676.66
   04:30:15.298.20-May-2020 5064.29 2905.03 68.78 9.00 400.71 2676.66
   04:30:15.498.20-May-2020 5064.29 2905.32 68.78 9.00 400.91 2676.66
   04:30:15.698.20-May-2020 5064.29 2904.60 68.78 9.00 401.11 2676.66
   04:30:15.898.20-May-2020 5064.29 2904.60 68.78 9.00 401.31 2676.66
   04:30:16.098.20-May-2020 5064.29 2903.24 68.78 9.00 401.51 2676.66
   04:30:16.298.20-May-2020 5064.29 2901.99 68.78 9.00 401.71 2676.66
   04:30:16.498.20-May-2020 5064.29 2895.63 68.78 9.00 401.91 2676.66
   04:30:16.698.20-May-2020 5064.29 2895.54 68.78 9.00 402.11 2676.66
   04:30:16.898.20-May-2020 5064.29 2895.54 68.78 9.00 402.31 2676.66
   04:30:17.098.20-May-2020 5064.29 2892.96 68.78 9.00 402.51 2676.66
   04:30:17.298.20-May-2020 5064.29 2894.95 68.78 9.00 402.71 2676.66
   04:30:17.498.20-May-2020 5064.29 2903.64 68.78 9.00 402.91 2676.66
   04:30:17.698.20-May-2020 5064.29 2906.28 68.78 9.00 403.11 2676.66
   04:30:17.898.20-May-2020 5064.29 2906.28 68.78 9.00 403.31 2676.66
   04:30:18.098.20-May-2020 5064.29 2905.65 68.78 9.00 403.51 2676.66
   04:30:18.298.20-May-2020 5064.29 2905.33 68.78 9.00 403.71 2676.66
   04:30:18.499.20-May-2020 5064.29 2906.40 68.78 9.00 403.91 2676.66
   04:30:18.699.20-May-2020 5064.29 2907.07 68.78 9.00 404.11 2676.66
   04:30:18.899.20-May-2020 5064.29 2907.07 68.78 9.00 404.31 2676.66
   04:30:19.099.20-May-2020 5064.29 2906.56 68.78 9.00 404.51 2676.66
   04:30:19.299.20-May-2020 5064.29 2905.88 68.78 9.00 404.71 2676.66
   04:30:19.499.20-May-2020 5064.29 2906.51 68.78 9.00 404.91 2676.66
   04:30:19.699.20-May-2020 5064.29 2907.32 68.78 9.00 405.11 2676.66
   04:30:19.899.20-May-2020 5064.29 2907.32 68.78 9.00 405.31 2676.66
   04:30:20.099.20-May-2020 5064.29 2906.29 68.78 9.00 405.51 2676.66
   04:30:20.299.20-May-2020 5064.29 2907.20 68.78 9.00 405.71 2676.66
   04:30:20.499.20-May-2020 5064.29 2906.95 68.78 9.00 405.91 2676.66
   04:30:20.699.20-May-2020 5064.29 2907.44 68.78 9.00 406.11 2676.66
   04:30:20.899.20-May-2020 5064.29 2907.44 68.78 9.00 406.31 2676.66
   04:30:21.099.20-May-2020 5064.29 2905.73 68.78 9.00 406.51 2676.66
   04:30:21.299.20-May-2020 5064.29 2903.07 68.78 9.00 406.72 2676.66
   04:30:21.499.20-May-2020 5064.29 2901.09 68.78 9.00 406.92 2676.66
   04:30:21.699.20-May-2020 5064.29 2900.57 68.78 9.00 407.12 2676.66
   04:30:21.899.20-May-2020 5064.29 2900.57 68.78 9.00 407.32 2676.66
   04:30:22.100.20-May-2020 5064.29 2898.51 68.78 9.00 407.52 2676.66
   04:30:22.300.20-May-2020 5064.29 2897.40 68.78 9.00 407.72 2676.66
   04:30:22.500.20-May-2020 5064.29 2897.27 68.78 9.00 407.92 2676.66
   04:30:22.700.20-May-2020 5064.29 2897.33 68.78 9.00 408.12 2676.66
   04:30:22.900.20-May-2020 5064.29 2897.33 68.78 9.00 408.32 2676.66
   04:30:23.100.20-May-2020 5064.29 2895.08 68.78 9.00 408.52 2676.66
   04:30:23.300.20-May-2020 5064.29 2903.10 68.78 9.00 408.72 2676.66
   04:30:23.500.20-May-2020 5064.29 2905.94 68.78 9.00 408.92 2676.66
   04:30:23.700.20-May-2020 5064.29 2906.40 68.78 9.00 409.12 2676.66
   04:30:23.900.20-May-2020 5064.29 2906.40 68.78 9.00 409.32 2676.66
   04:30:24.100.20-May-2020 5064.29 2907.06 68.78 9.00 409.52 2676.66
   04:30:24.300.20-May-2020 5064.29 2905.25 68.78 9.00 409.72 2676.66
   04:30:24.500.20-May-2020 5064.29 2906.91 68.78 9.00 409.92 2676.66
   04:30:24.700.20-May-2020 5064.29 2907.86 68.78 9.00 410.12 2676.66
   04:30:24.900.20-May-2020 5064.29 2907.86 68.78 9.00 410.32 2676.66
   04:30:25.100.20-May-2020 5064.29 2906.17 68.78 9.00 410.52 2676.66
   04:30:25.300.20-May-2020 5064.29 2907.20 68.78 9.00 410.72 2676.66
   04:30:25.501.20-May-2020 5064.29 2907.90 68.78 9.00 410.92 2676.66
   04:30:25.701.20-May-2020 5064.29 2907.94 68.78 9.00 411.12 2676.66
   04:30:25.901.20-May-2020 5064.29 2907.94 68.78 9.00 411.32 2676.66
   04:30:26.101.20-May-2020 5064.29 2906.43 68.78 9.00 411.52 2676.66
   04:30:26.301.20-May-2020 5064.29 2907.95 68.78 9.00 411.72 2676.66
   04:30:26.501.20-May-2020 5064.29 2906.59 68.78 9.00 411.92 2676.66
   04:30:26.701.20-May-2020 5064.29 2923.29 68.78 9.00 412.12 2676.66
   04:30:26.901.20-May-2020 5064.29 2923.29 68.78 9.00 412.32 2676.66
   04:30:27.101.20-May-2020 5064.29 2914.25 68.78 9.00 412.52 2676.66
   04:30:27.301.20-May-2020 5064.29 2907.26 68.78 9.00 412.72 2676.66
   04:30:27.501.20-May-2020 5064.29 2906.36 68.78 9.00 412.92 2676.66
   04:30:27.701.20-May-2020 5064.29 2905.00 68.78 9.00 413.12 2676.66
   04:30:27.901.20-May-2020 5064.29 2905.00 68.78 9.00 413.32 2676.66
   04:30:28.101.20-May-2020 5064.29 2902.41 68.78 9.00 413.52 2676.66
   04:30:28.301.20-May-2020 5064.29 2901.83 68.78 9.00 413.72 2676.66
   04:30:28.501.20-May-2020 5064.29 2901.50 68.78 9.00 413.92 2676.66
