~Version Information
 VERS.                  2.0:   CWLS log ASCII Standard -VERSION 2.0
 WRAP.                   NO:   One line per depth step
~Well Information Block
#MNEM.UNIT     VALUE/NAME     DESCRIPTION
#---------     -----------    ---------------------------
 STRT.S             17:37:07 19-May-20: START TIME 17:37:07 19-May-20
 STOP.S             17:43:47 19-May-20: STOP TIME  17:43:47 19-May-20
 STEP.S                   0.00: STEP TIME
 NULL.                 -999.25: NULL VALUE
 MDS .        Operator Entered:  MAG DATA SOURCE
 PDAT.          Mean Sea Level:  PERMANENT DATUM
 UNIT.                     N/A:  LOGGING EQUIPMENT ID
 DCON.         Sperry Drilling:  DIRECTNL CONTR
 DOE .                     N/A:  DOE NUMBER
 RIG .              East Azeri:  RIG NAME
 JOBN.        AZ-XX-0905856059:  JOB TICKET NUMB
 WELL.                     D36:  WELL NAME
 MWDS.                    Baku:  MWD SHOP
 SRVC.     Turan Drilling & Engineering:  CONTRACTOR
 FLD .                     ACG:  FIELD NAME
 CTRY.              Azerbaijan:  COUNTRY NAME
 PROV.                    Baku:  PROVINCE
 STAT.                    Baku:  STATE NAME
 REGN.                   EESSA:  REGION
 BASE.              Azerbaijan:  LOGGING EQUIPMENT BASE LOCATION
 UWI .                     N/A:  UNIQUE WELL IDENTIFIER
 API .                     N/A:  API NUMBER
 COMP.     BP Exploration (Caspian Sea) Ltd.:  COMPANY
 WTYP.                Deviated:  WELL TYPE
 SON .        AZ-XX-0905856059:  JOB NUMBER
 FTOP.          Formation Tops:  FORM TOPS DESC
 ILTD.               Lithology:  INTERP LTH DESC
 SVYD.                  Survey:  SURVEY DESC
 DMOD.             Drill Model:  DRILL MOD DESC
 HPTY.       Minimum Curvature:  HOLE POS TYPE
 NREF.                    Grid:  NORTH REFERENCE
 SPUD.               25-Feb-20:  SPUD DATE
 DATE.      08.55.28 01-May-20:  END TIME
 STIM.      08.55.28 25-Feb-20:  START TIME
 DMF .             Drill Floor:  DRILL MEAS FROM
 DFST.                        :  DIST FSL TEXT
 DFWT.                        :  DIST FWL TEXT
 CNTY.                        :  COUNTY
 LOC .                        :  LOCATION
 LMF .             Drill Floor:  LOG MEASURED FROM
 VSNS.m                   6.09:  VERT SEC N/S
 VSEW.m                 -10.79:  VERT SEC E/W
 AGAP.m                  43.60:  AIR GAP
 DEP .m                 388.24:  DEPTH
 APD .m                  43.60:  DEPTH ABOVE PD
 WDMS.m                 151.80:  WD ELEV
 EGL .m                   0.00:  GROUND ELEVATION
 EPD .m                   0.00:  ELEVATION
 AZTC.deg                 6.12:  AZM TOTAL CORR
 GRDC.deg                 0.30:  GRID CORRECTION
 MDEC.deg                 6.42:  MAGNETIC DECL
 MDIP.deg                59.42:  MAGNETIC DIP
 MFLD.nT              50256.00:  MAGNETIC FIELD
 GVFD.g                   1.00:  GRAVITY FIELD
 VSDR.deg               159.57:  VERT SEC DIRECT
 TDD .m                5000.01:  TOTAL DEPTH (DRILLER)
 SDEP.m                 397.00:  START DEPTH
 DFSL.m                   0.00:  DISTANCE FSL
 DFWL.m                   0.00:  DISTANCE FWL
 UTMY.m             4431880.20:  UTM Y
 UTMX.m              538763.98:  UTM X
 WHEW.m                 -10.79:  WELL HEAD E/W
 WHNS.m                   6.09:  WELL HEAD N/S
 LONG.deg                51.45:  LONGITUDE
 LATI.deg                40.02:  LATITUDE
 TVDS.m                  43.60:  TVDSS CORRECTN
 EKB .m                  43.60:  KB ELEVATION
 EDF .m                  43.60:  DF ELEVATION
 MAGU.                 1847640:  MAGUTM CHECKSUM
 VSC .                       0:  VS TO CLOSURE
~Parameter Information Block
#MNEM.UNIT       Value        Description
#---------     -----------    ---------------------------
 AV  .mps                 1.30:  Ann Velocity 
 AVMX.mps                 1.90:  Max Ann Veloc 
 AZIF.deg               115.68:  Azm, Final 
 BHAT.                   Other:  BHA Type 
 BROT.°/30m               0.74:  Build Rotating 
 BS  .in                  8.50:  Bit Size 
 BTPL.psig              430.00:  Bit Press Loss 
 CABU.                      No:  Customer Abuse 
 COMM.                     t9l:  Run Comments 1 
 TCS .hr                 51.31:  Time Ciculation Ended 
 CV  .mps                 2.52:  Crit Velocity 
 CVMX.mps                 2.62:  Max Crit Veloc 
 DD1 .          Teymur Aghayev:  Direct Drillr 1 
 DDSV.                   Other:  DD Service 
 DEFF.%                 100.00:  % Det Eff 
 DLRX.°/30m               1.62:  Dogleg Rot Max 
 DLSO.°/30m               0.74:  Dogleg Oriented 
 DLSX.°/30m               1.62:  Dogleg Str Max 
 DRET.      04.30.56 18-May-20:  Drill End Time 
 DRST.      04.30.56 18-May-20:  Drill Start Tim 
 DTIM.hr                  0.00:  Time Drilling 
 EDEP.m                5337.01:  End Depth 
 ENG1.      Artemiy Matviyanov:  Engineer 1 
 ENG2.      Bakhtiyar Jabbarli:  Engineer 2 
 ENG3.           Emil Huseynov:  Engineer 3 
 ETIM.      18.40.00 22-May-20:  End Time 
 FLOI.gpm               550.00:  Flow In 
 FLON.gpm               350.00:  Flow In Min 
 FLOS.cptm                0.00:  Fluid Loss 
 FLOX.gpm               600.00:  Flow In Max 
 HFLO.                      No:  High Flow 
 HPRE.                      No:  High Pressure 
 HTEM.                      No:  High Temp 
 HYDO.m                   1.80:  Hydro Offset 
 IFIN.deg                67.01:  Inc, Final 
 IMAX.deg                67.49:  Inc Max 
 IMIN.deg                66.50:  Inc Min 
 IMND.m                5144.79:  Inc Min Depth 
 IMXD.m                5116.12:  Inc Max Depth 
 JARR.                      No:  Jarring 
 LETM.      17.55.56 20-May-20:  Log End Time 
 LOST.hr                     0:  Lost Rig Time 
 LSTM.      04.30.56 18-May-20:  Log Start Time 
 MDCL.ppm            193153.00:  Mud Chlorides 
 MDES.     Inversion Oil/Synthetic:  Mud Desc 
 DFD .sg                  1.40:  Mud Density 
 MDMN.sg                  1.40:  Dens Mud Min 
 MDMX.sg                  1.41:  Dens Mud Max 
 MOIL.                      68:  Run Mud Oil % 
 MOWR.                   68:32:  Run Mud OWR 
 MSND.                     0.2:  Run Mud Sand % 
 MSOL.                    18.8:  Run Mud Solids% 
 DFV .spqt               80.00:  Mud Viscosity 
 MWOD.in                  6.75:  MWD Tool OD 
 MWSI.                      No:  Serv Intrp, MWD 
 OTIM.hr                104.84:  Time Operating 
 PMAX.psia            10690.93:  Press Op, Max 
 PV  .cP                 26.00:  Mud PV 
 RUN .                     900:  Run Number 
 ROPA.m/hr                0.00:  ROP Avg 
 ROPN.m/hr                0.00:  ROP Min 
 ROPX.m/hr                0.00:  ROP Max 
 RPMA.rpm               140.00:  RPM Surface Avg 
 RPMN.rpm                70.00:  RPM Surface Min 
 RPMX.rpm               140.00:  RPM Surface Max 
 RRUN.                    0900:  Rig Run Number 
 RTIM.hr                 36.00:  Time Reaming 
 SAZI.deg               115.72:  Azm, Start 
 SDEP.m                5337.01:  Start Depth 
 SIDD.                      No:  Serv Intrp, DD 
 SINC.deg                66.92:  Inc, Start 
 SPPA.psig             4400.00:  SPP Avg 
 SPPN.psig             1135.00:  SPP Min 
 SPPX.psig             4581.00:  SPP Max 
 STIM.      04.30.56 18-May-20:  Start Time 
 SVCS.                     MWD:  Services 
 SVER.                    9.20:  Sperry Version 
 TDAT.m                5337.01:  Tot Depth Attmp 
 TDDF.                      No:  Trip for DD 
 TFF .                      No:  Trip for Fail 
 TQAA.f-kp               23.00:  Torque Abs Avg 
 TQAN.f-kp               18.00:  Torque Abs Min 
 TQAX.f-kp               25.00:  Torque Abs Max 
 TRRT.°/30m               0.74:  Turn Rotating 
 MRT .                    HCIM:  Maximum Recorded Temperature 
 TTMX.degC               76.47:  Max Tool Temp 
 WBMN.klb                 0.00:  WOB Min 
 WITN.             Anar Khalil:  Customer Rep 
 WITN.      Kamran Keberlinski:  Customer Rep 2 
 WOBA.klb                 0.00:  WOB Avg 
 WOBX.klb                 0.00:  WOB Max 
 YP  .lhf2               27.00:  Yield Point 
~Curve Information Block
#MNEM.UNIT                 API CODE     Curve Description
#---------               -----------    ---------------------------
 TIME.HHMMSS            00 000 000 000:  GT Time & Date
 GTDEPTH.m              00 000 000 000:  GT Depth
 GTPQH.psia             00 000 000 000:  GT HR Quartz Pressure
 GTTQ.degC              00 000 000 000:  GT Quartz Temperature
 GTTN.NONE              00 000 000 000:  GT Test Number
 GTET.sec               00 000 000 000:  GT Elapsed Test Time
 GTTVD.m                00 000 000 000:  GT True Vertical Depth
#Other Information
#
#WARRANTY: Halliburton will use its best efforts to furnish customers with 
#accurate information and interpretations that are part of, and incident to, the services 
#provided.  However, Halliburton cannot and does not warrant the accuracy 
#or correctness of such information and interpretations.  Under no circumstances should any 
#such information or interpretation be relied upon as the sole basis for any drilling, 
#completion, production, or financial decision or any procedure involving any risk to the 
#safety of any drilling venture, drilling rig or its crew or any other third party.  The 
#Customer has full responsibility for all drilling, completion and production operation.  
#Halliburton makes no representations or warranties, either expressed or 
#implied, including, but not limited to, the implied warranties of merchantability or fitness 
#for a particular purpose, with respect to the services rendered.  In no event will 
#Halliburton be liable for failure to obtain any particular results or for 
#any damages, including, but not limited to, indirect, special or consequential damages, 
#resulting from the use of any information or interpretation provided by Halliburton.
#
~A           TIME           GTDEPTH  GTPQH  GTTQ  GTTN  GTET   GTTVD  
# ...
   17:39:25.142.19-May-2020 5195.01 2404.27 67.03 2.00 138.02 2727.85
   17:39:25.342.19-May-2020 5195.01 2404.27 67.03 2.00 138.22 2727.85
   17:39:25.542.19-May-2020 5195.01 2409.38 67.03 2.00 138.42 2727.85
   17:39:25.742.19-May-2020 5195.01 2411.84 67.03 2.00 138.62 2727.85
   17:39:25.942.19-May-2020 5195.01 2414.39 67.03 2.00 138.82 2727.85
   17:39:26.142.19-May-2020 5195.01 2416.80 67.04 2.00 139.02 2727.85
   17:39:26.342.19-May-2020 5195.01 2416.80 67.04 2.00 139.22 2727.85
   17:39:26.542.19-May-2020 5195.01 2421.69 67.04 2.00 139.42 2727.85
   17:39:26.742.19-May-2020 5195.01 2424.09 67.04 2.00 139.62 2727.85
   17:39:26.942.19-May-2020 5195.01 2426.25 67.04 2.00 139.82 2727.85
   17:39:27.142.19-May-2020 5195.01 2428.88 67.04 2.00 140.02 2727.85
   17:39:27.342.19-May-2020 5195.01 2428.88 67.04 2.00 140.22 2727.85
   17:39:27.542.19-May-2020 5195.01 2433.97 67.04 2.00 140.42 2727.85
   17:39:27.742.19-May-2020 5195.01 2436.18 67.04 2.00 140.62 2727.85
   17:39:27.942.19-May-2020 5195.01 2439.01 67.04 2.00 140.82 2727.85
   17:39:28.142.19-May-2020 5195.01 2441.59 67.04 2.00 141.02 2727.85
   17:39:28.342.19-May-2020 5195.01 2441.59 67.04 2.00 141.22 2727.85
   17:39:28.542.19-May-2020 5195.01 2446.39 67.04 2.00 141.42 2727.85
   17:39:28.742.19-May-2020 5195.01 2449.28 67.04 2.00 141.62 2727.85
   17:39:28.942.19-May-2020 5195.01 2451.72 67.04 2.00 141.82 2727.85
   17:39:29.142.19-May-2020 5195.01 2454.31 67.04 2.00 142.02 2727.85
   17:39:29.342.19-May-2020 5195.01 2454.31 67.04 2.00 142.22 2727.85
   17:39:29.542.19-May-2020 5195.01 2459.26 67.04 2.00 142.42 2727.85
   17:39:29.742.19-May-2020 5195.01 2461.90 67.04 2.00 142.62 2727.85
   17:39:29.942.19-May-2020 5195.01 2464.24 67.04 2.00 142.82 2727.85
   17:39:30.142.19-May-2020 5195.01 2466.73 67.04 2.00 143.02 2727.85
   17:39:30.342.19-May-2020 5195.01 2466.73 67.04 2.00 143.22 2727.85
   17:39:30.543.19-May-2020 5195.01 2471.27 67.04 2.00 143.42 2727.85
   17:39:30.743.19-May-2020 5195.01 2473.90 67.04 2.00 143.62 2727.85
   17:39:30.943.19-May-2020 5195.01 2476.55 67.04 2.00 143.82 2727.85
   17:39:31.143.19-May-2020 5195.01 2478.95 67.04 2.00 144.02 2727.85
   17:39:31.343.19-May-2020 5195.01 2478.95 67.04 2.00 144.22 2727.85
   17:39:31.543.19-May-2020 5195.01 2483.80 67.04 2.00 144.42 2727.85
   17:39:31.743.19-May-2020 5195.01 2486.12 67.04 2.00 144.62 2727.85
   17:39:31.943.19-May-2020 5195.01 2488.55 67.04 2.00 144.82 2727.85
   17:39:32.143.19-May-2020 5195.01 2490.90 67.04 2.00 145.02 2727.85
   17:39:32.343.19-May-2020 5195.01 2490.90 67.04 2.00 145.22 2727.85
   17:39:32.543.19-May-2020 5195.01 2495.63 67.04 2.00 145.42 2727.85
   17:39:32.743.19-May-2020 5195.01 2498.02 67.04 2.00 145.62 2727.85
   17:39:32.943.19-May-2020 5195.01 2500.31 67.04 2.00 145.82 2727.85
   17:39:33.143.19-May-2020 5195.01 2502.56 67.04 2.00 146.02 2727.85
   17:39:33.343.19-May-2020 5195.01 2502.56 67.04 2.00 146.22 2727.85
   17:39:33.543.19-May-2020 5195.01 2507.04 67.04 2.00 146.42 2727.85
   17:39:33.743.19-May-2020 5195.01 2509.40 67.04 2.00 146.62 2727.85
   17:39:33.943.19-May-2020 5195.01 2512.12 67.04 2.00 146.82 2727.85
   17:39:34.143.19-May-2020 5195.01 2514.82 67.04 2.00 147.02 2727.85
   17:39:34.343.19-May-2020 5195.01 2514.82 67.04 2.00 147.22 2727.85
   17:39:34.543.19-May-2020 5195.01 2519.74 67.04 2.00 147.42 2727.85
   17:39:34.743.19-May-2020 5195.01 2522.38 67.04 2.00 147.62 2727.85
   17:39:34.943.19-May-2020 5195.01 2524.87 67.04 2.00 147.82 2727.85
   17:39:35.143.19-May-2020 5195.01 2527.38 67.04 2.00 148.02 2727.85
   17:39:35.343.19-May-2020 5195.01 2527.38 67.04 2.00 148.22 2727.85
   17:39:35.543.19-May-2020 5195.01 2532.34 67.04 2.00 148.42 2727.85
   17:39:35.743.19-May-2020 5195.01 2534.78 67.04 2.00 148.62 2727.85
   17:39:35.943.19-May-2020 5195.01 2537.12 67.04 2.00 148.82 2727.85
   17:39:36.143.19-May-2020 5195.01 2539.61 67.04 2.00 149.02 2727.85
   17:39:36.343.19-May-2020 5195.01 2539.61 67.04 2.00 149.22 2727.85
   17:39:36.543.19-May-2020 5195.01 2200.19 67.04 2.00 149.42 2727.85
   17:39:36.743.19-May-2020 5195.01 1425.28 67.04 2.00 149.62 2727.85
   17:39:36.943.19-May-2020 5195.01  906.05 67.04 2.00 149.82 2727.85
   17:39:37.143.19-May-2020 5195.01  718.27 67.04 2.00 150.02 2727.85
   17:39:37.343.19-May-2020 5195.01  718.27 67.04 2.00 150.22 2727.85
   17:39:37.543.19-May-2020 5195.01  637.32 67.04 2.00 150.42 2727.85
   17:39:37.743.19-May-2020 5195.01  627.47 67.04 2.00 150.62 2727.85
   17:39:37.943.19-May-2020 5195.01  624.78 67.04 2.00 150.82 2727.85
   17:39:38.143.19-May-2020 5195.01  619.40 67.04 2.00 151.02 2727.85
   17:39:38.343.19-May-2020 5195.01  619.40 67.04 2.00 151.22 2727.85
   17:39:38.543.19-May-2020 5195.01  620.03 67.04 2.00 151.42 2727.85
   17:39:38.744.19-May-2020 5195.01  617.21 67.04 2.00 151.62 2727.85
   17:39:38.944.19-May-2020 5195.01  610.98 67.04 2.00 151.82 2727.85
   17:39:39.144.19-May-2020 5195.01  608.27 67.03 2.00 152.02 2727.85
   17:39:39.344.19-May-2020 5195.01  608.27 67.03 2.00 152.22 2727.85
   17:39:39.544.19-May-2020 5195.01  603.25 67.03 2.00 152.42 2727.85
   17:39:39.744.19-May-2020 5195.01  601.37 67.03 2.00 152.62 2727.85
   17:39:39.944.19-May-2020 5195.01  601.01 67.03 2.00 152.82 2727.85
   17:39:40.144.19-May-2020 5195.01  602.65 67.03 2.00 153.02 2727.85
   17:39:40.344.19-May-2020 5195.01  602.65 67.03 2.00 153.22 2727.85
   17:39:40.544.19-May-2020 5195.01  602.18 67.02 2.00 153.42 2727.85
   17:39:40.744.19-May-2020 5195.01  601.17 67.02 2.00 153.62 2727.85
   17:39:40.944.19-May-2020 5195.01  604.06 67.02 2.00 153.82 2727.85
   17:39:41.144.19-May-2020 5195.01  605.95 67.02 2.00 154.02 2727.85
   17:39:41.344.19-May-2020 5195.01  605.95 67.02 2.00 154.22 2727.85
   17:39:41.544.19-May-2020 5195.01  604.95 67.02 2.00 154.42 2727.85
   17:39:41.744.19-May-2020 5195.01  606.10 67.02 2.00 154.62 2727.85
   17:39:41.944.19-May-2020 5195.01  606.20 67.01 2.00 154.82 2727.85
   17:39:42.144.19-May-2020 5195.01  605.13 67.01 2.00 155.02 2727.85
   17:39:42.344.19-May-2020 5195.01  605.13 67.01 2.00 155.22 2727.85
   17:39:42.544.19-May-2020 5195.01  601.52 67.01 2.00 155.42 2727.85
   17:39:42.744.19-May-2020 5195.01  601.53 67.01 2.00 155.62 2727.85
   17:39:42.944.19-May-2020 5195.01  601.15 67.01 2.00 155.82 2727.85
   17:39:43.144.19-May-2020 5195.01  598.30 67.01 2.00 156.02 2727.85
   17:39:43.344.19-May-2020 5195.01  598.30 67.01 2.00 156.22 2727.85
   17:39:43.544.19-May-2020 5195.01  597.94 67.01 2.00 156.42 2727.85
   17:39:43.744.19-May-2020 5195.01  599.04 67.00 2.00 156.62 2727.85
   17:39:43.944.19-May-2020 5195.01  601.69 67.00 2.00 156.82 2727.85
   17:39:44.144.19-May-2020 5195.01  602.31 67.00 2.00 157.02 2727.85
   17:39:44.344.19-May-2020 5195.01  602.31 67.00 2.00 157.22 2727.85
   17:39:44.544.19-May-2020 5195.01  601.80 67.00 2.00 157.42 2727.85
   17:39:44.744.19-May-2020 5195.01  603.95 67.00 2.00 157.62 2727.85
   17:39:44.944.19-May-2020 5195.01  606.41 67.00 2.00 157.82 2727.85
   17:39:45.144.19-May-2020 5195.01  606.02 67.00 2.00 158.02 2727.85
   17:39:45.344.19-May-2020 5195.01  606.02 67.00 2.00 158.22 2727.85
   17:39:45.544.19-May-2020 5195.01  602.07 67.00 2.00 158.42 2727.85
   17:39:45.744.19-May-2020 5195.01  599.36 67.00 2.00 158.62 2727.85
   17:39:45.944.19-May-2020 5195.01  594.38 67.00 2.00 158.82 2727.85
   17:39:46.144.19-May-2020 5195.01  592.05 67.00 2.00 159.02 2727.85
   17:39:46.344.19-May-2020 5195.01  592.05 67.00 2.00 159.22 2727.85
   17:39:46.544.19-May-2020 5195.01  596.21 66.99 2.00 159.42 2727.85
   17:39:46.744.19-May-2020 5195.01  601.29 66.99 2.00 159.62 2727.85
   17:39:46.945.19-May-2020 5195.01  610.40 66.99 2.00 159.82 2727.85
   17:39:47.145.19-May-2020 5195.01  618.80 66.99 2.00 160.02 2727.85
   17:39:47.345.19-May-2020 5195.01  618.80 66.99 2.00 160.22 2727.85
   17:39:47.545.19-May-2020 5195.01  630.87 66.99 2.00 160.42 2727.85
   17:39:47.745.19-May-2020 5195.01  636.97 66.99 2.00 160.62 2727.85
   17:39:47.945.19-May-2020 5195.01  643.36 66.99 2.00 160.82 2727.85
