~Version Information
 VERS.                  2.0:   CWLS log ASCII Standard -VERSION 2.0
 WRAP.                   NO:   One line per depth step
~Well Information Block
#MNEM.UNIT     VALUE/NAME     DESCRIPTION
#---------     -----------    ---------------------------
 STRT.S             04:23:34 20-May-20: START TIME 04:23:34 20-May-20
 STOP.S             04:34:06 20-May-20: STOP TIME  04:34:06 20-May-20
 STEP.S                   0.00: STEP TIME
 NULL.                 -999.25: NULL VALUE
 MDS .        Operator Entered:  MAG DATA SOURCE
 PDAT.          Mean Sea Level:  PERMANENT DATUM
 UNIT.                     N/A:  LOGGING EQUIPMENT ID
 DCON.         Sperry Drilling:  DIRECTNL CONTR
 DOE .                     N/A:  DOE NUMBER
 RIG .              East Azeri:  RIG NAME
 JOBN.        AZ-XX-0905856059:  JOB TICKET NUMB
 WELL.                     D36:  WELL NAME
 MWDS.                    Baku:  MWD SHOP
 SRVC.     Turan Drilling & Engineering:  CONTRACTOR
 FLD .                     ACG:  FIELD NAME
 CTRY.              Azerbaijan:  COUNTRY NAME
 PROV.                    Baku:  PROVINCE
 STAT.                    Baku:  STATE NAME
 REGN.                   EESSA:  REGION
 BASE.              Azerbaijan:  LOGGING EQUIPMENT BASE LOCATION
 UWI .                     N/A:  UNIQUE WELL IDENTIFIER
 API .                     N/A:  API NUMBER
 COMP.     BP Exploration (Caspian Sea) Ltd.:  COMPANY
 WTYP.                Deviated:  WELL TYPE
 SON .        AZ-XX-0905856059:  JOB NUMBER
 FTOP.          Formation Tops:  FORM TOPS DESC
 ILTD.               Lithology:  INTERP LTH DESC
 SVYD.                  Survey:  SURVEY DESC
 DMOD.             Drill Model:  DRILL MOD DESC
 HPTY.       Minimum Curvature:  HOLE POS TYPE
 NREF.                    Grid:  NORTH REFERENCE
 SPUD.               25-Feb-20:  SPUD DATE
 DATE.      08.55.28 01-May-20:  END TIME
 STIM.      08.55.28 25-Feb-20:  START TIME
 DMF .             Drill Floor:  DRILL MEAS FROM
 DFST.                        :  DIST FSL TEXT
 DFWT.                        :  DIST FWL TEXT
 CNTY.                        :  COUNTY
 LOC .                        :  LOCATION
 LMF .             Drill Floor:  LOG MEASURED FROM
 VSNS.m                   6.09:  VERT SEC N/S
 VSEW.m                 -10.79:  VERT SEC E/W
 AGAP.m                  43.60:  AIR GAP
 DEP .m                 388.24:  DEPTH
 APD .m                  43.60:  DEPTH ABOVE PD
 WDMS.m                 151.80:  WD ELEV
 EGL .m                   0.00:  GROUND ELEVATION
 EPD .m                   0.00:  ELEVATION
 AZTC.deg                 6.12:  AZM TOTAL CORR
 GRDC.deg                 0.30:  GRID CORRECTION
 MDEC.deg                 6.42:  MAGNETIC DECL
 MDIP.deg                59.42:  MAGNETIC DIP
 MFLD.nT              50256.00:  MAGNETIC FIELD
 GVFD.g                   1.00:  GRAVITY FIELD
 VSDR.deg               159.57:  VERT SEC DIRECT
 TDD .m                5000.01:  TOTAL DEPTH (DRILLER)
 SDEP.m                 397.00:  START DEPTH
 DFSL.m                   0.00:  DISTANCE FSL
 DFWL.m                   0.00:  DISTANCE FWL
 UTMY.m             4431880.20:  UTM Y
 UTMX.m              538763.98:  UTM X
 WHEW.m                 -10.79:  WELL HEAD E/W
 WHNS.m                   6.09:  WELL HEAD N/S
 LONG.deg                51.45:  LONGITUDE
 LATI.deg                40.02:  LATITUDE
 TVDS.m                  43.60:  TVDSS CORRECTN
 EKB .m                  43.60:  KB ELEVATION
 EDF .m                  43.60:  DF ELEVATION
 MAGU.                 1847640:  MAGUTM CHECKSUM
 VSC .                       0:  VS TO CLOSURE
~Parameter Information Block
#MNEM.UNIT       Value        Description
#---------     -----------    ---------------------------
 AV  .mps                 1.30:  Ann Velocity 
 AVMX.mps                 1.90:  Max Ann Veloc 
 AZIF.deg               115.68:  Azm, Final 
 BHAT.                   Other:  BHA Type 
 BROT.°/30m               0.74:  Build Rotating 
 BS  .in                  8.50:  Bit Size 
 BTPL.psig              430.00:  Bit Press Loss 
 CABU.                      No:  Customer Abuse 
 TCS .hr                 51.31:  Time Ciculation Ended 
 CV  .mps                 2.52:  Crit Velocity 
 CVMX.mps                 2.62:  Max Crit Veloc 
 DD1 .          Teymur Aghayev:  Direct Drillr 1 
 DDSV.                   Other:  DD Service 
 DEFF.%                 100.00:  % Det Eff 
 DLRX.°/30m               1.62:  Dogleg Rot Max 
 DLSO.°/30m               0.74:  Dogleg Oriented 
 DLSX.°/30m               1.62:  Dogleg Str Max 
 DRET.      04.30.56 18-May-20:  Drill End Time 
 DRST.      04.30.56 18-May-20:  Drill Start Tim 
 DTIM.hr                  0.00:  Time Drilling 
 EDEP.m                5337.01:  End Depth 
 ENG1.      Artemiy Matviyanov:  Engineer 1 
 ENG2.      Bakhtiyar Jabbarli:  Engineer 2 
 ENG3.           Emil Huseynov:  Engineer 3 
 ETIM.      18.40.00 22-May-20:  End Time 
 FLOI.gpm               550.00:  Flow In 
 FLON.gpm               350.00:  Flow In Min 
 FLOS.cptm                0.00:  Fluid Loss 
 FLOX.gpm               600.00:  Flow In Max 
 HFLO.                      No:  High Flow 
 HPRE.                      No:  High Pressure 
 HTEM.                      No:  High Temp 
 HYDO.m                   1.80:  Hydro Offset 
 IFIN.deg                67.01:  Inc, Final 
 IMAX.deg                67.49:  Inc Max 
 IMIN.deg                66.50:  Inc Min 
 IMND.m                5144.79:  Inc Min Depth 
 IMXD.m                5116.12:  Inc Max Depth 
 JARR.                      No:  Jarring 
 LETM.      17.55.56 20-May-20:  Log End Time 
 LOST.hr                     0:  Lost Rig Time 
 LSTM.      04.30.56 18-May-20:  Log Start Time 
 MDCL.ppm            193153.00:  Mud Chlorides 
 MDES.     Inversion Oil/Synthetic:  Mud Desc 
 DFD .sg                  1.40:  Mud Density 
 MDMN.sg                  1.40:  Dens Mud Min 
 MDMX.sg                  1.41:  Dens Mud Max 
 MOIL.                      68:  Run Mud Oil % 
 MOWR.                   68:32:  Run Mud OWR 
 MSND.                     0.2:  Run Mud Sand % 
 MSOL.                    18.8:  Run Mud Solids% 
 DFV .spqt               80.00:  Mud Viscosity 
 MWOD.in                  6.75:  MWD Tool OD 
 MWSI.                      No:  Serv Intrp, MWD 
 OTIM.hr                104.84:  Time Operating 
 PMAX.psia            10690.93:  Press Op, Max 
 PV  .cP                 26.00:  Mud PV 
 RUN .                     900:  Run Number 
 ROPA.m/hr                0.00:  ROP Avg 
 ROPN.m/hr                0.00:  ROP Min 
 ROPX.m/hr                0.00:  ROP Max 
 RPMA.rpm               140.00:  RPM Surface Avg 
 RPMN.rpm                70.00:  RPM Surface Min 
 RPMX.rpm               140.00:  RPM Surface Max 
 RRUN.                    0900:  Rig Run Number 
 RTIM.hr                 36.00:  Time Reaming 
 SAZI.deg               115.72:  Azm, Start 
 SDEP.m                5337.01:  Start Depth 
 SIDD.                      No:  Serv Intrp, DD 
 SINC.deg                66.92:  Inc, Start 
 SPPA.psig             4400.00:  SPP Avg 
 SPPN.psig             1135.00:  SPP Min 
 SPPX.psig             4581.00:  SPP Max 
 STIM.      04.30.56 18-May-20:  Start Time 
 SVCS.                     MWD:  Services 
 SVER.                    9.20:  Sperry Version 
 TDAT.m                5337.01:  Tot Depth Attmp 
 TDDF.                      No:  Trip for DD 
 TFF .                      No:  Trip for Fail 
 TQAA.f-kp               23.00:  Torque Abs Avg 
 TQAN.f-kp               18.00:  Torque Abs Min 
 TQAX.f-kp               25.00:  Torque Abs Max 
 TRRT.°/30m               0.74:  Turn Rotating 
 MRT .                    HCIM:  Maximum Recorded Temperature 
 TTMX.degC               76.47:  Max Tool Temp 
 WBMN.klb                 0.00:  WOB Min 
 WITN.             Anar Khalil:  Customer Rep 
 WITN.      Kamran Keberlinski:  Customer Rep 2 
 WOBA.klb                 0.00:  WOB Avg 
 WOBX.klb                 0.00:  WOB Max 
 YP  .lhf2               27.00:  Yield Point 
~Curve Information Block
#MNEM.UNIT                 API CODE     Curve Description
#---------               -----------    ---------------------------
 TIME.HHMMSS            00 000 000 000:  GT Time & Date
 GTDEPTH.m              00 000 000 000:  GT Depth
 GTPQH.psia             00 000 000 000:  GT HR Quartz Pressure
 GTTQ.degC              00 000 000 000:  GT Quartz Temperature
 GTTN.NONE              00 000 000 000:  GT Test Number
 GTET.sec               00 000 000 000:  GT Elapsed Test Time
 GTTVD.m                00 000 000 000:  GT True Vertical Depth
#Other Information
#
#WARRANTY: Halliburton will use its best efforts to furnish customers with 
#accurate information and interpretations that are part of, and incident to, the services 
#provided.  However, Halliburton cannot and does not warrant the accuracy 
#or correctness of such information and interpretations.  Under no circumstances should any 
#such information or interpretation be relied upon as the sole basis for any drilling, 
#completion, production, or financial decision or any procedure involving any risk to the 
#safety of any drilling venture, drilling rig or its crew or any other third party.  The 
#Customer has full responsibility for all drilling, completion and production operation.  
#Halliburton makes no representations or warranties, either expressed or 
#implied, including, but not limited to, the implied warranties of merchantability or fitness 
#for a particular purpose, with respect to the services rendered.  In no event will 
#Halliburton be liable for failure to obtain any particular results or for 
#any damages, including, but not limited to, indirect, special or consequential damages, 
#resulting from the use of any information or interpretation provided by Halliburton.
#
~A           TIME           GTDEPTH  GTPQH  GTTQ  GTTN  GTET   GTTVD  
# ...
   04:27:01.643.20-May-2020 5064.29 2956.20 68.77 9.00 207.06 2676.66
   04:27:01.843.20-May-2020 5064.29 2956.20 68.77 9.00 207.26 2676.66
   04:27:02.043.20-May-2020 5064.29 2956.19 68.77 9.00 207.46 2676.66
   04:27:02.243.20-May-2020 5064.29 2956.24 68.77 9.00 207.66 2676.66
   04:27:02.443.20-May-2020 5064.29 2956.18 68.77 9.00 207.86 2676.66
   04:27:02.643.20-May-2020 5064.29 2955.99 68.77 9.00 208.06 2676.66
   04:27:02.843.20-May-2020 5064.29 2955.99 68.77 9.00 208.26 2676.66
   04:27:03.043.20-May-2020 5064.29 2956.16 68.77 9.00 208.46 2676.66
   04:27:03.243.20-May-2020 5064.29 2956.25 68.77 9.00 208.66 2676.66
   04:27:03.443.20-May-2020 5064.29 2956.20 68.77 9.00 208.86 2676.66
   04:27:03.643.20-May-2020 5064.29 2956.14 68.77 9.00 209.06 2676.66
   04:27:03.843.20-May-2020 5064.29 2956.14 68.77 9.00 209.26 2676.66
   04:27:04.044.20-May-2020 5064.29 2956.18 68.77 9.00 209.46 2676.66
   04:27:04.244.20-May-2020 5064.29 2956.29 68.77 9.00 209.66 2676.66
   04:27:04.444.20-May-2020 5064.29 2956.02 68.77 9.00 209.86 2676.66
   04:27:04.644.20-May-2020 5064.29 2956.30 68.77 9.00 210.06 2676.66
   04:27:04.844.20-May-2020 5064.29 2956.30 68.77 9.00 210.26 2676.66
   04:27:05.044.20-May-2020 5064.29 2956.18 68.77 9.00 210.46 2676.66
   04:27:05.244.20-May-2020 5064.29 2956.16 68.77 9.00 210.66 2676.66
   04:27:05.444.20-May-2020 5064.29 2956.24 68.77 9.00 210.86 2676.66
   04:27:05.644.20-May-2020 5064.29 2956.16 68.77 9.00 211.06 2676.66
   04:27:05.844.20-May-2020 5064.29 2956.16 68.77 9.00 211.26 2676.66
   04:27:06.044.20-May-2020 5064.29 2956.23 68.77 9.00 211.46 2676.66
   04:27:06.244.20-May-2020 5064.29 2956.19 68.77 9.00 211.66 2676.66
   04:27:06.444.20-May-2020 5064.29 2956.03 68.77 9.00 211.86 2676.66
   04:27:06.644.20-May-2020 5064.29 2956.26 68.77 9.00 212.06 2676.66
   04:27:06.844.20-May-2020 5064.29 2956.26 68.77 9.00 212.26 2676.66
   04:27:07.044.20-May-2020 5064.29 2956.19 68.77 9.00 212.46 2676.66
   04:27:07.244.20-May-2020 5064.29 2956.26 68.77 9.00 212.66 2676.66
   04:27:07.445.20-May-2020 5064.29 2956.15 68.77 9.00 212.86 2676.66
   04:27:07.645.20-May-2020 5064.29 2956.18 68.77 9.00 213.06 2676.66
   04:27:07.845.20-May-2020 5064.29 2956.18 68.77 9.00 213.26 2676.66
   04:27:08.045.20-May-2020 5064.29 2956.18 68.77 9.00 213.46 2676.66
   04:27:08.245.20-May-2020 5064.29 2956.23 68.77 9.00 213.66 2676.66
   04:27:08.445.20-May-2020 5064.29 2956.17 68.77 9.00 213.86 2676.66
   04:27:08.645.20-May-2020 5064.29 2956.21 68.77 9.00 214.06 2676.66
   04:27:08.845.20-May-2020 5064.29 2956.21 68.77 9.00 214.26 2676.66
   04:27:09.045.20-May-2020 5064.29 2956.20 68.77 9.00 214.46 2676.66
   04:27:09.245.20-May-2020 5064.29 2956.24 68.77 9.00 214.66 2676.66
   04:27:09.445.20-May-2020 5064.29 2956.18 68.77 9.00 214.86 2676.66
   04:27:09.645.20-May-2020 5064.29 2956.18 68.77 9.00 215.06 2676.66
   04:27:09.845.20-May-2020 5064.29 2956.18 68.77 9.00 215.26 2676.66
   04:27:10.045.20-May-2020 5064.29 2956.16 68.77 9.00 215.46 2676.66
   04:27:10.245.20-May-2020 5064.29 2956.24 68.77 9.00 215.66 2676.66
   04:27:10.445.20-May-2020 5064.29 2956.17 68.77 9.00 215.86 2676.66
   04:27:10.645.20-May-2020 5064.29 2956.15 68.77 9.00 216.06 2676.66
   04:27:10.845.20-May-2020 5064.29 2956.15 68.77 9.00 216.26 2676.66
   04:27:11.046.20-May-2020 5064.29 2956.15 68.77 9.00 216.46 2676.66
   04:27:11.246.20-May-2020 5064.29 2956.29 68.77 9.00 216.66 2676.66
   04:27:11.446.20-May-2020 5064.29 2955.98 68.77 9.00 216.86 2676.66
   04:27:11.646.20-May-2020 5064.29 2956.34 68.77 9.00 217.06 2676.66
   04:27:11.846.20-May-2020 5064.29 2956.34 68.77 9.00 217.26 2676.66
   04:27:12.046.20-May-2020 5064.29 2956.22 68.77 9.00 217.46 2676.66
   04:27:12.246.20-May-2020 5064.29 2956.05 68.77 9.00 217.66 2676.66
   04:27:12.446.20-May-2020 5064.29 2956.32 68.77 9.00 217.86 2676.66
   04:27:12.646.20-May-2020 5064.29 2956.16 68.77 9.00 218.06 2676.66
   04:27:12.846.20-May-2020 5064.29 2956.16 68.77 9.00 218.26 2676.66
   04:27:13.046.20-May-2020 5064.29 2956.18 68.77 9.00 218.46 2676.66
   04:27:13.246.20-May-2020 5064.29 2956.23 68.77 9.00 218.66 2676.66
   04:27:13.446.20-May-2020 5064.29 2955.97 68.77 9.00 218.86 2676.66
   04:27:13.646.20-May-2020 5064.29 2956.34 68.77 9.00 219.06 2676.66
   04:27:13.846.20-May-2020 5064.29 2956.19 68.77 9.00 219.26 2676.66
   04:27:14.046.20-May-2020 5064.29 2956.22 68.77 9.00 219.46 2676.66
   04:27:14.246.20-May-2020 5064.29 2956.22 68.77 9.00 219.66 2676.66
   04:27:14.446.20-May-2020 5064.29 2953.66 68.77 9.00 219.86 2676.66
   04:27:14.647.20-May-2020 5064.29 2930.55 68.77 9.00 220.06 2676.66
   04:27:14.847.20-May-2020 5064.29 2930.55 68.77 9.00 220.26 2676.66
   04:27:15.047.20-May-2020 5064.29 2887.03 68.77 9.00 220.46 2676.66
   04:27:15.247.20-May-2020 5064.29 2886.84 68.77 9.00 220.66 2676.66
   04:27:15.447.20-May-2020 5064.29 2886.37 68.77 9.00 220.86 2676.66
   04:27:15.647.20-May-2020 5064.29 2885.90 68.77 9.00 221.06 2676.66
   04:27:15.847.20-May-2020 5064.29 2885.90 68.77 9.00 221.26 2676.66
   04:27:16.047.20-May-2020 5064.29 2887.61 68.77 9.00 221.46 2676.66
   04:27:16.247.20-May-2020 5064.29 2887.53 68.77 9.00 221.66 2676.66
   04:27:16.447.20-May-2020 5064.29 2887.39 68.77 9.00 221.86 2676.66
   04:27:16.647.20-May-2020 5064.29 2886.31 68.77 9.00 222.06 2676.66
   04:27:16.847.20-May-2020 5064.29 2886.31 68.77 9.00 222.26 2676.66
   04:27:17.047.20-May-2020 5064.29 2886.66 68.77 9.00 222.46 2676.66
   04:27:17.247.20-May-2020 5064.29 2887.20 68.77 9.00 222.66 2676.66
   04:27:17.447.20-May-2020 5064.29 2886.94 68.77 9.00 222.86 2676.66
   04:27:17.647.20-May-2020 5064.29 2886.40 68.77 9.00 223.06 2676.66
   04:27:17.847.20-May-2020 5064.29 2886.40 68.77 9.00 223.26 2676.66
   04:27:18.047.20-May-2020 5064.29 2887.89 68.77 9.00 223.46 2676.66
   04:27:18.248.20-May-2020 5064.29 2888.30 68.77 9.00 223.66 2676.66
   04:27:18.448.20-May-2020 5064.29 2887.62 68.77 9.00 223.86 2676.66
   04:27:18.648.20-May-2020 5064.29 2887.21 68.77 9.00 224.06 2676.66
   04:27:18.848.20-May-2020 5064.29 2887.21 68.77 9.00 224.26 2676.66
   04:27:19.048.20-May-2020 5064.29 2888.40 68.77 9.00 224.46 2676.66
   04:27:19.248.20-May-2020 5064.29 2891.41 68.77 9.00 224.66 2676.66
   04:27:19.448.20-May-2020 5064.29 2891.41 68.77 9.00 224.86 2676.66
   04:27:19.648.20-May-2020 5064.29 2891.29 68.77 9.00 225.06 2676.66
   04:27:19.848.20-May-2020 5064.29 2891.29 68.77 9.00 225.26 2676.66
   04:27:20.048.20-May-2020 5064.29 2892.73 68.77 9.00 225.46 2676.66
   04:27:20.248.20-May-2020 5064.29 2893.01 68.77 9.00 225.66 2676.66
   04:27:20.448.20-May-2020 5064.29 2893.58 68.77 9.00 225.86 2676.66
   04:27:20.648.20-May-2020 5064.29 2892.38 68.77 9.00 226.06 2676.66
   04:27:20.848.20-May-2020 5064.29 2892.38 68.77 9.00 226.26 2676.66
   04:27:21.048.20-May-2020 5064.29 2892.74 68.77 9.00 226.46 2676.66
   04:27:21.248.20-May-2020 5064.29 2892.45 68.77 9.00 226.66 2676.66
   04:27:21.448.20-May-2020 5064.29 2892.06 68.77 9.00 226.86 2676.66
   04:27:21.649.20-May-2020 5064.29 2892.27 68.77 9.00 227.06 2676.66
   04:27:21.849.20-May-2020 5064.29 2892.27 68.77 9.00 227.26 2676.66
   04:27:22.049.20-May-2020 5064.29 2892.52 68.77 9.00 227.46 2676.66
   04:27:22.249.20-May-2020 5064.29 2893.48 68.77 9.00 227.66 2676.66
   04:27:22.449.20-May-2020 5064.29 2893.91 68.77 9.00 227.86 2676.66
   04:27:22.649.20-May-2020 5064.29 2892.69 68.77 9.00 228.06 2676.66
   04:27:22.849.20-May-2020 5064.29 2892.69 68.77 9.00 228.26 2676.66
   04:27:23.049.20-May-2020 5064.29 2892.10 68.77 9.00 228.46 2676.66
   04:27:23.249.20-May-2020 5064.29 2892.84 68.77 9.00 228.66 2676.66
   04:27:23.449.20-May-2020 5064.29 2891.90 68.77 9.00 228.86 2676.66
   04:27:23.649.20-May-2020 5064.29 2891.17 68.77 9.00 229.06 2676.66
   04:27:23.849.20-May-2020 5064.29 2891.17 68.77 9.00 229.26 2676.66
   04:27:24.049.20-May-2020 5064.29 2892.55 68.77 9.00 229.46 2676.66
   04:27:24.249.20-May-2020 5064.29 2894.82 68.77 9.00 229.66 2676.66
   04:27:24.449.20-May-2020 5064.29 2892.75 68.77 9.00 229.87 2676.66
