~Version Information
 VERS.                  2.0:   CWLS log ASCII Standard -VERSION 2.0
 WRAP.                   NO:   One line per depth step
~Well Information Block
#MNEM.UNIT     VALUE/NAME     DESCRIPTION
#---------     -----------    ---------------------------
 STRT.S             02:05:08 20-May-20: START TIME 02:05:08 20-May-20
 STOP.S             02:15:48 20-May-20: STOP TIME  02:15:48 20-May-20
 STEP.S                   0.00: STEP TIME
 NULL.                 -999.25: NULL VALUE
 MDS .        Operator Entered:  MAG DATA SOURCE
 PDAT.          Mean Sea Level:  PERMANENT DATUM
 UNIT.                     N/A:  LOGGING EQUIPMENT ID
 DCON.         Sperry Drilling:  DIRECTNL CONTR
 DOE .                     N/A:  DOE NUMBER
 RIG .              East Azeri:  RIG NAME
 JOBN.        AZ-XX-0905856059:  JOB TICKET NUMB
 WELL.                     D36:  WELL NAME
 MWDS.                    Baku:  MWD SHOP
 SRVC.     Turan Drilling & Engineering:  CONTRACTOR
 FLD .                     ACG:  FIELD NAME
 CTRY.              Azerbaijan:  COUNTRY NAME
 PROV.                    Baku:  PROVINCE
 STAT.                    Baku:  STATE NAME
 REGN.                   EESSA:  REGION
 BASE.              Azerbaijan:  LOGGING EQUIPMENT BASE LOCATION
 UWI .                     N/A:  UNIQUE WELL IDENTIFIER
 API .                     N/A:  API NUMBER
 COMP.     BP Exploration (Caspian Sea) Ltd.:  COMPANY
 WTYP.                Deviated:  WELL TYPE
 SON .        AZ-XX-0905856059:  JOB NUMBER
 FTOP.          Formation Tops:  FORM TOPS DESC
 ILTD.               Lithology:  INTERP LTH DESC
 SVYD.                  Survey:  SURVEY DESC
 DMOD.             Drill Model:  DRILL MOD DESC
 HPTY.       Minimum Curvature:  HOLE POS TYPE
 NREF.                    Grid:  NORTH REFERENCE
 SPUD.               25-Feb-20:  SPUD DATE
 DATE.      08.55.28 01-May-20:  END TIME
 STIM.      08.55.28 25-Feb-20:  START TIME
 DMF .             Drill Floor:  DRILL MEAS FROM
 DFST.                        :  DIST FSL TEXT
 DFWT.                        :  DIST FWL TEXT
 CNTY.                        :  COUNTY
 LOC .                        :  LOCATION
 LMF .             Drill Floor:  LOG MEASURED FROM
 VSNS.m                   6.09:  VERT SEC N/S
 VSEW.m                 -10.79:  VERT SEC E/W
 AGAP.m                  43.60:  AIR GAP
 DEP .m                 388.24:  DEPTH
 APD .m                  43.60:  DEPTH ABOVE PD
 WDMS.m                 151.80:  WD ELEV
 EGL .m                   0.00:  GROUND ELEVATION
 EPD .m                   0.00:  ELEVATION
 AZTC.deg                 6.12:  AZM TOTAL CORR
 GRDC.deg                 0.30:  GRID CORRECTION
 MDEC.deg                 6.42:  MAGNETIC DECL
 MDIP.deg                59.42:  MAGNETIC DIP
 MFLD.nT              50256.00:  MAGNETIC FIELD
 GVFD.g                   1.00:  GRAVITY FIELD
 VSDR.deg               159.57:  VERT SEC DIRECT
 TDD .m                5000.01:  TOTAL DEPTH (DRILLER)
 SDEP.m                 397.00:  START DEPTH
 DFSL.m                   0.00:  DISTANCE FSL
 DFWL.m                   0.00:  DISTANCE FWL
 UTMY.m             4431880.20:  UTM Y
 UTMX.m              538763.98:  UTM X
 WHEW.m                 -10.79:  WELL HEAD E/W
 WHNS.m                   6.09:  WELL HEAD N/S
 LONG.deg                51.45:  LONGITUDE
 LATI.deg                40.02:  LATITUDE
 TVDS.m                  43.60:  TVDSS CORRECTN
 EKB .m                  43.60:  KB ELEVATION
 EDF .m                  43.60:  DF ELEVATION
 MAGU.                 1847640:  MAGUTM CHECKSUM
 VSC .                       0:  VS TO CLOSURE
~Parameter Information Block
#MNEM.UNIT       Value        Description
#---------     -----------    ---------------------------
 AV  .mps                 1.30:  Ann Velocity 
 AVMX.mps                 1.90:  Max Ann Veloc 
 AZIF.deg               115.68:  Azm, Final 
 BHAT.                   Other:  BHA Type 
 BROT.°/30m               0.74:  Build Rotating 
 BS  .in                  8.50:  Bit Size 
 BTPL.psig              430.00:  Bit Press Loss 
 CABU.                      No:  Customer Abuse 
 TCS .hr                 51.31:  Time Ciculation Ended 
 CV  .mps                 2.52:  Crit Velocity 
 CVMX.mps                 2.62:  Max Crit Veloc 
 DD1 .          Teymur Aghayev:  Direct Drillr 1 
 DDSV.                   Other:  DD Service 
 DEFF.%                 100.00:  % Det Eff 
 DLRX.°/30m               1.62:  Dogleg Rot Max 
 DLSO.°/30m               0.74:  Dogleg Oriented 
 DLSX.°/30m               1.62:  Dogleg Str Max 
 DRET.      04.30.56 18-May-20:  Drill End Time 
 DRST.      04.30.56 18-May-20:  Drill Start Tim 
 DTIM.hr                  0.00:  Time Drilling 
 EDEP.m                5337.01:  End Depth 
 ENG1.      Artemiy Matviyanov:  Engineer 1 
 ENG2.      Bakhtiyar Jabbarli:  Engineer 2 
 ENG3.           Emil Huseynov:  Engineer 3 
 ETIM.      18.40.00 22-May-20:  End Time 
 FLOI.gpm               550.00:  Flow In 
 FLON.gpm               350.00:  Flow In Min 
 FLOS.cptm                0.00:  Fluid Loss 
 FLOX.gpm               600.00:  Flow In Max 
 HFLO.                      No:  High Flow 
 HPRE.                      No:  High Pressure 
 HTEM.                      No:  High Temp 
 HYDO.m                   1.80:  Hydro Offset 
 IFIN.deg                67.01:  Inc, Final 
 IMAX.deg                67.49:  Inc Max 
 IMIN.deg                66.50:  Inc Min 
 IMND.m                5144.79:  Inc Min Depth 
 IMXD.m                5116.12:  Inc Max Depth 
 JARR.                      No:  Jarring 
 LETM.      17.55.56 20-May-20:  Log End Time 
 LOST.hr                     0:  Lost Rig Time 
 LSTM.      04.30.56 18-May-20:  Log Start Time 
 MDCL.ppm            193153.00:  Mud Chlorides 
 MDES.     Inversion Oil/Synthetic:  Mud Desc 
 DFD .sg                  1.40:  Mud Density 
 MDMN.sg                  1.40:  Dens Mud Min 
 MDMX.sg                  1.41:  Dens Mud Max 
 MOIL.                      68:  Run Mud Oil % 
 MOWR.                   68:32:  Run Mud OWR 
 MSND.                     0.2:  Run Mud Sand % 
 MSOL.                    18.8:  Run Mud Solids% 
 DFV .spqt               80.00:  Mud Viscosity 
 MWOD.in                  6.75:  MWD Tool OD 
 MWSI.                      No:  Serv Intrp, MWD 
 OTIM.hr                104.84:  Time Operating 
 PMAX.psia            10690.93:  Press Op, Max 
 PV  .cP                 26.00:  Mud PV 
 RUN .                     900:  Run Number 
 ROPA.m/hr                0.00:  ROP Avg 
 ROPN.m/hr                0.00:  ROP Min 
 ROPX.m/hr                0.00:  ROP Max 
 RPMA.rpm               140.00:  RPM Surface Avg 
 RPMN.rpm                70.00:  RPM Surface Min 
 RPMX.rpm               140.00:  RPM Surface Max 
 RRUN.                    0900:  Rig Run Number 
 RTIM.hr                 36.00:  Time Reaming 
 SAZI.deg               115.72:  Azm, Start 
 SDEP.m                5337.01:  Start Depth 
 SIDD.                      No:  Serv Intrp, DD 
 SINC.deg                66.92:  Inc, Start 
 SPPA.psig             4400.00:  SPP Avg 
 SPPN.psig             1135.00:  SPP Min 
 SPPX.psig             4581.00:  SPP Max 
 STIM.      04.30.56 18-May-20:  Start Time 
 SVCS.                     MWD:  Services 
 SVER.                    9.20:  Sperry Version 
 TDAT.m                5337.01:  Tot Depth Attmp 
 TDDF.                      No:  Trip for DD 
 TFF .                      No:  Trip for Fail 
 TQAA.f-kp               23.00:  Torque Abs Avg 
 TQAN.f-kp               18.00:  Torque Abs Min 
 TQAX.f-kp               25.00:  Torque Abs Max 
 TRRT.°/30m               0.74:  Turn Rotating 
 MRT .                    HCIM:  Maximum Recorded Temperature 
 TTMX.degC               76.47:  Max Tool Temp 
 WBMN.klb                 0.00:  WOB Min 
 WITN.             Anar Khalil:  Customer Rep 
 WITN.      Kamran Keberlinski:  Customer Rep 2 
 WOBA.klb                 0.00:  WOB Avg 
 WOBX.klb                 0.00:  WOB Max 
 YP  .lhf2               27.00:  Yield Point 
~Curve Information Block
#MNEM.UNIT                 API CODE     Curve Description
#---------               -----------    ---------------------------
 TIME.HHMMSS            00 000 000 000:  GT Time & Date
 GTDEPTH.m              00 000 000 000:  GT Depth
 GTPQH.psia             00 000 000 000:  GT HR Quartz Pressure
 GTTQ.degC              00 000 000 000:  GT Quartz Temperature
 GTTN.NONE              00 000 000 000:  GT Test Number
 GTET.sec               00 000 000 000:  GT Elapsed Test Time
 GTTVD.m                00 000 000 000:  GT True Vertical Depth
#Other Information
#
#WARRANTY: Halliburton will use its best efforts to furnish customers with 
#accurate information and interpretations that are part of, and incident to, the services 
#provided.  However, Halliburton cannot and does not warrant the accuracy 
#or correctness of such information and interpretations.  Under no circumstances should any 
#such information or interpretation be relied upon as the sole basis for any drilling, 
#completion, production, or financial decision or any procedure involving any risk to the 
#safety of any drilling venture, drilling rig or its crew or any other third party.  The 
#Customer has full responsibility for all drilling, completion and production operation.  
#Halliburton makes no representations or warranties, either expressed or 
#implied, including, but not limited to, the implied warranties of merchantability or fitness 
#for a particular purpose, with respect to the services rendered.  In no event will 
#Halliburton be liable for failure to obtain any particular results or for 
#any damages, including, but not limited to, indirect, special or consequential damages, 
#resulting from the use of any information or interpretation provided by Halliburton.
#
~A           TIME           GTDEPTH  GTPQH  GTTQ  GTTN  GTET   GTTVD  
# ...
   02:05:54.000.20-May-2020 5070.01 6496.58 68.48 7.00  46.00 2678.90
   02:05:54.200.20-May-2020 5070.01 6478.12 68.48 7.00  46.20 2678.90
   02:05:54.400.20-May-2020 5070.01 6463.38 68.48 7.00  46.40 2678.90
   02:05:54.600.20-May-2020 5070.01 6348.75 68.48 7.00  46.60 2678.90
   02:05:54.800.20-May-2020 5070.01 6115.37 68.48 7.00  46.80 2678.90
   02:05:55.000.20-May-2020 5070.01 5641.61 68.48 7.00  47.00 2678.90
   02:05:55.200.20-May-2020 5070.01 5641.61 68.48 7.00  47.20 2678.90
   02:05:55.400.20-May-2020 5070.01 4675.62 68.48 7.00  47.40 2678.90
   02:05:55.600.20-May-2020 5070.01 4331.53 68.48 7.00  47.60 2678.90
   02:05:55.800.20-May-2020 5070.01 4183.02 68.48 7.00  47.80 2678.90
   02:05:56.000.20-May-2020 5070.01 4133.67 68.47 7.00  48.00 2678.90
   02:05:56.200.20-May-2020 5070.01 4133.67 68.47 7.00  48.20 2678.90
   02:05:56.400.20-May-2020 5070.01 3886.91 68.47 7.00  48.40 2678.90
   02:05:56.600.20-May-2020 5070.01 3750.80 68.47 7.00  48.60 2678.90
   02:05:56.800.20-May-2020 5070.01 3632.70 68.47 7.00  48.80 2678.90
   02:05:57.000.20-May-2020 5070.01 3532.58 68.47 7.00  49.00 2678.90
   02:05:57.200.20-May-2020 5070.01 3318.30 68.47 7.00  49.20 2678.90
   02:05:57.400.20-May-2020 5070.01 3033.01 68.46 7.00  49.40 2678.90
   02:05:57.600.20-May-2020 5070.01 2943.31 68.46 7.00  49.60 2678.90
   02:05:57.800.20-May-2020 5070.01 2955.40 68.46 7.00  49.80 2678.90
   02:05:58.000.20-May-2020 5070.01 2954.72 68.46 7.00  50.00 2678.90
   02:05:58.200.20-May-2020 5070.01 2954.72 68.46 7.00  50.20 2678.90
   02:05:58.400.20-May-2020 5070.01 2954.59 68.45 7.00  50.40 2678.90
   02:05:58.600.20-May-2020 5070.01 2954.45 68.45 7.00  50.60 2678.90
   02:05:58.800.20-May-2020 5070.01 2954.35 68.45 7.00  50.80 2678.90
   02:05:59.000.20-May-2020 5070.01 2954.14 68.44 7.00  51.00 2678.90
   02:05:59.200.20-May-2020 5070.01 2954.14 68.44 7.00  51.20 2678.90
   02:05:59.400.20-May-2020 5070.01 2953.98 68.44 7.00  51.40 2678.90
   02:05:59.600.20-May-2020 5070.01 2953.98 68.43 7.00  51.60 2678.90
   02:05:59.800.20-May-2020 5070.01 2954.04 68.43 7.00  51.80 2678.90
   02:06:00.000.20-May-2020 5070.01 2953.93 68.43 7.00  52.00 2678.90
   02:06:00.200.20-May-2020 5070.01 2953.93 68.43 7.00  52.20 2678.90
   02:06:00.400.20-May-2020 5070.01 2953.67 68.42 7.00  52.40 2678.90
   02:06:00.600.20-May-2020 5070.01 2953.66 68.42 7.00  52.60 2678.90
   02:06:00.800.20-May-2020 5070.01 2953.56 68.42 7.00  52.80 2678.90
   02:06:01.000.20-May-2020 5070.01 2953.45 68.42 7.00  53.00 2678.90
   02:06:01.200.20-May-2020 5070.01 2953.45 68.42 7.00  53.20 2678.90
   02:06:01.400.20-May-2020 5070.01 2953.36 68.41 7.00  53.40 2678.90
   02:06:01.600.20-May-2020 5070.01 2953.21 68.41 7.00  53.60 2678.90
   02:06:01.800.20-May-2020 5070.01 2953.16 68.41 7.00  53.80 2678.90
   02:06:02.000.20-May-2020 5070.01 2953.08 68.40 7.00  54.00 2678.90
   02:06:02.200.20-May-2020 5070.01 2952.88 68.40 7.00  54.20 2678.90
   02:06:02.400.20-May-2020 5070.01 2953.02 68.40 7.00  54.40 2678.90
   02:06:02.600.20-May-2020 5070.01 2952.91 68.40 7.00  54.60 2678.90
   02:06:02.800.20-May-2020 5070.01 2953.02 68.40 7.00  54.80 2678.90
   02:06:03.000.20-May-2020 5070.01 2952.99 68.39 7.00  55.00 2678.90
   02:06:03.200.20-May-2020 5070.01 2952.99 68.39 7.00  55.20 2678.90
   02:06:03.400.20-May-2020 5070.01 2952.83 68.39 7.00  55.40 2678.90
   02:06:03.600.20-May-2020 5070.01 2952.77 68.39 7.00  55.60 2678.90
   02:06:03.800.20-May-2020 5070.01 2952.87 68.39 7.00  55.80 2678.90
   02:06:04.000.20-May-2020 5070.01 2952.81 68.39 7.00  56.00 2678.90
   02:06:04.200.20-May-2020 5070.01 2952.81 68.39 7.00  56.20 2678.90
   02:06:04.400.20-May-2020 5070.01 2952.75 68.38 7.00  56.40 2678.90
   02:06:04.600.20-May-2020 5070.01 2952.75 68.38 7.00  56.60 2678.90
   02:06:04.800.20-May-2020 5070.01 2952.87 68.38 7.00  56.80 2678.90
   02:06:05.000.20-May-2020 5070.01 2952.71 68.38 7.00  57.00 2678.90
   02:06:05.200.20-May-2020 5070.01 2952.71 68.38 7.00  57.20 2678.90
   02:06:05.400.20-May-2020 5070.01 2952.66 68.38 7.00  57.40 2678.90
   02:06:05.600.20-May-2020 5070.01 2952.58 68.38 7.00  57.60 2678.90
   02:06:05.800.20-May-2020 5070.01 2952.71 68.38 7.00  57.80 2678.90
   02:06:06.000.20-May-2020 5070.01 2952.59 68.37 7.00  58.00 2678.90
   02:06:06.200.20-May-2020 5070.01 2952.59 68.37 7.00  58.20 2678.90
   02:06:06.400.20-May-2020 5070.01 2952.57 68.37 7.00  58.40 2678.90
   02:06:06.600.20-May-2020 5070.01 2952.58 68.37 7.00  58.60 2678.90
   02:06:06.800.20-May-2020 5070.01 2952.73 68.37 7.00  58.80 2678.90
   02:06:07.000.20-May-2020 5070.01 2952.68 68.37 7.00  59.00 2678.90
   02:06:07.200.20-May-2020 5070.01 2952.68 68.37 7.00  59.20 2678.90
   02:06:07.400.20-May-2020 5070.01 2952.66 68.37 7.00  59.40 2678.90
   02:06:07.600.20-May-2020 5070.01 2952.56 68.37 7.00  59.60 2678.90
   02:06:07.800.20-May-2020 5070.01 2952.71 68.37 7.00  59.80 2678.90
   02:06:08.000.20-May-2020 5070.01 2952.60 68.37 7.00  60.00 2678.90
   02:06:08.200.20-May-2020 5070.01 2952.60 68.37 7.00  60.20 2678.90
   02:06:08.400.20-May-2020 5070.01 2952.63 68.37 7.00  60.40 2678.90
   02:06:08.600.20-May-2020 5070.01 2952.64 68.37 7.00  60.60 2678.90
   02:06:08.800.20-May-2020 5070.01 2952.73 68.37 7.00  60.80 2678.90
   02:06:09.000.20-May-2020 5070.01 2952.64 68.37 7.00  61.00 2678.90
   02:06:09.200.20-May-2020 5070.01 2952.64 68.37 7.00  61.20 2678.90
   02:06:09.400.20-May-2020 5070.01 2952.52 68.37 7.00  61.40 2678.90
   02:06:09.600.20-May-2020 5070.01 2952.60 68.37 7.00  61.60 2678.90
   02:06:09.800.20-May-2020 5070.01 2952.63 68.36 7.00  61.80 2678.90
   02:06:10.000.20-May-2020 5070.01 2952.53 68.36 7.00  62.00 2678.90
   02:06:10.200.20-May-2020 5070.01 2952.52 68.36 7.00  62.20 2678.90
   02:06:10.400.20-May-2020 5070.01 2952.53 68.36 7.00  62.40 2678.90
   02:06:10.600.20-May-2020 5070.01 2952.65 68.36 7.00  62.60 2678.90
   02:06:10.800.20-May-2020 5070.01 2952.70 68.36 7.00  62.80 2678.90
   02:06:11.000.20-May-2020 5070.01 2952.67 68.36 7.00  63.00 2678.90
   02:06:11.200.20-May-2020 5070.01 2952.67 68.36 7.00  63.20 2678.90
   02:06:11.400.20-May-2020 5070.01 2952.51 68.36 7.00  63.40 2678.90
   02:06:11.600.20-May-2020 5070.01 2952.73 68.36 7.00  63.60 2678.90
   02:06:11.800.20-May-2020 5070.01 2952.64 68.36 7.00  63.80 2678.90
   02:06:12.000.20-May-2020 5070.01 2952.64 68.36 7.00  64.00 2678.90
   02:06:12.200.20-May-2020 5070.01 2952.64 68.36 7.00  64.20 2678.90
   02:06:12.400.20-May-2020 5070.01 2952.75 68.36 7.00  64.40 2678.90
   02:06:12.600.20-May-2020 5070.01 2952.81 68.36 7.00  64.60 2678.90
   02:06:12.800.20-May-2020 5070.01 2952.73 68.36 7.00  64.80 2678.90
   02:06:13.000.20-May-2020 5070.01 2952.82 68.36 7.00  65.00 2678.90
   02:06:13.200.20-May-2020 5070.01 2952.82 68.36 7.00  65.20 2678.90
   02:06:13.400.20-May-2020 5070.01 2952.83 68.36 7.00  65.40 2678.90
   02:06:13.600.20-May-2020 5070.01 2952.97 68.36 7.00  65.60 2678.90
   02:06:13.800.20-May-2020 5070.01 2952.87 68.36 7.00  65.80 2678.90
   02:06:14.000.20-May-2020 5070.01 2952.89 68.36 7.00  66.00 2678.90
   02:06:14.200.20-May-2020 5070.01 2952.89 68.36 7.00  66.20 2678.90
   02:06:14.400.20-May-2020 5070.01 2952.96 68.36 7.00  66.40 2678.90
   02:06:14.600.20-May-2020 5070.01 2952.97 68.36 7.00  66.60 2678.90
   02:06:14.800.20-May-2020 5070.01 2952.91 68.36 7.00  66.80 2678.90
   02:06:15.000.20-May-2020 5070.01 2952.94 68.36 7.00  67.00 2678.90
   02:06:15.200.20-May-2020 5070.01 2952.94 68.36 7.00  67.20 2678.90
   02:06:15.400.20-May-2020 5070.01 2952.98 68.36 7.00  67.40 2678.90
   02:06:15.600.20-May-2020 5070.01 2952.89 68.36 7.00  67.60 2678.90
   02:06:15.800.20-May-2020 5070.01 2952.92 68.36 7.00  67.80 2678.90
   02:06:16.000.20-May-2020 5070.01 2953.04 68.36 7.00  68.00 2678.90
   02:06:16.200.20-May-2020 5070.01 2953.04 68.36 7.00  68.20 2678.90
   02:06:16.400.20-May-2020 5070.01 2952.95 68.37 7.00  68.40 2678.90
   02:06:16.600.20-May-2020 5070.01 2954.73 68.37 7.00  68.60 2678.90
   02:06:16.800.20-May-2020 5070.01 2956.13 68.37 7.00  68.80 2678.90
