~Version Information
 VERS.                  2.0:   CWLS log ASCII Standard -VERSION 2.0
 WRAP.                   NO:   One line per depth step
~Well Information Block
#MNEM.UNIT     VALUE/NAME     DESCRIPTION
#---------     -----------    ---------------------------
 STRT.S             23:11:25 19-May-20: START TIME 23:11:25 19-May-20
 STOP.S             23:19:39 19-May-20: STOP TIME  23:19:39 19-May-20
 STEP.S                   0.00: STEP TIME
 NULL.                 -999.25: NULL VALUE
 MDS .        Operator Entered:  MAG DATA SOURCE
 PDAT.          Mean Sea Level:  PERMANENT DATUM
 UNIT.                     N/A:  LOGGING EQUIPMENT ID
 DCON.         Sperry Drilling:  DIRECTNL CONTR
 DOE .                     N/A:  DOE NUMBER
 RIG .              East Azeri:  RIG NAME
 JOBN.        AZ-XX-0905856059:  JOB TICKET NUMB
 WELL.                     D36:  WELL NAME
 MWDS.                    Baku:  MWD SHOP
 SRVC.     Turan Drilling & Engineering:  CONTRACTOR
 FLD .                     ACG:  FIELD NAME
 CTRY.              Azerbaijan:  COUNTRY NAME
 PROV.                    Baku:  PROVINCE
 STAT.                    Baku:  STATE NAME
 REGN.                   EESSA:  REGION
 BASE.              Azerbaijan:  LOGGING EQUIPMENT BASE LOCATION
 UWI .                     N/A:  UNIQUE WELL IDENTIFIER
 API .                     N/A:  API NUMBER
 COMP.     BP Exploration (Caspian Sea) Ltd.:  COMPANY
 WTYP.                Deviated:  WELL TYPE
 SON .        AZ-XX-0905856059:  JOB NUMBER
 FTOP.          Formation Tops:  FORM TOPS DESC
 ILTD.               Lithology:  INTERP LTH DESC
 SVYD.                  Survey:  SURVEY DESC
 DMOD.             Drill Model:  DRILL MOD DESC
 HPTY.       Minimum Curvature:  HOLE POS TYPE
 NREF.                    Grid:  NORTH REFERENCE
 SPUD.               25-Feb-20:  SPUD DATE
 DATE.      08.55.28 01-May-20:  END TIME
 STIM.      08.55.28 25-Feb-20:  START TIME
 DMF .             Drill Floor:  DRILL MEAS FROM
 DFST.                        :  DIST FSL TEXT
 DFWT.                        :  DIST FWL TEXT
 CNTY.                        :  COUNTY
 LOC .                        :  LOCATION
 LMF .             Drill Floor:  LOG MEASURED FROM
 VSNS.m                   6.09:  VERT SEC N/S
 VSEW.m                 -10.79:  VERT SEC E/W
 AGAP.m                  43.60:  AIR GAP
 DEP .m                 388.24:  DEPTH
 APD .m                  43.60:  DEPTH ABOVE PD
 WDMS.m                 151.80:  WD ELEV
 EGL .m                   0.00:  GROUND ELEVATION
 EPD .m                   0.00:  ELEVATION
 AZTC.deg                 6.12:  AZM TOTAL CORR
 GRDC.deg                 0.30:  GRID CORRECTION
 MDEC.deg                 6.42:  MAGNETIC DECL
 MDIP.deg                59.42:  MAGNETIC DIP
 MFLD.nT              50256.00:  MAGNETIC FIELD
 GVFD.g                   1.00:  GRAVITY FIELD
 VSDR.deg               159.57:  VERT SEC DIRECT
 TDD .m                5000.01:  TOTAL DEPTH (DRILLER)
 SDEP.m                 397.00:  START DEPTH
 DFSL.m                   0.00:  DISTANCE FSL
 DFWL.m                   0.00:  DISTANCE FWL
 UTMY.m             4431880.20:  UTM Y
 UTMX.m              538763.98:  UTM X
 WHEW.m                 -10.79:  WELL HEAD E/W
 WHNS.m                   6.09:  WELL HEAD N/S
 LONG.deg                51.45:  LONGITUDE
 LATI.deg                40.02:  LATITUDE
 TVDS.m                  43.60:  TVDSS CORRECTN
 EKB .m                  43.60:  KB ELEVATION
 EDF .m                  43.60:  DF ELEVATION
 MAGU.                 1847640:  MAGUTM CHECKSUM
 VSC .                       0:  VS TO CLOSURE
~Parameter Information Block
#MNEM.UNIT       Value        Description
#---------     -----------    ---------------------------
 AV  .mps                 1.30:  Ann Velocity 
 AVMX.mps                 1.90:  Max Ann Veloc 
 AZIF.deg               115.68:  Azm, Final 
 BHAT.                   Other:  BHA Type 
 BROT.°/30m               0.74:  Build Rotating 
 BS  .in                  8.50:  Bit Size 
 BTPL.psig              430.00:  Bit Press Loss 
 CABU.                      No:  Customer Abuse 
 COMM.                     Tr}:  Run Comments 1 
 TCS .hr                 51.31:  Time Ciculation Ended 
 CV  .mps                 2.52:  Crit Velocity 
 CVMX.mps                 2.62:  Max Crit Veloc 
 DD1 .          Teymur Aghayev:  Direct Drillr 1 
 DDSV.                   Other:  DD Service 
 DEFF.%                 100.00:  % Det Eff 
 DLRX.°/30m               1.62:  Dogleg Rot Max 
 DLSO.°/30m               0.74:  Dogleg Oriented 
 DLSX.°/30m               1.62:  Dogleg Str Max 
 DRET.      04.30.56 18-May-20:  Drill End Time 
 DRST.      04.30.56 18-May-20:  Drill Start Tim 
 DTIM.hr                  0.00:  Time Drilling 
 EDEP.m                5337.01:  End Depth 
 ENG1.      Artemiy Matviyanov:  Engineer 1 
 ENG2.      Bakhtiyar Jabbarli:  Engineer 2 
 ENG3.           Emil Huseynov:  Engineer 3 
 ETIM.      18.40.00 22-May-20:  End Time 
 FLOI.gpm               550.00:  Flow In 
 FLON.gpm               350.00:  Flow In Min 
 FLOS.cptm                0.00:  Fluid Loss 
 FLOX.gpm               600.00:  Flow In Max 
 HFLO.                      No:  High Flow 
 HPRE.                      No:  High Pressure 
 HTEM.                      No:  High Temp 
 HYDO.m                   1.80:  Hydro Offset 
 IFIN.deg                67.01:  Inc, Final 
 IMAX.deg                67.49:  Inc Max 
 IMIN.deg                66.50:  Inc Min 
 IMND.m                5144.79:  Inc Min Depth 
 IMXD.m                5116.12:  Inc Max Depth 
 JARR.                      No:  Jarring 
 LETM.      17.55.56 20-May-20:  Log End Time 
 LOST.hr                     0:  Lost Rig Time 
 LSTM.      04.30.56 18-May-20:  Log Start Time 
 MDCL.ppm            193153.00:  Mud Chlorides 
 MDES.     Inversion Oil/Synthetic:  Mud Desc 
 DFD .sg                  1.40:  Mud Density 
 MDMN.sg                  1.40:  Dens Mud Min 
 MDMX.sg                  1.41:  Dens Mud Max 
 MOIL.                      68:  Run Mud Oil % 
 MOWR.                   68:32:  Run Mud OWR 
 MSND.                     0.2:  Run Mud Sand % 
 MSOL.                    18.8:  Run Mud Solids% 
 DFV .spqt               80.00:  Mud Viscosity 
 MWOD.in                  6.75:  MWD Tool OD 
 MWSI.                      No:  Serv Intrp, MWD 
 OTIM.hr                104.84:  Time Operating 
 PMAX.psia            10690.93:  Press Op, Max 
 PV  .cP                 26.00:  Mud PV 
 RUN .                     900:  Run Number 
 ROPA.m/hr                0.00:  ROP Avg 
 ROPN.m/hr                0.00:  ROP Min 
 ROPX.m/hr                0.00:  ROP Max 
 RPMA.rpm               140.00:  RPM Surface Avg 
 RPMN.rpm                70.00:  RPM Surface Min 
 RPMX.rpm               140.00:  RPM Surface Max 
 RRUN.                    0900:  Rig Run Number 
 RTIM.hr                 36.00:  Time Reaming 
 SAZI.deg               115.72:  Azm, Start 
 SDEP.m                5337.01:  Start Depth 
 SIDD.                      No:  Serv Intrp, DD 
 SINC.deg                66.92:  Inc, Start 
 SPPA.psig             4400.00:  SPP Avg 
 SPPN.psig             1135.00:  SPP Min 
 SPPX.psig             4581.00:  SPP Max 
 STIM.      04.30.56 18-May-20:  Start Time 
 SVCS.                     MWD:  Services 
 SVER.                    9.20:  Sperry Version 
 TDAT.m                5337.01:  Tot Depth Attmp 
 TDDF.                      No:  Trip for DD 
 TFF .                      No:  Trip for Fail 
 TQAA.f-kp               23.00:  Torque Abs Avg 
 TQAN.f-kp               18.00:  Torque Abs Min 
 TQAX.f-kp               25.00:  Torque Abs Max 
 TRRT.°/30m               0.74:  Turn Rotating 
 MRT .                    HCIM:  Maximum Recorded Temperature 
 TTMX.degC               76.47:  Max Tool Temp 
 WBMN.klb                 0.00:  WOB Min 
 WITN.             Anar Khalil:  Customer Rep 
 WITN.      Kamran Keberlinski:  Customer Rep 2 
 WOBA.klb                 0.00:  WOB Avg 
 WOBX.klb                 0.00:  WOB Max 
 YP  .lhf2               27.00:  Yield Point 
~Curve Information Block
#MNEM.UNIT                 API CODE     Curve Description
#---------               -----------    ---------------------------
 TIME.HHMMSS            00 000 000 000:  GT Time & Date
 GTDEPTH.m              00 000 000 000:  GT Depth
 GTPQH.psia             00 000 000 000:  GT HR Quartz Pressure
 GTTQ.degC              00 000 000 000:  GT Quartz Temperature
 GTTN.NONE              00 000 000 000:  GT Test Number
 GTET.sec               00 000 000 000:  GT Elapsed Test Time
 GTTVD.m                00 000 000 000:  GT True Vertical Depth
#Other Information
#
#WARRANTY: Halliburton will use its best efforts to furnish customers with 
#accurate information and interpretations that are part of, and incident to, the services 
#provided.  However, Halliburton cannot and does not warrant the accuracy 
#or correctness of such information and interpretations.  Under no circumstances should any 
#such information or interpretation be relied upon as the sole basis for any drilling, 
#completion, production, or financial decision or any procedure involving any risk to the 
#safety of any drilling venture, drilling rig or its crew or any other third party.  The 
#Customer has full responsibility for all drilling, completion and production operation.  
#Halliburton makes no representations or warranties, either expressed or 
#implied, including, but not limited to, the implied warranties of merchantability or fitness 
#for a particular purpose, with respect to the services rendered.  In no event will 
#Halliburton be liable for failure to obtain any particular results or for 
#any damages, including, but not limited to, indirect, special or consequential damages, 
#resulting from the use of any information or interpretation provided by Halliburton.
#
~A           TIME           GTDEPTH  GTPQH  GTTQ  GTTN  GTET   GTTVD  
# ...
   23:12:34.721.19-May-2020 5121.01 1106.93 67.87 5.00  69.02 2698.81
   23:12:34.921.19-May-2020 5121.01 1106.93 67.87 5.00  69.22 2698.81
   23:12:35.121.19-May-2020 5121.01 1116.24 67.87 5.00  69.42 2698.81
   23:12:35.321.19-May-2020 5121.01 1120.99 67.87 5.00  69.62 2698.81
   23:12:35.521.19-May-2020 5121.01 1125.63 67.87 5.00  69.82 2698.81
   23:12:35.721.19-May-2020 5121.01 1130.02 67.87 5.00  70.02 2698.81
   23:12:35.921.19-May-2020 5121.01 1130.02 67.87 5.00  70.22 2698.81
   23:12:36.121.19-May-2020 5121.01 1139.29 67.88 5.00  70.42 2698.81
   23:12:36.321.19-May-2020 5121.01 1143.82 67.88 5.00  70.62 2698.81
   23:12:36.521.19-May-2020 5121.01 1148.49 67.88 5.00  70.82 2698.81
   23:12:36.721.19-May-2020 5121.01 1153.04 67.88 5.00  71.02 2698.81
   23:12:36.921.19-May-2020 5121.01 1157.29 67.88 5.00  71.22 2698.81
   23:12:37.121.19-May-2020 5121.01 1161.78 67.88 5.00  71.42 2698.81
   23:12:37.322.19-May-2020 5121.01 1166.25 67.88 5.00  71.62 2698.81
   23:12:37.522.19-May-2020 5121.01 1170.86 67.88 5.00  71.82 2698.81
   23:12:37.722.19-May-2020 5121.01 1174.78 67.88 5.00  72.02 2698.81
   23:12:37.922.19-May-2020 5121.01 1174.78 67.88 5.00  72.22 2698.81
   23:12:38.122.19-May-2020 5121.01 1182.32 67.88 5.00  72.42 2698.81
   23:12:38.322.19-May-2020 5121.01 1186.79 67.88 5.00  72.62 2698.81
   23:12:38.522.19-May-2020 5121.01 1191.48 67.88 5.00  72.82 2698.81
   23:12:38.722.19-May-2020 5121.01 1196.10 67.88 5.00  73.02 2698.81
   23:12:38.922.19-May-2020 5121.01 1196.10 67.88 5.00  73.22 2698.81
   23:12:39.122.19-May-2020 5121.01 1205.32 67.88 5.00  73.42 2698.81
   23:12:39.322.19-May-2020 5121.01 1209.82 67.88 5.00  73.62 2698.81
   23:12:39.522.19-May-2020 5121.01 1214.44 67.88 5.00  73.82 2698.81
   23:12:39.722.19-May-2020 5121.01 1219.03 67.88 5.00  74.02 2698.81
   23:12:39.922.19-May-2020 5121.01 1219.03 67.88 5.00  74.22 2698.81
   23:12:40.122.19-May-2020 5121.01 1228.28 67.89 5.00  74.42 2698.81
   23:12:40.322.19-May-2020 5121.01 1232.82 67.89 5.00  74.62 2698.81
   23:12:40.522.19-May-2020 5121.01 1237.44 67.89 5.00  74.82 2698.81
   23:12:40.722.19-May-2020 5121.01 1242.01 67.89 5.00  75.02 2698.81
   23:12:40.922.19-May-2020 5121.01 1242.01 67.89 5.00  75.22 2698.81
   23:12:41.122.19-May-2020 5121.01 1250.46 67.89 5.00  75.42 2698.81
   23:12:41.323.19-May-2020 5121.01 1254.80 67.89 5.00  75.62 2698.81
   23:12:41.523.19-May-2020 5121.01 1259.47 67.89 5.00  75.82 2698.81
   23:12:41.723.19-May-2020 5121.01 1263.68 67.89 5.00  76.02 2698.81
   23:12:41.923.19-May-2020 5121.01 1263.68 67.89 5.00  76.22 2698.81
   23:12:42.123.19-May-2020 5121.01 1272.54 67.89 5.00  76.42 2698.81
   23:12:42.323.19-May-2020 5121.01 1277.11 67.89 5.00  76.62 2698.81
   23:12:42.523.19-May-2020 5121.01 1281.54 67.89 5.00  76.82 2698.81
   23:12:42.723.19-May-2020 5121.01 1285.71 67.89 5.00  77.02 2698.81
   23:12:42.923.19-May-2020 5121.01 1285.71 67.89 5.00  77.22 2698.81
   23:12:43.123.19-May-2020 5121.01 1294.47 67.89 5.00  77.42 2698.81
   23:12:43.323.19-May-2020 5121.01 1298.81 67.89 5.00  77.62 2698.81
   23:12:43.523.19-May-2020 5121.01 1303.38 67.89 5.00  77.82 2698.81
   23:12:43.723.19-May-2020 5121.01 1307.30 67.89 5.00  78.02 2698.81
   23:12:43.923.19-May-2020 5121.01 1311.35 67.89 5.00  78.22 2698.81
   23:12:44.123.19-May-2020 5121.01 1315.94 67.89 5.00  78.42 2698.81
   23:12:44.323.19-May-2020 5121.01 1320.33 67.89 5.00  78.62 2698.81
   23:12:44.523.19-May-2020 5121.01 1324.38 67.90 5.00  78.82 2698.81
   23:12:44.723.19-May-2020 5121.01 1328.90 67.90 5.00  79.02 2698.81
   23:12:44.923.19-May-2020 5121.01 1333.42 67.90 5.00  79.22 2698.81
   23:12:45.123.19-May-2020 5121.01 1338.08 67.90 5.00  79.42 2698.81
   23:12:45.324.19-May-2020 5121.01 1342.47 67.90 5.00  79.62 2698.81
   23:12:45.524.19-May-2020 5121.01 1346.90 67.90 5.00  79.82 2698.81
   23:12:45.724.19-May-2020 5121.01 1351.41 67.90 5.00  80.02 2698.81
   23:12:45.924.19-May-2020 5121.01 1351.41 67.90 5.00  80.22 2698.81
   23:12:46.124.19-May-2020 5121.01 1360.60 67.90 5.00  80.42 2698.81
   23:12:46.324.19-May-2020 5121.01 1365.04 67.90 5.00  80.62 2698.81
   23:12:46.524.19-May-2020 5121.01 1369.57 67.90 5.00  80.82 2698.81
   23:12:46.724.19-May-2020 5121.01 1374.04 67.90 5.00  81.02 2698.81
   23:12:46.924.19-May-2020 5121.01 1374.04 67.90 5.00  81.22 2698.81
   23:12:47.124.19-May-2020 5121.01 1383.20 67.90 5.00  81.42 2698.81
   23:12:47.324.19-May-2020 5121.01 1387.90 67.90 5.00  81.62 2698.81
   23:12:47.524.19-May-2020 5121.01 1392.04 67.90 5.00  81.82 2698.81
   23:12:47.724.19-May-2020 5121.01 1396.29 67.90 5.00  82.02 2698.81
   23:12:47.924.19-May-2020 5121.01 1401.18 67.90 5.00  82.22 2698.81
   23:12:48.124.19-May-2020 5121.01 1407.14 67.90 5.00  82.42 2698.81
   23:12:48.324.19-May-2020 5121.01 1411.46 67.90 5.00  82.62 2698.81
   23:12:48.524.19-May-2020 5121.01 1415.79 67.90 5.00  82.82 2698.81
   23:12:48.724.19-May-2020 5121.01 1420.49 67.90 5.00  83.02 2698.81
   23:12:48.924.19-May-2020 5121.01 1424.87 67.90 5.00  83.22 2698.81
   23:12:49.124.19-May-2020 5121.01 1429.42 67.90 5.00  83.42 2698.81
   23:12:49.325.19-May-2020 5121.01 1433.63 67.90 5.00  83.62 2698.81
   23:12:49.525.19-May-2020 5121.01 1437.92 67.91 5.00  83.82 2698.81
   23:12:49.725.19-May-2020 5121.01 1441.73 67.91 5.00  84.02 2698.81
   23:12:49.925.19-May-2020 5121.01 1441.73 67.91 5.00  84.22 2698.81
   23:12:50.125.19-May-2020 5121.01 1450.28 67.91 5.00  84.42 2698.81
   23:12:50.325.19-May-2020 5121.01 1454.33 67.91 5.00  84.62 2698.81
   23:12:50.525.19-May-2020 5121.01 1458.28 67.91 5.00  84.82 2698.81
   23:12:50.725.19-May-2020 5121.01 1462.24 67.91 5.00  85.02 2698.81
   23:12:50.925.19-May-2020 5121.01 1462.24 67.91 5.00  85.22 2698.81
   23:12:51.125.19-May-2020 5121.01 1470.47 67.91 5.00  85.42 2698.81
   23:12:51.325.19-May-2020 5121.01 1474.41 67.91 5.00  85.62 2698.81
   23:12:51.525.19-May-2020 5121.01 1478.51 67.91 5.00  85.82 2698.81
   23:12:51.725.19-May-2020 5121.01 1482.01 67.91 5.00  86.02 2698.81
   23:12:51.925.19-May-2020 5121.01 1482.01 67.91 5.00  86.22 2698.81
   23:12:52.125.19-May-2020 5121.01 1490.09 67.91 5.00  86.42 2698.81
   23:12:52.325.19-May-2020 5121.01 1494.06 67.91 5.00  86.62 2698.81
   23:12:52.525.19-May-2020 5121.01 1497.97 67.91 5.00  86.82 2698.81
   23:12:52.725.19-May-2020 5121.01 1501.90 67.91 5.00  87.02 2698.81
   23:12:52.925.19-May-2020 5121.01 1501.90 67.91 5.00  87.22 2698.81
   23:12:53.125.19-May-2020 5121.01 1509.64 67.91 5.00  87.42 2698.81
   23:12:53.326.19-May-2020 5121.01 1513.44 67.91 5.00  87.62 2698.81
   23:12:53.526.19-May-2020 5121.01 1517.29 67.91 5.00  87.82 2698.81
   23:12:53.726.19-May-2020 5121.01 1521.08 67.91 5.00  88.02 2698.81
   23:12:53.926.19-May-2020 5121.01 1521.08 67.91 5.00  88.22 2698.81
   23:12:54.126.19-May-2020 5121.01 1528.75 67.91 5.00  88.42 2698.81
   23:12:54.326.19-May-2020 5121.01 1532.48 67.91 5.00  88.62 2698.81
   23:12:54.526.19-May-2020 5121.01 1536.25 67.91 5.00  88.82 2698.81
   23:12:54.726.19-May-2020 5121.01 1539.63 67.91 5.00  89.02 2698.81
   23:12:54.926.19-May-2020 5121.01 1539.63 67.91 5.00  89.22 2698.81
   23:12:55.126.19-May-2020 5121.01 1547.29 67.91 5.00  89.42 2698.81
   23:12:55.326.19-May-2020 5121.01 1551.02 67.91 5.00  89.62 2698.81
   23:12:55.526.19-May-2020 5121.01 1554.48 67.91 5.00  89.82 2698.81
   23:12:55.726.19-May-2020 5121.01 1558.36 67.92 5.00  90.02 2698.81
   23:12:55.926.19-May-2020 5121.01 1558.36 67.92 5.00  90.22 2698.81
   23:12:56.126.19-May-2020 5121.01 1565.97 67.92 5.00  90.42 2698.81
   23:12:56.326.19-May-2020 5121.01 1569.19 67.92 5.00  90.62 2698.81
   23:12:56.526.19-May-2020 5121.01 1574.68 67.92 5.00  90.82 2698.81
   23:12:56.726.19-May-2020 5121.01 1578.86 67.92 5.00  91.02 2698.81
   23:12:56.926.19-May-2020 5121.01 1582.60 67.92 5.00  91.22 2698.81
   23:12:57.126.19-May-2020 5121.01 1586.30 67.92 5.00  91.42 2698.81
   23:12:57.327.19-May-2020 5121.01 1589.90 67.92 5.00  91.62 2698.81
   23:12:57.527.19-May-2020 5121.01 1593.24 67.92 5.00  91.82 2698.81
