~Version Information
 VERS.                  2.0:   CWLS log ASCII Standard -VERSION 2.0
 WRAP.                   NO:   One line per depth step
~Well Information Block
#MNEM.UNIT     VALUE/NAME     DESCRIPTION
#---------     -----------    ---------------------------
 STRT.S             03:43:00 20-May-20: START TIME 03:43:00 20-May-20
 STOP.S             03:53:08 20-May-20: STOP TIME  03:53:08 20-May-20
 STEP.S                   0.00: STEP TIME
 NULL.                 -999.25: NULL VALUE
 MDS .        Operator Entered:  MAG DATA SOURCE
 PDAT.          Mean Sea Level:  PERMANENT DATUM
 UNIT.                     N/A:  LOGGING EQUIPMENT ID
 DCON.         Sperry Drilling:  DIRECTNL CONTR
 DOE .                     N/A:  DOE NUMBER
 RIG .              East Azeri:  RIG NAME
 JOBN.        AZ-XX-0905856059:  JOB TICKET NUMB
 WELL.                     D36:  WELL NAME
 MWDS.                    Baku:  MWD SHOP
 SRVC.     Turan Drilling & Engineering:  CONTRACTOR
 FLD .                     ACG:  FIELD NAME
 CTRY.              Azerbaijan:  COUNTRY NAME
 PROV.                    Baku:  PROVINCE
 STAT.                    Baku:  STATE NAME
 REGN.                   EESSA:  REGION
 BASE.              Azerbaijan:  LOGGING EQUIPMENT BASE LOCATION
 UWI .                     N/A:  UNIQUE WELL IDENTIFIER
 API .                     N/A:  API NUMBER
 COMP.     BP Exploration (Caspian Sea) Ltd.:  COMPANY
 WTYP.                Deviated:  WELL TYPE
 SON .        AZ-XX-0905856059:  JOB NUMBER
 FTOP.          Formation Tops:  FORM TOPS DESC
 ILTD.               Lithology:  INTERP LTH DESC
 SVYD.                  Survey:  SURVEY DESC
 DMOD.             Drill Model:  DRILL MOD DESC
 HPTY.       Minimum Curvature:  HOLE POS TYPE
 NREF.                    Grid:  NORTH REFERENCE
 SPUD.               25-Feb-20:  SPUD DATE
 DATE.      08.55.28 01-May-20:  END TIME
 STIM.      08.55.28 25-Feb-20:  START TIME
 DMF .             Drill Floor:  DRILL MEAS FROM
 DFST.                        :  DIST FSL TEXT
 DFWT.                        :  DIST FWL TEXT
 CNTY.                        :  COUNTY
 LOC .                        :  LOCATION
 LMF .             Drill Floor:  LOG MEASURED FROM
 VSNS.m                   6.09:  VERT SEC N/S
 VSEW.m                 -10.79:  VERT SEC E/W
 AGAP.m                  43.60:  AIR GAP
 DEP .m                 388.24:  DEPTH
 APD .m                  43.60:  DEPTH ABOVE PD
 WDMS.m                 151.80:  WD ELEV
 EGL .m                   0.00:  GROUND ELEVATION
 EPD .m                   0.00:  ELEVATION
 AZTC.deg                 6.12:  AZM TOTAL CORR
 GRDC.deg                 0.30:  GRID CORRECTION
 MDEC.deg                 6.42:  MAGNETIC DECL
 MDIP.deg                59.42:  MAGNETIC DIP
 MFLD.nT              50256.00:  MAGNETIC FIELD
 GVFD.g                   1.00:  GRAVITY FIELD
 VSDR.deg               159.57:  VERT SEC DIRECT
 TDD .m                5000.01:  TOTAL DEPTH (DRILLER)
 SDEP.m                 397.00:  START DEPTH
 DFSL.m                   0.00:  DISTANCE FSL
 DFWL.m                   0.00:  DISTANCE FWL
 UTMY.m             4431880.20:  UTM Y
 UTMX.m              538763.98:  UTM X
 WHEW.m                 -10.79:  WELL HEAD E/W
 WHNS.m                   6.09:  WELL HEAD N/S
 LONG.deg                51.45:  LONGITUDE
 LATI.deg                40.02:  LATITUDE
 TVDS.m                  43.60:  TVDSS CORRECTN
 EKB .m                  43.60:  KB ELEVATION
 EDF .m                  43.60:  DF ELEVATION
 MAGU.                 1847640:  MAGUTM CHECKSUM
 VSC .                       0:  VS TO CLOSURE
~Parameter Information Block
#MNEM.UNIT       Value        Description
#---------     -----------    ---------------------------
 AV  .mps                 1.30:  Ann Velocity 
 AVMX.mps                 1.90:  Max Ann Veloc 
 AZIF.deg               115.68:  Azm, Final 
 BHAT.                   Other:  BHA Type 
 BROT.°/30m               0.74:  Build Rotating 
 BS  .in                  8.50:  Bit Size 
 BTPL.psig              430.00:  Bit Press Loss 
 CABU.                      No:  Customer Abuse 
 COMM.                     ÌÍk:  Run Comments 1 
 TCS .hr                 51.31:  Time Ciculation Ended 
 CV  .mps                 2.52:  Crit Velocity 
 CVMX.mps                 2.62:  Max Crit Veloc 
 DD1 .          Teymur Aghayev:  Direct Drillr 1 
 DDSV.                   Other:  DD Service 
 DEFF.%                 100.00:  % Det Eff 
 DLRX.°/30m               1.62:  Dogleg Rot Max 
 DLSO.°/30m               0.74:  Dogleg Oriented 
 DLSX.°/30m               1.62:  Dogleg Str Max 
 DRET.      04.30.56 18-May-20:  Drill End Time 
 DRST.      04.30.56 18-May-20:  Drill Start Tim 
 DTIM.hr                  0.00:  Time Drilling 
 EDEP.m                5337.01:  End Depth 
 ENG1.      Artemiy Matviyanov:  Engineer 1 
 ENG2.      Bakhtiyar Jabbarli:  Engineer 2 
 ENG3.           Emil Huseynov:  Engineer 3 
 ETIM.      18.40.00 22-May-20:  End Time 
 FLOI.gpm               550.00:  Flow In 
 FLON.gpm               350.00:  Flow In Min 
 FLOS.cptm                0.00:  Fluid Loss 
 FLOX.gpm               600.00:  Flow In Max 
 HFLO.                      No:  High Flow 
 HPRE.                      No:  High Pressure 
 HTEM.                      No:  High Temp 
 HYDO.m                   1.80:  Hydro Offset 
 IFIN.deg                67.01:  Inc, Final 
 IMAX.deg                67.49:  Inc Max 
 IMIN.deg                66.50:  Inc Min 
 IMND.m                5144.79:  Inc Min Depth 
 IMXD.m                5116.12:  Inc Max Depth 
 JARR.                      No:  Jarring 
 LETM.      17.55.56 20-May-20:  Log End Time 
 LOST.hr                     0:  Lost Rig Time 
 LSTM.      04.30.56 18-May-20:  Log Start Time 
 MDCL.ppm            193153.00:  Mud Chlorides 
 MDES.     Inversion Oil/Synthetic:  Mud Desc 
 DFD .sg                  1.40:  Mud Density 
 MDMN.sg                  1.40:  Dens Mud Min 
 MDMX.sg                  1.41:  Dens Mud Max 
 MOIL.                      68:  Run Mud Oil % 
 MOWR.                   68:32:  Run Mud OWR 
 MSND.                     0.2:  Run Mud Sand % 
 MSOL.                    18.8:  Run Mud Solids% 
 DFV .spqt               80.00:  Mud Viscosity 
 MWOD.in                  6.75:  MWD Tool OD 
 MWSI.                      No:  Serv Intrp, MWD 
 OTIM.hr                104.84:  Time Operating 
 PMAX.psia            10690.93:  Press Op, Max 
 PV  .cP                 26.00:  Mud PV 
 RUN .                     900:  Run Number 
 ROPA.m/hr                0.00:  ROP Avg 
 ROPN.m/hr                0.00:  ROP Min 
 ROPX.m/hr                0.00:  ROP Max 
 RPMA.rpm               140.00:  RPM Surface Avg 
 RPMN.rpm                70.00:  RPM Surface Min 
 RPMX.rpm               140.00:  RPM Surface Max 
 RRUN.                    0900:  Rig Run Number 
 RTIM.hr                 36.00:  Time Reaming 
 SAZI.deg               115.72:  Azm, Start 
 SDEP.m                5337.01:  Start Depth 
 SIDD.                      No:  Serv Intrp, DD 
 SINC.deg                66.92:  Inc, Start 
 SPPA.psig             4400.00:  SPP Avg 
 SPPN.psig             1135.00:  SPP Min 
 SPPX.psig             4581.00:  SPP Max 
 STIM.      04.30.56 18-May-20:  Start Time 
 SVCS.                     MWD:  Services 
 SVER.                    9.20:  Sperry Version 
 TDAT.m                5337.01:  Tot Depth Attmp 
 TDDF.                      No:  Trip for DD 
 TFF .                      No:  Trip for Fail 
 TQAA.f-kp               23.00:  Torque Abs Avg 
 TQAN.f-kp               18.00:  Torque Abs Min 
 TQAX.f-kp               25.00:  Torque Abs Max 
 TRRT.°/30m               0.74:  Turn Rotating 
 MRT .                    HCIM:  Maximum Recorded Temperature 
 TTMX.degC               76.47:  Max Tool Temp 
 WBMN.klb                 0.00:  WOB Min 
 WITN.             Anar Khalil:  Customer Rep 
 WITN.      Kamran Keberlinski:  Customer Rep 2 
 WOBA.klb                 0.00:  WOB Avg 
 WOBX.klb                 0.00:  WOB Max 
 YP  .lhf2               27.00:  Yield Point 
~Curve Information Block
#MNEM.UNIT                 API CODE     Curve Description
#---------               -----------    ---------------------------
 TIME.HHMMSS            00 000 000 000:  GT Time & Date
 GTDEPTH.m              00 000 000 000:  GT Depth
 GTPQH.psia             00 000 000 000:  GT HR Quartz Pressure
 GTTQ.degC              00 000 000 000:  GT Quartz Temperature
 GTTN.NONE              00 000 000 000:  GT Test Number
 GTET.sec               00 000 000 000:  GT Elapsed Test Time
 GTTVD.m                00 000 000 000:  GT True Vertical Depth
#Other Information
#
#WARRANTY: Halliburton will use its best efforts to furnish customers with 
#accurate information and interpretations that are part of, and incident to, the services 
#provided.  However, Halliburton cannot and does not warrant the accuracy 
#or correctness of such information and interpretations.  Under no circumstances should any 
#such information or interpretation be relied upon as the sole basis for any drilling, 
#completion, production, or financial decision or any procedure involving any risk to the 
#safety of any drilling venture, drilling rig or its crew or any other third party.  The 
#Customer has full responsibility for all drilling, completion and production operation.  
#Halliburton makes no representations or warranties, either expressed or 
#implied, including, but not limited to, the implied warranties of merchantability or fitness 
#for a particular purpose, with respect to the services rendered.  In no event will 
#Halliburton be liable for failure to obtain any particular results or for 
#any damages, including, but not limited to, indirect, special or consequential damages, 
#resulting from the use of any information or interpretation provided by Halliburton.
#
~A           TIME           GTDEPTH  GTPQH  GTTQ  GTTN  GTET   GTTVD  
# ...
   03:47:59.981.20-May-2020 5064.01  439.94 68.96 8.00 299.08 2676.56
   03:48:00.181.20-May-2020 5064.01  440.61 68.96 8.00 299.28 2676.56
   03:48:00.381.20-May-2020 5064.01  440.61 68.96 8.00 299.48 2676.56
   03:48:00.581.20-May-2020 5064.01  441.19 68.96 8.00 299.68 2676.56
   03:48:00.781.20-May-2020 5064.01  441.63 68.96 8.00 299.88 2676.56
   03:48:00.981.20-May-2020 5064.01  441.70 68.96 8.00 300.08 2676.56
   03:48:01.181.20-May-2020 5064.01  442.10 68.96 8.00 300.28 2676.56
   03:48:01.381.20-May-2020 5064.01  442.48 68.96 8.00 300.48 2676.56
   03:48:01.581.20-May-2020 5064.01  442.85 68.96 8.00 300.69 2676.56
   03:48:01.781.20-May-2020 5064.01  443.31 68.96 8.00 300.89 2676.56
   03:48:01.981.20-May-2020 5064.01  443.67 68.96 8.00 301.09 2676.56
   03:48:02.181.20-May-2020 5064.01  444.11 68.96 8.00 301.29 2676.56
   03:48:02.381.20-May-2020 5064.01  444.51 68.96 8.00 301.49 2676.56
   03:48:02.581.20-May-2020 5064.01  444.92 68.96 8.00 301.69 2676.56
   03:48:02.781.20-May-2020 5064.01  445.38 68.96 8.00 301.89 2676.56
   03:48:02.981.20-May-2020 5064.01  445.84 68.96 8.00 302.09 2676.56
   03:48:03.181.20-May-2020 5064.01  445.84 68.96 8.00 302.29 2676.56
   03:48:03.382.20-May-2020 5064.01  446.68 68.96 8.00 302.49 2676.56
   03:48:03.582.20-May-2020 5064.01  447.13 68.96 8.00 302.69 2676.56
   03:48:03.782.20-May-2020 5064.01  447.60 68.96 8.00 302.89 2676.56
   03:48:03.982.20-May-2020 5064.01  447.61 68.96 8.00 303.09 2676.56
   03:48:04.182.20-May-2020 5064.01  447.61 68.96 8.00 303.29 2676.56
   03:48:04.382.20-May-2020 5064.01  448.59 68.96 8.00 303.49 2676.56
   03:48:04.582.20-May-2020 5064.01  449.00 68.96 8.00 303.69 2676.56
   03:48:04.782.20-May-2020 5064.01  449.02 68.96 8.00 303.89 2676.56
   03:48:04.982.20-May-2020 5064.01  449.48 68.96 8.00 304.09 2676.56
   03:48:05.182.20-May-2020 5064.01  449.87 68.96 8.00 304.29 2676.56
   03:48:05.382.20-May-2020 5064.01  450.25 68.96 8.00 304.49 2676.56
   03:48:05.582.20-May-2020 5064.01  450.71 68.96 8.00 304.69 2676.56
   03:48:05.782.20-May-2020 5064.01  451.11 68.96 8.00 304.89 2676.56
   03:48:05.982.20-May-2020 5064.01  451.13 68.96 8.00 305.09 2676.56
   03:48:06.182.20-May-2020 5064.01  451.69 68.96 8.00 305.29 2676.56
   03:48:06.382.20-May-2020 5064.01  452.00 68.96 8.00 305.49 2676.56
   03:48:06.582.20-May-2020 5064.01  452.44 68.96 8.00 305.69 2676.56
   03:48:06.783.20-May-2020 5064.01  452.56 68.96 8.00 305.89 2676.56
   03:48:06.983.20-May-2020 5064.01  453.05 68.96 8.00 306.09 2676.56
   03:48:07.183.20-May-2020 5064.01  453.05 68.96 8.00 306.29 2676.56
   03:48:07.383.20-May-2020 5064.01  453.76 68.96 8.00 306.49 2676.56
   03:48:07.583.20-May-2020 5064.01  454.15 68.95 8.00 306.69 2676.56
   03:48:07.783.20-May-2020 5064.01  454.56 68.96 8.00 306.89 2676.56
   03:48:07.983.20-May-2020 5064.01  454.95 68.96 8.00 307.09 2676.56
   03:48:08.183.20-May-2020 5064.01  454.95 68.96 8.00 307.29 2676.56
   03:48:08.383.20-May-2020 5064.01  455.45 68.95 8.00 307.49 2676.56
   03:48:08.583.20-May-2020 5064.01  455.83 68.96 8.00 307.69 2676.56
   03:48:08.783.20-May-2020 5064.01  456.27 68.95 8.00 307.89 2676.56
   03:48:08.983.20-May-2020 5064.01  456.73 68.96 8.00 308.09 2676.56
   03:48:09.183.20-May-2020 5064.01  456.73 68.96 8.00 308.29 2676.56
   03:48:09.383.20-May-2020 5064.01  457.53 68.95 8.00 308.49 2676.56
   03:48:09.583.20-May-2020 5064.01  458.01 68.96 8.00 308.69 2676.56
   03:48:09.783.20-May-2020 5064.01  458.45 68.96 8.00 308.89 2676.56
   03:48:09.983.20-May-2020 5064.01  458.84 68.95 8.00 309.09 2676.56
   03:48:10.183.20-May-2020 5064.01  459.25 68.95 8.00 309.29 2676.56
   03:48:10.384.20-May-2020 5064.01  459.69 68.95 8.00 309.49 2676.56
   03:48:10.584.20-May-2020 5064.01  460.15 68.96 8.00 309.69 2676.56
   03:48:10.784.20-May-2020 5064.01  460.56 68.95 8.00 309.89 2676.56
   03:48:10.984.20-May-2020 5064.01  460.76 68.95 8.00 310.09 2676.56
   03:48:11.184.20-May-2020 5064.01  460.76 68.95 8.00 310.29 2676.56
   03:48:11.384.20-May-2020 5064.01  461.51 68.95 8.00 310.49 2676.56
   03:48:11.584.20-May-2020 5064.01  461.96 68.95 8.00 310.69 2676.56
   03:48:11.784.20-May-2020 5064.01  462.03 68.96 8.00 310.89 2676.56
   03:48:11.984.20-May-2020 5064.01  462.56 68.95 8.00 311.09 2676.56
   03:48:12.184.20-May-2020 5064.01  462.56 68.95 8.00 311.29 2676.56
   03:48:12.384.20-May-2020 5064.01  463.24 68.95 8.00 311.49 2676.56
   03:48:12.584.20-May-2020 5064.01  463.64 68.95 8.00 311.69 2676.56
   03:48:12.784.20-May-2020 5064.01  464.09 68.95 8.00 311.89 2676.56
   03:48:12.984.20-May-2020 5064.01  464.43 68.95 8.00 312.09 2676.56
   03:48:13.184.20-May-2020 5064.01  464.43 68.95 8.00 312.29 2676.56
   03:48:13.384.20-May-2020 5064.01  464.98 68.95 8.00 312.49 2676.56
   03:48:13.584.20-May-2020 5064.01  465.35 68.96 8.00 312.69 2676.56
   03:48:13.784.20-May-2020 5064.01  465.75 68.95 8.00 312.89 2676.56
   03:48:13.985.20-May-2020 5064.01  466.19 68.95 8.00 313.09 2676.56
   03:48:14.185.20-May-2020 5064.01  466.11 68.95 8.00 313.29 2676.56
   03:48:14.385.20-May-2020 5064.01  466.62 68.95 8.00 313.49 2676.56
   03:48:14.585.20-May-2020 5064.01  466.98 68.95 8.00 313.69 2676.56
   03:48:14.785.20-May-2020 5064.01  467.34 68.95 8.00 313.89 2676.56
   03:48:14.985.20-May-2020 5064.01  467.27 68.95 8.00 314.09 2676.56
   03:48:15.185.20-May-2020 5064.01  467.27 68.95 8.00 314.29 2676.56
   03:48:15.385.20-May-2020 5064.01  468.12 68.95 8.00 314.49 2676.56
   03:48:15.585.20-May-2020 5064.01  468.46 68.95 8.00 314.69 2676.56
   03:48:15.785.20-May-2020 5064.01  468.90 68.95 8.00 314.89 2676.56
   03:48:15.985.20-May-2020 5064.01  469.30 68.95 8.00 315.09 2676.56
   03:48:16.185.20-May-2020 5064.01  469.30 68.95 8.00 315.29 2676.56
   03:48:16.385.20-May-2020 5064.01  470.21 68.95 8.00 315.49 2676.56
   03:48:16.585.20-May-2020 5064.01  470.61 68.95 8.00 315.69 2676.56
   03:48:16.785.20-May-2020 5064.01  471.05 68.95 8.00 315.89 2676.56
   03:48:16.985.20-May-2020 5064.01  471.50 68.95 8.00 316.09 2676.56
   03:48:17.185.20-May-2020 5064.01  471.89 68.95 8.00 316.29 2676.56
   03:48:17.386.20-May-2020 5064.01  472.30 68.95 8.00 316.49 2676.56
   03:48:17.586.20-May-2020 5064.01  472.75 68.95 8.00 316.69 2676.56
   03:48:17.786.20-May-2020 5064.01  472.95 68.95 8.00 316.89 2676.56
   03:48:17.986.20-May-2020 5064.01  473.38 68.95 8.00 317.09 2676.56
   03:48:18.186.20-May-2020 5064.01  473.74 68.95 8.00 317.29 2676.56
   03:48:18.386.20-May-2020 5064.01  474.13 68.95 8.00 317.49 2676.56
   03:48:18.586.20-May-2020 5064.01  474.16 68.95 8.00 317.69 2676.56
   03:48:18.786.20-May-2020 5064.01  474.75 68.95 8.00 317.89 2676.56
   03:48:18.986.20-May-2020 5064.01  474.93 68.95 8.00 318.09 2676.56
   03:48:19.186.20-May-2020 5064.01  474.93 68.95 8.00 318.29 2676.56
   03:48:19.386.20-May-2020 5064.01  475.70 68.95 8.00 318.49 2676.56
   03:48:19.586.20-May-2020 5064.01  476.12 68.95 8.00 318.69 2676.56
   03:48:19.786.20-May-2020 5064.01  476.05 68.95 8.00 318.89 2676.56
   03:48:19.986.20-May-2020 5064.01  476.65 68.95 8.00 319.09 2676.56
   03:48:20.186.20-May-2020 5064.01  476.65 68.95 8.00 319.29 2676.56
   03:48:20.386.20-May-2020 5064.01  477.27 68.95 8.00 319.49 2676.56
   03:48:20.586.20-May-2020 5064.01  477.78 68.95 8.00 319.69 2676.56
   03:48:20.786.20-May-2020 5064.01  477.89 68.95 8.00 319.89 2676.56
   03:48:20.987.20-May-2020 5064.01  478.20 68.95 8.00 320.09 2676.56
   03:48:21.187.20-May-2020 5064.01  478.20 68.95 8.00 320.29 2676.56
   03:48:21.387.20-May-2020 5064.01  478.98 68.95 8.00 320.49 2676.56
   03:48:21.587.20-May-2020 5064.01  479.36 68.95 8.00 320.69 2676.56
   03:48:21.787.20-May-2020 5064.01  479.71 68.95 8.00 320.89 2676.56
   03:48:21.987.20-May-2020 5064.01  479.81 68.95 8.00 321.09 2676.56
   03:48:22.187.20-May-2020 5064.01  480.25 68.95 8.00 321.29 2676.56
   03:48:22.387.20-May-2020 5064.01  480.54 68.95 8.00 321.49 2676.56
   03:48:22.587.20-May-2020 5064.01  480.96 68.95 8.00 321.69 2676.56
   03:48:22.787.20-May-2020 5064.01  481.36 68.95 8.00 321.89 2676.56
