~Version Information
 VERS.                  2.0:   CWLS log ASCII Standard -VERSION 2.0
 WRAP.                   NO:   One line per depth step
~Well Information Block
#MNEM.UNIT     VALUE/NAME     DESCRIPTION
#---------     -----------    ---------------------------
 STRT.S             21:41:59 19-May-20: START TIME 21:41:59 19-May-20
 STOP.S             21:48:44 19-May-20: STOP TIME  21:48:44 19-May-20
 STEP.S                   0.00: STEP TIME
 NULL.                 -999.25: NULL VALUE
 MDS .        Operator Entered:  MAG DATA SOURCE
 PDAT.          Mean Sea Level:  PERMANENT DATUM
 UNIT.                     N/A:  LOGGING EQUIPMENT ID
 DCON.         Sperry Drilling:  DIRECTNL CONTR
 DOE .                     N/A:  DOE NUMBER
 RIG .              East Azeri:  RIG NAME
 JOBN.        AZ-XX-0905856059:  JOB TICKET NUMB
 WELL.                     D36:  WELL NAME
 MWDS.                    Baku:  MWD SHOP
 SRVC.     Turan Drilling & Engineering:  CONTRACTOR
 FLD .                     ACG:  FIELD NAME
 CTRY.              Azerbaijan:  COUNTRY NAME
 PROV.                    Baku:  PROVINCE
 STAT.                    Baku:  STATE NAME
 REGN.                   EESSA:  REGION
 BASE.              Azerbaijan:  LOGGING EQUIPMENT BASE LOCATION
 UWI .                     N/A:  UNIQUE WELL IDENTIFIER
 API .                     N/A:  API NUMBER
 COMP.     BP Exploration (Caspian Sea) Ltd.:  COMPANY
 WTYP.                Deviated:  WELL TYPE
 SON .        AZ-XX-0905856059:  JOB NUMBER
 FTOP.          Formation Tops:  FORM TOPS DESC
 ILTD.               Lithology:  INTERP LTH DESC
 SVYD.                  Survey:  SURVEY DESC
 DMOD.             Drill Model:  DRILL MOD DESC
 HPTY.       Minimum Curvature:  HOLE POS TYPE
 NREF.                    Grid:  NORTH REFERENCE
 SPUD.               25-Feb-20:  SPUD DATE
 DATE.      08.55.28 01-May-20:  END TIME
 STIM.      08.55.28 25-Feb-20:  START TIME
 DMF .             Drill Floor:  DRILL MEAS FROM
 DFST.                        :  DIST FSL TEXT
 DFWT.                        :  DIST FWL TEXT
 CNTY.                        :  COUNTY
 LOC .                        :  LOCATION
 LMF .             Drill Floor:  LOG MEASURED FROM
 VSNS.m                   6.09:  VERT SEC N/S
 VSEW.m                 -10.79:  VERT SEC E/W
 AGAP.m                  43.60:  AIR GAP
 DEP .m                 388.24:  DEPTH
 APD .m                  43.60:  DEPTH ABOVE PD
 WDMS.m                 151.80:  WD ELEV
 EGL .m                   0.00:  GROUND ELEVATION
 EPD .m                   0.00:  ELEVATION
 AZTC.deg                 6.12:  AZM TOTAL CORR
 GRDC.deg                 0.30:  GRID CORRECTION
 MDEC.deg                 6.42:  MAGNETIC DECL
 MDIP.deg                59.42:  MAGNETIC DIP
 MFLD.nT              50256.00:  MAGNETIC FIELD
 GVFD.g                   1.00:  GRAVITY FIELD
 VSDR.deg               159.57:  VERT SEC DIRECT
 TDD .m                5000.01:  TOTAL DEPTH (DRILLER)
 SDEP.m                 397.00:  START DEPTH
 DFSL.m                   0.00:  DISTANCE FSL
 DFWL.m                   0.00:  DISTANCE FWL
 UTMY.m             4431880.20:  UTM Y
 UTMX.m              538763.98:  UTM X
 WHEW.m                 -10.79:  WELL HEAD E/W
 WHNS.m                   6.09:  WELL HEAD N/S
 LONG.deg                51.45:  LONGITUDE
 LATI.deg                40.02:  LATITUDE
 TVDS.m                  43.60:  TVDSS CORRECTN
 EKB .m                  43.60:  KB ELEVATION
 EDF .m                  43.60:  DF ELEVATION
 MAGU.                 1847640:  MAGUTM CHECKSUM
 VSC .                       0:  VS TO CLOSURE
~Parameter Information Block
#MNEM.UNIT       Value        Description
#---------     -----------    ---------------------------
 AV  .mps                 1.30:  Ann Velocity 
 AVMX.mps                 1.90:  Max Ann Veloc 
 AZIF.deg               115.68:  Azm, Final 
 BHAT.                   Other:  BHA Type 
 BROT.°/30m               0.74:  Build Rotating 
 BS  .in                  8.50:  Bit Size 
 BTPL.psig              430.00:  Bit Press Loss 
 CABU.                      No:  Customer Abuse 
 COMM.                     „äS:  Run Comments 1 
 TCS .hr                 51.31:  Time Ciculation Ended 
 CV  .mps                 2.52:  Crit Velocity 
 CVMX.mps                 2.62:  Max Crit Veloc 
 DD1 .          Teymur Aghayev:  Direct Drillr 1 
 DDSV.                   Other:  DD Service 
 DEFF.%                 100.00:  % Det Eff 
 DLRX.°/30m               1.62:  Dogleg Rot Max 
 DLSO.°/30m               0.74:  Dogleg Oriented 
 DLSX.°/30m               1.62:  Dogleg Str Max 
 DRET.      04.30.56 18-May-20:  Drill End Time 
 DRST.      04.30.56 18-May-20:  Drill Start Tim 
 DTIM.hr                  0.00:  Time Drilling 
 EDEP.m                5337.01:  End Depth 
 ENG1.      Artemiy Matviyanov:  Engineer 1 
 ENG2.      Bakhtiyar Jabbarli:  Engineer 2 
 ENG3.           Emil Huseynov:  Engineer 3 
 ETIM.      18.40.00 22-May-20:  End Time 
 FLOI.gpm               550.00:  Flow In 
 FLON.gpm               350.00:  Flow In Min 
 FLOS.cptm                0.00:  Fluid Loss 
 FLOX.gpm               600.00:  Flow In Max 
 HFLO.                      No:  High Flow 
 HPRE.                      No:  High Pressure 
 HTEM.                      No:  High Temp 
 HYDO.m                   1.80:  Hydro Offset 
 IFIN.deg                67.01:  Inc, Final 
 IMAX.deg                67.49:  Inc Max 
 IMIN.deg                66.50:  Inc Min 
 IMND.m                5144.79:  Inc Min Depth 
 IMXD.m                5116.12:  Inc Max Depth 
 JARR.                      No:  Jarring 
 LETM.      17.55.56 20-May-20:  Log End Time 
 LOST.hr                     0:  Lost Rig Time 
 LSTM.      04.30.56 18-May-20:  Log Start Time 
 MDCL.ppm            193153.00:  Mud Chlorides 
 MDES.     Inversion Oil/Synthetic:  Mud Desc 
 DFD .sg                  1.40:  Mud Density 
 MDMN.sg                  1.40:  Dens Mud Min 
 MDMX.sg                  1.41:  Dens Mud Max 
 MOIL.                      68:  Run Mud Oil % 
 MOWR.                   68:32:  Run Mud OWR 
 MSND.                     0.2:  Run Mud Sand % 
 MSOL.                    18.8:  Run Mud Solids% 
 DFV .spqt               80.00:  Mud Viscosity 
 MWOD.in                  6.75:  MWD Tool OD 
 MWSI.                      No:  Serv Intrp, MWD 
 OTIM.hr                104.84:  Time Operating 
 PMAX.psia            10690.93:  Press Op, Max 
 PV  .cP                 26.00:  Mud PV 
 RUN .                     900:  Run Number 
 ROPA.m/hr                0.00:  ROP Avg 
 ROPN.m/hr                0.00:  ROP Min 
 ROPX.m/hr                0.00:  ROP Max 
 RPMA.rpm               140.00:  RPM Surface Avg 
 RPMN.rpm                70.00:  RPM Surface Min 
 RPMX.rpm               140.00:  RPM Surface Max 
 RRUN.                    0900:  Rig Run Number 
 RTIM.hr                 36.00:  Time Reaming 
 SAZI.deg               115.72:  Azm, Start 
 SDEP.m                5337.01:  Start Depth 
 SIDD.                      No:  Serv Intrp, DD 
 SINC.deg                66.92:  Inc, Start 
 SPPA.psig             4400.00:  SPP Avg 
 SPPN.psig             1135.00:  SPP Min 
 SPPX.psig             4581.00:  SPP Max 
 STIM.      04.30.56 18-May-20:  Start Time 
 SVCS.                     MWD:  Services 
 SVER.                    9.20:  Sperry Version 
 TDAT.m                5337.01:  Tot Depth Attmp 
 TDDF.                      No:  Trip for DD 
 TFF .                      No:  Trip for Fail 
 TQAA.f-kp               23.00:  Torque Abs Avg 
 TQAN.f-kp               18.00:  Torque Abs Min 
 TQAX.f-kp               25.00:  Torque Abs Max 
 TRRT.°/30m               0.74:  Turn Rotating 
 MRT .                    HCIM:  Maximum Recorded Temperature 
 TTMX.degC               76.47:  Max Tool Temp 
 WBMN.klb                 0.00:  WOB Min 
 WITN.             Anar Khalil:  Customer Rep 
 WITN.      Kamran Keberlinski:  Customer Rep 2 
 WOBA.klb                 0.00:  WOB Avg 
 WOBX.klb                 0.00:  WOB Max 
 YP  .lhf2               27.00:  Yield Point 
~Curve Information Block
#MNEM.UNIT                 API CODE     Curve Description
#---------               -----------    ---------------------------
 TIME.HHMMSS            00 000 000 000:  GT Time & Date
 GTDEPTH.m              00 000 000 000:  GT Depth
 GTPQH.psia             00 000 000 000:  GT HR Quartz Pressure
 GTTQ.degC              00 000 000 000:  GT Quartz Temperature
 GTTN.NONE              00 000 000 000:  GT Test Number
 GTET.sec               00 000 000 000:  GT Elapsed Test Time
 GTTVD.m                00 000 000 000:  GT True Vertical Depth
#Other Information
#
#WARRANTY: Halliburton will use its best efforts to furnish customers with 
#accurate information and interpretations that are part of, and incident to, the services 
#provided.  However, Halliburton cannot and does not warrant the accuracy 
#or correctness of such information and interpretations.  Under no circumstances should any 
#such information or interpretation be relied upon as the sole basis for any drilling, 
#completion, production, or financial decision or any procedure involving any risk to the 
#safety of any drilling venture, drilling rig or its crew or any other third party.  The 
#Customer has full responsibility for all drilling, completion and production operation.  
#Halliburton makes no representations or warranties, either expressed or 
#implied, including, but not limited to, the implied warranties of merchantability or fitness 
#for a particular purpose, with respect to the services rendered.  In no event will 
#Halliburton be liable for failure to obtain any particular results or for 
#any damages, including, but not limited to, indirect, special or consequential damages, 
#resulting from the use of any information or interpretation provided by Halliburton.
#
~A           TIME           GTDEPTH  GTPQH  GTTQ  GTTN  GTET   GTTVD  
# ...
   21:48:30.464.19-May-2020 5137.01 6458.53 67.57 3.00 391.10 2705.05
   21:48:30.664.19-May-2020 5137.01 6458.53 67.57 3.00 391.30 2705.05
   21:48:30.864.19-May-2020 5137.01 6463.15 67.57 3.00 391.50 2705.05
   21:48:31.064.19-May-2020 5137.01 6455.50 67.57 3.00 391.70 2705.05
   21:48:31.264.19-May-2020 5137.01 6459.25 67.57 3.00 391.90 2705.05
   21:48:31.464.19-May-2020 5137.01 6458.09 67.57 3.00 392.10 2705.05
   21:48:31.664.19-May-2020 5137.01 6458.09 67.57 3.00 392.30 2705.05
   21:48:31.864.19-May-2020 5137.01 6457.35 67.57 3.00 392.50 2705.05
   21:48:32.064.19-May-2020 5137.01 6460.12 67.57 3.00 392.70 2705.05
   21:48:32.264.19-May-2020 5137.01 6456.55 67.57 3.00 392.90 2705.05
   21:48:32.464.19-May-2020 5137.01 6459.88 67.57 3.00 393.10 2705.05
   21:48:32.664.19-May-2020 5137.01 6459.88 67.57 3.00 393.30 2705.05
   21:48:32.864.19-May-2020 5137.01 6457.62 67.57 3.00 393.50 2705.05
   21:48:33.064.19-May-2020 5137.01 6457.07 67.57 3.00 393.70 2705.05
   21:48:33.264.19-May-2020 5137.01 6456.28 67.56 3.00 393.90 2705.05
   21:48:33.464.19-May-2020 5137.01 6456.55 67.56 3.00 394.10 2705.05
   21:48:33.664.19-May-2020 5137.01 6456.55 67.56 3.00 394.30 2705.05
   21:48:33.864.19-May-2020 5137.01 6455.94 67.56 3.00 394.50 2705.05
   21:48:34.064.19-May-2020 5137.01 6456.26 67.56 3.00 394.70 2705.05
   21:48:34.264.19-May-2020 5137.01 6455.33 67.56 3.00 394.90 2705.05
   21:48:34.465.19-May-2020 5137.01 6455.65 67.56 3.00 395.10 2705.05
   21:48:34.665.19-May-2020 5137.01 6455.65 67.56 3.00 395.30 2705.05
   21:48:34.865.19-May-2020 5137.01 6455.27 67.56 3.00 395.50 2705.05
   21:48:35.065.19-May-2020 5137.01 6458.71 67.56 3.00 395.70 2705.05
   21:48:35.265.19-May-2020 5137.01 6455.13 67.56 3.00 395.90 2705.05
   21:48:35.465.19-May-2020 5137.01 6460.32 67.56 3.00 396.10 2705.05
   21:48:35.665.19-May-2020 5137.01 6460.32 67.56 3.00 396.30 2705.05
   21:48:35.865.19-May-2020 5137.01 6457.70 67.56 3.00 396.50 2705.05
   21:48:36.065.19-May-2020 5137.01 6458.18 67.56 3.00 396.70 2705.05
   21:48:36.265.19-May-2020 5137.01 6456.69 67.56 3.00 396.90 2705.05
   21:48:36.465.19-May-2020 5137.01 6461.60 67.56 3.00 397.10 2705.05
   21:48:36.665.19-May-2020 5137.01 6461.60 67.56 3.00 397.30 2705.05
   21:48:36.865.19-May-2020 5137.01 6458.80 67.56 3.00 397.50 2705.05
   21:48:37.065.19-May-2020 5137.01 6459.46 67.56 3.00 397.70 2705.05
   21:48:37.265.19-May-2020 5137.01 6458.53 67.56 3.00 397.90 2705.05
   21:48:37.465.19-May-2020 5137.01 6461.35 67.56 3.00 398.10 2705.05
   21:48:37.665.19-May-2020 5137.01 6461.35 67.56 3.00 398.30 2705.05
   21:48:37.865.19-May-2020 5137.01 6459.36 67.56 3.00 398.50 2705.05
   21:48:38.065.19-May-2020 5137.01 6461.74 67.56 3.00 398.70 2705.05
   21:48:38.265.19-May-2020 5137.01 6458.95 67.56 3.00 398.90 2705.05
   21:48:38.465.19-May-2020 5137.01 6459.26 67.56 3.00 399.10 2705.05
   21:48:38.666.19-May-2020 5137.01 6459.26 67.56 3.00 399.30 2705.05
   21:48:38.866.19-May-2020 5137.01 6458.68 67.56 3.00 399.50 2705.05
   21:48:39.066.19-May-2020 5137.01 6458.16 67.56 3.00 399.70 2705.05
   21:48:39.266.19-May-2020 5137.01 6456.99 67.56 3.00 399.90 2705.05
   21:48:39.466.19-May-2020 5137.01 6457.63 67.56 3.00 400.10 2705.05
   21:48:39.666.19-May-2020 5137.01 6457.63 67.56 3.00 400.30 2705.05
   21:48:39.866.19-May-2020 5137.01 6456.96 67.56 3.00 400.50 2705.05
   21:48:40.066.19-May-2020 5137.01 6456.94 67.56 3.00 400.70 2705.05
   21:48:40.266.19-May-2020 5137.01 6456.21 67.56 3.00 400.90 2705.05
   21:48:40.466.19-May-2020 5137.01 6457.12 67.56 3.00 401.10 2705.05
   21:48:40.666.19-May-2020 5137.01 6457.12 67.56 3.00 401.30 2705.05
   21:48:40.866.19-May-2020 5137.01 6456.15 67.56 3.00 401.50 2705.05
   21:48:41.066.19-May-2020 5137.01 6458.25 67.56 3.00 401.70 2705.05
   21:48:41.266.19-May-2020 5137.01 6456.13 67.56 3.00 401.90 2705.05
   21:48:41.466.19-May-2020 5137.01 6457.08 67.56 3.00 402.10 2705.05
   21:48:41.666.19-May-2020 5137.01 6457.08 67.56 3.00 402.30 2705.05
   21:48:41.866.19-May-2020 5137.01 6455.73 67.56 3.00 402.50 2705.05
   21:48:42.066.19-May-2020 5137.01 6461.50 67.56 3.00 402.70 2705.05
   21:48:42.266.19-May-2020 5137.01 6453.93 67.56 3.00 402.90 2705.05
   21:48:42.466.19-May-2020 5137.01 6458.95 67.56 3.00 403.10 2705.05
   21:48:42.667.19-May-2020 5137.01 6458.95 67.56 3.00 403.30 2705.05
   21:48:42.867.19-May-2020 5137.01 6457.51 67.56 3.00 403.50 2705.05
   21:48:43.067.19-May-2020 5137.01 6459.33 67.56 3.00 403.70 2705.05
   21:48:43.267.19-May-2020 5137.01 6456.59 67.55 3.00 403.90 2705.05
   21:48:43.467.19-May-2020 5137.01 6459.28 67.55 3.00 404.10 2705.05
   21:48:43.667.19-May-2020 5137.01 6459.28 67.55 3.00 404.30 2705.05
   21:48:43.867.19-May-2020 5137.01 6460.83 67.55 3.00 404.50 2705.05
   21:48:44.067.19-May-2020 5137.01 6457.68 67.55 3.00 404.70 2705.05
   21:48:44.267.19-May-2020 5137.01 6458.32 67.55 3.00 404.90 2705.05
