~Version Information
 VERS.                  2.0:   CWLS log ASCII Standard -VERSION 2.0
 WRAP.                   NO:   One line per depth step
~Well Information Block
#MNEM.UNIT     VALUE/NAME     DESCRIPTION
#---------     -----------    ---------------------------
 STRT.S             03:43:00 20-May-20: START TIME 03:43:00 20-May-20
 STOP.S             03:53:08 20-May-20: STOP TIME  03:53:08 20-May-20
 STEP.S                   0.00: STEP TIME
 NULL.                 -999.25: NULL VALUE
 MDS .        Operator Entered:  MAG DATA SOURCE
 PDAT.          Mean Sea Level:  PERMANENT DATUM
 UNIT.                     N/A:  LOGGING EQUIPMENT ID
 DCON.         Sperry Drilling:  DIRECTNL CONTR
 DOE .                     N/A:  DOE NUMBER
 RIG .              East Azeri:  RIG NAME
 JOBN.        AZ-XX-0905856059:  JOB TICKET NUMB
 WELL.                     D36:  WELL NAME
 MWDS.                    Baku:  MWD SHOP
 SRVC.     Turan Drilling & Engineering:  CONTRACTOR
 FLD .                     ACG:  FIELD NAME
 CTRY.              Azerbaijan:  COUNTRY NAME
 PROV.                    Baku:  PROVINCE
 STAT.                    Baku:  STATE NAME
 REGN.                   EESSA:  REGION
 BASE.              Azerbaijan:  LOGGING EQUIPMENT BASE LOCATION
 UWI .                     N/A:  UNIQUE WELL IDENTIFIER
 API .                     N/A:  API NUMBER
 COMP.     BP Exploration (Caspian Sea) Ltd.:  COMPANY
 WTYP.                Deviated:  WELL TYPE
 SON .        AZ-XX-0905856059:  JOB NUMBER
 FTOP.          Formation Tops:  FORM TOPS DESC
 ILTD.               Lithology:  INTERP LTH DESC
 SVYD.                  Survey:  SURVEY DESC
 DMOD.             Drill Model:  DRILL MOD DESC
 HPTY.       Minimum Curvature:  HOLE POS TYPE
 NREF.                    Grid:  NORTH REFERENCE
 SPUD.               25-Feb-20:  SPUD DATE
 DATE.      08.55.28 01-May-20:  END TIME
 STIM.      08.55.28 25-Feb-20:  START TIME
 DMF .             Drill Floor:  DRILL MEAS FROM
 DFST.                        :  DIST FSL TEXT
 DFWT.                        :  DIST FWL TEXT
 CNTY.                        :  COUNTY
 LOC .                        :  LOCATION
 LMF .             Drill Floor:  LOG MEASURED FROM
 VSNS.m                   6.09:  VERT SEC N/S
 VSEW.m                 -10.79:  VERT SEC E/W
 AGAP.m                  43.60:  AIR GAP
 DEP .m                 388.24:  DEPTH
 APD .m                  43.60:  DEPTH ABOVE PD
 WDMS.m                 151.80:  WD ELEV
 EGL .m                   0.00:  GROUND ELEVATION
 EPD .m                   0.00:  ELEVATION
 AZTC.deg                 6.12:  AZM TOTAL CORR
 GRDC.deg                 0.30:  GRID CORRECTION
 MDEC.deg                 6.42:  MAGNETIC DECL
 MDIP.deg                59.42:  MAGNETIC DIP
 MFLD.nT              50256.00:  MAGNETIC FIELD
 GVFD.g                   1.00:  GRAVITY FIELD
 VSDR.deg               159.57:  VERT SEC DIRECT
 TDD .m                5000.01:  TOTAL DEPTH (DRILLER)
 SDEP.m                 397.00:  START DEPTH
 DFSL.m                   0.00:  DISTANCE FSL
 DFWL.m                   0.00:  DISTANCE FWL
 UTMY.m             4431880.20:  UTM Y
 UTMX.m              538763.98:  UTM X
 WHEW.m                 -10.79:  WELL HEAD E/W
 WHNS.m                   6.09:  WELL HEAD N/S
 LONG.deg                51.45:  LONGITUDE
 LATI.deg                40.02:  LATITUDE
 TVDS.m                  43.60:  TVDSS CORRECTN
 EKB .m                  43.60:  KB ELEVATION
 EDF .m                  43.60:  DF ELEVATION
 MAGU.                 1847640:  MAGUTM CHECKSUM
 VSC .                       0:  VS TO CLOSURE
~Parameter Information Block
#MNEM.UNIT       Value        Description
#---------     -----------    ---------------------------
 AV  .mps                 1.30:  Ann Velocity 
 AVMX.mps                 1.90:  Max Ann Veloc 
 AZIF.deg               115.68:  Azm, Final 
 BHAT.                   Other:  BHA Type 
 BROT.°/30m               0.74:  Build Rotating 
 BS  .in                  8.50:  Bit Size 
 BTPL.psig              430.00:  Bit Press Loss 
 CABU.                      No:  Customer Abuse 
 COMM.                     ÌÍk:  Run Comments 1 
 TCS .hr                 51.31:  Time Ciculation Ended 
 CV  .mps                 2.52:  Crit Velocity 
 CVMX.mps                 2.62:  Max Crit Veloc 
 DD1 .          Teymur Aghayev:  Direct Drillr 1 
 DDSV.                   Other:  DD Service 
 DEFF.%                 100.00:  % Det Eff 
 DLRX.°/30m               1.62:  Dogleg Rot Max 
 DLSO.°/30m               0.74:  Dogleg Oriented 
 DLSX.°/30m               1.62:  Dogleg Str Max 
 DRET.      04.30.56 18-May-20:  Drill End Time 
 DRST.      04.30.56 18-May-20:  Drill Start Tim 
 DTIM.hr                  0.00:  Time Drilling 
 EDEP.m                5337.01:  End Depth 
 ENG1.      Artemiy Matviyanov:  Engineer 1 
 ENG2.      Bakhtiyar Jabbarli:  Engineer 2 
 ENG3.           Emil Huseynov:  Engineer 3 
 ETIM.      18.40.00 22-May-20:  End Time 
 FLOI.gpm               550.00:  Flow In 
 FLON.gpm               350.00:  Flow In Min 
 FLOS.cptm                0.00:  Fluid Loss 
 FLOX.gpm               600.00:  Flow In Max 
 HFLO.                      No:  High Flow 
 HPRE.                      No:  High Pressure 
 HTEM.                      No:  High Temp 
 HYDO.m                   1.80:  Hydro Offset 
 IFIN.deg                67.01:  Inc, Final 
 IMAX.deg                67.49:  Inc Max 
 IMIN.deg                66.50:  Inc Min 
 IMND.m                5144.79:  Inc Min Depth 
 IMXD.m                5116.12:  Inc Max Depth 
 JARR.                      No:  Jarring 
 LETM.      17.55.56 20-May-20:  Log End Time 
 LOST.hr                     0:  Lost Rig Time 
 LSTM.      04.30.56 18-May-20:  Log Start Time 
 MDCL.ppm            193153.00:  Mud Chlorides 
 MDES.     Inversion Oil/Synthetic:  Mud Desc 
 DFD .sg                  1.40:  Mud Density 
 MDMN.sg                  1.40:  Dens Mud Min 
 MDMX.sg                  1.41:  Dens Mud Max 
 MOIL.                      68:  Run Mud Oil % 
 MOWR.                   68:32:  Run Mud OWR 
 MSND.                     0.2:  Run Mud Sand % 
 MSOL.                    18.8:  Run Mud Solids% 
 DFV .spqt               80.00:  Mud Viscosity 
 MWOD.in                  6.75:  MWD Tool OD 
 MWSI.                      No:  Serv Intrp, MWD 
 OTIM.hr                104.84:  Time Operating 
 PMAX.psia            10690.93:  Press Op, Max 
 PV  .cP                 26.00:  Mud PV 
 RUN .                     900:  Run Number 
 ROPA.m/hr                0.00:  ROP Avg 
 ROPN.m/hr                0.00:  ROP Min 
 ROPX.m/hr                0.00:  ROP Max 
 RPMA.rpm               140.00:  RPM Surface Avg 
 RPMN.rpm                70.00:  RPM Surface Min 
 RPMX.rpm               140.00:  RPM Surface Max 
 RRUN.                    0900:  Rig Run Number 
 RTIM.hr                 36.00:  Time Reaming 
 SAZI.deg               115.72:  Azm, Start 
 SDEP.m                5337.01:  Start Depth 
 SIDD.                      No:  Serv Intrp, DD 
 SINC.deg                66.92:  Inc, Start 
 SPPA.psig             4400.00:  SPP Avg 
 SPPN.psig             1135.00:  SPP Min 
 SPPX.psig             4581.00:  SPP Max 
 STIM.      04.30.56 18-May-20:  Start Time 
 SVCS.                     MWD:  Services 
 SVER.                    9.20:  Sperry Version 
 TDAT.m                5337.01:  Tot Depth Attmp 
 TDDF.                      No:  Trip for DD 
 TFF .                      No:  Trip for Fail 
 TQAA.f-kp               23.00:  Torque Abs Avg 
 TQAN.f-kp               18.00:  Torque Abs Min 
 TQAX.f-kp               25.00:  Torque Abs Max 
 TRRT.°/30m               0.74:  Turn Rotating 
 MRT .                    HCIM:  Maximum Recorded Temperature 
 TTMX.degC               76.47:  Max Tool Temp 
 WBMN.klb                 0.00:  WOB Min 
 WITN.             Anar Khalil:  Customer Rep 
 WITN.      Kamran Keberlinski:  Customer Rep 2 
 WOBA.klb                 0.00:  WOB Avg 
 WOBX.klb                 0.00:  WOB Max 
 YP  .lhf2               27.00:  Yield Point 
~Curve Information Block
#MNEM.UNIT                 API CODE     Curve Description
#---------               -----------    ---------------------------
 TIME.HHMMSS            00 000 000 000:  GT Time & Date
 GTDEPTH.m              00 000 000 000:  GT Depth
 GTPQH.psia             00 000 000 000:  GT HR Quartz Pressure
 GTTQ.degC              00 000 000 000:  GT Quartz Temperature
 GTTN.NONE              00 000 000 000:  GT Test Number
 GTET.sec               00 000 000 000:  GT Elapsed Test Time
 GTTVD.m                00 000 000 000:  GT True Vertical Depth
#Other Information
#
#WARRANTY: Halliburton will use its best efforts to furnish customers with 
#accurate information and interpretations that are part of, and incident to, the services 
#provided.  However, Halliburton cannot and does not warrant the accuracy 
#or correctness of such information and interpretations.  Under no circumstances should any 
#such information or interpretation be relied upon as the sole basis for any drilling, 
#completion, production, or financial decision or any procedure involving any risk to the 
#safety of any drilling venture, drilling rig or its crew or any other third party.  The 
#Customer has full responsibility for all drilling, completion and production operation.  
#Halliburton makes no representations or warranties, either expressed or 
#implied, including, but not limited to, the implied warranties of merchantability or fitness 
#for a particular purpose, with respect to the services rendered.  In no event will 
#Halliburton be liable for failure to obtain any particular results or for 
#any damages, including, but not limited to, indirect, special or consequential damages, 
#resulting from the use of any information or interpretation provided by Halliburton.
#
~A           TIME           GTDEPTH  GTPQH  GTTQ  GTTN  GTET   GTTVD  
# ...
   03:50:41.026.20-May-2020 5064.01  408.09 68.93 8.00 460.13 2676.56
   03:50:41.226.20-May-2020 5064.01  408.46 68.93 8.00 460.33 2676.56
   03:50:41.426.20-May-2020 5064.01  408.87 68.93 8.00 460.53 2676.56
   03:50:41.626.20-May-2020 5064.01  409.23 68.93 8.00 460.73 2676.56
   03:50:41.826.20-May-2020 5064.01  409.31 68.93 8.00 460.93 2676.56
   03:50:42.026.20-May-2020 5064.01  409.71 68.93 8.00 461.13 2676.56
   03:50:42.226.20-May-2020 5064.01  410.03 68.93 8.00 461.33 2676.56
   03:50:42.427.20-May-2020 5064.01  410.43 68.93 8.00 461.53 2676.56
   03:50:42.627.20-May-2020 5064.01  410.46 68.93 8.00 461.73 2676.56
   03:50:42.827.20-May-2020 5064.01  410.98 68.93 8.00 461.93 2676.56
   03:50:43.027.20-May-2020 5064.01  411.21 68.93 8.00 462.13 2676.56
   03:50:43.227.20-May-2020 5064.01  411.63 68.93 8.00 462.33 2676.56
   03:50:43.427.20-May-2020 5064.01  411.97 68.93 8.00 462.53 2676.56
   03:50:43.627.20-May-2020 5064.01  412.35 68.93 8.00 462.73 2676.56
   03:50:43.827.20-May-2020 5064.01  412.20 68.93 8.00 462.93 2676.56
   03:50:44.027.20-May-2020 5064.01  412.78 68.93 8.00 463.13 2676.56
   03:50:44.227.20-May-2020 5064.01  413.15 68.93 8.00 463.33 2676.56
   03:50:44.427.20-May-2020 5064.01  413.50 68.93 8.00 463.53 2676.56
   03:50:44.627.20-May-2020 5064.01  414.01 68.93 8.00 463.73 2676.56
   03:50:44.827.20-May-2020 5064.01  414.33 68.93 8.00 463.93 2676.56
   03:50:45.027.20-May-2020 5064.01  414.66 68.93 8.00 464.13 2676.56
   03:50:45.227.20-May-2020 5064.01  415.07 68.93 8.00 464.33 2676.56
   03:50:45.427.20-May-2020 5064.01  415.45 68.93 8.00 464.53 2676.56
   03:50:45.627.20-May-2020 5064.01  415.88 68.93 8.00 464.73 2676.56
   03:50:45.827.20-May-2020 5064.01  416.26 68.93 8.00 464.93 2676.56
   03:50:46.028.20-May-2020 5064.01  416.65 68.93 8.00 465.13 2676.56
   03:50:46.228.20-May-2020 5064.01  417.00 68.93 8.00 465.33 2676.56
   03:50:46.428.20-May-2020 5064.01  417.43 68.93 8.00 465.53 2676.56
   03:50:46.628.20-May-2020 5064.01  417.63 68.93 8.00 465.73 2676.56
   03:50:46.828.20-May-2020 5064.01  417.97 68.93 8.00 465.93 2676.56
   03:50:47.028.20-May-2020 5064.01  418.34 68.93 8.00 466.13 2676.56
   03:50:47.228.20-May-2020 5064.01  418.73 68.93 8.00 466.33 2676.56
   03:50:47.428.20-May-2020 5064.01  418.74 68.93 8.00 466.53 2676.56
   03:50:47.628.20-May-2020 5064.01  419.36 68.93 8.00 466.73 2676.56
   03:50:47.828.20-May-2020 5064.01  419.55 68.93 8.00 466.93 2676.56
   03:50:48.028.20-May-2020 5064.01  419.96 68.93 8.00 467.13 2676.56
   03:50:48.228.20-May-2020 5064.01  420.32 68.93 8.00 467.33 2676.56
   03:50:48.428.20-May-2020 5064.01  420.48 68.93 8.00 467.53 2676.56
   03:50:48.628.20-May-2020 5064.01  420.80 68.93 8.00 467.73 2676.56
   03:50:48.828.20-May-2020 5064.01  421.16 68.93 8.00 467.93 2676.56
   03:50:49.028.20-May-2020 5064.01  421.53 68.93 8.00 468.13 2676.56
   03:50:49.228.20-May-2020 5064.01  421.53 68.93 8.00 468.33 2676.56
   03:50:49.429.20-May-2020 5064.01  421.91 68.93 8.00 468.53 2676.56
   03:50:49.629.20-May-2020 5064.01  422.45 68.93 8.00 468.73 2676.56
   03:50:49.829.20-May-2020 5064.01  422.64 68.93 8.00 468.93 2676.56
   03:50:50.029.20-May-2020 5064.01  423.04 68.93 8.00 469.13 2676.56
   03:50:50.229.20-May-2020 5064.01  423.40 68.93 8.00 469.33 2676.56
   03:50:50.429.20-May-2020 5064.01  423.79 68.93 8.00 469.53 2676.56
   03:50:50.629.20-May-2020 5064.01  424.17 68.93 8.00 469.73 2676.56
   03:50:50.829.20-May-2020 5064.01  424.14 68.93 8.00 469.93 2676.56
   03:50:51.029.20-May-2020 5064.01  424.67 68.93 8.00 470.13 2676.56
   03:50:51.229.20-May-2020 5064.01  424.67 68.93 8.00 470.33 2676.56
   03:50:51.429.20-May-2020 5064.01  425.51 68.93 8.00 470.53 2676.56
   03:50:51.629.20-May-2020 5064.01  425.89 68.93 8.00 470.73 2676.56
   03:50:51.829.20-May-2020 5064.01  426.15 68.93 8.00 470.93 2676.56
   03:50:52.029.20-May-2020 5064.01  426.57 68.93 8.00 471.13 2676.56
   03:50:52.229.20-May-2020 5064.01  426.57 68.93 8.00 471.33 2676.56
   03:50:52.429.20-May-2020 5064.01  427.41 68.93 8.00 471.53 2676.56
   03:50:52.629.20-May-2020 5064.01  427.77 68.93 8.00 471.73 2676.56
   03:50:52.829.20-May-2020 5064.01  428.13 68.93 8.00 471.93 2676.56
   03:50:53.030.20-May-2020 5064.01  428.54 68.93 8.00 472.13 2676.56
   03:50:53.230.20-May-2020 5064.01  428.95 68.93 8.00 472.33 2676.56
   03:50:53.430.20-May-2020 5064.01  429.33 68.93 8.00 472.53 2676.56
   03:50:53.630.20-May-2020 5064.01  429.71 68.93 8.00 472.73 2676.56
   03:50:53.830.20-May-2020 5064.01  429.68 68.93 8.00 472.93 2676.56
   03:50:54.030.20-May-2020 5064.01  430.32 68.93 8.00 473.13 2676.56
   03:50:54.230.20-May-2020 5064.01  430.70 68.93 8.00 473.33 2676.56
   03:50:54.430.20-May-2020 5064.01  430.78 68.93 8.00 473.53 2676.56
   03:50:54.630.20-May-2020 5064.01  431.22 68.93 8.00 473.73 2676.56
   03:50:54.830.20-May-2020 5064.01  431.49 68.93 8.00 473.93 2676.56
   03:50:55.030.20-May-2020 5064.01  431.91 68.93 8.00 474.13 2676.56
   03:50:55.230.20-May-2020 5064.01  431.91 68.93 8.00 474.33 2676.56
   03:50:55.430.20-May-2020 5064.01  432.64 68.93 8.00 474.53 2676.56
   03:50:55.630.20-May-2020 5064.01  432.73 68.93 8.00 474.73 2676.56
   03:50:55.830.20-May-2020 5064.01  433.09 68.93 8.00 474.93 2676.56
   03:50:56.030.20-May-2020 5064.01  433.45 68.93 8.00 475.13 2676.56
   03:50:56.230.20-May-2020 5064.01  433.45 68.93 8.00 475.33 2676.56
   03:50:56.430.20-May-2020 5064.01  433.79 68.93 8.00 475.53 2676.56
   03:50:56.631.20-May-2020 5064.01  434.43 68.93 8.00 475.73 2676.56
   03:50:56.831.20-May-2020 5064.01  434.68 68.93 8.00 475.93 2676.56
   03:50:57.031.20-May-2020 5064.01  435.06 68.93 8.00 476.13 2676.56
   03:50:57.231.20-May-2020 5064.01  435.04 68.93 8.00 476.33 2676.56
   03:50:57.431.20-May-2020 5064.01  435.62 68.93 8.00 476.53 2676.56
   03:50:57.631.20-May-2020 5064.01  435.88 68.93 8.00 476.73 2676.56
   03:50:57.831.20-May-2020 5064.01  436.23 68.93 8.00 476.93 2676.56
   03:50:58.031.20-May-2020 5064.01  436.69 68.93 8.00 477.13 2676.56
   03:50:58.231.20-May-2020 5064.01  437.00 68.93 8.00 477.33 2676.56
   03:50:58.431.20-May-2020 5064.01  437.34 68.93 8.00 477.54 2676.56
   03:50:58.631.20-May-2020 5064.01  437.69 68.93 8.00 477.74 2676.56
   03:50:58.831.20-May-2020 5064.01  438.08 68.93 8.00 477.94 2676.56
   03:50:59.031.20-May-2020 5064.01  438.52 68.93 8.00 478.14 2676.56
   03:50:59.231.20-May-2020 5064.01  438.52 68.93 8.00 478.34 2676.56
   03:50:59.431.20-May-2020 5064.01  439.27 68.93 8.00 478.54 2676.56
   03:50:59.631.20-May-2020 5064.01  439.68 68.93 8.00 478.74 2676.56
   03:50:59.831.20-May-2020 5064.01  440.02 68.93 8.00 478.94 2676.56
   03:51:00.032.20-May-2020 5064.01  440.43 68.93 8.00 479.14 2676.56
   03:51:00.232.20-May-2020 5064.01  440.43 68.93 8.00 479.34 2676.56
   03:51:00.432.20-May-2020 5064.01  441.02 68.93 8.00 479.54 2676.56
   03:51:00.632.20-May-2020 5064.01  441.35 68.93 8.00 479.74 2676.56
   03:51:00.832.20-May-2020 5064.01  441.78 68.93 8.00 479.94 2676.56
   03:51:01.032.20-May-2020 5064.01  441.74 68.93 8.00 480.14 2676.56
   03:51:01.232.20-May-2020 5064.01  442.25 68.93 8.00 480.34 2676.56
   03:51:01.432.20-May-2020 5064.01  442.63 68.93 8.00 480.54 2676.56
   03:51:01.632.20-May-2020 5064.01  442.95 68.93 8.00 480.74 2676.56
   03:51:01.832.20-May-2020 5064.01  443.37 68.93 8.00 480.94 2676.56
   03:51:02.032.20-May-2020 5064.01  443.74 68.93 8.00 481.14 2676.56
   03:51:02.232.20-May-2020 5064.01  443.73 68.93 8.00 481.34 2676.56
   03:51:02.432.20-May-2020 5064.01  444.33 68.93 8.00 481.54 2676.56
   03:51:02.632.20-May-2020 5064.01  444.62 68.93 8.00 481.74 2676.56
   03:51:02.832.20-May-2020 5064.01  445.01 68.93 8.00 481.94 2676.56
   03:51:03.032.20-May-2020 5064.01  444.93 68.93 8.00 482.14 2676.56
   03:51:03.232.20-May-2020 5064.01  444.93 68.93 8.00 482.34 2676.56
   03:51:03.432.20-May-2020 5064.01  445.78 68.93 8.00 482.54 2676.56
   03:51:03.633.20-May-2020 5064.01  446.14 68.93 8.00 482.74 2676.56
   03:51:03.833.20-May-2020 5064.01  446.56 68.93 8.00 482.94 2676.56
