~Version Information
 VERS.                  2.0:   CWLS log ASCII Standard -VERSION 2.0
 WRAP.                   NO:   One line per depth step
~Well Information Block
#MNEM.UNIT     VALUE/NAME     DESCRIPTION
#---------     -----------    ---------------------------
 STRT.S             22:24:43 19-May-20: START TIME 22:24:43 19-May-20
 STOP.S             22:33:01 19-May-20: STOP TIME  22:33:01 19-May-20
 STEP.S                   0.00: STEP TIME
 NULL.                 -999.25: NULL VALUE
 MDS .        Operator Entered:  MAG DATA SOURCE
 PDAT.          Mean Sea Level:  PERMANENT DATUM
 UNIT.                     N/A:  LOGGING EQUIPMENT ID
 DCON.         Sperry Drilling:  DIRECTNL CONTR
 DOE .                     N/A:  DOE NUMBER
 RIG .              East Azeri:  RIG NAME
 JOBN.        AZ-XX-0905856059:  JOB TICKET NUMB
 WELL.                     D36:  WELL NAME
 MWDS.                    Baku:  MWD SHOP
 SRVC.     Turan Drilling & Engineering:  CONTRACTOR
 FLD .                     ACG:  FIELD NAME
 CTRY.              Azerbaijan:  COUNTRY NAME
 PROV.                    Baku:  PROVINCE
 STAT.                    Baku:  STATE NAME
 REGN.                   EESSA:  REGION
 BASE.              Azerbaijan:  LOGGING EQUIPMENT BASE LOCATION
 UWI .                     N/A:  UNIQUE WELL IDENTIFIER
 API .                     N/A:  API NUMBER
 COMP.     BP Exploration (Caspian Sea) Ltd.:  COMPANY
 WTYP.                Deviated:  WELL TYPE
 SON .        AZ-XX-0905856059:  JOB NUMBER
 FTOP.          Formation Tops:  FORM TOPS DESC
 ILTD.               Lithology:  INTERP LTH DESC
 SVYD.                  Survey:  SURVEY DESC
 DMOD.             Drill Model:  DRILL MOD DESC
 HPTY.       Minimum Curvature:  HOLE POS TYPE
 NREF.                    Grid:  NORTH REFERENCE
 SPUD.               25-Feb-20:  SPUD DATE
 DATE.      08.55.28 01-May-20:  END TIME
 STIM.      08.55.28 25-Feb-20:  START TIME
 DMF .             Drill Floor:  DRILL MEAS FROM
 DFST.                        :  DIST FSL TEXT
 DFWT.                        :  DIST FWL TEXT
 CNTY.                        :  COUNTY
 LOC .                        :  LOCATION
 LMF .             Drill Floor:  LOG MEASURED FROM
 VSNS.m                   6.09:  VERT SEC N/S
 VSEW.m                 -10.79:  VERT SEC E/W
 AGAP.m                  43.60:  AIR GAP
 DEP .m                 388.24:  DEPTH
 APD .m                  43.60:  DEPTH ABOVE PD
 WDMS.m                 151.80:  WD ELEV
 EGL .m                   0.00:  GROUND ELEVATION
 EPD .m                   0.00:  ELEVATION
 AZTC.deg                 6.12:  AZM TOTAL CORR
 GRDC.deg                 0.30:  GRID CORRECTION
 MDEC.deg                 6.42:  MAGNETIC DECL
 MDIP.deg                59.42:  MAGNETIC DIP
 MFLD.nT              50256.00:  MAGNETIC FIELD
 GVFD.g                   1.00:  GRAVITY FIELD
 VSDR.deg               159.57:  VERT SEC DIRECT
 TDD .m                5000.01:  TOTAL DEPTH (DRILLER)
 SDEP.m                 397.00:  START DEPTH
 DFSL.m                   0.00:  DISTANCE FSL
 DFWL.m                   0.00:  DISTANCE FWL
 UTMY.m             4431880.20:  UTM Y
 UTMX.m              538763.98:  UTM X
 WHEW.m                 -10.79:  WELL HEAD E/W
 WHNS.m                   6.09:  WELL HEAD N/S
 LONG.deg                51.45:  LONGITUDE
 LATI.deg                40.02:  LATITUDE
 TVDS.m                  43.60:  TVDSS CORRECTN
 EKB .m                  43.60:  KB ELEVATION
 EDF .m                  43.60:  DF ELEVATION
 MAGU.                 1847640:  MAGUTM CHECKSUM
 VSC .                       0:  VS TO CLOSURE
~Parameter Information Block
#MNEM.UNIT       Value        Description
#---------     -----------    ---------------------------
 AV  .mps                 1.30:  Ann Velocity 
 AVMX.mps                 1.90:  Max Ann Veloc 
 AZIF.deg               115.68:  Azm, Final 
 BHAT.                   Other:  BHA Type 
 BROT.°/30m               0.74:  Build Rotating 
 BS  .in                  8.50:  Bit Size 
 BTPL.psig              430.00:  Bit Press Loss 
 CABU.                      No:  Customer Abuse 
 COMM.                     ”le:  Run Comments 1 
 TCS .hr                 51.31:  Time Ciculation Ended 
 CV  .mps                 2.52:  Crit Velocity 
 CVMX.mps                 2.62:  Max Crit Veloc 
 DD1 .          Teymur Aghayev:  Direct Drillr 1 
 DDSV.                   Other:  DD Service 
 DEFF.%                 100.00:  % Det Eff 
 DLRX.°/30m               1.62:  Dogleg Rot Max 
 DLSO.°/30m               0.74:  Dogleg Oriented 
 DLSX.°/30m               1.62:  Dogleg Str Max 
 DRET.      04.30.56 18-May-20:  Drill End Time 
 DRST.      04.30.56 18-May-20:  Drill Start Tim 
 DTIM.hr                  0.00:  Time Drilling 
 EDEP.m                5337.01:  End Depth 
 ENG1.      Artemiy Matviyanov:  Engineer 1 
 ENG2.      Bakhtiyar Jabbarli:  Engineer 2 
 ENG3.           Emil Huseynov:  Engineer 3 
 ETIM.      18.40.00 22-May-20:  End Time 
 FLOI.gpm               550.00:  Flow In 
 FLON.gpm               350.00:  Flow In Min 
 FLOS.cptm                0.00:  Fluid Loss 
 FLOX.gpm               600.00:  Flow In Max 
 HFLO.                      No:  High Flow 
 HPRE.                      No:  High Pressure 
 HTEM.                      No:  High Temp 
 HYDO.m                   1.80:  Hydro Offset 
 IFIN.deg                67.01:  Inc, Final 
 IMAX.deg                67.49:  Inc Max 
 IMIN.deg                66.50:  Inc Min 
 IMND.m                5144.79:  Inc Min Depth 
 IMXD.m                5116.12:  Inc Max Depth 
 JARR.                      No:  Jarring 
 LETM.      17.55.56 20-May-20:  Log End Time 
 LOST.hr                     0:  Lost Rig Time 
 LSTM.      04.30.56 18-May-20:  Log Start Time 
 MDCL.ppm            193153.00:  Mud Chlorides 
 MDES.     Inversion Oil/Synthetic:  Mud Desc 
 DFD .sg                  1.40:  Mud Density 
 MDMN.sg                  1.40:  Dens Mud Min 
 MDMX.sg                  1.41:  Dens Mud Max 
 MOIL.                      68:  Run Mud Oil % 
 MOWR.                   68:32:  Run Mud OWR 
 MSND.                     0.2:  Run Mud Sand % 
 MSOL.                    18.8:  Run Mud Solids% 
 DFV .spqt               80.00:  Mud Viscosity 
 MWOD.in                  6.75:  MWD Tool OD 
 MWSI.                      No:  Serv Intrp, MWD 
 OTIM.hr                104.84:  Time Operating 
 PMAX.psia            10690.93:  Press Op, Max 
 PV  .cP                 26.00:  Mud PV 
 RUN .                     900:  Run Number 
 ROPA.m/hr                0.00:  ROP Avg 
 ROPN.m/hr                0.00:  ROP Min 
 ROPX.m/hr                0.00:  ROP Max 
 RPMA.rpm               140.00:  RPM Surface Avg 
 RPMN.rpm                70.00:  RPM Surface Min 
 RPMX.rpm               140.00:  RPM Surface Max 
 RRUN.                    0900:  Rig Run Number 
 RTIM.hr                 36.00:  Time Reaming 
 SAZI.deg               115.72:  Azm, Start 
 SDEP.m                5337.01:  Start Depth 
 SIDD.                      No:  Serv Intrp, DD 
 SINC.deg                66.92:  Inc, Start 
 SPPA.psig             4400.00:  SPP Avg 
 SPPN.psig             1135.00:  SPP Min 
 SPPX.psig             4581.00:  SPP Max 
 STIM.      04.30.56 18-May-20:  Start Time 
 SVCS.                     MWD:  Services 
 SVER.                    9.20:  Sperry Version 
 TDAT.m                5337.01:  Tot Depth Attmp 
 TDDF.                      No:  Trip for DD 
 TFF .                      No:  Trip for Fail 
 TQAA.f-kp               23.00:  Torque Abs Avg 
 TQAN.f-kp               18.00:  Torque Abs Min 
 TQAX.f-kp               25.00:  Torque Abs Max 
 TRRT.°/30m               0.74:  Turn Rotating 
 MRT .                    HCIM:  Maximum Recorded Temperature 
 TTMX.degC               76.47:  Max Tool Temp 
 WBMN.klb                 0.00:  WOB Min 
 WITN.             Anar Khalil:  Customer Rep 
 WITN.      Kamran Keberlinski:  Customer Rep 2 
 WOBA.klb                 0.00:  WOB Avg 
 WOBX.klb                 0.00:  WOB Max 
 YP  .lhf2               27.00:  Yield Point 
~Curve Information Block
#MNEM.UNIT                 API CODE     Curve Description
#---------               -----------    ---------------------------
 TIME.HHMMSS            00 000 000 000:  GT Time & Date
 GTDEPTH.m              00 000 000 000:  GT Depth
 GTPQH.psia             00 000 000 000:  GT HR Quartz Pressure
 GTTQ.degC              00 000 000 000:  GT Quartz Temperature
 GTTN.NONE              00 000 000 000:  GT Test Number
 GTET.sec               00 000 000 000:  GT Elapsed Test Time
 GTTVD.m                00 000 000 000:  GT True Vertical Depth
#Other Information
#
#WARRANTY: Halliburton will use its best efforts to furnish customers with 
#accurate information and interpretations that are part of, and incident to, the services 
#provided.  However, Halliburton cannot and does not warrant the accuracy 
#or correctness of such information and interpretations.  Under no circumstances should any 
#such information or interpretation be relied upon as the sole basis for any drilling, 
#completion, production, or financial decision or any procedure involving any risk to the 
#safety of any drilling venture, drilling rig or its crew or any other third party.  The 
#Customer has full responsibility for all drilling, completion and production operation.  
#Halliburton makes no representations or warranties, either expressed or 
#implied, including, but not limited to, the implied warranties of merchantability or fitness 
#for a particular purpose, with respect to the services rendered.  In no event will 
#Halliburton be liable for failure to obtain any particular results or for 
#any damages, including, but not limited to, indirect, special or consequential damages, 
#resulting from the use of any information or interpretation provided by Halliburton.
#
~A           TIME           GTDEPTH  GTPQH  GTTQ  GTTN  GTET   GTTVD  
# ...
   22:31:14.103.19-May-2020 5137.01 6466.99 67.86 4.00 391.10 2705.05
   22:31:14.303.19-May-2020 5137.01 6466.88 67.86 4.00 391.30 2705.05
   22:31:14.503.19-May-2020 5137.01 6468.80 67.86 4.00 391.50 2705.05
   22:31:14.703.19-May-2020 5137.01 6465.64 67.86 4.00 391.70 2705.05
   22:31:14.903.19-May-2020 5137.01 6468.26 67.86 4.00 391.90 2705.05
   22:31:15.103.19-May-2020 5137.01 6464.60 67.86 4.00 392.10 2705.05
   22:31:15.303.19-May-2020 5137.01 6464.60 67.86 4.00 392.30 2705.05
   22:31:15.503.19-May-2020 5137.01 6463.99 67.86 4.00 392.50 2705.05
   22:31:15.703.19-May-2020 5137.01 6465.76 67.86 4.00 392.70 2705.05
   22:31:15.903.19-May-2020 5137.01 6465.01 67.86 4.00 392.90 2705.05
   22:31:16.103.19-May-2020 5137.01 6464.50 67.86 4.00 393.10 2705.05
   22:31:16.303.19-May-2020 5137.01 6464.50 67.86 4.00 393.30 2705.05
   22:31:16.503.19-May-2020 5137.01 6463.92 67.86 4.00 393.50 2705.05
   22:31:16.703.19-May-2020 5137.01 6464.90 67.86 4.00 393.70 2705.05
   22:31:16.903.19-May-2020 5137.01 6464.73 67.86 4.00 393.90 2705.05
   22:31:17.103.19-May-2020 5137.01 6463.72 67.86 4.00 394.10 2705.05
   22:31:17.303.19-May-2020 5137.01 6463.72 67.86 4.00 394.30 2705.05
   22:31:17.503.19-May-2020 5137.01 6467.03 67.86 4.00 394.50 2705.05
   22:31:17.703.19-May-2020 5137.01 6464.54 67.86 4.00 394.70 2705.05
   22:31:17.903.19-May-2020 5137.01 6466.39 67.86 4.00 394.90 2705.05
   22:31:18.104.19-May-2020 5137.01 6463.22 67.86 4.00 395.10 2705.05
   22:31:18.304.19-May-2020 5137.01 6469.98 67.86 4.00 395.30 2705.05
   22:31:18.504.19-May-2020 5137.01 6464.02 67.86 4.00 395.50 2705.05
   22:31:18.704.19-May-2020 5137.01 6467.18 67.86 4.00 395.70 2705.05
   22:31:18.904.19-May-2020 5137.01 6466.04 67.86 4.00 395.90 2705.05
   22:31:19.104.19-May-2020 5137.01 6468.97 67.86 4.00 396.10 2705.05
   22:31:19.304.19-May-2020 5137.01 6468.97 67.86 4.00 396.30 2705.05
   22:31:19.504.19-May-2020 5137.01 6467.58 67.86 4.00 396.50 2705.05
   22:31:19.704.19-May-2020 5137.01 6466.05 67.86 4.00 396.70 2705.05
   22:31:19.904.19-May-2020 5137.01 6467.27 67.86 4.00 396.90 2705.05
   22:31:20.104.19-May-2020 5137.01 6467.38 67.86 4.00 397.10 2705.05
   22:31:20.304.19-May-2020 5137.01 6467.38 67.86 4.00 397.30 2705.05
   22:31:20.504.19-May-2020 5137.01 6466.35 67.86 4.00 397.50 2705.05
   22:31:20.704.19-May-2020 5137.01 6467.15 67.86 4.00 397.70 2705.05
   22:31:20.904.19-May-2020 5137.01 6469.27 67.86 4.00 397.90 2705.05
   22:31:21.104.19-May-2020 5137.01 6465.40 67.86 4.00 398.10 2705.05
   22:31:21.304.19-May-2020 5137.01 6465.40 67.86 4.00 398.30 2705.05
   22:31:21.504.19-May-2020 5137.01 6466.07 67.86 4.00 398.50 2705.05
   22:31:21.704.19-May-2020 5137.01 6466.45 67.86 4.00 398.70 2705.05
   22:31:21.904.19-May-2020 5137.01 6465.62 67.86 4.00 398.90 2705.05
   22:31:22.105.19-May-2020 5137.01 6464.75 67.86 4.00 399.10 2705.05
   22:31:22.305.19-May-2020 5137.01 6465.25 67.86 4.00 399.30 2705.05
   22:31:22.505.19-May-2020 5137.01 6464.36 67.86 4.00 399.50 2705.05
   22:31:22.705.19-May-2020 5137.01 6464.83 67.86 4.00 399.70 2705.05
   22:31:22.905.19-May-2020 5137.01 6464.42 67.86 4.00 399.90 2705.05
   22:31:23.105.19-May-2020 5137.01 6463.68 67.86 4.00 400.10 2705.05
   22:31:23.305.19-May-2020 5137.01 6463.68 67.86 4.00 400.30 2705.05
   22:31:23.505.19-May-2020 5137.01 6463.70 67.86 4.00 400.50 2705.05
   22:31:23.705.19-May-2020 5137.01 6464.22 67.86 4.00 400.70 2705.05
   22:31:23.905.19-May-2020 5137.01 6465.14 67.86 4.00 400.90 2705.05
   22:31:24.105.19-May-2020 5137.01 6465.69 67.86 4.00 401.10 2705.05
   22:31:24.305.19-May-2020 5137.01 6465.69 67.86 4.00 401.30 2705.05
   22:31:24.505.19-May-2020 5137.01 6465.39 67.86 4.00 401.50 2705.05
   22:31:24.705.19-May-2020 5137.01 6464.30 67.86 4.00 401.70 2705.05
   22:31:24.905.19-May-2020 5137.01 6470.71 67.86 4.00 401.90 2705.05
   22:31:25.105.19-May-2020 5137.01 6462.05 67.86 4.00 402.10 2705.05
   22:31:25.305.19-May-2020 5137.01 6462.05 67.86 4.00 402.30 2705.05
   22:31:25.505.19-May-2020 5137.01 6465.36 67.86 4.00 402.50 2705.05
   22:31:25.705.19-May-2020 5137.01 6466.23 67.86 4.00 402.70 2705.05
   22:31:25.905.19-May-2020 5137.01 6469.17 67.86 4.00 402.90 2705.05
   22:31:26.106.19-May-2020 5137.01 6463.55 67.86 4.00 403.10 2705.05
   22:31:26.306.19-May-2020 5137.01 6467.66 67.86 4.00 403.30 2705.05
   22:31:26.506.19-May-2020 5137.01 6465.85 67.86 4.00 403.50 2705.05
   22:31:26.706.19-May-2020 5137.01 6466.33 67.86 4.00 403.70 2705.05
   22:31:26.906.19-May-2020 5137.01 6469.68 67.86 4.00 403.90 2705.05
   22:31:27.106.19-May-2020 5137.01 6463.50 67.86 4.00 404.10 2705.05
   22:31:27.306.19-May-2020 5137.01 6463.50 67.86 4.00 404.30 2705.05
   22:31:27.506.19-May-2020 5137.01 6466.15 67.86 4.00 404.50 2705.05
   22:31:27.706.19-May-2020 5137.01 6471.18 67.86 4.00 404.70 2705.05
   22:31:27.906.19-May-2020 5137.01 6463.80 67.86 4.00 404.90 2705.05
   22:31:28.106.19-May-2020 5137.01 6467.16 67.86 4.00 405.10 2705.05
   22:31:28.306.19-May-2020 5137.01 6467.16 67.86 4.00 405.30 2705.05
   22:31:28.506.19-May-2020 5137.01 6465.74 67.86 4.00 405.50 2705.05
   22:31:28.706.19-May-2020 5137.01 6464.75 67.86 4.00 405.70 2705.05
   22:31:28.906.19-May-2020 5137.01 6465.06 67.86 4.00 405.90 2705.05
   22:31:29.106.19-May-2020 5137.01 6464.07 67.86 4.00 406.10 2705.05
   22:31:29.306.19-May-2020 5137.01 6464.07 67.86 4.00 406.30 2705.05
   22:31:29.506.19-May-2020 5137.01 6463.18 67.86 4.00 406.50 2705.05
   22:31:29.706.19-May-2020 5137.01 6464.03 67.86 4.00 406.70 2705.05
   22:31:29.906.19-May-2020 5137.01 6464.02 67.86 4.00 406.90 2705.05
   22:31:30.107.19-May-2020 5137.01 6463.15 67.86 4.00 407.10 2705.05
   22:31:30.307.19-May-2020 5137.01 6463.91 67.86 4.00 407.30 2705.05
   22:31:30.507.19-May-2020 5137.01 6462.92 67.86 4.00 407.50 2705.05
   22:31:30.707.19-May-2020 5137.01 6466.50 67.86 4.00 407.70 2705.05
   22:31:30.907.19-May-2020 5137.01 6463.92 67.86 4.00 407.90 2705.05
   22:31:31.107.19-May-2020 5137.01 6464.33 67.86 4.00 408.10 2705.05
   22:31:31.307.19-May-2020 5137.01 6464.33 67.86 4.00 408.30 2705.05
   22:31:31.507.19-May-2020 5137.01 6463.52 67.86 4.00 408.50 2705.05
   22:31:31.707.19-May-2020 5137.01 6467.45 67.86 4.00 408.70 2705.05
   22:31:31.907.19-May-2020 5137.01 6463.82 67.86 4.00 408.90 2705.05
   22:31:32.107.19-May-2020 5137.01 6465.69 67.86 4.00 409.10 2705.05
   22:31:32.307.19-May-2020 5137.01 6465.69 67.86 4.00 409.30 2705.05
   22:31:32.507.19-May-2020 5137.01 6467.42 67.86 4.00 409.50 2705.05
   22:31:32.707.19-May-2020 5137.01 6465.03 67.86 4.00 409.70 2705.05
   22:31:32.907.19-May-2020 5137.01 6467.28 67.86 4.00 409.90 2705.05
   22:31:33.107.19-May-2020 5137.01 6463.86 67.86 4.00 410.10 2705.05
   22:31:33.307.19-May-2020 5137.01 6463.86 67.86 4.00 410.30 2705.05
   22:31:33.507.19-May-2020 5137.01 6466.91 67.86 4.00 410.50 2705.05
   22:31:33.707.19-May-2020 5137.01 6465.57 67.86 4.00 410.70 2705.05
   22:31:33.907.19-May-2020 5137.01 6466.78 67.86 4.00 410.90 2705.05
   22:31:34.108.19-May-2020 5137.01 6467.01 67.86 4.00 411.10 2705.05
   22:31:34.308.19-May-2020 5137.01 6467.01 67.86 4.00 411.30 2705.05
   22:31:34.508.19-May-2020 5137.01 6465.42 67.86 4.00 411.50 2705.05
   22:31:34.708.19-May-2020 5137.01 6466.70 67.86 4.00 411.70 2705.05
   22:31:34.908.19-May-2020 5137.01 6465.54 67.86 4.00 411.90 2705.05
   22:31:35.108.19-May-2020 5137.01 6464.63 67.86 4.00 412.10 2705.05
   22:31:35.308.19-May-2020 5137.01 6464.63 67.86 4.00 412.30 2705.05
   22:31:35.508.19-May-2020 5137.01 6463.66 67.86 4.00 412.50 2705.05
   22:31:35.708.19-May-2020 5137.01 6463.90 67.86 4.00 412.70 2705.05
   22:31:35.908.19-May-2020 5137.01 6463.95 67.86 4.00 412.90 2705.05
   22:31:36.108.19-May-2020 5137.01 6463.02 67.86 4.00 413.10 2705.05
   22:31:36.308.19-May-2020 5137.01 6463.02 67.86 4.00 413.30 2705.05
   22:31:36.508.19-May-2020 5137.01 6462.81 67.86 4.00 413.50 2705.05
   22:31:36.708.19-May-2020 5137.01 6463.56 67.86 4.00 413.70 2705.05
   22:31:36.908.19-May-2020 5137.01 6463.28 67.86 4.00 413.90 2705.05
