~Version Information
 VERS.                  2.0:   CWLS log ASCII Standard -VERSION 2.0
 WRAP.                   NO:   One line per depth step
~Well Information Block
#MNEM.UNIT     VALUE/NAME     DESCRIPTION
#---------     -----------    ---------------------------
 STRT.S             23:11:25 19-May-20: START TIME 23:11:25 19-May-20
 STOP.S             23:19:39 19-May-20: STOP TIME  23:19:39 19-May-20
 STEP.S                   0.00: STEP TIME
 NULL.                 -999.25: NULL VALUE
 MDS .        Operator Entered:  MAG DATA SOURCE
 PDAT.          Mean Sea Level:  PERMANENT DATUM
 UNIT.                     N/A:  LOGGING EQUIPMENT ID
 DCON.         Sperry Drilling:  DIRECTNL CONTR
 DOE .                     N/A:  DOE NUMBER
 RIG .              East Azeri:  RIG NAME
 JOBN.        AZ-XX-0905856059:  JOB TICKET NUMB
 WELL.                     D36:  WELL NAME
 MWDS.                    Baku:  MWD SHOP
 SRVC.     Turan Drilling & Engineering:  CONTRACTOR
 FLD .                     ACG:  FIELD NAME
 CTRY.              Azerbaijan:  COUNTRY NAME
 PROV.                    Baku:  PROVINCE
 STAT.                    Baku:  STATE NAME
 REGN.                   EESSA:  REGION
 BASE.              Azerbaijan:  LOGGING EQUIPMENT BASE LOCATION
 UWI .                     N/A:  UNIQUE WELL IDENTIFIER
 API .                     N/A:  API NUMBER
 COMP.     BP Exploration (Caspian Sea) Ltd.:  COMPANY
 WTYP.                Deviated:  WELL TYPE
 SON .        AZ-XX-0905856059:  JOB NUMBER
 FTOP.          Formation Tops:  FORM TOPS DESC
 ILTD.               Lithology:  INTERP LTH DESC
 SVYD.                  Survey:  SURVEY DESC
 DMOD.             Drill Model:  DRILL MOD DESC
 HPTY.       Minimum Curvature:  HOLE POS TYPE
 NREF.                    Grid:  NORTH REFERENCE
 SPUD.               25-Feb-20:  SPUD DATE
 DATE.      08.55.28 01-May-20:  END TIME
 STIM.      08.55.28 25-Feb-20:  START TIME
 DMF .             Drill Floor:  DRILL MEAS FROM
 DFST.                        :  DIST FSL TEXT
 DFWT.                        :  DIST FWL TEXT
 CNTY.                        :  COUNTY
 LOC .                        :  LOCATION
 LMF .             Drill Floor:  LOG MEASURED FROM
 VSNS.m                   6.09:  VERT SEC N/S
 VSEW.m                 -10.79:  VERT SEC E/W
 AGAP.m                  43.60:  AIR GAP
 DEP .m                 388.24:  DEPTH
 APD .m                  43.60:  DEPTH ABOVE PD
 WDMS.m                 151.80:  WD ELEV
 EGL .m                   0.00:  GROUND ELEVATION
 EPD .m                   0.00:  ELEVATION
 AZTC.deg                 6.12:  AZM TOTAL CORR
 GRDC.deg                 0.30:  GRID CORRECTION
 MDEC.deg                 6.42:  MAGNETIC DECL
 MDIP.deg                59.42:  MAGNETIC DIP
 MFLD.nT              50256.00:  MAGNETIC FIELD
 GVFD.g                   1.00:  GRAVITY FIELD
 VSDR.deg               159.57:  VERT SEC DIRECT
 TDD .m                5000.01:  TOTAL DEPTH (DRILLER)
 SDEP.m                 397.00:  START DEPTH
 DFSL.m                   0.00:  DISTANCE FSL
 DFWL.m                   0.00:  DISTANCE FWL
 UTMY.m             4431880.20:  UTM Y
 UTMX.m              538763.98:  UTM X
 WHEW.m                 -10.79:  WELL HEAD E/W
 WHNS.m                   6.09:  WELL HEAD N/S
 LONG.deg                51.45:  LONGITUDE
 LATI.deg                40.02:  LATITUDE
 TVDS.m                  43.60:  TVDSS CORRECTN
 EKB .m                  43.60:  KB ELEVATION
 EDF .m                  43.60:  DF ELEVATION
 MAGU.                 1847640:  MAGUTM CHECKSUM
 VSC .                       0:  VS TO CLOSURE
~Parameter Information Block
#MNEM.UNIT       Value        Description
#---------     -----------    ---------------------------
 AV  .mps                 1.30:  Ann Velocity 
 AVMX.mps                 1.90:  Max Ann Veloc 
 AZIF.deg               115.68:  Azm, Final 
 BHAT.                   Other:  BHA Type 
 BROT.°/30m               0.74:  Build Rotating 
 BS  .in                  8.50:  Bit Size 
 BTPL.psig              430.00:  Bit Press Loss 
 CABU.                      No:  Customer Abuse 
 COMM.                     Tr}:  Run Comments 1 
 TCS .hr                 51.31:  Time Ciculation Ended 
 CV  .mps                 2.52:  Crit Velocity 
 CVMX.mps                 2.62:  Max Crit Veloc 
 DD1 .          Teymur Aghayev:  Direct Drillr 1 
 DDSV.                   Other:  DD Service 
 DEFF.%                 100.00:  % Det Eff 
 DLRX.°/30m               1.62:  Dogleg Rot Max 
 DLSO.°/30m               0.74:  Dogleg Oriented 
 DLSX.°/30m               1.62:  Dogleg Str Max 
 DRET.      04.30.56 18-May-20:  Drill End Time 
 DRST.      04.30.56 18-May-20:  Drill Start Tim 
 DTIM.hr                  0.00:  Time Drilling 
 EDEP.m                5337.01:  End Depth 
 ENG1.      Artemiy Matviyanov:  Engineer 1 
 ENG2.      Bakhtiyar Jabbarli:  Engineer 2 
 ENG3.           Emil Huseynov:  Engineer 3 
 ETIM.      18.40.00 22-May-20:  End Time 
 FLOI.gpm               550.00:  Flow In 
 FLON.gpm               350.00:  Flow In Min 
 FLOS.cptm                0.00:  Fluid Loss 
 FLOX.gpm               600.00:  Flow In Max 
 HFLO.                      No:  High Flow 
 HPRE.                      No:  High Pressure 
 HTEM.                      No:  High Temp 
 HYDO.m                   1.80:  Hydro Offset 
 IFIN.deg                67.01:  Inc, Final 
 IMAX.deg                67.49:  Inc Max 
 IMIN.deg                66.50:  Inc Min 
 IMND.m                5144.79:  Inc Min Depth 
 IMXD.m                5116.12:  Inc Max Depth 
 JARR.                      No:  Jarring 
 LETM.      17.55.56 20-May-20:  Log End Time 
 LOST.hr                     0:  Lost Rig Time 
 LSTM.      04.30.56 18-May-20:  Log Start Time 
 MDCL.ppm            193153.00:  Mud Chlorides 
 MDES.     Inversion Oil/Synthetic:  Mud Desc 
 DFD .sg                  1.40:  Mud Density 
 MDMN.sg                  1.40:  Dens Mud Min 
 MDMX.sg                  1.41:  Dens Mud Max 
 MOIL.                      68:  Run Mud Oil % 
 MOWR.                   68:32:  Run Mud OWR 
 MSND.                     0.2:  Run Mud Sand % 
 MSOL.                    18.8:  Run Mud Solids% 
 DFV .spqt               80.00:  Mud Viscosity 
 MWOD.in                  6.75:  MWD Tool OD 
 MWSI.                      No:  Serv Intrp, MWD 
 OTIM.hr                104.84:  Time Operating 
 PMAX.psia            10690.93:  Press Op, Max 
 PV  .cP                 26.00:  Mud PV 
 RUN .                     900:  Run Number 
 ROPA.m/hr                0.00:  ROP Avg 
 ROPN.m/hr                0.00:  ROP Min 
 ROPX.m/hr                0.00:  ROP Max 
 RPMA.rpm               140.00:  RPM Surface Avg 
 RPMN.rpm                70.00:  RPM Surface Min 
 RPMX.rpm               140.00:  RPM Surface Max 
 RRUN.                    0900:  Rig Run Number 
 RTIM.hr                 36.00:  Time Reaming 
 SAZI.deg               115.72:  Azm, Start 
 SDEP.m                5337.01:  Start Depth 
 SIDD.                      No:  Serv Intrp, DD 
 SINC.deg                66.92:  Inc, Start 
 SPPA.psig             4400.00:  SPP Avg 
 SPPN.psig             1135.00:  SPP Min 
 SPPX.psig             4581.00:  SPP Max 
 STIM.      04.30.56 18-May-20:  Start Time 
 SVCS.                     MWD:  Services 
 SVER.                    9.20:  Sperry Version 
 TDAT.m                5337.01:  Tot Depth Attmp 
 TDDF.                      No:  Trip for DD 
 TFF .                      No:  Trip for Fail 
 TQAA.f-kp               23.00:  Torque Abs Avg 
 TQAN.f-kp               18.00:  Torque Abs Min 
 TQAX.f-kp               25.00:  Torque Abs Max 
 TRRT.°/30m               0.74:  Turn Rotating 
 MRT .                    HCIM:  Maximum Recorded Temperature 
 TTMX.degC               76.47:  Max Tool Temp 
 WBMN.klb                 0.00:  WOB Min 
 WITN.             Anar Khalil:  Customer Rep 
 WITN.      Kamran Keberlinski:  Customer Rep 2 
 WOBA.klb                 0.00:  WOB Avg 
 WOBX.klb                 0.00:  WOB Max 
 YP  .lhf2               27.00:  Yield Point 
~Curve Information Block
#MNEM.UNIT                 API CODE     Curve Description
#---------               -----------    ---------------------------
 TIME.HHMMSS            00 000 000 000:  GT Time & Date
 GTDEPTH.m              00 000 000 000:  GT Depth
 GTPQH.psia             00 000 000 000:  GT HR Quartz Pressure
 GTTQ.degC              00 000 000 000:  GT Quartz Temperature
 GTTN.NONE              00 000 000 000:  GT Test Number
 GTET.sec               00 000 000 000:  GT Elapsed Test Time
 GTTVD.m                00 000 000 000:  GT True Vertical Depth
#Other Information
#
#WARRANTY: Halliburton will use its best efforts to furnish customers with 
#accurate information and interpretations that are part of, and incident to, the services 
#provided.  However, Halliburton cannot and does not warrant the accuracy 
#or correctness of such information and interpretations.  Under no circumstances should any 
#such information or interpretation be relied upon as the sole basis for any drilling, 
#completion, production, or financial decision or any procedure involving any risk to the 
#safety of any drilling venture, drilling rig or its crew or any other third party.  The 
#Customer has full responsibility for all drilling, completion and production operation.  
#Halliburton makes no representations or warranties, either expressed or 
#implied, including, but not limited to, the implied warranties of merchantability or fitness 
#for a particular purpose, with respect to the services rendered.  In no event will 
#Halliburton be liable for failure to obtain any particular results or for 
#any damages, including, but not limited to, indirect, special or consequential damages, 
#resulting from the use of any information or interpretation provided by Halliburton.
#
~A           TIME           GTDEPTH  GTPQH  GTTQ  GTTN  GTET   GTTVD  
# ...
   23:14:52.755.19-May-2020 5121.01 1760.07 67.92 5.00 207.05 2698.81
   23:14:52.955.19-May-2020 5121.01 1760.07 67.92 5.00 207.25 2698.81
   23:14:53.155.19-May-2020 5121.01 1780.04 67.92 5.00 207.45 2698.81
   23:14:53.355.19-May-2020 5121.01 1789.23 67.93 5.00 207.65 2698.81
   23:14:53.555.19-May-2020 5121.01 1798.84 67.93 5.00 207.85 2698.81
   23:14:53.756.19-May-2020 5121.01 1808.38 67.93 5.00 208.05 2698.81
   23:14:53.956.19-May-2020 5121.01 1808.38 67.93 5.00 208.25 2698.81
   23:14:54.156.19-May-2020 5121.01 1827.32 67.93 5.00 208.45 2698.81
   23:14:54.356.19-May-2020 5121.01 1836.08 67.93 5.00 208.65 2698.81
   23:14:54.556.19-May-2020 5121.01 1845.62 67.93 5.00 208.85 2698.81
   23:14:54.756.19-May-2020 5121.01 1854.91 67.93 5.00 209.05 2698.81
   23:14:54.956.19-May-2020 5121.01 1854.91 67.93 5.00 209.25 2698.81
   23:14:55.156.19-May-2020 5121.01 1873.09 67.93 5.00 209.45 2698.81
   23:14:55.356.19-May-2020 5121.01 1882.26 67.93 5.00 209.65 2698.81
   23:14:55.556.19-May-2020 5121.01 1892.38 67.93 5.00 209.85 2698.81
   23:14:55.756.19-May-2020 5121.01 1902.05 67.93 5.00 210.05 2698.81
   23:14:55.956.19-May-2020 5121.01 1902.05 67.93 5.00 210.25 2698.81
   23:14:56.156.19-May-2020 5121.01 1920.27 67.93 5.00 210.45 2698.81
   23:14:56.356.19-May-2020 5121.01 1928.73 67.93 5.00 210.65 2698.81
   23:14:56.556.19-May-2020 5121.01 1938.26 67.93 5.00 210.85 2698.81
   23:14:56.756.19-May-2020 5121.01 1947.26 67.93 5.00 211.05 2698.81
   23:14:56.956.19-May-2020 5121.01 1947.26 67.93 5.00 211.25 2698.81
   23:14:57.156.19-May-2020 5121.01 1964.34 67.93 5.00 211.45 2698.81
   23:14:57.356.19-May-2020 5121.01 1972.64 67.93 5.00 211.65 2698.81
   23:14:57.556.19-May-2020 5121.01 1981.43 67.93 5.00 211.85 2698.81
   23:14:57.757.19-May-2020 5121.01 1989.64 67.94 5.00 212.05 2698.81
   23:14:57.957.19-May-2020 5121.01 1989.64 67.94 5.00 212.25 2698.81
   23:14:58.157.19-May-2020 5121.01 2006.53 67.94 5.00 212.45 2698.81
   23:14:58.357.19-May-2020 5121.01 2014.73 67.94 5.00 212.65 2698.81
   23:14:58.557.19-May-2020 5121.01 2023.01 67.94 5.00 212.85 2698.81
   23:14:58.757.19-May-2020 5121.01 2031.32 67.94 5.00 213.05 2698.81
   23:14:58.957.19-May-2020 5121.01 2031.32 67.94 5.00 213.25 2698.81
   23:14:59.157.19-May-2020 5121.01 2048.11 67.94 5.00 213.45 2698.81
   23:14:59.357.19-May-2020 5121.01 2056.02 67.94 5.00 213.65 2698.81
   23:14:59.557.19-May-2020 5121.01 2064.84 67.94 5.00 213.85 2698.81
   23:14:59.757.19-May-2020 5121.01 2073.28 67.94 5.00 214.05 2698.81
   23:14:59.957.19-May-2020 5121.01 2073.28 67.94 5.00 214.25 2698.81
   23:15:00.157.19-May-2020 5121.01 2089.44 67.94 5.00 214.45 2698.81
   23:15:00.357.19-May-2020 5121.01 2098.24 67.94 5.00 214.65 2698.81
   23:15:00.557.19-May-2020 5121.01 2107.20 67.94 5.00 214.85 2698.81
   23:15:00.757.19-May-2020 5121.01 2115.66 67.94 5.00 215.05 2698.81
   23:15:00.957.19-May-2020 5121.01 2124.15 67.94 5.00 215.25 2698.81
   23:15:01.157.19-May-2020 5121.01 2132.17 67.94 5.00 215.45 2698.81
   23:15:01.357.19-May-2020 5121.01 2139.87 67.94 5.00 215.65 2698.81
   23:15:01.557.19-May-2020 5121.01 2149.16 67.94 5.00 215.85 2698.81
   23:15:01.758.19-May-2020 5121.01 2158.13 67.94 5.00 216.05 2698.81
   23:15:01.958.19-May-2020 5121.01 2158.13 67.94 5.00 216.25 2698.81
   23:15:02.158.19-May-2020 5121.01 2175.45 67.94 5.00 216.45 2698.81
   23:15:02.358.19-May-2020 5121.01 2183.90 67.94 5.00 216.65 2698.81
   23:15:02.558.19-May-2020 5121.01 2192.60 67.94 5.00 216.85 2698.81
   23:15:02.758.19-May-2020 5121.01 2201.00 67.94 5.00 217.05 2698.81
   23:15:02.958.19-May-2020 5121.01 2201.00 67.94 5.00 217.25 2698.81
   23:15:03.158.19-May-2020 5121.01 2218.03 67.94 5.00 217.45 2698.81
   23:15:03.358.19-May-2020 5121.01 2226.54 67.94 5.00 217.65 2698.81
   23:15:03.558.19-May-2020 5121.01 2234.74 67.95 5.00 217.85 2698.81
   23:15:03.758.19-May-2020 5121.01 2242.88 67.95 5.00 218.05 2698.81
   23:15:03.958.19-May-2020 5121.01 2242.88 67.95 5.00 218.25 2698.81
   23:15:04.158.19-May-2020 5121.01 2258.29 67.95 5.00 218.45 2698.81
   23:15:04.358.19-May-2020 5121.01 2265.51 67.95 5.00 218.65 2698.81
   23:15:04.558.19-May-2020 5121.01 2272.75 67.95 5.00 218.85 2698.81
   23:15:04.758.19-May-2020 5121.01 2279.84 67.95 5.00 219.05 2698.81
   23:15:04.958.19-May-2020 5121.01 2286.95 67.95 5.00 219.25 2698.81
   23:15:05.158.19-May-2020 5121.01 2294.02 67.95 5.00 219.45 2698.81
   23:15:05.358.19-May-2020 5121.01 2300.93 67.95 5.00 219.65 2698.81
   23:15:05.558.19-May-2020 5121.01 2307.87 67.95 5.00 219.85 2698.81
   23:15:05.759.19-May-2020 5121.01 2314.74 67.95 5.00 220.05 2698.81
   23:15:05.959.19-May-2020 5121.01 2314.74 67.95 5.00 220.25 2698.81
   23:15:06.159.19-May-2020 5121.01 2328.81 67.95 5.00 220.45 2698.81
   23:15:06.359.19-May-2020 5121.01 2336.26 67.95 5.00 220.66 2698.81
   23:15:06.559.19-May-2020 5121.01 2343.78 67.95 5.00 220.86 2698.81
   23:15:06.759.19-May-2020 5121.01 2350.32 67.95 5.00 221.06 2698.81
   23:15:06.959.19-May-2020 5121.01 2350.32 67.95 5.00 221.26 2698.81
   23:15:07.159.19-May-2020 5121.01 2364.86 67.95 5.00 221.46 2698.81
   23:15:07.359.19-May-2020 5121.01 2371.80 67.95 5.00 221.66 2698.81
   23:15:07.559.19-May-2020 5121.01 2378.66 67.95 5.00 221.86 2698.81
   23:15:07.759.19-May-2020 5121.01 2385.37 67.95 5.00 222.06 2698.81
   23:15:07.959.19-May-2020 5121.01 2391.81 67.95 5.00 222.26 2698.81
   23:15:08.159.19-May-2020 5121.01 2398.80 67.95 5.00 222.46 2698.81
   23:15:08.359.19-May-2020 5121.01 2405.68 67.95 5.00 222.66 2698.81
   23:15:08.559.19-May-2020 5121.01 2412.42 67.95 5.00 222.86 2698.81
   23:15:08.759.19-May-2020 5121.01 2419.14 67.95 5.00 223.06 2698.81
   23:15:08.959.19-May-2020 5121.01 2425.66 67.95 5.00 223.26 2698.81
   23:15:09.159.19-May-2020 5121.01 2431.94 67.95 5.00 223.46 2698.81
   23:15:09.359.19-May-2020 5121.01 2438.83 67.95 5.00 223.66 2698.81
   23:15:09.559.19-May-2020 5121.01 2446.32 67.95 5.00 223.86 2698.81
   23:15:09.760.19-May-2020 5121.01 2453.04 67.95 5.00 224.06 2698.81
   23:15:09.960.19-May-2020 5121.01 2453.04 67.95 5.00 224.26 2698.81
   23:15:10.160.19-May-2020 5121.01 2466.15 67.95 5.00 224.46 2698.81
   23:15:10.360.19-May-2020 5121.01 2473.24 67.95 5.00 224.66 2698.81
   23:15:10.560.19-May-2020 5121.01 2480.11 67.95 5.00 224.86 2698.81
   23:15:10.760.19-May-2020 5121.01 2486.62 67.95 5.00 225.06 2698.81
   23:15:10.960.19-May-2020 5121.01 2486.62 67.95 5.00 225.26 2698.81
   23:15:11.160.19-May-2020 5121.01 2500.90 67.96 5.00 225.46 2698.81
   23:15:11.360.19-May-2020 5121.01 2507.94 67.96 5.00 225.66 2698.81
   23:15:11.560.19-May-2020 5121.01 2514.90 67.96 5.00 225.86 2698.81
   23:15:11.760.19-May-2020 5121.01 2521.41 67.96 5.00 226.06 2698.81
   23:15:11.960.19-May-2020 5121.01 2521.41 67.96 5.00 226.26 2698.81
   23:15:12.160.19-May-2020 5121.01 2533.65 67.96 5.00 226.46 2698.81
   23:15:12.360.19-May-2020 5121.01 2539.61 67.96 5.00 226.66 2698.81
   23:15:12.560.19-May-2020 5121.01 2545.62 67.96 5.00 226.86 2698.81
   23:15:12.760.19-May-2020 5121.01 2551.49 67.96 5.00 227.06 2698.81
   23:15:12.960.19-May-2020 5121.01 2557.72 67.96 5.00 227.26 2698.81
   23:15:13.160.19-May-2020 5121.01 2563.68 67.96 5.00 227.46 2698.81
   23:15:13.360.19-May-2020 5121.01 2570.67 67.96 5.00 227.66 2698.81
   23:15:13.560.19-May-2020 5121.01 2577.36 67.96 5.00 227.86 2698.81
   23:15:13.761.19-May-2020 5121.01 2583.15 67.96 5.00 228.06 2698.81
   23:15:13.961.19-May-2020 5121.01 2583.15 67.96 5.00 228.26 2698.81
   23:15:14.161.19-May-2020 5121.01 2596.15 67.96 5.00 228.46 2698.81
   23:15:14.361.19-May-2020 5121.01 2602.30 67.96 5.00 228.66 2698.81
   23:15:14.561.19-May-2020 5121.01 2608.40 67.96 5.00 228.86 2698.81
   23:15:14.761.19-May-2020 5121.01 2614.53 67.96 5.00 229.06 2698.81
   23:15:14.961.19-May-2020 5121.01 2614.53 67.96 5.00 229.26 2698.81
   23:15:15.161.19-May-2020 5121.01 2626.26 67.96 5.00 229.46 2698.81
   23:15:15.361.19-May-2020 5121.01 2633.12 67.96 5.00 229.66 2698.81
   23:15:15.561.19-May-2020 5121.01 2639.61 67.96 5.00 229.86 2698.81
