~Version Information
 VERS.                  2.0:   CWLS log ASCII Standard -VERSION 2.0
 WRAP.                   NO:   One line per depth step
~Well Information Block
#MNEM.UNIT     VALUE/NAME     DESCRIPTION
#---------     -----------    ---------------------------
 STRT.S             15:16:23 19-May-20: START TIME 15:16:23 19-May-20
 STOP.S             15:23:31 19-May-20: STOP TIME  15:23:31 19-May-20
 STEP.S                   0.00: STEP TIME
 NULL.                 -999.25: NULL VALUE
 MDS .        Operator Entered:  MAG DATA SOURCE
 PDAT.          Mean Sea Level:  PERMANENT DATUM
 UNIT.                     N/A:  LOGGING EQUIPMENT ID
 DCON.         Sperry Drilling:  DIRECTNL CONTR
 DOE .                     N/A:  DOE NUMBER
 RIG .              East Azeri:  RIG NAME
 JOBN.        AZ-XX-0905856059:  JOB TICKET NUMB
 WELL.                     D36:  WELL NAME
 MWDS.                    Baku:  MWD SHOP
 SRVC.     Turan Drilling & Engineering:  CONTRACTOR
 FLD .                     ACG:  FIELD NAME
 CTRY.              Azerbaijan:  COUNTRY NAME
 PROV.                    Baku:  PROVINCE
 STAT.                    Baku:  STATE NAME
 REGN.                   EESSA:  REGION
 BASE.              Azerbaijan:  LOGGING EQUIPMENT BASE LOCATION
 UWI .                     N/A:  UNIQUE WELL IDENTIFIER
 API .                     N/A:  API NUMBER
 COMP.     BP Exploration (Caspian Sea) Ltd.:  COMPANY
 WTYP.                Deviated:  WELL TYPE
 SON .        AZ-XX-0905856059:  JOB NUMBER
 FTOP.          Formation Tops:  FORM TOPS DESC
 ILTD.               Lithology:  INTERP LTH DESC
 SVYD.                  Survey:  SURVEY DESC
 DMOD.             Drill Model:  DRILL MOD DESC
 HPTY.       Minimum Curvature:  HOLE POS TYPE
 NREF.                    Grid:  NORTH REFERENCE
 SPUD.               25-Feb-20:  SPUD DATE
 DATE.      08.55.28 01-May-20:  END TIME
 STIM.      08.55.28 25-Feb-20:  START TIME
 DMF .             Drill Floor:  DRILL MEAS FROM
 DFST.                        :  DIST FSL TEXT
 DFWT.                        :  DIST FWL TEXT
 CNTY.                        :  COUNTY
 LOC .                        :  LOCATION
 LMF .             Drill Floor:  LOG MEASURED FROM
 VSNS.m                   6.09:  VERT SEC N/S
 VSEW.m                 -10.79:  VERT SEC E/W
 AGAP.m                  43.60:  AIR GAP
 DEP .m                 388.24:  DEPTH
 APD .m                  43.60:  DEPTH ABOVE PD
 WDMS.m                 151.80:  WD ELEV
 EGL .m                   0.00:  GROUND ELEVATION
 EPD .m                   0.00:  ELEVATION
 AZTC.deg                 6.12:  AZM TOTAL CORR
 GRDC.deg                 0.30:  GRID CORRECTION
 MDEC.deg                 6.42:  MAGNETIC DECL
 MDIP.deg                59.42:  MAGNETIC DIP
 MFLD.nT              50256.00:  MAGNETIC FIELD
 GVFD.g                   1.00:  GRAVITY FIELD
 VSDR.deg               159.57:  VERT SEC DIRECT
 TDD .m                5000.01:  TOTAL DEPTH (DRILLER)
 SDEP.m                 397.00:  START DEPTH
 DFSL.m                   0.00:  DISTANCE FSL
 DFWL.m                   0.00:  DISTANCE FWL
 UTMY.m             4431880.20:  UTM Y
 UTMX.m              538763.98:  UTM X
 WHEW.m                 -10.79:  WELL HEAD E/W
 WHNS.m                   6.09:  WELL HEAD N/S
 LONG.deg                51.45:  LONGITUDE
 LATI.deg                40.02:  LATITUDE
 TVDS.m                  43.60:  TVDSS CORRECTN
 EKB .m                  43.60:  KB ELEVATION
 EDF .m                  43.60:  DF ELEVATION
 MAGU.                 1847640:  MAGUTM CHECKSUM
 VSC .                       0:  VS TO CLOSURE
~Parameter Information Block
#MNEM.UNIT       Value        Description
#---------     -----------    ---------------------------
 AV  .mps                 1.30:  Ann Velocity 
 AVMX.mps                 1.90:  Max Ann Veloc 
 AZIF.deg               115.68:  Azm, Final 
 BHAT.                   Other:  BHA Type 
 BROT.°/30m               0.74:  Build Rotating 
 BS  .in                  8.50:  Bit Size 
 BTPL.psig              430.00:  Bit Press Loss 
 CABU.                      No:  Customer Abuse 
 TCS .hr                 51.31:  Time Ciculation Ended 
 CV  .mps                 2.52:  Crit Velocity 
 CVMX.mps                 2.62:  Max Crit Veloc 
 DD1 .          Teymur Aghayev:  Direct Drillr 1 
 DDSV.                   Other:  DD Service 
 DEFF.%                 100.00:  % Det Eff 
 DLRX.°/30m               1.62:  Dogleg Rot Max 
 DLSO.°/30m               0.74:  Dogleg Oriented 
 DLSX.°/30m               1.62:  Dogleg Str Max 
 DRET.      04.30.56 18-May-20:  Drill End Time 
 DRST.      04.30.56 18-May-20:  Drill Start Tim 
 DTIM.hr                  0.00:  Time Drilling 
 EDEP.m                5337.01:  End Depth 
 ENG1.      Artemiy Matviyanov:  Engineer 1 
 ENG2.      Bakhtiyar Jabbarli:  Engineer 2 
 ENG3.           Emil Huseynov:  Engineer 3 
 ETIM.      18.40.00 22-May-20:  End Time 
 FLOI.gpm               550.00:  Flow In 
 FLON.gpm               350.00:  Flow In Min 
 FLOS.cptm                0.00:  Fluid Loss 
 FLOX.gpm               600.00:  Flow In Max 
 HFLO.                      No:  High Flow 
 HPRE.                      No:  High Pressure 
 HTEM.                      No:  High Temp 
 HYDO.m                   1.80:  Hydro Offset 
 IFIN.deg                67.01:  Inc, Final 
 IMAX.deg                67.49:  Inc Max 
 IMIN.deg                66.50:  Inc Min 
 IMND.m                5144.79:  Inc Min Depth 
 IMXD.m                5116.12:  Inc Max Depth 
 JARR.                      No:  Jarring 
 LETM.      17.55.56 20-May-20:  Log End Time 
 LOST.hr                     0:  Lost Rig Time 
 LSTM.      04.30.56 18-May-20:  Log Start Time 
 MDCL.ppm            193153.00:  Mud Chlorides 
 MDES.     Inversion Oil/Synthetic:  Mud Desc 
 DFD .sg                  1.40:  Mud Density 
 MDMN.sg                  1.40:  Dens Mud Min 
 MDMX.sg                  1.41:  Dens Mud Max 
 MOIL.                      68:  Run Mud Oil % 
 MOWR.                   68:32:  Run Mud OWR 
 MSND.                     0.2:  Run Mud Sand % 
 MSOL.                    18.8:  Run Mud Solids% 
 DFV .spqt               80.00:  Mud Viscosity 
 MWOD.in                  6.75:  MWD Tool OD 
 MWSI.                      No:  Serv Intrp, MWD 
 OTIM.hr                104.84:  Time Operating 
 PMAX.psia            10690.93:  Press Op, Max 
 PV  .cP                 26.00:  Mud PV 
 RUN .                     900:  Run Number 
 ROPA.m/hr                0.00:  ROP Avg 
 ROPN.m/hr                0.00:  ROP Min 
 ROPX.m/hr                0.00:  ROP Max 
 RPMA.rpm               140.00:  RPM Surface Avg 
 RPMN.rpm                70.00:  RPM Surface Min 
 RPMX.rpm               140.00:  RPM Surface Max 
 RRUN.                    0900:  Rig Run Number 
 RTIM.hr                 36.00:  Time Reaming 
 SAZI.deg               115.72:  Azm, Start 
 SDEP.m                5337.01:  Start Depth 
 SIDD.                      No:  Serv Intrp, DD 
 SINC.deg                66.92:  Inc, Start 
 SPPA.psig             4400.00:  SPP Avg 
 SPPN.psig             1135.00:  SPP Min 
 SPPX.psig             4581.00:  SPP Max 
 STIM.      04.30.56 18-May-20:  Start Time 
 SVCS.                     MWD:  Services 
 SVER.                    9.20:  Sperry Version 
 TDAT.m                5337.01:  Tot Depth Attmp 
 TDDF.                      No:  Trip for DD 
 TFF .                      No:  Trip for Fail 
 TQAA.f-kp               23.00:  Torque Abs Avg 
 TQAN.f-kp               18.00:  Torque Abs Min 
 TQAX.f-kp               25.00:  Torque Abs Max 
 TRRT.°/30m               0.74:  Turn Rotating 
 MRT .                    HCIM:  Maximum Recorded Temperature 
 TTMX.degC               76.47:  Max Tool Temp 
 WBMN.klb                 0.00:  WOB Min 
 WITN.             Anar Khalil:  Customer Rep 
 WITN.      Kamran Keberlinski:  Customer Rep 2 
 WOBA.klb                 0.00:  WOB Avg 
 WOBX.klb                 0.00:  WOB Max 
 YP  .lhf2               27.00:  Yield Point 
~Curve Information Block
#MNEM.UNIT                 API CODE     Curve Description
#---------               -----------    ---------------------------
 TIME.HHMMSS            00 000 000 000:  GT Time & Date
 GTDEPTH.m              00 000 000 000:  GT Depth
 GTPQH.psia             00 000 000 000:  GT HR Quartz Pressure
 GTTQ.degC              00 000 000 000:  GT Quartz Temperature
 GTTN.NONE              00 000 000 000:  GT Test Number
 GTET.sec               00 000 000 000:  GT Elapsed Test Time
 GTTVD.m                00 000 000 000:  GT True Vertical Depth
#Other Information
#
#WARRANTY: Halliburton will use its best efforts to furnish customers with 
#accurate information and interpretations that are part of, and incident to, the services 
#provided.  However, Halliburton cannot and does not warrant the accuracy 
#or correctness of such information and interpretations.  Under no circumstances should any 
#such information or interpretation be relied upon as the sole basis for any drilling, 
#completion, production, or financial decision or any procedure involving any risk to the 
#safety of any drilling venture, drilling rig or its crew or any other third party.  The 
#Customer has full responsibility for all drilling, completion and production operation.  
#Halliburton makes no representations or warranties, either expressed or 
#implied, including, but not limited to, the implied warranties of merchantability or fitness 
#for a particular purpose, with respect to the services rendered.  In no event will 
#Halliburton be liable for failure to obtain any particular results or for 
#any damages, including, but not limited to, indirect, special or consequential damages, 
#resulting from the use of any information or interpretation provided by Halliburton.
#
~A           TIME           GTDEPTH  GTPQH  GTTQ  GTTN  GTET   GTTVD  
# ...
   15:21:45.388.19-May-2020 5277.61 3453.97 67.45 1.00 322.08 2760.35
   15:21:45.589.19-May-2020 5277.61 3453.97 67.45 1.00 322.28 2760.35
   15:21:45.789.19-May-2020 5277.61 3453.96 67.45 1.00 322.48 2760.35
   15:21:45.989.19-May-2020 5277.61 3454.23 67.45 1.00 322.68 2760.35
   15:21:46.189.19-May-2020 5277.61 3454.11 67.45 1.00 322.88 2760.35
   15:21:46.389.19-May-2020 5277.61 3453.83 67.45 1.00 323.08 2760.35
   15:21:46.589.19-May-2020 5277.61 3453.83 67.45 1.00 323.28 2760.35
   15:21:46.789.19-May-2020 5277.61 3454.00 67.45 1.00 323.48 2760.35
   15:21:46.989.19-May-2020 5277.61 3454.02 67.45 1.00 323.68 2760.35
   15:21:47.189.19-May-2020 5277.61 3453.83 67.45 1.00 323.88 2760.35
   15:21:47.389.19-May-2020 5277.61 3454.33 67.45 1.00 324.08 2760.35
   15:21:47.589.19-May-2020 5277.61 3453.95 67.45 1.00 324.28 2760.35
   15:21:47.789.19-May-2020 5277.61 3453.92 67.45 1.00 324.48 2760.35
   15:21:47.989.19-May-2020 5277.61 3453.95 67.45 1.00 324.68 2760.35
   15:21:48.189.19-May-2020 5277.61 3454.23 67.45 1.00 324.88 2760.35
   15:21:48.389.19-May-2020 5277.61 3454.13 67.45 1.00 325.08 2760.35
   15:21:48.589.19-May-2020 5277.61 3454.13 67.45 1.00 325.28 2760.35
   15:21:48.789.19-May-2020 5277.61 3453.94 67.45 1.00 325.48 2760.35
   15:21:48.989.19-May-2020 5277.61 3453.96 67.45 1.00 325.68 2760.35
   15:21:49.189.19-May-2020 5277.61 3453.99 67.45 1.00 325.88 2760.35
   15:21:49.389.19-May-2020 5277.61 3453.95 67.45 1.00 326.08 2760.35
   15:21:49.589.19-May-2020 5277.61 3453.95 67.45 1.00 326.28 2760.35
   15:21:49.790.19-May-2020 5277.61 3453.99 67.45 1.00 326.48 2760.35
   15:21:49.990.19-May-2020 5277.61 3454.01 67.45 1.00 326.68 2760.35
   15:21:50.190.19-May-2020 5277.61 3453.98 67.45 1.00 326.88 2760.35
   15:21:50.390.19-May-2020 5277.61 3453.96 67.45 1.00 327.08 2760.35
   15:21:50.590.19-May-2020 5277.61 3453.96 67.45 1.00 327.28 2760.35
   15:21:50.790.19-May-2020 5277.61 3454.03 67.45 1.00 327.48 2760.35
   15:21:50.990.19-May-2020 5277.61 3454.00 67.45 1.00 327.68 2760.35
   15:21:51.190.19-May-2020 5277.61 3454.09 67.45 1.00 327.88 2760.35
   15:21:51.390.19-May-2020 5277.61 3454.20 67.45 1.00 328.08 2760.35
   15:21:51.590.19-May-2020 5277.61 3453.99 67.45 1.00 328.28 2760.35
   15:21:51.790.19-May-2020 5277.61 3453.91 67.45 1.00 328.48 2760.35
   15:21:51.990.19-May-2020 5277.61 3454.13 67.45 1.00 328.68 2760.35
   15:21:52.190.19-May-2020 5277.61 3454.14 67.45 1.00 328.88 2760.35
   15:21:52.390.19-May-2020 5277.61 3453.90 67.45 1.00 329.08 2760.35
   15:21:52.590.19-May-2020 5277.61 3453.90 67.45 1.00 329.28 2760.35
   15:21:52.790.19-May-2020 5277.61 3454.00 67.45 1.00 329.48 2760.35
   15:21:52.990.19-May-2020 5277.61 3454.10 67.45 1.00 329.68 2760.35
   15:21:53.190.19-May-2020 5277.61 3454.14 67.45 1.00 329.88 2760.35
   15:21:53.390.19-May-2020 5277.61 3453.93 67.45 1.00 330.08 2760.35
   15:21:53.590.19-May-2020 5277.61 3453.93 67.45 1.00 330.28 2760.35
   15:21:53.790.19-May-2020 5277.61 3454.04 67.45 1.00 330.48 2760.35
   15:21:53.991.19-May-2020 5277.61 3454.04 67.45 1.00 330.68 2760.35
   15:21:54.191.19-May-2020 5277.61 3453.82 67.45 1.00 330.88 2760.35
   15:21:54.391.19-May-2020 5277.61 3454.33 67.45 1.00 331.08 2760.35
   15:21:54.591.19-May-2020 5277.61 3454.33 67.45 1.00 331.28 2760.35
   15:21:54.791.19-May-2020 5277.61 3453.91 67.45 1.00 331.48 2760.35
   15:21:54.991.19-May-2020 5277.61 3453.92 67.45 1.00 331.68 2760.35
   15:21:55.191.19-May-2020 5277.61 3454.14 67.45 1.00 331.88 2760.35
   15:21:55.391.19-May-2020 5277.61 3454.14 67.45 1.00 332.08 2760.35
   15:21:55.591.19-May-2020 5277.61 3453.96 67.45 1.00 332.28 2760.35
   15:21:55.791.19-May-2020 5277.61 3453.91 67.45 1.00 332.48 2760.35
   15:21:55.991.19-May-2020 5277.61 3454.03 67.45 1.00 332.68 2760.35
   15:21:56.191.19-May-2020 5277.61 3454.03 67.45 1.00 332.88 2760.35
   15:21:56.391.19-May-2020 5277.61 3453.99 67.45 1.00 333.08 2760.35
   15:21:56.591.19-May-2020 5277.61 3453.99 67.45 1.00 333.28 2760.35
   15:21:56.791.19-May-2020 5277.61 3454.00 67.45 1.00 333.48 2760.35
   15:21:56.991.19-May-2020 5277.61 3454.06 67.45 1.00 333.68 2760.35
   15:21:57.191.19-May-2020 5277.61 3454.02 67.45 1.00 333.88 2760.35
   15:21:57.391.19-May-2020 5277.61 3453.97 67.45 1.00 334.08 2760.35
   15:21:57.591.19-May-2020 5277.61 3453.97 67.45 1.00 334.28 2760.35
   15:21:57.791.19-May-2020 5277.61 3453.99 67.45 1.00 334.48 2760.35
   15:21:57.991.19-May-2020 5277.61 3454.00 67.45 1.00 334.68 2760.35
   15:21:58.192.19-May-2020 5277.61 3454.04 67.45 1.00 334.88 2760.35
   15:21:58.392.19-May-2020 5277.61 3454.13 67.45 1.00 335.08 2760.35
   15:21:58.592.19-May-2020 5277.61 3454.13 67.45 1.00 335.28 2760.35
   15:21:58.792.19-May-2020 5277.61 3453.95 67.45 1.00 335.48 2760.35
   15:21:58.992.19-May-2020 5277.61 3453.91 67.45 1.00 335.68 2760.35
   15:21:59.192.19-May-2020 5277.61 3454.35 67.45 1.00 335.88 2760.35
   15:21:59.392.19-May-2020 5277.61 3453.93 67.45 1.00 336.08 2760.35
   15:21:59.592.19-May-2020 5277.61 3453.92 67.45 1.00 336.28 2760.35
   15:21:59.792.19-May-2020 5277.61 3454.07 67.46 1.00 336.48 2760.35
   15:21:59.992.19-May-2020 5277.61 3454.18 67.45 1.00 336.68 2760.35
   15:22:00.192.19-May-2020 5277.61 3454.18 67.46 1.00 336.88 2760.35
   15:22:00.392.19-May-2020 5277.61 3453.90 67.45 1.00 337.08 2760.35
   15:22:00.592.19-May-2020 5277.61 3453.90 67.45 1.00 337.28 2760.35
   15:22:00.792.19-May-2020 5277.61 3454.05 67.46 1.00 337.48 2760.35
   15:22:00.992.19-May-2020 5277.61 3454.08 67.45 1.00 337.68 2760.35
   15:22:01.192.19-May-2020 5277.61 3453.98 67.46 1.00 337.88 2760.35
   15:22:01.392.19-May-2020 5277.61 3454.18 67.46 1.00 338.08 2760.35
   15:22:01.592.19-May-2020 5277.61 3454.18 67.46 1.00 338.28 2760.35
   15:22:01.792.19-May-2020 5277.61 3453.96 67.46 1.00 338.48 2760.35
   15:22:01.992.19-May-2020 5277.61 3454.00 67.46 1.00 338.68 2760.35
   15:22:02.192.19-May-2020 5277.61 3454.11 67.46 1.00 338.88 2760.35
   15:22:02.393.19-May-2020 5277.61 3454.17 67.46 1.00 339.08 2760.35
   15:22:02.593.19-May-2020 5277.61 3454.17 67.46 1.00 339.28 2760.35
   15:22:02.793.19-May-2020 5277.61 3453.92 67.46 1.00 339.48 2760.35
   15:22:02.993.19-May-2020 5277.61 3454.00 67.46 1.00 339.68 2760.35
   15:22:03.193.19-May-2020 5277.61 3454.00 67.46 1.00 339.88 2760.35
   15:22:03.393.19-May-2020 5277.61 3453.98 67.46 1.00 340.08 2760.35
   15:22:03.593.19-May-2020 5277.61 3453.98 67.46 1.00 340.28 2760.35
   15:22:03.793.19-May-2020 5277.61 3453.97 67.46 1.00 340.48 2760.35
   15:22:03.993.19-May-2020 5277.61 3454.03 67.46 1.00 340.68 2760.35
   15:22:04.193.19-May-2020 5277.61 3454.02 67.46 1.00 340.88 2760.35
   15:22:04.393.19-May-2020 5277.61 3454.02 67.46 1.00 341.08 2760.35
   15:22:04.593.19-May-2020 5277.61 3454.02 67.46 1.00 341.28 2760.35
   15:22:04.793.19-May-2020 5277.61 3454.03 67.46 1.00 341.48 2760.35
   15:22:04.993.19-May-2020 5277.61 3454.02 67.46 1.00 341.68 2760.35
   15:22:05.193.19-May-2020 5277.61 3453.88 67.46 1.00 341.88 2760.35
   15:22:05.393.19-May-2020 5277.61 3454.36 67.46 1.00 342.08 2760.35
   15:22:05.593.19-May-2020 5277.61 3454.36 67.46 1.00 342.28 2760.35
   15:22:05.793.19-May-2020 5277.61 3453.98 67.46 1.00 342.48 2760.35
   15:22:05.993.19-May-2020 5277.61 3453.90 67.46 1.00 342.68 2760.35
   15:22:06.193.19-May-2020 5277.61 3454.46 67.46 1.00 342.88 2760.35
   15:22:06.393.19-May-2020 5277.61 3454.04 67.46 1.00 343.08 2760.35
   15:22:06.593.19-May-2020 5277.61 3454.04 67.46 1.00 343.28 2760.35
   15:22:06.794.19-May-2020 5277.61 3453.93 67.46 1.00 343.48 2760.35
   15:22:06.994.19-May-2020 5277.61 3453.95 67.46 1.00 343.68 2760.35
   15:22:07.194.19-May-2020 5277.61 3454.38 67.46 1.00 343.88 2760.35
   15:22:07.394.19-May-2020 5277.61 3453.93 67.46 1.00 344.08 2760.35
   15:22:07.594.19-May-2020 5277.61 3453.93 67.46 1.00 344.28 2760.35
   15:22:07.794.19-May-2020 5277.61 3454.03 67.46 1.00 344.48 2760.35
   15:22:07.994.19-May-2020 5277.61 3454.14 67.46 1.00 344.68 2760.35
   15:22:08.194.19-May-2020 5277.61 3454.01 67.46 1.00 344.88 2760.35
