~Version Information
 VERS.                  2.0:   CWLS log ASCII Standard -VERSION 2.0
 WRAP.                   NO:   One line per depth step
~Well Information Block
#MNEM.UNIT     VALUE/NAME     DESCRIPTION
#---------     -----------    ---------------------------
 STRT.S             22:24:43 19-May-20: START TIME 22:24:43 19-May-20
 STOP.S             22:33:01 19-May-20: STOP TIME  22:33:01 19-May-20
 STEP.S                   0.00: STEP TIME
 NULL.                 -999.25: NULL VALUE
 MDS .        Operator Entered:  MAG DATA SOURCE
 PDAT.          Mean Sea Level:  PERMANENT DATUM
 UNIT.                     N/A:  LOGGING EQUIPMENT ID
 DCON.         Sperry Drilling:  DIRECTNL CONTR
 DOE .                     N/A:  DOE NUMBER
 RIG .              East Azeri:  RIG NAME
 JOBN.        AZ-XX-0905856059:  JOB TICKET NUMB
 WELL.                     D36:  WELL NAME
 MWDS.                    Baku:  MWD SHOP
 SRVC.     Turan Drilling & Engineering:  CONTRACTOR
 FLD .                     ACG:  FIELD NAME
 CTRY.              Azerbaijan:  COUNTRY NAME
 PROV.                    Baku:  PROVINCE
 STAT.                    Baku:  STATE NAME
 REGN.                   EESSA:  REGION
 BASE.              Azerbaijan:  LOGGING EQUIPMENT BASE LOCATION
 UWI .                     N/A:  UNIQUE WELL IDENTIFIER
 API .                     N/A:  API NUMBER
 COMP.     BP Exploration (Caspian Sea) Ltd.:  COMPANY
 WTYP.                Deviated:  WELL TYPE
 SON .        AZ-XX-0905856059:  JOB NUMBER
 FTOP.          Formation Tops:  FORM TOPS DESC
 ILTD.               Lithology:  INTERP LTH DESC
 SVYD.                  Survey:  SURVEY DESC
 DMOD.             Drill Model:  DRILL MOD DESC
 HPTY.       Minimum Curvature:  HOLE POS TYPE
 NREF.                    Grid:  NORTH REFERENCE
 SPUD.               25-Feb-20:  SPUD DATE
 DATE.      08.55.28 01-May-20:  END TIME
 STIM.      08.55.28 25-Feb-20:  START TIME
 DMF .             Drill Floor:  DRILL MEAS FROM
 DFST.                        :  DIST FSL TEXT
 DFWT.                        :  DIST FWL TEXT
 CNTY.                        :  COUNTY
 LOC .                        :  LOCATION
 LMF .             Drill Floor:  LOG MEASURED FROM
 VSNS.m                   6.09:  VERT SEC N/S
 VSEW.m                 -10.79:  VERT SEC E/W
 AGAP.m                  43.60:  AIR GAP
 DEP .m                 388.24:  DEPTH
 APD .m                  43.60:  DEPTH ABOVE PD
 WDMS.m                 151.80:  WD ELEV
 EGL .m                   0.00:  GROUND ELEVATION
 EPD .m                   0.00:  ELEVATION
 AZTC.deg                 6.12:  AZM TOTAL CORR
 GRDC.deg                 0.30:  GRID CORRECTION
 MDEC.deg                 6.42:  MAGNETIC DECL
 MDIP.deg                59.42:  MAGNETIC DIP
 MFLD.nT              50256.00:  MAGNETIC FIELD
 GVFD.g                   1.00:  GRAVITY FIELD
 VSDR.deg               159.57:  VERT SEC DIRECT
 TDD .m                5000.01:  TOTAL DEPTH (DRILLER)
 SDEP.m                 397.00:  START DEPTH
 DFSL.m                   0.00:  DISTANCE FSL
 DFWL.m                   0.00:  DISTANCE FWL
 UTMY.m             4431880.20:  UTM Y
 UTMX.m              538763.98:  UTM X
 WHEW.m                 -10.79:  WELL HEAD E/W
 WHNS.m                   6.09:  WELL HEAD N/S
 LONG.deg                51.45:  LONGITUDE
 LATI.deg                40.02:  LATITUDE
 TVDS.m                  43.60:  TVDSS CORRECTN
 EKB .m                  43.60:  KB ELEVATION
 EDF .m                  43.60:  DF ELEVATION
 MAGU.                 1847640:  MAGUTM CHECKSUM
 VSC .                       0:  VS TO CLOSURE
~Parameter Information Block
#MNEM.UNIT       Value        Description
#---------     -----------    ---------------------------
 AV  .mps                 1.30:  Ann Velocity 
 AVMX.mps                 1.90:  Max Ann Veloc 
 AZIF.deg               115.68:  Azm, Final 
 BHAT.                   Other:  BHA Type 
 BROT.°/30m               0.74:  Build Rotating 
 BS  .in                  8.50:  Bit Size 
 BTPL.psig              430.00:  Bit Press Loss 
 CABU.                      No:  Customer Abuse 
 COMM.                     ”le:  Run Comments 1 
 TCS .hr                 51.31:  Time Ciculation Ended 
 CV  .mps                 2.52:  Crit Velocity 
 CVMX.mps                 2.62:  Max Crit Veloc 
 DD1 .          Teymur Aghayev:  Direct Drillr 1 
 DDSV.                   Other:  DD Service 
 DEFF.%                 100.00:  % Det Eff 
 DLRX.°/30m               1.62:  Dogleg Rot Max 
 DLSO.°/30m               0.74:  Dogleg Oriented 
 DLSX.°/30m               1.62:  Dogleg Str Max 
 DRET.      04.30.56 18-May-20:  Drill End Time 
 DRST.      04.30.56 18-May-20:  Drill Start Tim 
 DTIM.hr                  0.00:  Time Drilling 
 EDEP.m                5337.01:  End Depth 
 ENG1.      Artemiy Matviyanov:  Engineer 1 
 ENG2.      Bakhtiyar Jabbarli:  Engineer 2 
 ENG3.           Emil Huseynov:  Engineer 3 
 ETIM.      18.40.00 22-May-20:  End Time 
 FLOI.gpm               550.00:  Flow In 
 FLON.gpm               350.00:  Flow In Min 
 FLOS.cptm                0.00:  Fluid Loss 
 FLOX.gpm               600.00:  Flow In Max 
 HFLO.                      No:  High Flow 
 HPRE.                      No:  High Pressure 
 HTEM.                      No:  High Temp 
 HYDO.m                   1.80:  Hydro Offset 
 IFIN.deg                67.01:  Inc, Final 
 IMAX.deg                67.49:  Inc Max 
 IMIN.deg                66.50:  Inc Min 
 IMND.m                5144.79:  Inc Min Depth 
 IMXD.m                5116.12:  Inc Max Depth 
 JARR.                      No:  Jarring 
 LETM.      17.55.56 20-May-20:  Log End Time 
 LOST.hr                     0:  Lost Rig Time 
 LSTM.      04.30.56 18-May-20:  Log Start Time 
 MDCL.ppm            193153.00:  Mud Chlorides 
 MDES.     Inversion Oil/Synthetic:  Mud Desc 
 DFD .sg                  1.40:  Mud Density 
 MDMN.sg                  1.40:  Dens Mud Min 
 MDMX.sg                  1.41:  Dens Mud Max 
 MOIL.                      68:  Run Mud Oil % 
 MOWR.                   68:32:  Run Mud OWR 
 MSND.                     0.2:  Run Mud Sand % 
 MSOL.                    18.8:  Run Mud Solids% 
 DFV .spqt               80.00:  Mud Viscosity 
 MWOD.in                  6.75:  MWD Tool OD 
 MWSI.                      No:  Serv Intrp, MWD 
 OTIM.hr                104.84:  Time Operating 
 PMAX.psia            10690.93:  Press Op, Max 
 PV  .cP                 26.00:  Mud PV 
 RUN .                     900:  Run Number 
 ROPA.m/hr                0.00:  ROP Avg 
 ROPN.m/hr                0.00:  ROP Min 
 ROPX.m/hr                0.00:  ROP Max 
 RPMA.rpm               140.00:  RPM Surface Avg 
 RPMN.rpm                70.00:  RPM Surface Min 
 RPMX.rpm               140.00:  RPM Surface Max 
 RRUN.                    0900:  Rig Run Number 
 RTIM.hr                 36.00:  Time Reaming 
 SAZI.deg               115.72:  Azm, Start 
 SDEP.m                5337.01:  Start Depth 
 SIDD.                      No:  Serv Intrp, DD 
 SINC.deg                66.92:  Inc, Start 
 SPPA.psig             4400.00:  SPP Avg 
 SPPN.psig             1135.00:  SPP Min 
 SPPX.psig             4581.00:  SPP Max 
 STIM.      04.30.56 18-May-20:  Start Time 
 SVCS.                     MWD:  Services 
 SVER.                    9.20:  Sperry Version 
 TDAT.m                5337.01:  Tot Depth Attmp 
 TDDF.                      No:  Trip for DD 
 TFF .                      No:  Trip for Fail 
 TQAA.f-kp               23.00:  Torque Abs Avg 
 TQAN.f-kp               18.00:  Torque Abs Min 
 TQAX.f-kp               25.00:  Torque Abs Max 
 TRRT.°/30m               0.74:  Turn Rotating 
 MRT .                    HCIM:  Maximum Recorded Temperature 
 TTMX.degC               76.47:  Max Tool Temp 
 WBMN.klb                 0.00:  WOB Min 
 WITN.             Anar Khalil:  Customer Rep 
 WITN.      Kamran Keberlinski:  Customer Rep 2 
 WOBA.klb                 0.00:  WOB Avg 
 WOBX.klb                 0.00:  WOB Max 
 YP  .lhf2               27.00:  Yield Point 
~Curve Information Block
#MNEM.UNIT                 API CODE     Curve Description
#---------               -----------    ---------------------------
 TIME.HHMMSS            00 000 000 000:  GT Time & Date
 GTDEPTH.m              00 000 000 000:  GT Depth
 GTPQH.psia             00 000 000 000:  GT HR Quartz Pressure
 GTTQ.degC              00 000 000 000:  GT Quartz Temperature
 GTTN.NONE              00 000 000 000:  GT Test Number
 GTET.sec               00 000 000 000:  GT Elapsed Test Time
 GTTVD.m                00 000 000 000:  GT True Vertical Depth
#Other Information
#
#WARRANTY: Halliburton will use its best efforts to furnish customers with 
#accurate information and interpretations that are part of, and incident to, the services 
#provided.  However, Halliburton cannot and does not warrant the accuracy 
#or correctness of such information and interpretations.  Under no circumstances should any 
#such information or interpretation be relied upon as the sole basis for any drilling, 
#completion, production, or financial decision or any procedure involving any risk to the 
#safety of any drilling venture, drilling rig or its crew or any other third party.  The 
#Customer has full responsibility for all drilling, completion and production operation.  
#Halliburton makes no representations or warranties, either expressed or 
#implied, including, but not limited to, the implied warranties of merchantability or fitness 
#for a particular purpose, with respect to the services rendered.  In no event will 
#Halliburton be liable for failure to obtain any particular results or for 
#any damages, including, but not limited to, indirect, special or consequential damages, 
#resulting from the use of any information or interpretation provided by Halliburton.
#
~A           TIME           GTDEPTH  GTPQH  GTTQ  GTTN  GTET   GTTVD  
# ...
   22:28:33.062.19-May-2020 5137.01 6463.97 67.88 4.00 230.06 2705.05
   22:28:33.262.19-May-2020 5137.01 6463.97 67.88 4.00 230.26 2705.05
   22:28:33.462.19-May-2020 5137.01 6467.79 67.88 4.00 230.46 2705.05
   22:28:33.663.19-May-2020 5137.01 6463.49 67.88 4.00 230.66 2705.05
   22:28:33.863.19-May-2020 5137.01 6467.17 67.88 4.00 230.86 2705.05
   22:28:34.063.19-May-2020 5137.01 6464.09 67.88 4.00 231.06 2705.05
   22:28:34.263.19-May-2020 5137.01 6464.09 67.88 4.00 231.26 2705.05
   22:28:34.463.19-May-2020 5137.01 6466.74 67.88 4.00 231.46 2705.05
   22:28:34.663.19-May-2020 5137.01 6465.11 67.88 4.00 231.66 2705.05
   22:28:34.863.19-May-2020 5137.01 6467.15 67.88 4.00 231.86 2705.05
   22:28:35.063.19-May-2020 5137.01 6469.13 67.88 4.00 232.06 2705.05
   22:28:35.263.19-May-2020 5137.01 6469.13 67.88 4.00 232.26 2705.05
   22:28:35.463.19-May-2020 5137.01 6467.11 67.88 4.00 232.46 2705.05
   22:28:35.663.19-May-2020 5137.01 6466.13 67.88 4.00 232.66 2705.05
   22:28:35.863.19-May-2020 5137.01 6466.91 67.88 4.00 232.86 2705.05
   22:28:36.063.19-May-2020 5137.01 6465.57 67.88 4.00 233.06 2705.05
   22:28:36.263.19-May-2020 5137.01 6465.57 67.88 4.00 233.26 2705.05
   22:28:36.463.19-May-2020 5137.01 6466.52 67.88 4.00 233.46 2705.05
   22:28:36.663.19-May-2020 5137.01 6466.86 67.88 4.00 233.66 2705.05
   22:28:36.863.19-May-2020 5137.01 6466.95 67.88 4.00 233.86 2705.05
   22:28:37.063.19-May-2020 5137.01 6468.46 67.88 4.00 234.06 2705.05
   22:28:37.263.19-May-2020 5137.01 6468.46 67.88 4.00 234.26 2705.05
   22:28:37.463.19-May-2020 5137.01 6468.14 67.88 4.00 234.46 2705.05
   22:28:37.664.19-May-2020 5137.01 6464.76 67.88 4.00 234.66 2705.05
   22:28:37.864.19-May-2020 5137.01 6467.42 67.88 4.00 234.86 2705.05
   22:28:38.064.19-May-2020 5137.01 6464.35 67.88 4.00 235.06 2705.05
   22:28:38.264.19-May-2020 5137.01 6465.15 67.88 4.00 235.26 2705.05
   22:28:38.464.19-May-2020 5137.01 6465.38 67.88 4.00 235.46 2705.05
   22:28:38.664.19-May-2020 5137.01 6464.47 67.88 4.00 235.66 2705.05
   22:28:38.864.19-May-2020 5137.01 6464.89 67.88 4.00 235.86 2705.05
   22:28:39.064.19-May-2020 5137.01 6464.12 67.88 4.00 236.06 2705.05
   22:28:39.264.19-May-2020 5137.01 6464.12 67.88 4.00 236.26 2705.05
   22:28:39.464.19-May-2020 5137.01 6464.72 67.88 4.00 236.46 2705.05
   22:28:39.664.19-May-2020 5137.01 6463.65 67.88 4.00 236.66 2705.05
   22:28:39.864.19-May-2020 5137.01 6464.26 67.88 4.00 236.86 2705.05
   22:28:40.064.19-May-2020 5137.01 6466.90 67.88 4.00 237.06 2705.05
   22:28:40.264.19-May-2020 5137.01 6466.90 67.88 4.00 237.26 2705.05
   22:28:40.464.19-May-2020 5137.01 6466.33 67.88 4.00 237.46 2705.05
   22:28:40.664.19-May-2020 5137.01 6463.10 67.88 4.00 237.66 2705.05
   22:28:40.864.19-May-2020 5137.01 6469.79 67.88 4.00 237.86 2705.05
   22:28:41.064.19-May-2020 5137.01 6464.00 67.88 4.00 238.06 2705.05
   22:28:41.264.19-May-2020 5137.01 6464.00 67.88 4.00 238.26 2705.05
   22:28:41.464.19-May-2020 5137.01 6466.20 67.88 4.00 238.46 2705.05
   22:28:41.665.19-May-2020 5137.01 6468.68 67.88 4.00 238.66 2705.05
   22:28:41.865.19-May-2020 5137.01 6465.57 67.88 4.00 238.86 2705.05
   22:28:42.065.19-May-2020 5137.01 6467.59 67.88 4.00 239.06 2705.05
   22:28:42.265.19-May-2020 5137.01 6465.54 67.88 4.00 239.26 2705.05
   22:28:42.465.19-May-2020 5137.01 6467.33 67.88 4.00 239.46 2705.05
   22:28:42.665.19-May-2020 5137.01 6467.27 67.88 4.00 239.66 2705.05
   22:28:42.865.19-May-2020 5137.01 6466.99 67.88 4.00 239.86 2705.05
   22:28:43.065.19-May-2020 5137.01 6466.41 67.88 4.00 240.06 2705.05
   22:28:43.265.19-May-2020 5137.01 6466.41 67.88 4.00 240.26 2705.05
   22:28:43.465.19-May-2020 5137.01 6469.40 67.88 4.00 240.46 2705.05
   22:28:43.665.19-May-2020 5137.01 6465.18 67.88 4.00 240.66 2705.05
   22:28:43.865.19-May-2020 5137.01 6467.67 67.88 4.00 240.86 2705.05
   22:28:44.065.19-May-2020 5137.01 6466.21 67.88 4.00 241.06 2705.05
   22:28:44.265.19-May-2020 5137.01 6466.21 67.88 4.00 241.26 2705.05
   22:28:44.465.19-May-2020 5137.01 6465.76 67.88 4.00 241.46 2705.05
   22:28:44.665.19-May-2020 5137.01 6464.63 67.88 4.00 241.66 2705.05
   22:28:44.865.19-May-2020 5137.01 6465.09 67.88 4.00 241.86 2705.05
   22:28:45.065.19-May-2020 5137.01 6464.55 67.88 4.00 242.06 2705.05
   22:28:45.265.19-May-2020 5137.01 6464.55 67.88 4.00 242.26 2705.05
   22:28:45.465.19-May-2020 5137.01 6464.54 67.88 4.00 242.46 2705.05
   22:28:45.666.19-May-2020 5137.01 6463.84 67.88 4.00 242.66 2705.05
   22:28:45.866.19-May-2020 5137.01 6464.95 67.88 4.00 242.86 2705.05
   22:28:46.066.19-May-2020 5137.01 6463.82 67.88 4.00 243.06 2705.05
   22:28:46.266.19-May-2020 5137.01 6463.85 67.88 4.00 243.26 2705.05
   22:28:46.466.19-May-2020 5137.01 6465.40 67.88 4.00 243.46 2705.05
   22:28:46.666.19-May-2020 5137.01 6465.45 67.88 4.00 243.66 2705.05
   22:28:46.866.19-May-2020 5137.01 6465.16 67.88 4.00 243.86 2705.05
   22:28:47.066.19-May-2020 5137.01 6465.42 67.88 4.00 244.06 2705.05
   22:28:47.266.19-May-2020 5137.01 6465.42 67.88 4.00 244.26 2705.05
   22:28:47.466.19-May-2020 5137.01 6470.79 67.88 4.00 244.46 2705.05
   22:28:47.666.19-May-2020 5137.01 6461.80 67.88 4.00 244.66 2705.05
   22:28:47.866.19-May-2020 5137.01 6467.44 67.88 4.00 244.86 2705.05
   22:28:48.066.19-May-2020 5137.01 6465.20 67.88 4.00 245.06 2705.05
   22:28:48.266.19-May-2020 5137.01 6465.20 67.88 4.00 245.26 2705.05
   22:28:48.466.19-May-2020 5137.01 6464.79 67.88 4.00 245.46 2705.05
   22:28:48.666.19-May-2020 5137.01 6466.87 67.88 4.00 245.66 2705.05
   22:28:48.866.19-May-2020 5137.01 6465.00 67.88 4.00 245.86 2705.05
   22:28:49.066.19-May-2020 5137.01 6466.78 67.88 4.00 246.06 2705.05
   22:28:49.266.19-May-2020 5137.01 6466.78 67.88 4.00 246.26 2705.05
   22:28:49.466.19-May-2020 5137.01 6464.54 67.88 4.00 246.46 2705.05
   22:28:49.667.19-May-2020 5137.01 6466.59 67.88 4.00 246.66 2705.05
   22:28:49.867.19-May-2020 5137.01 6467.23 67.88 4.00 246.86 2705.05
   22:28:50.067.19-May-2020 5137.01 6470.66 67.88 4.00 247.06 2705.05
   22:28:50.267.19-May-2020 5137.01 6463.32 67.88 4.00 247.26 2705.05
   22:28:50.467.19-May-2020 5137.01 6468.36 67.88 4.00 247.46 2705.05
   22:28:50.667.19-May-2020 5137.01 6465.80 67.88 4.00 247.66 2705.05
   22:28:50.867.19-May-2020 5137.01 6467.20 67.88 4.00 247.86 2705.05
   22:28:51.067.19-May-2020 5137.01 6464.58 67.88 4.00 248.06 2705.05
   22:28:51.267.19-May-2020 5137.01 6464.58 67.88 4.00 248.26 2705.05
   22:28:51.467.19-May-2020 5137.01 6465.08 67.88 4.00 248.46 2705.05
   22:28:51.667.19-May-2020 5137.01 6464.61 67.88 4.00 248.66 2705.05
   22:28:51.867.19-May-2020 5137.01 6465.25 67.88 4.00 248.86 2705.05
   22:28:52.067.19-May-2020 5137.01 6463.86 67.88 4.00 249.06 2705.05
   22:28:52.267.19-May-2020 5137.01 6463.86 67.88 4.00 249.26 2705.05
   22:28:52.467.19-May-2020 5137.01 6464.65 67.88 4.00 249.46 2705.05
   22:28:52.667.19-May-2020 5137.01 6463.38 67.88 4.00 249.66 2705.05
   22:28:52.867.19-May-2020 5137.01 6464.08 67.88 4.00 249.86 2705.05
   22:28:53.067.19-May-2020 5137.01 6466.31 67.88 4.00 250.06 2705.05
   22:28:53.267.19-May-2020 5137.01 6466.31 67.88 4.00 250.26 2705.05
   22:28:53.467.19-May-2020 5137.01 6465.65 67.88 4.00 250.46 2705.05
   22:28:53.668.19-May-2020 5137.01 6464.27 67.88 4.00 250.66 2705.05
   22:28:53.868.19-May-2020 5137.01 6465.02 67.88 4.00 250.86 2705.05
   22:28:54.068.19-May-2020 5137.01 6467.10 67.88 4.00 251.06 2705.05
   22:28:54.268.19-May-2020 5137.01 6467.10 67.88 4.00 251.26 2705.05
   22:28:54.468.19-May-2020 5137.01 6466.93 67.88 4.00 251.46 2705.05
   22:28:54.668.19-May-2020 5137.01 6463.96 67.88 4.00 251.66 2705.05
   22:28:54.868.19-May-2020 5137.01 6466.45 67.88 4.00 251.86 2705.05
   22:28:55.068.19-May-2020 5137.01 6466.83 67.88 4.00 252.06 2705.05
   22:28:55.268.19-May-2020 5137.01 6466.83 67.88 4.00 252.26 2705.05
   22:28:55.468.19-May-2020 5137.01 6467.47 67.88 4.00 252.46 2705.05
   22:28:55.668.19-May-2020 5137.01 6464.73 67.88 4.00 252.66 2705.05
   22:28:55.868.19-May-2020 5137.01 6466.65 67.88 4.00 252.86 2705.05
