~Version Information
 VERS.                  2.0:   CWLS log ASCII Standard -VERSION 2.0
 WRAP.                   NO:   One line per depth step
~Well Information Block
#MNEM.UNIT     VALUE/NAME     DESCRIPTION
#---------     -----------    ---------------------------
 STRT.S             07:44:59 25-Aug-20: START TIME 07:44:59 25-Aug-20
 STOP.S             07:51:54 25-Aug-20: STOP TIME  07:51:54 25-Aug-20
 STEP.S                   0.00: STEP TIME
 NULL.                 -999.25: NULL VALUE
 DFWT.                        :  DIST FWL TEXT
 DFST.                        :  DIST FSL TEXT
 DMF .             Drill Floor:  DRILL MEAS FROM
 STIM.      09.59.28 01-Jun-20:  START TIME
 DATE.      05.00.00 28-Aug-20:  END TIME
 SPUD.               01-Jun-20:  SPUD DATE
 NREF.                    Grid:  NORTH REFERENCE
 HPTY.       Minimum Curvature:  HOLE POS TYPE
 DMOD.             Drill Model:  DRILL MOD DESC
 SVYD.                  Survey:  SURVEY DESC
 ILTD.               Lithology:  INTERP LTH DESC
 FTOP.          Formation Tops:  FORM TOPS DESC
 SON .        AZ-XX-0905455768:  JOB NUMBER
 WTYP.                Deviated:  WELL TYPE
 COMP.     BP Exploration(Caspian Sea):  COMPANY
 BASE.              Azerbaijan:  LOGGING EQUIPMENT BASE LOCATION
 REGN.                   EESSA:  REGION
 CTRY.              Azerbaijan:  COUNTRY NAME
 FLD .                     ACG:  FIELD NAME
 SRVC.          Turan Drilling:  CONTRACTOR
 WELL.                     B41:  WELL NAME
 RIG .           Central Azeri:  RIG NAME
 DCON.         Sperry Drilling:  DIRECTNL CONTR
 PDAT.          Mean Sea Level:  PERMANENT DATUM
 MDS .        Operator Entered:  MAG DATA SOURCE
 API .                        :  API NUMBER
 CNTY.                        :  COUNTY
 PROV.                        :  PROVINCE
 STAT.                        :  STATE
 UWI .                        :  UNIQUE WELL IDENTIFIER
 LOC .                        :  LOCATION
 LMF .             Drill Floor:  LOG MEASURED FROM
 TVDS.m                  43.29:  TVDSS CORRECTN
 LATI.deg                40.03:  LATITUDE
 LONG.deg                51.35:  LONGITUDE
 WHNS.m                  12.98:  WELL HEAD N/S
 WHEW.m                  -6.62:  WELL HEAD E/W
 UTMX.m              530128.28:  UTM X
 UTMY.m             4433192.49:  UTM Y
 DFWL.m                   0.00:  DISTANCE FWL
 DFSL.m                   0.00:  DISTANCE FSL
 SDEP.m                 378.00:  START DEPTH
 TDD .m                4463.01:  TOTAL DEPTH (DRILLER)
 VSDR.deg               296.18:  VERT SEC DIRECT
 GVFD.g                   1.00:  GRAVITY FIELD
 MFLD.nT              50269.00:  MAGNETIC FIELD
 MDIP.deg                59.50:  MAGNETIC DIP
 MDEC.deg                 6.44:  MAGNETIC DECL
 GRDC.deg                 0.20:  GRID CORRECTION
 AZTC.deg                 6.24:  AZM TOTAL CORR
 EPD .m                   0.00:  ELEVATION
 EGL .m                   0.00:  GROUND ELEVATION
 WDMS.m                 128.20:  WD ELEV
 APD .m                  43.29:  DEPTH ABOVE PD
 AGAP.m                  43.29:  AIR GAP
 VSEW.m                  -6.62:  VERT SEC E/W
 VSNS.m                  12.98:  VERT SEC N/S
 EKB .m                  43.29:  KB ELEVATION
 EDF .m                  43.29:  DF ELEVATION
 TDL .m                 147.00:  TOTAL DEPTH (LOGGER)
 VSC .                       0:  VS TO CLOSURE
 MAGU.                 1849241:  MAGUTM CHECKSUM
~Parameter Information Block
#MNEM.UNIT       Value        Description
#---------     -----------    ---------------------------
 AV  .mps                 0.70:  Ann Velocity 
 AZIF.deg               269.43:  Azm, Final 
 BHAT.        Rotary Steerable:  BHA Type 
 BROT.°/30m              -0.03:  Build Rotating 
 BS  .in                  8.50:  Bit Size 
 BSZ .in                  8.50:  Bit Size 
 BTPL.psig              880.00:  Bit Press Loss 
 CABU.                      No:  Customer Abuse 
 CGEO.          Parviz Guliyev:  Customer Geo 
 COMM.                     í_:  Run Comments 1 
 TCS .hr                 64.59:  Time Ciculation Ended 
 CV  .mps                 2.17:  Crit Velocity 
 DD1 .            Nonso Okafor:  Direct Drillr 1 
 DDSV.               Geo-Pilot:  DD Service 
 DEFF.%                  98.00:  % Det Eff 
 DLRX.°/30m               0.81:  Dogleg Rot Max 
 DLSO.°/30m               0.55:  Dogleg Oriented 
 DLSX.°/30m               0.81:  Dogleg Str Max 
 DRET.      23.50.00 24-Aug-20:  Drill End Time 
 DRST.      07.34.24 22-Aug-20:  Drill Start Tim 
 DTIM.hr                 15.29:  Time Drilling 
 EDEP.m                4461.01:  End Depth 
 ENG1.       Zam Abdullah Sani:  Engineer 1 
 ENG2.         Dair Mahammadov:  Engineer 2 
 ENG3.          Rustam Gadirov:  Engineer 3 
 ETIM.      07.34.24 26-Aug-20:  End Time 
 FLOI.gpm               550.00:  Flow In 
 FLON.gpm               400.00:  Flow In Min 
 FLOS.cptm                1.00:  Fluid Loss 
 FLOX.gpm               600.00:  Flow In Max 
 FTRO.       Formation Presure:  FTWD Run Obj 
 HFLO.                      No:  High Flow 
 HPRE.                      No:  High Pressure 
 HTEM.                      No:  High Temp 
 HYDO.m                   1.80:  Hydro Offset 
 IFIN.deg                66.72:  Inc, Final 
 IMAX.deg                67.42:  Inc Max 
 IMIN.deg                66.72:  Inc Min 
 IMND.m                4408.37:  Inc Min Depth 
 IMXD.m                4323.37:  Inc Max Depth 
 JARR.                      No:  Jarring 
 LETM.      23.50.00 24-Aug-20:  Log End Time 
 LOST.hr                     0:  Lost Rig Time 
 LSTM.      07.34.24 22-Aug-20:  Log Start Time 
 MDCL.ppm             38000.00:  Mud Chlorides 
 MDES.     Inversion Oil/Synthetic:  Mud Desc 
 DFD .sg                  1.40:  Mud Density 
 MDMN.sg                  1.38:  Dens Mud Min 
 MDMX.sg                  1.41:  Dens Mud Max 
 MOIL.                    70.5:  Run Mud Oil % 
 MOWR.                   68:32:  Run Mud OWR 
 MSND.                    0.01:  Run Mud Sand % 
 MSOL.                   17.68:  Run Mud Solids% 
 DFV .spqt               77.00:  Mud Viscosity 
 MWOD.in                  6.75:  MWD Tool OD 
 MWSI.                      No:  Serv Intrp, MWD 
 OTIM.hr                159.42:  Time Operating 
 PCON.           Look Like New:  Pad Condition 
 PMAX.psia             8730.94:  Press Op, Max 
 PV  .cP                 31.00:  Mud PV 
 RUN .                     900:  Run Number 
 ROPA.m/hr               12.00:  ROP Avg 
 ROPN.m/hr                7.00:  ROP Min 
 ROPX.m/hr               17.00:  ROP Max 
 RPMA.rpm               120.00:  RPM Surface Avg 
 RPMN.rpm                60.00:  RPM Surface Min 
 RPMX.rpm               140.00:  RPM Surface Max 
 RRUN.                    L604:  Rig Run Number 
 RTIM.hr                 10.00:  Time Reaming 
 SAZI.deg               270.56:  Azm, Start 
 SDEP.m                4314.01:  Start Depth 
 SIDD.                      No:  Serv Intrp, DD 
 SINC.deg                67.42:  Inc, Start 
 SPPA.psig             3300.00:  SPP Avg 
 SPPN.psig             1750.00:  SPP Min 
 SPPX.psig             4630.00:  SPP Max 
 STIM.      11.00.00 21-Aug-20:  Start Time 
 SVCS.                 DD, MWD:  Services 
 SVER.                    9.20:  Sperry Version 
 TDAT.m                4461.01:  Tot Depth Attmp 
 TDDF.                      No:  Trip for DD 
 TDLG.m                 147.00:  Tot Depth Loggd 
 TFF .                      No:  Trip for Fail 
 TQAA.f-kp               16.00:  Torque Abs Avg 
 TQAN.f-kp               14.00:  Torque Abs Min 
 TQAX.f-kp               20.00:  Torque Abs Max 
 TRRT.°/30m              -0.14:  Turn Rotating 
 MRT .                    HCIM:  Maximum Recorded Temperature 
 TTMX.degC               78.00:  Max Tool Temp 
 VS01.                90515425:  Virtual Str1 SN 
 VS02.                90545184:  Virtual Str2 SN 
 VS03.                90527809:  Virtual Str3 SN 
 VS04.                90515232:  Virtual Str4 SN 
 VS05.                90621207:  Virtual Str5 SN 
 VS06.                90619737:  Virtual Str6 SN 
 WBMN.klb                 2.00:  WOB Min 
 WITN.          Keith Dischler:  Customer Rep 
 WITN.           Faig Mammadov:  Customer Rep 2 
 WOBA.klb                 5.00:  WOB Avg 
 WOBX.klb                 8.00:  WOB Max 
 YP  .lhf2               32.00:  Yield Point 
~Curve Information Block
#MNEM.UNIT                 API CODE     Curve Description
#---------               -----------    ---------------------------
 TIME.HHMMSS            00 000 000 000:  GT Time & Date
 GTET.sec               00 000 000 000:  GT Elapsed Test Time
 GTPQH.psia             00 000 000 000:  GT HR Quartz Pressure
 GTDEPTH.m              00 000 000 000:  GT Depth
 GTTVD.m                00 000 000 000:  GT True Vertical Depth
 GTTQ.degC              00 000 000 000:  GT Quartz Temperature
 GTTN.NONE              00 000 000 000:  GT Test Number
#Other Information
#
#WARRANTY: Halliburton will use its best efforts to furnish customers with 
#accurate information and interpretations that are part of, and incident to, the services 
#provided.  However, Halliburton cannot and does not warrant the accuracy 
#or correctness of such information and interpretations.  Under no circumstances should any 
#such information or interpretation be relied upon as the sole basis for any drilling, 
#completion, production, or financial decision or any procedure involving any risk to the 
#safety of any drilling venture, drilling rig or its crew or any other third party.  The 
#Customer has full responsibility for all drilling, completion and production operation.  
#Halliburton makes no representations or warranties, either expressed or 
#implied, including, but not limited to, the implied warranties of merchantability or fitness 
#for a particular purpose, with respect to the services rendered.  In no event will 
#Halliburton be liable for failure to obtain any particular results or for 
#any damages, including, but not limited to, indirect, special or consequential damages, 
#resulting from the use of any information or interpretation provided by Halliburton.
#
~A           TIME            GTET   GTPQH  GTDEPTH  GTTVD  GTTQ  GTTN 
# ...
   07:50:44.000.25-Aug-2020 345.00  745.10 4371.01 2065.33 72.47 4.00
   07:50:44.200.25-Aug-2020 345.20  745.10 4371.01 2065.33 72.47 4.00
   07:50:44.400.25-Aug-2020 345.40  746.65 4371.01 2065.33 72.47 4.00
   07:50:44.600.25-Aug-2020 345.60  747.39 4371.01 2065.33 72.47 4.00
   07:50:44.800.25-Aug-2020 345.80  748.09 4371.01 2065.33 72.47 4.00
   07:50:45.000.25-Aug-2020 346.00  748.81 4371.01 2065.33 72.47 4.00
   07:50:45.200.25-Aug-2020 346.20  748.81 4371.01 2065.33 72.47 4.00
   07:50:45.400.25-Aug-2020 346.40  750.20 4371.01 2065.33 72.47 4.00
   07:50:45.600.25-Aug-2020 346.60  750.77 4371.01 2065.33 72.47 4.00
   07:50:45.800.25-Aug-2020 346.80  751.08 4371.01 2065.33 72.47 4.00
   07:50:46.000.25-Aug-2020 347.00  751.39 4371.01 2065.33 72.47 4.00
   07:50:46.200.25-Aug-2020 347.20  751.39 4371.01 2065.33 72.47 4.00
   07:50:46.400.25-Aug-2020 347.40  752.01 4371.01 2065.33 72.47 4.00
   07:50:46.600.25-Aug-2020 347.60  752.39 4371.01 2065.33 72.47 4.00
   07:50:46.800.25-Aug-2020 347.80  752.76 4371.01 2065.33 72.47 4.00
   07:50:47.000.25-Aug-2020 348.00  753.25 4371.01 2065.33 72.47 4.00
   07:50:47.200.25-Aug-2020 348.20  753.25 4371.01 2065.33 72.47 4.00
   07:50:47.400.25-Aug-2020 348.40  754.07 4371.01 2065.33 72.47 4.00
   07:50:47.600.25-Aug-2020 348.60  754.46 4371.01 2065.33 72.47 4.00
   07:50:47.800.25-Aug-2020 348.80  755.46 4371.01 2065.33 72.47 4.00
   07:50:48.000.25-Aug-2020 349.00  756.72 4371.01 2065.33 72.47 4.00
   07:50:48.200.25-Aug-2020 349.20  756.72 4371.01 2065.33 72.47 4.00
   07:50:48.400.25-Aug-2020 349.40  758.69 4371.01 2065.33 72.47 4.00
   07:50:48.600.25-Aug-2020 349.60  759.66 4371.01 2065.33 72.47 4.00
   07:50:48.800.25-Aug-2020 349.80  760.98 4371.01 2065.33 72.47 4.00
   07:50:49.000.25-Aug-2020 350.00  762.07 4371.01 2065.33 72.47 4.00
   07:50:49.200.25-Aug-2020 350.20  762.07 4371.01 2065.33 72.47 4.00
   07:50:49.400.25-Aug-2020 350.40  763.52 4371.01 2065.33 72.47 4.00
   07:50:49.600.25-Aug-2020 350.60  764.23 4371.01 2065.33 72.47 4.00
   07:50:49.800.25-Aug-2020 350.80  765.00 4371.01 2065.33 72.47 4.00
   07:50:50.000.25-Aug-2020 351.00  765.65 4371.01 2065.33 72.47 4.00
   07:50:50.200.25-Aug-2020 351.20  765.65 4371.01 2065.33 72.47 4.00
   07:50:50.400.25-Aug-2020 351.40  766.92 4371.01 2065.33 72.47 4.00
   07:50:50.600.25-Aug-2020 351.60  767.35 4371.01 2065.33 72.47 4.00
   07:50:50.800.25-Aug-2020 351.80  767.71 4371.01 2065.33 72.47 4.00
   07:50:51.000.25-Aug-2020 352.00  768.09 4371.01 2065.33 72.47 4.00
   07:50:51.200.25-Aug-2020 352.20  768.09 4371.01 2065.33 72.47 4.00
   07:50:51.400.25-Aug-2020 352.40  768.74 4371.01 2065.33 72.47 4.00
   07:50:51.600.25-Aug-2020 352.60  769.00 4371.01 2065.33 72.47 4.00
   07:50:51.800.25-Aug-2020 352.80  769.25 4371.01 2065.33 72.47 4.00
   07:50:52.000.25-Aug-2020 353.00  769.49 4371.01 2065.33 72.47 4.00
   07:50:52.200.25-Aug-2020 353.20  769.49 4371.01 2065.33 72.47 4.00
   07:50:52.400.25-Aug-2020 353.40  770.22 4371.01 2065.33 72.47 4.00
   07:50:52.600.25-Aug-2020 353.60  770.70 4371.01 2065.33 72.47 4.00
   07:50:52.800.25-Aug-2020 353.80  770.88 4371.01 2065.33 72.47 4.00
   07:50:53.000.25-Aug-2020 354.00  770.97 4371.01 2065.33 72.47 4.00
   07:50:53.200.25-Aug-2020 354.20  770.97 4371.01 2065.33 72.47 4.00
   07:50:53.400.25-Aug-2020 354.40  771.34 4371.01 2065.33 72.47 4.00
   07:50:53.600.25-Aug-2020 354.60  771.44 4371.01 2065.33 72.47 4.00
   07:50:53.800.25-Aug-2020 354.80  771.79 4371.01 2065.33 72.47 4.00
   07:50:54.000.25-Aug-2020 355.00  772.42 4371.01 2065.33 72.47 4.00
   07:50:54.200.25-Aug-2020 355.20  772.42 4371.01 2065.33 72.47 4.00
   07:50:54.400.25-Aug-2020 355.40  773.16 4371.01 2065.33 72.47 4.00
   07:50:54.600.25-Aug-2020 355.60  773.53 4371.01 2065.33 72.47 4.00
   07:50:54.800.25-Aug-2020 355.80  773.84 4371.01 2065.33 72.47 4.00
   07:50:55.000.25-Aug-2020 356.00  774.03 4371.01 2065.33 72.47 4.00
   07:50:55.200.25-Aug-2020 356.20  774.03 4371.01 2065.33 72.47 4.00
   07:50:55.400.25-Aug-2020 356.40  774.27 4371.01 2065.33 72.47 4.00
   07:50:55.600.25-Aug-2020 356.60  774.41 4371.01 2065.33 72.47 4.00
   07:50:55.800.25-Aug-2020 356.80  774.56 4371.01 2065.33 72.47 4.00
   07:50:56.000.25-Aug-2020 357.00  774.74 4371.01 2065.33 72.47 4.00
   07:50:56.200.25-Aug-2020 357.20  774.74 4371.01 2065.33 72.47 4.00
   07:50:56.400.25-Aug-2020 357.40  775.11 4371.01 2065.33 72.47 4.00
   07:50:56.600.25-Aug-2020 357.60  775.30 4371.01 2065.33 72.47 4.00
   07:50:56.800.25-Aug-2020 357.80  775.50 4371.01 2065.33 72.47 4.00
   07:50:57.000.25-Aug-2020 358.00  775.70 4371.01 2065.33 72.47 4.00
   07:50:57.200.25-Aug-2020 358.20  775.70 4371.01 2065.33 72.47 4.00
   07:50:57.400.25-Aug-2020 358.40  776.00 4371.01 2065.33 72.47 4.00
   07:50:57.600.25-Aug-2020 358.60  776.23 4371.01 2065.33 72.47 4.00
   07:50:57.800.25-Aug-2020 358.80  776.43 4371.01 2065.33 72.47 4.00
   07:50:58.000.25-Aug-2020 359.00  776.52 4371.01 2065.33 72.47 4.00
   07:50:58.200.25-Aug-2020 359.20  776.52 4371.01 2065.33 72.47 4.00
   07:50:58.400.25-Aug-2020 359.40  782.18 4371.01 2065.33 72.47 4.00
   07:50:58.600.25-Aug-2020 359.60  805.83 4371.01 2065.33 72.47 4.00
   07:50:58.800.25-Aug-2020 359.80  839.11 4371.01 2065.33 72.47 4.00
   07:50:59.000.25-Aug-2020 360.00 2993.92 4371.01 2065.33 72.47 4.00
   07:50:59.200.25-Aug-2020 360.20 2993.92 4371.01 2065.33 72.47 4.00
   07:50:59.400.25-Aug-2020 360.40 4789.82 4371.01 2065.33 72.47 4.00
   07:50:59.600.25-Aug-2020 360.60 4790.57 4371.01 2065.33 72.48 4.00
   07:50:59.800.25-Aug-2020 360.80 4790.94 4371.01 2065.33 72.48 4.00
   07:51:00.000.25-Aug-2020 361.00 4790.51 4371.01 2065.33 72.48 4.00
   07:51:00.200.25-Aug-2020 361.20 4790.51 4371.01 2065.33 72.48 4.00
   07:51:00.400.25-Aug-2020 361.40 4791.70 4371.01 2065.33 72.48 4.00
   07:51:00.600.25-Aug-2020 361.60 4792.17 4371.01 2065.33 72.49 4.00
   07:51:00.800.25-Aug-2020 361.80 4800.78 4371.01 2065.33 72.49 4.00
   07:51:01.000.25-Aug-2020 362.00 4801.25 4371.01 2065.33 72.49 4.00
   07:51:01.200.25-Aug-2020 362.20 4801.25 4371.01 2065.33 72.49 4.00
   07:51:01.400.25-Aug-2020 362.40 4796.93 4371.01 2065.33 72.50 4.00
   07:51:01.600.25-Aug-2020 362.60 4796.64 4371.01 2065.33 72.50 4.00
   07:51:01.800.25-Aug-2020 362.80 4798.54 4371.01 2065.33 72.50 4.00
   07:51:02.000.25-Aug-2020 363.00 4799.28 4371.01 2065.33 72.51 4.00
   07:51:02.200.25-Aug-2020 363.20 4799.28 4371.01 2065.33 72.51 4.00
   07:51:02.400.25-Aug-2020 363.40 4799.69 4371.01 2065.33 72.52 4.00
   07:51:02.600.25-Aug-2020 363.60 4798.01 4371.01 2065.33 72.52 4.00
   07:51:02.800.25-Aug-2020 363.80 4797.85 4371.01 2065.33 72.52 4.00
   07:51:03.000.25-Aug-2020 364.00 4797.70 4371.01 2065.33 72.53 4.00
   07:51:03.200.25-Aug-2020 364.20 4797.70 4371.01 2065.33 72.53 4.00
   07:51:03.400.25-Aug-2020 364.40 4808.00 4371.01 2065.33 72.53 4.00
   07:51:03.600.25-Aug-2020 364.60 4800.13 4371.01 2065.33 72.54 4.00
   07:51:03.800.25-Aug-2020 364.80 4805.43 4371.01 2065.33 72.54 4.00
   07:51:04.000.25-Aug-2020 365.00 4801.58 4371.01 2065.33 72.54 4.00
   07:51:04.200.25-Aug-2020 365.20 4801.58 4371.01 2065.33 72.54 4.00
   07:51:04.400.25-Aug-2020 365.40 4800.06 4371.01 2065.33 72.55 4.00
   07:51:04.600.25-Aug-2020 365.60 4800.41 4371.01 2065.33 72.55 4.00
   07:51:04.800.25-Aug-2020 365.80 4803.73 4371.01 2065.33 72.55 4.00
   07:51:05.000.25-Aug-2020 366.00 4805.19 4371.01 2065.33 72.55 4.00
   07:51:05.200.25-Aug-2020 366.20 4805.19 4371.01 2065.33 72.55 4.00
   07:51:05.400.25-Aug-2020 366.40 4802.86 4371.01 2065.33 72.56 4.00
   07:51:05.600.25-Aug-2020 366.60 4800.28 4371.01 2065.33 72.56 4.00
   07:51:05.800.25-Aug-2020 366.80 4800.55 4371.01 2065.33 72.56 4.00
   07:51:06.000.25-Aug-2020 367.00 4800.81 4371.01 2065.33 72.57 4.00
   07:51:06.200.25-Aug-2020 367.20 4800.81 4371.01 2065.33 72.57 4.00
   07:51:06.400.25-Aug-2020 367.40 4809.96 4371.01 2065.33 72.57 4.00
   07:51:06.600.25-Aug-2020 367.60 4801.40 4371.01 2065.33 72.57 4.00
   07:51:06.800.25-Aug-2020 367.80 4805.68 4371.01 2065.33 72.57 4.00
