~Version Information
 VERS.                  2.0:   CWLS log ASCII Standard -VERSION 2.0
 WRAP.                   NO:   One line per depth step
~Well Information Block
#MNEM.UNIT     VALUE/NAME     DESCRIPTION
#---------     -----------    ---------------------------
 STRT.S             08:04:20 25-Aug-20: START TIME 08:04:20 25-Aug-20
 STOP.S             08:11:17 25-Aug-20: STOP TIME  08:11:17 25-Aug-20
 STEP.S                   0.00: STEP TIME
 NULL.                 -999.25: NULL VALUE
 DFWT.                        :  DIST FWL TEXT
 DFST.                        :  DIST FSL TEXT
 DMF .             Drill Floor:  DRILL MEAS FROM
 STIM.      09.59.28 01-Jun-20:  START TIME
 DATE.      05.00.00 28-Aug-20:  END TIME
 SPUD.               01-Jun-20:  SPUD DATE
 NREF.                    Grid:  NORTH REFERENCE
 HPTY.       Minimum Curvature:  HOLE POS TYPE
 DMOD.             Drill Model:  DRILL MOD DESC
 SVYD.                  Survey:  SURVEY DESC
 ILTD.               Lithology:  INTERP LTH DESC
 FTOP.          Formation Tops:  FORM TOPS DESC
 SON .        AZ-XX-0905455768:  JOB NUMBER
 WTYP.                Deviated:  WELL TYPE
 COMP.     BP Exploration(Caspian Sea):  COMPANY
 BASE.              Azerbaijan:  LOGGING EQUIPMENT BASE LOCATION
 REGN.                   EESSA:  REGION
 CTRY.              Azerbaijan:  COUNTRY NAME
 FLD .                     ACG:  FIELD NAME
 SRVC.          Turan Drilling:  CONTRACTOR
 WELL.                     B41:  WELL NAME
 RIG .           Central Azeri:  RIG NAME
 DCON.         Sperry Drilling:  DIRECTNL CONTR
 PDAT.          Mean Sea Level:  PERMANENT DATUM
 MDS .        Operator Entered:  MAG DATA SOURCE
 API .                        :  API NUMBER
 CNTY.                        :  COUNTY
 PROV.                        :  PROVINCE
 STAT.                        :  STATE
 UWI .                        :  UNIQUE WELL IDENTIFIER
 LOC .                        :  LOCATION
 LMF .             Drill Floor:  LOG MEASURED FROM
 TVDS.m                  43.29:  TVDSS CORRECTN
 LATI.deg                40.03:  LATITUDE
 LONG.deg                51.35:  LONGITUDE
 WHNS.m                  12.98:  WELL HEAD N/S
 WHEW.m                  -6.62:  WELL HEAD E/W
 UTMX.m              530128.28:  UTM X
 UTMY.m             4433192.49:  UTM Y
 DFWL.m                   0.00:  DISTANCE FWL
 DFSL.m                   0.00:  DISTANCE FSL
 SDEP.m                 378.00:  START DEPTH
 TDD .m                4463.01:  TOTAL DEPTH (DRILLER)
 VSDR.deg               296.18:  VERT SEC DIRECT
 GVFD.g                   1.00:  GRAVITY FIELD
 MFLD.nT              50269.00:  MAGNETIC FIELD
 MDIP.deg                59.50:  MAGNETIC DIP
 MDEC.deg                 6.44:  MAGNETIC DECL
 GRDC.deg                 0.20:  GRID CORRECTION
 AZTC.deg                 6.24:  AZM TOTAL CORR
 EPD .m                   0.00:  ELEVATION
 EGL .m                   0.00:  GROUND ELEVATION
 WDMS.m                 128.20:  WD ELEV
 APD .m                  43.29:  DEPTH ABOVE PD
 AGAP.m                  43.29:  AIR GAP
 VSEW.m                  -6.62:  VERT SEC E/W
 VSNS.m                  12.98:  VERT SEC N/S
 EKB .m                  43.29:  KB ELEVATION
 EDF .m                  43.29:  DF ELEVATION
 TDL .m                 147.00:  TOTAL DEPTH (LOGGER)
 VSC .                       0:  VS TO CLOSURE
 MAGU.                 1849241:  MAGUTM CHECKSUM
~Parameter Information Block
#MNEM.UNIT       Value        Description
#---------     -----------    ---------------------------
 AV  .mps                 0.70:  Ann Velocity 
 AZIF.deg               269.43:  Azm, Final 
 BHAT.        Rotary Steerable:  BHA Type 
 BROT.°/30m              -0.03:  Build Rotating 
 BS  .in                  8.50:  Bit Size 
 BSZ .in                  8.50:  Bit Size 
 BTPL.psig              880.00:  Bit Press Loss 
 CABU.                      No:  Customer Abuse 
 CGEO.          Parviz Guliyev:  Customer Geo 
 COMM.                     <oh:  Run Comments 1 
 TCS .hr                 64.59:  Time Ciculation Ended 
 CV  .mps                 2.17:  Crit Velocity 
 DD1 .            Nonso Okafor:  Direct Drillr 1 
 DDSV.               Geo-Pilot:  DD Service 
 DEFF.%                  98.00:  % Det Eff 
 DLRX.°/30m               0.81:  Dogleg Rot Max 
 DLSO.°/30m               0.55:  Dogleg Oriented 
 DLSX.°/30m               0.81:  Dogleg Str Max 
 DRET.      23.50.00 24-Aug-20:  Drill End Time 
 DRST.      07.34.24 22-Aug-20:  Drill Start Tim 
 DTIM.hr                 15.29:  Time Drilling 
 EDEP.m                4461.01:  End Depth 
 ENG1.       Zam Abdullah Sani:  Engineer 1 
 ENG2.         Dair Mahammadov:  Engineer 2 
 ENG3.          Rustam Gadirov:  Engineer 3 
 ETIM.      07.34.24 26-Aug-20:  End Time 
 FLOI.gpm               550.00:  Flow In 
 FLON.gpm               400.00:  Flow In Min 
 FLOS.cptm                1.00:  Fluid Loss 
 FLOX.gpm               600.00:  Flow In Max 
 FTRO.       Formation Presure:  FTWD Run Obj 
 HFLO.                      No:  High Flow 
 HPRE.                      No:  High Pressure 
 HTEM.                      No:  High Temp 
 HYDO.m                   1.80:  Hydro Offset 
 IFIN.deg                66.72:  Inc, Final 
 IMAX.deg                67.42:  Inc Max 
 IMIN.deg                66.72:  Inc Min 
 IMND.m                4408.37:  Inc Min Depth 
 IMXD.m                4323.37:  Inc Max Depth 
 JARR.                      No:  Jarring 
 LETM.      23.50.00 24-Aug-20:  Log End Time 
 LOST.hr                     0:  Lost Rig Time 
 LSTM.      07.34.24 22-Aug-20:  Log Start Time 
 MDCL.ppm             38000.00:  Mud Chlorides 
 MDES.     Inversion Oil/Synthetic:  Mud Desc 
 DFD .sg                  1.40:  Mud Density 
 MDMN.sg                  1.38:  Dens Mud Min 
 MDMX.sg                  1.41:  Dens Mud Max 
 MOIL.                    70.5:  Run Mud Oil % 
 MOWR.                   68:32:  Run Mud OWR 
 MSND.                    0.01:  Run Mud Sand % 
 MSOL.                   17.68:  Run Mud Solids% 
 DFV .spqt               77.00:  Mud Viscosity 
 MWOD.in                  6.75:  MWD Tool OD 
 MWSI.                      No:  Serv Intrp, MWD 
 OTIM.hr                159.42:  Time Operating 
 PCON.           Look Like New:  Pad Condition 
 PMAX.psia             8730.94:  Press Op, Max 
 PV  .cP                 31.00:  Mud PV 
 RUN .                     900:  Run Number 
 ROPA.m/hr               12.00:  ROP Avg 
 ROPN.m/hr                7.00:  ROP Min 
 ROPX.m/hr               17.00:  ROP Max 
 RPMA.rpm               120.00:  RPM Surface Avg 
 RPMN.rpm                60.00:  RPM Surface Min 
 RPMX.rpm               140.00:  RPM Surface Max 
 RRUN.                    L604:  Rig Run Number 
 RTIM.hr                 10.00:  Time Reaming 
 SAZI.deg               270.56:  Azm, Start 
 SDEP.m                4314.01:  Start Depth 
 SIDD.                      No:  Serv Intrp, DD 
 SINC.deg                67.42:  Inc, Start 
 SPPA.psig             3300.00:  SPP Avg 
 SPPN.psig             1750.00:  SPP Min 
 SPPX.psig             4630.00:  SPP Max 
 STIM.      11.00.00 21-Aug-20:  Start Time 
 SVCS.                 DD, MWD:  Services 
 SVER.                    9.20:  Sperry Version 
 TDAT.m                4461.01:  Tot Depth Attmp 
 TDDF.                      No:  Trip for DD 
 TDLG.m                 147.00:  Tot Depth Loggd 
 TFF .                      No:  Trip for Fail 
 TQAA.f-kp               16.00:  Torque Abs Avg 
 TQAN.f-kp               14.00:  Torque Abs Min 
 TQAX.f-kp               20.00:  Torque Abs Max 
 TRRT.°/30m              -0.14:  Turn Rotating 
 MRT .                    HCIM:  Maximum Recorded Temperature 
 TTMX.degC               78.00:  Max Tool Temp 
 VS01.                90515425:  Virtual Str1 SN 
 VS02.                90545184:  Virtual Str2 SN 
 VS03.                90527809:  Virtual Str3 SN 
 VS04.                90515232:  Virtual Str4 SN 
 VS05.                90621207:  Virtual Str5 SN 
 VS06.                90619737:  Virtual Str6 SN 
 WBMN.klb                 2.00:  WOB Min 
 WITN.          Keith Dischler:  Customer Rep 
 WITN.           Faig Mammadov:  Customer Rep 2 
 WOBA.klb                 5.00:  WOB Avg 
 WOBX.klb                 8.00:  WOB Max 
 YP  .lhf2               32.00:  Yield Point 
~Curve Information Block
#MNEM.UNIT                 API CODE     Curve Description
#---------               -----------    ---------------------------
 TIME.HHMMSS            00 000 000 000:  GT Time & Date
 GTET.sec               00 000 000 000:  GT Elapsed Test Time
 GTPQH.psia             00 000 000 000:  GT HR Quartz Pressure
 GTDEPTH.m              00 000 000 000:  GT Depth
 GTTVD.m                00 000 000 000:  GT True Vertical Depth
 GTTQ.degC              00 000 000 000:  GT Quartz Temperature
 GTTN.NONE              00 000 000 000:  GT Test Number
#Other Information
#
#WARRANTY: Halliburton will use its best efforts to furnish customers with 
#accurate information and interpretations that are part of, and incident to, the services 
#provided.  However, Halliburton cannot and does not warrant the accuracy 
#or correctness of such information and interpretations.  Under no circumstances should any 
#such information or interpretation be relied upon as the sole basis for any drilling, 
#completion, production, or financial decision or any procedure involving any risk to the 
#safety of any drilling venture, drilling rig or its crew or any other third party.  The 
#Customer has full responsibility for all drilling, completion and production operation.  
#Halliburton makes no representations or warranties, either expressed or 
#implied, including, but not limited to, the implied warranties of merchantability or fitness 
#for a particular purpose, with respect to the services rendered.  In no event will 
#Halliburton be liable for failure to obtain any particular results or for 
#any damages, including, but not limited to, indirect, special or consequential damages, 
#resulting from the use of any information or interpretation provided by Halliburton.
#
~A           TIME            GTET   GTPQH  GTDEPTH  GTTVD  GTTQ  GTTN 
# ...
   08:07:01.000.25-Aug-2020 161.00   86.63 4370.51 2065.14 72.25 5.00
   08:07:01.200.25-Aug-2020 161.20   86.63 4370.51 2065.14 72.25 5.00
   08:07:01.400.25-Aug-2020 161.40   86.81 4370.51 2065.14 72.25 5.00
   08:07:01.600.25-Aug-2020 161.60   86.88 4370.51 2065.14 72.25 5.00
   08:07:01.800.25-Aug-2020 161.80   87.00 4370.51 2065.14 72.25 5.00
   08:07:02.000.25-Aug-2020 162.00   87.05 4370.51 2065.14 72.25 5.00
   08:07:02.200.25-Aug-2020 162.20   87.05 4370.51 2065.14 72.25 5.00
   08:07:02.400.25-Aug-2020 162.40   87.20 4370.51 2065.14 72.25 5.00
   08:07:02.600.25-Aug-2020 162.60   87.26 4370.51 2065.14 72.25 5.00
   08:07:02.800.25-Aug-2020 162.80   87.28 4370.51 2065.14 72.25 5.00
   08:07:03.000.25-Aug-2020 163.00   87.40 4370.51 2065.14 72.25 5.00
   08:07:03.200.25-Aug-2020 163.20   87.44 4370.51 2065.14 72.25 5.00
   08:07:03.400.25-Aug-2020 163.40   87.50 4370.51 2065.14 72.25 5.00
   08:07:03.600.25-Aug-2020 163.60   87.56 4370.51 2065.14 72.25 5.00
   08:07:03.800.25-Aug-2020 163.80   87.62 4370.51 2065.14 72.25 5.00
   08:07:04.000.25-Aug-2020 164.00   87.67 4370.51 2065.14 72.25 5.00
   08:07:04.200.25-Aug-2020 164.20   87.71 4370.51 2065.14 72.25 5.00
   08:07:04.400.25-Aug-2020 164.40   87.76 4370.51 2065.14 72.25 5.00
   08:07:04.600.25-Aug-2020 164.60   87.81 4370.51 2065.14 72.25 5.00
   08:07:04.800.25-Aug-2020 164.80   87.86 4370.51 2065.14 72.25 5.00
   08:07:05.000.25-Aug-2020 165.00   87.92 4370.51 2065.14 72.25 5.00
   08:07:05.200.25-Aug-2020 165.20   87.92 4370.51 2065.14 72.25 5.00
   08:07:05.400.25-Aug-2020 165.40   88.01 4370.51 2065.14 72.25 5.00
   08:07:05.600.25-Aug-2020 165.60   88.04 4370.51 2065.14 72.25 5.00
   08:07:05.800.25-Aug-2020 165.80   88.10 4370.51 2065.14 72.25 5.00
   08:07:06.000.25-Aug-2020 166.00   88.15 4370.51 2065.14 72.25 5.00
   08:07:06.200.25-Aug-2020 166.20   88.15 4370.51 2065.14 72.25 5.00
   08:07:06.400.25-Aug-2020 166.40   88.19 4370.51 2065.14 72.25 5.00
   08:07:06.600.25-Aug-2020 166.60   88.27 4370.51 2065.14 72.25 5.00
   08:07:06.800.25-Aug-2020 166.80   88.29 4370.51 2065.14 72.25 5.00
   08:07:07.000.25-Aug-2020 167.00   88.33 4370.51 2065.14 72.25 5.00
   08:07:07.200.25-Aug-2020 167.20   88.38 4370.51 2065.14 72.25 5.00
   08:07:07.400.25-Aug-2020 167.40   88.42 4370.51 2065.14 72.25 5.00
   08:07:07.600.25-Aug-2020 167.60   88.46 4370.51 2065.14 72.25 5.00
   08:07:07.800.25-Aug-2020 167.80   88.49 4370.51 2065.14 72.25 5.00
   08:07:08.000.25-Aug-2020 168.00   88.53 4370.51 2065.14 72.25 5.00
   08:07:08.200.25-Aug-2020 168.20   88.56 4370.51 2065.14 72.25 5.00
   08:07:08.400.25-Aug-2020 168.40   88.60 4370.51 2065.14 72.25 5.00
   08:07:08.600.25-Aug-2020 168.60   88.64 4370.51 2065.14 72.25 5.00
   08:07:08.800.25-Aug-2020 168.80   88.67 4370.51 2065.14 72.25 5.00
   08:07:09.000.25-Aug-2020 169.00   88.70 4370.51 2065.14 72.25 5.00
   08:07:09.200.25-Aug-2020 169.20   88.70 4370.51 2065.14 72.25 5.00
   08:07:09.400.25-Aug-2020 169.40   88.76 4370.51 2065.14 72.25 5.00
   08:07:09.600.25-Aug-2020 169.60   88.80 4370.51 2065.14 72.25 5.00
   08:07:09.800.25-Aug-2020 169.80   88.82 4370.51 2065.14 72.25 5.00
   08:07:10.000.25-Aug-2020 170.00   88.81 4370.51 2065.14 72.25 5.00
   08:07:10.200.25-Aug-2020 170.20   88.81 4370.51 2065.14 72.25 5.00
   08:07:10.400.25-Aug-2020 170.40   88.90 4370.51 2065.14 72.25 5.00
   08:07:10.600.25-Aug-2020 170.60   88.93 4370.51 2065.14 72.25 5.00
   08:07:10.800.25-Aug-2020 170.80   88.98 4370.51 2065.14 72.25 5.00
   08:07:11.000.25-Aug-2020 171.00   89.01 4370.51 2065.14 72.25 5.00
   08:07:11.200.25-Aug-2020 171.20   89.04 4370.51 2065.14 72.25 5.00
   08:07:11.400.25-Aug-2020 171.40   89.06 4370.51 2065.14 72.25 5.00
   08:07:11.600.25-Aug-2020 171.60   89.09 4370.51 2065.14 72.25 5.00
   08:07:11.800.25-Aug-2020 171.80   89.13 4370.51 2065.14 72.25 5.00
   08:07:12.000.25-Aug-2020 172.00   89.15 4370.51 2065.14 72.25 5.00
   08:07:12.200.25-Aug-2020 172.20   89.18 4370.51 2065.14 72.25 5.00
   08:07:12.400.25-Aug-2020 172.40   89.21 4370.51 2065.14 72.25 5.00
   08:07:12.600.25-Aug-2020 172.60   89.24 4370.51 2065.14 72.25 5.00
   08:07:12.800.25-Aug-2020 172.80   89.26 4370.51 2065.14 72.25 5.00
   08:07:13.000.25-Aug-2020 173.00   89.29 4370.51 2065.14 72.25 5.00
   08:07:13.200.25-Aug-2020 173.20   89.29 4370.51 2065.14 72.25 5.00
   08:07:13.400.25-Aug-2020 173.40   89.34 4370.51 2065.14 72.25 5.00
   08:07:13.600.25-Aug-2020 173.60   89.34 4370.51 2065.14 72.25 5.00
   08:07:13.800.25-Aug-2020 173.80   89.38 4370.51 2065.14 72.25 5.00
   08:07:14.000.25-Aug-2020 174.00   89.41 4370.51 2065.14 72.25 5.00
   08:07:14.200.25-Aug-2020 174.20   89.41 4370.51 2065.14 72.25 5.00
   08:07:14.400.25-Aug-2020 174.40   89.41 4370.51 2065.14 72.25 5.00
   08:07:14.600.25-Aug-2020 174.60   89.49 4370.51 2065.14 72.25 5.00
   08:07:14.800.25-Aug-2020 174.80   89.50 4370.51 2065.14 72.25 5.00
   08:07:15.000.25-Aug-2020 175.00   89.52 4370.51 2065.14 72.25 5.00
   08:07:15.200.25-Aug-2020 175.20   89.51 4370.51 2065.14 72.25 5.00
   08:07:15.400.25-Aug-2020 175.40   89.59 4370.51 2065.14 72.25 5.00
   08:07:15.600.25-Aug-2020 175.60   89.59 4370.51 2065.14 72.25 5.00
   08:07:15.800.25-Aug-2020 175.80   89.61 4370.51 2065.14 72.25 5.00
   08:07:16.000.25-Aug-2020 176.00   89.64 4370.51 2065.14 72.25 5.00
   08:07:16.200.25-Aug-2020 176.20   89.68 4370.51 2065.14 72.25 5.00
   08:07:16.400.25-Aug-2020 176.40   89.69 4370.51 2065.14 72.25 5.00
   08:07:16.600.25-Aug-2020 176.60   89.71 4370.51 2065.14 72.25 5.00
   08:07:16.800.25-Aug-2020 176.80   89.71 4370.51 2065.14 72.25 5.00
   08:07:17.000.25-Aug-2020 177.00   89.75 4370.51 2065.14 72.25 5.00
   08:07:17.200.25-Aug-2020 177.20   89.75 4370.51 2065.14 72.25 5.00
   08:07:17.400.25-Aug-2020 177.40   89.81 4370.51 2065.14 72.25 5.00
   08:07:17.600.25-Aug-2020 177.60   89.79 4370.51 2065.14 72.25 5.00
   08:07:17.800.25-Aug-2020 177.80   89.83 4370.51 2065.14 72.25 5.00
   08:07:18.000.25-Aug-2020 178.00   89.87 4370.51 2065.14 72.25 5.00
   08:07:18.200.25-Aug-2020 178.20   89.87 4370.51 2065.14 72.25 5.00
   08:07:18.400.25-Aug-2020 178.40   89.91 4370.51 2065.14 72.25 5.00
   08:07:18.600.25-Aug-2020 178.60   89.94 4370.51 2065.14 72.25 5.00
   08:07:18.800.25-Aug-2020 178.80   89.96 4370.51 2065.14 72.25 5.00
   08:07:19.000.25-Aug-2020 179.00   89.97 4370.51 2065.14 72.25 5.00
   08:07:19.200.25-Aug-2020 179.20   90.00 4370.51 2065.14 72.25 5.00
   08:07:19.400.25-Aug-2020 179.40   90.02 4370.51 2065.14 72.25 5.00
   08:07:19.600.25-Aug-2020 179.60   90.04 4370.51 2065.14 72.25 5.00
   08:07:19.800.25-Aug-2020 179.80   90.06 4370.51 2065.14 72.25 5.00
   08:07:20.000.25-Aug-2020 180.00   90.08 4370.51 2065.14 72.25 5.00
   08:07:20.200.25-Aug-2020 180.20   90.10 4370.51 2065.14 72.25 5.00
   08:07:20.400.25-Aug-2020 180.40   90.11 4370.51 2065.14 72.25 5.00
   08:07:20.600.25-Aug-2020 180.60   90.13 4370.51 2065.14 72.25 5.00
   08:07:20.800.25-Aug-2020 180.80   90.15 4370.51 2065.14 72.25 5.00
   08:07:21.000.25-Aug-2020 181.00   90.17 4370.51 2065.14 72.25 5.00
   08:07:21.200.25-Aug-2020 181.20   90.17 4370.51 2065.14 72.25 5.00
   08:07:21.400.25-Aug-2020 181.40   90.18 4370.51 2065.14 72.25 5.00
   08:07:21.600.25-Aug-2020 181.60   90.22 4370.51 2065.14 72.25 5.00
   08:07:21.800.25-Aug-2020 181.80   90.24 4370.51 2065.14 72.25 5.00
   08:07:22.000.25-Aug-2020 182.00   90.26 4370.51 2065.14 72.25 5.00
   08:07:22.200.25-Aug-2020 182.20   90.26 4370.51 2065.14 72.25 5.00
   08:07:22.400.25-Aug-2020 182.40   90.30 4370.51 2065.14 72.25 5.00
   08:07:22.600.25-Aug-2020 182.60   90.31 4370.51 2065.14 72.25 5.00
   08:07:22.800.25-Aug-2020 182.80   90.33 4370.51 2065.14 72.25 5.00
   08:07:23.000.25-Aug-2020 183.00   90.36 4370.51 2065.14 72.25 5.00
   08:07:23.200.25-Aug-2020 183.20   90.37 4370.51 2065.14 72.25 5.00
   08:07:23.400.25-Aug-2020 183.40   90.39 4370.51 2065.14 72.25 5.00
   08:07:23.600.25-Aug-2020 183.60   90.41 4370.51 2065.14 72.25 5.00
   08:07:23.800.25-Aug-2020 183.80   90.43 4370.51 2065.14 72.25 5.00
