~Version Information
 VERS.                  2.0:   CWLS log ASCII Standard -VERSION 2.0
 WRAP.                   NO:   One line per depth step
~Well Information Block
#MNEM.UNIT     VALUE/NAME     DESCRIPTION
#---------     -----------    ---------------------------
 STRT.S             11:11:27 25-Aug-20: START TIME 11:11:27 25-Aug-20
 STOP.S             11:18:24 25-Aug-20: STOP TIME  11:18:24 25-Aug-20
 STEP.S                   0.00: STEP TIME
 NULL.                 -999.25: NULL VALUE
 DFWT.                        :  DIST FWL TEXT
 DFST.                        :  DIST FSL TEXT
 DMF .             Drill Floor:  DRILL MEAS FROM
 STIM.      09.59.28 01-Jun-20:  START TIME
 DATE.      05.00.00 28-Aug-20:  END TIME
 SPUD.               01-Jun-20:  SPUD DATE
 NREF.                    Grid:  NORTH REFERENCE
 HPTY.       Minimum Curvature:  HOLE POS TYPE
 DMOD.             Drill Model:  DRILL MOD DESC
 SVYD.                  Survey:  SURVEY DESC
 ILTD.               Lithology:  INTERP LTH DESC
 FTOP.          Formation Tops:  FORM TOPS DESC
 SON .        AZ-XX-0905455768:  JOB NUMBER
 WTYP.                Deviated:  WELL TYPE
 COMP.     BP Exploration(Caspian Sea):  COMPANY
 BASE.              Azerbaijan:  LOGGING EQUIPMENT BASE LOCATION
 REGN.                   EESSA:  REGION
 CTRY.              Azerbaijan:  COUNTRY NAME
 FLD .                     ACG:  FIELD NAME
 SRVC.          Turan Drilling:  CONTRACTOR
 WELL.                     B41:  WELL NAME
 RIG .           Central Azeri:  RIG NAME
 DCON.         Sperry Drilling:  DIRECTNL CONTR
 PDAT.          Mean Sea Level:  PERMANENT DATUM
 MDS .        Operator Entered:  MAG DATA SOURCE
 API .                        :  API NUMBER
 CNTY.                        :  COUNTY
 PROV.                        :  PROVINCE
 STAT.                        :  STATE
 UWI .                        :  UNIQUE WELL IDENTIFIER
 LOC .                        :  LOCATION
 LMF .             Drill Floor:  LOG MEASURED FROM
 TVDS.m                  43.29:  TVDSS CORRECTN
 LATI.deg                40.03:  LATITUDE
 LONG.deg                51.35:  LONGITUDE
 WHNS.m                  12.98:  WELL HEAD N/S
 WHEW.m                  -6.62:  WELL HEAD E/W
 UTMX.m              530128.28:  UTM X
 UTMY.m             4433192.49:  UTM Y
 DFWL.m                   0.00:  DISTANCE FWL
 DFSL.m                   0.00:  DISTANCE FSL
 SDEP.m                 378.00:  START DEPTH
 TDD .m                4463.01:  TOTAL DEPTH (DRILLER)
 VSDR.deg               296.18:  VERT SEC DIRECT
 GVFD.g                   1.00:  GRAVITY FIELD
 MFLD.nT              50269.00:  MAGNETIC FIELD
 MDIP.deg                59.50:  MAGNETIC DIP
 MDEC.deg                 6.44:  MAGNETIC DECL
 GRDC.deg                 0.20:  GRID CORRECTION
 AZTC.deg                 6.24:  AZM TOTAL CORR
 EPD .m                   0.00:  ELEVATION
 EGL .m                   0.00:  GROUND ELEVATION
 WDMS.m                 128.20:  WD ELEV
 APD .m                  43.29:  DEPTH ABOVE PD
 AGAP.m                  43.29:  AIR GAP
 VSEW.m                  -6.62:  VERT SEC E/W
 VSNS.m                  12.98:  VERT SEC N/S
 EKB .m                  43.29:  KB ELEVATION
 EDF .m                  43.29:  DF ELEVATION
 TDL .m                 147.00:  TOTAL DEPTH (LOGGER)
 VSC .                       0:  VS TO CLOSURE
 MAGU.                 1849241:  MAGUTM CHECKSUM
~Parameter Information Block
#MNEM.UNIT       Value        Description
#---------     -----------    ---------------------------
 AV  .mps                 0.70:  Ann Velocity 
 AZIF.deg               269.43:  Azm, Final 
 BHAT.        Rotary Steerable:  BHA Type 
 BROT.°/30m              -0.03:  Build Rotating 
 BS  .in                  8.50:  Bit Size 
 BSZ .in                  8.50:  Bit Size 
 BTPL.psig              880.00:  Bit Press Loss 
 CABU.                      No:  Customer Abuse 
 CGEO.          Parviz Guliyev:  Customer Geo 
 COMM.                     ìra:  Run Comments 1 
 TCS .hr                 64.59:  Time Ciculation Ended 
 CV  .mps                 2.17:  Crit Velocity 
 DD1 .            Nonso Okafor:  Direct Drillr 1 
 DDSV.               Geo-Pilot:  DD Service 
 DEFF.%                  98.00:  % Det Eff 
 DLRX.°/30m               0.81:  Dogleg Rot Max 
 DLSO.°/30m               0.55:  Dogleg Oriented 
 DLSX.°/30m               0.81:  Dogleg Str Max 
 DRET.      23.50.00 24-Aug-20:  Drill End Time 
 DRST.      07.34.24 22-Aug-20:  Drill Start Tim 
 DTIM.hr                 15.29:  Time Drilling 
 EDEP.m                4461.01:  End Depth 
 ENG1.       Zam Abdullah Sani:  Engineer 1 
 ENG2.         Dair Mahammadov:  Engineer 2 
 ENG3.          Rustam Gadirov:  Engineer 3 
 ETIM.      07.34.24 26-Aug-20:  End Time 
 FLOI.gpm               550.00:  Flow In 
 FLON.gpm               400.00:  Flow In Min 
 FLOS.cptm                1.00:  Fluid Loss 
 FLOX.gpm               600.00:  Flow In Max 
 FTRO.       Formation Presure:  FTWD Run Obj 
 HFLO.                      No:  High Flow 
 HPRE.                      No:  High Pressure 
 HTEM.                      No:  High Temp 
 HYDO.m                   1.80:  Hydro Offset 
 IFIN.deg                66.72:  Inc, Final 
 IMAX.deg                67.42:  Inc Max 
 IMIN.deg                66.72:  Inc Min 
 IMND.m                4408.37:  Inc Min Depth 
 IMXD.m                4323.37:  Inc Max Depth 
 JARR.                      No:  Jarring 
 LETM.      23.50.00 24-Aug-20:  Log End Time 
 LOST.hr                     0:  Lost Rig Time 
 LSTM.      07.34.24 22-Aug-20:  Log Start Time 
 MDCL.ppm             38000.00:  Mud Chlorides 
 MDES.     Inversion Oil/Synthetic:  Mud Desc 
 DFD .sg                  1.40:  Mud Density 
 MDMN.sg                  1.38:  Dens Mud Min 
 MDMX.sg                  1.41:  Dens Mud Max 
 MOIL.                    70.5:  Run Mud Oil % 
 MOWR.                   68:32:  Run Mud OWR 
 MSND.                    0.01:  Run Mud Sand % 
 MSOL.                   17.68:  Run Mud Solids% 
 DFV .spqt               77.00:  Mud Viscosity 
 MWOD.in                  6.75:  MWD Tool OD 
 MWSI.                      No:  Serv Intrp, MWD 
 OTIM.hr                159.42:  Time Operating 
 PCON.           Look Like New:  Pad Condition 
 PMAX.psia             8730.94:  Press Op, Max 
 PV  .cP                 31.00:  Mud PV 
 RUN .                     900:  Run Number 
 ROPA.m/hr               12.00:  ROP Avg 
 ROPN.m/hr                7.00:  ROP Min 
 ROPX.m/hr               17.00:  ROP Max 
 RPMA.rpm               120.00:  RPM Surface Avg 
 RPMN.rpm                60.00:  RPM Surface Min 
 RPMX.rpm               140.00:  RPM Surface Max 
 RRUN.                    L604:  Rig Run Number 
 RTIM.hr                 10.00:  Time Reaming 
 SAZI.deg               270.56:  Azm, Start 
 SDEP.m                4314.01:  Start Depth 
 SIDD.                      No:  Serv Intrp, DD 
 SINC.deg                67.42:  Inc, Start 
 SPPA.psig             3300.00:  SPP Avg 
 SPPN.psig             1750.00:  SPP Min 
 SPPX.psig             4630.00:  SPP Max 
 STIM.      11.00.00 21-Aug-20:  Start Time 
 SVCS.                 DD, MWD:  Services 
 SVER.                    9.20:  Sperry Version 
 TDAT.m                4461.01:  Tot Depth Attmp 
 TDDF.                      No:  Trip for DD 
 TDLG.m                 147.00:  Tot Depth Loggd 
 TFF .                      No:  Trip for Fail 
 TQAA.f-kp               16.00:  Torque Abs Avg 
 TQAN.f-kp               14.00:  Torque Abs Min 
 TQAX.f-kp               20.00:  Torque Abs Max 
 TRRT.°/30m              -0.14:  Turn Rotating 
 MRT .                    HCIM:  Maximum Recorded Temperature 
 TTMX.degC               78.00:  Max Tool Temp 
 VS01.                90515425:  Virtual Str1 SN 
 VS02.                90545184:  Virtual Str2 SN 
 VS03.                90527809:  Virtual Str3 SN 
 VS04.                90515232:  Virtual Str4 SN 
 VS05.                90621207:  Virtual Str5 SN 
 VS06.                90619737:  Virtual Str6 SN 
 WBMN.klb                 2.00:  WOB Min 
 WITN.          Keith Dischler:  Customer Rep 
 WITN.           Faig Mammadov:  Customer Rep 2 
 WOBA.klb                 5.00:  WOB Avg 
 WOBX.klb                 8.00:  WOB Max 
 YP  .lhf2               32.00:  Yield Point 
~Curve Information Block
#MNEM.UNIT                 API CODE     Curve Description
#---------               -----------    ---------------------------
 TIME.HHMMSS            00 000 000 000:  GT Time & Date
 GTET.sec               00 000 000 000:  GT Elapsed Test Time
 GTPQH.psia             00 000 000 000:  GT HR Quartz Pressure
 GTDEPTH.m              00 000 000 000:  GT Depth
 GTTVD.m                00 000 000 000:  GT True Vertical Depth
 GTTQ.degC              00 000 000 000:  GT Quartz Temperature
 GTTN.NONE              00 000 000 000:  GT Test Number
#Other Information
#
#WARRANTY: Halliburton will use its best efforts to furnish customers with 
#accurate information and interpretations that are part of, and incident to, the services 
#provided.  However, Halliburton cannot and does not warrant the accuracy 
#or correctness of such information and interpretations.  Under no circumstances should any 
#such information or interpretation be relied upon as the sole basis for any drilling, 
#completion, production, or financial decision or any procedure involving any risk to the 
#safety of any drilling venture, drilling rig or its crew or any other third party.  The 
#Customer has full responsibility for all drilling, completion and production operation.  
#Halliburton makes no representations or warranties, either expressed or 
#implied, including, but not limited to, the implied warranties of merchantability or fitness 
#for a particular purpose, with respect to the services rendered.  In no event will 
#Halliburton be liable for failure to obtain any particular results or for 
#any damages, including, but not limited to, indirect, special or consequential damages, 
#resulting from the use of any information or interpretation provided by Halliburton.
#
~A           TIME            GTET   GTPQH  GTDEPTH  GTTVD  GTTQ  GTTN  
# ...
   11:17:28.600.25-Aug-2020 361.60 3268.07 4320.01 2045.42 71.55 10.00
   11:17:28.800.25-Aug-2020 361.80 3399.87 4320.01 2045.42 71.55 10.00
   11:17:29.000.25-Aug-2020 362.00 4455.42 4320.01 2045.42 71.55 10.00
   11:17:29.200.25-Aug-2020 362.20 4768.18 4320.01 2045.42 71.55 10.00
   11:17:29.400.25-Aug-2020 362.40 4754.92 4320.01 2045.42 71.55 10.00
   11:17:29.600.25-Aug-2020 362.60 4762.01 4320.01 2045.42 71.55 10.00
   11:17:29.800.25-Aug-2020 362.80 4758.97 4320.01 2045.42 71.55 10.00
   11:17:30.000.25-Aug-2020 363.00 4758.25 4320.01 2045.42 71.55 10.00
   11:17:30.200.25-Aug-2020 363.20 4758.25 4320.01 2045.42 71.55 10.00
   11:17:30.400.25-Aug-2020 363.40 4752.90 4320.01 2045.42 71.55 10.00
   11:17:30.600.25-Aug-2020 363.60 4767.37 4320.01 2045.42 71.55 10.00
   11:17:30.800.25-Aug-2020 363.80 4757.53 4320.01 2045.42 71.55 10.00
   11:17:31.000.25-Aug-2020 364.00 4759.80 4320.01 2045.42 71.55 10.00
   11:17:31.200.25-Aug-2020 364.20 4759.80 4320.01 2045.42 71.55 10.00
   11:17:31.400.25-Aug-2020 364.40 4759.56 4320.01 2045.42 71.56 10.00
   11:17:31.600.25-Aug-2020 364.60 4758.27 4320.01 2045.42 71.56 10.00
   11:17:31.800.25-Aug-2020 364.80 4758.43 4320.01 2045.42 71.56 10.00
   11:17:32.000.25-Aug-2020 365.00 4757.89 4320.01 2045.42 71.56 10.00
   11:17:32.200.25-Aug-2020 365.20 4758.21 4320.01 2045.42 71.56 10.00
   11:17:32.400.25-Aug-2020 365.40 4758.65 4320.01 2045.42 71.56 10.00
   11:17:32.600.25-Aug-2020 365.60 4758.68 4320.01 2045.42 71.56 10.00
   11:17:32.800.25-Aug-2020 365.80 4758.62 4320.01 2045.42 71.56 10.00
   11:17:33.000.25-Aug-2020 366.00 4758.53 4320.01 2045.42 71.56 10.00
   11:17:33.200.25-Aug-2020 366.20 4758.46 4320.01 2045.42 71.57 10.00
   11:17:33.400.25-Aug-2020 366.40 4758.45 4320.01 2045.42 71.57 10.00
   11:17:33.600.25-Aug-2020 366.60 4758.38 4320.01 2045.42 71.57 10.00
   11:17:33.800.25-Aug-2020 366.80 4758.04 4320.01 2045.42 71.57 10.00
   11:17:34.000.25-Aug-2020 367.00 4768.87 4320.01 2045.42 71.57 10.00
   11:17:34.200.25-Aug-2020 367.20 4768.87 4320.01 2045.42 71.57 10.00
   11:17:34.400.25-Aug-2020 367.40 4763.85 4320.01 2045.42 71.57 10.00
   11:17:34.600.25-Aug-2020 367.60 4760.91 4320.01 2045.42 71.57 10.00
   11:17:34.800.25-Aug-2020 367.80 4760.02 4320.01 2045.42 71.57 10.00
   11:17:35.000.25-Aug-2020 368.00 4756.70 4320.01 2045.42 71.57 10.00
   11:17:35.200.25-Aug-2020 368.20 4756.70 4320.01 2045.42 71.58 10.00
   11:17:35.400.25-Aug-2020 368.40 4756.75 4320.01 2045.42 71.58 10.00
   11:17:35.600.25-Aug-2020 368.60 4757.92 4320.01 2045.42 71.58 10.00
   11:17:35.800.25-Aug-2020 368.80 4757.89 4320.01 2045.42 71.58 10.00
   11:17:36.000.25-Aug-2020 369.00 4757.64 4320.01 2045.42 71.58 10.00
   11:17:36.200.25-Aug-2020 369.20 4757.64 4320.01 2045.42 71.58 10.00
   11:17:36.400.25-Aug-2020 369.40 4758.05 4320.01 2045.42 71.58 10.00
   11:17:36.600.25-Aug-2020 369.60 4757.75 4320.01 2045.42 71.58 10.00
   11:17:36.800.25-Aug-2020 369.80 4758.02 4320.01 2045.42 71.58 10.00
   11:17:37.000.25-Aug-2020 370.00 4756.95 4320.01 2045.42 71.58 10.00
   11:17:37.200.25-Aug-2020 370.20 4756.95 4320.01 2045.42 71.58 10.00
   11:17:37.400.25-Aug-2020 370.40 4761.21 4320.01 2045.42 71.58 10.00
   11:17:37.600.25-Aug-2020 370.60 4765.76 4320.01 2045.42 71.58 10.00
   11:17:37.800.25-Aug-2020 370.80 4758.67 4320.01 2045.42 71.58 10.00
   11:17:38.000.25-Aug-2020 371.00 4760.50 4320.01 2045.42 71.58 10.00
   11:17:38.200.25-Aug-2020 371.20 4760.50 4320.01 2045.42 71.58 10.00
   11:17:38.400.25-Aug-2020 371.40 4769.61 4320.01 2045.42 71.58 10.00
   11:17:38.600.25-Aug-2020 371.60 4752.08 4320.01 2045.42 71.58 10.00
   11:17:38.800.25-Aug-2020 371.80 4768.01 4320.01 2045.42 71.58 10.00
   11:17:39.000.25-Aug-2020 372.00 4757.67 4320.01 2045.42 71.58 10.00
   11:17:39.200.25-Aug-2020 372.20 4757.67 4320.01 2045.42 71.58 10.00
   11:17:39.400.25-Aug-2020 372.40 4762.53 4320.01 2045.42 71.59 10.00
   11:17:39.600.25-Aug-2020 372.60 4766.13 4320.01 2045.42 71.59 10.00
   11:17:39.800.25-Aug-2020 372.80 4757.88 4320.01 2045.42 71.59 10.00
   11:17:40.000.25-Aug-2020 373.00 4761.04 4320.01 2045.42 71.59 10.00
   11:17:40.200.25-Aug-2020 373.20 4761.04 4320.01 2045.42 71.59 10.00
   11:17:40.400.25-Aug-2020 373.40 4775.28 4320.01 2045.42 71.59 10.00
   11:17:40.600.25-Aug-2020 373.60 4749.23 4320.01 2045.42 71.59 10.00
   11:17:40.800.25-Aug-2020 373.80 4767.94 4320.01 2045.42 71.59 10.00
   11:17:41.000.25-Aug-2020 374.00 4760.61 4320.01 2045.42 71.59 10.00
   11:17:41.200.25-Aug-2020 374.20 4760.61 4320.01 2045.42 71.59 10.00
   11:17:41.400.25-Aug-2020 374.40 4762.38 4320.01 2045.42 71.59 10.00
   11:17:41.600.25-Aug-2020 374.60 4764.71 4320.01 2045.42 71.59 10.00
   11:17:41.800.25-Aug-2020 374.80 4766.96 4320.01 2045.42 71.59 10.00
   11:17:42.000.25-Aug-2020 375.00 4760.52 4320.01 2045.42 71.59 10.00
   11:17:42.200.25-Aug-2020 375.20 4760.52 4320.01 2045.42 71.59 10.00
   11:17:42.400.25-Aug-2020 375.40 4762.37 4320.01 2045.42 71.59 10.00
   11:17:42.600.25-Aug-2020 375.60 4760.18 4320.01 2045.42 71.59 10.00
   11:17:42.800.25-Aug-2020 375.80 4759.88 4320.01 2045.42 71.59 10.00
   11:17:43.000.25-Aug-2020 376.00 4759.89 4320.01 2045.42 71.59 10.00
   11:17:43.200.25-Aug-2020 376.20 4759.89 4320.01 2045.42 71.59 10.00
   11:17:43.400.25-Aug-2020 376.40 4759.38 4320.01 2045.42 71.59 10.00
   11:17:43.600.25-Aug-2020 376.60 4759.70 4320.01 2045.42 71.59 10.00
   11:17:43.800.25-Aug-2020 376.80 4759.51 4320.01 2045.42 71.59 10.00
   11:17:44.000.25-Aug-2020 377.00 4759.52 4320.01 2045.42 71.59 10.00
   11:17:44.200.25-Aug-2020 377.20 4759.52 4320.01 2045.42 71.59 10.00
   11:17:44.400.25-Aug-2020 377.40 4759.40 4320.01 2045.42 71.59 10.00
   11:17:44.600.25-Aug-2020 377.60 4759.25 4320.01 2045.42 71.59 10.00
   11:17:44.800.25-Aug-2020 377.80 4759.23 4320.01 2045.42 71.59 10.00
   11:17:45.000.25-Aug-2020 378.00 4759.05 4320.01 2045.42 71.59 10.00
   11:17:45.200.25-Aug-2020 378.20 4759.05 4320.01 2045.42 71.59 10.00
   11:17:45.400.25-Aug-2020 378.40 4757.75 4320.01 2045.42 71.59 10.00
   11:17:45.600.25-Aug-2020 378.60 4763.74 4320.01 2045.42 71.59 10.00
   11:17:45.800.25-Aug-2020 378.80 4761.63 4320.01 2045.42 71.59 10.00
   11:17:46.000.25-Aug-2020 379.00 4760.84 4320.01 2045.42 71.59 10.00
   11:17:46.200.25-Aug-2020 379.20 4757.55 4320.01 2045.42 71.59 10.00
   11:17:46.400.25-Aug-2020 379.40 4758.99 4320.01 2045.42 71.59 10.00
   11:17:46.600.25-Aug-2020 379.60 4757.78 4320.01 2045.42 71.59 10.00
   11:17:46.800.25-Aug-2020 379.80 4758.83 4320.01 2045.42 71.59 10.00
   11:17:47.000.25-Aug-2020 380.00 4758.75 4320.01 2045.42 71.59 10.00
   11:17:47.200.25-Aug-2020 380.20 4758.72 4320.01 2045.42 71.59 10.00
   11:17:47.400.25-Aug-2020 380.40 4758.36 4320.01 2045.42 71.59 10.00
   11:17:47.600.25-Aug-2020 380.60 4758.54 4320.01 2045.42 71.59 10.00
   11:17:47.800.25-Aug-2020 380.80 4758.47 4320.01 2045.42 71.59 10.00
   11:17:48.000.25-Aug-2020 381.00 4758.96 4320.01 2045.42 71.59 10.00
   11:17:48.200.25-Aug-2020 381.20 4758.96 4320.01 2045.42 71.59 10.00
   11:17:48.400.25-Aug-2020 381.40 4758.13 4320.01 2045.42 71.59 10.00
   11:17:48.600.25-Aug-2020 381.60 4768.56 4320.01 2045.42 71.59 10.00
   11:17:48.800.25-Aug-2020 381.80 4756.97 4320.01 2045.42 71.59 10.00
   11:17:49.000.25-Aug-2020 382.00 4763.32 4320.01 2045.42 71.58 10.00
   11:17:49.200.25-Aug-2020 382.20 4760.97 4320.01 2045.42 71.58 10.00
   11:17:49.400.25-Aug-2020 382.40 4758.72 4320.01 2045.42 71.58 10.00
   11:17:49.600.25-Aug-2020 382.60 4759.47 4320.01 2045.42 71.58 10.00
   11:17:49.800.25-Aug-2020 382.80 4761.90 4320.01 2045.42 71.58 10.00
   11:17:50.000.25-Aug-2020 383.00 4765.24 4320.01 2045.42 71.58 10.00
   11:17:50.200.25-Aug-2020 383.20 4765.24 4320.01 2045.42 71.58 10.00
   11:17:50.400.25-Aug-2020 383.40 4760.13 4320.01 2045.42 71.58 10.00
   11:17:50.600.25-Aug-2020 383.60 4759.86 4320.01 2045.42 71.58 10.00
   11:17:50.800.25-Aug-2020 383.80 4757.60 4320.01 2045.42 71.58 10.00
   11:17:51.000.25-Aug-2020 384.00 4768.98 4320.01 2045.42 71.58 10.00
