~Version Information
 VERS.                  2.0:   CWLS log ASCII Standard -VERSION 2.0
 WRAP.                   NO:   One line per depth step
~Well Information Block
#MNEM.UNIT     VALUE/NAME     DESCRIPTION
#---------     -----------    ---------------------------
 STRT.S             08:04:20 25-Aug-20: START TIME 08:04:20 25-Aug-20
 STOP.S             08:11:17 25-Aug-20: STOP TIME  08:11:17 25-Aug-20
 STEP.S                   0.00: STEP TIME
 NULL.                 -999.25: NULL VALUE
 DFWT.                        :  DIST FWL TEXT
 DFST.                        :  DIST FSL TEXT
 DMF .             Drill Floor:  DRILL MEAS FROM
 STIM.      09.59.28 01-Jun-20:  START TIME
 DATE.      05.00.00 28-Aug-20:  END TIME
 SPUD.               01-Jun-20:  SPUD DATE
 NREF.                    Grid:  NORTH REFERENCE
 HPTY.       Minimum Curvature:  HOLE POS TYPE
 DMOD.             Drill Model:  DRILL MOD DESC
 SVYD.                  Survey:  SURVEY DESC
 ILTD.               Lithology:  INTERP LTH DESC
 FTOP.          Formation Tops:  FORM TOPS DESC
 SON .        AZ-XX-0905455768:  JOB NUMBER
 WTYP.                Deviated:  WELL TYPE
 COMP.     BP Exploration(Caspian Sea):  COMPANY
 BASE.              Azerbaijan:  LOGGING EQUIPMENT BASE LOCATION
 REGN.                   EESSA:  REGION
 CTRY.              Azerbaijan:  COUNTRY NAME
 FLD .                     ACG:  FIELD NAME
 SRVC.          Turan Drilling:  CONTRACTOR
 WELL.                     B41:  WELL NAME
 RIG .           Central Azeri:  RIG NAME
 DCON.         Sperry Drilling:  DIRECTNL CONTR
 PDAT.          Mean Sea Level:  PERMANENT DATUM
 MDS .        Operator Entered:  MAG DATA SOURCE
 API .                        :  API NUMBER
 CNTY.                        :  COUNTY
 PROV.                        :  PROVINCE
 STAT.                        :  STATE
 UWI .                        :  UNIQUE WELL IDENTIFIER
 LOC .                        :  LOCATION
 LMF .             Drill Floor:  LOG MEASURED FROM
 TVDS.m                  43.29:  TVDSS CORRECTN
 LATI.deg                40.03:  LATITUDE
 LONG.deg                51.35:  LONGITUDE
 WHNS.m                  12.98:  WELL HEAD N/S
 WHEW.m                  -6.62:  WELL HEAD E/W
 UTMX.m              530128.28:  UTM X
 UTMY.m             4433192.49:  UTM Y
 DFWL.m                   0.00:  DISTANCE FWL
 DFSL.m                   0.00:  DISTANCE FSL
 SDEP.m                 378.00:  START DEPTH
 TDD .m                4463.01:  TOTAL DEPTH (DRILLER)
 VSDR.deg               296.18:  VERT SEC DIRECT
 GVFD.g                   1.00:  GRAVITY FIELD
 MFLD.nT              50269.00:  MAGNETIC FIELD
 MDIP.deg                59.50:  MAGNETIC DIP
 MDEC.deg                 6.44:  MAGNETIC DECL
 GRDC.deg                 0.20:  GRID CORRECTION
 AZTC.deg                 6.24:  AZM TOTAL CORR
 EPD .m                   0.00:  ELEVATION
 EGL .m                   0.00:  GROUND ELEVATION
 WDMS.m                 128.20:  WD ELEV
 APD .m                  43.29:  DEPTH ABOVE PD
 AGAP.m                  43.29:  AIR GAP
 VSEW.m                  -6.62:  VERT SEC E/W
 VSNS.m                  12.98:  VERT SEC N/S
 EKB .m                  43.29:  KB ELEVATION
 EDF .m                  43.29:  DF ELEVATION
 TDL .m                 147.00:  TOTAL DEPTH (LOGGER)
 VSC .                       0:  VS TO CLOSURE
 MAGU.                 1849241:  MAGUTM CHECKSUM
~Parameter Information Block
#MNEM.UNIT       Value        Description
#---------     -----------    ---------------------------
 AV  .mps                 0.70:  Ann Velocity 
 AZIF.deg               269.43:  Azm, Final 
 BHAT.        Rotary Steerable:  BHA Type 
 BROT.°/30m              -0.03:  Build Rotating 
 BS  .in                  8.50:  Bit Size 
 BSZ .in                  8.50:  Bit Size 
 BTPL.psig              880.00:  Bit Press Loss 
 CABU.                      No:  Customer Abuse 
 CGEO.          Parviz Guliyev:  Customer Geo 
 COMM.                     <oh:  Run Comments 1 
 TCS .hr                 64.59:  Time Ciculation Ended 
 CV  .mps                 2.17:  Crit Velocity 
 DD1 .            Nonso Okafor:  Direct Drillr 1 
 DDSV.               Geo-Pilot:  DD Service 
 DEFF.%                  98.00:  % Det Eff 
 DLRX.°/30m               0.81:  Dogleg Rot Max 
 DLSO.°/30m               0.55:  Dogleg Oriented 
 DLSX.°/30m               0.81:  Dogleg Str Max 
 DRET.      23.50.00 24-Aug-20:  Drill End Time 
 DRST.      07.34.24 22-Aug-20:  Drill Start Tim 
 DTIM.hr                 15.29:  Time Drilling 
 EDEP.m                4461.01:  End Depth 
 ENG1.       Zam Abdullah Sani:  Engineer 1 
 ENG2.         Dair Mahammadov:  Engineer 2 
 ENG3.          Rustam Gadirov:  Engineer 3 
 ETIM.      07.34.24 26-Aug-20:  End Time 
 FLOI.gpm               550.00:  Flow In 
 FLON.gpm               400.00:  Flow In Min 
 FLOS.cptm                1.00:  Fluid Loss 
 FLOX.gpm               600.00:  Flow In Max 
 FTRO.       Formation Presure:  FTWD Run Obj 
 HFLO.                      No:  High Flow 
 HPRE.                      No:  High Pressure 
 HTEM.                      No:  High Temp 
 HYDO.m                   1.80:  Hydro Offset 
 IFIN.deg                66.72:  Inc, Final 
 IMAX.deg                67.42:  Inc Max 
 IMIN.deg                66.72:  Inc Min 
 IMND.m                4408.37:  Inc Min Depth 
 IMXD.m                4323.37:  Inc Max Depth 
 JARR.                      No:  Jarring 
 LETM.      23.50.00 24-Aug-20:  Log End Time 
 LOST.hr                     0:  Lost Rig Time 
 LSTM.      07.34.24 22-Aug-20:  Log Start Time 
 MDCL.ppm             38000.00:  Mud Chlorides 
 MDES.     Inversion Oil/Synthetic:  Mud Desc 
 DFD .sg                  1.40:  Mud Density 
 MDMN.sg                  1.38:  Dens Mud Min 
 MDMX.sg                  1.41:  Dens Mud Max 
 MOIL.                    70.5:  Run Mud Oil % 
 MOWR.                   68:32:  Run Mud OWR 
 MSND.                    0.01:  Run Mud Sand % 
 MSOL.                   17.68:  Run Mud Solids% 
 DFV .spqt               77.00:  Mud Viscosity 
 MWOD.in                  6.75:  MWD Tool OD 
 MWSI.                      No:  Serv Intrp, MWD 
 OTIM.hr                159.42:  Time Operating 
 PCON.           Look Like New:  Pad Condition 
 PMAX.psia             8730.94:  Press Op, Max 
 PV  .cP                 31.00:  Mud PV 
 RUN .                     900:  Run Number 
 ROPA.m/hr               12.00:  ROP Avg 
 ROPN.m/hr                7.00:  ROP Min 
 ROPX.m/hr               17.00:  ROP Max 
 RPMA.rpm               120.00:  RPM Surface Avg 
 RPMN.rpm                60.00:  RPM Surface Min 
 RPMX.rpm               140.00:  RPM Surface Max 
 RRUN.                    L604:  Rig Run Number 
 RTIM.hr                 10.00:  Time Reaming 
 SAZI.deg               270.56:  Azm, Start 
 SDEP.m                4314.01:  Start Depth 
 SIDD.                      No:  Serv Intrp, DD 
 SINC.deg                67.42:  Inc, Start 
 SPPA.psig             3300.00:  SPP Avg 
 SPPN.psig             1750.00:  SPP Min 
 SPPX.psig             4630.00:  SPP Max 
 STIM.      11.00.00 21-Aug-20:  Start Time 
 SVCS.                 DD, MWD:  Services 
 SVER.                    9.20:  Sperry Version 
 TDAT.m                4461.01:  Tot Depth Attmp 
 TDDF.                      No:  Trip for DD 
 TDLG.m                 147.00:  Tot Depth Loggd 
 TFF .                      No:  Trip for Fail 
 TQAA.f-kp               16.00:  Torque Abs Avg 
 TQAN.f-kp               14.00:  Torque Abs Min 
 TQAX.f-kp               20.00:  Torque Abs Max 
 TRRT.°/30m              -0.14:  Turn Rotating 
 MRT .                    HCIM:  Maximum Recorded Temperature 
 TTMX.degC               78.00:  Max Tool Temp 
 VS01.                90515425:  Virtual Str1 SN 
 VS02.                90545184:  Virtual Str2 SN 
 VS03.                90527809:  Virtual Str3 SN 
 VS04.                90515232:  Virtual Str4 SN 
 VS05.                90621207:  Virtual Str5 SN 
 VS06.                90619737:  Virtual Str6 SN 
 WBMN.klb                 2.00:  WOB Min 
 WITN.          Keith Dischler:  Customer Rep 
 WITN.           Faig Mammadov:  Customer Rep 2 
 WOBA.klb                 5.00:  WOB Avg 
 WOBX.klb                 8.00:  WOB Max 
 YP  .lhf2               32.00:  Yield Point 
~Curve Information Block
#MNEM.UNIT                 API CODE     Curve Description
#---------               -----------    ---------------------------
 TIME.HHMMSS            00 000 000 000:  GT Time & Date
 GTET.sec               00 000 000 000:  GT Elapsed Test Time
 GTPQH.psia             00 000 000 000:  GT HR Quartz Pressure
 GTDEPTH.m              00 000 000 000:  GT Depth
 GTTVD.m                00 000 000 000:  GT True Vertical Depth
 GTTQ.degC              00 000 000 000:  GT Quartz Temperature
 GTTN.NONE              00 000 000 000:  GT Test Number
#Other Information
#
#WARRANTY: Halliburton will use its best efforts to furnish customers with 
#accurate information and interpretations that are part of, and incident to, the services 
#provided.  However, Halliburton cannot and does not warrant the accuracy 
#or correctness of such information and interpretations.  Under no circumstances should any 
#such information or interpretation be relied upon as the sole basis for any drilling, 
#completion, production, or financial decision or any procedure involving any risk to the 
#safety of any drilling venture, drilling rig or its crew or any other third party.  The 
#Customer has full responsibility for all drilling, completion and production operation.  
#Halliburton makes no representations or warranties, either expressed or 
#implied, including, but not limited to, the implied warranties of merchantability or fitness 
#for a particular purpose, with respect to the services rendered.  In no event will 
#Halliburton be liable for failure to obtain any particular results or for 
#any damages, including, but not limited to, indirect, special or consequential damages, 
#resulting from the use of any information or interpretation provided by Halliburton.
#
~A           TIME            GTET   GTPQH  GTDEPTH  GTTVD  GTTQ  GTTN 
# ...
   08:10:05.000.25-Aug-2020 345.00   66.64 4370.51 2065.14 72.26 5.00
   08:10:05.200.25-Aug-2020 345.20   66.64 4370.51 2065.14 72.26 5.00
   08:10:05.400.25-Aug-2020 345.40   66.64 4370.51 2065.14 72.26 5.00
   08:10:05.600.25-Aug-2020 345.60   66.65 4370.51 2065.14 72.26 5.00
   08:10:05.800.25-Aug-2020 345.80   66.65 4370.51 2065.14 72.26 5.00
   08:10:06.000.25-Aug-2020 346.00   66.66 4370.51 2065.14 72.26 5.00
   08:10:06.200.25-Aug-2020 346.20   66.66 4370.51 2065.14 72.26 5.00
   08:10:06.400.25-Aug-2020 346.40   66.66 4370.51 2065.14 72.26 5.00
   08:10:06.600.25-Aug-2020 346.60   66.62 4370.51 2065.14 72.26 5.00
   08:10:06.800.25-Aug-2020 346.80   66.67 4370.51 2065.14 72.26 5.00
   08:10:07.000.25-Aug-2020 347.00   66.67 4370.51 2065.14 72.26 5.00
   08:10:07.200.25-Aug-2020 347.20   66.68 4370.51 2065.14 72.26 5.00
   08:10:07.400.25-Aug-2020 347.40   66.68 4370.51 2065.14 72.26 5.00
   08:10:07.600.25-Aug-2020 347.60   66.69 4370.51 2065.14 72.26 5.00
   08:10:07.800.25-Aug-2020 347.80   66.64 4370.51 2065.14 72.26 5.00
   08:10:08.000.25-Aug-2020 348.00   66.69 4370.51 2065.14 72.26 5.00
   08:10:08.200.25-Aug-2020 348.20   66.69 4370.51 2065.14 72.26 5.00
   08:10:08.400.25-Aug-2020 348.40   66.70 4370.51 2065.14 72.26 5.00
   08:10:08.600.25-Aug-2020 348.60   66.67 4370.51 2065.14 72.26 5.00
   08:10:08.800.25-Aug-2020 348.80   66.71 4370.51 2065.14 72.26 5.00
   08:10:09.000.25-Aug-2020 349.00   66.70 4370.51 2065.14 72.26 5.00
   08:10:09.200.25-Aug-2020 349.20   66.70 4370.51 2065.14 72.26 5.00
   08:10:09.400.25-Aug-2020 349.40   66.72 4370.51 2065.14 72.26 5.00
   08:10:09.600.25-Aug-2020 349.60   66.72 4370.51 2065.14 72.26 5.00
   08:10:09.800.25-Aug-2020 349.80   66.69 4370.51 2065.14 72.26 5.00
   08:10:10.000.25-Aug-2020 350.00   66.73 4370.51 2065.14 72.26 5.00
   08:10:10.200.25-Aug-2020 350.20   66.73 4370.51 2065.14 72.26 5.00
   08:10:10.400.25-Aug-2020 350.40   66.73 4370.51 2065.14 72.26 5.00
   08:10:10.600.25-Aug-2020 350.60   66.74 4370.51 2065.14 72.26 5.00
   08:10:10.800.25-Aug-2020 350.80   66.74 4370.51 2065.14 72.26 5.00
   08:10:11.000.25-Aug-2020 351.00   66.74 4370.51 2065.14 72.26 5.00
   08:10:11.200.25-Aug-2020 351.20   66.72 4370.51 2065.14 72.26 5.00
   08:10:11.400.25-Aug-2020 351.40   66.75 4370.51 2065.14 72.26 5.00
   08:10:11.600.25-Aug-2020 351.60   66.75 4370.51 2065.14 72.26 5.00
   08:10:11.800.25-Aug-2020 351.80   66.75 4370.51 2065.14 72.26 5.00
   08:10:12.000.25-Aug-2020 352.00   66.77 4370.51 2065.14 72.26 5.00
   08:10:12.200.25-Aug-2020 352.20   66.76 4370.51 2065.14 72.26 5.00
   08:10:12.400.25-Aug-2020 352.40   66.77 4370.51 2065.14 72.26 5.00
   08:10:12.600.25-Aug-2020 352.60   66.77 4370.51 2065.14 72.26 5.00
   08:10:12.800.25-Aug-2020 352.80   66.78 4370.51 2065.14 72.26 5.00
   08:10:13.000.25-Aug-2020 353.00   66.78 4370.51 2065.14 72.26 5.00
   08:10:13.200.25-Aug-2020 353.20   66.79 4370.51 2065.14 72.26 5.00
   08:10:13.400.25-Aug-2020 353.40   66.80 4370.51 2065.14 72.26 5.00
   08:10:13.600.25-Aug-2020 353.60   66.79 4370.51 2065.14 72.26 5.00
   08:10:13.800.25-Aug-2020 353.80   66.80 4370.51 2065.14 72.26 5.00
   08:10:14.000.25-Aug-2020 354.00   66.80 4370.51 2065.14 72.26 5.00
   08:10:14.200.25-Aug-2020 354.20   66.80 4370.51 2065.14 72.26 5.00
   08:10:14.400.25-Aug-2020 354.40   66.81 4370.51 2065.14 72.26 5.00
   08:10:14.600.25-Aug-2020 354.60   66.81 4370.51 2065.14 72.26 5.00
   08:10:14.800.25-Aug-2020 354.80   66.78 4370.51 2065.14 72.26 5.00
   08:10:15.000.25-Aug-2020 355.00   66.83 4370.51 2065.14 72.26 5.00
   08:10:15.200.25-Aug-2020 355.20   66.81 4370.51 2065.14 72.26 5.00
   08:10:15.400.25-Aug-2020 355.40   66.83 4370.51 2065.14 72.26 5.00
   08:10:15.600.25-Aug-2020 355.60   66.83 4370.51 2065.14 72.26 5.00
   08:10:15.800.25-Aug-2020 355.80   66.83 4370.51 2065.14 72.26 5.00
   08:10:16.000.25-Aug-2020 356.00   66.83 4370.51 2065.14 72.26 5.00
   08:10:16.200.25-Aug-2020 356.20   66.83 4370.51 2065.14 72.26 5.00
   08:10:16.400.25-Aug-2020 356.40   66.85 4370.51 2065.14 72.26 5.00
   08:10:16.600.25-Aug-2020 356.60   66.85 4370.51 2065.14 72.26 5.00
   08:10:16.800.25-Aug-2020 356.80   66.85 4370.51 2065.14 72.26 5.00
   08:10:17.000.25-Aug-2020 357.00   66.85 4370.51 2065.14 72.26 5.00
   08:10:17.200.25-Aug-2020 357.20   66.85 4370.51 2065.14 72.26 5.00
   08:10:17.400.25-Aug-2020 357.40   66.86 4370.51 2065.14 72.26 5.00
   08:10:17.600.25-Aug-2020 357.60   66.87 4370.51 2065.14 72.26 5.00
   08:10:17.800.25-Aug-2020 357.80   66.87 4370.51 2065.14 72.26 5.00
   08:10:18.000.25-Aug-2020 358.00   66.83 4370.51 2065.14 72.26 5.00
   08:10:18.200.25-Aug-2020 358.20   66.83 4370.51 2065.14 72.26 5.00
   08:10:18.400.25-Aug-2020 358.40   66.87 4370.51 2065.14 72.26 5.00
   08:10:18.600.25-Aug-2020 358.60   66.88 4370.51 2065.14 72.26 5.00
   08:10:18.800.25-Aug-2020 358.80   66.89 4370.51 2065.14 72.26 5.00
   08:10:19.000.25-Aug-2020 359.00   66.89 4370.51 2065.14 72.26 5.00
   08:10:19.200.25-Aug-2020 359.20   66.85 4370.51 2065.14 72.26 5.00
   08:10:19.400.25-Aug-2020 359.40   66.90 4370.51 2065.14 72.26 5.00
   08:10:19.600.25-Aug-2020 359.60   66.90 4370.51 2065.14 72.26 5.00
   08:10:19.800.25-Aug-2020 359.80   66.90 4370.51 2065.14 72.26 5.00
   08:10:20.000.25-Aug-2020 360.00   66.87 4370.51 2065.14 72.26 5.00
   08:10:20.200.25-Aug-2020 360.20   66.92 4370.51 2065.14 72.26 5.00
   08:10:20.400.25-Aug-2020 360.40   66.90 4370.51 2065.14 72.26 5.00
   08:10:20.600.25-Aug-2020 360.60   66.92 4370.51 2065.14 72.26 5.00
   08:10:20.800.25-Aug-2020 360.80   66.92 4370.51 2065.14 72.26 5.00
   08:10:21.000.25-Aug-2020 361.00   66.92 4370.51 2065.14 72.26 5.00
   08:10:21.200.25-Aug-2020 361.20   66.92 4370.51 2065.14 72.26 5.00
   08:10:21.400.25-Aug-2020 361.40   66.93 4370.51 2065.14 72.26 5.00
   08:10:21.600.25-Aug-2020 361.60   66.95 4370.51 2065.14 72.26 5.00
   08:10:21.800.25-Aug-2020 361.80   67.03 4370.51 2065.14 72.26 5.00
   08:10:22.000.25-Aug-2020 362.00   67.37 4370.51 2065.14 72.26 5.00
   08:10:22.200.25-Aug-2020 362.20   67.37 4370.51 2065.14 72.26 5.00
   08:10:22.400.25-Aug-2020 362.40   68.16 4370.51 2065.14 72.26 5.00
   08:10:22.600.25-Aug-2020 362.60   68.36 4370.51 2065.14 72.26 5.00
   08:10:22.800.25-Aug-2020 362.80 1383.29 4370.51 2065.14 72.26 5.00
   08:10:23.000.25-Aug-2020 363.00 4797.59 4370.51 2065.14 72.26 5.00
   08:10:23.200.25-Aug-2020 363.20 4790.84 4370.51 2065.14 72.26 5.00
   08:10:23.400.25-Aug-2020 363.40 4789.24 4370.51 2065.14 72.26 5.00
   08:10:23.600.25-Aug-2020 363.60 4788.05 4370.51 2065.14 72.26 5.00
   08:10:23.800.25-Aug-2020 363.80 4788.60 4370.51 2065.14 72.26 5.00
   08:10:24.000.25-Aug-2020 364.00 4788.77 4370.51 2065.14 72.27 5.00
   08:10:24.200.25-Aug-2020 364.20 4789.79 4370.51 2065.14 72.27 5.00
   08:10:24.400.25-Aug-2020 364.40 4791.41 4370.51 2065.14 72.27 5.00
   08:10:24.600.25-Aug-2020 364.60 4792.92 4370.51 2065.14 72.28 5.00
   08:10:24.800.25-Aug-2020 364.80 4793.55 4370.51 2065.14 72.28 5.00
   08:10:25.000.25-Aug-2020 365.00 4794.33 4370.51 2065.14 72.28 5.00
   08:10:25.200.25-Aug-2020 365.20 4794.33 4370.51 2065.14 72.28 5.00
   08:10:25.400.25-Aug-2020 365.40 4795.73 4370.51 2065.14 72.29 5.00
   08:10:25.600.25-Aug-2020 365.60 4795.62 4370.51 2065.14 72.29 5.00
   08:10:25.800.25-Aug-2020 365.80 4796.44 4370.51 2065.14 72.30 5.00
   08:10:26.000.25-Aug-2020 366.00 4796.05 4370.51 2065.14 72.30 5.00
   08:10:26.200.25-Aug-2020 366.20 4796.05 4370.51 2065.14 72.30 5.00
   08:10:26.400.25-Aug-2020 366.40 4798.66 4370.51 2065.14 72.31 5.00
   08:10:26.600.25-Aug-2020 366.60 4803.33 4370.51 2065.14 72.31 5.00
   08:10:26.800.25-Aug-2020 366.80 4797.94 4370.51 2065.14 72.32 5.00
   08:10:27.000.25-Aug-2020 367.00 4796.93 4370.51 2065.14 72.32 5.00
   08:10:27.200.25-Aug-2020 367.20 4796.93 4370.51 2065.14 72.32 5.00
   08:10:27.400.25-Aug-2020 367.40 4796.55 4370.51 2065.14 72.33 5.00
   08:10:27.600.25-Aug-2020 367.60 4796.92 4370.51 2065.14 72.33 5.00
   08:10:27.800.25-Aug-2020 367.80 4798.42 4370.51 2065.14 72.34 5.00
