~Version Information
 VERS.                  2.0:   CWLS log ASCII Standard -VERSION 2.0
 WRAP.                   NO:   One line per depth step
~Well Information Block
#MNEM.UNIT     VALUE/NAME     DESCRIPTION
#---------     -----------    ---------------------------
 STRT.S             08:23:53 25-Aug-20: START TIME 08:23:53 25-Aug-20
 STOP.S             08:30:51 25-Aug-20: STOP TIME  08:30:51 25-Aug-20
 STEP.S                   0.00: STEP TIME
 NULL.                 -999.25: NULL VALUE
 DFWT.                        :  DIST FWL TEXT
 DFST.                        :  DIST FSL TEXT
 DMF .             Drill Floor:  DRILL MEAS FROM
 STIM.      09.59.28 01-Jun-20:  START TIME
 DATE.      05.00.00 28-Aug-20:  END TIME
 SPUD.               01-Jun-20:  SPUD DATE
 NREF.                    Grid:  NORTH REFERENCE
 HPTY.       Minimum Curvature:  HOLE POS TYPE
 DMOD.             Drill Model:  DRILL MOD DESC
 SVYD.                  Survey:  SURVEY DESC
 ILTD.               Lithology:  INTERP LTH DESC
 FTOP.          Formation Tops:  FORM TOPS DESC
 SON .        AZ-XX-0905455768:  JOB NUMBER
 WTYP.                Deviated:  WELL TYPE
 COMP.     BP Exploration(Caspian Sea):  COMPANY
 BASE.              Azerbaijan:  LOGGING EQUIPMENT BASE LOCATION
 REGN.                   EESSA:  REGION
 CTRY.              Azerbaijan:  COUNTRY NAME
 FLD .                     ACG:  FIELD NAME
 SRVC.          Turan Drilling:  CONTRACTOR
 WELL.                     B41:  WELL NAME
 RIG .           Central Azeri:  RIG NAME
 DCON.         Sperry Drilling:  DIRECTNL CONTR
 PDAT.          Mean Sea Level:  PERMANENT DATUM
 MDS .        Operator Entered:  MAG DATA SOURCE
 API .                        :  API NUMBER
 CNTY.                        :  COUNTY
 PROV.                        :  PROVINCE
 STAT.                        :  STATE
 UWI .                        :  UNIQUE WELL IDENTIFIER
 LOC .                        :  LOCATION
 LMF .             Drill Floor:  LOG MEASURED FROM
 TVDS.m                  43.29:  TVDSS CORRECTN
 LATI.deg                40.03:  LATITUDE
 LONG.deg                51.35:  LONGITUDE
 WHNS.m                  12.98:  WELL HEAD N/S
 WHEW.m                  -6.62:  WELL HEAD E/W
 UTMX.m              530128.28:  UTM X
 UTMY.m             4433192.49:  UTM Y
 DFWL.m                   0.00:  DISTANCE FWL
 DFSL.m                   0.00:  DISTANCE FSL
 SDEP.m                 378.00:  START DEPTH
 TDD .m                4463.01:  TOTAL DEPTH (DRILLER)
 VSDR.deg               296.18:  VERT SEC DIRECT
 GVFD.g                   1.00:  GRAVITY FIELD
 MFLD.nT              50269.00:  MAGNETIC FIELD
 MDIP.deg                59.50:  MAGNETIC DIP
 MDEC.deg                 6.44:  MAGNETIC DECL
 GRDC.deg                 0.20:  GRID CORRECTION
 AZTC.deg                 6.24:  AZM TOTAL CORR
 EPD .m                   0.00:  ELEVATION
 EGL .m                   0.00:  GROUND ELEVATION
 WDMS.m                 128.20:  WD ELEV
 APD .m                  43.29:  DEPTH ABOVE PD
 AGAP.m                  43.29:  AIR GAP
 VSEW.m                  -6.62:  VERT SEC E/W
 VSNS.m                  12.98:  VERT SEC N/S
 EKB .m                  43.29:  KB ELEVATION
 EDF .m                  43.29:  DF ELEVATION
 TDL .m                 147.00:  TOTAL DEPTH (LOGGER)
 VSC .                       0:  VS TO CLOSURE
 MAGU.                 1849241:  MAGUTM CHECKSUM
~Parameter Information Block
#MNEM.UNIT       Value        Description
#---------     -----------    ---------------------------
 AV  .mps                 0.70:  Ann Velocity 
 AZIF.deg               269.43:  Azm, Final 
 BHAT.        Rotary Steerable:  BHA Type 
 BROT.°/30m              -0.03:  Build Rotating 
 BS  .in                  8.50:  Bit Size 
 BSZ .in                  8.50:  Bit Size 
 BTPL.psig              880.00:  Bit Press Loss 
 CABU.                      No:  Customer Abuse 
 CGEO.          Parviz Guliyev:  Customer Geo 
 TCS .hr                 64.59:  Time Ciculation Ended 
 CV  .mps                 2.17:  Crit Velocity 
 DD1 .            Nonso Okafor:  Direct Drillr 1 
 DDSV.               Geo-Pilot:  DD Service 
 DEFF.%                  98.00:  % Det Eff 
 DLRX.°/30m               0.81:  Dogleg Rot Max 
 DLSO.°/30m               0.55:  Dogleg Oriented 
 DLSX.°/30m               0.81:  Dogleg Str Max 
 DRET.      23.50.00 24-Aug-20:  Drill End Time 
 DRST.      07.34.24 22-Aug-20:  Drill Start Tim 
 DTIM.hr                 15.29:  Time Drilling 
 EDEP.m                4461.01:  End Depth 
 ENG1.       Zam Abdullah Sani:  Engineer 1 
 ENG2.         Dair Mahammadov:  Engineer 2 
 ENG3.          Rustam Gadirov:  Engineer 3 
 ETIM.      07.34.24 26-Aug-20:  End Time 
 FLOI.gpm               550.00:  Flow In 
 FLON.gpm               400.00:  Flow In Min 
 FLOS.cptm                1.00:  Fluid Loss 
 FLOX.gpm               600.00:  Flow In Max 
 FTRO.       Formation Presure:  FTWD Run Obj 
 HFLO.                      No:  High Flow 
 HPRE.                      No:  High Pressure 
 HTEM.                      No:  High Temp 
 HYDO.m                   1.80:  Hydro Offset 
 IFIN.deg                66.72:  Inc, Final 
 IMAX.deg                67.42:  Inc Max 
 IMIN.deg                66.72:  Inc Min 
 IMND.m                4408.37:  Inc Min Depth 
 IMXD.m                4323.37:  Inc Max Depth 
 JARR.                      No:  Jarring 
 LETM.      23.50.00 24-Aug-20:  Log End Time 
 LOST.hr                     0:  Lost Rig Time 
 LSTM.      07.34.24 22-Aug-20:  Log Start Time 
 MDCL.ppm             38000.00:  Mud Chlorides 
 MDES.     Inversion Oil/Synthetic:  Mud Desc 
 DFD .sg                  1.40:  Mud Density 
 MDMN.sg                  1.38:  Dens Mud Min 
 MDMX.sg                  1.41:  Dens Mud Max 
 MOIL.                    70.5:  Run Mud Oil % 
 MOWR.                   68:32:  Run Mud OWR 
 MSND.                    0.01:  Run Mud Sand % 
 MSOL.                   17.68:  Run Mud Solids% 
 DFV .spqt               77.00:  Mud Viscosity 
 MWOD.in                  6.75:  MWD Tool OD 
 MWSI.                      No:  Serv Intrp, MWD 
 OTIM.hr                159.42:  Time Operating 
 PCON.           Look Like New:  Pad Condition 
 PMAX.psia             8730.94:  Press Op, Max 
 PV  .cP                 31.00:  Mud PV 
 RUN .                     900:  Run Number 
 ROPA.m/hr               12.00:  ROP Avg 
 ROPN.m/hr                7.00:  ROP Min 
 ROPX.m/hr               17.00:  ROP Max 
 RPMA.rpm               120.00:  RPM Surface Avg 
 RPMN.rpm                60.00:  RPM Surface Min 
 RPMX.rpm               140.00:  RPM Surface Max 
 RRUN.                    L604:  Rig Run Number 
 RTIM.hr                 10.00:  Time Reaming 
 SAZI.deg               270.56:  Azm, Start 
 SDEP.m                4314.01:  Start Depth 
 SIDD.                      No:  Serv Intrp, DD 
 SINC.deg                67.42:  Inc, Start 
 SPPA.psig             3300.00:  SPP Avg 
 SPPN.psig             1750.00:  SPP Min 
 SPPX.psig             4630.00:  SPP Max 
 STIM.      11.00.00 21-Aug-20:  Start Time 
 SVCS.                 DD, MWD:  Services 
 SVER.                    9.20:  Sperry Version 
 TDAT.m                4461.01:  Tot Depth Attmp 
 TDDF.                      No:  Trip for DD 
 TDLG.m                 147.00:  Tot Depth Loggd 
 TFF .                      No:  Trip for Fail 
 TQAA.f-kp               16.00:  Torque Abs Avg 
 TQAN.f-kp               14.00:  Torque Abs Min 
 TQAX.f-kp               20.00:  Torque Abs Max 
 TRRT.°/30m              -0.14:  Turn Rotating 
 MRT .                    HCIM:  Maximum Recorded Temperature 
 TTMX.degC               78.00:  Max Tool Temp 
 VS01.                90515425:  Virtual Str1 SN 
 VS02.                90545184:  Virtual Str2 SN 
 VS03.                90527809:  Virtual Str3 SN 
 VS04.                90515232:  Virtual Str4 SN 
 VS05.                90621207:  Virtual Str5 SN 
 VS06.                90619737:  Virtual Str6 SN 
 WBMN.klb                 2.00:  WOB Min 
 WITN.          Keith Dischler:  Customer Rep 
 WITN.           Faig Mammadov:  Customer Rep 2 
 WOBA.klb                 5.00:  WOB Avg 
 WOBX.klb                 8.00:  WOB Max 
 YP  .lhf2               32.00:  Yield Point 
~Curve Information Block
#MNEM.UNIT                 API CODE     Curve Description
#---------               -----------    ---------------------------
 TIME.HHMMSS            00 000 000 000:  GT Time & Date
 GTET.sec               00 000 000 000:  GT Elapsed Test Time
 GTPQH.psia             00 000 000 000:  GT HR Quartz Pressure
 GTDEPTH.m              00 000 000 000:  GT Depth
 GTTVD.m                00 000 000 000:  GT True Vertical Depth
 GTTQ.degC              00 000 000 000:  GT Quartz Temperature
 GTTN.NONE              00 000 000 000:  GT Test Number
#Other Information
#
#WARRANTY: Halliburton will use its best efforts to furnish customers with 
#accurate information and interpretations that are part of, and incident to, the services 
#provided.  However, Halliburton cannot and does not warrant the accuracy 
#or correctness of such information and interpretations.  Under no circumstances should any 
#such information or interpretation be relied upon as the sole basis for any drilling, 
#completion, production, or financial decision or any procedure involving any risk to the 
#safety of any drilling venture, drilling rig or its crew or any other third party.  The 
#Customer has full responsibility for all drilling, completion and production operation.  
#Halliburton makes no representations or warranties, either expressed or 
#implied, including, but not limited to, the implied warranties of merchantability or fitness 
#for a particular purpose, with respect to the services rendered.  In no event will 
#Halliburton be liable for failure to obtain any particular results or for 
#any damages, including, but not limited to, indirect, special or consequential damages, 
#resulting from the use of any information or interpretation provided by Halliburton.
#
~A           TIME            GTET   GTPQH  GTDEPTH  GTTVD  GTTQ  GTTN 
# ...
   08:28:06.000.25-Aug-2020 253.00 3359.66 4372.51 2065.92 72.13 6.00
   08:28:06.200.25-Aug-2020 253.20 3359.66 4372.51 2065.92 72.13 6.00
   08:28:06.400.25-Aug-2020 253.40 3359.66 4372.51 2065.92 72.13 6.00
   08:28:06.600.25-Aug-2020 253.60 3359.66 4372.51 2065.92 72.13 6.00
   08:28:06.800.25-Aug-2020 253.80 3359.64 4372.51 2065.92 72.13 6.00
   08:28:07.000.25-Aug-2020 254.00 3359.98 4372.51 2065.92 72.13 6.00
   08:28:07.200.25-Aug-2020 254.20 3359.98 4372.51 2065.92 72.13 6.00
   08:28:07.400.25-Aug-2020 254.40 3359.54 4372.51 2065.92 72.13 6.00
   08:28:07.600.25-Aug-2020 254.60 3359.68 4372.51 2065.92 72.13 6.00
   08:28:07.800.25-Aug-2020 254.80 3359.65 4372.51 2065.92 72.13 6.00
   08:28:08.000.25-Aug-2020 255.00 3359.66 4372.51 2065.92 72.13 6.00
   08:28:08.200.25-Aug-2020 255.20 3359.66 4372.51 2065.92 72.13 6.00
   08:28:08.400.25-Aug-2020 255.40 3359.67 4372.51 2065.92 72.13 6.00
   08:28:08.600.25-Aug-2020 255.60 3359.65 4372.51 2065.92 72.13 6.00
   08:28:08.800.25-Aug-2020 255.80 3359.64 4372.51 2065.92 72.13 6.00
   08:28:09.000.25-Aug-2020 256.00 3300.30 4372.51 2065.92 72.13 6.00
   08:28:09.200.25-Aug-2020 256.20 3213.02 4372.51 2065.92 72.13 6.00
   08:28:09.400.25-Aug-2020 256.40 3190.57 4372.51 2065.92 72.13 6.00
   08:28:09.600.25-Aug-2020 256.60 3183.26 4372.51 2065.92 72.13 6.00
   08:28:09.800.25-Aug-2020 256.80 3181.02 4372.51 2065.92 72.13 6.00
   08:28:10.000.25-Aug-2020 257.00 3178.72 4372.51 2065.92 72.13 6.00
   08:28:10.200.25-Aug-2020 257.20 3178.72 4372.51 2065.92 72.13 6.00
   08:28:10.400.25-Aug-2020 257.40 3178.67 4372.51 2065.92 72.13 6.00
   08:28:10.600.25-Aug-2020 257.60 3178.80 4372.51 2065.92 72.13 6.00
   08:28:10.800.25-Aug-2020 257.80 3177.30 4372.51 2065.92 72.13 6.00
   08:28:11.000.25-Aug-2020 258.00 3174.03 4372.51 2065.92 72.13 6.00
   08:28:11.200.25-Aug-2020 258.20 3174.03 4372.51 2065.92 72.13 6.00
   08:28:11.400.25-Aug-2020 258.40 3169.61 4372.51 2065.92 72.13 6.00
   08:28:11.600.25-Aug-2020 258.60 3168.59 4372.51 2065.92 72.13 6.00
   08:28:11.800.25-Aug-2020 258.80 3171.68 4372.51 2065.92 72.13 6.00
   08:28:12.000.25-Aug-2020 259.00 3169.85 4372.51 2065.92 72.13 6.00
   08:28:12.200.25-Aug-2020 259.20 3169.85 4372.51 2065.92 72.13 6.00
   08:28:12.400.25-Aug-2020 259.40 3167.62 4372.51 2065.92 72.13 6.00
   08:28:12.600.25-Aug-2020 259.60 3165.62 4372.51 2065.92 72.13 6.00
   08:28:12.800.25-Aug-2020 259.80 3168.40 4372.51 2065.92 72.13 6.00
   08:28:13.000.25-Aug-2020 260.00 3167.18 4372.51 2065.92 72.13 6.00
   08:28:13.200.25-Aug-2020 260.20 3167.18 4372.51 2065.92 72.13 6.00
   08:28:13.400.25-Aug-2020 260.40 3171.46 4372.51 2065.92 72.13 6.00
   08:28:13.600.25-Aug-2020 260.60 3168.37 4372.51 2065.92 72.13 6.00
   08:28:13.800.25-Aug-2020 260.80 3170.76 4372.51 2065.92 72.13 6.00
   08:28:14.000.25-Aug-2020 261.00 3171.13 4372.51 2065.92 72.13 6.00
   08:28:14.200.25-Aug-2020 261.20 3171.13 4372.51 2065.92 72.13 6.00
   08:28:14.400.25-Aug-2020 261.40 3166.60 4372.51 2065.92 72.13 6.00
   08:28:14.600.25-Aug-2020 261.60 3166.26 4372.51 2065.92 72.13 6.00
   08:28:14.800.25-Aug-2020 261.80 3167.69 4372.51 2065.92 72.13 6.00
   08:28:15.000.25-Aug-2020 262.00 3166.24 4372.51 2065.92 72.13 6.00
   08:28:15.200.25-Aug-2020 262.20 3166.24 4372.51 2065.92 72.13 6.00
   08:28:15.400.25-Aug-2020 262.40 3170.85 4372.51 2065.92 72.13 6.00
   08:28:15.600.25-Aug-2020 262.60 3170.42 4372.51 2065.92 72.13 6.00
   08:28:15.800.25-Aug-2020 262.80 3168.99 4372.51 2065.92 72.13 6.00
   08:28:16.000.25-Aug-2020 263.00 3170.41 4372.51 2065.92 72.13 6.00
   08:28:16.200.25-Aug-2020 263.20 3170.41 4372.51 2065.92 72.13 6.00
   08:28:16.400.25-Aug-2020 263.40 3173.76 4372.51 2065.92 72.13 6.00
   08:28:16.600.25-Aug-2020 263.60 3172.36 4372.51 2065.92 72.13 6.00
   08:28:16.800.25-Aug-2020 263.80 3173.30 4372.51 2065.92 72.13 6.00
   08:28:17.000.25-Aug-2020 264.00 3173.53 4372.51 2065.92 72.13 6.00
   08:28:17.200.25-Aug-2020 264.20 3173.53 4372.51 2065.92 72.13 6.00
   08:28:17.400.25-Aug-2020 264.40 3172.70 4372.51 2065.92 72.13 6.00
   08:28:17.600.25-Aug-2020 264.60 3172.80 4372.51 2065.92 72.13 6.00
   08:28:17.800.25-Aug-2020 264.80 3171.97 4372.51 2065.92 72.13 6.00
   08:28:18.000.25-Aug-2020 265.00 3171.32 4372.51 2065.92 72.13 6.00
   08:28:18.200.25-Aug-2020 265.20 3171.32 4372.51 2065.92 72.13 6.00
   08:28:18.400.25-Aug-2020 265.40 3169.33 4372.51 2065.92 72.13 6.00
   08:28:18.600.25-Aug-2020 265.60 3170.04 4372.51 2065.92 72.13 6.00
   08:28:18.800.25-Aug-2020 265.80 3168.87 4372.51 2065.92 72.13 6.00
   08:28:19.000.25-Aug-2020 266.00 3171.54 4372.51 2065.92 72.13 6.00
   08:28:19.200.25-Aug-2020 266.20 3171.54 4372.51 2065.92 72.13 6.00
   08:28:19.400.25-Aug-2020 266.40 3353.04 4372.51 2065.92 72.13 6.00
   08:28:19.600.25-Aug-2020 266.60 3358.49 4372.51 2065.92 72.13 6.00
   08:28:19.800.25-Aug-2020 266.80 3358.59 4372.51 2065.92 72.13 6.00
   08:28:20.000.25-Aug-2020 267.00 3358.61 4372.51 2065.92 72.13 6.00
   08:28:20.200.25-Aug-2020 267.20 3358.61 4372.51 2065.92 72.13 6.00
   08:28:20.400.25-Aug-2020 267.40 3358.73 4372.51 2065.92 72.13 6.00
   08:28:20.600.25-Aug-2020 267.60 3358.79 4372.51 2065.92 72.13 6.00
   08:28:20.800.25-Aug-2020 267.80 3358.83 4372.51 2065.92 72.13 6.00
   08:28:21.000.25-Aug-2020 268.00 3358.87 4372.51 2065.92 72.13 6.00
   08:28:21.200.25-Aug-2020 268.20 3358.87 4372.51 2065.92 72.13 6.00
   08:28:21.400.25-Aug-2020 268.40 3358.93 4372.51 2065.92 72.13 6.00
   08:28:21.600.25-Aug-2020 268.60 3358.98 4372.51 2065.92 72.13 6.00
   08:28:21.800.25-Aug-2020 268.80 3358.98 4372.51 2065.92 72.13 6.00
   08:28:22.000.25-Aug-2020 269.00 3359.45 4372.51 2065.92 72.13 6.00
   08:28:22.200.25-Aug-2020 269.20 3359.45 4372.51 2065.92 72.13 6.00
   08:28:22.400.25-Aug-2020 269.40 3359.31 4372.51 2065.92 72.13 6.00
   08:28:22.600.25-Aug-2020 269.60 3359.46 4372.51 2065.92 72.13 6.00
   08:28:22.800.25-Aug-2020 269.80 3359.37 4372.51 2065.92 72.13 6.00
   08:28:23.000.25-Aug-2020 270.00 3359.09 4372.51 2065.92 72.13 6.00
   08:28:23.200.25-Aug-2020 270.20 3359.09 4372.51 2065.92 72.13 6.00
   08:28:23.400.25-Aug-2020 270.40 3359.45 4372.51 2065.92 72.13 6.00
   08:28:23.600.25-Aug-2020 270.60 3359.37 4372.51 2065.92 72.13 6.00
   08:28:23.800.25-Aug-2020 270.80 3359.49 4372.51 2065.92 72.13 6.00
   08:28:24.000.25-Aug-2020 271.00 3359.52 4372.51 2065.92 72.13 6.00
   08:28:24.200.25-Aug-2020 271.20 3359.52 4372.51 2065.92 72.13 6.00
   08:28:24.400.25-Aug-2020 271.40 3359.71 4372.51 2065.92 72.13 6.00
   08:28:24.600.25-Aug-2020 271.60 3359.68 4372.51 2065.92 72.13 6.00
   08:28:24.800.25-Aug-2020 271.80 3359.54 4372.51 2065.92 72.13 6.00
   08:28:25.000.25-Aug-2020 272.00 3359.50 4372.51 2065.92 72.13 6.00
   08:28:25.200.25-Aug-2020 272.20 3359.50 4372.51 2065.92 72.13 6.00
   08:28:25.400.25-Aug-2020 272.40 3359.55 4372.51 2065.92 72.13 6.00
   08:28:25.600.25-Aug-2020 272.60 3359.63 4372.51 2065.92 72.13 6.00
   08:28:25.800.25-Aug-2020 272.80 3359.36 4372.51 2065.92 72.13 6.00
   08:28:26.000.25-Aug-2020 273.00 3359.69 4372.51 2065.92 72.13 6.00
   08:28:26.200.25-Aug-2020 273.20 3359.69 4372.51 2065.92 72.13 6.00
   08:28:26.400.25-Aug-2020 273.40 3359.54 4372.51 2065.92 72.13 6.00
   08:28:26.600.25-Aug-2020 273.60 3359.24 4372.51 2065.92 72.13 6.00
   08:28:26.800.25-Aug-2020 273.80 3359.80 4372.51 2065.92 72.13 6.00
   08:28:27.000.25-Aug-2020 274.00 3359.73 4372.51 2065.92 72.13 6.00
   08:28:27.200.25-Aug-2020 274.20 3359.73 4372.51 2065.92 72.13 6.00
   08:28:27.400.25-Aug-2020 274.40 3359.54 4372.51 2065.92 72.13 6.00
   08:28:27.600.25-Aug-2020 274.60 3359.60 4372.51 2065.92 72.13 6.00
   08:28:27.800.25-Aug-2020 274.80 3359.59 4372.51 2065.92 72.13 6.00
   08:28:28.000.25-Aug-2020 275.00 3359.58 4372.51 2065.92 72.13 6.00
   08:28:28.200.25-Aug-2020 275.20 3359.58 4372.51 2065.92 72.13 6.00
   08:28:28.400.25-Aug-2020 275.40 3359.56 4372.51 2065.92 72.13 6.00
   08:28:28.600.25-Aug-2020 275.60 3359.58 4372.51 2065.92 72.13 6.00
   08:28:28.800.25-Aug-2020 275.80 3359.57 4372.51 2065.92 72.13 6.00
