~Version Information
 VERS.                  2.0:   CWLS log ASCII Standard -VERSION 2.0
 WRAP.                   NO:   One line per depth step
~Well Information Block
#MNEM.UNIT     VALUE/NAME     DESCRIPTION
#---------     -----------    ---------------------------
 STRT.S             12:25:10 25-Aug-20: START TIME 12:25:10 25-Aug-20
 STOP.S             12:32:06 25-Aug-20: STOP TIME  12:32:06 25-Aug-20
 STEP.S                   0.00: STEP TIME
 NULL.                 -999.25: NULL VALUE
 DFWT.                        :  DIST FWL TEXT
 DFST.                        :  DIST FSL TEXT
 DMF .             Drill Floor:  DRILL MEAS FROM
 STIM.      09.59.28 01-Jun-20:  START TIME
 DATE.      05.00.00 28-Aug-20:  END TIME
 SPUD.               01-Jun-20:  SPUD DATE
 NREF.                    Grid:  NORTH REFERENCE
 HPTY.       Minimum Curvature:  HOLE POS TYPE
 DMOD.             Drill Model:  DRILL MOD DESC
 SVYD.                  Survey:  SURVEY DESC
 ILTD.               Lithology:  INTERP LTH DESC
 FTOP.          Formation Tops:  FORM TOPS DESC
 SON .        AZ-XX-0905455768:  JOB NUMBER
 WTYP.                Deviated:  WELL TYPE
 COMP.     BP Exploration(Caspian Sea):  COMPANY
 BASE.              Azerbaijan:  LOGGING EQUIPMENT BASE LOCATION
 REGN.                   EESSA:  REGION
 CTRY.              Azerbaijan:  COUNTRY NAME
 FLD .                     ACG:  FIELD NAME
 SRVC.          Turan Drilling:  CONTRACTOR
 WELL.                     B41:  WELL NAME
 RIG .           Central Azeri:  RIG NAME
 DCON.         Sperry Drilling:  DIRECTNL CONTR
 PDAT.          Mean Sea Level:  PERMANENT DATUM
 MDS .        Operator Entered:  MAG DATA SOURCE
 API .                        :  API NUMBER
 CNTY.                        :  COUNTY
 PROV.                        :  PROVINCE
 STAT.                        :  STATE
 UWI .                        :  UNIQUE WELL IDENTIFIER
 LOC .                        :  LOCATION
 LMF .             Drill Floor:  LOG MEASURED FROM
 TVDS.m                  43.29:  TVDSS CORRECTN
 LATI.deg                40.03:  LATITUDE
 LONG.deg                51.35:  LONGITUDE
 WHNS.m                  12.98:  WELL HEAD N/S
 WHEW.m                  -6.62:  WELL HEAD E/W
 UTMX.m              530128.28:  UTM X
 UTMY.m             4433192.49:  UTM Y
 DFWL.m                   0.00:  DISTANCE FWL
 DFSL.m                   0.00:  DISTANCE FSL
 SDEP.m                 378.00:  START DEPTH
 TDD .m                4463.01:  TOTAL DEPTH (DRILLER)
 VSDR.deg               296.18:  VERT SEC DIRECT
 GVFD.g                   1.00:  GRAVITY FIELD
 MFLD.nT              50269.00:  MAGNETIC FIELD
 MDIP.deg                59.50:  MAGNETIC DIP
 MDEC.deg                 6.44:  MAGNETIC DECL
 GRDC.deg                 0.20:  GRID CORRECTION
 AZTC.deg                 6.24:  AZM TOTAL CORR
 EPD .m                   0.00:  ELEVATION
 EGL .m                   0.00:  GROUND ELEVATION
 WDMS.m                 128.20:  WD ELEV
 APD .m                  43.29:  DEPTH ABOVE PD
 AGAP.m                  43.29:  AIR GAP
 VSEW.m                  -6.62:  VERT SEC E/W
 VSNS.m                  12.98:  VERT SEC N/S
 EKB .m                  43.29:  KB ELEVATION
 EDF .m                  43.29:  DF ELEVATION
 TDL .m                 147.00:  TOTAL DEPTH (LOGGER)
 VSC .                       0:  VS TO CLOSURE
 MAGU.                 1849241:  MAGUTM CHECKSUM
~Parameter Information Block
#MNEM.UNIT       Value        Description
#---------     -----------    ---------------------------
 AV  .mps                 0.70:  Ann Velocity 
 AZIF.deg               269.43:  Azm, Final 
 BHAT.        Rotary Steerable:  BHA Type 
 BROT.°/30m              -0.03:  Build Rotating 
 BS  .in                  8.50:  Bit Size 
 BSZ .in                  8.50:  Bit Size 
 BTPL.psig              880.00:  Bit Press Loss 
 CABU.                      No:  Customer Abuse 
 CGEO.          Parviz Guliyev:  Customer Geo 
 COMM.                     >h:  Run Comments 1 
 TCS .hr                 64.59:  Time Ciculation Ended 
 CV  .mps                 2.17:  Crit Velocity 
 DD1 .            Nonso Okafor:  Direct Drillr 1 
 DDSV.               Geo-Pilot:  DD Service 
 DEFF.%                  98.00:  % Det Eff 
 DLRX.°/30m               0.81:  Dogleg Rot Max 
 DLSO.°/30m               0.55:  Dogleg Oriented 
 DLSX.°/30m               0.81:  Dogleg Str Max 
 DRET.      23.50.00 24-Aug-20:  Drill End Time 
 DRST.      07.34.24 22-Aug-20:  Drill Start Tim 
 DTIM.hr                 15.29:  Time Drilling 
 EDEP.m                4461.01:  End Depth 
 ENG1.       Zam Abdullah Sani:  Engineer 1 
 ENG2.         Dair Mahammadov:  Engineer 2 
 ENG3.          Rustam Gadirov:  Engineer 3 
 ETIM.      07.34.24 26-Aug-20:  End Time 
 FLOI.gpm               550.00:  Flow In 
 FLON.gpm               400.00:  Flow In Min 
 FLOS.cptm                1.00:  Fluid Loss 
 FLOX.gpm               600.00:  Flow In Max 
 FTRO.       Formation Presure:  FTWD Run Obj 
 HFLO.                      No:  High Flow 
 HPRE.                      No:  High Pressure 
 HTEM.                      No:  High Temp 
 HYDO.m                   1.80:  Hydro Offset 
 IFIN.deg                66.72:  Inc, Final 
 IMAX.deg                67.42:  Inc Max 
 IMIN.deg                66.72:  Inc Min 
 IMND.m                4408.37:  Inc Min Depth 
 IMXD.m                4323.37:  Inc Max Depth 
 JARR.                      No:  Jarring 
 LETM.      23.50.00 24-Aug-20:  Log End Time 
 LOST.hr                     0:  Lost Rig Time 
 LSTM.      07.34.24 22-Aug-20:  Log Start Time 
 MDCL.ppm             38000.00:  Mud Chlorides 
 MDES.     Inversion Oil/Synthetic:  Mud Desc 
 DFD .sg                  1.40:  Mud Density 
 MDMN.sg                  1.38:  Dens Mud Min 
 MDMX.sg                  1.41:  Dens Mud Max 
 MOIL.                    70.5:  Run Mud Oil % 
 MOWR.                   68:32:  Run Mud OWR 
 MSND.                    0.01:  Run Mud Sand % 
 MSOL.                   17.68:  Run Mud Solids% 
 DFV .spqt               77.00:  Mud Viscosity 
 MWOD.in                  6.75:  MWD Tool OD 
 MWSI.                      No:  Serv Intrp, MWD 
 OTIM.hr                159.42:  Time Operating 
 PCON.           Look Like New:  Pad Condition 
 PMAX.psia             8730.94:  Press Op, Max 
 PV  .cP                 31.00:  Mud PV 
 RUN .                     900:  Run Number 
 ROPA.m/hr               12.00:  ROP Avg 
 ROPN.m/hr                7.00:  ROP Min 
 ROPX.m/hr               17.00:  ROP Max 
 RPMA.rpm               120.00:  RPM Surface Avg 
 RPMN.rpm                60.00:  RPM Surface Min 
 RPMX.rpm               140.00:  RPM Surface Max 
 RRUN.                    L604:  Rig Run Number 
 RTIM.hr                 10.00:  Time Reaming 
 SAZI.deg               270.56:  Azm, Start 
 SDEP.m                4314.01:  Start Depth 
 SIDD.                      No:  Serv Intrp, DD 
 SINC.deg                67.42:  Inc, Start 
 SPPA.psig             3300.00:  SPP Avg 
 SPPN.psig             1750.00:  SPP Min 
 SPPX.psig             4630.00:  SPP Max 
 STIM.      11.00.00 21-Aug-20:  Start Time 
 SVCS.                 DD, MWD:  Services 
 SVER.                    9.20:  Sperry Version 
 TDAT.m                4461.01:  Tot Depth Attmp 
 TDDF.                      No:  Trip for DD 
 TDLG.m                 147.00:  Tot Depth Loggd 
 TFF .                      No:  Trip for Fail 
 TQAA.f-kp               16.00:  Torque Abs Avg 
 TQAN.f-kp               14.00:  Torque Abs Min 
 TQAX.f-kp               20.00:  Torque Abs Max 
 TRRT.°/30m              -0.14:  Turn Rotating 
 MRT .                    HCIM:  Maximum Recorded Temperature 
 TTMX.degC               78.00:  Max Tool Temp 
 VS01.                90515425:  Virtual Str1 SN 
 VS02.                90545184:  Virtual Str2 SN 
 VS03.                90527809:  Virtual Str3 SN 
 VS04.                90515232:  Virtual Str4 SN 
 VS05.                90621207:  Virtual Str5 SN 
 VS06.                90619737:  Virtual Str6 SN 
 WBMN.klb                 2.00:  WOB Min 
 WITN.          Keith Dischler:  Customer Rep 
 WITN.           Faig Mammadov:  Customer Rep 2 
 WOBA.klb                 5.00:  WOB Avg 
 WOBX.klb                 8.00:  WOB Max 
 YP  .lhf2               32.00:  Yield Point 
~Curve Information Block
#MNEM.UNIT                 API CODE     Curve Description
#---------               -----------    ---------------------------
 TIME.HHMMSS            00 000 000 000:  GT Time & Date
 GTET.sec               00 000 000 000:  GT Elapsed Test Time
 GTPQH.psia             00 000 000 000:  GT HR Quartz Pressure
 GTDEPTH.m              00 000 000 000:  GT Depth
 GTTVD.m                00 000 000 000:  GT True Vertical Depth
 GTTQ.degC              00 000 000 000:  GT Quartz Temperature
 GTTN.NONE              00 000 000 000:  GT Test Number
#Other Information
#
#WARRANTY: Halliburton will use its best efforts to furnish customers with 
#accurate information and interpretations that are part of, and incident to, the services 
#provided.  However, Halliburton cannot and does not warrant the accuracy 
#or correctness of such information and interpretations.  Under no circumstances should any 
#such information or interpretation be relied upon as the sole basis for any drilling, 
#completion, production, or financial decision or any procedure involving any risk to the 
#safety of any drilling venture, drilling rig or its crew or any other third party.  The 
#Customer has full responsibility for all drilling, completion and production operation.  
#Halliburton makes no representations or warranties, either expressed or 
#implied, including, but not limited to, the implied warranties of merchantability or fitness 
#for a particular purpose, with respect to the services rendered.  In no event will 
#Halliburton be liable for failure to obtain any particular results or for 
#any damages, including, but not limited to, indirect, special or consequential damages, 
#resulting from the use of any information or interpretation provided by Halliburton.
#
~A           TIME            GTET   GTPQH  GTDEPTH  GTTVD  GTTQ  GTTN  
# ...
   12:25:32.600.25-Aug-2020  22.60 4738.76 4311.01 2041.94 71.65 12.00
   12:25:32.800.25-Aug-2020  22.80 4735.62 4311.01 2041.94 71.65 12.00
   12:25:33.000.25-Aug-2020  23.00 4735.70 4311.01 2041.94 71.65 12.00
   12:25:33.200.25-Aug-2020  23.20 4735.70 4311.01 2041.94 71.65 12.00
   12:25:33.400.25-Aug-2020  23.40 4747.37 4311.01 2041.94 71.65 12.00
   12:25:33.600.25-Aug-2020  23.60 4727.79 4311.01 2041.94 71.65 12.00
   12:25:33.800.25-Aug-2020  23.80 4742.63 4311.01 2041.94 71.65 12.00
   12:25:34.000.25-Aug-2020  24.00 4734.79 4311.01 2041.94 71.65 12.00
   12:25:34.200.25-Aug-2020  24.20 4734.79 4311.01 2041.94 71.65 12.00
   12:25:34.400.25-Aug-2020  24.40 4750.35 4311.01 2041.94 71.65 12.00
   12:25:34.600.25-Aug-2020  24.60 4729.24 4311.01 2041.94 71.65 12.00
   12:25:34.800.25-Aug-2020  24.80 4744.95 4311.01 2041.94 71.65 12.00
   12:25:35.000.25-Aug-2020  25.00 4736.47 4311.01 2041.94 71.65 12.00
   12:25:35.200.25-Aug-2020  25.20 4736.47 4311.01 2041.94 71.65 12.00
   12:25:35.400.25-Aug-2020  25.40 4738.81 4311.01 2041.94 71.65 12.00
   12:25:35.600.25-Aug-2020  25.60 4739.05 4311.01 2041.94 71.65 12.00
   12:25:35.800.25-Aug-2020  25.80 4750.72 4311.01 2041.94 71.65 12.00
   12:25:36.000.25-Aug-2020  26.00 4731.61 4311.01 2041.94 71.65 12.00
   12:25:36.200.25-Aug-2020  26.20 4747.28 4311.01 2041.94 71.65 12.00
   12:25:36.400.25-Aug-2020  26.40 4737.61 4311.01 2041.94 71.65 12.00
   12:25:36.600.25-Aug-2020  26.60 4739.67 4311.01 2041.94 71.65 12.00
   12:25:36.800.25-Aug-2020  26.80 4740.08 4311.01 2041.94 71.65 12.00
   12:25:37.000.25-Aug-2020  27.00 4755.53 4311.01 2041.94 71.65 12.00
   12:25:37.200.25-Aug-2020  27.20 4755.53 4311.01 2041.94 71.65 12.00
   12:25:37.400.25-Aug-2020  27.40 4746.24 4311.01 2041.94 71.65 12.00
   12:25:37.600.25-Aug-2020  27.60 4740.70 4311.01 2041.94 71.65 12.00
   12:25:37.800.25-Aug-2020  27.80 4739.20 4311.01 2041.94 71.65 12.00
   12:25:38.000.25-Aug-2020  28.00 4739.14 4311.01 2041.94 71.65 12.00
   12:25:38.200.25-Aug-2020  28.20 4739.14 4311.01 2041.94 71.65 12.00
   12:25:38.400.25-Aug-2020  28.40 4738.81 4311.01 2041.94 71.65 12.00
   12:25:38.600.25-Aug-2020  28.60 4739.05 4311.01 2041.94 71.65 12.00
   12:25:38.800.25-Aug-2020  28.80 4740.04 4311.01 2041.94 71.65 12.00
   12:25:39.000.25-Aug-2020  29.00 4740.02 4311.01 2041.94 71.65 12.00
   12:25:39.200.25-Aug-2020  29.20 4740.02 4311.01 2041.94 71.65 12.00
   12:25:39.400.25-Aug-2020  29.40 4740.34 4311.01 2041.94 71.65 12.00
   12:25:39.600.25-Aug-2020  29.60 4740.38 4311.01 2041.94 71.65 12.00
   12:25:39.800.25-Aug-2020  29.80 4740.19 4311.01 2041.94 71.65 12.00
   12:25:40.000.25-Aug-2020  30.00 4739.68 4311.01 2041.94 71.65 12.00
   12:25:40.200.25-Aug-2020  30.20 4739.68 4311.01 2041.94 71.65 12.00
   12:25:40.400.25-Aug-2020  30.40 4739.93 4311.01 2041.94 71.65 12.00
   12:25:40.600.25-Aug-2020  30.60 4753.09 4311.01 2041.94 71.65 12.00
   12:25:40.800.25-Aug-2020  30.80 4732.78 4311.01 2041.94 71.65 12.00
   12:25:41.000.25-Aug-2020  31.00 4749.31 4311.01 2041.94 71.65 12.00
   12:25:41.200.25-Aug-2020  31.20 4749.31 4311.01 2041.94 71.65 12.00
   12:25:41.400.25-Aug-2020  31.40 4740.38 4311.01 2041.94 71.65 12.00
   12:25:41.600.25-Aug-2020  31.60 4740.89 4311.01 2041.94 71.65 12.00
   12:25:41.800.25-Aug-2020  31.80 4739.82 4311.01 2041.94 71.65 12.00
   12:25:42.000.25-Aug-2020  32.00 4738.88 4311.01 2041.94 71.65 12.00
   12:25:42.200.25-Aug-2020  32.20 4740.69 4311.01 2041.94 71.65 12.00
   12:25:42.400.25-Aug-2020  32.40 4739.73 4311.01 2041.94 71.65 12.00
   12:25:42.600.25-Aug-2020  32.60 4739.02 4311.01 2041.94 71.65 12.00
   12:25:42.800.25-Aug-2020  32.80 4739.96 4311.01 2041.94 71.65 12.00
   12:25:43.000.25-Aug-2020  33.00 4740.16 4311.01 2041.94 71.65 12.00
   12:25:43.200.25-Aug-2020  33.20 4740.16 4311.01 2041.94 71.65 12.00
   12:25:43.400.25-Aug-2020  33.40 4739.96 4311.01 2041.94 71.65 12.00
   12:25:43.600.25-Aug-2020  33.60 4740.49 4311.01 2041.94 71.65 12.00
   12:25:43.800.25-Aug-2020  33.80 4740.02 4311.01 2041.94 71.65 12.00
   12:25:44.000.25-Aug-2020  34.00 4753.43 4311.01 2041.94 71.65 12.00
   12:25:44.200.25-Aug-2020  34.20 4753.43 4311.01 2041.94 71.65 12.00
   12:25:44.400.25-Aug-2020  34.40 4749.44 4311.01 2041.94 71.65 12.00
   12:25:44.600.25-Aug-2020  34.60 4740.75 4311.01 2041.94 71.65 12.00
   12:25:44.800.25-Aug-2020  34.80 4741.69 4311.01 2041.94 71.65 12.00
   12:25:45.000.25-Aug-2020  35.00 4893.77 4311.01 2041.94 71.65 12.00
   12:25:45.200.25-Aug-2020  35.20 4893.77 4311.01 2041.94 71.65 12.00
   12:25:45.400.25-Aug-2020  35.40 4952.63 4311.01 2041.94 71.65 12.00
   12:25:45.600.25-Aug-2020  35.60 4960.29 4311.01 2041.94 71.65 12.00
   12:25:45.800.25-Aug-2020  35.80 4956.21 4311.01 2041.94 71.65 12.00
   12:25:46.000.25-Aug-2020  36.00 4958.84 4311.01 2041.94 71.65 12.00
   12:25:46.200.25-Aug-2020  36.20 4958.84 4311.01 2041.94 71.65 12.00
   12:25:46.400.25-Aug-2020  36.40 4971.17 4311.01 2041.94 71.65 12.00
   12:25:46.600.25-Aug-2020  36.60 4941.39 4311.01 2041.94 71.65 12.00
   12:25:46.800.25-Aug-2020  36.80 4946.33 4311.01 2041.94 71.65 12.00
   12:25:47.000.25-Aug-2020  37.00 4932.51 4311.01 2041.94 71.65 12.00
   12:25:47.200.25-Aug-2020  37.20 4934.75 4311.01 2041.94 71.65 12.00
   12:25:47.400.25-Aug-2020  37.40 4911.65 4311.01 2041.94 71.65 12.00
   12:25:47.600.25-Aug-2020  37.60 4914.65 4311.01 2041.94 71.65 12.00
   12:25:47.800.25-Aug-2020  37.80 4903.67 4311.01 2041.94 71.65 12.00
   12:25:48.000.25-Aug-2020  38.00 4900.02 4311.01 2041.94 71.65 12.00
   12:25:48.200.25-Aug-2020  38.20 4900.02 4311.01 2041.94 71.65 12.00
   12:25:48.400.25-Aug-2020  38.40 4886.25 4311.01 2041.94 71.65 12.00
   12:25:48.600.25-Aug-2020  38.60 4880.54 4311.01 2041.94 71.65 12.00
   12:25:48.800.25-Aug-2020  38.80 4887.12 4311.01 2041.94 71.65 12.00
   12:25:49.000.25-Aug-2020  39.00 4863.93 4311.01 2041.94 71.65 12.00
   12:25:49.200.25-Aug-2020  39.20 4872.68 4311.01 2041.94 71.65 12.00
   12:25:49.400.25-Aug-2020  39.40 4862.24 4311.01 2041.94 71.65 12.00
   12:25:49.600.25-Aug-2020  39.60 4853.25 4311.01 2041.94 71.65 12.00
   12:25:49.800.25-Aug-2020  39.80 4839.75 4311.01 2041.94 71.65 12.00
   12:25:50.000.25-Aug-2020  40.00 4829.31 4311.01 2041.94 71.65 12.00
   12:25:50.200.25-Aug-2020  40.20 4818.05 4311.01 2041.94 71.65 12.00
   12:25:50.400.25-Aug-2020  40.40 4795.48 4311.01 2041.94 71.65 12.00
   12:25:50.600.25-Aug-2020  40.60 4781.47 4311.01 2041.94 71.65 12.00
   12:25:50.800.25-Aug-2020  40.80 4772.22 4311.01 2041.94 71.65 12.00
   12:25:51.000.25-Aug-2020  41.00 4762.92 4311.01 2041.94 71.65 12.00
   12:25:51.200.25-Aug-2020  41.20 4762.92 4311.01 2041.94 71.65 12.00
   12:25:51.400.25-Aug-2020  41.40 4742.68 4311.01 2041.94 71.65 12.00
   12:25:51.600.25-Aug-2020  41.60 4732.35 4311.01 2041.94 71.65 12.00
   12:25:51.800.25-Aug-2020  41.80 4722.10 4311.01 2041.94 71.65 12.00
   12:25:52.000.25-Aug-2020  42.00 4711.19 4311.01 2041.94 71.65 12.00
   12:25:52.200.25-Aug-2020  42.20 4711.19 4311.01 2041.94 71.65 12.00
   12:25:52.400.25-Aug-2020  42.40 4689.85 4311.01 2041.94 71.65 12.00
   12:25:52.600.25-Aug-2020  42.60 4686.99 4311.01 2041.94 71.65 12.00
   12:25:52.800.25-Aug-2020  42.80 4666.05 4311.01 2041.94 71.65 12.00
   12:25:53.000.25-Aug-2020  43.00 4158.51 4311.01 2041.94 71.65 12.00
   12:25:53.200.25-Aug-2020  43.20 4158.51 4311.01 2041.94 71.65 12.00
   12:25:53.400.25-Aug-2020  43.40 2609.64 4311.01 2041.94 71.65 12.00
   12:25:53.600.25-Aug-2020  43.60 2437.87 4311.01 2041.94 71.65 12.00
   12:25:53.800.25-Aug-2020  43.80 2155.05 4311.01 2041.94 71.65 12.00
   12:25:54.000.25-Aug-2020  44.00 1801.32 4311.01 2041.94 71.65 12.00
   12:25:54.200.25-Aug-2020  44.20 1446.09 4311.01 2041.94 71.64 12.00
   12:25:54.400.25-Aug-2020  44.40 1088.62 4311.01 2041.94 71.64 12.00
   12:25:54.600.25-Aug-2020  44.60  714.33 4311.01 2041.94 71.64 12.00
   12:25:54.800.25-Aug-2020  44.80  337.69 4311.01 2041.94 71.64 12.00
   12:25:55.000.25-Aug-2020  45.00   49.35 4311.01 2041.94 71.64 12.00
