~Version Information
 VERS.                  2.0:   CWLS log ASCII Standard -VERSION 2.0
 WRAP.                   NO:   One line per depth step
~Well Information Block
#MNEM.UNIT     VALUE/NAME     DESCRIPTION
#---------     -----------    ---------------------------
 STRT.S             12:25:10 25-Aug-20: START TIME 12:25:10 25-Aug-20
 STOP.S             12:32:06 25-Aug-20: STOP TIME  12:32:06 25-Aug-20
 STEP.S                   0.00: STEP TIME
 NULL.                 -999.25: NULL VALUE
 DFWT.                        :  DIST FWL TEXT
 DFST.                        :  DIST FSL TEXT
 DMF .             Drill Floor:  DRILL MEAS FROM
 STIM.      09.59.28 01-Jun-20:  START TIME
 DATE.      05.00.00 28-Aug-20:  END TIME
 SPUD.               01-Jun-20:  SPUD DATE
 NREF.                    Grid:  NORTH REFERENCE
 HPTY.       Minimum Curvature:  HOLE POS TYPE
 DMOD.             Drill Model:  DRILL MOD DESC
 SVYD.                  Survey:  SURVEY DESC
 ILTD.               Lithology:  INTERP LTH DESC
 FTOP.          Formation Tops:  FORM TOPS DESC
 SON .        AZ-XX-0905455768:  JOB NUMBER
 WTYP.                Deviated:  WELL TYPE
 COMP.     BP Exploration(Caspian Sea):  COMPANY
 BASE.              Azerbaijan:  LOGGING EQUIPMENT BASE LOCATION
 REGN.                   EESSA:  REGION
 CTRY.              Azerbaijan:  COUNTRY NAME
 FLD .                     ACG:  FIELD NAME
 SRVC.          Turan Drilling:  CONTRACTOR
 WELL.                     B41:  WELL NAME
 RIG .           Central Azeri:  RIG NAME
 DCON.         Sperry Drilling:  DIRECTNL CONTR
 PDAT.          Mean Sea Level:  PERMANENT DATUM
 MDS .        Operator Entered:  MAG DATA SOURCE
 API .                        :  API NUMBER
 CNTY.                        :  COUNTY
 PROV.                        :  PROVINCE
 STAT.                        :  STATE
 UWI .                        :  UNIQUE WELL IDENTIFIER
 LOC .                        :  LOCATION
 LMF .             Drill Floor:  LOG MEASURED FROM
 TVDS.m                  43.29:  TVDSS CORRECTN
 LATI.deg                40.03:  LATITUDE
 LONG.deg                51.35:  LONGITUDE
 WHNS.m                  12.98:  WELL HEAD N/S
 WHEW.m                  -6.62:  WELL HEAD E/W
 UTMX.m              530128.28:  UTM X
 UTMY.m             4433192.49:  UTM Y
 DFWL.m                   0.00:  DISTANCE FWL
 DFSL.m                   0.00:  DISTANCE FSL
 SDEP.m                 378.00:  START DEPTH
 TDD .m                4463.01:  TOTAL DEPTH (DRILLER)
 VSDR.deg               296.18:  VERT SEC DIRECT
 GVFD.g                   1.00:  GRAVITY FIELD
 MFLD.nT              50269.00:  MAGNETIC FIELD
 MDIP.deg                59.50:  MAGNETIC DIP
 MDEC.deg                 6.44:  MAGNETIC DECL
 GRDC.deg                 0.20:  GRID CORRECTION
 AZTC.deg                 6.24:  AZM TOTAL CORR
 EPD .m                   0.00:  ELEVATION
 EGL .m                   0.00:  GROUND ELEVATION
 WDMS.m                 128.20:  WD ELEV
 APD .m                  43.29:  DEPTH ABOVE PD
 AGAP.m                  43.29:  AIR GAP
 VSEW.m                  -6.62:  VERT SEC E/W
 VSNS.m                  12.98:  VERT SEC N/S
 EKB .m                  43.29:  KB ELEVATION
 EDF .m                  43.29:  DF ELEVATION
 TDL .m                 147.00:  TOTAL DEPTH (LOGGER)
 VSC .                       0:  VS TO CLOSURE
 MAGU.                 1849241:  MAGUTM CHECKSUM
~Parameter Information Block
#MNEM.UNIT       Value        Description
#---------     -----------    ---------------------------
 AV  .mps                 0.70:  Ann Velocity 
 AZIF.deg               269.43:  Azm, Final 
 BHAT.        Rotary Steerable:  BHA Type 
 BROT.°/30m              -0.03:  Build Rotating 
 BS  .in                  8.50:  Bit Size 
 BSZ .in                  8.50:  Bit Size 
 BTPL.psig              880.00:  Bit Press Loss 
 CABU.                      No:  Customer Abuse 
 CGEO.          Parviz Guliyev:  Customer Geo 
 COMM.                     >h:  Run Comments 1 
 TCS .hr                 64.59:  Time Ciculation Ended 
 CV  .mps                 2.17:  Crit Velocity 
 DD1 .            Nonso Okafor:  Direct Drillr 1 
 DDSV.               Geo-Pilot:  DD Service 
 DEFF.%                  98.00:  % Det Eff 
 DLRX.°/30m               0.81:  Dogleg Rot Max 
 DLSO.°/30m               0.55:  Dogleg Oriented 
 DLSX.°/30m               0.81:  Dogleg Str Max 
 DRET.      23.50.00 24-Aug-20:  Drill End Time 
 DRST.      07.34.24 22-Aug-20:  Drill Start Tim 
 DTIM.hr                 15.29:  Time Drilling 
 EDEP.m                4461.01:  End Depth 
 ENG1.       Zam Abdullah Sani:  Engineer 1 
 ENG2.         Dair Mahammadov:  Engineer 2 
 ENG3.          Rustam Gadirov:  Engineer 3 
 ETIM.      07.34.24 26-Aug-20:  End Time 
 FLOI.gpm               550.00:  Flow In 
 FLON.gpm               400.00:  Flow In Min 
 FLOS.cptm                1.00:  Fluid Loss 
 FLOX.gpm               600.00:  Flow In Max 
 FTRO.       Formation Presure:  FTWD Run Obj 
 HFLO.                      No:  High Flow 
 HPRE.                      No:  High Pressure 
 HTEM.                      No:  High Temp 
 HYDO.m                   1.80:  Hydro Offset 
 IFIN.deg                66.72:  Inc, Final 
 IMAX.deg                67.42:  Inc Max 
 IMIN.deg                66.72:  Inc Min 
 IMND.m                4408.37:  Inc Min Depth 
 IMXD.m                4323.37:  Inc Max Depth 
 JARR.                      No:  Jarring 
 LETM.      23.50.00 24-Aug-20:  Log End Time 
 LOST.hr                     0:  Lost Rig Time 
 LSTM.      07.34.24 22-Aug-20:  Log Start Time 
 MDCL.ppm             38000.00:  Mud Chlorides 
 MDES.     Inversion Oil/Synthetic:  Mud Desc 
 DFD .sg                  1.40:  Mud Density 
 MDMN.sg                  1.38:  Dens Mud Min 
 MDMX.sg                  1.41:  Dens Mud Max 
 MOIL.                    70.5:  Run Mud Oil % 
 MOWR.                   68:32:  Run Mud OWR 
 MSND.                    0.01:  Run Mud Sand % 
 MSOL.                   17.68:  Run Mud Solids% 
 DFV .spqt               77.00:  Mud Viscosity 
 MWOD.in                  6.75:  MWD Tool OD 
 MWSI.                      No:  Serv Intrp, MWD 
 OTIM.hr                159.42:  Time Operating 
 PCON.           Look Like New:  Pad Condition 
 PMAX.psia             8730.94:  Press Op, Max 
 PV  .cP                 31.00:  Mud PV 
 RUN .                     900:  Run Number 
 ROPA.m/hr               12.00:  ROP Avg 
 ROPN.m/hr                7.00:  ROP Min 
 ROPX.m/hr               17.00:  ROP Max 
 RPMA.rpm               120.00:  RPM Surface Avg 
 RPMN.rpm                60.00:  RPM Surface Min 
 RPMX.rpm               140.00:  RPM Surface Max 
 RRUN.                    L604:  Rig Run Number 
 RTIM.hr                 10.00:  Time Reaming 
 SAZI.deg               270.56:  Azm, Start 
 SDEP.m                4314.01:  Start Depth 
 SIDD.                      No:  Serv Intrp, DD 
 SINC.deg                67.42:  Inc, Start 
 SPPA.psig             3300.00:  SPP Avg 
 SPPN.psig             1750.00:  SPP Min 
 SPPX.psig             4630.00:  SPP Max 
 STIM.      11.00.00 21-Aug-20:  Start Time 
 SVCS.                 DD, MWD:  Services 
 SVER.                    9.20:  Sperry Version 
 TDAT.m                4461.01:  Tot Depth Attmp 
 TDDF.                      No:  Trip for DD 
 TDLG.m                 147.00:  Tot Depth Loggd 
 TFF .                      No:  Trip for Fail 
 TQAA.f-kp               16.00:  Torque Abs Avg 
 TQAN.f-kp               14.00:  Torque Abs Min 
 TQAX.f-kp               20.00:  Torque Abs Max 
 TRRT.°/30m              -0.14:  Turn Rotating 
 MRT .                    HCIM:  Maximum Recorded Temperature 
 TTMX.degC               78.00:  Max Tool Temp 
 VS01.                90515425:  Virtual Str1 SN 
 VS02.                90545184:  Virtual Str2 SN 
 VS03.                90527809:  Virtual Str3 SN 
 VS04.                90515232:  Virtual Str4 SN 
 VS05.                90621207:  Virtual Str5 SN 
 VS06.                90619737:  Virtual Str6 SN 
 WBMN.klb                 2.00:  WOB Min 
 WITN.          Keith Dischler:  Customer Rep 
 WITN.           Faig Mammadov:  Customer Rep 2 
 WOBA.klb                 5.00:  WOB Avg 
 WOBX.klb                 8.00:  WOB Max 
 YP  .lhf2               32.00:  Yield Point 
~Curve Information Block
#MNEM.UNIT                 API CODE     Curve Description
#---------               -----------    ---------------------------
 TIME.HHMMSS            00 000 000 000:  GT Time & Date
 GTET.sec               00 000 000 000:  GT Elapsed Test Time
 GTPQH.psia             00 000 000 000:  GT HR Quartz Pressure
 GTDEPTH.m              00 000 000 000:  GT Depth
 GTTVD.m                00 000 000 000:  GT True Vertical Depth
 GTTQ.degC              00 000 000 000:  GT Quartz Temperature
 GTTN.NONE              00 000 000 000:  GT Test Number
#Other Information
#
#WARRANTY: Halliburton will use its best efforts to furnish customers with 
#accurate information and interpretations that are part of, and incident to, the services 
#provided.  However, Halliburton cannot and does not warrant the accuracy 
#or correctness of such information and interpretations.  Under no circumstances should any 
#such information or interpretation be relied upon as the sole basis for any drilling, 
#completion, production, or financial decision or any procedure involving any risk to the 
#safety of any drilling venture, drilling rig or its crew or any other third party.  The 
#Customer has full responsibility for all drilling, completion and production operation.  
#Halliburton makes no representations or warranties, either expressed or 
#implied, including, but not limited to, the implied warranties of merchantability or fitness 
#for a particular purpose, with respect to the services rendered.  In no event will 
#Halliburton be liable for failure to obtain any particular results or for 
#any damages, including, but not limited to, indirect, special or consequential damages, 
#resulting from the use of any information or interpretation provided by Halliburton.
#
~A           TIME            GTET   GTPQH  GTDEPTH  GTTVD  GTTQ  GTTN  
# ...
   12:26:17.800.25-Aug-2020  67.80   33.83 4311.01 2041.94 71.51 12.00
   12:26:18.000.25-Aug-2020  68.00   33.90 4311.01 2041.94 71.51 12.00
   12:26:18.200.25-Aug-2020  68.20   33.98 4311.01 2041.94 71.51 12.00
   12:26:18.400.25-Aug-2020  68.40   34.06 4311.01 2041.94 71.52 12.00
   12:26:18.600.25-Aug-2020  68.60   34.12 4311.01 2041.94 71.52 12.00
   12:26:18.800.25-Aug-2020  68.80   34.20 4311.01 2041.94 71.52 12.00
   12:26:19.000.25-Aug-2020  69.00   34.28 4311.01 2041.94 71.52 12.00
   12:26:19.200.25-Aug-2020  69.20   34.28 4311.01 2041.94 71.52 12.00
   12:26:19.400.25-Aug-2020  69.40   34.41 4311.01 2041.94 71.52 12.00
   12:26:19.600.25-Aug-2020  69.60   34.47 4311.01 2041.94 71.52 12.00
   12:26:19.800.25-Aug-2020  69.80   34.68 4311.01 2041.94 71.52 12.00
   12:26:20.000.25-Aug-2020  70.00   34.87 4311.01 2041.94 71.52 12.00
   12:26:20.200.25-Aug-2020  70.20   34.87 4311.01 2041.94 71.52 12.00
   12:26:20.400.25-Aug-2020  70.40   35.06 4311.01 2041.94 71.52 12.00
   12:26:20.600.25-Aug-2020  70.60   35.13 4311.01 2041.94 71.52 12.00
   12:26:20.800.25-Aug-2020  70.80   35.12 4311.01 2041.94 71.52 12.00
   12:26:21.000.25-Aug-2020  71.00   35.19 4311.01 2041.94 71.52 12.00
   12:26:21.200.25-Aug-2020  71.20   35.19 4311.01 2041.94 71.52 12.00
   12:26:21.400.25-Aug-2020  71.40   35.39 4311.01 2041.94 71.52 12.00
   12:26:21.600.25-Aug-2020  71.60   35.41 4311.01 2041.94 71.52 12.00
   12:26:21.800.25-Aug-2020  71.80   35.47 4311.01 2041.94 71.52 12.00
   12:26:22.000.25-Aug-2020  72.00   35.55 4311.01 2041.94 71.52 12.00
   12:26:22.200.25-Aug-2020  72.20   35.65 4311.01 2041.94 71.52 12.00
   12:26:22.400.25-Aug-2020  72.40   35.72 4311.01 2041.94 71.52 12.00
   12:26:22.600.25-Aug-2020  72.60   35.78 4311.01 2041.94 71.52 12.00
   12:26:22.800.25-Aug-2020  72.80   35.77 4311.01 2041.94 71.52 12.00
   12:26:23.000.25-Aug-2020  73.00   35.82 4311.01 2041.94 71.52 12.00
   12:26:23.200.25-Aug-2020  73.20   35.95 4311.01 2041.94 71.52 12.00
   12:26:23.400.25-Aug-2020  73.40   36.03 4311.01 2041.94 71.52 12.00
   12:26:23.600.25-Aug-2020  73.60   36.09 4311.01 2041.94 71.52 12.00
   12:26:23.800.25-Aug-2020  73.80   36.15 4311.01 2041.94 71.52 12.00
   12:26:24.000.25-Aug-2020  74.00   36.21 4311.01 2041.94 71.52 12.00
   12:26:24.200.25-Aug-2020  74.20   36.22 4311.01 2041.94 71.52 12.00
   12:26:24.400.25-Aug-2020  74.40   36.25 4311.01 2041.94 71.52 12.00
   12:26:24.600.25-Aug-2020  74.60   36.37 4311.01 2041.94 71.52 12.00
   12:26:24.800.25-Aug-2020  74.80   36.45 4311.01 2041.94 71.53 12.00
   12:26:25.000.25-Aug-2020  75.00   36.51 4311.01 2041.94 71.53 12.00
   12:26:25.200.25-Aug-2020  75.20   36.57 4311.01 2041.94 71.53 12.00
   12:26:25.400.25-Aug-2020  75.40   36.62 4311.01 2041.94 71.53 12.00
   12:26:25.600.25-Aug-2020  75.60   36.68 4311.01 2041.94 71.53 12.00
   12:26:25.800.25-Aug-2020  75.80   36.73 4311.01 2041.94 71.53 12.00
   12:26:26.000.25-Aug-2020  76.00   36.79 4311.01 2041.94 71.53 12.00
   12:26:26.200.25-Aug-2020  76.20   36.84 4311.01 2041.94 71.53 12.00
   12:26:26.400.25-Aug-2020  76.40   36.89 4311.01 2041.94 71.53 12.00
   12:26:26.600.25-Aug-2020  76.60   36.95 4311.01 2041.94 71.53 12.00
   12:26:26.800.25-Aug-2020  76.80   37.00 4311.01 2041.94 71.53 12.00
   12:26:27.000.25-Aug-2020  77.00   37.05 4311.01 2041.94 71.53 12.00
   12:26:27.200.25-Aug-2020  77.20   37.10 4311.01 2041.94 71.53 12.00
   12:26:27.400.25-Aug-2020  77.40   37.16 4311.01 2041.94 71.53 12.00
   12:26:27.600.25-Aug-2020  77.60   37.21 4311.01 2041.94 71.53 12.00
   12:26:27.800.25-Aug-2020  77.80   37.20 4311.01 2041.94 71.53 12.00
   12:26:28.000.25-Aug-2020  78.00   37.23 4311.01 2041.94 71.53 12.00
   12:26:28.200.25-Aug-2020  78.20   37.23 4311.01 2041.94 71.53 12.00
   12:26:28.400.25-Aug-2020  78.40   37.42 4311.01 2041.94 71.53 12.00
   12:26:28.600.25-Aug-2020  78.60   37.47 4311.01 2041.94 71.53 12.00
   12:26:28.800.25-Aug-2020  78.80   37.52 4311.01 2041.94 71.53 12.00
   12:26:29.000.25-Aug-2020  79.00   37.57 4311.01 2041.94 71.53 12.00
   12:26:29.200.25-Aug-2020  79.20   37.57 4311.01 2041.94 71.53 12.00
   12:26:29.400.25-Aug-2020  79.40   37.67 4311.01 2041.94 71.53 12.00
   12:26:29.600.25-Aug-2020  79.60   37.72 4311.01 2041.94 71.53 12.00
   12:26:29.800.25-Aug-2020  79.80   37.77 4311.01 2041.94 71.53 12.00
   12:26:30.000.25-Aug-2020  80.00   37.82 4311.01 2041.94 71.53 12.00
   12:26:30.200.25-Aug-2020  80.20   37.86 4311.01 2041.94 71.53 12.00
   12:26:30.400.25-Aug-2020  80.40   37.91 4311.01 2041.94 71.53 12.00
   12:26:30.600.25-Aug-2020  80.60   37.96 4311.01 2041.94 71.53 12.00
   12:26:30.800.25-Aug-2020  80.80   38.01 4311.01 2041.94 71.53 12.00
   12:26:31.000.25-Aug-2020  81.00   38.00 4311.01 2041.94 71.53 12.00
   12:26:31.200.25-Aug-2020  81.20   38.00 4311.01 2041.94 71.53 12.00
   12:26:31.400.25-Aug-2020  81.40   38.12 4311.01 2041.94 71.53 12.00
   12:26:31.600.25-Aug-2020  81.60   38.19 4311.01 2041.94 71.53 12.00
   12:26:31.800.25-Aug-2020  81.80   38.24 4311.01 2041.94 71.53 12.00
   12:26:32.000.25-Aug-2020  82.00   38.29 4311.01 2041.94 71.53 12.00
   12:26:32.200.25-Aug-2020  82.20   38.29 4311.01 2041.94 71.53 12.00
   12:26:32.400.25-Aug-2020  82.40   38.29 4311.01 2041.94 71.53 12.00
   12:26:32.600.25-Aug-2020  82.60   38.40 4311.01 2041.94 71.54 12.00
   12:26:32.800.25-Aug-2020  82.80   38.46 4311.01 2041.94 71.54 12.00
   12:26:33.000.25-Aug-2020  83.00   38.52 4311.01 2041.94 71.54 12.00
   12:26:33.200.25-Aug-2020  83.20   38.49 4311.01 2041.94 71.54 12.00
   12:26:33.400.25-Aug-2020  83.40   38.51 4311.01 2041.94 71.54 12.00
   12:26:33.600.25-Aug-2020  83.60   38.60 4311.01 2041.94 71.54 12.00
   12:26:33.800.25-Aug-2020  83.80   38.68 4311.01 2041.94 71.54 12.00
   12:26:34.000.25-Aug-2020  84.00   38.67 4311.01 2041.94 71.54 12.00
   12:26:34.200.25-Aug-2020  84.20   38.69 4311.01 2041.94 71.54 12.00
   12:26:34.400.25-Aug-2020  84.40   38.77 4311.01 2041.94 71.54 12.00
   12:26:34.600.25-Aug-2020  84.60   38.85 4311.01 2041.94 71.54 12.00
   12:26:34.800.25-Aug-2020  84.80   38.90 4311.01 2041.94 71.54 12.00
   12:26:35.000.25-Aug-2020  85.00   38.94 4311.01 2041.94 71.54 12.00
   12:26:35.200.25-Aug-2020  85.20   38.98 4311.01 2041.94 71.54 12.00
   12:26:35.400.25-Aug-2020  85.40   39.06 4311.01 2041.94 71.54 12.00
   12:26:35.600.25-Aug-2020  85.60   39.48 4311.01 2041.94 71.54 12.00
   12:26:35.800.25-Aug-2020  85.80   39.62 4311.01 2041.94 71.54 12.00
   12:26:36.000.25-Aug-2020  86.00   39.76 4311.01 2041.94 71.54 12.00
   12:26:36.200.25-Aug-2020  86.20   39.76 4311.01 2041.94 71.54 12.00
   12:26:36.400.25-Aug-2020  86.40   39.93 4311.01 2041.94 71.54 12.00
   12:26:36.600.25-Aug-2020  86.60   40.01 4311.01 2041.94 71.54 12.00
   12:26:36.800.25-Aug-2020  86.80   40.06 4311.01 2041.94 71.54 12.00
   12:26:37.000.25-Aug-2020  87.00   40.10 4311.01 2041.94 71.54 12.00
   12:26:37.200.25-Aug-2020  87.20   40.10 4311.01 2041.94 71.54 12.00
   12:26:37.400.25-Aug-2020  87.40   40.18 4311.01 2041.94 71.54 12.00
   12:26:37.600.25-Aug-2020  87.60   40.22 4311.01 2041.94 71.54 12.00
   12:26:37.800.25-Aug-2020  87.80   40.26 4311.01 2041.94 71.54 12.00
   12:26:38.000.25-Aug-2020  88.00   40.29 4311.01 2041.94 71.54 12.00
   12:26:38.200.25-Aug-2020  88.20   40.33 4311.01 2041.94 71.54 12.00
   12:26:38.400.25-Aug-2020  88.40   40.37 4311.01 2041.94 71.54 12.00
   12:26:38.600.25-Aug-2020  88.60   40.41 4311.01 2041.94 71.54 12.00
   12:26:38.800.25-Aug-2020  88.80   40.44 4311.01 2041.94 71.54 12.00
   12:26:39.000.25-Aug-2020  89.00   40.42 4311.01 2041.94 71.54 12.00
   12:26:39.200.25-Aug-2020  89.20   40.42 4311.01 2041.94 71.54 12.00
   12:26:39.400.25-Aug-2020  89.40   40.50 4311.01 2041.94 71.54 12.00
   12:26:39.600.25-Aug-2020  89.60   40.57 4311.01 2041.94 71.54 12.00
   12:26:39.800.25-Aug-2020  89.80   40.63 4311.01 2041.94 71.54 12.00
   12:26:40.000.25-Aug-2020  90.00   40.67 4311.01 2041.94 71.54 12.00
   12:26:40.200.25-Aug-2020  90.20   40.67 4311.01 2041.94 71.54 12.00
