~Version Information
 VERS.                  2.0:   CWLS log ASCII Standard -VERSION 2.0
 WRAP.                   NO:   One line per depth step
~Well Information Block
#MNEM.UNIT     VALUE/NAME     DESCRIPTION
#---------     -----------    ---------------------------
 STRT.S             09:43:25 25-Aug-20: START TIME 09:43:25 25-Aug-20
 STOP.S             09:50:22 25-Aug-20: STOP TIME  09:50:22 25-Aug-20
 STEP.S                   0.00: STEP TIME
 NULL.                 -999.25: NULL VALUE
 DFWT.                        :  DIST FWL TEXT
 DFST.                        :  DIST FSL TEXT
 DMF .             Drill Floor:  DRILL MEAS FROM
 STIM.      09.59.28 01-Jun-20:  START TIME
 DATE.      05.00.00 28-Aug-20:  END TIME
 SPUD.               01-Jun-20:  SPUD DATE
 NREF.                    Grid:  NORTH REFERENCE
 HPTY.       Minimum Curvature:  HOLE POS TYPE
 DMOD.             Drill Model:  DRILL MOD DESC
 SVYD.                  Survey:  SURVEY DESC
 ILTD.               Lithology:  INTERP LTH DESC
 FTOP.          Formation Tops:  FORM TOPS DESC
 SON .        AZ-XX-0905455768:  JOB NUMBER
 WTYP.                Deviated:  WELL TYPE
 COMP.     BP Exploration(Caspian Sea):  COMPANY
 BASE.              Azerbaijan:  LOGGING EQUIPMENT BASE LOCATION
 REGN.                   EESSA:  REGION
 CTRY.              Azerbaijan:  COUNTRY NAME
 FLD .                     ACG:  FIELD NAME
 SRVC.          Turan Drilling:  CONTRACTOR
 WELL.                     B41:  WELL NAME
 RIG .           Central Azeri:  RIG NAME
 DCON.         Sperry Drilling:  DIRECTNL CONTR
 PDAT.          Mean Sea Level:  PERMANENT DATUM
 MDS .        Operator Entered:  MAG DATA SOURCE
 API .                        :  API NUMBER
 CNTY.                        :  COUNTY
 PROV.                        :  PROVINCE
 STAT.                        :  STATE
 UWI .                        :  UNIQUE WELL IDENTIFIER
 LOC .                        :  LOCATION
 LMF .             Drill Floor:  LOG MEASURED FROM
 TVDS.m                  43.29:  TVDSS CORRECTN
 LATI.deg                40.03:  LATITUDE
 LONG.deg                51.35:  LONGITUDE
 WHNS.m                  12.98:  WELL HEAD N/S
 WHEW.m                  -6.62:  WELL HEAD E/W
 UTMX.m              530128.28:  UTM X
 UTMY.m             4433192.49:  UTM Y
 DFWL.m                   0.00:  DISTANCE FWL
 DFSL.m                   0.00:  DISTANCE FSL
 SDEP.m                 378.00:  START DEPTH
 TDD .m                4463.01:  TOTAL DEPTH (DRILLER)
 VSDR.deg               296.18:  VERT SEC DIRECT
 GVFD.g                   1.00:  GRAVITY FIELD
 MFLD.nT              50269.00:  MAGNETIC FIELD
 MDIP.deg                59.50:  MAGNETIC DIP
 MDEC.deg                 6.44:  MAGNETIC DECL
 GRDC.deg                 0.20:  GRID CORRECTION
 AZTC.deg                 6.24:  AZM TOTAL CORR
 EPD .m                   0.00:  ELEVATION
 EGL .m                   0.00:  GROUND ELEVATION
 WDMS.m                 128.20:  WD ELEV
 APD .m                  43.29:  DEPTH ABOVE PD
 AGAP.m                  43.29:  AIR GAP
 VSEW.m                  -6.62:  VERT SEC E/W
 VSNS.m                  12.98:  VERT SEC N/S
 EKB .m                  43.29:  KB ELEVATION
 EDF .m                  43.29:  DF ELEVATION
 TDL .m                 147.00:  TOTAL DEPTH (LOGGER)
 VSC .                       0:  VS TO CLOSURE
 MAGU.                 1849241:  MAGUTM CHECKSUM
~Parameter Information Block
#MNEM.UNIT       Value        Description
#---------     -----------    ---------------------------
 AV  .mps                 0.70:  Ann Velocity 
 AZIF.deg               269.43:  Azm, Final 
 BHAT.        Rotary Steerable:  BHA Type 
 BROT.°/30m              -0.03:  Build Rotating 
 BS  .in                  8.50:  Bit Size 
 BSZ .in                  8.50:  Bit Size 
 BTPL.psig              880.00:  Bit Press Loss 
 CABU.                      No:  Customer Abuse 
 CGEO.          Parviz Guliyev:  Customer Geo 
 TCS .hr                 64.59:  Time Ciculation Ended 
 CV  .mps                 2.17:  Crit Velocity 
 DD1 .            Nonso Okafor:  Direct Drillr 1 
 DDSV.               Geo-Pilot:  DD Service 
 DEFF.%                  98.00:  % Det Eff 
 DLRX.°/30m               0.81:  Dogleg Rot Max 
 DLSO.°/30m               0.55:  Dogleg Oriented 
 DLSX.°/30m               0.81:  Dogleg Str Max 
 DRET.      23.50.00 24-Aug-20:  Drill End Time 
 DRST.      07.34.24 22-Aug-20:  Drill Start Tim 
 DTIM.hr                 15.29:  Time Drilling 
 EDEP.m                4461.01:  End Depth 
 ENG1.       Zam Abdullah Sani:  Engineer 1 
 ENG2.         Dair Mahammadov:  Engineer 2 
 ENG3.          Rustam Gadirov:  Engineer 3 
 ETIM.      07.34.24 26-Aug-20:  End Time 
 FLOI.gpm               550.00:  Flow In 
 FLON.gpm               400.00:  Flow In Min 
 FLOS.cptm                1.00:  Fluid Loss 
 FLOX.gpm               600.00:  Flow In Max 
 FTRO.       Formation Presure:  FTWD Run Obj 
 HFLO.                      No:  High Flow 
 HPRE.                      No:  High Pressure 
 HTEM.                      No:  High Temp 
 HYDO.m                   1.80:  Hydro Offset 
 IFIN.deg                66.72:  Inc, Final 
 IMAX.deg                67.42:  Inc Max 
 IMIN.deg                66.72:  Inc Min 
 IMND.m                4408.37:  Inc Min Depth 
 IMXD.m                4323.37:  Inc Max Depth 
 JARR.                      No:  Jarring 
 LETM.      23.50.00 24-Aug-20:  Log End Time 
 LOST.hr                     0:  Lost Rig Time 
 LSTM.      07.34.24 22-Aug-20:  Log Start Time 
 MDCL.ppm             38000.00:  Mud Chlorides 
 MDES.     Inversion Oil/Synthetic:  Mud Desc 
 DFD .sg                  1.40:  Mud Density 
 MDMN.sg                  1.38:  Dens Mud Min 
 MDMX.sg                  1.41:  Dens Mud Max 
 MOIL.                    70.5:  Run Mud Oil % 
 MOWR.                   68:32:  Run Mud OWR 
 MSND.                    0.01:  Run Mud Sand % 
 MSOL.                   17.68:  Run Mud Solids% 
 DFV .spqt               77.00:  Mud Viscosity 
 MWOD.in                  6.75:  MWD Tool OD 
 MWSI.                      No:  Serv Intrp, MWD 
 OTIM.hr                159.42:  Time Operating 
 PCON.           Look Like New:  Pad Condition 
 PMAX.psia             8730.94:  Press Op, Max 
 PV  .cP                 31.00:  Mud PV 
 RUN .                     900:  Run Number 
 ROPA.m/hr               12.00:  ROP Avg 
 ROPN.m/hr                7.00:  ROP Min 
 ROPX.m/hr               17.00:  ROP Max 
 RPMA.rpm               120.00:  RPM Surface Avg 
 RPMN.rpm                60.00:  RPM Surface Min 
 RPMX.rpm               140.00:  RPM Surface Max 
 RRUN.                    L604:  Rig Run Number 
 RTIM.hr                 10.00:  Time Reaming 
 SAZI.deg               270.56:  Azm, Start 
 SDEP.m                4314.01:  Start Depth 
 SIDD.                      No:  Serv Intrp, DD 
 SINC.deg                67.42:  Inc, Start 
 SPPA.psig             3300.00:  SPP Avg 
 SPPN.psig             1750.00:  SPP Min 
 SPPX.psig             4630.00:  SPP Max 
 STIM.      11.00.00 21-Aug-20:  Start Time 
 SVCS.                 DD, MWD:  Services 
 SVER.                    9.20:  Sperry Version 
 TDAT.m                4461.01:  Tot Depth Attmp 
 TDDF.                      No:  Trip for DD 
 TDLG.m                 147.00:  Tot Depth Loggd 
 TFF .                      No:  Trip for Fail 
 TQAA.f-kp               16.00:  Torque Abs Avg 
 TQAN.f-kp               14.00:  Torque Abs Min 
 TQAX.f-kp               20.00:  Torque Abs Max 
 TRRT.°/30m              -0.14:  Turn Rotating 
 MRT .                    HCIM:  Maximum Recorded Temperature 
 TTMX.degC               78.00:  Max Tool Temp 
 VS01.                90515425:  Virtual Str1 SN 
 VS02.                90545184:  Virtual Str2 SN 
 VS03.                90527809:  Virtual Str3 SN 
 VS04.                90515232:  Virtual Str4 SN 
 VS05.                90621207:  Virtual Str5 SN 
 VS06.                90619737:  Virtual Str6 SN 
 WBMN.klb                 2.00:  WOB Min 
 WITN.          Keith Dischler:  Customer Rep 
 WITN.           Faig Mammadov:  Customer Rep 2 
 WOBA.klb                 5.00:  WOB Avg 
 WOBX.klb                 8.00:  WOB Max 
 YP  .lhf2               32.00:  Yield Point 
~Curve Information Block
#MNEM.UNIT                 API CODE     Curve Description
#---------               -----------    ---------------------------
 TIME.HHMMSS            00 000 000 000:  GT Time & Date
 GTET.sec               00 000 000 000:  GT Elapsed Test Time
 GTPQH.psia             00 000 000 000:  GT HR Quartz Pressure
 GTDEPTH.m              00 000 000 000:  GT Depth
 GTTVD.m                00 000 000 000:  GT True Vertical Depth
 GTTQ.degC              00 000 000 000:  GT Quartz Temperature
 GTTN.NONE              00 000 000 000:  GT Test Number
#Other Information
#
#WARRANTY: Halliburton will use its best efforts to furnish customers with 
#accurate information and interpretations that are part of, and incident to, the services 
#provided.  However, Halliburton cannot and does not warrant the accuracy 
#or correctness of such information and interpretations.  Under no circumstances should any 
#such information or interpretation be relied upon as the sole basis for any drilling, 
#completion, production, or financial decision or any procedure involving any risk to the 
#safety of any drilling venture, drilling rig or its crew or any other third party.  The 
#Customer has full responsibility for all drilling, completion and production operation.  
#Halliburton makes no representations or warranties, either expressed or 
#implied, including, but not limited to, the implied warranties of merchantability or fitness 
#for a particular purpose, with respect to the services rendered.  In no event will 
#Halliburton be liable for failure to obtain any particular results or for 
#any damages, including, but not limited to, indirect, special or consequential damages, 
#resulting from the use of any information or interpretation provided by Halliburton.
#
~A           TIME            GTET   GTPQH  GTDEPTH  GTTVD  GTTQ  GTTN 
# ...
   09:48:47.000.25-Aug-2020 322.00 3351.61 4343.01 2054.32 71.78 8.00
   09:48:47.200.25-Aug-2020 322.20 3351.61 4343.01 2054.32 71.78 8.00
   09:48:47.400.25-Aug-2020 322.40 3351.64 4343.01 2054.32 71.78 8.00
   09:48:47.600.25-Aug-2020 322.60 3351.61 4343.01 2054.32 71.78 8.00
   09:48:47.800.25-Aug-2020 322.80 3351.58 4343.01 2054.32 71.78 8.00
   09:48:48.000.25-Aug-2020 323.00 3351.61 4343.01 2054.32 71.78 8.00
   09:48:48.200.25-Aug-2020 323.20 3351.61 4343.01 2054.32 71.78 8.00
   09:48:48.400.25-Aug-2020 323.40 3351.48 4343.01 2054.32 71.78 8.00
   09:48:48.600.25-Aug-2020 323.60 3351.63 4343.01 2054.32 71.78 8.00
   09:48:48.800.25-Aug-2020 323.80 3351.64 4343.01 2054.32 71.78 8.00
   09:48:49.000.25-Aug-2020 324.00 3351.61 4343.01 2054.32 71.78 8.00
   09:48:49.200.25-Aug-2020 324.20 3351.61 4343.01 2054.32 71.78 8.00
   09:48:49.400.25-Aug-2020 324.40 3351.50 4343.01 2054.32 71.78 8.00
   09:48:49.600.25-Aug-2020 324.60 3351.65 4343.01 2054.32 71.78 8.00
   09:48:49.800.25-Aug-2020 324.80 3351.63 4343.01 2054.32 71.78 8.00
   09:48:50.000.25-Aug-2020 325.00 3351.62 4343.01 2054.32 71.78 8.00
   09:48:50.200.25-Aug-2020 325.20 3351.62 4343.01 2054.32 71.78 8.00
   09:48:50.400.25-Aug-2020 325.40 3351.62 4343.01 2054.32 71.78 8.00
   09:48:50.600.25-Aug-2020 325.60 3351.61 4343.01 2054.32 71.78 8.00
   09:48:50.800.25-Aug-2020 325.80 3351.61 4343.01 2054.32 71.78 8.00
   09:48:51.000.25-Aug-2020 326.00 3351.62 4343.01 2054.32 71.78 8.00
   09:48:51.200.25-Aug-2020 326.20 3351.62 4343.01 2054.32 71.78 8.00
   09:48:51.400.25-Aug-2020 326.40 3351.62 4343.01 2054.32 71.78 8.00
   09:48:51.600.25-Aug-2020 326.60 3351.61 4343.01 2054.32 71.78 8.00
   09:48:51.800.25-Aug-2020 326.80 3351.61 4343.01 2054.32 71.78 8.00
   09:48:52.000.25-Aug-2020 327.00 3351.62 4343.01 2054.32 71.78 8.00
   09:48:52.200.25-Aug-2020 327.20 3351.62 4343.01 2054.32 71.78 8.00
   09:48:52.400.25-Aug-2020 327.40 3351.62 4343.01 2054.32 71.78 8.00
   09:48:52.600.25-Aug-2020 327.60 3351.62 4343.01 2054.32 71.78 8.00
   09:48:52.800.25-Aug-2020 327.80 3351.61 4343.01 2054.32 71.78 8.00
   09:48:53.000.25-Aug-2020 328.00 3351.59 4343.01 2054.32 71.78 8.00
   09:48:53.200.25-Aug-2020 328.20 3351.59 4343.01 2054.32 71.78 8.00
   09:48:53.400.25-Aug-2020 328.40 3351.61 4343.01 2054.32 71.78 8.00
   09:48:53.600.25-Aug-2020 328.60 3351.62 4343.01 2054.32 71.78 8.00
   09:48:53.800.25-Aug-2020 328.80 3351.63 4343.01 2054.32 71.78 8.00
   09:48:54.000.25-Aug-2020 329.00 3351.63 4343.01 2054.32 71.78 8.00
   09:48:54.200.25-Aug-2020 329.20 3351.63 4343.01 2054.32 71.78 8.00
   09:48:54.400.25-Aug-2020 329.40 3351.62 4343.01 2054.32 71.78 8.00
   09:48:54.600.25-Aug-2020 329.60 3351.62 4343.01 2054.32 71.78 8.00
   09:48:54.800.25-Aug-2020 329.80 3351.62 4343.01 2054.32 71.78 8.00
   09:48:55.000.25-Aug-2020 330.00 3351.63 4343.01 2054.32 71.78 8.00
   09:48:55.200.25-Aug-2020 330.20 3351.63 4343.01 2054.32 71.78 8.00
   09:48:55.400.25-Aug-2020 330.40 3351.62 4343.01 2054.32 71.78 8.00
   09:48:55.600.25-Aug-2020 330.60 3351.63 4343.01 2054.32 71.78 8.00
   09:48:55.800.25-Aug-2020 330.80 3351.62 4343.01 2054.32 71.78 8.00
   09:48:56.000.25-Aug-2020 331.00 3351.63 4343.01 2054.32 71.78 8.00
   09:48:56.200.25-Aug-2020 331.20 3351.63 4343.01 2054.32 71.78 8.00
   09:48:56.400.25-Aug-2020 331.40 3351.53 4343.01 2054.32 71.78 8.00
   09:48:56.600.25-Aug-2020 331.60 3351.66 4343.01 2054.32 71.78 8.00
   09:48:56.800.25-Aug-2020 331.80 3351.64 4343.01 2054.32 71.78 8.00
   09:48:57.000.25-Aug-2020 332.00 3351.63 4343.01 2054.32 71.78 8.00
   09:48:57.200.25-Aug-2020 332.20 3351.63 4343.01 2054.32 71.78 8.00
   09:48:57.400.25-Aug-2020 332.40 3351.63 4343.01 2054.32 71.78 8.00
   09:48:57.600.25-Aug-2020 332.60 3351.51 4343.01 2054.32 71.78 8.00
   09:48:57.800.25-Aug-2020 332.80 3351.67 4343.01 2054.32 71.78 8.00
   09:48:58.000.25-Aug-2020 333.00 3351.67 4343.01 2054.32 71.78 8.00
   09:48:58.200.25-Aug-2020 333.20 3351.67 4343.01 2054.32 71.78 8.00
   09:48:58.400.25-Aug-2020 333.40 3351.54 4343.01 2054.32 71.78 8.00
   09:48:58.600.25-Aug-2020 333.60 3351.68 4343.01 2054.32 71.78 8.00
   09:48:58.800.25-Aug-2020 333.80 3351.65 4343.01 2054.32 71.78 8.00
   09:48:59.000.25-Aug-2020 334.00 3351.62 4343.01 2054.32 71.78 8.00
   09:48:59.200.25-Aug-2020 334.20 3351.62 4343.01 2054.32 71.78 8.00
   09:48:59.400.25-Aug-2020 334.40 3351.64 4343.01 2054.32 71.78 8.00
   09:48:59.600.25-Aug-2020 334.60 3351.52 4343.01 2054.32 71.78 8.00
   09:48:59.800.25-Aug-2020 334.80 3351.66 4343.01 2054.32 71.78 8.00
   09:49:00.000.25-Aug-2020 335.00 3351.67 4343.01 2054.32 71.78 8.00
   09:49:00.200.25-Aug-2020 335.20 3351.67 4343.01 2054.32 71.78 8.00
   09:49:00.400.25-Aug-2020 335.40 3351.63 4343.01 2054.32 71.78 8.00
   09:49:00.600.25-Aug-2020 335.60 3351.52 4343.01 2054.32 71.78 8.00
   09:49:00.800.25-Aug-2020 335.80 3351.68 4343.01 2054.32 71.78 8.00
   09:49:01.000.25-Aug-2020 336.00 3351.67 4343.01 2054.32 71.78 8.00
   09:49:01.200.25-Aug-2020 336.20 3351.67 4343.01 2054.32 71.78 8.00
   09:49:01.400.25-Aug-2020 336.40 3351.64 4343.01 2054.32 71.78 8.00
   09:49:01.600.25-Aug-2020 336.60 3351.64 4343.01 2054.32 71.78 8.00
   09:49:01.800.25-Aug-2020 336.80 3351.64 4343.01 2054.32 71.78 8.00
   09:49:02.000.25-Aug-2020 337.00 3351.63 4343.01 2054.32 71.78 8.00
   09:49:02.200.25-Aug-2020 337.20 3351.64 4343.01 2054.32 71.78 8.00
   09:49:02.400.25-Aug-2020 337.40 3351.64 4343.01 2054.32 71.78 8.00
   09:49:02.600.25-Aug-2020 337.60 3351.64 4343.01 2054.32 71.78 8.00
   09:49:02.800.25-Aug-2020 337.80 3351.64 4343.01 2054.32 71.78 8.00
   09:49:03.000.25-Aug-2020 338.00 3351.64 4343.01 2054.32 71.78 8.00
   09:49:03.200.25-Aug-2020 338.20 3351.64 4343.01 2054.32 71.78 8.00
   09:49:03.400.25-Aug-2020 338.40 3351.64 4343.01 2054.32 71.78 8.00
   09:49:03.600.25-Aug-2020 338.60 3351.65 4343.01 2054.32 71.78 8.00
   09:49:03.800.25-Aug-2020 338.80 3351.64 4343.01 2054.32 71.78 8.00
   09:49:04.000.25-Aug-2020 339.00 3351.65 4343.01 2054.32 71.78 8.00
   09:49:04.200.25-Aug-2020 339.20 3351.65 4343.01 2054.32 71.78 8.00
   09:49:04.400.25-Aug-2020 339.40 3351.63 4343.01 2054.32 71.78 8.00
   09:49:04.600.25-Aug-2020 339.60 3351.64 4343.01 2054.32 71.78 8.00
   09:49:04.800.25-Aug-2020 339.80 3351.65 4343.01 2054.32 71.78 8.00
   09:49:05.000.25-Aug-2020 340.00 3351.67 4343.01 2054.32 71.78 8.00
   09:49:05.200.25-Aug-2020 340.20 3351.67 4343.01 2054.32 71.78 8.00
   09:49:05.400.25-Aug-2020 340.40 3351.64 4343.01 2054.32 71.78 8.00
   09:49:05.600.25-Aug-2020 340.60 3351.65 4343.01 2054.32 71.78 8.00
   09:49:05.800.25-Aug-2020 340.80 3351.65 4343.01 2054.32 71.78 8.00
   09:49:06.000.25-Aug-2020 341.00 3351.65 4343.01 2054.32 71.78 8.00
   09:49:06.200.25-Aug-2020 341.20 3351.65 4343.01 2054.32 71.78 8.00
   09:49:06.400.25-Aug-2020 341.40 3351.65 4343.01 2054.32 71.78 8.00
   09:49:06.600.25-Aug-2020 341.60 3351.64 4343.01 2054.32 71.78 8.00
   09:49:06.800.25-Aug-2020 341.80 3351.65 4343.01 2054.32 71.78 8.00
   09:49:07.000.25-Aug-2020 342.00 3351.65 4343.01 2054.32 71.78 8.00
   09:49:07.200.25-Aug-2020 342.20 3351.65 4343.01 2054.32 71.78 8.00
   09:49:07.400.25-Aug-2020 342.40 3351.66 4343.01 2054.32 71.78 8.00
   09:49:07.600.25-Aug-2020 342.60 3351.56 4343.01 2054.32 71.78 8.00
   09:49:07.800.25-Aug-2020 342.80 3351.69 4343.01 2054.32 71.78 8.00
   09:49:08.000.25-Aug-2020 343.00 3351.66 4343.01 2054.32 71.78 8.00
   09:49:08.200.25-Aug-2020 343.20 3351.66 4343.01 2054.32 71.78 8.00
   09:49:08.400.25-Aug-2020 343.40 3351.66 4343.01 2054.32 71.78 8.00
   09:49:08.600.25-Aug-2020 343.60 3351.66 4343.01 2054.32 71.78 8.00
   09:49:08.800.25-Aug-2020 343.80 3351.53 4343.01 2054.32 71.78 8.00
   09:49:09.000.25-Aug-2020 344.00 3351.69 4343.01 2054.32 71.78 8.00
   09:49:09.200.25-Aug-2020 344.20 3351.69 4343.01 2054.32 71.78 8.00
   09:49:09.400.25-Aug-2020 344.40 3351.66 4343.01 2054.32 71.78 8.00
   09:49:09.600.25-Aug-2020 344.60 3351.56 4343.01 2054.32 71.78 8.00
   09:49:09.800.25-Aug-2020 344.80 3351.71 4343.01 2054.32 71.78 8.00
