~Version Information
 VERS.                  2.0:   CWLS log ASCII Standard -VERSION 2.0
 WRAP.                   NO:   One line per depth step
~Well Information Block
#MNEM.UNIT     VALUE/NAME     DESCRIPTION
#---------     -----------    ---------------------------
 STRT.S             11:11:27 25-Aug-20: START TIME 11:11:27 25-Aug-20
 STOP.S             11:18:24 25-Aug-20: STOP TIME  11:18:24 25-Aug-20
 STEP.S                   0.00: STEP TIME
 NULL.                 -999.25: NULL VALUE
 DFWT.                        :  DIST FWL TEXT
 DFST.                        :  DIST FSL TEXT
 DMF .             Drill Floor:  DRILL MEAS FROM
 STIM.      09.59.28 01-Jun-20:  START TIME
 DATE.      05.00.00 28-Aug-20:  END TIME
 SPUD.               01-Jun-20:  SPUD DATE
 NREF.                    Grid:  NORTH REFERENCE
 HPTY.       Minimum Curvature:  HOLE POS TYPE
 DMOD.             Drill Model:  DRILL MOD DESC
 SVYD.                  Survey:  SURVEY DESC
 ILTD.               Lithology:  INTERP LTH DESC
 FTOP.          Formation Tops:  FORM TOPS DESC
 SON .        AZ-XX-0905455768:  JOB NUMBER
 WTYP.                Deviated:  WELL TYPE
 COMP.     BP Exploration(Caspian Sea):  COMPANY
 BASE.              Azerbaijan:  LOGGING EQUIPMENT BASE LOCATION
 REGN.                   EESSA:  REGION
 CTRY.              Azerbaijan:  COUNTRY NAME
 FLD .                     ACG:  FIELD NAME
 SRVC.          Turan Drilling:  CONTRACTOR
 WELL.                     B41:  WELL NAME
 RIG .           Central Azeri:  RIG NAME
 DCON.         Sperry Drilling:  DIRECTNL CONTR
 PDAT.          Mean Sea Level:  PERMANENT DATUM
 MDS .        Operator Entered:  MAG DATA SOURCE
 API .                        :  API NUMBER
 CNTY.                        :  COUNTY
 PROV.                        :  PROVINCE
 STAT.                        :  STATE
 UWI .                        :  UNIQUE WELL IDENTIFIER
 LOC .                        :  LOCATION
 LMF .             Drill Floor:  LOG MEASURED FROM
 TVDS.m                  43.29:  TVDSS CORRECTN
 LATI.deg                40.03:  LATITUDE
 LONG.deg                51.35:  LONGITUDE
 WHNS.m                  12.98:  WELL HEAD N/S
 WHEW.m                  -6.62:  WELL HEAD E/W
 UTMX.m              530128.28:  UTM X
 UTMY.m             4433192.49:  UTM Y
 DFWL.m                   0.00:  DISTANCE FWL
 DFSL.m                   0.00:  DISTANCE FSL
 SDEP.m                 378.00:  START DEPTH
 TDD .m                4463.01:  TOTAL DEPTH (DRILLER)
 VSDR.deg               296.18:  VERT SEC DIRECT
 GVFD.g                   1.00:  GRAVITY FIELD
 MFLD.nT              50269.00:  MAGNETIC FIELD
 MDIP.deg                59.50:  MAGNETIC DIP
 MDEC.deg                 6.44:  MAGNETIC DECL
 GRDC.deg                 0.20:  GRID CORRECTION
 AZTC.deg                 6.24:  AZM TOTAL CORR
 EPD .m                   0.00:  ELEVATION
 EGL .m                   0.00:  GROUND ELEVATION
 WDMS.m                 128.20:  WD ELEV
 APD .m                  43.29:  DEPTH ABOVE PD
 AGAP.m                  43.29:  AIR GAP
 VSEW.m                  -6.62:  VERT SEC E/W
 VSNS.m                  12.98:  VERT SEC N/S
 EKB .m                  43.29:  KB ELEVATION
 EDF .m                  43.29:  DF ELEVATION
 TDL .m                 147.00:  TOTAL DEPTH (LOGGER)
 VSC .                       0:  VS TO CLOSURE
 MAGU.                 1849241:  MAGUTM CHECKSUM
~Parameter Information Block
#MNEM.UNIT       Value        Description
#---------     -----------    ---------------------------
 AV  .mps                 0.70:  Ann Velocity 
 AZIF.deg               269.43:  Azm, Final 
 BHAT.        Rotary Steerable:  BHA Type 
 BROT.°/30m              -0.03:  Build Rotating 
 BS  .in                  8.50:  Bit Size 
 BSZ .in                  8.50:  Bit Size 
 BTPL.psig              880.00:  Bit Press Loss 
 CABU.                      No:  Customer Abuse 
 CGEO.          Parviz Guliyev:  Customer Geo 
 COMM.                     ìra:  Run Comments 1 
 TCS .hr                 64.59:  Time Ciculation Ended 
 CV  .mps                 2.17:  Crit Velocity 
 DD1 .            Nonso Okafor:  Direct Drillr 1 
 DDSV.               Geo-Pilot:  DD Service 
 DEFF.%                  98.00:  % Det Eff 
 DLRX.°/30m               0.81:  Dogleg Rot Max 
 DLSO.°/30m               0.55:  Dogleg Oriented 
 DLSX.°/30m               0.81:  Dogleg Str Max 
 DRET.      23.50.00 24-Aug-20:  Drill End Time 
 DRST.      07.34.24 22-Aug-20:  Drill Start Tim 
 DTIM.hr                 15.29:  Time Drilling 
 EDEP.m                4461.01:  End Depth 
 ENG1.       Zam Abdullah Sani:  Engineer 1 
 ENG2.         Dair Mahammadov:  Engineer 2 
 ENG3.          Rustam Gadirov:  Engineer 3 
 ETIM.      07.34.24 26-Aug-20:  End Time 
 FLOI.gpm               550.00:  Flow In 
 FLON.gpm               400.00:  Flow In Min 
 FLOS.cptm                1.00:  Fluid Loss 
 FLOX.gpm               600.00:  Flow In Max 
 FTRO.       Formation Presure:  FTWD Run Obj 
 HFLO.                      No:  High Flow 
 HPRE.                      No:  High Pressure 
 HTEM.                      No:  High Temp 
 HYDO.m                   1.80:  Hydro Offset 
 IFIN.deg                66.72:  Inc, Final 
 IMAX.deg                67.42:  Inc Max 
 IMIN.deg                66.72:  Inc Min 
 IMND.m                4408.37:  Inc Min Depth 
 IMXD.m                4323.37:  Inc Max Depth 
 JARR.                      No:  Jarring 
 LETM.      23.50.00 24-Aug-20:  Log End Time 
 LOST.hr                     0:  Lost Rig Time 
 LSTM.      07.34.24 22-Aug-20:  Log Start Time 
 MDCL.ppm             38000.00:  Mud Chlorides 
 MDES.     Inversion Oil/Synthetic:  Mud Desc 
 DFD .sg                  1.40:  Mud Density 
 MDMN.sg                  1.38:  Dens Mud Min 
 MDMX.sg                  1.41:  Dens Mud Max 
 MOIL.                    70.5:  Run Mud Oil % 
 MOWR.                   68:32:  Run Mud OWR 
 MSND.                    0.01:  Run Mud Sand % 
 MSOL.                   17.68:  Run Mud Solids% 
 DFV .spqt               77.00:  Mud Viscosity 
 MWOD.in                  6.75:  MWD Tool OD 
 MWSI.                      No:  Serv Intrp, MWD 
 OTIM.hr                159.42:  Time Operating 
 PCON.           Look Like New:  Pad Condition 
 PMAX.psia             8730.94:  Press Op, Max 
 PV  .cP                 31.00:  Mud PV 
 RUN .                     900:  Run Number 
 ROPA.m/hr               12.00:  ROP Avg 
 ROPN.m/hr                7.00:  ROP Min 
 ROPX.m/hr               17.00:  ROP Max 
 RPMA.rpm               120.00:  RPM Surface Avg 
 RPMN.rpm                60.00:  RPM Surface Min 
 RPMX.rpm               140.00:  RPM Surface Max 
 RRUN.                    L604:  Rig Run Number 
 RTIM.hr                 10.00:  Time Reaming 
 SAZI.deg               270.56:  Azm, Start 
 SDEP.m                4314.01:  Start Depth 
 SIDD.                      No:  Serv Intrp, DD 
 SINC.deg                67.42:  Inc, Start 
 SPPA.psig             3300.00:  SPP Avg 
 SPPN.psig             1750.00:  SPP Min 
 SPPX.psig             4630.00:  SPP Max 
 STIM.      11.00.00 21-Aug-20:  Start Time 
 SVCS.                 DD, MWD:  Services 
 SVER.                    9.20:  Sperry Version 
 TDAT.m                4461.01:  Tot Depth Attmp 
 TDDF.                      No:  Trip for DD 
 TDLG.m                 147.00:  Tot Depth Loggd 
 TFF .                      No:  Trip for Fail 
 TQAA.f-kp               16.00:  Torque Abs Avg 
 TQAN.f-kp               14.00:  Torque Abs Min 
 TQAX.f-kp               20.00:  Torque Abs Max 
 TRRT.°/30m              -0.14:  Turn Rotating 
 MRT .                    HCIM:  Maximum Recorded Temperature 
 TTMX.degC               78.00:  Max Tool Temp 
 VS01.                90515425:  Virtual Str1 SN 
 VS02.                90545184:  Virtual Str2 SN 
 VS03.                90527809:  Virtual Str3 SN 
 VS04.                90515232:  Virtual Str4 SN 
 VS05.                90621207:  Virtual Str5 SN 
 VS06.                90619737:  Virtual Str6 SN 
 WBMN.klb                 2.00:  WOB Min 
 WITN.          Keith Dischler:  Customer Rep 
 WITN.           Faig Mammadov:  Customer Rep 2 
 WOBA.klb                 5.00:  WOB Avg 
 WOBX.klb                 8.00:  WOB Max 
 YP  .lhf2               32.00:  Yield Point 
~Curve Information Block
#MNEM.UNIT                 API CODE     Curve Description
#---------               -----------    ---------------------------
 TIME.HHMMSS            00 000 000 000:  GT Time & Date
 GTET.sec               00 000 000 000:  GT Elapsed Test Time
 GTPQH.psia             00 000 000 000:  GT HR Quartz Pressure
 GTDEPTH.m              00 000 000 000:  GT Depth
 GTTVD.m                00 000 000 000:  GT True Vertical Depth
 GTTQ.degC              00 000 000 000:  GT Quartz Temperature
 GTTN.NONE              00 000 000 000:  GT Test Number
#Other Information
#
#WARRANTY: Halliburton will use its best efforts to furnish customers with 
#accurate information and interpretations that are part of, and incident to, the services 
#provided.  However, Halliburton cannot and does not warrant the accuracy 
#or correctness of such information and interpretations.  Under no circumstances should any 
#such information or interpretation be relied upon as the sole basis for any drilling, 
#completion, production, or financial decision or any procedure involving any risk to the 
#safety of any drilling venture, drilling rig or its crew or any other third party.  The 
#Customer has full responsibility for all drilling, completion and production operation.  
#Halliburton makes no representations or warranties, either expressed or 
#implied, including, but not limited to, the implied warranties of merchantability or fitness 
#for a particular purpose, with respect to the services rendered.  In no event will 
#Halliburton be liable for failure to obtain any particular results or for 
#any damages, including, but not limited to, indirect, special or consequential damages, 
#resulting from the use of any information or interpretation provided by Halliburton.
#
~A           TIME            GTET   GTPQH  GTDEPTH  GTTVD  GTTQ  GTTN  
# ...
   11:14:50.400.25-Aug-2020 203.40 2046.78 4320.01 2045.42 71.51 10.00
   11:14:50.600.25-Aug-2020 203.60 2049.11 4320.01 2045.42 71.51 10.00
   11:14:50.800.25-Aug-2020 203.80 2051.20 4320.01 2045.42 71.51 10.00
   11:14:51.000.25-Aug-2020 204.00 2053.02 4320.01 2045.42 71.51 10.00
   11:14:51.200.25-Aug-2020 204.20 2053.02 4320.01 2045.42 71.51 10.00
   11:14:51.400.25-Aug-2020 204.40 2056.10 4320.01 2045.42 71.51 10.00
   11:14:51.600.25-Aug-2020 204.60 2057.19 4320.01 2045.42 71.51 10.00
   11:14:51.800.25-Aug-2020 204.80 2059.52 4320.01 2045.42 71.51 10.00
   11:14:52.000.25-Aug-2020 205.00 2061.20 4320.01 2045.42 71.51 10.00
   11:14:52.200.25-Aug-2020 205.20 2061.20 4320.01 2045.42 71.51 10.00
   11:14:52.400.25-Aug-2020 205.40 2064.08 4320.01 2045.42 71.51 10.00
   11:14:52.600.25-Aug-2020 205.60 2065.63 4320.01 2045.42 71.51 10.00
   11:14:52.800.25-Aug-2020 205.80 2067.09 4320.01 2045.42 71.51 10.00
   11:14:53.000.25-Aug-2020 206.00 2068.65 4320.01 2045.42 71.51 10.00
   11:14:53.200.25-Aug-2020 206.20 2068.65 4320.01 2045.42 71.51 10.00
   11:14:53.400.25-Aug-2020 206.40 2071.80 4320.01 2045.42 71.51 10.00
   11:14:53.600.25-Aug-2020 206.60 2073.21 4320.01 2045.42 71.51 10.00
   11:14:53.800.25-Aug-2020 206.80 2074.60 4320.01 2045.42 71.51 10.00
   11:14:54.000.25-Aug-2020 207.00 2075.92 4320.01 2045.42 71.51 10.00
   11:14:54.200.25-Aug-2020 207.20 2075.92 4320.01 2045.42 71.51 10.00
   11:14:54.400.25-Aug-2020 207.40 2078.30 4320.01 2045.42 71.51 10.00
   11:14:54.600.25-Aug-2020 207.60 2079.55 4320.01 2045.42 71.51 10.00
   11:14:54.800.25-Aug-2020 207.80 2080.90 4320.01 2045.42 71.51 10.00
   11:14:55.000.25-Aug-2020 208.00 2082.27 4320.01 2045.42 71.51 10.00
   11:14:55.200.25-Aug-2020 208.20 2082.27 4320.01 2045.42 71.51 10.00
   11:14:55.400.25-Aug-2020 208.40 2085.45 4320.01 2045.42 71.51 10.00
   11:14:55.600.25-Aug-2020 208.60 2086.98 4320.01 2045.42 71.51 10.00
   11:14:55.800.25-Aug-2020 208.80 2088.48 4320.01 2045.42 71.51 10.00
   11:14:56.000.25-Aug-2020 209.00 2090.05 4320.01 2045.42 71.51 10.00
   11:14:56.200.25-Aug-2020 209.20 2090.05 4320.01 2045.42 71.51 10.00
   11:14:56.400.25-Aug-2020 209.40 2092.76 4320.01 2045.42 71.51 10.00
   11:14:56.600.25-Aug-2020 209.60 2094.12 4320.01 2045.42 71.51 10.00
   11:14:56.800.25-Aug-2020 209.80 2095.47 4320.01 2045.42 71.51 10.00
   11:14:57.000.25-Aug-2020 210.00 2096.65 4320.01 2045.42 71.51 10.00
   11:14:57.200.25-Aug-2020 210.20 2096.65 4320.01 2045.42 71.51 10.00
   11:14:57.400.25-Aug-2020 210.40 2098.95 4320.01 2045.42 71.51 10.00
   11:14:57.600.25-Aug-2020 210.60 2100.10 4320.01 2045.42 71.51 10.00
   11:14:57.800.25-Aug-2020 210.80 2101.19 4320.01 2045.42 71.51 10.00
   11:14:58.000.25-Aug-2020 211.00 2102.31 4320.01 2045.42 71.51 10.00
   11:14:58.200.25-Aug-2020 211.20 2103.42 4320.01 2045.42 71.51 10.00
   11:14:58.400.25-Aug-2020 211.40 2104.54 4320.01 2045.42 71.51 10.00
   11:14:58.600.25-Aug-2020 211.60 2105.29 4320.01 2045.42 71.51 10.00
   11:14:58.800.25-Aug-2020 211.80 2107.20 4320.01 2045.42 71.51 10.00
   11:14:59.000.25-Aug-2020 212.00 2108.51 4320.01 2045.42 71.51 10.00
   11:14:59.200.25-Aug-2020 212.20 2108.51 4320.01 2045.42 71.51 10.00
   11:14:59.400.25-Aug-2020 212.40 2110.69 4320.01 2045.42 71.51 10.00
   11:14:59.600.25-Aug-2020 212.60 2111.92 4320.01 2045.42 71.51 10.00
   11:14:59.800.25-Aug-2020 212.80 2112.87 4320.01 2045.42 71.51 10.00
   11:15:00.000.25-Aug-2020 213.00 2114.37 4320.01 2045.42 71.51 10.00
   11:15:00.200.25-Aug-2020 213.20 2114.37 4320.01 2045.42 71.51 10.00
   11:15:00.400.25-Aug-2020 213.40 2117.20 4320.01 2045.42 71.51 10.00
   11:15:00.600.25-Aug-2020 213.60 2118.31 4320.01 2045.42 71.51 10.00
   11:15:00.800.25-Aug-2020 213.80 2119.56 4320.01 2045.42 71.51 10.00
   11:15:01.000.25-Aug-2020 214.00 2120.72 4320.01 2045.42 71.51 10.00
   11:15:01.200.25-Aug-2020 214.20 2120.72 4320.01 2045.42 71.51 10.00
   11:15:01.400.25-Aug-2020 214.40 2123.31 4320.01 2045.42 71.51 10.00
   11:15:01.600.25-Aug-2020 214.60 2124.53 4320.01 2045.42 71.51 10.00
   11:15:01.800.25-Aug-2020 214.80 2125.78 4320.01 2045.42 71.51 10.00
   11:15:02.000.25-Aug-2020 215.00 2126.82 4320.01 2045.42 71.51 10.00
   11:15:02.200.25-Aug-2020 215.20 2126.82 4320.01 2045.42 71.51 10.00
   11:15:02.400.25-Aug-2020 215.40 2129.15 4320.01 2045.42 71.51 10.00
   11:15:02.600.25-Aug-2020 215.60 2130.15 4320.01 2045.42 71.51 10.00
   11:15:02.800.25-Aug-2020 215.80 2131.57 4320.01 2045.42 71.51 10.00
   11:15:03.000.25-Aug-2020 216.00 2132.99 4320.01 2045.42 71.51 10.00
   11:15:03.200.25-Aug-2020 216.20 2132.99 4320.01 2045.42 71.51 10.00
   11:15:03.400.25-Aug-2020 216.40 2134.80 4320.01 2045.42 71.51 10.00
   11:15:03.600.25-Aug-2020 216.60 2135.87 4320.01 2045.42 71.51 10.00
   11:15:03.800.25-Aug-2020 216.80 2136.88 4320.01 2045.42 71.51 10.00
   11:15:04.000.25-Aug-2020 217.00 2137.40 4320.01 2045.42 71.51 10.00
   11:15:04.200.25-Aug-2020 217.20 2137.40 4320.01 2045.42 71.51 10.00
   11:15:04.400.25-Aug-2020 217.40 2140.50 4320.01 2045.42 71.51 10.00
   11:15:04.600.25-Aug-2020 217.60 2141.30 4320.01 2045.42 71.51 10.00
   11:15:04.800.25-Aug-2020 217.80 2142.31 4320.01 2045.42 71.51 10.00
   11:15:05.000.25-Aug-2020 218.00 2143.37 4320.01 2045.42 71.51 10.00
   11:15:05.200.25-Aug-2020 218.20 2143.37 4320.01 2045.42 71.51 10.00
   11:15:05.400.25-Aug-2020 218.40 2145.12 4320.01 2045.42 71.51 10.00
   11:15:05.600.25-Aug-2020 218.60 2146.06 4320.01 2045.42 71.51 10.00
   11:15:05.800.25-Aug-2020 218.80 2147.06 4320.01 2045.42 71.51 10.00
   11:15:06.000.25-Aug-2020 219.00 2147.91 4320.01 2045.42 71.51 10.00
   11:15:06.200.25-Aug-2020 219.20 2147.91 4320.01 2045.42 71.51 10.00
   11:15:06.400.25-Aug-2020 219.40 2149.88 4320.01 2045.42 71.51 10.00
   11:15:06.600.25-Aug-2020 219.60 2150.98 4320.01 2045.42 71.51 10.00
   11:15:06.800.25-Aug-2020 219.80 2152.09 4320.01 2045.42 71.51 10.00
   11:15:07.000.25-Aug-2020 220.00 2153.12 4320.01 2045.42 71.51 10.00
   11:15:07.200.25-Aug-2020 220.20 2153.12 4320.01 2045.42 71.51 10.00
   11:15:07.400.25-Aug-2020 220.40 2155.02 4320.01 2045.42 71.51 10.00
   11:15:07.600.25-Aug-2020 220.60 2155.90 4320.01 2045.42 71.51 10.00
   11:15:07.800.25-Aug-2020 220.80 2157.27 4320.01 2045.42 71.51 10.00
   11:15:08.000.25-Aug-2020 221.00 2158.61 4320.01 2045.42 71.51 10.00
   11:15:08.200.25-Aug-2020 221.20 2158.61 4320.01 2045.42 71.51 10.00
   11:15:08.400.25-Aug-2020 221.40 2161.09 4320.01 2045.42 71.51 10.00
   11:15:08.600.25-Aug-2020 221.60 2162.08 4320.01 2045.42 71.51 10.00
   11:15:08.800.25-Aug-2020 221.80 2163.12 4320.01 2045.42 71.51 10.00
   11:15:09.000.25-Aug-2020 222.00 2164.10 4320.01 2045.42 71.51 10.00
   11:15:09.200.25-Aug-2020 222.20 2164.10 4320.01 2045.42 71.51 10.00
   11:15:09.400.25-Aug-2020 222.40 2166.23 4320.01 2045.42 71.51 10.00
   11:15:09.600.25-Aug-2020 222.60 2167.15 4320.01 2045.42 71.51 10.00
   11:15:09.800.25-Aug-2020 222.80 2168.06 4320.01 2045.42 71.51 10.00
   11:15:10.000.25-Aug-2020 223.00 2168.90 4320.01 2045.42 71.51 10.00
   11:15:10.200.25-Aug-2020 223.20 2168.90 4320.01 2045.42 71.51 10.00
   11:15:10.400.25-Aug-2020 223.40 2170.65 4320.01 2045.42 71.51 10.00
   11:15:10.600.25-Aug-2020 223.60 2171.48 4320.01 2045.42 71.51 10.00
   11:15:10.800.25-Aug-2020 223.80 2172.20 4320.01 2045.42 71.51 10.00
   11:15:11.000.25-Aug-2020 224.00 2173.34 4320.01 2045.42 71.51 10.00
   11:15:11.200.25-Aug-2020 224.20 2173.34 4320.01 2045.42 71.51 10.00
   11:15:11.400.25-Aug-2020 224.40 2175.45 4320.01 2045.42 71.51 10.00
   11:15:11.600.25-Aug-2020 224.60 2176.89 4320.01 2045.42 71.51 10.00
   11:15:11.800.25-Aug-2020 224.80 2177.86 4320.01 2045.42 71.51 10.00
   11:15:12.000.25-Aug-2020 225.00 2178.48 4320.01 2045.42 71.51 10.00
   11:15:12.200.25-Aug-2020 225.20 2178.48 4320.01 2045.42 71.51 10.00
   11:15:12.400.25-Aug-2020 225.40 2181.47 4320.01 2045.42 71.51 10.00
   11:15:12.600.25-Aug-2020 225.60 2182.51 4320.01 2045.42 71.51 10.00
   11:15:12.800.25-Aug-2020 225.80 2183.74 4320.01 2045.42 71.51 10.00
