~Version Information
 VERS.                  2.0:   CWLS log ASCII Standard -VERSION 2.0
 WRAP.                   NO:   One line per depth step
~Well Information Block
#MNEM.UNIT     VALUE/NAME     DESCRIPTION
#---------     -----------    ---------------------------
 STRT.S             12:25:10 25-Aug-20: START TIME 12:25:10 25-Aug-20
 STOP.S             12:32:06 25-Aug-20: STOP TIME  12:32:06 25-Aug-20
 STEP.S                   0.00: STEP TIME
 NULL.                 -999.25: NULL VALUE
 DFWT.                        :  DIST FWL TEXT
 DFST.                        :  DIST FSL TEXT
 DMF .             Drill Floor:  DRILL MEAS FROM
 STIM.      09.59.28 01-Jun-20:  START TIME
 DATE.      05.00.00 28-Aug-20:  END TIME
 SPUD.               01-Jun-20:  SPUD DATE
 NREF.                    Grid:  NORTH REFERENCE
 HPTY.       Minimum Curvature:  HOLE POS TYPE
 DMOD.             Drill Model:  DRILL MOD DESC
 SVYD.                  Survey:  SURVEY DESC
 ILTD.               Lithology:  INTERP LTH DESC
 FTOP.          Formation Tops:  FORM TOPS DESC
 SON .        AZ-XX-0905455768:  JOB NUMBER
 WTYP.                Deviated:  WELL TYPE
 COMP.     BP Exploration(Caspian Sea):  COMPANY
 BASE.              Azerbaijan:  LOGGING EQUIPMENT BASE LOCATION
 REGN.                   EESSA:  REGION
 CTRY.              Azerbaijan:  COUNTRY NAME
 FLD .                     ACG:  FIELD NAME
 SRVC.          Turan Drilling:  CONTRACTOR
 WELL.                     B41:  WELL NAME
 RIG .           Central Azeri:  RIG NAME
 DCON.         Sperry Drilling:  DIRECTNL CONTR
 PDAT.          Mean Sea Level:  PERMANENT DATUM
 MDS .        Operator Entered:  MAG DATA SOURCE
 API .                        :  API NUMBER
 CNTY.                        :  COUNTY
 PROV.                        :  PROVINCE
 STAT.                        :  STATE
 UWI .                        :  UNIQUE WELL IDENTIFIER
 LOC .                        :  LOCATION
 LMF .             Drill Floor:  LOG MEASURED FROM
 TVDS.m                  43.29:  TVDSS CORRECTN
 LATI.deg                40.03:  LATITUDE
 LONG.deg                51.35:  LONGITUDE
 WHNS.m                  12.98:  WELL HEAD N/S
 WHEW.m                  -6.62:  WELL HEAD E/W
 UTMX.m              530128.28:  UTM X
 UTMY.m             4433192.49:  UTM Y
 DFWL.m                   0.00:  DISTANCE FWL
 DFSL.m                   0.00:  DISTANCE FSL
 SDEP.m                 378.00:  START DEPTH
 TDD .m                4463.01:  TOTAL DEPTH (DRILLER)
 VSDR.deg               296.18:  VERT SEC DIRECT
 GVFD.g                   1.00:  GRAVITY FIELD
 MFLD.nT              50269.00:  MAGNETIC FIELD
 MDIP.deg                59.50:  MAGNETIC DIP
 MDEC.deg                 6.44:  MAGNETIC DECL
 GRDC.deg                 0.20:  GRID CORRECTION
 AZTC.deg                 6.24:  AZM TOTAL CORR
 EPD .m                   0.00:  ELEVATION
 EGL .m                   0.00:  GROUND ELEVATION
 WDMS.m                 128.20:  WD ELEV
 APD .m                  43.29:  DEPTH ABOVE PD
 AGAP.m                  43.29:  AIR GAP
 VSEW.m                  -6.62:  VERT SEC E/W
 VSNS.m                  12.98:  VERT SEC N/S
 EKB .m                  43.29:  KB ELEVATION
 EDF .m                  43.29:  DF ELEVATION
 TDL .m                 147.00:  TOTAL DEPTH (LOGGER)
 VSC .                       0:  VS TO CLOSURE
 MAGU.                 1849241:  MAGUTM CHECKSUM
~Parameter Information Block
#MNEM.UNIT       Value        Description
#---------     -----------    ---------------------------
 AV  .mps                 0.70:  Ann Velocity 
 AZIF.deg               269.43:  Azm, Final 
 BHAT.        Rotary Steerable:  BHA Type 
 BROT.°/30m              -0.03:  Build Rotating 
 BS  .in                  8.50:  Bit Size 
 BSZ .in                  8.50:  Bit Size 
 BTPL.psig              880.00:  Bit Press Loss 
 CABU.                      No:  Customer Abuse 
 CGEO.          Parviz Guliyev:  Customer Geo 
 COMM.                     >h:  Run Comments 1 
 TCS .hr                 64.59:  Time Ciculation Ended 
 CV  .mps                 2.17:  Crit Velocity 
 DD1 .            Nonso Okafor:  Direct Drillr 1 
 DDSV.               Geo-Pilot:  DD Service 
 DEFF.%                  98.00:  % Det Eff 
 DLRX.°/30m               0.81:  Dogleg Rot Max 
 DLSO.°/30m               0.55:  Dogleg Oriented 
 DLSX.°/30m               0.81:  Dogleg Str Max 
 DRET.      23.50.00 24-Aug-20:  Drill End Time 
 DRST.      07.34.24 22-Aug-20:  Drill Start Tim 
 DTIM.hr                 15.29:  Time Drilling 
 EDEP.m                4461.01:  End Depth 
 ENG1.       Zam Abdullah Sani:  Engineer 1 
 ENG2.         Dair Mahammadov:  Engineer 2 
 ENG3.          Rustam Gadirov:  Engineer 3 
 ETIM.      07.34.24 26-Aug-20:  End Time 
 FLOI.gpm               550.00:  Flow In 
 FLON.gpm               400.00:  Flow In Min 
 FLOS.cptm                1.00:  Fluid Loss 
 FLOX.gpm               600.00:  Flow In Max 
 FTRO.       Formation Presure:  FTWD Run Obj 
 HFLO.                      No:  High Flow 
 HPRE.                      No:  High Pressure 
 HTEM.                      No:  High Temp 
 HYDO.m                   1.80:  Hydro Offset 
 IFIN.deg                66.72:  Inc, Final 
 IMAX.deg                67.42:  Inc Max 
 IMIN.deg                66.72:  Inc Min 
 IMND.m                4408.37:  Inc Min Depth 
 IMXD.m                4323.37:  Inc Max Depth 
 JARR.                      No:  Jarring 
 LETM.      23.50.00 24-Aug-20:  Log End Time 
 LOST.hr                     0:  Lost Rig Time 
 LSTM.      07.34.24 22-Aug-20:  Log Start Time 
 MDCL.ppm             38000.00:  Mud Chlorides 
 MDES.     Inversion Oil/Synthetic:  Mud Desc 
 DFD .sg                  1.40:  Mud Density 
 MDMN.sg                  1.38:  Dens Mud Min 
 MDMX.sg                  1.41:  Dens Mud Max 
 MOIL.                    70.5:  Run Mud Oil % 
 MOWR.                   68:32:  Run Mud OWR 
 MSND.                    0.01:  Run Mud Sand % 
 MSOL.                   17.68:  Run Mud Solids% 
 DFV .spqt               77.00:  Mud Viscosity 
 MWOD.in                  6.75:  MWD Tool OD 
 MWSI.                      No:  Serv Intrp, MWD 
 OTIM.hr                159.42:  Time Operating 
 PCON.           Look Like New:  Pad Condition 
 PMAX.psia             8730.94:  Press Op, Max 
 PV  .cP                 31.00:  Mud PV 
 RUN .                     900:  Run Number 
 ROPA.m/hr               12.00:  ROP Avg 
 ROPN.m/hr                7.00:  ROP Min 
 ROPX.m/hr               17.00:  ROP Max 
 RPMA.rpm               120.00:  RPM Surface Avg 
 RPMN.rpm                60.00:  RPM Surface Min 
 RPMX.rpm               140.00:  RPM Surface Max 
 RRUN.                    L604:  Rig Run Number 
 RTIM.hr                 10.00:  Time Reaming 
 SAZI.deg               270.56:  Azm, Start 
 SDEP.m                4314.01:  Start Depth 
 SIDD.                      No:  Serv Intrp, DD 
 SINC.deg                67.42:  Inc, Start 
 SPPA.psig             3300.00:  SPP Avg 
 SPPN.psig             1750.00:  SPP Min 
 SPPX.psig             4630.00:  SPP Max 
 STIM.      11.00.00 21-Aug-20:  Start Time 
 SVCS.                 DD, MWD:  Services 
 SVER.                    9.20:  Sperry Version 
 TDAT.m                4461.01:  Tot Depth Attmp 
 TDDF.                      No:  Trip for DD 
 TDLG.m                 147.00:  Tot Depth Loggd 
 TFF .                      No:  Trip for Fail 
 TQAA.f-kp               16.00:  Torque Abs Avg 
 TQAN.f-kp               14.00:  Torque Abs Min 
 TQAX.f-kp               20.00:  Torque Abs Max 
 TRRT.°/30m              -0.14:  Turn Rotating 
 MRT .                    HCIM:  Maximum Recorded Temperature 
 TTMX.degC               78.00:  Max Tool Temp 
 VS01.                90515425:  Virtual Str1 SN 
 VS02.                90545184:  Virtual Str2 SN 
 VS03.                90527809:  Virtual Str3 SN 
 VS04.                90515232:  Virtual Str4 SN 
 VS05.                90621207:  Virtual Str5 SN 
 VS06.                90619737:  Virtual Str6 SN 
 WBMN.klb                 2.00:  WOB Min 
 WITN.          Keith Dischler:  Customer Rep 
 WITN.           Faig Mammadov:  Customer Rep 2 
 WOBA.klb                 5.00:  WOB Avg 
 WOBX.klb                 8.00:  WOB Max 
 YP  .lhf2               32.00:  Yield Point 
~Curve Information Block
#MNEM.UNIT                 API CODE     Curve Description
#---------               -----------    ---------------------------
 TIME.HHMMSS            00 000 000 000:  GT Time & Date
 GTET.sec               00 000 000 000:  GT Elapsed Test Time
 GTPQH.psia             00 000 000 000:  GT HR Quartz Pressure
 GTDEPTH.m              00 000 000 000:  GT Depth
 GTTVD.m                00 000 000 000:  GT True Vertical Depth
 GTTQ.degC              00 000 000 000:  GT Quartz Temperature
 GTTN.NONE              00 000 000 000:  GT Test Number
#Other Information
#
#WARRANTY: Halliburton will use its best efforts to furnish customers with 
#accurate information and interpretations that are part of, and incident to, the services 
#provided.  However, Halliburton cannot and does not warrant the accuracy 
#or correctness of such information and interpretations.  Under no circumstances should any 
#such information or interpretation be relied upon as the sole basis for any drilling, 
#completion, production, or financial decision or any procedure involving any risk to the 
#safety of any drilling venture, drilling rig or its crew or any other third party.  The 
#Customer has full responsibility for all drilling, completion and production operation.  
#Halliburton makes no representations or warranties, either expressed or 
#implied, including, but not limited to, the implied warranties of merchantability or fitness 
#for a particular purpose, with respect to the services rendered.  In no event will 
#Halliburton be liable for failure to obtain any particular results or for 
#any damages, including, but not limited to, indirect, special or consequential damages, 
#resulting from the use of any information or interpretation provided by Halliburton.
#
~A           TIME            GTET   GTPQH  GTDEPTH  GTTVD  GTTQ  GTTN  
# ...
   12:29:41.200.25-Aug-2020 271.20   19.47 4311.01 2041.94 71.61 12.00
   12:29:41.400.25-Aug-2020 271.40   19.51 4311.01 2041.94 71.61 12.00
   12:29:41.600.25-Aug-2020 271.60   19.52 4311.01 2041.94 71.61 12.00
   12:29:41.800.25-Aug-2020 271.80   19.52 4311.01 2041.94 71.61 12.00
   12:29:42.000.25-Aug-2020 272.00   19.54 4311.01 2041.94 71.61 12.00
   12:29:42.200.25-Aug-2020 272.20   19.54 4311.01 2041.94 71.61 12.00
   12:29:42.400.25-Aug-2020 272.40   19.54 4311.01 2041.94 71.61 12.00
   12:29:42.600.25-Aug-2020 272.60   19.56 4311.01 2041.94 71.61 12.00
   12:29:42.800.25-Aug-2020 272.80   19.57 4311.01 2041.94 71.61 12.00
   12:29:43.000.25-Aug-2020 273.00   19.54 4311.01 2041.94 71.61 12.00
   12:29:43.200.25-Aug-2020 273.20   19.59 4311.01 2041.94 71.61 12.00
   12:29:43.400.25-Aug-2020 273.40   19.59 4311.01 2041.94 71.61 12.00
   12:29:43.600.25-Aug-2020 273.60   19.60 4311.01 2041.94 71.61 12.00
   12:29:43.800.25-Aug-2020 273.80   19.60 4311.01 2041.94 71.61 12.00
   12:29:44.000.25-Aug-2020 274.00   19.58 4311.01 2041.94 71.61 12.00
   12:29:44.200.25-Aug-2020 274.20   19.62 4311.01 2041.94 71.61 12.00
   12:29:44.400.25-Aug-2020 274.40   19.62 4311.01 2041.94 71.61 12.00
   12:29:44.600.25-Aug-2020 274.60   19.63 4311.01 2041.94 71.61 12.00
   12:29:44.800.25-Aug-2020 274.80   19.63 4311.01 2041.94 71.61 12.00
   12:29:45.000.25-Aug-2020 275.00   19.63 4311.01 2041.94 71.61 12.00
   12:29:45.200.25-Aug-2020 275.20   19.64 4311.01 2041.94 71.61 12.00
   12:29:45.400.25-Aug-2020 275.40   19.65 4311.01 2041.94 71.61 12.00
   12:29:45.600.25-Aug-2020 275.60   19.65 4311.01 2041.94 71.61 12.00
   12:29:45.800.25-Aug-2020 275.80   19.67 4311.01 2041.94 71.61 12.00
   12:29:46.000.25-Aug-2020 276.00   19.67 4311.01 2041.94 71.61 12.00
   12:29:46.200.25-Aug-2020 276.20   19.67 4311.01 2041.94 71.61 12.00
   12:29:46.400.25-Aug-2020 276.40   19.68 4311.01 2041.94 71.61 12.00
   12:29:46.600.25-Aug-2020 276.60   19.69 4311.01 2041.94 71.61 12.00
   12:29:46.800.25-Aug-2020 276.80   19.70 4311.01 2041.94 71.61 12.00
   12:29:47.000.25-Aug-2020 277.00   19.70 4311.01 2041.94 71.61 12.00
   12:29:47.200.25-Aug-2020 277.20   19.70 4311.01 2041.94 71.61 12.00
   12:29:47.400.25-Aug-2020 277.40   19.72 4311.01 2041.94 71.61 12.00
   12:29:47.600.25-Aug-2020 277.60   19.68 4311.01 2041.94 71.61 12.00
   12:29:47.800.25-Aug-2020 277.80   19.72 4311.01 2041.94 71.61 12.00
   12:29:48.000.25-Aug-2020 278.00   19.73 4311.01 2041.94 71.61 12.00
   12:29:48.200.25-Aug-2020 278.20   19.74 4311.01 2041.94 71.61 12.00
   12:29:48.400.25-Aug-2020 278.40   19.74 4311.01 2041.94 71.61 12.00
   12:29:48.600.25-Aug-2020 278.60   19.74 4311.01 2041.94 71.61 12.00
   12:29:48.800.25-Aug-2020 278.80   19.74 4311.01 2041.94 71.61 12.00
   12:29:49.000.25-Aug-2020 279.00   19.75 4311.01 2041.94 71.61 12.00
   12:29:49.200.25-Aug-2020 279.20   19.75 4311.01 2041.94 71.61 12.00
   12:29:49.400.25-Aug-2020 279.40   19.76 4311.01 2041.94 71.61 12.00
   12:29:49.600.25-Aug-2020 279.60   19.77 4311.01 2041.94 71.61 12.00
   12:29:49.800.25-Aug-2020 279.80   19.77 4311.01 2041.94 71.61 12.00
   12:29:50.000.25-Aug-2020 280.00   19.77 4311.01 2041.94 71.61 12.00
   12:29:50.200.25-Aug-2020 280.20   19.78 4311.01 2041.94 71.61 12.00
   12:29:50.400.25-Aug-2020 280.40   19.79 4311.01 2041.94 71.61 12.00
   12:29:50.600.25-Aug-2020 280.60   19.79 4311.01 2041.94 71.61 12.00
   12:29:50.800.25-Aug-2020 280.80   19.75 4311.01 2041.94 71.61 12.00
   12:29:51.000.25-Aug-2020 281.00   19.81 4311.01 2041.94 71.61 12.00
   12:29:51.200.25-Aug-2020 281.20   19.81 4311.01 2041.94 71.61 12.00
   12:29:51.400.25-Aug-2020 281.40   19.81 4311.01 2041.94 71.61 12.00
   12:29:51.600.25-Aug-2020 281.60   19.82 4311.01 2041.94 71.61 12.00
   12:29:51.800.25-Aug-2020 281.80   19.81 4311.01 2041.94 71.61 12.00
   12:29:52.000.25-Aug-2020 282.00   19.80 4311.01 2041.94 71.61 12.00
   12:29:52.200.25-Aug-2020 282.20   19.80 4311.01 2041.94 71.61 12.00
   12:29:52.400.25-Aug-2020 282.40   19.82 4311.01 2041.94 71.61 12.00
   12:29:52.600.25-Aug-2020 282.60   19.84 4311.01 2041.94 71.61 12.00
   12:29:52.800.25-Aug-2020 282.80   19.80 4311.01 2041.94 71.61 12.00
   12:29:53.000.25-Aug-2020 283.00   19.85 4311.01 2041.94 71.61 12.00
   12:29:53.200.25-Aug-2020 283.20   19.85 4311.01 2041.94 71.61 12.00
   12:29:53.400.25-Aug-2020 283.40   19.85 4311.01 2041.94 71.61 12.00
   12:29:53.600.25-Aug-2020 283.60   19.86 4311.01 2041.94 71.61 12.00
   12:29:53.800.25-Aug-2020 283.80   19.82 4311.01 2041.94 71.61 12.00
   12:29:54.000.25-Aug-2020 284.00   19.87 4311.01 2041.94 71.61 12.00
   12:29:54.200.25-Aug-2020 284.20   19.87 4311.01 2041.94 71.61 12.00
   12:29:54.400.25-Aug-2020 284.40   19.87 4311.01 2041.94 71.61 12.00
   12:29:54.600.25-Aug-2020 284.60   19.88 4311.01 2041.94 71.61 12.00
   12:29:54.800.25-Aug-2020 284.80   19.88 4311.01 2041.94 71.61 12.00
   12:29:55.000.25-Aug-2020 285.00   19.85 4311.01 2041.94 71.61 12.00
   12:29:55.200.25-Aug-2020 285.20   19.89 4311.01 2041.94 71.61 12.00
   12:29:55.400.25-Aug-2020 285.40   19.90 4311.01 2041.94 71.61 12.00
   12:29:55.600.25-Aug-2020 285.60   19.90 4311.01 2041.94 71.61 12.00
   12:29:55.800.25-Aug-2020 285.80   19.90 4311.01 2041.94 71.61 12.00
   12:29:56.000.25-Aug-2020 286.00   19.91 4311.01 2041.94 71.61 12.00
   12:29:56.200.25-Aug-2020 286.20   19.91 4311.01 2041.94 71.61 12.00
   12:29:56.400.25-Aug-2020 286.40   19.92 4311.01 2041.94 71.61 12.00
   12:29:56.600.25-Aug-2020 286.60   19.92 4311.01 2041.94 71.61 12.00
   12:29:56.800.25-Aug-2020 286.80   19.93 4311.01 2041.94 71.61 12.00
   12:29:57.000.25-Aug-2020 287.00   19.93 4311.01 2041.94 71.61 12.00
   12:29:57.200.25-Aug-2020 287.20   19.93 4311.01 2041.94 71.61 12.00
   12:29:57.400.25-Aug-2020 287.40   19.94 4311.01 2041.94 71.61 12.00
   12:29:57.600.25-Aug-2020 287.60   19.94 4311.01 2041.94 71.61 12.00
   12:29:57.800.25-Aug-2020 287.80   19.94 4311.01 2041.94 71.61 12.00
   12:29:58.000.25-Aug-2020 288.00   19.95 4311.01 2041.94 71.61 12.00
   12:29:58.200.25-Aug-2020 288.20   19.95 4311.01 2041.94 71.61 12.00
   12:29:58.400.25-Aug-2020 288.40   19.96 4311.01 2041.94 71.61 12.00
   12:29:58.600.25-Aug-2020 288.60   19.92 4311.01 2041.94 71.61 12.00
   12:29:58.800.25-Aug-2020 288.80   19.98 4311.01 2041.94 71.61 12.00
   12:29:59.000.25-Aug-2020 289.00   19.98 4311.01 2041.94 71.61 12.00
   12:29:59.200.25-Aug-2020 289.20   19.98 4311.01 2041.94 71.61 12.00
   12:29:59.400.25-Aug-2020 289.40   19.99 4311.01 2041.94 71.61 12.00
   12:29:59.600.25-Aug-2020 289.60   19.99 4311.01 2041.94 71.61 12.00
   12:29:59.800.25-Aug-2020 289.80   19.99 4311.01 2041.94 71.61 12.00
   12:30:00.000.25-Aug-2020 290.00   19.99 4311.01 2041.94 71.61 12.00
   12:30:00.200.25-Aug-2020 290.20   20.00 4311.01 2041.94 71.61 12.00
   12:30:00.400.25-Aug-2020 290.40   20.00 4311.01 2041.94 71.61 12.00
   12:30:00.600.25-Aug-2020 290.60   20.00 4311.01 2041.94 71.61 12.00
   12:30:00.800.25-Aug-2020 290.80   20.01 4311.01 2041.94 71.61 12.00
   12:30:01.000.25-Aug-2020 291.00   20.01 4311.01 2041.94 71.61 12.00
   12:30:01.200.25-Aug-2020 291.20   20.01 4311.01 2041.94 71.61 12.00
   12:30:01.400.25-Aug-2020 291.40   20.02 4311.01 2041.94 71.61 12.00
   12:30:01.600.25-Aug-2020 291.60   20.02 4311.01 2041.94 71.61 12.00
   12:30:01.800.25-Aug-2020 291.80   19.99 4311.01 2041.94 71.61 12.00
   12:30:02.000.25-Aug-2020 292.00   20.04 4311.01 2041.94 71.61 12.00
   12:30:02.200.25-Aug-2020 292.20   20.03 4311.01 2041.94 71.61 12.00
   12:30:02.400.25-Aug-2020 292.40   20.05 4311.01 2041.94 71.61 12.00
   12:30:02.600.25-Aug-2020 292.60   20.04 4311.01 2041.94 71.61 12.00
   12:30:02.800.25-Aug-2020 292.80   20.04 4311.01 2041.94 71.61 12.00
   12:30:03.000.25-Aug-2020 293.00   20.03 4311.01 2041.94 71.61 12.00
   12:30:03.200.25-Aug-2020 293.20   20.05 4311.01 2041.94 71.61 12.00
   12:30:03.400.25-Aug-2020 293.40   20.06 4311.01 2041.94 71.61 12.00
   12:30:03.600.25-Aug-2020 293.60   20.07 4311.01 2041.94 71.61 12.00
