~Version Information
 VERS.                  2.0:   CWLS log ASCII Standard -VERSION 2.0
 WRAP.                   NO:   One line per depth step
~Well Information Block
#MNEM.UNIT     VALUE/NAME     DESCRIPTION
#---------     -----------    ---------------------------
 STRT.S             06:12:42 25-Aug-20: START TIME 06:12:42 25-Aug-20
 STOP.S             06:19:48 25-Aug-20: STOP TIME  06:19:48 25-Aug-20
 STEP.S                   0.00: STEP TIME
 NULL.                 -999.25: NULL VALUE
 DFWT.                        :  DIST FWL TEXT
 DFST.                        :  DIST FSL TEXT
 DMF .             Drill Floor:  DRILL MEAS FROM
 STIM.      09.59.28 01-Jun-20:  START TIME
 DATE.      05.00.00 28-Aug-20:  END TIME
 SPUD.               01-Jun-20:  SPUD DATE
 NREF.                    Grid:  NORTH REFERENCE
 HPTY.       Minimum Curvature:  HOLE POS TYPE
 DMOD.             Drill Model:  DRILL MOD DESC
 SVYD.                  Survey:  SURVEY DESC
 ILTD.               Lithology:  INTERP LTH DESC
 FTOP.          Formation Tops:  FORM TOPS DESC
 SON .        AZ-XX-0905455768:  JOB NUMBER
 WTYP.                Deviated:  WELL TYPE
 COMP.     BP Exploration(Caspian Sea):  COMPANY
 BASE.              Azerbaijan:  LOGGING EQUIPMENT BASE LOCATION
 REGN.                   EESSA:  REGION
 CTRY.              Azerbaijan:  COUNTRY NAME
 FLD .                     ACG:  FIELD NAME
 SRVC.          Turan Drilling:  CONTRACTOR
 WELL.                     B41:  WELL NAME
 RIG .           Central Azeri:  RIG NAME
 DCON.         Sperry Drilling:  DIRECTNL CONTR
 PDAT.          Mean Sea Level:  PERMANENT DATUM
 MDS .        Operator Entered:  MAG DATA SOURCE
 API .                        :  API NUMBER
 CNTY.                        :  COUNTY
 PROV.                        :  PROVINCE
 STAT.                        :  STATE
 UWI .                        :  UNIQUE WELL IDENTIFIER
 LOC .                        :  LOCATION
 LMF .             Drill Floor:  LOG MEASURED FROM
 TVDS.m                  43.29:  TVDSS CORRECTN
 LATI.deg                40.03:  LATITUDE
 LONG.deg                51.35:  LONGITUDE
 WHNS.m                  12.98:  WELL HEAD N/S
 WHEW.m                  -6.62:  WELL HEAD E/W
 UTMX.m              530128.28:  UTM X
 UTMY.m             4433192.49:  UTM Y
 DFWL.m                   0.00:  DISTANCE FWL
 DFSL.m                   0.00:  DISTANCE FSL
 SDEP.m                 378.00:  START DEPTH
 TDD .m                4463.01:  TOTAL DEPTH (DRILLER)
 VSDR.deg               296.18:  VERT SEC DIRECT
 GVFD.g                   1.00:  GRAVITY FIELD
 MFLD.nT              50269.00:  MAGNETIC FIELD
 MDIP.deg                59.50:  MAGNETIC DIP
 MDEC.deg                 6.44:  MAGNETIC DECL
 GRDC.deg                 0.20:  GRID CORRECTION
 AZTC.deg                 6.24:  AZM TOTAL CORR
 EPD .m                   0.00:  ELEVATION
 EGL .m                   0.00:  GROUND ELEVATION
 WDMS.m                 128.20:  WD ELEV
 APD .m                  43.29:  DEPTH ABOVE PD
 AGAP.m                  43.29:  AIR GAP
 VSEW.m                  -6.62:  VERT SEC E/W
 VSNS.m                  12.98:  VERT SEC N/S
 EKB .m                  43.29:  KB ELEVATION
 EDF .m                  43.29:  DF ELEVATION
 TDL .m                 147.00:  TOTAL DEPTH (LOGGER)
 VSC .                       0:  VS TO CLOSURE
 MAGU.                 1849241:  MAGUTM CHECKSUM
~Parameter Information Block
#MNEM.UNIT       Value        Description
#---------     -----------    ---------------------------
 AV  .mps                 0.70:  Ann Velocity 
 AZIF.deg               269.43:  Azm, Final 
 BHAT.        Rotary Steerable:  BHA Type 
 BROT.°/30m              -0.03:  Build Rotating 
 BS  .in                  8.50:  Bit Size 
 BSZ .in                  8.50:  Bit Size 
 BTPL.psig              880.00:  Bit Press Loss 
 CABU.                      No:  Customer Abuse 
 CGEO.          Parviz Guliyev:  Customer Geo 
 COMM.                     ôb:  Run Comments 1 
 TCS .hr                 64.59:  Time Ciculation Ended 
 CV  .mps                 2.17:  Crit Velocity 
 DD1 .            Nonso Okafor:  Direct Drillr 1 
 DDSV.               Geo-Pilot:  DD Service 
 DEFF.%                  98.00:  % Det Eff 
 DLRX.°/30m               0.81:  Dogleg Rot Max 
 DLSO.°/30m               0.55:  Dogleg Oriented 
 DLSX.°/30m               0.81:  Dogleg Str Max 
 DRET.      23.50.00 24-Aug-20:  Drill End Time 
 DRST.      07.34.24 22-Aug-20:  Drill Start Tim 
 DTIM.hr                 15.29:  Time Drilling 
 EDEP.m                4461.01:  End Depth 
 ENG1.       Zam Abdullah Sani:  Engineer 1 
 ENG2.         Dair Mahammadov:  Engineer 2 
 ENG3.          Rustam Gadirov:  Engineer 3 
 ETIM.      07.34.24 26-Aug-20:  End Time 
 FLOI.gpm               550.00:  Flow In 
 FLON.gpm               400.00:  Flow In Min 
 FLOS.cptm                1.00:  Fluid Loss 
 FLOX.gpm               600.00:  Flow In Max 
 FTRO.       Formation Presure:  FTWD Run Obj 
 HFLO.                      No:  High Flow 
 HPRE.                      No:  High Pressure 
 HTEM.                      No:  High Temp 
 HYDO.m                   1.80:  Hydro Offset 
 IFIN.deg                66.72:  Inc, Final 
 IMAX.deg                67.42:  Inc Max 
 IMIN.deg                66.72:  Inc Min 
 IMND.m                4408.37:  Inc Min Depth 
 IMXD.m                4323.37:  Inc Max Depth 
 JARR.                      No:  Jarring 
 LETM.      23.50.00 24-Aug-20:  Log End Time 
 LOST.hr                     0:  Lost Rig Time 
 LSTM.      07.34.24 22-Aug-20:  Log Start Time 
 MDCL.ppm             38000.00:  Mud Chlorides 
 MDES.     Inversion Oil/Synthetic:  Mud Desc 
 DFD .sg                  1.40:  Mud Density 
 MDMN.sg                  1.38:  Dens Mud Min 
 MDMX.sg                  1.41:  Dens Mud Max 
 MOIL.                    70.5:  Run Mud Oil % 
 MOWR.                   68:32:  Run Mud OWR 
 MSND.                    0.01:  Run Mud Sand % 
 MSOL.                   17.68:  Run Mud Solids% 
 DFV .spqt               77.00:  Mud Viscosity 
 MWOD.in                  6.75:  MWD Tool OD 
 MWSI.                      No:  Serv Intrp, MWD 
 OTIM.hr                159.42:  Time Operating 
 PCON.           Look Like New:  Pad Condition 
 PMAX.psia             8730.94:  Press Op, Max 
 PV  .cP                 31.00:  Mud PV 
 RUN .                     900:  Run Number 
 ROPA.m/hr               12.00:  ROP Avg 
 ROPN.m/hr                7.00:  ROP Min 
 ROPX.m/hr               17.00:  ROP Max 
 RPMA.rpm               120.00:  RPM Surface Avg 
 RPMN.rpm                60.00:  RPM Surface Min 
 RPMX.rpm               140.00:  RPM Surface Max 
 RRUN.                    L604:  Rig Run Number 
 RTIM.hr                 10.00:  Time Reaming 
 SAZI.deg               270.56:  Azm, Start 
 SDEP.m                4314.01:  Start Depth 
 SIDD.                      No:  Serv Intrp, DD 
 SINC.deg                67.42:  Inc, Start 
 SPPA.psig             3300.00:  SPP Avg 
 SPPN.psig             1750.00:  SPP Min 
 SPPX.psig             4630.00:  SPP Max 
 STIM.      11.00.00 21-Aug-20:  Start Time 
 SVCS.                 DD, MWD:  Services 
 SVER.                    9.20:  Sperry Version 
 TDAT.m                4461.01:  Tot Depth Attmp 
 TDDF.                      No:  Trip for DD 
 TDLG.m                 147.00:  Tot Depth Loggd 
 TFF .                      No:  Trip for Fail 
 TQAA.f-kp               16.00:  Torque Abs Avg 
 TQAN.f-kp               14.00:  Torque Abs Min 
 TQAX.f-kp               20.00:  Torque Abs Max 
 TRRT.°/30m              -0.14:  Turn Rotating 
 MRT .                    HCIM:  Maximum Recorded Temperature 
 TTMX.degC               78.00:  Max Tool Temp 
 VS01.                90515425:  Virtual Str1 SN 
 VS02.                90545184:  Virtual Str2 SN 
 VS03.                90527809:  Virtual Str3 SN 
 VS04.                90515232:  Virtual Str4 SN 
 VS05.                90621207:  Virtual Str5 SN 
 VS06.                90619737:  Virtual Str6 SN 
 WBMN.klb                 2.00:  WOB Min 
 WITN.          Keith Dischler:  Customer Rep 
 WITN.           Faig Mammadov:  Customer Rep 2 
 WOBA.klb                 5.00:  WOB Avg 
 WOBX.klb                 8.00:  WOB Max 
 YP  .lhf2               32.00:  Yield Point 
~Curve Information Block
#MNEM.UNIT                 API CODE     Curve Description
#---------               -----------    ---------------------------
 TIME.HHMMSS            00 000 000 000:  GT Time & Date
 GTET.sec               00 000 000 000:  GT Elapsed Test Time
 GTPQH.psia             00 000 000 000:  GT HR Quartz Pressure
 GTDEPTH.m              00 000 000 000:  GT Depth
 GTTVD.m                00 000 000 000:  GT True Vertical Depth
 GTTQ.degC              00 000 000 000:  GT Quartz Temperature
 GTTN.NONE              00 000 000 000:  GT Test Number
#Other Information
#
#WARRANTY: Halliburton will use its best efforts to furnish customers with 
#accurate information and interpretations that are part of, and incident to, the services 
#provided.  However, Halliburton cannot and does not warrant the accuracy 
#or correctness of such information and interpretations.  Under no circumstances should any 
#such information or interpretation be relied upon as the sole basis for any drilling, 
#completion, production, or financial decision or any procedure involving any risk to the 
#safety of any drilling venture, drilling rig or its crew or any other third party.  The 
#Customer has full responsibility for all drilling, completion and production operation.  
#Halliburton makes no representations or warranties, either expressed or 
#implied, including, but not limited to, the implied warranties of merchantability or fitness 
#for a particular purpose, with respect to the services rendered.  In no event will 
#Halliburton be liable for failure to obtain any particular results or for 
#any damages, including, but not limited to, indirect, special or consequential damages, 
#resulting from the use of any information or interpretation provided by Halliburton.
#
~A           TIME            GTET   GTPQH  GTDEPTH  GTTVD  GTTQ  GTTN 
# ...
   06:17:41.000.25-Aug-2020 299.00 4801.46 4397.01 2075.58 73.33 2.00
   06:17:41.200.25-Aug-2020 299.20 4805.99 4397.01 2075.58 73.33 2.00
   06:17:41.400.25-Aug-2020 299.40 4811.34 4397.01 2075.58 73.33 2.00
   06:17:41.600.25-Aug-2020 299.60 4804.62 4397.01 2075.58 73.33 2.00
   06:17:41.800.25-Aug-2020 299.80 4802.13 4397.01 2075.58 73.33 2.00
   06:17:42.000.25-Aug-2020 300.00 4801.63 4397.01 2075.58 73.33 2.00
   06:17:42.200.25-Aug-2020 300.20 4801.63 4397.01 2075.58 73.33 2.00
   06:17:42.400.25-Aug-2020 300.40 4807.13 4397.01 2075.58 73.33 2.00
   06:17:42.600.25-Aug-2020 300.60 4811.84 4397.01 2075.58 73.33 2.00
   06:17:42.800.25-Aug-2020 300.80 4805.56 4397.01 2075.58 73.33 2.00
   06:17:43.000.25-Aug-2020 301.00 4803.59 4397.01 2075.58 73.33 2.00
   06:17:43.200.25-Aug-2020 301.20 4803.59 4397.01 2075.58 73.33 2.00
   06:17:43.400.25-Aug-2020 301.40 4803.26 4397.01 2075.58 73.33 2.00
   06:17:43.600.25-Aug-2020 301.60 4812.77 4397.01 2075.58 73.33 2.00
   06:17:43.800.25-Aug-2020 301.80 4810.08 4397.01 2075.58 73.33 2.00
   06:17:44.000.25-Aug-2020 302.00 4803.68 4397.01 2075.58 73.33 2.00
   06:17:44.200.25-Aug-2020 302.20 4803.68 4397.01 2075.58 73.33 2.00
   06:17:44.400.25-Aug-2020 302.40 4803.29 4397.01 2075.58 73.33 2.00
   06:17:44.600.25-Aug-2020 302.60 4802.05 4397.01 2075.58 73.33 2.00
   06:17:44.800.25-Aug-2020 302.80 4801.96 4397.01 2075.58 73.33 2.00
   06:17:45.000.25-Aug-2020 303.00 4811.65 4397.01 2075.58 73.33 2.00
   06:17:45.200.25-Aug-2020 303.20 4803.93 4397.01 2075.58 73.33 2.00
   06:17:45.400.25-Aug-2020 303.40 4808.48 4397.01 2075.58 73.33 2.00
   06:17:45.600.25-Aug-2020 303.60 4804.67 4397.01 2075.58 73.33 2.00
   06:17:45.800.25-Aug-2020 303.80 4802.32 4397.01 2075.58 73.33 2.00
   06:17:46.000.25-Aug-2020 304.00 4801.31 4397.01 2075.58 73.33 2.00
   06:17:46.200.25-Aug-2020 304.20 4801.31 4397.01 2075.58 73.33 2.00
   06:17:46.400.25-Aug-2020 304.40 4802.82 4397.01 2075.58 73.33 2.00
   06:17:46.600.25-Aug-2020 304.60 4802.99 4397.01 2075.58 73.33 2.00
   06:17:46.800.25-Aug-2020 304.80 4803.23 4397.01 2075.58 73.33 2.00
   06:17:47.000.25-Aug-2020 305.00 4803.14 4397.01 2075.58 73.33 2.00
   06:17:47.200.25-Aug-2020 305.20 4803.14 4397.01 2075.58 73.33 2.00
   06:17:47.400.25-Aug-2020 305.40 4802.97 4397.01 2075.58 73.33 2.00
   06:17:47.600.25-Aug-2020 305.60 4802.72 4397.01 2075.58 73.33 2.00
   06:17:47.800.25-Aug-2020 305.80 4802.82 4397.01 2075.58 73.33 2.00
   06:17:48.000.25-Aug-2020 306.00 4801.95 4397.01 2075.58 73.33 2.00
   06:17:48.200.25-Aug-2020 306.20 4801.95 4397.01 2075.58 73.33 2.00
   06:17:48.400.25-Aug-2020 306.40 4802.62 4397.01 2075.58 73.33 2.00
   06:17:48.600.25-Aug-2020 306.60 4804.02 4397.01 2075.58 73.33 2.00
   06:17:48.800.25-Aug-2020 306.80 4806.91 4397.01 2075.58 73.33 2.00
   06:17:49.000.25-Aug-2020 307.00 4810.57 4397.01 2075.58 73.33 2.00
   06:17:49.200.25-Aug-2020 307.20 4802.32 4397.01 2075.58 73.33 2.00
   06:17:49.400.25-Aug-2020 307.40 4801.08 4397.01 2075.58 73.33 2.00
   06:17:49.600.25-Aug-2020 307.60 4802.16 4397.01 2075.58 73.33 2.00
   06:17:49.800.25-Aug-2020 307.80 4802.35 4397.01 2075.58 73.33 2.00
   06:17:50.000.25-Aug-2020 308.00 4801.87 4397.01 2075.58 73.33 2.00
   06:17:50.200.25-Aug-2020 308.20 4801.87 4397.01 2075.58 73.33 2.00
   06:17:50.400.25-Aug-2020 308.40 4800.99 4397.01 2075.58 73.33 2.00
   06:17:50.600.25-Aug-2020 308.60 4801.79 4397.01 2075.58 73.33 2.00
   06:17:50.800.25-Aug-2020 308.80 4803.00 4397.01 2075.58 73.33 2.00
   06:17:51.000.25-Aug-2020 309.00 4803.01 4397.01 2075.58 73.33 2.00
   06:17:51.200.25-Aug-2020 309.20 4803.01 4397.01 2075.58 73.33 2.00
   06:17:51.400.25-Aug-2020 309.40 4801.69 4397.01 2075.58 73.33 2.00
   06:17:51.600.25-Aug-2020 309.60 4800.71 4397.01 2075.58 73.33 2.00
   06:17:51.800.25-Aug-2020 309.80 4800.47 4397.01 2075.58 73.33 2.00
   06:17:52.000.25-Aug-2020 310.00 4803.26 4397.01 2075.58 73.33 2.00
   06:17:52.200.25-Aug-2020 310.20 4803.26 4397.01 2075.58 73.33 2.00
   06:17:52.400.25-Aug-2020 310.40 4811.29 4397.01 2075.58 73.33 2.00
   06:17:52.600.25-Aug-2020 310.60 4803.12 4397.01 2075.58 73.33 2.00
   06:17:52.800.25-Aug-2020 310.80 4801.07 4397.01 2075.58 73.33 2.00
   06:17:53.000.25-Aug-2020 311.00 4801.08 4397.01 2075.58 73.33 2.00
   06:17:53.200.25-Aug-2020 311.20 4809.44 4397.01 2075.58 73.33 2.00
   06:17:53.400.25-Aug-2020 311.40 4802.69 4397.01 2075.58 73.33 2.00
   06:17:53.600.25-Aug-2020 311.60 4808.52 4397.01 2075.58 73.33 2.00
   06:17:53.800.25-Aug-2020 311.80 4805.36 4397.01 2075.58 73.33 2.00
   06:17:54.000.25-Aug-2020 312.00 4802.59 4397.01 2075.58 73.33 2.00
   06:17:54.200.25-Aug-2020 312.20 4802.59 4397.01 2075.58 73.33 2.00
   06:17:54.400.25-Aug-2020 312.40 4801.18 4397.01 2075.58 73.33 2.00
   06:17:54.600.25-Aug-2020 312.60 4801.23 4397.01 2075.58 73.33 2.00
   06:17:54.800.25-Aug-2020 312.80 4815.18 4397.01 2075.58 73.33 2.00
   06:17:55.000.25-Aug-2020 313.00 4803.61 4397.01 2075.58 73.33 2.00
   06:17:55.200.25-Aug-2020 313.20 4803.61 4397.01 2075.58 73.33 2.00
   06:17:55.400.25-Aug-2020 313.40 4804.41 4397.01 2075.58 73.33 2.00
   06:17:55.600.25-Aug-2020 313.60 4803.01 4397.01 2075.58 73.33 2.00
   06:17:55.800.25-Aug-2020 313.80 4802.01 4397.01 2075.58 73.33 2.00
   06:17:56.000.25-Aug-2020 314.00 4812.28 4397.01 2075.58 73.33 2.00
   06:17:56.200.25-Aug-2020 314.20 4812.28 4397.01 2075.58 73.33 2.00
   06:17:56.400.25-Aug-2020 314.40 4803.20 4397.01 2075.58 73.33 2.00
   06:17:56.600.25-Aug-2020 314.60 4803.26 4397.01 2075.58 73.33 2.00
   06:17:56.800.25-Aug-2020 314.80 4802.17 4397.01 2075.58 73.33 2.00
   06:17:57.000.25-Aug-2020 315.00 4802.31 4397.01 2075.58 73.33 2.00
   06:17:57.200.25-Aug-2020 315.20 4802.69 4397.01 2075.58 73.33 2.00
   06:17:57.400.25-Aug-2020 315.40 4811.80 4397.01 2075.58 73.33 2.00
   06:17:57.600.25-Aug-2020 315.60 4803.44 4397.01 2075.58 73.33 2.00
   06:17:57.800.25-Aug-2020 315.80 4807.83 4397.01 2075.58 73.33 2.00
   06:17:58.000.25-Aug-2020 316.00 4804.54 4397.01 2075.58 73.33 2.00
   06:17:58.200.25-Aug-2020 316.20 4804.54 4397.01 2075.58 73.33 2.00
   06:17:58.400.25-Aug-2020 316.40 4802.24 4397.01 2075.58 73.33 2.00
   06:17:58.600.25-Aug-2020 316.60 4803.35 4397.01 2075.58 73.33 2.00
   06:17:58.800.25-Aug-2020 316.80 4803.11 4397.01 2075.58 73.33 2.00
   06:17:59.000.25-Aug-2020 317.00 4803.23 4397.01 2075.58 73.33 2.00
   06:17:59.200.25-Aug-2020 317.20 4803.23 4397.01 2075.58 73.33 2.00
   06:17:59.400.25-Aug-2020 317.40 4803.26 4397.01 2075.58 73.33 2.00
   06:17:59.600.25-Aug-2020 317.60 4802.95 4397.01 2075.58 73.33 2.00
   06:17:59.800.25-Aug-2020 317.80 4802.95 4397.01 2075.58 73.33 2.00
   06:18:00.000.25-Aug-2020 318.00 4803.11 4397.01 2075.58 73.33 2.00
   06:18:00.200.25-Aug-2020 318.20 4803.11 4397.01 2075.58 73.33 2.00
   06:18:00.400.25-Aug-2020 318.40 4802.18 4397.01 2075.58 73.33 2.00
   06:18:00.600.25-Aug-2020 318.60 4802.71 4397.01 2075.58 73.33 2.00
   06:18:00.800.25-Aug-2020 318.80 4802.29 4397.01 2075.58 73.33 2.00
   06:18:01.000.25-Aug-2020 319.00 4803.55 4397.01 2075.58 73.33 2.00
   06:18:01.200.25-Aug-2020 319.20 4806.28 4397.01 2075.58 73.33 2.00
   06:18:01.400.25-Aug-2020 319.40 4808.83 4397.01 2075.58 73.33 2.00
   06:18:01.600.25-Aug-2020 319.60 4803.16 4397.01 2075.58 73.33 2.00
   06:18:01.800.25-Aug-2020 319.80 4802.04 4397.01 2075.58 73.33 2.00
   06:18:02.000.25-Aug-2020 320.00 4802.09 4397.01 2075.58 73.33 2.00
   06:18:02.200.25-Aug-2020 320.20 4802.09 4397.01 2075.58 73.33 2.00
   06:18:02.400.25-Aug-2020 320.40 4800.55 4397.01 2075.58 73.33 2.00
   06:18:02.600.25-Aug-2020 320.60 4800.89 4397.01 2075.58 73.33 2.00
   06:18:02.800.25-Aug-2020 320.80 4800.70 4397.01 2075.58 73.33 2.00
   06:18:03.000.25-Aug-2020 321.00 4800.77 4397.01 2075.58 73.33 2.00
   06:18:03.200.25-Aug-2020 321.20 4800.77 4397.01 2075.58 73.33 2.00
   06:18:03.400.25-Aug-2020 321.40 4802.45 4397.01 2075.58 73.33 2.00
   06:18:03.600.25-Aug-2020 321.60 4801.83 4397.01 2075.58 73.33 2.00
   06:18:03.800.25-Aug-2020 321.80 4801.55 4397.01 2075.58 73.33 2.00
