~Version Information
 VERS.                  2.0:   CWLS log ASCII Standard -VERSION 2.0
 WRAP.                   NO:   One line per depth step
~Well Information Block
#MNEM.UNIT     VALUE/NAME     DESCRIPTION
#---------     -----------    ---------------------------
 STRT.S             12:03:19 25-Aug-20: START TIME 12:03:19 25-Aug-20
 STOP.S             12:10:17 25-Aug-20: STOP TIME  12:10:17 25-Aug-20
 STEP.S                   0.00: STEP TIME
 NULL.                 -999.25: NULL VALUE
 DFWT.                        :  DIST FWL TEXT
 DFST.                        :  DIST FSL TEXT
 DMF .             Drill Floor:  DRILL MEAS FROM
 STIM.      09.59.28 01-Jun-20:  START TIME
 DATE.      05.00.00 28-Aug-20:  END TIME
 SPUD.               01-Jun-20:  SPUD DATE
 NREF.                    Grid:  NORTH REFERENCE
 HPTY.       Minimum Curvature:  HOLE POS TYPE
 DMOD.             Drill Model:  DRILL MOD DESC
 SVYD.                  Survey:  SURVEY DESC
 ILTD.               Lithology:  INTERP LTH DESC
 FTOP.          Formation Tops:  FORM TOPS DESC
 SON .        AZ-XX-0905455768:  JOB NUMBER
 WTYP.                Deviated:  WELL TYPE
 COMP.     BP Exploration(Caspian Sea):  COMPANY
 BASE.              Azerbaijan:  LOGGING EQUIPMENT BASE LOCATION
 REGN.                   EESSA:  REGION
 CTRY.              Azerbaijan:  COUNTRY NAME
 FLD .                     ACG:  FIELD NAME
 SRVC.          Turan Drilling:  CONTRACTOR
 WELL.                     B41:  WELL NAME
 RIG .           Central Azeri:  RIG NAME
 DCON.         Sperry Drilling:  DIRECTNL CONTR
 PDAT.          Mean Sea Level:  PERMANENT DATUM
 MDS .        Operator Entered:  MAG DATA SOURCE
 API .                        :  API NUMBER
 CNTY.                        :  COUNTY
 PROV.                        :  PROVINCE
 STAT.                        :  STATE
 UWI .                        :  UNIQUE WELL IDENTIFIER
 LOC .                        :  LOCATION
 LMF .             Drill Floor:  LOG MEASURED FROM
 TVDS.m                  43.29:  TVDSS CORRECTN
 LATI.deg                40.03:  LATITUDE
 LONG.deg                51.35:  LONGITUDE
 WHNS.m                  12.98:  WELL HEAD N/S
 WHEW.m                  -6.62:  WELL HEAD E/W
 UTMX.m              530128.28:  UTM X
 UTMY.m             4433192.49:  UTM Y
 DFWL.m                   0.00:  DISTANCE FWL
 DFSL.m                   0.00:  DISTANCE FSL
 SDEP.m                 378.00:  START DEPTH
 TDD .m                4463.01:  TOTAL DEPTH (DRILLER)
 VSDR.deg               296.18:  VERT SEC DIRECT
 GVFD.g                   1.00:  GRAVITY FIELD
 MFLD.nT              50269.00:  MAGNETIC FIELD
 MDIP.deg                59.50:  MAGNETIC DIP
 MDEC.deg                 6.44:  MAGNETIC DECL
 GRDC.deg                 0.20:  GRID CORRECTION
 AZTC.deg                 6.24:  AZM TOTAL CORR
 EPD .m                   0.00:  ELEVATION
 EGL .m                   0.00:  GROUND ELEVATION
 WDMS.m                 128.20:  WD ELEV
 APD .m                  43.29:  DEPTH ABOVE PD
 AGAP.m                  43.29:  AIR GAP
 VSEW.m                  -6.62:  VERT SEC E/W
 VSNS.m                  12.98:  VERT SEC N/S
 EKB .m                  43.29:  KB ELEVATION
 EDF .m                  43.29:  DF ELEVATION
 TDL .m                 147.00:  TOTAL DEPTH (LOGGER)
 VSC .                       0:  VS TO CLOSURE
 MAGU.                 1849241:  MAGUTM CHECKSUM
~Parameter Information Block
#MNEM.UNIT       Value        Description
#---------     -----------    ---------------------------
 AV  .mps                 0.70:  Ann Velocity 
 AZIF.deg               269.43:  Azm, Final 
 BHAT.        Rotary Steerable:  BHA Type 
 BROT.°/30m              -0.03:  Build Rotating 
 BS  .in                  8.50:  Bit Size 
 BSZ .in                  8.50:  Bit Size 
 BTPL.psig              880.00:  Bit Press Loss 
 CABU.                      No:  Customer Abuse 
 CGEO.          Parviz Guliyev:  Customer Geo 
 COMM.                     DVX:  Run Comments 1 
 TCS .hr                 64.59:  Time Ciculation Ended 
 CV  .mps                 2.17:  Crit Velocity 
 DD1 .            Nonso Okafor:  Direct Drillr 1 
 DDSV.               Geo-Pilot:  DD Service 
 DEFF.%                  98.00:  % Det Eff 
 DLRX.°/30m               0.81:  Dogleg Rot Max 
 DLSO.°/30m               0.55:  Dogleg Oriented 
 DLSX.°/30m               0.81:  Dogleg Str Max 
 DRET.      23.50.00 24-Aug-20:  Drill End Time 
 DRST.      07.34.24 22-Aug-20:  Drill Start Tim 
 DTIM.hr                 15.29:  Time Drilling 
 EDEP.m                4461.01:  End Depth 
 ENG1.       Zam Abdullah Sani:  Engineer 1 
 ENG2.         Dair Mahammadov:  Engineer 2 
 ENG3.          Rustam Gadirov:  Engineer 3 
 ETIM.      07.34.24 26-Aug-20:  End Time 
 FLOI.gpm               550.00:  Flow In 
 FLON.gpm               400.00:  Flow In Min 
 FLOS.cptm                1.00:  Fluid Loss 
 FLOX.gpm               600.00:  Flow In Max 
 FTRO.       Formation Presure:  FTWD Run Obj 
 HFLO.                      No:  High Flow 
 HPRE.                      No:  High Pressure 
 HTEM.                      No:  High Temp 
 HYDO.m                   1.80:  Hydro Offset 
 IFIN.deg                66.72:  Inc, Final 
 IMAX.deg                67.42:  Inc Max 
 IMIN.deg                66.72:  Inc Min 
 IMND.m                4408.37:  Inc Min Depth 
 IMXD.m                4323.37:  Inc Max Depth 
 JARR.                      No:  Jarring 
 LETM.      23.50.00 24-Aug-20:  Log End Time 
 LOST.hr                     0:  Lost Rig Time 
 LSTM.      07.34.24 22-Aug-20:  Log Start Time 
 MDCL.ppm             38000.00:  Mud Chlorides 
 MDES.     Inversion Oil/Synthetic:  Mud Desc 
 DFD .sg                  1.40:  Mud Density 
 MDMN.sg                  1.38:  Dens Mud Min 
 MDMX.sg                  1.41:  Dens Mud Max 
 MOIL.                    70.5:  Run Mud Oil % 
 MOWR.                   68:32:  Run Mud OWR 
 MSND.                    0.01:  Run Mud Sand % 
 MSOL.                   17.68:  Run Mud Solids% 
 DFV .spqt               77.00:  Mud Viscosity 
 MWOD.in                  6.75:  MWD Tool OD 
 MWSI.                      No:  Serv Intrp, MWD 
 OTIM.hr                159.42:  Time Operating 
 PCON.           Look Like New:  Pad Condition 
 PMAX.psia             8730.94:  Press Op, Max 
 PV  .cP                 31.00:  Mud PV 
 RUN .                     900:  Run Number 
 ROPA.m/hr               12.00:  ROP Avg 
 ROPN.m/hr                7.00:  ROP Min 
 ROPX.m/hr               17.00:  ROP Max 
 RPMA.rpm               120.00:  RPM Surface Avg 
 RPMN.rpm                60.00:  RPM Surface Min 
 RPMX.rpm               140.00:  RPM Surface Max 
 RRUN.                    L604:  Rig Run Number 
 RTIM.hr                 10.00:  Time Reaming 
 SAZI.deg               270.56:  Azm, Start 
 SDEP.m                4314.01:  Start Depth 
 SIDD.                      No:  Serv Intrp, DD 
 SINC.deg                67.42:  Inc, Start 
 SPPA.psig             3300.00:  SPP Avg 
 SPPN.psig             1750.00:  SPP Min 
 SPPX.psig             4630.00:  SPP Max 
 STIM.      11.00.00 21-Aug-20:  Start Time 
 SVCS.                 DD, MWD:  Services 
 SVER.                    9.20:  Sperry Version 
 TDAT.m                4461.01:  Tot Depth Attmp 
 TDDF.                      No:  Trip for DD 
 TDLG.m                 147.00:  Tot Depth Loggd 
 TFF .                      No:  Trip for Fail 
 TQAA.f-kp               16.00:  Torque Abs Avg 
 TQAN.f-kp               14.00:  Torque Abs Min 
 TQAX.f-kp               20.00:  Torque Abs Max 
 TRRT.°/30m              -0.14:  Turn Rotating 
 MRT .                    HCIM:  Maximum Recorded Temperature 
 TTMX.degC               78.00:  Max Tool Temp 
 VS01.                90515425:  Virtual Str1 SN 
 VS02.                90545184:  Virtual Str2 SN 
 VS03.                90527809:  Virtual Str3 SN 
 VS04.                90515232:  Virtual Str4 SN 
 VS05.                90621207:  Virtual Str5 SN 
 VS06.                90619737:  Virtual Str6 SN 
 WBMN.klb                 2.00:  WOB Min 
 WITN.          Keith Dischler:  Customer Rep 
 WITN.           Faig Mammadov:  Customer Rep 2 
 WOBA.klb                 5.00:  WOB Avg 
 WOBX.klb                 8.00:  WOB Max 
 YP  .lhf2               32.00:  Yield Point 
~Curve Information Block
#MNEM.UNIT                 API CODE     Curve Description
#---------               -----------    ---------------------------
 TIME.HHMMSS            00 000 000 000:  GT Time & Date
 GTET.sec               00 000 000 000:  GT Elapsed Test Time
 GTPQH.psia             00 000 000 000:  GT HR Quartz Pressure
 GTDEPTH.m              00 000 000 000:  GT Depth
 GTTVD.m                00 000 000 000:  GT True Vertical Depth
 GTTQ.degC              00 000 000 000:  GT Quartz Temperature
 GTTN.NONE              00 000 000 000:  GT Test Number
#Other Information
#
#WARRANTY: Halliburton will use its best efforts to furnish customers with 
#accurate information and interpretations that are part of, and incident to, the services 
#provided.  However, Halliburton cannot and does not warrant the accuracy 
#or correctness of such information and interpretations.  Under no circumstances should any 
#such information or interpretation be relied upon as the sole basis for any drilling, 
#completion, production, or financial decision or any procedure involving any risk to the 
#safety of any drilling venture, drilling rig or its crew or any other third party.  The 
#Customer has full responsibility for all drilling, completion and production operation.  
#Halliburton makes no representations or warranties, either expressed or 
#implied, including, but not limited to, the implied warranties of merchantability or fitness 
#for a particular purpose, with respect to the services rendered.  In no event will 
#Halliburton be liable for failure to obtain any particular results or for 
#any damages, including, but not limited to, indirect, special or consequential damages, 
#resulting from the use of any information or interpretation provided by Halliburton.
#
~A           TIME            GTET   GTPQH  GTDEPTH  GTTVD  GTTQ  GTTN  
# ...
   12:04:04.200.25-Aug-2020  45.20 2189.76 4311.51 2042.13 71.64 11.00
   12:04:04.400.25-Aug-2020  45.40 1294.71 4311.51 2042.13 71.64 11.00
   12:04:04.600.25-Aug-2020  45.60  567.28 4311.51 2042.13 71.64 11.00
   12:04:04.800.25-Aug-2020  45.80  223.77 4311.51 2042.13 71.64 11.00
   12:04:05.000.25-Aug-2020  46.00  236.11 4311.51 2042.13 71.64 11.00
   12:04:05.200.25-Aug-2020  46.20  248.28 4311.51 2042.13 71.64 11.00
   12:04:05.400.25-Aug-2020  46.40  251.82 4311.51 2042.13 71.64 11.00
   12:04:05.600.25-Aug-2020  46.60  251.00 4311.51 2042.13 71.63 11.00
   12:04:05.800.25-Aug-2020  46.80  248.49 4311.51 2042.13 71.63 11.00
   12:04:06.000.25-Aug-2020  47.00  244.18 4311.51 2042.13 71.63 11.00
   12:04:06.200.25-Aug-2020  47.20  244.18 4311.51 2042.13 71.63 11.00
   12:04:06.400.25-Aug-2020  47.40  234.22 4311.51 2042.13 71.62 11.00
   12:04:06.600.25-Aug-2020  47.60  229.26 4311.51 2042.13 71.62 11.00
   12:04:06.800.25-Aug-2020  47.80  224.06 4311.51 2042.13 71.61 11.00
   12:04:07.000.25-Aug-2020  48.00  218.68 4311.51 2042.13 71.61 11.00
   12:04:07.200.25-Aug-2020  48.20  218.68 4311.51 2042.13 71.61 11.00
   12:04:07.400.25-Aug-2020  48.40  208.19 4311.51 2042.13 71.60 11.00
   12:04:07.600.25-Aug-2020  48.60  203.18 4311.51 2042.13 71.60 11.00
   12:04:07.800.25-Aug-2020  48.80  198.49 4311.51 2042.13 71.60 11.00
   12:04:08.000.25-Aug-2020  49.00  193.73 4311.51 2042.13 71.59 11.00
   12:04:08.200.25-Aug-2020  49.20  189.04 4311.51 2042.13 71.59 11.00
   12:04:08.400.25-Aug-2020  49.40  184.53 4311.51 2042.13 71.59 11.00
   12:04:08.600.25-Aug-2020  49.60  180.10 4311.51 2042.13 71.58 11.00
   12:04:08.800.25-Aug-2020  49.80  175.84 4311.51 2042.13 71.58 11.00
   12:04:09.000.25-Aug-2020  50.00  171.82 4311.51 2042.13 71.58 11.00
   12:04:09.200.25-Aug-2020  50.20  167.93 4311.51 2042.13 71.57 11.00
   12:04:09.400.25-Aug-2020  50.40  164.16 4311.51 2042.13 71.57 11.00
   12:04:09.600.25-Aug-2020  50.60  160.58 4311.51 2042.13 71.57 11.00
   12:04:09.800.25-Aug-2020  50.80  157.27 4311.51 2042.13 71.56 11.00
   12:04:10.000.25-Aug-2020  51.00  154.16 4311.51 2042.13 71.56 11.00
   12:04:10.200.25-Aug-2020  51.20  154.16 4311.51 2042.13 71.56 11.00
   12:04:10.400.25-Aug-2020  51.40  148.32 4311.51 2042.13 71.56 11.00
   12:04:10.600.25-Aug-2020  51.60  145.66 4311.51 2042.13 71.55 11.00
   12:04:10.800.25-Aug-2020  51.80  143.07 4311.51 2042.13 71.55 11.00
   12:04:11.000.25-Aug-2020  52.00  140.62 4311.51 2042.13 71.55 11.00
   12:04:11.200.25-Aug-2020  52.20  140.62 4311.51 2042.13 71.55 11.00
   12:04:11.400.25-Aug-2020  52.40  136.25 4311.51 2042.13 71.55 11.00
   12:04:11.600.25-Aug-2020  52.60  134.23 4311.51 2042.13 71.54 11.00
   12:04:11.800.25-Aug-2020  52.80  132.35 4311.51 2042.13 71.54 11.00
   12:04:12.000.25-Aug-2020  53.00  130.52 4311.51 2042.13 71.54 11.00
   12:04:12.200.25-Aug-2020  53.20  128.72 4311.51 2042.13 71.54 11.00
   12:04:12.400.25-Aug-2020  53.40  126.96 4311.51 2042.13 71.54 11.00
   12:04:12.600.25-Aug-2020  53.60  125.20 4311.51 2042.13 71.53 11.00
   12:04:12.800.25-Aug-2020  53.80  123.48 4311.51 2042.13 71.53 11.00
   12:04:13.000.25-Aug-2020  54.00  121.80 4311.51 2042.13 71.53 11.00
   12:04:13.200.25-Aug-2020  54.20  121.80 4311.51 2042.13 71.53 11.00
   12:04:13.400.25-Aug-2020  54.40  118.57 4311.51 2042.13 71.53 11.00
   12:04:13.600.25-Aug-2020  54.60  117.04 4311.51 2042.13 71.53 11.00
   12:04:13.800.25-Aug-2020  54.80  117.26 4311.51 2042.13 71.53 11.00
   12:04:14.000.25-Aug-2020  55.00  118.39 4311.51 2042.13 71.53 11.00
   12:04:14.200.25-Aug-2020  55.20  119.43 4311.51 2042.13 71.52 11.00
   12:04:14.400.25-Aug-2020  55.40  120.33 4311.51 2042.13 71.52 11.00
   12:04:14.600.25-Aug-2020  55.60  121.29 4311.51 2042.13 71.52 11.00
   12:04:14.800.25-Aug-2020  55.80  122.10 4311.51 2042.13 71.52 11.00
   12:04:15.000.25-Aug-2020  56.00  122.91 4311.51 2042.13 71.52 11.00
   12:04:15.200.25-Aug-2020  56.20  123.65 4311.51 2042.13 71.52 11.00
   12:04:15.400.25-Aug-2020  56.40  124.33 4311.51 2042.13 71.52 11.00
   12:04:15.600.25-Aug-2020  56.60  124.88 4311.51 2042.13 71.52 11.00
   12:04:15.800.25-Aug-2020  56.80  125.46 4311.51 2042.13 71.52 11.00
   12:04:16.000.25-Aug-2020  57.00  126.16 4311.51 2042.13 71.52 11.00
   12:04:16.200.25-Aug-2020  57.20  126.75 4311.51 2042.13 71.52 11.00
   12:04:16.400.25-Aug-2020  57.40  127.30 4311.51 2042.13 71.52 11.00
   12:04:16.600.25-Aug-2020  57.60  127.82 4311.51 2042.13 71.52 11.00
   12:04:16.800.25-Aug-2020  57.80  128.35 4311.51 2042.13 71.52 11.00
   12:04:17.000.25-Aug-2020  58.00  128.81 4311.51 2042.13 71.52 11.00
   12:04:17.200.25-Aug-2020  58.20  129.24 4311.51 2042.13 71.52 11.00
   12:04:17.400.25-Aug-2020  58.40  129.76 4311.51 2042.13 71.52 11.00
   12:04:17.600.25-Aug-2020  58.60  130.31 4311.51 2042.13 71.52 11.00
   12:04:17.800.25-Aug-2020  58.80  130.81 4311.51 2042.13 71.52 11.00
   12:04:18.000.25-Aug-2020  59.00  131.28 4311.51 2042.13 71.52 11.00
   12:04:18.200.25-Aug-2020  59.20  131.28 4311.51 2042.13 71.52 11.00
   12:04:18.400.25-Aug-2020  59.40  132.04 4311.51 2042.13 71.52 11.00
   12:04:18.600.25-Aug-2020  59.60  132.59 4311.51 2042.13 71.52 11.00
   12:04:18.800.25-Aug-2020  59.80  133.09 4311.51 2042.13 71.52 11.00
   12:04:19.000.25-Aug-2020  60.00  133.52 4311.51 2042.13 71.51 11.00
   12:04:19.200.25-Aug-2020  60.20  133.52 4311.51 2042.13 71.51 11.00
   12:04:19.400.25-Aug-2020  60.40  134.31 4311.51 2042.13 71.52 11.00
   12:04:19.600.25-Aug-2020  60.60  134.63 4311.51 2042.13 71.51 11.00
   12:04:19.800.25-Aug-2020  60.80  135.05 4311.51 2042.13 71.52 11.00
   12:04:20.000.25-Aug-2020  61.00  135.52 4311.51 2042.13 71.52 11.00
   12:04:20.200.25-Aug-2020  61.20  135.94 4311.51 2042.13 71.52 11.00
   12:04:20.400.25-Aug-2020  61.40  136.31 4311.51 2042.13 71.52 11.00
   12:04:20.600.25-Aug-2020  61.60  136.67 4311.51 2042.13 71.52 11.00
   12:04:20.800.25-Aug-2020  61.80  137.03 4311.51 2042.13 71.52 11.00
   12:04:21.000.25-Aug-2020  62.00  137.38 4311.51 2042.13 71.52 11.00
   12:04:21.200.25-Aug-2020  62.20  137.73 4311.51 2042.13 71.52 11.00
   12:04:21.400.25-Aug-2020  62.40  138.07 4311.51 2042.13 71.52 11.00
   12:04:21.600.25-Aug-2020  62.60  138.41 4311.51 2042.13 71.52 11.00
   12:04:21.800.25-Aug-2020  62.80  138.74 4311.51 2042.13 71.52 11.00
   12:04:22.000.25-Aug-2020  63.00  139.06 4311.51 2042.13 71.52 11.00
   12:04:22.200.25-Aug-2020  63.20  139.06 4311.51 2042.13 71.52 11.00
   12:04:22.400.25-Aug-2020  63.40  139.71 4311.51 2042.13 71.52 11.00
   12:04:22.600.25-Aug-2020  63.60  140.02 4311.51 2042.13 71.52 11.00
   12:04:22.800.25-Aug-2020  63.80  140.33 4311.51 2042.13 71.52 11.00
   12:04:23.000.25-Aug-2020  64.00  140.59 4311.51 2042.13 71.52 11.00
   12:04:23.200.25-Aug-2020  64.20  140.59 4311.51 2042.13 71.52 11.00
   12:04:23.400.25-Aug-2020  64.40  141.14 4311.51 2042.13 71.52 11.00
   12:04:23.600.25-Aug-2020  64.60  141.51 4311.51 2042.13 71.52 11.00
   12:04:23.800.25-Aug-2020  64.80  141.85 4311.51 2042.13 71.52 11.00
   12:04:24.000.25-Aug-2020  65.00  142.14 4311.51 2042.13 71.52 11.00
   12:04:24.200.25-Aug-2020  65.20  142.43 4311.51 2042.13 71.52 11.00
   12:04:24.400.25-Aug-2020  65.40  142.71 4311.51 2042.13 71.52 11.00
   12:04:24.600.25-Aug-2020  65.60  142.98 4311.51 2042.13 71.52 11.00
   12:04:24.800.25-Aug-2020  65.80  143.26 4311.51 2042.13 71.52 11.00
   12:04:25.000.25-Aug-2020  66.00  143.53 4311.51 2042.13 71.52 11.00
   12:04:25.200.25-Aug-2020  66.20  143.79 4311.51 2042.13 71.52 11.00
   12:04:25.400.25-Aug-2020  66.40  144.05 4311.51 2042.13 71.52 11.00
   12:04:25.600.25-Aug-2020  66.60  144.31 4311.51 2042.13 71.52 11.00
   12:04:25.800.25-Aug-2020  66.80  144.57 4311.51 2042.13 71.52 11.00
   12:04:26.000.25-Aug-2020  67.00  144.82 4311.51 2042.13 71.52 11.00
   12:04:26.200.25-Aug-2020  67.20  144.82 4311.51 2042.13 71.52 11.00
   12:04:26.400.25-Aug-2020  67.40  145.18 4311.51 2042.13 71.52 11.00
   12:04:26.600.25-Aug-2020  67.60  145.44 4311.51 2042.13 71.52 11.00
