~Version Information
 VERS.                  2.0:   CWLS log ASCII Standard -VERSION 2.0
 WRAP.                   NO:   One line per depth step
~Well Information Block
#MNEM.UNIT     VALUE/NAME     DESCRIPTION
#---------     -----------    ---------------------------
 STRT.S             07:44:59 25-Aug-20: START TIME 07:44:59 25-Aug-20
 STOP.S             07:51:54 25-Aug-20: STOP TIME  07:51:54 25-Aug-20
 STEP.S                   0.00: STEP TIME
 NULL.                 -999.25: NULL VALUE
 DFWT.                        :  DIST FWL TEXT
 DFST.                        :  DIST FSL TEXT
 DMF .             Drill Floor:  DRILL MEAS FROM
 STIM.      09.59.28 01-Jun-20:  START TIME
 DATE.      05.00.00 28-Aug-20:  END TIME
 SPUD.               01-Jun-20:  SPUD DATE
 NREF.                    Grid:  NORTH REFERENCE
 HPTY.       Minimum Curvature:  HOLE POS TYPE
 DMOD.             Drill Model:  DRILL MOD DESC
 SVYD.                  Survey:  SURVEY DESC
 ILTD.               Lithology:  INTERP LTH DESC
 FTOP.          Formation Tops:  FORM TOPS DESC
 SON .        AZ-XX-0905455768:  JOB NUMBER
 WTYP.                Deviated:  WELL TYPE
 COMP.     BP Exploration(Caspian Sea):  COMPANY
 BASE.              Azerbaijan:  LOGGING EQUIPMENT BASE LOCATION
 REGN.                   EESSA:  REGION
 CTRY.              Azerbaijan:  COUNTRY NAME
 FLD .                     ACG:  FIELD NAME
 SRVC.          Turan Drilling:  CONTRACTOR
 WELL.                     B41:  WELL NAME
 RIG .           Central Azeri:  RIG NAME
 DCON.         Sperry Drilling:  DIRECTNL CONTR
 PDAT.          Mean Sea Level:  PERMANENT DATUM
 MDS .        Operator Entered:  MAG DATA SOURCE
 API .                        :  API NUMBER
 CNTY.                        :  COUNTY
 PROV.                        :  PROVINCE
 STAT.                        :  STATE
 UWI .                        :  UNIQUE WELL IDENTIFIER
 LOC .                        :  LOCATION
 LMF .             Drill Floor:  LOG MEASURED FROM
 TVDS.m                  43.29:  TVDSS CORRECTN
 LATI.deg                40.03:  LATITUDE
 LONG.deg                51.35:  LONGITUDE
 WHNS.m                  12.98:  WELL HEAD N/S
 WHEW.m                  -6.62:  WELL HEAD E/W
 UTMX.m              530128.28:  UTM X
 UTMY.m             4433192.49:  UTM Y
 DFWL.m                   0.00:  DISTANCE FWL
 DFSL.m                   0.00:  DISTANCE FSL
 SDEP.m                 378.00:  START DEPTH
 TDD .m                4463.01:  TOTAL DEPTH (DRILLER)
 VSDR.deg               296.18:  VERT SEC DIRECT
 GVFD.g                   1.00:  GRAVITY FIELD
 MFLD.nT              50269.00:  MAGNETIC FIELD
 MDIP.deg                59.50:  MAGNETIC DIP
 MDEC.deg                 6.44:  MAGNETIC DECL
 GRDC.deg                 0.20:  GRID CORRECTION
 AZTC.deg                 6.24:  AZM TOTAL CORR
 EPD .m                   0.00:  ELEVATION
 EGL .m                   0.00:  GROUND ELEVATION
 WDMS.m                 128.20:  WD ELEV
 APD .m                  43.29:  DEPTH ABOVE PD
 AGAP.m                  43.29:  AIR GAP
 VSEW.m                  -6.62:  VERT SEC E/W
 VSNS.m                  12.98:  VERT SEC N/S
 EKB .m                  43.29:  KB ELEVATION
 EDF .m                  43.29:  DF ELEVATION
 TDL .m                 147.00:  TOTAL DEPTH (LOGGER)
 VSC .                       0:  VS TO CLOSURE
 MAGU.                 1849241:  MAGUTM CHECKSUM
~Parameter Information Block
#MNEM.UNIT       Value        Description
#---------     -----------    ---------------------------
 AV  .mps                 0.70:  Ann Velocity 
 AZIF.deg               269.43:  Azm, Final 
 BHAT.        Rotary Steerable:  BHA Type 
 BROT.°/30m              -0.03:  Build Rotating 
 BS  .in                  8.50:  Bit Size 
 BSZ .in                  8.50:  Bit Size 
 BTPL.psig              880.00:  Bit Press Loss 
 CABU.                      No:  Customer Abuse 
 CGEO.          Parviz Guliyev:  Customer Geo 
 COMM.                     í_:  Run Comments 1 
 TCS .hr                 64.59:  Time Ciculation Ended 
 CV  .mps                 2.17:  Crit Velocity 
 DD1 .            Nonso Okafor:  Direct Drillr 1 
 DDSV.               Geo-Pilot:  DD Service 
 DEFF.%                  98.00:  % Det Eff 
 DLRX.°/30m               0.81:  Dogleg Rot Max 
 DLSO.°/30m               0.55:  Dogleg Oriented 
 DLSX.°/30m               0.81:  Dogleg Str Max 
 DRET.      23.50.00 24-Aug-20:  Drill End Time 
 DRST.      07.34.24 22-Aug-20:  Drill Start Tim 
 DTIM.hr                 15.29:  Time Drilling 
 EDEP.m                4461.01:  End Depth 
 ENG1.       Zam Abdullah Sani:  Engineer 1 
 ENG2.         Dair Mahammadov:  Engineer 2 
 ENG3.          Rustam Gadirov:  Engineer 3 
 ETIM.      07.34.24 26-Aug-20:  End Time 
 FLOI.gpm               550.00:  Flow In 
 FLON.gpm               400.00:  Flow In Min 
 FLOS.cptm                1.00:  Fluid Loss 
 FLOX.gpm               600.00:  Flow In Max 
 FTRO.       Formation Presure:  FTWD Run Obj 
 HFLO.                      No:  High Flow 
 HPRE.                      No:  High Pressure 
 HTEM.                      No:  High Temp 
 HYDO.m                   1.80:  Hydro Offset 
 IFIN.deg                66.72:  Inc, Final 
 IMAX.deg                67.42:  Inc Max 
 IMIN.deg                66.72:  Inc Min 
 IMND.m                4408.37:  Inc Min Depth 
 IMXD.m                4323.37:  Inc Max Depth 
 JARR.                      No:  Jarring 
 LETM.      23.50.00 24-Aug-20:  Log End Time 
 LOST.hr                     0:  Lost Rig Time 
 LSTM.      07.34.24 22-Aug-20:  Log Start Time 
 MDCL.ppm             38000.00:  Mud Chlorides 
 MDES.     Inversion Oil/Synthetic:  Mud Desc 
 DFD .sg                  1.40:  Mud Density 
 MDMN.sg                  1.38:  Dens Mud Min 
 MDMX.sg                  1.41:  Dens Mud Max 
 MOIL.                    70.5:  Run Mud Oil % 
 MOWR.                   68:32:  Run Mud OWR 
 MSND.                    0.01:  Run Mud Sand % 
 MSOL.                   17.68:  Run Mud Solids% 
 DFV .spqt               77.00:  Mud Viscosity 
 MWOD.in                  6.75:  MWD Tool OD 
 MWSI.                      No:  Serv Intrp, MWD 
 OTIM.hr                159.42:  Time Operating 
 PCON.           Look Like New:  Pad Condition 
 PMAX.psia             8730.94:  Press Op, Max 
 PV  .cP                 31.00:  Mud PV 
 RUN .                     900:  Run Number 
 ROPA.m/hr               12.00:  ROP Avg 
 ROPN.m/hr                7.00:  ROP Min 
 ROPX.m/hr               17.00:  ROP Max 
 RPMA.rpm               120.00:  RPM Surface Avg 
 RPMN.rpm                60.00:  RPM Surface Min 
 RPMX.rpm               140.00:  RPM Surface Max 
 RRUN.                    L604:  Rig Run Number 
 RTIM.hr                 10.00:  Time Reaming 
 SAZI.deg               270.56:  Azm, Start 
 SDEP.m                4314.01:  Start Depth 
 SIDD.                      No:  Serv Intrp, DD 
 SINC.deg                67.42:  Inc, Start 
 SPPA.psig             3300.00:  SPP Avg 
 SPPN.psig             1750.00:  SPP Min 
 SPPX.psig             4630.00:  SPP Max 
 STIM.      11.00.00 21-Aug-20:  Start Time 
 SVCS.                 DD, MWD:  Services 
 SVER.                    9.20:  Sperry Version 
 TDAT.m                4461.01:  Tot Depth Attmp 
 TDDF.                      No:  Trip for DD 
 TDLG.m                 147.00:  Tot Depth Loggd 
 TFF .                      No:  Trip for Fail 
 TQAA.f-kp               16.00:  Torque Abs Avg 
 TQAN.f-kp               14.00:  Torque Abs Min 
 TQAX.f-kp               20.00:  Torque Abs Max 
 TRRT.°/30m              -0.14:  Turn Rotating 
 MRT .                    HCIM:  Maximum Recorded Temperature 
 TTMX.degC               78.00:  Max Tool Temp 
 VS01.                90515425:  Virtual Str1 SN 
 VS02.                90545184:  Virtual Str2 SN 
 VS03.                90527809:  Virtual Str3 SN 
 VS04.                90515232:  Virtual Str4 SN 
 VS05.                90621207:  Virtual Str5 SN 
 VS06.                90619737:  Virtual Str6 SN 
 WBMN.klb                 2.00:  WOB Min 
 WITN.          Keith Dischler:  Customer Rep 
 WITN.           Faig Mammadov:  Customer Rep 2 
 WOBA.klb                 5.00:  WOB Avg 
 WOBX.klb                 8.00:  WOB Max 
 YP  .lhf2               32.00:  Yield Point 
~Curve Information Block
#MNEM.UNIT                 API CODE     Curve Description
#---------               -----------    ---------------------------
 TIME.HHMMSS            00 000 000 000:  GT Time & Date
 GTET.sec               00 000 000 000:  GT Elapsed Test Time
 GTPQH.psia             00 000 000 000:  GT HR Quartz Pressure
 GTDEPTH.m              00 000 000 000:  GT Depth
 GTTVD.m                00 000 000 000:  GT True Vertical Depth
 GTTQ.degC              00 000 000 000:  GT Quartz Temperature
 GTTN.NONE              00 000 000 000:  GT Test Number
#Other Information
#
#WARRANTY: Halliburton will use its best efforts to furnish customers with 
#accurate information and interpretations that are part of, and incident to, the services 
#provided.  However, Halliburton cannot and does not warrant the accuracy 
#or correctness of such information and interpretations.  Under no circumstances should any 
#such information or interpretation be relied upon as the sole basis for any drilling, 
#completion, production, or financial decision or any procedure involving any risk to the 
#safety of any drilling venture, drilling rig or its crew or any other third party.  The 
#Customer has full responsibility for all drilling, completion and production operation.  
#Halliburton makes no representations or warranties, either expressed or 
#implied, including, but not limited to, the implied warranties of merchantability or fitness 
#for a particular purpose, with respect to the services rendered.  In no event will 
#Halliburton be liable for failure to obtain any particular results or for 
#any damages, including, but not limited to, indirect, special or consequential damages, 
#resulting from the use of any information or interpretation provided by Halliburton.
#
~A           TIME            GTET   GTPQH  GTDEPTH  GTTVD  GTTQ  GTTN 
# ...
   07:49:35.000.25-Aug-2020 276.00  504.99 4371.01 2065.33 72.47 4.00
   07:49:35.200.25-Aug-2020 276.20  504.99 4371.01 2065.33 72.47 4.00
   07:49:35.400.25-Aug-2020 276.40  506.79 4371.01 2065.33 72.47 4.00
   07:49:35.600.25-Aug-2020 276.60  507.64 4371.01 2065.33 72.47 4.00
   07:49:35.800.25-Aug-2020 276.80  508.51 4371.01 2065.33 72.47 4.00
   07:49:36.000.25-Aug-2020 277.00  509.30 4371.01 2065.33 72.47 4.00
   07:49:36.200.25-Aug-2020 277.20  509.30 4371.01 2065.33 72.47 4.00
   07:49:36.400.25-Aug-2020 277.40  510.74 4371.01 2065.33 72.47 4.00
   07:49:36.600.25-Aug-2020 277.60  511.52 4371.01 2065.33 72.47 4.00
   07:49:36.800.25-Aug-2020 277.80  512.23 4371.01 2065.33 72.47 4.00
   07:49:37.000.25-Aug-2020 278.00  512.89 4371.01 2065.33 72.47 4.00
   07:49:37.200.25-Aug-2020 278.20  512.89 4371.01 2065.33 72.47 4.00
   07:49:37.400.25-Aug-2020 278.40  514.48 4371.01 2065.33 72.47 4.00
   07:49:37.600.25-Aug-2020 278.60  515.36 4371.01 2065.33 72.47 4.00
   07:49:37.800.25-Aug-2020 278.80  516.25 4371.01 2065.33 72.47 4.00
   07:49:38.000.25-Aug-2020 279.00  516.98 4371.01 2065.33 72.47 4.00
   07:49:38.200.25-Aug-2020 279.20  516.98 4371.01 2065.33 72.47 4.00
   07:49:38.400.25-Aug-2020 279.40  518.40 4371.01 2065.33 72.47 4.00
   07:49:38.600.25-Aug-2020 279.60  519.00 4371.01 2065.33 72.47 4.00
   07:49:38.800.25-Aug-2020 279.80  519.55 4371.01 2065.33 72.47 4.00
   07:49:39.000.25-Aug-2020 280.00  520.07 4371.01 2065.33 72.47 4.00
   07:49:39.200.25-Aug-2020 280.20  520.07 4371.01 2065.33 72.47 4.00
   07:49:39.400.25-Aug-2020 280.40  521.51 4371.01 2065.33 72.47 4.00
   07:49:39.600.25-Aug-2020 280.60  522.17 4371.01 2065.33 72.47 4.00
   07:49:39.800.25-Aug-2020 280.80  522.97 4371.01 2065.33 72.47 4.00
   07:49:40.000.25-Aug-2020 281.00  523.72 4371.01 2065.33 72.47 4.00
   07:49:40.200.25-Aug-2020 281.20  523.72 4371.01 2065.33 72.47 4.00
   07:49:40.400.25-Aug-2020 281.40  525.70 4371.01 2065.33 72.47 4.00
   07:49:40.600.25-Aug-2020 281.60  526.53 4371.01 2065.33 72.47 4.00
   07:49:40.800.25-Aug-2020 281.80  527.39 4371.01 2065.33 72.47 4.00
   07:49:41.000.25-Aug-2020 282.00  528.69 4371.01 2065.33 72.47 4.00
   07:49:41.200.25-Aug-2020 282.20  528.69 4371.01 2065.33 72.47 4.00
   07:49:41.400.25-Aug-2020 282.40  531.00 4371.01 2065.33 72.47 4.00
   07:49:41.600.25-Aug-2020 282.60  532.13 4371.01 2065.33 72.47 4.00
   07:49:41.800.25-Aug-2020 282.80  532.96 4371.01 2065.33 72.47 4.00
   07:49:42.000.25-Aug-2020 283.00  533.85 4371.01 2065.33 72.47 4.00
   07:49:42.200.25-Aug-2020 283.20  533.85 4371.01 2065.33 72.47 4.00
   07:49:42.400.25-Aug-2020 283.40  535.57 4371.01 2065.33 72.47 4.00
   07:49:42.600.25-Aug-2020 283.60  536.34 4371.01 2065.33 72.47 4.00
   07:49:42.800.25-Aug-2020 283.80  537.25 4371.01 2065.33 72.47 4.00
   07:49:43.000.25-Aug-2020 284.00  537.93 4371.01 2065.33 72.47 4.00
   07:49:43.200.25-Aug-2020 284.20  537.93 4371.01 2065.33 72.47 4.00
   07:49:43.400.25-Aug-2020 284.40  539.49 4371.01 2065.33 72.47 4.00
   07:49:43.600.25-Aug-2020 284.60  540.27 4371.01 2065.33 72.47 4.00
   07:49:43.800.25-Aug-2020 284.80  540.99 4371.01 2065.33 72.47 4.00
   07:49:44.000.25-Aug-2020 285.00  541.69 4371.01 2065.33 72.47 4.00
   07:49:44.200.25-Aug-2020 285.20  541.69 4371.01 2065.33 72.47 4.00
   07:49:44.400.25-Aug-2020 285.40  543.17 4371.01 2065.33 72.47 4.00
   07:49:44.600.25-Aug-2020 285.60  543.93 4371.01 2065.33 72.47 4.00
   07:49:44.800.25-Aug-2020 285.80  544.63 4371.01 2065.33 72.47 4.00
   07:49:45.000.25-Aug-2020 286.00  545.24 4371.01 2065.33 72.47 4.00
   07:49:45.200.25-Aug-2020 286.20  545.24 4371.01 2065.33 72.47 4.00
   07:49:45.400.25-Aug-2020 286.40  547.08 4371.01 2065.33 72.47 4.00
   07:49:45.600.25-Aug-2020 286.60  547.78 4371.01 2065.33 72.47 4.00
   07:49:45.800.25-Aug-2020 286.80  548.61 4371.01 2065.33 72.47 4.00
   07:49:46.000.25-Aug-2020 287.00  549.44 4371.01 2065.33 72.47 4.00
   07:49:46.200.25-Aug-2020 287.20  549.44 4371.01 2065.33 72.47 4.00
   07:49:46.400.25-Aug-2020 287.40  550.88 4371.01 2065.33 72.47 4.00
   07:49:46.600.25-Aug-2020 287.60  551.55 4371.01 2065.33 72.47 4.00
   07:49:46.800.25-Aug-2020 287.80  552.51 4371.01 2065.33 72.47 4.00
   07:49:47.000.25-Aug-2020 288.00  553.12 4371.01 2065.33 72.47 4.00
   07:49:47.200.25-Aug-2020 288.20  553.12 4371.01 2065.33 72.47 4.00
   07:49:47.400.25-Aug-2020 288.40  554.26 4371.01 2065.33 72.47 4.00
   07:49:47.600.25-Aug-2020 288.60  554.69 4371.01 2065.33 72.47 4.00
   07:49:47.800.25-Aug-2020 288.80  555.10 4371.01 2065.33 72.47 4.00
   07:49:48.000.25-Aug-2020 289.00  555.56 4371.01 2065.33 72.47 4.00
   07:49:48.200.25-Aug-2020 289.20  555.56 4371.01 2065.33 72.47 4.00
   07:49:48.400.25-Aug-2020 289.40  556.66 4371.01 2065.33 72.47 4.00
   07:49:48.600.25-Aug-2020 289.60  557.20 4371.01 2065.33 72.47 4.00
   07:49:48.800.25-Aug-2020 289.80  557.74 4371.01 2065.33 72.47 4.00
   07:49:49.000.25-Aug-2020 290.00  558.39 4371.01 2065.33 72.47 4.00
   07:49:49.200.25-Aug-2020 290.20  558.39 4371.01 2065.33 72.47 4.00
   07:49:49.400.25-Aug-2020 290.40  559.94 4371.01 2065.33 72.47 4.00
   07:49:49.600.25-Aug-2020 290.60  560.78 4371.01 2065.33 72.47 4.00
   07:49:49.800.25-Aug-2020 290.80  561.59 4371.01 2065.33 72.47 4.00
   07:49:50.000.25-Aug-2020 291.00  562.41 4371.01 2065.33 72.47 4.00
   07:49:50.200.25-Aug-2020 291.20  562.41 4371.01 2065.33 72.47 4.00
   07:49:50.400.25-Aug-2020 291.40  563.85 4371.01 2065.33 72.47 4.00
   07:49:50.600.25-Aug-2020 291.60  564.55 4371.01 2065.33 72.47 4.00
   07:49:50.800.25-Aug-2020 291.80  565.27 4371.01 2065.33 72.47 4.00
   07:49:51.000.25-Aug-2020 292.00  566.14 4371.01 2065.33 72.47 4.00
   07:49:51.200.25-Aug-2020 292.20  566.14 4371.01 2065.33 72.47 4.00
   07:49:51.400.25-Aug-2020 292.40  568.08 4371.01 2065.33 72.47 4.00
   07:49:51.600.25-Aug-2020 292.60  568.99 4371.01 2065.33 72.47 4.00
   07:49:51.800.25-Aug-2020 292.80  569.82 4371.01 2065.33 72.47 4.00
   07:49:52.000.25-Aug-2020 293.00  570.60 4371.01 2065.33 72.47 4.00
   07:49:52.200.25-Aug-2020 293.20  570.60 4371.01 2065.33 72.47 4.00
   07:49:52.400.25-Aug-2020 293.40  572.27 4371.01 2065.33 72.47 4.00
   07:49:52.600.25-Aug-2020 293.60  573.19 4371.01 2065.33 72.47 4.00
   07:49:52.800.25-Aug-2020 293.80  574.02 4371.01 2065.33 72.47 4.00
   07:49:53.000.25-Aug-2020 294.00  574.95 4371.01 2065.33 72.47 4.00
   07:49:53.200.25-Aug-2020 294.20  574.95 4371.01 2065.33 72.47 4.00
   07:49:53.400.25-Aug-2020 294.40  580.06 4371.01 2065.33 72.47 4.00
   07:49:53.600.25-Aug-2020 294.60  583.32 4371.01 2065.33 72.47 4.00
   07:49:53.800.25-Aug-2020 294.80  586.22 4371.01 2065.33 72.47 4.00
   07:49:54.000.25-Aug-2020 295.00  589.12 4371.01 2065.33 72.47 4.00
   07:49:54.200.25-Aug-2020 295.20  589.12 4371.01 2065.33 72.47 4.00
   07:49:54.400.25-Aug-2020 295.40  594.97 4371.01 2065.33 72.47 4.00
   07:49:54.600.25-Aug-2020 295.60  597.58 4371.01 2065.33 72.47 4.00
   07:49:54.800.25-Aug-2020 295.80  599.96 4371.01 2065.33 72.47 4.00
   07:49:55.000.25-Aug-2020 296.00  602.29 4371.01 2065.33 72.47 4.00
   07:49:55.200.25-Aug-2020 296.20  602.29 4371.01 2065.33 72.47 4.00
   07:49:55.400.25-Aug-2020 296.40  606.90 4371.01 2065.33 72.47 4.00
   07:49:55.600.25-Aug-2020 296.60  608.61 4371.01 2065.33 72.47 4.00
   07:49:55.800.25-Aug-2020 296.80  610.17 4371.01 2065.33 72.47 4.00
   07:49:56.000.25-Aug-2020 297.00  611.61 4371.01 2065.33 72.47 4.00
   07:49:56.200.25-Aug-2020 297.20  611.61 4371.01 2065.33 72.47 4.00
   07:49:56.400.25-Aug-2020 297.40  614.45 4371.01 2065.33 72.47 4.00
   07:49:56.600.25-Aug-2020 297.60  615.61 4371.01 2065.33 72.47 4.00
   07:49:56.800.25-Aug-2020 297.80  616.66 4371.01 2065.33 72.47 4.00
   07:49:57.000.25-Aug-2020 298.00  617.64 4371.01 2065.33 72.47 4.00
   07:49:57.200.25-Aug-2020 298.20  617.64 4371.01 2065.33 72.47 4.00
   07:49:57.400.25-Aug-2020 298.40  619.57 4371.01 2065.33 72.47 4.00
   07:49:57.600.25-Aug-2020 298.60  620.69 4371.01 2065.33 72.47 4.00
   07:49:57.800.25-Aug-2020 298.80  621.68 4371.01 2065.33 72.47 4.00
