~Version Information
 VERS.                  2.0:   CWLS log ASCII Standard -VERSION 2.0
 WRAP.                   NO:   One line per depth step
~Well Information Block
#MNEM.UNIT     VALUE/NAME     DESCRIPTION
#---------     -----------    ---------------------------
 STRT.S             07:44:59 25-Aug-20: START TIME 07:44:59 25-Aug-20
 STOP.S             07:51:54 25-Aug-20: STOP TIME  07:51:54 25-Aug-20
 STEP.S                   0.00: STEP TIME
 NULL.                 -999.25: NULL VALUE
 DFWT.                        :  DIST FWL TEXT
 DFST.                        :  DIST FSL TEXT
 DMF .             Drill Floor:  DRILL MEAS FROM
 STIM.      09.59.28 01-Jun-20:  START TIME
 DATE.      05.00.00 28-Aug-20:  END TIME
 SPUD.               01-Jun-20:  SPUD DATE
 NREF.                    Grid:  NORTH REFERENCE
 HPTY.       Minimum Curvature:  HOLE POS TYPE
 DMOD.             Drill Model:  DRILL MOD DESC
 SVYD.                  Survey:  SURVEY DESC
 ILTD.               Lithology:  INTERP LTH DESC
 FTOP.          Formation Tops:  FORM TOPS DESC
 SON .        AZ-XX-0905455768:  JOB NUMBER
 WTYP.                Deviated:  WELL TYPE
 COMP.     BP Exploration(Caspian Sea):  COMPANY
 BASE.              Azerbaijan:  LOGGING EQUIPMENT BASE LOCATION
 REGN.                   EESSA:  REGION
 CTRY.              Azerbaijan:  COUNTRY NAME
 FLD .                     ACG:  FIELD NAME
 SRVC.          Turan Drilling:  CONTRACTOR
 WELL.                     B41:  WELL NAME
 RIG .           Central Azeri:  RIG NAME
 DCON.         Sperry Drilling:  DIRECTNL CONTR
 PDAT.          Mean Sea Level:  PERMANENT DATUM
 MDS .        Operator Entered:  MAG DATA SOURCE
 API .                        :  API NUMBER
 CNTY.                        :  COUNTY
 PROV.                        :  PROVINCE
 STAT.                        :  STATE
 UWI .                        :  UNIQUE WELL IDENTIFIER
 LOC .                        :  LOCATION
 LMF .             Drill Floor:  LOG MEASURED FROM
 TVDS.m                  43.29:  TVDSS CORRECTN
 LATI.deg                40.03:  LATITUDE
 LONG.deg                51.35:  LONGITUDE
 WHNS.m                  12.98:  WELL HEAD N/S
 WHEW.m                  -6.62:  WELL HEAD E/W
 UTMX.m              530128.28:  UTM X
 UTMY.m             4433192.49:  UTM Y
 DFWL.m                   0.00:  DISTANCE FWL
 DFSL.m                   0.00:  DISTANCE FSL
 SDEP.m                 378.00:  START DEPTH
 TDD .m                4463.01:  TOTAL DEPTH (DRILLER)
 VSDR.deg               296.18:  VERT SEC DIRECT
 GVFD.g                   1.00:  GRAVITY FIELD
 MFLD.nT              50269.00:  MAGNETIC FIELD
 MDIP.deg                59.50:  MAGNETIC DIP
 MDEC.deg                 6.44:  MAGNETIC DECL
 GRDC.deg                 0.20:  GRID CORRECTION
 AZTC.deg                 6.24:  AZM TOTAL CORR
 EPD .m                   0.00:  ELEVATION
 EGL .m                   0.00:  GROUND ELEVATION
 WDMS.m                 128.20:  WD ELEV
 APD .m                  43.29:  DEPTH ABOVE PD
 AGAP.m                  43.29:  AIR GAP
 VSEW.m                  -6.62:  VERT SEC E/W
 VSNS.m                  12.98:  VERT SEC N/S
 EKB .m                  43.29:  KB ELEVATION
 EDF .m                  43.29:  DF ELEVATION
 TDL .m                 147.00:  TOTAL DEPTH (LOGGER)
 VSC .                       0:  VS TO CLOSURE
 MAGU.                 1849241:  MAGUTM CHECKSUM
~Parameter Information Block
#MNEM.UNIT       Value        Description
#---------     -----------    ---------------------------
 AV  .mps                 0.70:  Ann Velocity 
 AZIF.deg               269.43:  Azm, Final 
 BHAT.        Rotary Steerable:  BHA Type 
 BROT.°/30m              -0.03:  Build Rotating 
 BS  .in                  8.50:  Bit Size 
 BSZ .in                  8.50:  Bit Size 
 BTPL.psig              880.00:  Bit Press Loss 
 CABU.                      No:  Customer Abuse 
 CGEO.          Parviz Guliyev:  Customer Geo 
 COMM.                     í_:  Run Comments 1 
 TCS .hr                 64.59:  Time Ciculation Ended 
 CV  .mps                 2.17:  Crit Velocity 
 DD1 .            Nonso Okafor:  Direct Drillr 1 
 DDSV.               Geo-Pilot:  DD Service 
 DEFF.%                  98.00:  % Det Eff 
 DLRX.°/30m               0.81:  Dogleg Rot Max 
 DLSO.°/30m               0.55:  Dogleg Oriented 
 DLSX.°/30m               0.81:  Dogleg Str Max 
 DRET.      23.50.00 24-Aug-20:  Drill End Time 
 DRST.      07.34.24 22-Aug-20:  Drill Start Tim 
 DTIM.hr                 15.29:  Time Drilling 
 EDEP.m                4461.01:  End Depth 
 ENG1.       Zam Abdullah Sani:  Engineer 1 
 ENG2.         Dair Mahammadov:  Engineer 2 
 ENG3.          Rustam Gadirov:  Engineer 3 
 ETIM.      07.34.24 26-Aug-20:  End Time 
 FLOI.gpm               550.00:  Flow In 
 FLON.gpm               400.00:  Flow In Min 
 FLOS.cptm                1.00:  Fluid Loss 
 FLOX.gpm               600.00:  Flow In Max 
 FTRO.       Formation Presure:  FTWD Run Obj 
 HFLO.                      No:  High Flow 
 HPRE.                      No:  High Pressure 
 HTEM.                      No:  High Temp 
 HYDO.m                   1.80:  Hydro Offset 
 IFIN.deg                66.72:  Inc, Final 
 IMAX.deg                67.42:  Inc Max 
 IMIN.deg                66.72:  Inc Min 
 IMND.m                4408.37:  Inc Min Depth 
 IMXD.m                4323.37:  Inc Max Depth 
 JARR.                      No:  Jarring 
 LETM.      23.50.00 24-Aug-20:  Log End Time 
 LOST.hr                     0:  Lost Rig Time 
 LSTM.      07.34.24 22-Aug-20:  Log Start Time 
 MDCL.ppm             38000.00:  Mud Chlorides 
 MDES.     Inversion Oil/Synthetic:  Mud Desc 
 DFD .sg                  1.40:  Mud Density 
 MDMN.sg                  1.38:  Dens Mud Min 
 MDMX.sg                  1.41:  Dens Mud Max 
 MOIL.                    70.5:  Run Mud Oil % 
 MOWR.                   68:32:  Run Mud OWR 
 MSND.                    0.01:  Run Mud Sand % 
 MSOL.                   17.68:  Run Mud Solids% 
 DFV .spqt               77.00:  Mud Viscosity 
 MWOD.in                  6.75:  MWD Tool OD 
 MWSI.                      No:  Serv Intrp, MWD 
 OTIM.hr                159.42:  Time Operating 
 PCON.           Look Like New:  Pad Condition 
 PMAX.psia             8730.94:  Press Op, Max 
 PV  .cP                 31.00:  Mud PV 
 RUN .                     900:  Run Number 
 ROPA.m/hr               12.00:  ROP Avg 
 ROPN.m/hr                7.00:  ROP Min 
 ROPX.m/hr               17.00:  ROP Max 
 RPMA.rpm               120.00:  RPM Surface Avg 
 RPMN.rpm                60.00:  RPM Surface Min 
 RPMX.rpm               140.00:  RPM Surface Max 
 RRUN.                    L604:  Rig Run Number 
 RTIM.hr                 10.00:  Time Reaming 
 SAZI.deg               270.56:  Azm, Start 
 SDEP.m                4314.01:  Start Depth 
 SIDD.                      No:  Serv Intrp, DD 
 SINC.deg                67.42:  Inc, Start 
 SPPA.psig             3300.00:  SPP Avg 
 SPPN.psig             1750.00:  SPP Min 
 SPPX.psig             4630.00:  SPP Max 
 STIM.      11.00.00 21-Aug-20:  Start Time 
 SVCS.                 DD, MWD:  Services 
 SVER.                    9.20:  Sperry Version 
 TDAT.m                4461.01:  Tot Depth Attmp 
 TDDF.                      No:  Trip for DD 
 TDLG.m                 147.00:  Tot Depth Loggd 
 TFF .                      No:  Trip for Fail 
 TQAA.f-kp               16.00:  Torque Abs Avg 
 TQAN.f-kp               14.00:  Torque Abs Min 
 TQAX.f-kp               20.00:  Torque Abs Max 
 TRRT.°/30m              -0.14:  Turn Rotating 
 MRT .                    HCIM:  Maximum Recorded Temperature 
 TTMX.degC               78.00:  Max Tool Temp 
 VS01.                90515425:  Virtual Str1 SN 
 VS02.                90545184:  Virtual Str2 SN 
 VS03.                90527809:  Virtual Str3 SN 
 VS04.                90515232:  Virtual Str4 SN 
 VS05.                90621207:  Virtual Str5 SN 
 VS06.                90619737:  Virtual Str6 SN 
 WBMN.klb                 2.00:  WOB Min 
 WITN.          Keith Dischler:  Customer Rep 
 WITN.           Faig Mammadov:  Customer Rep 2 
 WOBA.klb                 5.00:  WOB Avg 
 WOBX.klb                 8.00:  WOB Max 
 YP  .lhf2               32.00:  Yield Point 
~Curve Information Block
#MNEM.UNIT                 API CODE     Curve Description
#---------               -----------    ---------------------------
 TIME.HHMMSS            00 000 000 000:  GT Time & Date
 GTET.sec               00 000 000 000:  GT Elapsed Test Time
 GTPQH.psia             00 000 000 000:  GT HR Quartz Pressure
 GTDEPTH.m              00 000 000 000:  GT Depth
 GTTVD.m                00 000 000 000:  GT True Vertical Depth
 GTTQ.degC              00 000 000 000:  GT Quartz Temperature
 GTTN.NONE              00 000 000 000:  GT Test Number
#Other Information
#
#WARRANTY: Halliburton will use its best efforts to furnish customers with 
#accurate information and interpretations that are part of, and incident to, the services 
#provided.  However, Halliburton cannot and does not warrant the accuracy 
#or correctness of such information and interpretations.  Under no circumstances should any 
#such information or interpretation be relied upon as the sole basis for any drilling, 
#completion, production, or financial decision or any procedure involving any risk to the 
#safety of any drilling venture, drilling rig or its crew or any other third party.  The 
#Customer has full responsibility for all drilling, completion and production operation.  
#Halliburton makes no representations or warranties, either expressed or 
#implied, including, but not limited to, the implied warranties of merchantability or fitness 
#for a particular purpose, with respect to the services rendered.  In no event will 
#Halliburton be liable for failure to obtain any particular results or for 
#any damages, including, but not limited to, indirect, special or consequential damages, 
#resulting from the use of any information or interpretation provided by Halliburton.
#
~A           TIME            GTET   GTPQH  GTDEPTH  GTTVD  GTTQ  GTTN 
# ...
   07:48:49.000.25-Aug-2020 230.00 1070.93 4371.01 2065.33 72.50 4.00
   07:48:49.200.25-Aug-2020 230.20 1070.93 4371.01 2065.33 72.50 4.00
   07:48:49.400.25-Aug-2020 230.40 1080.78 4371.01 2065.33 72.50 4.00
   07:48:49.600.25-Aug-2020 230.60 1085.60 4371.01 2065.33 72.50 4.00
   07:48:49.800.25-Aug-2020 230.80 1090.44 4371.01 2065.33 72.50 4.00
   07:48:50.000.25-Aug-2020 231.00 1095.38 4371.01 2065.33 72.50 4.00
   07:48:50.200.25-Aug-2020 231.20 1095.38 4371.01 2065.33 72.50 4.00
   07:48:50.400.25-Aug-2020 231.40 1104.96 4371.01 2065.33 72.50 4.00
   07:48:50.600.25-Aug-2020 231.60 1109.87 4371.01 2065.33 72.50 4.00
   07:48:50.800.25-Aug-2020 231.80 1114.90 4371.01 2065.33 72.50 4.00
   07:48:51.000.25-Aug-2020 232.00 1119.71 4371.01 2065.33 72.50 4.00
   07:48:51.200.25-Aug-2020 232.20 1119.71 4371.01 2065.33 72.50 4.00
   07:48:51.400.25-Aug-2020 232.40 1128.93 4371.01 2065.33 72.50 4.00
   07:48:51.600.25-Aug-2020 232.60 1133.44 4371.01 2065.33 72.50 4.00
   07:48:51.800.25-Aug-2020 232.80 1137.95 4371.01 2065.33 72.50 4.00
   07:48:52.000.25-Aug-2020 233.00 1142.48 4371.01 2065.33 72.50 4.00
   07:48:52.200.25-Aug-2020 233.20 1142.48 4371.01 2065.33 72.50 4.00
   07:48:52.400.25-Aug-2020 233.40 1151.32 4371.01 2065.33 72.50 4.00
   07:48:52.600.25-Aug-2020 233.60 1155.58 4371.01 2065.33 72.50 4.00
   07:48:52.800.25-Aug-2020 233.80 1159.72 4371.01 2065.33 72.50 4.00
   07:48:53.000.25-Aug-2020 234.00 1164.04 4371.01 2065.33 72.50 4.00
   07:48:53.200.25-Aug-2020 234.20 1164.04 4371.01 2065.33 72.50 4.00
   07:48:53.400.25-Aug-2020 234.40 1172.58 4371.01 2065.33 72.50 4.00
   07:48:53.600.25-Aug-2020 234.60 1176.69 4371.01 2065.33 72.50 4.00
   07:48:53.800.25-Aug-2020 234.80 1181.04 4371.01 2065.33 72.50 4.00
   07:48:54.000.25-Aug-2020 235.00 1186.00 4371.01 2065.33 72.50 4.00
   07:48:54.200.25-Aug-2020 235.20 1186.00 4371.01 2065.33 72.50 4.00
   07:48:54.400.25-Aug-2020 235.40 1196.08 4371.01 2065.33 72.50 4.00
   07:48:54.600.25-Aug-2020 235.60 1201.16 4371.01 2065.33 72.50 4.00
   07:48:54.800.25-Aug-2020 235.80 1206.05 4371.01 2065.33 72.50 4.00
   07:48:55.000.25-Aug-2020 236.00 1210.86 4371.01 2065.33 72.50 4.00
   07:48:55.200.25-Aug-2020 236.20 1210.86 4371.01 2065.33 72.50 4.00
   07:48:55.400.25-Aug-2020 236.40 1220.54 4371.01 2065.33 72.50 4.00
   07:48:55.600.25-Aug-2020 236.60 1225.21 4371.01 2065.33 72.50 4.00
   07:48:55.800.25-Aug-2020 236.80 1230.26 4371.01 2065.33 72.50 4.00
   07:48:56.000.25-Aug-2020 237.00 1235.28 4371.01 2065.33 72.50 4.00
   07:48:56.200.25-Aug-2020 237.20 1235.28 4371.01 2065.33 72.50 4.00
   07:48:56.400.25-Aug-2020 237.40 1244.77 4371.01 2065.33 72.50 4.00
   07:48:56.600.25-Aug-2020 237.60 1249.25 4371.01 2065.33 72.50 4.00
   07:48:56.800.25-Aug-2020 237.80 1253.82 4371.01 2065.33 72.50 4.00
   07:48:57.000.25-Aug-2020 238.00 1257.64 4371.01 2065.33 72.50 4.00
   07:48:57.200.25-Aug-2020 238.20 1257.64 4371.01 2065.33 72.50 4.00
   07:48:57.400.25-Aug-2020 238.40 1266.61 4371.01 2065.33 72.50 4.00
   07:48:57.600.25-Aug-2020 238.60 1271.76 4371.01 2065.33 72.50 4.00
   07:48:57.800.25-Aug-2020 238.80 1276.73 4371.01 2065.33 72.50 4.00
   07:48:58.000.25-Aug-2020 239.00 1281.88 4371.01 2065.33 72.50 4.00
   07:48:58.200.25-Aug-2020 239.20 1281.88 4371.01 2065.33 72.50 4.00
   07:48:58.400.25-Aug-2020 239.40 1294.75 4371.01 2065.33 72.50 4.00
   07:48:58.600.25-Aug-2020 239.60 1301.81 4371.01 2065.33 72.50 4.00
   07:48:58.800.25-Aug-2020 239.80 1309.16 4371.01 2065.33 72.50 4.00
   07:48:59.000.25-Aug-2020 240.00 1316.90 4371.01 2065.33 72.50 4.00
   07:48:59.200.25-Aug-2020 240.20 1316.90 4371.01 2065.33 72.50 4.00
   07:48:59.400.25-Aug-2020 240.40 1333.30 4371.01 2065.33 72.50 4.00
   07:48:59.600.25-Aug-2020 240.60 1340.83 4371.01 2065.33 72.50 4.00
   07:48:59.800.25-Aug-2020 240.80 1348.26 4371.01 2065.33 72.50 4.00
   07:49:00.000.25-Aug-2020 241.00 1355.23 4371.01 2065.33 72.50 4.00
   07:49:00.200.25-Aug-2020 241.20 1355.23 4371.01 2065.33 72.50 4.00
   07:49:00.400.25-Aug-2020 241.40 1369.58 4371.01 2065.33 72.50 4.00
   07:49:00.600.25-Aug-2020 241.60 1376.59 4371.01 2065.33 72.50 4.00
   07:49:00.800.25-Aug-2020 241.80 1383.23 4371.01 2065.33 72.50 4.00
   07:49:01.000.25-Aug-2020 242.00 1390.18 4371.01 2065.33 72.50 4.00
   07:49:01.200.25-Aug-2020 242.20 1390.18 4371.01 2065.33 72.50 4.00
   07:49:01.400.25-Aug-2020 242.40 1404.31 4371.01 2065.33 72.50 4.00
   07:49:01.600.25-Aug-2020 242.60 1411.20 4371.01 2065.33 72.50 4.00
   07:49:01.800.25-Aug-2020 242.80 1418.58 4371.01 2065.33 72.50 4.00
   07:49:02.000.25-Aug-2020 243.00 1426.12 4371.01 2065.33 72.50 4.00
   07:49:02.200.25-Aug-2020 243.20 1426.12 4371.01 2065.33 72.50 4.00
   07:49:02.400.25-Aug-2020 243.40 1440.89 4371.01 2065.33 72.50 4.00
   07:49:02.600.25-Aug-2020 243.60 1448.23 4371.01 2065.33 72.50 4.00
   07:49:02.800.25-Aug-2020 243.80 1455.57 4371.01 2065.33 72.50 4.00
   07:49:03.000.25-Aug-2020 244.00 1462.88 4371.01 2065.33 72.50 4.00
   07:49:03.200.25-Aug-2020 244.20 1462.88 4371.01 2065.33 72.50 4.00
   07:49:03.400.25-Aug-2020 244.40 1477.71 4371.01 2065.33 72.50 4.00
   07:49:03.600.25-Aug-2020 244.60 1484.69 4371.01 2065.33 72.50 4.00
   07:49:03.800.25-Aug-2020 244.80 1492.24 4371.01 2065.33 72.50 4.00
   07:49:04.000.25-Aug-2020 245.00 1499.36 4371.01 2065.33 72.50 4.00
   07:49:04.200.25-Aug-2020 245.20 1499.36 4371.01 2065.33 72.50 4.00
   07:49:04.400.25-Aug-2020 245.40 1513.49 4371.01 2065.33 72.50 4.00
   07:49:04.600.25-Aug-2020 245.60 1520.31 4371.01 2065.33 72.50 4.00
   07:49:04.800.25-Aug-2020 245.80 1527.40 4371.01 2065.33 72.50 4.00
   07:49:05.000.25-Aug-2020 246.00 1534.55 4371.01 2065.33 72.50 4.00
   07:49:05.200.25-Aug-2020 246.20 1534.55 4371.01 2065.33 72.50 4.00
   07:49:05.400.25-Aug-2020 246.40 1548.67 4371.01 2065.33 72.51 4.00
   07:49:05.600.25-Aug-2020 246.60 1555.19 4371.01 2065.33 72.51 4.00
   07:49:05.800.25-Aug-2020 246.80 1561.01 4371.01 2065.33 72.51 4.00
   07:49:06.000.25-Aug-2020 247.00 1566.91 4371.01 2065.33 72.51 4.00
   07:49:06.200.25-Aug-2020 247.20 1566.91 4371.01 2065.33 72.51 4.00
   07:49:06.400.25-Aug-2020 247.40 1579.64 4371.01 2065.33 72.51 4.00
   07:49:06.600.25-Aug-2020 247.60 1585.73 4371.01 2065.33 72.51 4.00
   07:49:06.800.25-Aug-2020 247.80 1591.66 4371.01 2065.33 72.51 4.00
   07:49:07.000.25-Aug-2020 248.00 1597.69 4371.01 2065.33 72.51 4.00
   07:49:07.200.25-Aug-2020 248.20 1597.69 4371.01 2065.33 72.51 4.00
   07:49:07.400.25-Aug-2020 248.40 1610.24 4371.01 2065.33 72.51 4.00
   07:49:07.600.25-Aug-2020 248.60 1616.53 4371.01 2065.33 72.51 4.00
   07:49:07.800.25-Aug-2020 248.80 1622.59 4371.01 2065.33 72.51 4.00
   07:49:08.000.25-Aug-2020 249.00 1628.37 4371.01 2065.33 72.51 4.00
   07:49:08.200.25-Aug-2020 249.20 1628.37 4371.01 2065.33 72.51 4.00
   07:49:08.400.25-Aug-2020 249.40 1641.04 4371.01 2065.33 72.51 4.00
   07:49:08.600.25-Aug-2020 249.60 1647.55 4371.01 2065.33 72.51 4.00
   07:49:08.800.25-Aug-2020 249.80 1653.73 4371.01 2065.33 72.51 4.00
   07:49:09.000.25-Aug-2020 250.00 1659.55 4371.01 2065.33 72.51 4.00
   07:49:09.200.25-Aug-2020 250.20 1659.55 4371.01 2065.33 72.51 4.00
   07:49:09.400.25-Aug-2020 250.40 1670.06 4371.01 2065.33 72.51 4.00
   07:49:09.600.25-Aug-2020 250.60 1675.35 4371.01 2065.33 72.51 4.00
   07:49:09.800.25-Aug-2020 250.80 1679.90 4371.01 2065.33 72.51 4.00
   07:49:10.000.25-Aug-2020 251.00 1684.50 4371.01 2065.33 72.51 4.00
   07:49:10.200.25-Aug-2020 251.20 1684.50 4371.01 2065.33 72.51 4.00
   07:49:10.400.25-Aug-2020 251.40 1693.23 4371.01 2065.33 72.51 4.00
   07:49:10.600.25-Aug-2020 251.60 1697.80 4371.01 2065.33 72.51 4.00
   07:49:10.800.25-Aug-2020 251.80 1702.22 4371.01 2065.33 72.51 4.00
   07:49:11.000.25-Aug-2020 252.00 1706.24 4371.01 2065.33 72.51 4.00
   07:49:11.200.25-Aug-2020 252.20 1706.24 4371.01 2065.33 72.51 4.00
   07:49:11.400.25-Aug-2020 252.40 1713.97 4371.01 2065.33 72.51 4.00
   07:49:11.600.25-Aug-2020 252.60 1715.83 4371.01 2065.33 72.51 4.00
   07:49:11.800.25-Aug-2020 252.80 1716.52 4371.01 2065.33 72.51 4.00
