~Version Information
 VERS.                  2.0:   CWLS log ASCII Standard -VERSION 2.0
 WRAP.                   NO:   One line per depth step
~Well Information Block
#MNEM.UNIT     VALUE/NAME     DESCRIPTION
#---------     -----------    ---------------------------
 STRT.S             06:12:42 25-Aug-20: START TIME 06:12:42 25-Aug-20
 STOP.S             06:19:48 25-Aug-20: STOP TIME  06:19:48 25-Aug-20
 STEP.S                   0.00: STEP TIME
 NULL.                 -999.25: NULL VALUE
 DFWT.                        :  DIST FWL TEXT
 DFST.                        :  DIST FSL TEXT
 DMF .             Drill Floor:  DRILL MEAS FROM
 STIM.      09.59.28 01-Jun-20:  START TIME
 DATE.      05.00.00 28-Aug-20:  END TIME
 SPUD.               01-Jun-20:  SPUD DATE
 NREF.                    Grid:  NORTH REFERENCE
 HPTY.       Minimum Curvature:  HOLE POS TYPE
 DMOD.             Drill Model:  DRILL MOD DESC
 SVYD.                  Survey:  SURVEY DESC
 ILTD.               Lithology:  INTERP LTH DESC
 FTOP.          Formation Tops:  FORM TOPS DESC
 SON .        AZ-XX-0905455768:  JOB NUMBER
 WTYP.                Deviated:  WELL TYPE
 COMP.     BP Exploration(Caspian Sea):  COMPANY
 BASE.              Azerbaijan:  LOGGING EQUIPMENT BASE LOCATION
 REGN.                   EESSA:  REGION
 CTRY.              Azerbaijan:  COUNTRY NAME
 FLD .                     ACG:  FIELD NAME
 SRVC.          Turan Drilling:  CONTRACTOR
 WELL.                     B41:  WELL NAME
 RIG .           Central Azeri:  RIG NAME
 DCON.         Sperry Drilling:  DIRECTNL CONTR
 PDAT.          Mean Sea Level:  PERMANENT DATUM
 MDS .        Operator Entered:  MAG DATA SOURCE
 API .                        :  API NUMBER
 CNTY.                        :  COUNTY
 PROV.                        :  PROVINCE
 STAT.                        :  STATE
 UWI .                        :  UNIQUE WELL IDENTIFIER
 LOC .                        :  LOCATION
 LMF .             Drill Floor:  LOG MEASURED FROM
 TVDS.m                  43.29:  TVDSS CORRECTN
 LATI.deg                40.03:  LATITUDE
 LONG.deg                51.35:  LONGITUDE
 WHNS.m                  12.98:  WELL HEAD N/S
 WHEW.m                  -6.62:  WELL HEAD E/W
 UTMX.m              530128.28:  UTM X
 UTMY.m             4433192.49:  UTM Y
 DFWL.m                   0.00:  DISTANCE FWL
 DFSL.m                   0.00:  DISTANCE FSL
 SDEP.m                 378.00:  START DEPTH
 TDD .m                4463.01:  TOTAL DEPTH (DRILLER)
 VSDR.deg               296.18:  VERT SEC DIRECT
 GVFD.g                   1.00:  GRAVITY FIELD
 MFLD.nT              50269.00:  MAGNETIC FIELD
 MDIP.deg                59.50:  MAGNETIC DIP
 MDEC.deg                 6.44:  MAGNETIC DECL
 GRDC.deg                 0.20:  GRID CORRECTION
 AZTC.deg                 6.24:  AZM TOTAL CORR
 EPD .m                   0.00:  ELEVATION
 EGL .m                   0.00:  GROUND ELEVATION
 WDMS.m                 128.20:  WD ELEV
 APD .m                  43.29:  DEPTH ABOVE PD
 AGAP.m                  43.29:  AIR GAP
 VSEW.m                  -6.62:  VERT SEC E/W
 VSNS.m                  12.98:  VERT SEC N/S
 EKB .m                  43.29:  KB ELEVATION
 EDF .m                  43.29:  DF ELEVATION
 TDL .m                 147.00:  TOTAL DEPTH (LOGGER)
 VSC .                       0:  VS TO CLOSURE
 MAGU.                 1849241:  MAGUTM CHECKSUM
~Parameter Information Block
#MNEM.UNIT       Value        Description
#---------     -----------    ---------------------------
 AV  .mps                 0.70:  Ann Velocity 
 AZIF.deg               269.43:  Azm, Final 
 BHAT.        Rotary Steerable:  BHA Type 
 BROT.°/30m              -0.03:  Build Rotating 
 BS  .in                  8.50:  Bit Size 
 BSZ .in                  8.50:  Bit Size 
 BTPL.psig              880.00:  Bit Press Loss 
 CABU.                      No:  Customer Abuse 
 CGEO.          Parviz Guliyev:  Customer Geo 
 COMM.                     ôb:  Run Comments 1 
 TCS .hr                 64.59:  Time Ciculation Ended 
 CV  .mps                 2.17:  Crit Velocity 
 DD1 .            Nonso Okafor:  Direct Drillr 1 
 DDSV.               Geo-Pilot:  DD Service 
 DEFF.%                  98.00:  % Det Eff 
 DLRX.°/30m               0.81:  Dogleg Rot Max 
 DLSO.°/30m               0.55:  Dogleg Oriented 
 DLSX.°/30m               0.81:  Dogleg Str Max 
 DRET.      23.50.00 24-Aug-20:  Drill End Time 
 DRST.      07.34.24 22-Aug-20:  Drill Start Tim 
 DTIM.hr                 15.29:  Time Drilling 
 EDEP.m                4461.01:  End Depth 
 ENG1.       Zam Abdullah Sani:  Engineer 1 
 ENG2.         Dair Mahammadov:  Engineer 2 
 ENG3.          Rustam Gadirov:  Engineer 3 
 ETIM.      07.34.24 26-Aug-20:  End Time 
 FLOI.gpm               550.00:  Flow In 
 FLON.gpm               400.00:  Flow In Min 
 FLOS.cptm                1.00:  Fluid Loss 
 FLOX.gpm               600.00:  Flow In Max 
 FTRO.       Formation Presure:  FTWD Run Obj 
 HFLO.                      No:  High Flow 
 HPRE.                      No:  High Pressure 
 HTEM.                      No:  High Temp 
 HYDO.m                   1.80:  Hydro Offset 
 IFIN.deg                66.72:  Inc, Final 
 IMAX.deg                67.42:  Inc Max 
 IMIN.deg                66.72:  Inc Min 
 IMND.m                4408.37:  Inc Min Depth 
 IMXD.m                4323.37:  Inc Max Depth 
 JARR.                      No:  Jarring 
 LETM.      23.50.00 24-Aug-20:  Log End Time 
 LOST.hr                     0:  Lost Rig Time 
 LSTM.      07.34.24 22-Aug-20:  Log Start Time 
 MDCL.ppm             38000.00:  Mud Chlorides 
 MDES.     Inversion Oil/Synthetic:  Mud Desc 
 DFD .sg                  1.40:  Mud Density 
 MDMN.sg                  1.38:  Dens Mud Min 
 MDMX.sg                  1.41:  Dens Mud Max 
 MOIL.                    70.5:  Run Mud Oil % 
 MOWR.                   68:32:  Run Mud OWR 
 MSND.                    0.01:  Run Mud Sand % 
 MSOL.                   17.68:  Run Mud Solids% 
 DFV .spqt               77.00:  Mud Viscosity 
 MWOD.in                  6.75:  MWD Tool OD 
 MWSI.                      No:  Serv Intrp, MWD 
 OTIM.hr                159.42:  Time Operating 
 PCON.           Look Like New:  Pad Condition 
 PMAX.psia             8730.94:  Press Op, Max 
 PV  .cP                 31.00:  Mud PV 
 RUN .                     900:  Run Number 
 ROPA.m/hr               12.00:  ROP Avg 
 ROPN.m/hr                7.00:  ROP Min 
 ROPX.m/hr               17.00:  ROP Max 
 RPMA.rpm               120.00:  RPM Surface Avg 
 RPMN.rpm                60.00:  RPM Surface Min 
 RPMX.rpm               140.00:  RPM Surface Max 
 RRUN.                    L604:  Rig Run Number 
 RTIM.hr                 10.00:  Time Reaming 
 SAZI.deg               270.56:  Azm, Start 
 SDEP.m                4314.01:  Start Depth 
 SIDD.                      No:  Serv Intrp, DD 
 SINC.deg                67.42:  Inc, Start 
 SPPA.psig             3300.00:  SPP Avg 
 SPPN.psig             1750.00:  SPP Min 
 SPPX.psig             4630.00:  SPP Max 
 STIM.      11.00.00 21-Aug-20:  Start Time 
 SVCS.                 DD, MWD:  Services 
 SVER.                    9.20:  Sperry Version 
 TDAT.m                4461.01:  Tot Depth Attmp 
 TDDF.                      No:  Trip for DD 
 TDLG.m                 147.00:  Tot Depth Loggd 
 TFF .                      No:  Trip for Fail 
 TQAA.f-kp               16.00:  Torque Abs Avg 
 TQAN.f-kp               14.00:  Torque Abs Min 
 TQAX.f-kp               20.00:  Torque Abs Max 
 TRRT.°/30m              -0.14:  Turn Rotating 
 MRT .                    HCIM:  Maximum Recorded Temperature 
 TTMX.degC               78.00:  Max Tool Temp 
 VS01.                90515425:  Virtual Str1 SN 
 VS02.                90545184:  Virtual Str2 SN 
 VS03.                90527809:  Virtual Str3 SN 
 VS04.                90515232:  Virtual Str4 SN 
 VS05.                90621207:  Virtual Str5 SN 
 VS06.                90619737:  Virtual Str6 SN 
 WBMN.klb                 2.00:  WOB Min 
 WITN.          Keith Dischler:  Customer Rep 
 WITN.           Faig Mammadov:  Customer Rep 2 
 WOBA.klb                 5.00:  WOB Avg 
 WOBX.klb                 8.00:  WOB Max 
 YP  .lhf2               32.00:  Yield Point 
~Curve Information Block
#MNEM.UNIT                 API CODE     Curve Description
#---------               -----------    ---------------------------
 TIME.HHMMSS            00 000 000 000:  GT Time & Date
 GTET.sec               00 000 000 000:  GT Elapsed Test Time
 GTPQH.psia             00 000 000 000:  GT HR Quartz Pressure
 GTDEPTH.m              00 000 000 000:  GT Depth
 GTTVD.m                00 000 000 000:  GT True Vertical Depth
 GTTQ.degC              00 000 000 000:  GT Quartz Temperature
 GTTN.NONE              00 000 000 000:  GT Test Number
#Other Information
#
#WARRANTY: Halliburton will use its best efforts to furnish customers with 
#accurate information and interpretations that are part of, and incident to, the services 
#provided.  However, Halliburton cannot and does not warrant the accuracy 
#or correctness of such information and interpretations.  Under no circumstances should any 
#such information or interpretation be relied upon as the sole basis for any drilling, 
#completion, production, or financial decision or any procedure involving any risk to the 
#safety of any drilling venture, drilling rig or its crew or any other third party.  The 
#Customer has full responsibility for all drilling, completion and production operation.  
#Halliburton makes no representations or warranties, either expressed or 
#implied, including, but not limited to, the implied warranties of merchantability or fitness 
#for a particular purpose, with respect to the services rendered.  In no event will 
#Halliburton be liable for failure to obtain any particular results or for 
#any damages, including, but not limited to, indirect, special or consequential damages, 
#resulting from the use of any information or interpretation provided by Halliburton.
#
~A           TIME            GTET   GTPQH  GTDEPTH  GTTVD  GTTQ  GTTN 
# ...
   06:18:50.000.25-Aug-2020 368.00 4801.12 4397.01 2075.58 73.32 2.00
   06:18:50.200.25-Aug-2020 368.20 4801.12 4397.01 2075.58 73.32 2.00
   06:18:50.400.25-Aug-2020 368.40 4800.15 4397.01 2075.58 73.32 2.00
   06:18:50.600.25-Aug-2020 368.60 4799.81 4397.01 2075.58 73.32 2.00
   06:18:50.800.25-Aug-2020 368.80 4799.63 4397.01 2075.58 73.32 2.00
   06:18:51.000.25-Aug-2020 369.00 4800.88 4397.01 2075.58 73.32 2.00
   06:18:51.200.25-Aug-2020 369.20 4800.88 4397.01 2075.58 73.32 2.00
   06:18:51.400.25-Aug-2020 369.40 4801.46 4397.01 2075.58 73.32 2.00
   06:18:51.600.25-Aug-2020 369.60 4800.94 4397.01 2075.58 73.32 2.00
   06:18:51.800.25-Aug-2020 369.80 4800.81 4397.01 2075.58 73.32 2.00
   06:18:52.000.25-Aug-2020 370.00 4798.89 4397.01 2075.58 73.32 2.00
   06:18:52.200.25-Aug-2020 370.20 4798.89 4397.01 2075.58 73.32 2.00
   06:18:52.400.25-Aug-2020 370.40 4802.06 4397.01 2075.58 73.32 2.00
   06:18:52.600.25-Aug-2020 370.60 4805.94 4397.01 2075.58 73.32 2.00
   06:18:52.800.25-Aug-2020 370.80 4809.59 4397.01 2075.58 73.32 2.00
   06:18:53.000.25-Aug-2020 371.00 4801.44 4397.01 2075.58 73.32 2.00
   06:18:53.200.25-Aug-2020 371.20 4799.35 4397.01 2075.58 73.32 2.00
   06:18:53.400.25-Aug-2020 371.40 4799.51 4397.01 2075.58 73.32 2.00
   06:18:53.600.25-Aug-2020 371.60 4808.26 4397.01 2075.58 73.32 2.00
   06:18:53.800.25-Aug-2020 371.80 4801.61 4397.01 2075.58 73.32 2.00
   06:18:54.000.25-Aug-2020 372.00 4807.46 4397.01 2075.58 73.32 2.00
   06:18:54.200.25-Aug-2020 372.20 4807.46 4397.01 2075.58 73.32 2.00
   06:18:54.400.25-Aug-2020 372.40 4801.77 4397.01 2075.58 73.32 2.00
   06:18:54.600.25-Aug-2020 372.60 4800.03 4397.01 2075.58 73.32 2.00
   06:18:54.800.25-Aug-2020 372.80 4809.62 4397.01 2075.58 73.32 2.00
   06:18:55.000.25-Aug-2020 373.00 4802.03 4397.01 2075.58 73.32 2.00
   06:18:55.200.25-Aug-2020 373.20 4802.03 4397.01 2075.58 73.32 2.00
   06:18:55.400.25-Aug-2020 373.40 4804.58 4397.01 2075.58 73.32 2.00
   06:18:55.600.25-Aug-2020 373.60 4803.18 4397.01 2075.58 73.32 2.00
   06:18:55.800.25-Aug-2020 373.80 4801.34 4397.01 2075.58 73.32 2.00
   06:18:56.000.25-Aug-2020 374.00 4803.76 4397.01 2075.58 73.32 2.00
   06:18:56.200.25-Aug-2020 374.20 4803.76 4397.01 2075.58 73.32 2.00
   06:18:56.400.25-Aug-2020 374.40 4811.58 4397.01 2075.58 73.32 2.00
   06:18:56.600.25-Aug-2020 374.60 4804.22 4397.01 2075.58 73.32 2.00
   06:18:56.800.25-Aug-2020 374.80 4802.37 4397.01 2075.58 73.32 2.00
   06:18:57.000.25-Aug-2020 375.00 4802.22 4397.01 2075.58 73.32 2.00
   06:18:57.200.25-Aug-2020 375.20 4801.42 4397.01 2075.58 73.32 2.00
   06:18:57.400.25-Aug-2020 375.40 4801.59 4397.01 2075.58 73.32 2.00
   06:18:57.600.25-Aug-2020 375.60 4815.77 4397.01 2075.58 73.32 2.00
   06:18:57.800.25-Aug-2020 375.80 4803.49 4397.01 2075.58 73.32 2.00
   06:18:58.000.25-Aug-2020 376.00 4802.97 4397.01 2075.58 73.32 2.00
   06:18:58.200.25-Aug-2020 376.20 4802.97 4397.01 2075.58 73.32 2.00
   06:18:58.400.25-Aug-2020 376.40 4801.98 4397.01 2075.58 73.32 2.00
   06:18:58.600.25-Aug-2020 376.60 4800.93 4397.01 2075.58 73.32 2.00
   06:18:58.800.25-Aug-2020 376.80 4801.58 4397.01 2075.58 73.32 2.00
   06:18:59.000.25-Aug-2020 377.00 4802.28 4397.01 2075.58 73.32 2.00
   06:18:59.200.25-Aug-2020 377.20 4802.28 4397.01 2075.58 73.32 2.00
   06:18:59.400.25-Aug-2020 377.40 4801.90 4397.01 2075.58 73.32 2.00
   06:18:59.600.25-Aug-2020 377.60 4802.24 4397.01 2075.58 73.32 2.00
   06:18:59.800.25-Aug-2020 377.80 4802.32 4397.01 2075.58 73.32 2.00
   06:19:00.000.25-Aug-2020 378.00 4801.72 4397.01 2075.58 73.32 2.00
   06:19:00.200.25-Aug-2020 378.20 4801.72 4397.01 2075.58 73.32 2.00
   06:19:00.400.25-Aug-2020 378.40 4801.93 4397.01 2075.58 73.32 2.00
   06:19:00.600.25-Aug-2020 378.60 4800.40 4397.01 2075.58 73.32 2.00
   06:19:00.800.25-Aug-2020 378.80 4801.25 4397.01 2075.58 73.32 2.00
   06:19:01.000.25-Aug-2020 379.00 4801.97 4397.01 2075.58 73.32 2.00
   06:19:01.200.25-Aug-2020 379.20 4810.03 4397.01 2075.58 73.32 2.00
   06:19:01.400.25-Aug-2020 379.40 4801.52 4397.01 2075.58 73.32 2.00
   06:19:01.600.25-Aug-2020 379.60 4805.97 4397.01 2075.58 73.32 2.00
   06:19:01.800.25-Aug-2020 379.80 4801.77 4397.01 2075.58 73.32 2.00
   06:19:02.000.25-Aug-2020 380.00 4800.92 4397.01 2075.58 73.32 2.00
   06:19:02.200.25-Aug-2020 380.20 4800.92 4397.01 2075.58 73.32 2.00
   06:19:02.400.25-Aug-2020 380.40 4800.85 4397.01 2075.58 73.32 2.00
   06:19:02.600.25-Aug-2020 380.60 4800.20 4397.01 2075.58 73.32 2.00
   06:19:02.800.25-Aug-2020 380.80 4799.83 4397.01 2075.58 73.32 2.00
   06:19:03.000.25-Aug-2020 381.00 4798.90 4397.01 2075.58 73.32 2.00
   06:19:03.200.25-Aug-2020 381.20 4798.90 4397.01 2075.58 73.32 2.00
   06:19:03.400.25-Aug-2020 381.40 4801.08 4397.01 2075.58 73.32 2.00
   06:19:03.600.25-Aug-2020 381.60 4800.82 4397.01 2075.58 73.32 2.00
   06:19:03.800.25-Aug-2020 381.80 4800.28 4397.01 2075.58 73.32 2.00
   06:19:04.000.25-Aug-2020 382.00 4799.91 4397.01 2075.58 73.32 2.00
   06:19:04.200.25-Aug-2020 382.20 4799.91 4397.01 2075.58 73.32 2.00
   06:19:04.400.25-Aug-2020 382.40 4799.13 4397.01 2075.58 73.32 2.00
   06:19:04.600.25-Aug-2020 382.60 4808.54 4397.01 2075.58 73.32 2.00
   06:19:04.800.25-Aug-2020 382.80 4801.00 4397.01 2075.58 73.32 2.00
   06:19:05.000.25-Aug-2020 383.00 4805.63 4397.01 2075.58 73.32 2.00
   06:19:05.200.25-Aug-2020 383.20 4801.53 4397.01 2075.58 73.32 2.00
   06:19:05.400.25-Aug-2020 383.40 4799.68 4397.01 2075.58 73.32 2.00
   06:19:05.600.25-Aug-2020 383.60 4798.34 4397.01 2075.58 73.32 2.00
   06:19:05.800.25-Aug-2020 383.80 4812.59 4397.01 2075.58 73.32 2.00
   06:19:06.000.25-Aug-2020 384.00 4801.45 4397.01 2075.58 73.32 2.00
   06:19:06.200.25-Aug-2020 384.20 4801.45 4397.01 2075.58 73.32 2.00
   06:19:06.400.25-Aug-2020 384.40 4802.91 4397.01 2075.58 73.32 2.00
   06:19:06.600.25-Aug-2020 384.60 4801.06 4397.01 2075.58 73.32 2.00
   06:19:06.800.25-Aug-2020 384.80 4799.33 4397.01 2075.58 73.32 2.00
   06:19:07.000.25-Aug-2020 385.00 4799.94 4397.01 2075.58 73.32 2.00
   06:19:07.200.25-Aug-2020 385.20 4799.94 4397.01 2075.58 73.32 2.00
   06:19:07.400.25-Aug-2020 385.40 4811.07 4397.01 2075.58 73.32 2.00
   06:19:07.600.25-Aug-2020 385.60 4808.19 4397.01 2075.58 73.32 2.00
   06:19:07.800.25-Aug-2020 385.80 4802.30 4397.01 2075.58 73.31 2.00
   06:19:08.000.25-Aug-2020 386.00 4801.86 4397.01 2075.58 73.31 2.00
   06:19:08.200.25-Aug-2020 386.20 4801.86 4397.01 2075.58 73.31 2.00
   06:19:08.400.25-Aug-2020 386.40 4802.65 4397.01 2075.58 73.31 2.00
   06:19:08.600.25-Aug-2020 386.60 4805.82 4397.01 2075.58 73.31 2.00
   06:19:08.800.25-Aug-2020 386.80 4809.42 4397.01 2075.58 73.31 2.00
   06:19:09.000.25-Aug-2020 387.00 4802.82 4397.01 2075.58 73.31 2.00
   06:19:09.200.25-Aug-2020 387.20 4800.92 4397.01 2075.58 73.31 2.00
   06:19:09.400.25-Aug-2020 387.40 4799.66 4397.01 2075.58 73.31 2.00
   06:19:09.600.25-Aug-2020 387.60 4800.73 4397.01 2075.58 73.31 2.00
   06:19:09.800.25-Aug-2020 387.80 4800.88 4397.01 2075.58 73.31 2.00
   06:19:10.000.25-Aug-2020 388.00 4814.38 4397.01 2075.58 73.31 2.00
   06:19:10.200.25-Aug-2020 388.20 4814.38 4397.01 2075.58 73.31 2.00
   06:19:10.400.25-Aug-2020 388.40 4801.32 4397.01 2075.58 73.31 2.00
   06:19:10.600.25-Aug-2020 388.60 4802.43 4397.01 2075.58 73.31 2.00
   06:19:10.800.25-Aug-2020 388.80 4801.50 4397.01 2075.58 73.31 2.00
   06:19:11.000.25-Aug-2020 389.00 4800.96 4397.01 2075.58 73.31 2.00
   06:19:11.200.25-Aug-2020 389.20 4800.96 4397.01 2075.58 73.31 2.00
   06:19:11.400.25-Aug-2020 389.40 4801.84 4397.01 2075.58 73.31 2.00
   06:19:11.600.25-Aug-2020 389.60 4801.78 4397.01 2075.58 73.31 2.00
   06:19:11.800.25-Aug-2020 389.80 4802.06 4397.01 2075.58 73.31 2.00
   06:19:12.000.25-Aug-2020 390.00 4802.18 4397.01 2075.58 73.31 2.00
   06:19:12.200.25-Aug-2020 390.20 4802.18 4397.01 2075.58 73.31 2.00
   06:19:12.400.25-Aug-2020 390.40 4801.73 4397.01 2075.58 73.31 2.00
   06:19:12.600.25-Aug-2020 390.60 4801.85 4397.01 2075.58 73.31 2.00
   06:19:12.800.25-Aug-2020 390.80 4800.28 4397.01 2075.58 73.31 2.00
