~Version Information
 VERS.                  2.0:   CWLS log ASCII Standard -VERSION 2.0
 WRAP.                   NO:   One line per depth step
~Well Information Block
#MNEM.UNIT     VALUE/NAME     DESCRIPTION
#---------     -----------    ---------------------------
 STRT.S             12:03:19 25-Aug-20: START TIME 12:03:19 25-Aug-20
 STOP.S             12:10:17 25-Aug-20: STOP TIME  12:10:17 25-Aug-20
 STEP.S                   0.00: STEP TIME
 NULL.                 -999.25: NULL VALUE
 DFWT.                        :  DIST FWL TEXT
 DFST.                        :  DIST FSL TEXT
 DMF .             Drill Floor:  DRILL MEAS FROM
 STIM.      09.59.28 01-Jun-20:  START TIME
 DATE.      05.00.00 28-Aug-20:  END TIME
 SPUD.               01-Jun-20:  SPUD DATE
 NREF.                    Grid:  NORTH REFERENCE
 HPTY.       Minimum Curvature:  HOLE POS TYPE
 DMOD.             Drill Model:  DRILL MOD DESC
 SVYD.                  Survey:  SURVEY DESC
 ILTD.               Lithology:  INTERP LTH DESC
 FTOP.          Formation Tops:  FORM TOPS DESC
 SON .        AZ-XX-0905455768:  JOB NUMBER
 WTYP.                Deviated:  WELL TYPE
 COMP.     BP Exploration(Caspian Sea):  COMPANY
 BASE.              Azerbaijan:  LOGGING EQUIPMENT BASE LOCATION
 REGN.                   EESSA:  REGION
 CTRY.              Azerbaijan:  COUNTRY NAME
 FLD .                     ACG:  FIELD NAME
 SRVC.          Turan Drilling:  CONTRACTOR
 WELL.                     B41:  WELL NAME
 RIG .           Central Azeri:  RIG NAME
 DCON.         Sperry Drilling:  DIRECTNL CONTR
 PDAT.          Mean Sea Level:  PERMANENT DATUM
 MDS .        Operator Entered:  MAG DATA SOURCE
 API .                        :  API NUMBER
 CNTY.                        :  COUNTY
 PROV.                        :  PROVINCE
 STAT.                        :  STATE
 UWI .                        :  UNIQUE WELL IDENTIFIER
 LOC .                        :  LOCATION
 LMF .             Drill Floor:  LOG MEASURED FROM
 TVDS.m                  43.29:  TVDSS CORRECTN
 LATI.deg                40.03:  LATITUDE
 LONG.deg                51.35:  LONGITUDE
 WHNS.m                  12.98:  WELL HEAD N/S
 WHEW.m                  -6.62:  WELL HEAD E/W
 UTMX.m              530128.28:  UTM X
 UTMY.m             4433192.49:  UTM Y
 DFWL.m                   0.00:  DISTANCE FWL
 DFSL.m                   0.00:  DISTANCE FSL
 SDEP.m                 378.00:  START DEPTH
 TDD .m                4463.01:  TOTAL DEPTH (DRILLER)
 VSDR.deg               296.18:  VERT SEC DIRECT
 GVFD.g                   1.00:  GRAVITY FIELD
 MFLD.nT              50269.00:  MAGNETIC FIELD
 MDIP.deg                59.50:  MAGNETIC DIP
 MDEC.deg                 6.44:  MAGNETIC DECL
 GRDC.deg                 0.20:  GRID CORRECTION
 AZTC.deg                 6.24:  AZM TOTAL CORR
 EPD .m                   0.00:  ELEVATION
 EGL .m                   0.00:  GROUND ELEVATION
 WDMS.m                 128.20:  WD ELEV
 APD .m                  43.29:  DEPTH ABOVE PD
 AGAP.m                  43.29:  AIR GAP
 VSEW.m                  -6.62:  VERT SEC E/W
 VSNS.m                  12.98:  VERT SEC N/S
 EKB .m                  43.29:  KB ELEVATION
 EDF .m                  43.29:  DF ELEVATION
 TDL .m                 147.00:  TOTAL DEPTH (LOGGER)
 VSC .                       0:  VS TO CLOSURE
 MAGU.                 1849241:  MAGUTM CHECKSUM
~Parameter Information Block
#MNEM.UNIT       Value        Description
#---------     -----------    ---------------------------
 AV  .mps                 0.70:  Ann Velocity 
 AZIF.deg               269.43:  Azm, Final 
 BHAT.        Rotary Steerable:  BHA Type 
 BROT.°/30m              -0.03:  Build Rotating 
 BS  .in                  8.50:  Bit Size 
 BSZ .in                  8.50:  Bit Size 
 BTPL.psig              880.00:  Bit Press Loss 
 CABU.                      No:  Customer Abuse 
 CGEO.          Parviz Guliyev:  Customer Geo 
 COMM.                     DVX:  Run Comments 1 
 TCS .hr                 64.59:  Time Ciculation Ended 
 CV  .mps                 2.17:  Crit Velocity 
 DD1 .            Nonso Okafor:  Direct Drillr 1 
 DDSV.               Geo-Pilot:  DD Service 
 DEFF.%                  98.00:  % Det Eff 
 DLRX.°/30m               0.81:  Dogleg Rot Max 
 DLSO.°/30m               0.55:  Dogleg Oriented 
 DLSX.°/30m               0.81:  Dogleg Str Max 
 DRET.      23.50.00 24-Aug-20:  Drill End Time 
 DRST.      07.34.24 22-Aug-20:  Drill Start Tim 
 DTIM.hr                 15.29:  Time Drilling 
 EDEP.m                4461.01:  End Depth 
 ENG1.       Zam Abdullah Sani:  Engineer 1 
 ENG2.         Dair Mahammadov:  Engineer 2 
 ENG3.          Rustam Gadirov:  Engineer 3 
 ETIM.      07.34.24 26-Aug-20:  End Time 
 FLOI.gpm               550.00:  Flow In 
 FLON.gpm               400.00:  Flow In Min 
 FLOS.cptm                1.00:  Fluid Loss 
 FLOX.gpm               600.00:  Flow In Max 
 FTRO.       Formation Presure:  FTWD Run Obj 
 HFLO.                      No:  High Flow 
 HPRE.                      No:  High Pressure 
 HTEM.                      No:  High Temp 
 HYDO.m                   1.80:  Hydro Offset 
 IFIN.deg                66.72:  Inc, Final 
 IMAX.deg                67.42:  Inc Max 
 IMIN.deg                66.72:  Inc Min 
 IMND.m                4408.37:  Inc Min Depth 
 IMXD.m                4323.37:  Inc Max Depth 
 JARR.                      No:  Jarring 
 LETM.      23.50.00 24-Aug-20:  Log End Time 
 LOST.hr                     0:  Lost Rig Time 
 LSTM.      07.34.24 22-Aug-20:  Log Start Time 
 MDCL.ppm             38000.00:  Mud Chlorides 
 MDES.     Inversion Oil/Synthetic:  Mud Desc 
 DFD .sg                  1.40:  Mud Density 
 MDMN.sg                  1.38:  Dens Mud Min 
 MDMX.sg                  1.41:  Dens Mud Max 
 MOIL.                    70.5:  Run Mud Oil % 
 MOWR.                   68:32:  Run Mud OWR 
 MSND.                    0.01:  Run Mud Sand % 
 MSOL.                   17.68:  Run Mud Solids% 
 DFV .spqt               77.00:  Mud Viscosity 
 MWOD.in                  6.75:  MWD Tool OD 
 MWSI.                      No:  Serv Intrp, MWD 
 OTIM.hr                159.42:  Time Operating 
 PCON.           Look Like New:  Pad Condition 
 PMAX.psia             8730.94:  Press Op, Max 
 PV  .cP                 31.00:  Mud PV 
 RUN .                     900:  Run Number 
 ROPA.m/hr               12.00:  ROP Avg 
 ROPN.m/hr                7.00:  ROP Min 
 ROPX.m/hr               17.00:  ROP Max 
 RPMA.rpm               120.00:  RPM Surface Avg 
 RPMN.rpm                60.00:  RPM Surface Min 
 RPMX.rpm               140.00:  RPM Surface Max 
 RRUN.                    L604:  Rig Run Number 
 RTIM.hr                 10.00:  Time Reaming 
 SAZI.deg               270.56:  Azm, Start 
 SDEP.m                4314.01:  Start Depth 
 SIDD.                      No:  Serv Intrp, DD 
 SINC.deg                67.42:  Inc, Start 
 SPPA.psig             3300.00:  SPP Avg 
 SPPN.psig             1750.00:  SPP Min 
 SPPX.psig             4630.00:  SPP Max 
 STIM.      11.00.00 21-Aug-20:  Start Time 
 SVCS.                 DD, MWD:  Services 
 SVER.                    9.20:  Sperry Version 
 TDAT.m                4461.01:  Tot Depth Attmp 
 TDDF.                      No:  Trip for DD 
 TDLG.m                 147.00:  Tot Depth Loggd 
 TFF .                      No:  Trip for Fail 
 TQAA.f-kp               16.00:  Torque Abs Avg 
 TQAN.f-kp               14.00:  Torque Abs Min 
 TQAX.f-kp               20.00:  Torque Abs Max 
 TRRT.°/30m              -0.14:  Turn Rotating 
 MRT .                    HCIM:  Maximum Recorded Temperature 
 TTMX.degC               78.00:  Max Tool Temp 
 VS01.                90515425:  Virtual Str1 SN 
 VS02.                90545184:  Virtual Str2 SN 
 VS03.                90527809:  Virtual Str3 SN 
 VS04.                90515232:  Virtual Str4 SN 
 VS05.                90621207:  Virtual Str5 SN 
 VS06.                90619737:  Virtual Str6 SN 
 WBMN.klb                 2.00:  WOB Min 
 WITN.          Keith Dischler:  Customer Rep 
 WITN.           Faig Mammadov:  Customer Rep 2 
 WOBA.klb                 5.00:  WOB Avg 
 WOBX.klb                 8.00:  WOB Max 
 YP  .lhf2               32.00:  Yield Point 
~Curve Information Block
#MNEM.UNIT                 API CODE     Curve Description
#---------               -----------    ---------------------------
 TIME.HHMMSS            00 000 000 000:  GT Time & Date
 GTET.sec               00 000 000 000:  GT Elapsed Test Time
 GTPQH.psia             00 000 000 000:  GT HR Quartz Pressure
 GTDEPTH.m              00 000 000 000:  GT Depth
 GTTVD.m                00 000 000 000:  GT True Vertical Depth
 GTTQ.degC              00 000 000 000:  GT Quartz Temperature
 GTTN.NONE              00 000 000 000:  GT Test Number
#Other Information
#
#WARRANTY: Halliburton will use its best efforts to furnish customers with 
#accurate information and interpretations that are part of, and incident to, the services 
#provided.  However, Halliburton cannot and does not warrant the accuracy 
#or correctness of such information and interpretations.  Under no circumstances should any 
#such information or interpretation be relied upon as the sole basis for any drilling, 
#completion, production, or financial decision or any procedure involving any risk to the 
#safety of any drilling venture, drilling rig or its crew or any other third party.  The 
#Customer has full responsibility for all drilling, completion and production operation.  
#Halliburton makes no representations or warranties, either expressed or 
#implied, including, but not limited to, the implied warranties of merchantability or fitness 
#for a particular purpose, with respect to the services rendered.  In no event will 
#Halliburton be liable for failure to obtain any particular results or for 
#any damages, including, but not limited to, indirect, special or consequential damages, 
#resulting from the use of any information or interpretation provided by Halliburton.
#
~A           TIME            GTET   GTPQH  GTDEPTH  GTTVD  GTTQ  GTTN  
# ...
   12:09:43.200.25-Aug-2020 384.20 4780.98 4311.51 2042.13 71.77 11.00
   12:09:43.400.25-Aug-2020 384.40 4773.02 4311.51 2042.13 71.77 11.00
   12:09:43.600.25-Aug-2020 384.60 4766.99 4311.51 2042.13 71.77 11.00
   12:09:43.800.25-Aug-2020 384.80 4766.87 4311.51 2042.13 71.77 11.00
   12:09:44.000.25-Aug-2020 385.00 4765.84 4311.51 2042.13 71.77 11.00
   12:09:44.200.25-Aug-2020 385.20 4766.52 4311.51 2042.13 71.77 11.00
   12:09:44.400.25-Aug-2020 385.40 4764.60 4311.51 2042.13 71.77 11.00
   12:09:44.600.25-Aug-2020 385.60 4765.39 4311.51 2042.13 71.77 11.00
   12:09:44.800.25-Aug-2020 385.80 4764.65 4311.51 2042.13 71.77 11.00
   12:09:45.000.25-Aug-2020 386.00 4764.64 4311.51 2042.13 71.77 11.00
   12:09:45.200.25-Aug-2020 386.20 4765.61 4311.51 2042.13 71.77 11.00
   12:09:45.400.25-Aug-2020 386.40 4765.51 4311.51 2042.13 71.77 11.00
   12:09:45.600.25-Aug-2020 386.60 4764.88 4311.51 2042.13 71.77 11.00
   12:09:45.800.25-Aug-2020 386.80 4764.81 4311.51 2042.13 71.77 11.00
   12:09:46.000.25-Aug-2020 387.00 4765.46 4311.51 2042.13 71.77 11.00
   12:09:46.200.25-Aug-2020 387.20 4765.46 4311.51 2042.13 71.76 11.00
   12:09:46.400.25-Aug-2020 387.40 4779.71 4311.51 2042.13 71.76 11.00
   12:09:46.600.25-Aug-2020 387.60 4757.54 4311.51 2042.13 71.76 11.00
   12:09:46.800.25-Aug-2020 387.80 4772.33 4311.51 2042.13 71.76 11.00
   12:09:47.000.25-Aug-2020 388.00 4766.56 4311.51 2042.13 71.76 11.00
   12:09:47.200.25-Aug-2020 388.20 4766.56 4311.51 2042.13 71.76 11.00
   12:09:47.400.25-Aug-2020 388.40 4765.06 4311.51 2042.13 71.76 11.00
   12:09:47.600.25-Aug-2020 388.60 4773.72 4311.51 2042.13 71.76 11.00
   12:09:47.800.25-Aug-2020 388.80 4764.78 4311.51 2042.13 71.76 11.00
   12:09:48.000.25-Aug-2020 389.00 4769.70 4311.51 2042.13 71.76 11.00
   12:09:48.200.25-Aug-2020 389.20 4769.70 4311.51 2042.13 71.76 11.00
   12:09:48.400.25-Aug-2020 389.40 4765.16 4311.51 2042.13 71.76 11.00
   12:09:48.600.25-Aug-2020 389.60 4764.14 4311.51 2042.13 71.76 11.00
   12:09:48.800.25-Aug-2020 389.80 4781.67 4311.51 2042.13 71.76 11.00
   12:09:49.000.25-Aug-2020 390.00 4755.83 4311.51 2042.13 71.76 11.00
   12:09:49.200.25-Aug-2020 390.20 4773.63 4311.51 2042.13 71.76 11.00
   12:09:49.400.25-Aug-2020 390.40 4765.84 4311.51 2042.13 71.76 11.00
   12:09:49.600.25-Aug-2020 390.60 4766.70 4311.51 2042.13 71.76 11.00
   12:09:49.800.25-Aug-2020 390.80 4766.00 4311.51 2042.13 71.76 11.00
   12:09:50.000.25-Aug-2020 391.00 4775.97 4311.51 2042.13 71.76 11.00
   12:09:50.200.25-Aug-2020 391.20 4775.97 4311.51 2042.13 71.76 11.00
   12:09:50.400.25-Aug-2020 391.40 4769.64 4311.51 2042.13 71.76 11.00
   12:09:50.600.25-Aug-2020 391.60 4769.09 4311.51 2042.13 71.76 11.00
   12:09:50.800.25-Aug-2020 391.80 4767.16 4311.51 2042.13 71.76 11.00
   12:09:51.000.25-Aug-2020 392.00 4764.85 4311.51 2042.13 71.76 11.00
   12:09:51.200.25-Aug-2020 392.20 4764.85 4311.51 2042.13 71.76 11.00
   12:09:51.400.25-Aug-2020 392.40 4758.89 4311.51 2042.13 71.76 11.00
   12:09:51.600.25-Aug-2020 392.60 4772.64 4311.51 2042.13 71.76 11.00
   12:09:51.800.25-Aug-2020 392.80 4766.96 4311.51 2042.13 71.76 11.00
   12:09:52.000.25-Aug-2020 393.00 4766.48 4311.51 2042.13 71.76 11.00
   12:09:52.200.25-Aug-2020 393.20 4765.47 4311.51 2042.13 71.76 11.00
   12:09:52.400.25-Aug-2020 393.40 4765.84 4311.51 2042.13 71.75 11.00
   12:09:52.600.25-Aug-2020 393.60 4765.20 4311.51 2042.13 71.75 11.00
   12:09:52.800.25-Aug-2020 393.80 4766.39 4311.51 2042.13 71.75 11.00
   12:09:53.000.25-Aug-2020 394.00 4765.81 4311.51 2042.13 71.75 11.00
   12:09:53.200.25-Aug-2020 394.20 4765.81 4311.51 2042.13 71.75 11.00
   12:09:53.400.25-Aug-2020 394.40 4766.01 4311.51 2042.13 71.75 11.00
   12:09:53.600.25-Aug-2020 394.60 4765.96 4311.51 2042.13 71.75 11.00
   12:09:53.800.25-Aug-2020 394.80 4766.91 4311.51 2042.13 71.75 11.00
   12:09:54.000.25-Aug-2020 395.00 4767.57 4311.51 2042.13 71.75 11.00
   12:09:54.200.25-Aug-2020 395.20 4767.57 4311.51 2042.13 71.75 11.00
   12:09:54.400.25-Aug-2020 395.40 4766.11 4311.51 2042.13 71.75 11.00
   12:09:54.600.25-Aug-2020 395.60 4765.30 4311.51 2042.13 71.75 11.00
   12:09:54.800.25-Aug-2020 395.80 4782.33 4311.51 2042.13 71.75 11.00
   12:09:55.000.25-Aug-2020 396.00 4757.27 4311.51 2042.13 71.75 11.00
   12:09:55.200.25-Aug-2020 396.20 4757.27 4311.51 2042.13 71.75 11.00
   12:09:55.400.25-Aug-2020 396.40 4764.87 4311.51 2042.13 71.75 11.00
   12:09:55.600.25-Aug-2020 396.60 4766.83 4311.51 2042.13 71.75 11.00
   12:09:55.800.25-Aug-2020 396.80 4765.00 4311.51 2042.13 71.75 11.00
   12:09:56.000.25-Aug-2020 397.00 4766.07 4311.51 2042.13 71.75 11.00
   12:09:56.200.25-Aug-2020 397.20 4765.69 4311.51 2042.13 71.75 11.00
   12:09:56.400.25-Aug-2020 397.40 4765.76 4311.51 2042.13 71.75 11.00
   12:09:56.600.25-Aug-2020 397.60 4765.06 4311.51 2042.13 71.75 11.00
   12:09:56.800.25-Aug-2020 397.80 4765.17 4311.51 2042.13 71.75 11.00
   12:09:57.000.25-Aug-2020 398.00 4764.79 4311.51 2042.13 71.75 11.00
   12:09:57.200.25-Aug-2020 398.20 4765.08 4311.51 2042.13 71.75 11.00
   12:09:57.400.25-Aug-2020 398.40 4765.38 4311.51 2042.13 71.75 11.00
   12:09:57.600.25-Aug-2020 398.60 4765.85 4311.51 2042.13 71.75 11.00
   12:09:57.800.25-Aug-2020 398.80 4763.96 4311.51 2042.13 71.75 11.00
   12:09:58.000.25-Aug-2020 399.00 4764.18 4311.51 2042.13 71.75 11.00
   12:09:58.200.25-Aug-2020 399.20 4764.18 4311.51 2042.13 71.75 11.00
   12:09:58.400.25-Aug-2020 399.40 4756.23 4311.51 2042.13 71.75 11.00
   12:09:58.600.25-Aug-2020 399.60 4772.74 4311.51 2042.13 71.75 11.00
   12:09:58.800.25-Aug-2020 399.80 4765.03 4311.51 2042.13 71.75 11.00
   12:09:59.000.25-Aug-2020 400.00 4765.91 4311.51 2042.13 71.75 11.00
   12:09:59.200.25-Aug-2020 400.20 4765.91 4311.51 2042.13 71.75 11.00
   12:09:59.400.25-Aug-2020 400.40 4779.94 4311.51 2042.13 71.75 11.00
   12:09:59.600.25-Aug-2020 400.60 4757.75 4311.51 2042.13 71.75 11.00
   12:09:59.800.25-Aug-2020 400.80 4772.53 4311.51 2042.13 71.75 11.00
   12:10:00.000.25-Aug-2020 401.00 4766.60 4311.51 2042.13 71.74 11.00
   12:10:00.200.25-Aug-2020 401.20 4766.60 4311.51 2042.13 71.74 11.00
   12:10:00.400.25-Aug-2020 401.40 4765.17 4311.51 2042.13 71.74 11.00
   12:10:00.600.25-Aug-2020 401.60 4772.05 4311.51 2042.13 71.74 11.00
   12:10:00.800.25-Aug-2020 401.80 4765.53 4311.51 2042.13 71.74 11.00
   12:10:01.000.25-Aug-2020 402.00 4774.15 4311.51 2042.13 71.74 11.00
   12:10:01.200.25-Aug-2020 402.20 4774.15 4311.51 2042.13 71.74 11.00
   12:10:01.400.25-Aug-2020 402.40 4768.02 4311.51 2042.13 71.74 11.00
   12:10:01.600.25-Aug-2020 402.60 4768.37 4311.51 2042.13 71.74 11.00
   12:10:01.800.25-Aug-2020 402.80 4781.45 4311.51 2042.13 71.74 11.00
   12:10:02.000.25-Aug-2020 403.00 4757.10 4311.51 2042.13 71.74 11.00
   12:10:02.200.25-Aug-2020 403.20 4757.10 4311.51 2042.13 71.74 11.00
   12:10:02.400.25-Aug-2020 403.40 4766.76 4311.51 2042.13 71.74 11.00
   12:10:02.600.25-Aug-2020 403.60 4766.96 4311.51 2042.13 71.74 11.00
   12:10:02.800.25-Aug-2020 403.80 4767.10 4311.51 2042.13 71.74 11.00
   12:10:03.000.25-Aug-2020 404.00 4766.77 4311.51 2042.13 71.74 11.00
   12:10:03.200.25-Aug-2020 404.20 4766.77 4311.51 2042.13 71.74 11.00
   12:10:03.400.25-Aug-2020 404.40 4758.33 4311.51 2042.13 71.74 11.00
   12:10:03.600.25-Aug-2020 404.60 4774.23 4311.51 2042.13 71.74 11.00
   12:10:03.800.25-Aug-2020 404.80 4767.32 4311.51 2042.13 71.74 11.00
   12:10:04.000.25-Aug-2020 405.00 4766.10 4311.51 2042.13 71.74 11.00
   12:10:04.200.25-Aug-2020 405.20 4765.76 4311.51 2042.13 71.74 11.00
   12:10:04.400.25-Aug-2020 405.40 4767.05 4311.51 2042.13 71.74 11.00
   12:10:04.600.25-Aug-2020 405.60 4765.21 4311.51 2042.13 71.74 11.00
   12:10:04.800.25-Aug-2020 405.80 4765.90 4311.51 2042.13 71.74 11.00
   12:10:05.000.25-Aug-2020 406.00 4766.91 4311.51 2042.13 71.74 11.00
   12:10:05.200.25-Aug-2020 406.20 4766.02 4311.51 2042.13 71.74 11.00
   12:10:05.400.25-Aug-2020 406.40 4765.62 4311.51 2042.13 71.74 11.00
   12:10:05.600.25-Aug-2020 406.60 4766.00 4311.51 2042.13 71.74 11.00
