~Version Information
 VERS.                  2.0:   CWLS log ASCII Standard -VERSION 2.0
 WRAP.                   NO:   One line per depth step
~Well Information Block
#MNEM.UNIT     VALUE/NAME     DESCRIPTION
#---------     -----------    ---------------------------
 STRT.S             06:46:09 25-Aug-20: START TIME 06:46:09 25-Aug-20
 STOP.S             06:53:03 25-Aug-20: STOP TIME  06:53:03 25-Aug-20
 STEP.S                   0.00: STEP TIME
 NULL.                 -999.25: NULL VALUE
 DFWT.                        :  DIST FWL TEXT
 DFST.                        :  DIST FSL TEXT
 DMF .             Drill Floor:  DRILL MEAS FROM
 STIM.      09.59.28 01-Jun-20:  START TIME
 DATE.      05.00.00 28-Aug-20:  END TIME
 SPUD.               01-Jun-20:  SPUD DATE
 NREF.                    Grid:  NORTH REFERENCE
 HPTY.       Minimum Curvature:  HOLE POS TYPE
 DMOD.             Drill Model:  DRILL MOD DESC
 SVYD.                  Survey:  SURVEY DESC
 ILTD.               Lithology:  INTERP LTH DESC
 FTOP.          Formation Tops:  FORM TOPS DESC
 SON .        AZ-XX-0905455768:  JOB NUMBER
 WTYP.                Deviated:  WELL TYPE
 COMP.     BP Exploration(Caspian Sea):  COMPANY
 BASE.              Azerbaijan:  LOGGING EQUIPMENT BASE LOCATION
 REGN.                   EESSA:  REGION
 CTRY.              Azerbaijan:  COUNTRY NAME
 FLD .                     ACG:  FIELD NAME
 SRVC.          Turan Drilling:  CONTRACTOR
 WELL.                     B41:  WELL NAME
 RIG .           Central Azeri:  RIG NAME
 DCON.         Sperry Drilling:  DIRECTNL CONTR
 PDAT.          Mean Sea Level:  PERMANENT DATUM
 MDS .        Operator Entered:  MAG DATA SOURCE
 API .                        :  API NUMBER
 CNTY.                        :  COUNTY
 PROV.                        :  PROVINCE
 STAT.                        :  STATE
 UWI .                        :  UNIQUE WELL IDENTIFIER
 LOC .                        :  LOCATION
 LMF .             Drill Floor:  LOG MEASURED FROM
 TVDS.m                  43.29:  TVDSS CORRECTN
 LATI.deg                40.03:  LATITUDE
 LONG.deg                51.35:  LONGITUDE
 WHNS.m                  12.98:  WELL HEAD N/S
 WHEW.m                  -6.62:  WELL HEAD E/W
 UTMX.m              530128.28:  UTM X
 UTMY.m             4433192.49:  UTM Y
 DFWL.m                   0.00:  DISTANCE FWL
 DFSL.m                   0.00:  DISTANCE FSL
 SDEP.m                 378.00:  START DEPTH
 TDD .m                4463.01:  TOTAL DEPTH (DRILLER)
 VSDR.deg               296.18:  VERT SEC DIRECT
 GVFD.g                   1.00:  GRAVITY FIELD
 MFLD.nT              50269.00:  MAGNETIC FIELD
 MDIP.deg                59.50:  MAGNETIC DIP
 MDEC.deg                 6.44:  MAGNETIC DECL
 GRDC.deg                 0.20:  GRID CORRECTION
 AZTC.deg                 6.24:  AZM TOTAL CORR
 EPD .m                   0.00:  ELEVATION
 EGL .m                   0.00:  GROUND ELEVATION
 WDMS.m                 128.20:  WD ELEV
 APD .m                  43.29:  DEPTH ABOVE PD
 AGAP.m                  43.29:  AIR GAP
 VSEW.m                  -6.62:  VERT SEC E/W
 VSNS.m                  12.98:  VERT SEC N/S
 EKB .m                  43.29:  KB ELEVATION
 EDF .m                  43.29:  DF ELEVATION
 TDL .m                 147.00:  TOTAL DEPTH (LOGGER)
 VSC .                       0:  VS TO CLOSURE
 MAGU.                 1849241:  MAGUTM CHECKSUM
~Parameter Information Block
#MNEM.UNIT       Value        Description
#---------     -----------    ---------------------------
 AV  .mps                 0.70:  Ann Velocity 
 AZIF.deg               269.43:  Azm, Final 
 BHAT.        Rotary Steerable:  BHA Type 
 BROT.°/30m              -0.03:  Build Rotating 
 BS  .in                  8.50:  Bit Size 
 BSZ .in                  8.50:  Bit Size 
 BTPL.psig              880.00:  Bit Press Loss 
 CABU.                      No:  Customer Abuse 
 CGEO.          Parviz Guliyev:  Customer Geo 
 TCS .hr                 64.59:  Time Ciculation Ended 
 CV  .mps                 2.17:  Crit Velocity 
 DD1 .            Nonso Okafor:  Direct Drillr 1 
 DDSV.               Geo-Pilot:  DD Service 
 DEFF.%                  98.00:  % Det Eff 
 DLRX.°/30m               0.81:  Dogleg Rot Max 
 DLSO.°/30m               0.55:  Dogleg Oriented 
 DLSX.°/30m               0.81:  Dogleg Str Max 
 DRET.      23.50.00 24-Aug-20:  Drill End Time 
 DRST.      07.34.24 22-Aug-20:  Drill Start Tim 
 DTIM.hr                 15.29:  Time Drilling 
 EDEP.m                4461.01:  End Depth 
 ENG1.       Zam Abdullah Sani:  Engineer 1 
 ENG2.         Dair Mahammadov:  Engineer 2 
 ENG3.          Rustam Gadirov:  Engineer 3 
 ETIM.      07.34.24 26-Aug-20:  End Time 
 FLOI.gpm               550.00:  Flow In 
 FLON.gpm               400.00:  Flow In Min 
 FLOS.cptm                1.00:  Fluid Loss 
 FLOX.gpm               600.00:  Flow In Max 
 FTRO.       Formation Presure:  FTWD Run Obj 
 HFLO.                      No:  High Flow 
 HPRE.                      No:  High Pressure 
 HTEM.                      No:  High Temp 
 HYDO.m                   1.80:  Hydro Offset 
 IFIN.deg                66.72:  Inc, Final 
 IMAX.deg                67.42:  Inc Max 
 IMIN.deg                66.72:  Inc Min 
 IMND.m                4408.37:  Inc Min Depth 
 IMXD.m                4323.37:  Inc Max Depth 
 JARR.                      No:  Jarring 
 LETM.      23.50.00 24-Aug-20:  Log End Time 
 LOST.hr                     0:  Lost Rig Time 
 LSTM.      07.34.24 22-Aug-20:  Log Start Time 
 MDCL.ppm             38000.00:  Mud Chlorides 
 MDES.     Inversion Oil/Synthetic:  Mud Desc 
 DFD .sg                  1.40:  Mud Density 
 MDMN.sg                  1.38:  Dens Mud Min 
 MDMX.sg                  1.41:  Dens Mud Max 
 MOIL.                    70.5:  Run Mud Oil % 
 MOWR.                   68:32:  Run Mud OWR 
 MSND.                    0.01:  Run Mud Sand % 
 MSOL.                   17.68:  Run Mud Solids% 
 DFV .spqt               77.00:  Mud Viscosity 
 MWOD.in                  6.75:  MWD Tool OD 
 MWSI.                      No:  Serv Intrp, MWD 
 OTIM.hr                159.42:  Time Operating 
 PCON.           Look Like New:  Pad Condition 
 PMAX.psia             8730.94:  Press Op, Max 
 PV  .cP                 31.00:  Mud PV 
 RUN .                     900:  Run Number 
 ROPA.m/hr               12.00:  ROP Avg 
 ROPN.m/hr                7.00:  ROP Min 
 ROPX.m/hr               17.00:  ROP Max 
 RPMA.rpm               120.00:  RPM Surface Avg 
 RPMN.rpm                60.00:  RPM Surface Min 
 RPMX.rpm               140.00:  RPM Surface Max 
 RRUN.                    L604:  Rig Run Number 
 RTIM.hr                 10.00:  Time Reaming 
 SAZI.deg               270.56:  Azm, Start 
 SDEP.m                4314.01:  Start Depth 
 SIDD.                      No:  Serv Intrp, DD 
 SINC.deg                67.42:  Inc, Start 
 SPPA.psig             3300.00:  SPP Avg 
 SPPN.psig             1750.00:  SPP Min 
 SPPX.psig             4630.00:  SPP Max 
 STIM.      11.00.00 21-Aug-20:  Start Time 
 SVCS.                 DD, MWD:  Services 
 SVER.                    9.20:  Sperry Version 
 TDAT.m                4461.01:  Tot Depth Attmp 
 TDDF.                      No:  Trip for DD 
 TDLG.m                 147.00:  Tot Depth Loggd 
 TFF .                      No:  Trip for Fail 
 TQAA.f-kp               16.00:  Torque Abs Avg 
 TQAN.f-kp               14.00:  Torque Abs Min 
 TQAX.f-kp               20.00:  Torque Abs Max 
 TRRT.°/30m              -0.14:  Turn Rotating 
 MRT .                    HCIM:  Maximum Recorded Temperature 
 TTMX.degC               78.00:  Max Tool Temp 
 VS01.                90515425:  Virtual Str1 SN 
 VS02.                90545184:  Virtual Str2 SN 
 VS03.                90527809:  Virtual Str3 SN 
 VS04.                90515232:  Virtual Str4 SN 
 VS05.                90621207:  Virtual Str5 SN 
 VS06.                90619737:  Virtual Str6 SN 
 WBMN.klb                 2.00:  WOB Min 
 WITN.          Keith Dischler:  Customer Rep 
 WITN.           Faig Mammadov:  Customer Rep 2 
 WOBA.klb                 5.00:  WOB Avg 
 WOBX.klb                 8.00:  WOB Max 
 YP  .lhf2               32.00:  Yield Point 
~Curve Information Block
#MNEM.UNIT                 API CODE     Curve Description
#---------               -----------    ---------------------------
 TIME.HHMMSS            00 000 000 000:  GT Time & Date
 GTET.sec               00 000 000 000:  GT Elapsed Test Time
 GTPQH.psia             00 000 000 000:  GT HR Quartz Pressure
 GTDEPTH.m              00 000 000 000:  GT Depth
 GTTVD.m                00 000 000 000:  GT True Vertical Depth
 GTTQ.degC              00 000 000 000:  GT Quartz Temperature
 GTTN.NONE              00 000 000 000:  GT Test Number
#Other Information
#
#WARRANTY: Halliburton will use its best efforts to furnish customers with 
#accurate information and interpretations that are part of, and incident to, the services 
#provided.  However, Halliburton cannot and does not warrant the accuracy 
#or correctness of such information and interpretations.  Under no circumstances should any 
#such information or interpretation be relied upon as the sole basis for any drilling, 
#completion, production, or financial decision or any procedure involving any risk to the 
#safety of any drilling venture, drilling rig or its crew or any other third party.  The 
#Customer has full responsibility for all drilling, completion and production operation.  
#Halliburton makes no representations or warranties, either expressed or 
#implied, including, but not limited to, the implied warranties of merchantability or fitness 
#for a particular purpose, with respect to the services rendered.  In no event will 
#Halliburton be liable for failure to obtain any particular results or for 
#any damages, including, but not limited to, indirect, special or consequential damages, 
#resulting from the use of any information or interpretation provided by Halliburton.
#
~A           TIME            GTET   GTPQH  GTDEPTH  GTTVD  GTTQ  GTTN 
# ...
   06:48:04.000.25-Aug-2020 115.00   35.26 4396.51 2075.38 73.05 3.00
   06:48:04.200.25-Aug-2020 115.20   35.28 4396.51 2075.38 73.05 3.00
   06:48:04.400.25-Aug-2020 115.40   35.31 4396.51 2075.38 73.05 3.00
   06:48:04.600.25-Aug-2020 115.60   35.31 4396.51 2075.38 73.05 3.00
   06:48:04.800.25-Aug-2020 115.80   35.33 4396.51 2075.38 73.05 3.00
   06:48:05.000.25-Aug-2020 116.00   35.36 4396.51 2075.38 73.05 3.00
   06:48:05.200.25-Aug-2020 116.20   35.38 4396.51 2075.38 73.05 3.00
   06:48:05.400.25-Aug-2020 116.40   35.39 4396.51 2075.38 73.05 3.00
   06:48:05.600.25-Aug-2020 116.60   35.41 4396.51 2075.38 73.05 3.00
   06:48:05.800.25-Aug-2020 116.80   35.42 4396.51 2075.38 73.05 3.00
   06:48:06.000.25-Aug-2020 117.00   35.44 4396.51 2075.38 73.05 3.00
   06:48:06.200.25-Aug-2020 117.20   35.44 4396.51 2075.38 73.05 3.00
   06:48:06.400.25-Aug-2020 117.40   35.48 4396.51 2075.38 73.05 3.00
   06:48:06.600.25-Aug-2020 117.60   35.49 4396.51 2075.38 73.05 3.00
   06:48:06.800.25-Aug-2020 117.80   35.50 4396.51 2075.38 73.05 3.00
   06:48:07.000.25-Aug-2020 118.00   35.52 4396.51 2075.38 73.05 3.00
   06:48:07.200.25-Aug-2020 118.20   35.52 4396.51 2075.38 73.05 3.00
   06:48:07.400.25-Aug-2020 118.40   35.56 4396.51 2075.38 73.05 3.00
   06:48:07.600.25-Aug-2020 118.60   35.58 4396.51 2075.38 73.05 3.00
   06:48:07.800.25-Aug-2020 118.80   35.60 4396.51 2075.38 73.05 3.00
   06:48:08.000.25-Aug-2020 119.00   35.61 4396.51 2075.38 73.05 3.00
   06:48:08.200.25-Aug-2020 119.20   35.63 4396.51 2075.38 73.05 3.00
   06:48:08.400.25-Aug-2020 119.40   35.65 4396.51 2075.38 73.05 3.00
   06:48:08.600.25-Aug-2020 119.60   35.66 4396.51 2075.38 73.05 3.00
   06:48:08.800.25-Aug-2020 119.80   35.69 4396.51 2075.38 73.05 3.00
   06:48:09.000.25-Aug-2020 120.00   35.70 4396.51 2075.38 73.06 3.00
   06:48:09.200.25-Aug-2020 120.20   35.72 4396.51 2075.38 73.05 3.00
   06:48:09.400.25-Aug-2020 120.40   35.73 4396.51 2075.38 73.06 3.00
   06:48:09.600.25-Aug-2020 120.60   35.75 4396.51 2075.38 73.06 3.00
   06:48:09.800.25-Aug-2020 120.80   35.77 4396.51 2075.38 73.06 3.00
   06:48:10.000.25-Aug-2020 121.00   35.78 4396.51 2075.38 73.06 3.00
   06:48:10.200.25-Aug-2020 121.20   35.78 4396.51 2075.38 73.06 3.00
   06:48:10.400.25-Aug-2020 121.40   35.78 4396.51 2075.38 73.06 3.00
   06:48:10.600.25-Aug-2020 121.60   35.81 4396.51 2075.38 73.06 3.00
   06:48:10.800.25-Aug-2020 121.80   35.82 4396.51 2075.38 73.06 3.00
   06:48:11.000.25-Aug-2020 122.00   35.84 4396.51 2075.38 73.06 3.00
   06:48:11.200.25-Aug-2020 122.20   35.84 4396.51 2075.38 73.06 3.00
   06:48:11.400.25-Aug-2020 122.40   35.87 4396.51 2075.38 73.06 3.00
   06:48:11.600.25-Aug-2020 122.60   35.89 4396.51 2075.38 73.06 3.00
   06:48:11.800.25-Aug-2020 122.80   35.91 4396.51 2075.38 73.06 3.00
   06:48:12.000.25-Aug-2020 123.00   35.92 4396.51 2075.38 73.06 3.00
   06:48:12.200.25-Aug-2020 123.20   35.94 4396.51 2075.38 73.06 3.00
   06:48:12.400.25-Aug-2020 123.40   35.95 4396.51 2075.38 73.06 3.00
   06:48:12.600.25-Aug-2020 123.60   35.97 4396.51 2075.38 73.06 3.00
   06:48:12.800.25-Aug-2020 123.80   35.98 4396.51 2075.38 73.06 3.00
   06:48:13.000.25-Aug-2020 124.00   36.00 4396.51 2075.38 73.06 3.00
   06:48:13.200.25-Aug-2020 124.20   36.01 4396.51 2075.38 73.06 3.00
   06:48:13.400.25-Aug-2020 124.40   36.03 4396.51 2075.38 73.06 3.00
   06:48:13.600.25-Aug-2020 124.60   36.02 4396.51 2075.38 73.06 3.00
   06:48:13.800.25-Aug-2020 124.80   36.03 4396.51 2075.38 73.06 3.00
   06:48:14.000.25-Aug-2020 125.00   36.06 4396.51 2075.38 73.06 3.00
   06:48:14.200.25-Aug-2020 125.20   36.06 4396.51 2075.38 73.06 3.00
   06:48:14.400.25-Aug-2020 125.40   36.09 4396.51 2075.38 73.06 3.00
   06:48:14.600.25-Aug-2020 125.60   36.10 4396.51 2075.38 73.06 3.00
   06:48:14.800.25-Aug-2020 125.80   36.11 4396.51 2075.38 73.06 3.00
   06:48:15.000.25-Aug-2020 126.00   36.11 4396.51 2075.38 73.06 3.00
   06:48:15.200.25-Aug-2020 126.20   36.11 4396.51 2075.38 73.06 3.00
   06:48:15.400.25-Aug-2020 126.40   36.15 4396.51 2075.38 73.06 3.00
   06:48:15.600.25-Aug-2020 126.60   36.17 4396.51 2075.38 73.06 3.00
   06:48:15.800.25-Aug-2020 126.80   36.17 4396.51 2075.38 73.06 3.00
   06:48:16.000.25-Aug-2020 127.00   36.18 4396.51 2075.38 73.06 3.00
   06:48:16.200.25-Aug-2020 127.20   36.21 4396.51 2075.38 73.06 3.00
   06:48:16.400.25-Aug-2020 127.40   36.22 4396.51 2075.38 73.06 3.00
   06:48:16.600.25-Aug-2020 127.60   36.23 4396.51 2075.38 73.06 3.00
   06:48:16.800.25-Aug-2020 127.80   36.24 4396.51 2075.38 73.06 3.00
   06:48:17.000.25-Aug-2020 128.00   36.25 4396.51 2075.38 73.06 3.00
   06:48:17.200.25-Aug-2020 128.20   36.28 4396.51 2075.38 73.06 3.00
   06:48:17.400.25-Aug-2020 128.40   36.29 4396.51 2075.38 73.06 3.00
   06:48:17.600.25-Aug-2020 128.60   36.30 4396.51 2075.38 73.06 3.00
   06:48:17.800.25-Aug-2020 128.80   36.32 4396.51 2075.38 73.06 3.00
   06:48:18.000.25-Aug-2020 129.00   36.33 4396.51 2075.38 73.06 3.00
   06:48:18.200.25-Aug-2020 129.20   36.33 4396.51 2075.38 73.06 3.00
   06:48:18.400.25-Aug-2020 129.40   36.34 4396.51 2075.38 73.06 3.00
   06:48:18.600.25-Aug-2020 129.60   36.36 4396.51 2075.38 73.06 3.00
   06:48:18.800.25-Aug-2020 129.80   36.38 4396.51 2075.38 73.06 3.00
   06:48:19.000.25-Aug-2020 130.00   36.39 4396.51 2075.38 73.06 3.00
   06:48:19.200.25-Aug-2020 130.20   36.39 4396.51 2075.38 73.06 3.00
   06:48:19.400.25-Aug-2020 130.40   36.42 4396.51 2075.38 73.06 3.00
   06:48:19.600.25-Aug-2020 130.60   36.43 4396.51 2075.38 73.06 3.00
   06:48:19.800.25-Aug-2020 130.80   36.45 4396.51 2075.38 73.06 3.00
   06:48:20.000.25-Aug-2020 131.00   36.47 4396.51 2075.38 73.06 3.00
   06:48:20.200.25-Aug-2020 131.20   36.48 4396.51 2075.38 73.06 3.00
   06:48:20.400.25-Aug-2020 131.40   36.49 4396.51 2075.38 73.06 3.00
   06:48:20.600.25-Aug-2020 131.60   36.51 4396.51 2075.38 73.06 3.00
   06:48:20.800.25-Aug-2020 131.80   36.52 4396.51 2075.38 73.06 3.00
   06:48:21.000.25-Aug-2020 132.00   36.54 4396.51 2075.38 73.06 3.00
   06:48:21.200.25-Aug-2020 132.20   36.55 4396.51 2075.38 73.06 3.00
   06:48:21.400.25-Aug-2020 132.40   36.56 4396.51 2075.38 73.06 3.00
   06:48:21.600.25-Aug-2020 132.60   36.56 4396.51 2075.38 73.06 3.00
   06:48:21.800.25-Aug-2020 132.80   36.58 4396.51 2075.38 73.06 3.00
   06:48:22.000.25-Aug-2020 133.00   36.58 4396.51 2075.38 73.06 3.00
   06:48:22.200.25-Aug-2020 133.20   36.58 4396.51 2075.38 73.06 3.00
   06:48:22.400.25-Aug-2020 133.40   36.61 4396.51 2075.38 73.06 3.00
   06:48:22.600.25-Aug-2020 133.60   36.63 4396.51 2075.38 73.06 3.00
   06:48:22.800.25-Aug-2020 133.80   36.64 4396.51 2075.38 73.06 3.00
   06:48:23.000.25-Aug-2020 134.00   36.65 4396.51 2075.38 73.06 3.00
   06:48:23.200.25-Aug-2020 134.20   36.65 4396.51 2075.38 73.06 3.00
   06:48:23.400.25-Aug-2020 134.40   36.68 4396.51 2075.38 73.06 3.00
   06:48:23.600.25-Aug-2020 134.60   36.69 4396.51 2075.38 73.06 3.00
   06:48:23.800.25-Aug-2020 134.80   36.70 4396.51 2075.38 73.06 3.00
   06:48:24.000.25-Aug-2020 135.00   36.72 4396.51 2075.38 73.06 3.00
   06:48:24.200.25-Aug-2020 135.20   36.73 4396.51 2075.38 73.06 3.00
   06:48:24.400.25-Aug-2020 135.40   36.74 4396.51 2075.38 73.06 3.00
   06:48:24.600.25-Aug-2020 135.60   36.75 4396.51 2075.38 73.06 3.00
   06:48:24.800.25-Aug-2020 135.80   36.76 4396.51 2075.38 73.06 3.00
   06:48:25.000.25-Aug-2020 136.00   36.77 4396.51 2075.38 73.06 3.00
   06:48:25.200.25-Aug-2020 136.20   36.77 4396.51 2075.38 73.06 3.00
   06:48:25.400.25-Aug-2020 136.40   36.79 4396.51 2075.38 73.06 3.00
   06:48:25.600.25-Aug-2020 136.60   36.80 4396.51 2075.38 73.06 3.00
   06:48:25.800.25-Aug-2020 136.80   36.82 4396.51 2075.38 73.06 3.00
   06:48:26.000.25-Aug-2020 137.00   36.82 4396.51 2075.38 73.06 3.00
   06:48:26.200.25-Aug-2020 137.20   36.82 4396.51 2075.38 73.06 3.00
   06:48:26.400.25-Aug-2020 137.40   36.84 4396.51 2075.38 73.06 3.00
   06:48:26.600.25-Aug-2020 137.60   36.86 4396.51 2075.38 73.06 3.00
   06:48:26.800.25-Aug-2020 137.80   36.87 4396.51 2075.38 73.06 3.00
