~Version Information
 VERS.                  2.0:   CWLS log ASCII Standard -VERSION 2.0
 WRAP.                   NO:   One line per depth step
~Well Information Block
#MNEM.UNIT     VALUE/NAME     DESCRIPTION
#---------     -----------    ---------------------------
 STRT.S             09:43:25 25-Aug-20: START TIME 09:43:25 25-Aug-20
 STOP.S             09:50:22 25-Aug-20: STOP TIME  09:50:22 25-Aug-20
 STEP.S                   0.00: STEP TIME
 NULL.                 -999.25: NULL VALUE
 DFWT.                        :  DIST FWL TEXT
 DFST.                        :  DIST FSL TEXT
 DMF .             Drill Floor:  DRILL MEAS FROM
 STIM.      09.59.28 01-Jun-20:  START TIME
 DATE.      05.00.00 28-Aug-20:  END TIME
 SPUD.               01-Jun-20:  SPUD DATE
 NREF.                    Grid:  NORTH REFERENCE
 HPTY.       Minimum Curvature:  HOLE POS TYPE
 DMOD.             Drill Model:  DRILL MOD DESC
 SVYD.                  Survey:  SURVEY DESC
 ILTD.               Lithology:  INTERP LTH DESC
 FTOP.          Formation Tops:  FORM TOPS DESC
 SON .        AZ-XX-0905455768:  JOB NUMBER
 WTYP.                Deviated:  WELL TYPE
 COMP.     BP Exploration(Caspian Sea):  COMPANY
 BASE.              Azerbaijan:  LOGGING EQUIPMENT BASE LOCATION
 REGN.                   EESSA:  REGION
 CTRY.              Azerbaijan:  COUNTRY NAME
 FLD .                     ACG:  FIELD NAME
 SRVC.          Turan Drilling:  CONTRACTOR
 WELL.                     B41:  WELL NAME
 RIG .           Central Azeri:  RIG NAME
 DCON.         Sperry Drilling:  DIRECTNL CONTR
 PDAT.          Mean Sea Level:  PERMANENT DATUM
 MDS .        Operator Entered:  MAG DATA SOURCE
 API .                        :  API NUMBER
 CNTY.                        :  COUNTY
 PROV.                        :  PROVINCE
 STAT.                        :  STATE
 UWI .                        :  UNIQUE WELL IDENTIFIER
 LOC .                        :  LOCATION
 LMF .             Drill Floor:  LOG MEASURED FROM
 TVDS.m                  43.29:  TVDSS CORRECTN
 LATI.deg                40.03:  LATITUDE
 LONG.deg                51.35:  LONGITUDE
 WHNS.m                  12.98:  WELL HEAD N/S
 WHEW.m                  -6.62:  WELL HEAD E/W
 UTMX.m              530128.28:  UTM X
 UTMY.m             4433192.49:  UTM Y
 DFWL.m                   0.00:  DISTANCE FWL
 DFSL.m                   0.00:  DISTANCE FSL
 SDEP.m                 378.00:  START DEPTH
 TDD .m                4463.01:  TOTAL DEPTH (DRILLER)
 VSDR.deg               296.18:  VERT SEC DIRECT
 GVFD.g                   1.00:  GRAVITY FIELD
 MFLD.nT              50269.00:  MAGNETIC FIELD
 MDIP.deg                59.50:  MAGNETIC DIP
 MDEC.deg                 6.44:  MAGNETIC DECL
 GRDC.deg                 0.20:  GRID CORRECTION
 AZTC.deg                 6.24:  AZM TOTAL CORR
 EPD .m                   0.00:  ELEVATION
 EGL .m                   0.00:  GROUND ELEVATION
 WDMS.m                 128.20:  WD ELEV
 APD .m                  43.29:  DEPTH ABOVE PD
 AGAP.m                  43.29:  AIR GAP
 VSEW.m                  -6.62:  VERT SEC E/W
 VSNS.m                  12.98:  VERT SEC N/S
 EKB .m                  43.29:  KB ELEVATION
 EDF .m                  43.29:  DF ELEVATION
 TDL .m                 147.00:  TOTAL DEPTH (LOGGER)
 VSC .                       0:  VS TO CLOSURE
 MAGU.                 1849241:  MAGUTM CHECKSUM
~Parameter Information Block
#MNEM.UNIT       Value        Description
#---------     -----------    ---------------------------
 AV  .mps                 0.70:  Ann Velocity 
 AZIF.deg               269.43:  Azm, Final 
 BHAT.        Rotary Steerable:  BHA Type 
 BROT.°/30m              -0.03:  Build Rotating 
 BS  .in                  8.50:  Bit Size 
 BSZ .in                  8.50:  Bit Size 
 BTPL.psig              880.00:  Bit Press Loss 
 CABU.                      No:  Customer Abuse 
 CGEO.          Parviz Guliyev:  Customer Geo 
 TCS .hr                 64.59:  Time Ciculation Ended 
 CV  .mps                 2.17:  Crit Velocity 
 DD1 .            Nonso Okafor:  Direct Drillr 1 
 DDSV.               Geo-Pilot:  DD Service 
 DEFF.%                  98.00:  % Det Eff 
 DLRX.°/30m               0.81:  Dogleg Rot Max 
 DLSO.°/30m               0.55:  Dogleg Oriented 
 DLSX.°/30m               0.81:  Dogleg Str Max 
 DRET.      23.50.00 24-Aug-20:  Drill End Time 
 DRST.      07.34.24 22-Aug-20:  Drill Start Tim 
 DTIM.hr                 15.29:  Time Drilling 
 EDEP.m                4461.01:  End Depth 
 ENG1.       Zam Abdullah Sani:  Engineer 1 
 ENG2.         Dair Mahammadov:  Engineer 2 
 ENG3.          Rustam Gadirov:  Engineer 3 
 ETIM.      07.34.24 26-Aug-20:  End Time 
 FLOI.gpm               550.00:  Flow In 
 FLON.gpm               400.00:  Flow In Min 
 FLOS.cptm                1.00:  Fluid Loss 
 FLOX.gpm               600.00:  Flow In Max 
 FTRO.       Formation Presure:  FTWD Run Obj 
 HFLO.                      No:  High Flow 
 HPRE.                      No:  High Pressure 
 HTEM.                      No:  High Temp 
 HYDO.m                   1.80:  Hydro Offset 
 IFIN.deg                66.72:  Inc, Final 
 IMAX.deg                67.42:  Inc Max 
 IMIN.deg                66.72:  Inc Min 
 IMND.m                4408.37:  Inc Min Depth 
 IMXD.m                4323.37:  Inc Max Depth 
 JARR.                      No:  Jarring 
 LETM.      23.50.00 24-Aug-20:  Log End Time 
 LOST.hr                     0:  Lost Rig Time 
 LSTM.      07.34.24 22-Aug-20:  Log Start Time 
 MDCL.ppm             38000.00:  Mud Chlorides 
 MDES.     Inversion Oil/Synthetic:  Mud Desc 
 DFD .sg                  1.40:  Mud Density 
 MDMN.sg                  1.38:  Dens Mud Min 
 MDMX.sg                  1.41:  Dens Mud Max 
 MOIL.                    70.5:  Run Mud Oil % 
 MOWR.                   68:32:  Run Mud OWR 
 MSND.                    0.01:  Run Mud Sand % 
 MSOL.                   17.68:  Run Mud Solids% 
 DFV .spqt               77.00:  Mud Viscosity 
 MWOD.in                  6.75:  MWD Tool OD 
 MWSI.                      No:  Serv Intrp, MWD 
 OTIM.hr                159.42:  Time Operating 
 PCON.           Look Like New:  Pad Condition 
 PMAX.psia             8730.94:  Press Op, Max 
 PV  .cP                 31.00:  Mud PV 
 RUN .                     900:  Run Number 
 ROPA.m/hr               12.00:  ROP Avg 
 ROPN.m/hr                7.00:  ROP Min 
 ROPX.m/hr               17.00:  ROP Max 
 RPMA.rpm               120.00:  RPM Surface Avg 
 RPMN.rpm                60.00:  RPM Surface Min 
 RPMX.rpm               140.00:  RPM Surface Max 
 RRUN.                    L604:  Rig Run Number 
 RTIM.hr                 10.00:  Time Reaming 
 SAZI.deg               270.56:  Azm, Start 
 SDEP.m                4314.01:  Start Depth 
 SIDD.                      No:  Serv Intrp, DD 
 SINC.deg                67.42:  Inc, Start 
 SPPA.psig             3300.00:  SPP Avg 
 SPPN.psig             1750.00:  SPP Min 
 SPPX.psig             4630.00:  SPP Max 
 STIM.      11.00.00 21-Aug-20:  Start Time 
 SVCS.                 DD, MWD:  Services 
 SVER.                    9.20:  Sperry Version 
 TDAT.m                4461.01:  Tot Depth Attmp 
 TDDF.                      No:  Trip for DD 
 TDLG.m                 147.00:  Tot Depth Loggd 
 TFF .                      No:  Trip for Fail 
 TQAA.f-kp               16.00:  Torque Abs Avg 
 TQAN.f-kp               14.00:  Torque Abs Min 
 TQAX.f-kp               20.00:  Torque Abs Max 
 TRRT.°/30m              -0.14:  Turn Rotating 
 MRT .                    HCIM:  Maximum Recorded Temperature 
 TTMX.degC               78.00:  Max Tool Temp 
 VS01.                90515425:  Virtual Str1 SN 
 VS02.                90545184:  Virtual Str2 SN 
 VS03.                90527809:  Virtual Str3 SN 
 VS04.                90515232:  Virtual Str4 SN 
 VS05.                90621207:  Virtual Str5 SN 
 VS06.                90619737:  Virtual Str6 SN 
 WBMN.klb                 2.00:  WOB Min 
 WITN.          Keith Dischler:  Customer Rep 
 WITN.           Faig Mammadov:  Customer Rep 2 
 WOBA.klb                 5.00:  WOB Avg 
 WOBX.klb                 8.00:  WOB Max 
 YP  .lhf2               32.00:  Yield Point 
~Curve Information Block
#MNEM.UNIT                 API CODE     Curve Description
#---------               -----------    ---------------------------
 TIME.HHMMSS            00 000 000 000:  GT Time & Date
 GTET.sec               00 000 000 000:  GT Elapsed Test Time
 GTPQH.psia             00 000 000 000:  GT HR Quartz Pressure
 GTDEPTH.m              00 000 000 000:  GT Depth
 GTTVD.m                00 000 000 000:  GT True Vertical Depth
 GTTQ.degC              00 000 000 000:  GT Quartz Temperature
 GTTN.NONE              00 000 000 000:  GT Test Number
#Other Information
#
#WARRANTY: Halliburton will use its best efforts to furnish customers with 
#accurate information and interpretations that are part of, and incident to, the services 
#provided.  However, Halliburton cannot and does not warrant the accuracy 
#or correctness of such information and interpretations.  Under no circumstances should any 
#such information or interpretation be relied upon as the sole basis for any drilling, 
#completion, production, or financial decision or any procedure involving any risk to the 
#safety of any drilling venture, drilling rig or its crew or any other third party.  The 
#Customer has full responsibility for all drilling, completion and production operation.  
#Halliburton makes no representations or warranties, either expressed or 
#implied, including, but not limited to, the implied warranties of merchantability or fitness 
#for a particular purpose, with respect to the services rendered.  In no event will 
#Halliburton be liable for failure to obtain any particular results or for 
#any damages, including, but not limited to, indirect, special or consequential damages, 
#resulting from the use of any information or interpretation provided by Halliburton.
#
~A           TIME            GTET   GTPQH  GTDEPTH  GTTVD  GTTQ  GTTN 
# ...
   09:43:48.000.25-Aug-2020  23.00 4764.96 4343.01 2054.32 71.84 8.00
   09:43:48.200.25-Aug-2020  23.20 4764.96 4343.01 2054.32 71.84 8.00
   09:43:48.400.25-Aug-2020  23.40 4764.15 4343.01 2054.32 71.84 8.00
   09:43:48.600.25-Aug-2020  23.60 4756.86 4343.01 2054.32 71.84 8.00
   09:43:48.800.25-Aug-2020  23.80 4756.54 4343.01 2054.32 71.84 8.00
   09:43:49.000.25-Aug-2020  24.00 4755.69 4343.01 2054.32 71.84 8.00
   09:43:49.200.25-Aug-2020  24.20 4755.69 4343.01 2054.32 71.84 8.00
   09:43:49.400.25-Aug-2020  24.40 4752.77 4343.01 2054.32 71.84 8.00
   09:43:49.600.25-Aug-2020  24.60 4764.91 4343.01 2054.32 71.84 8.00
   09:43:49.800.25-Aug-2020  24.80 4757.13 4343.01 2054.32 71.84 8.00
   09:43:50.000.25-Aug-2020  25.00 4759.41 4343.01 2054.32 71.84 8.00
   09:43:50.200.25-Aug-2020  25.20 4759.41 4343.01 2054.32 71.84 8.00
   09:43:50.400.25-Aug-2020  25.40 4761.52 4343.01 2054.32 71.84 8.00
   09:43:50.600.25-Aug-2020  25.60 4758.50 4343.01 2054.32 71.84 8.00
   09:43:50.800.25-Aug-2020  25.80 4757.72 4343.01 2054.32 71.84 8.00
   09:43:51.000.25-Aug-2020  26.00 4757.42 4343.01 2054.32 71.84 8.00
   09:43:51.200.25-Aug-2020  26.20 4757.42 4343.01 2054.32 71.84 8.00
   09:43:51.400.25-Aug-2020  26.40 4767.77 4343.01 2054.32 71.84 8.00
   09:43:51.600.25-Aug-2020  26.60 4757.12 4343.01 2054.32 71.84 8.00
   09:43:51.800.25-Aug-2020  26.80 4762.20 4343.01 2054.32 71.84 8.00
   09:43:52.000.25-Aug-2020  27.00 4759.47 4343.01 2054.32 71.84 8.00
   09:43:52.200.25-Aug-2020  27.20 4759.47 4343.01 2054.32 71.84 8.00
   09:43:52.400.25-Aug-2020  27.40 4757.83 4343.01 2054.32 71.84 8.00
   09:43:52.600.25-Aug-2020  27.60 4759.76 4343.01 2054.32 71.84 8.00
   09:43:52.800.25-Aug-2020  27.80 4759.32 4343.01 2054.32 71.84 8.00
   09:43:53.000.25-Aug-2020  28.00 4758.98 4343.01 2054.32 71.84 8.00
   09:43:53.200.25-Aug-2020  28.20 4758.98 4343.01 2054.32 71.84 8.00
   09:43:53.400.25-Aug-2020  28.40 4759.74 4343.01 2054.32 71.84 8.00
   09:43:53.600.25-Aug-2020  28.60 4758.94 4343.01 2054.32 71.84 8.00
   09:43:53.800.25-Aug-2020  28.80 4758.58 4343.01 2054.32 71.84 8.00
   09:43:54.000.25-Aug-2020  29.00 4759.55 4343.01 2054.32 71.84 8.00
   09:43:54.200.25-Aug-2020  29.20 4759.55 4343.01 2054.32 71.84 8.00
   09:43:54.400.25-Aug-2020  29.40 4758.68 4343.01 2054.32 71.84 8.00
   09:43:54.600.25-Aug-2020  29.60 4758.45 4343.01 2054.32 71.84 8.00
   09:43:54.800.25-Aug-2020  29.80 4758.09 4343.01 2054.32 71.84 8.00
   09:43:55.000.25-Aug-2020  30.00 4770.52 4343.01 2054.32 71.84 8.00
   09:43:55.200.25-Aug-2020  30.20 4770.52 4343.01 2054.32 71.84 8.00
   09:43:55.400.25-Aug-2020  30.40 4767.27 4343.01 2054.32 71.84 8.00
   09:43:55.600.25-Aug-2020  30.60 4760.40 4343.01 2054.32 71.84 8.00
   09:43:55.800.25-Aug-2020  30.80 4759.50 4343.01 2054.32 71.84 8.00
   09:43:56.000.25-Aug-2020  31.00 4757.71 4343.01 2054.32 71.84 8.00
   09:43:56.200.25-Aug-2020  31.20 4757.71 4343.01 2054.32 71.84 8.00
   09:43:56.400.25-Aug-2020  31.40 4757.89 4343.01 2054.32 71.84 8.00
   09:43:56.600.25-Aug-2020  31.60 4759.23 4343.01 2054.32 71.84 8.00
   09:43:56.800.25-Aug-2020  31.80 4759.61 4343.01 2054.32 71.84 8.00
   09:43:57.000.25-Aug-2020  32.00 4758.92 4343.01 2054.32 71.84 8.00
   09:43:57.200.25-Aug-2020  32.20 4758.92 4343.01 2054.32 71.84 8.00
   09:43:57.400.25-Aug-2020  32.40 4759.03 4343.01 2054.32 71.84 8.00
   09:43:57.600.25-Aug-2020  32.60 4759.13 4343.01 2054.32 71.84 8.00
   09:43:57.800.25-Aug-2020  32.80 4759.06 4343.01 2054.32 71.84 8.00
   09:43:58.000.25-Aug-2020  33.00 4759.54 4343.01 2054.32 71.84 8.00
   09:43:58.200.25-Aug-2020  33.20 4759.54 4343.01 2054.32 71.84 8.00
   09:43:58.400.25-Aug-2020  33.40 4759.40 4343.01 2054.32 71.84 8.00
   09:43:58.600.25-Aug-2020  33.60 4753.24 4343.01 2054.32 71.84 8.00
   09:43:58.800.25-Aug-2020  33.80 4767.95 4343.01 2054.32 71.84 8.00
   09:43:59.000.25-Aug-2020  34.00 4761.09 4343.01 2054.32 71.84 8.00
   09:43:59.200.25-Aug-2020  34.20 4761.09 4343.01 2054.32 71.84 8.00
   09:43:59.400.25-Aug-2020  34.40 4759.13 4343.01 2054.32 71.84 8.00
   09:43:59.600.25-Aug-2020  34.60 4771.22 4343.01 2054.32 71.84 8.00
   09:43:59.800.25-Aug-2020  34.80 4760.18 4343.01 2054.32 71.84 8.00
   09:44:00.000.25-Aug-2020  35.00 4765.64 4343.01 2054.32 71.84 8.00
   09:44:00.200.25-Aug-2020  35.20 4765.64 4343.01 2054.32 71.84 8.00
   09:44:00.400.25-Aug-2020  35.40 4763.12 4343.01 2054.32 71.84 8.00
   09:44:00.600.25-Aug-2020  35.60 4762.95 4343.01 2054.32 71.84 8.00
   09:44:00.800.25-Aug-2020  35.80 4912.77 4343.01 2054.32 71.84 8.00
   09:44:01.000.25-Aug-2020  36.00 4954.82 4343.01 2054.32 71.84 8.00
   09:44:01.200.25-Aug-2020  36.20 4954.82 4343.01 2054.32 71.84 8.00
   09:44:01.400.25-Aug-2020  36.40 4970.65 4343.01 2054.32 71.84 8.00
   09:44:01.600.25-Aug-2020  36.60 4979.44 4343.01 2054.32 71.84 8.00
   09:44:01.800.25-Aug-2020  36.80 4987.13 4343.01 2054.32 71.84 8.00
   09:44:02.000.25-Aug-2020  37.00 4986.20 4343.01 2054.32 71.84 8.00
   09:44:02.200.25-Aug-2020  37.20 4986.20 4343.01 2054.32 71.84 8.00
   09:44:02.400.25-Aug-2020  37.40 5000.87 4343.01 2054.32 71.84 8.00
   09:44:02.600.25-Aug-2020  37.60 5028.28 4343.01 2054.32 71.84 8.00
   09:44:02.800.25-Aug-2020  37.80 5018.57 4343.01 2054.32 71.84 8.00
   09:44:03.000.25-Aug-2020  38.00 5013.36 4343.01 2054.32 71.84 8.00
   09:44:03.200.25-Aug-2020  38.20 5013.36 4343.01 2054.32 71.84 8.00
   09:44:03.400.25-Aug-2020  38.40 5000.38 4343.01 2054.32 71.84 8.00
   09:44:03.600.25-Aug-2020  38.60 5005.84 4343.01 2054.32 71.84 8.00
   09:44:03.800.25-Aug-2020  38.80 5016.59 4343.01 2054.32 71.84 8.00
   09:44:04.000.25-Aug-2020  39.00 5027.71 4343.01 2054.32 71.84 8.00
   09:44:04.200.25-Aug-2020  39.20 5027.71 4343.01 2054.32 71.84 8.00
   09:44:04.400.25-Aug-2020  39.40 5032.84 4343.01 2054.32 71.84 8.00
   09:44:04.600.25-Aug-2020  39.60 5029.40 4343.01 2054.32 71.84 8.00
   09:44:04.800.25-Aug-2020  39.80 5025.20 4343.01 2054.32 71.84 8.00
   09:44:05.000.25-Aug-2020  40.00 5023.02 4343.01 2054.32 71.84 8.00
   09:44:05.200.25-Aug-2020  40.20 5023.02 4343.01 2054.32 71.84 8.00
   09:44:05.400.25-Aug-2020  40.40 5018.93 4343.01 2054.32 71.84 8.00
   09:44:05.600.25-Aug-2020  40.60 5015.83 4343.01 2054.32 71.84 8.00
   09:44:05.800.25-Aug-2020  40.80 5009.98 4343.01 2054.32 71.84 8.00
   09:44:06.000.25-Aug-2020  41.00 5002.02 4343.01 2054.32 71.84 8.00
   09:44:06.200.25-Aug-2020  41.20 5002.02 4343.01 2054.32 71.84 8.00
   09:44:06.400.25-Aug-2020  41.40 4980.48 4343.01 2054.32 71.84 8.00
   09:44:06.600.25-Aug-2020  41.60 4980.23 4343.01 2054.32 71.84 8.00
   09:44:06.800.25-Aug-2020  41.80 4970.99 4343.01 2054.32 71.84 8.00
   09:44:07.000.25-Aug-2020  42.00 4955.01 4343.01 2054.32 71.84 8.00
   09:44:07.200.25-Aug-2020  42.20 4955.01 4343.01 2054.32 71.84 8.00
   09:44:07.400.25-Aug-2020  42.40 4896.42 4343.01 2054.32 71.84 8.00
   09:44:07.600.25-Aug-2020  42.60 4685.33 4343.01 2054.32 71.84 8.00
   09:44:07.800.25-Aug-2020  42.80 4424.52 4343.01 2054.32 71.84 8.00
   09:44:08.000.25-Aug-2020  43.00 3939.59 4343.01 2054.32 71.84 8.00
   09:44:08.200.25-Aug-2020  43.20 3939.59 4343.01 2054.32 71.84 8.00
   09:44:08.400.25-Aug-2020  43.40 3357.44 4343.01 2054.32 71.84 8.00
   09:44:08.600.25-Aug-2020  43.60 3349.26 4343.01 2054.32 71.84 8.00
   09:44:08.800.25-Aug-2020  43.80 3347.53 4343.01 2054.32 71.84 8.00
   09:44:09.000.25-Aug-2020  44.00 3347.37 4343.01 2054.32 71.84 8.00
   09:44:09.200.25-Aug-2020  44.20 3347.37 4343.01 2054.32 71.84 8.00
   09:44:09.400.25-Aug-2020  44.40 3346.72 4343.01 2054.32 71.83 8.00
   09:44:09.600.25-Aug-2020  44.60 3346.47 4343.01 2054.32 71.83 8.00
   09:44:09.800.25-Aug-2020  44.80 3346.28 4343.01 2054.32 71.83 8.00
   09:44:10.000.25-Aug-2020  45.00 3346.16 4343.01 2054.32 71.83 8.00
   09:44:10.200.25-Aug-2020  45.20 3346.16 4343.01 2054.32 71.83 8.00
   09:44:10.400.25-Aug-2020  45.40 3346.11 4343.01 2054.32 71.83 8.00
   09:44:10.600.25-Aug-2020  45.60 3346.00 4343.01 2054.32 71.83 8.00
   09:44:10.800.25-Aug-2020  45.80 3345.80 4343.01 2054.32 71.83 8.00
