~Version Information
 VERS.                  2.0:   CWLS log ASCII Standard -VERSION 2.0
 WRAP.                   NO:   One line per depth step
~Well Information Block
#MNEM.UNIT     VALUE/NAME     DESCRIPTION
#---------     -----------    ---------------------------
 STRT.S             12:25:10 25-Aug-20: START TIME 12:25:10 25-Aug-20
 STOP.S             12:32:06 25-Aug-20: STOP TIME  12:32:06 25-Aug-20
 STEP.S                   0.00: STEP TIME
 NULL.                 -999.25: NULL VALUE
 DFWT.                        :  DIST FWL TEXT
 DFST.                        :  DIST FSL TEXT
 DMF .             Drill Floor:  DRILL MEAS FROM
 STIM.      09.59.28 01-Jun-20:  START TIME
 DATE.      05.00.00 28-Aug-20:  END TIME
 SPUD.               01-Jun-20:  SPUD DATE
 NREF.                    Grid:  NORTH REFERENCE
 HPTY.       Minimum Curvature:  HOLE POS TYPE
 DMOD.             Drill Model:  DRILL MOD DESC
 SVYD.                  Survey:  SURVEY DESC
 ILTD.               Lithology:  INTERP LTH DESC
 FTOP.          Formation Tops:  FORM TOPS DESC
 SON .        AZ-XX-0905455768:  JOB NUMBER
 WTYP.                Deviated:  WELL TYPE
 COMP.     BP Exploration(Caspian Sea):  COMPANY
 BASE.              Azerbaijan:  LOGGING EQUIPMENT BASE LOCATION
 REGN.                   EESSA:  REGION
 CTRY.              Azerbaijan:  COUNTRY NAME
 FLD .                     ACG:  FIELD NAME
 SRVC.          Turan Drilling:  CONTRACTOR
 WELL.                     B41:  WELL NAME
 RIG .           Central Azeri:  RIG NAME
 DCON.         Sperry Drilling:  DIRECTNL CONTR
 PDAT.          Mean Sea Level:  PERMANENT DATUM
 MDS .        Operator Entered:  MAG DATA SOURCE
 API .                        :  API NUMBER
 CNTY.                        :  COUNTY
 PROV.                        :  PROVINCE
 STAT.                        :  STATE
 UWI .                        :  UNIQUE WELL IDENTIFIER
 LOC .                        :  LOCATION
 LMF .             Drill Floor:  LOG MEASURED FROM
 TVDS.m                  43.29:  TVDSS CORRECTN
 LATI.deg                40.03:  LATITUDE
 LONG.deg                51.35:  LONGITUDE
 WHNS.m                  12.98:  WELL HEAD N/S
 WHEW.m                  -6.62:  WELL HEAD E/W
 UTMX.m              530128.28:  UTM X
 UTMY.m             4433192.49:  UTM Y
 DFWL.m                   0.00:  DISTANCE FWL
 DFSL.m                   0.00:  DISTANCE FSL
 SDEP.m                 378.00:  START DEPTH
 TDD .m                4463.01:  TOTAL DEPTH (DRILLER)
 VSDR.deg               296.18:  VERT SEC DIRECT
 GVFD.g                   1.00:  GRAVITY FIELD
 MFLD.nT              50269.00:  MAGNETIC FIELD
 MDIP.deg                59.50:  MAGNETIC DIP
 MDEC.deg                 6.44:  MAGNETIC DECL
 GRDC.deg                 0.20:  GRID CORRECTION
 AZTC.deg                 6.24:  AZM TOTAL CORR
 EPD .m                   0.00:  ELEVATION
 EGL .m                   0.00:  GROUND ELEVATION
 WDMS.m                 128.20:  WD ELEV
 APD .m                  43.29:  DEPTH ABOVE PD
 AGAP.m                  43.29:  AIR GAP
 VSEW.m                  -6.62:  VERT SEC E/W
 VSNS.m                  12.98:  VERT SEC N/S
 EKB .m                  43.29:  KB ELEVATION
 EDF .m                  43.29:  DF ELEVATION
 TDL .m                 147.00:  TOTAL DEPTH (LOGGER)
 VSC .                       0:  VS TO CLOSURE
 MAGU.                 1849241:  MAGUTM CHECKSUM
~Parameter Information Block
#MNEM.UNIT       Value        Description
#---------     -----------    ---------------------------
 AV  .mps                 0.70:  Ann Velocity 
 AZIF.deg               269.43:  Azm, Final 
 BHAT.        Rotary Steerable:  BHA Type 
 BROT.°/30m              -0.03:  Build Rotating 
 BS  .in                  8.50:  Bit Size 
 BSZ .in                  8.50:  Bit Size 
 BTPL.psig              880.00:  Bit Press Loss 
 CABU.                      No:  Customer Abuse 
 CGEO.          Parviz Guliyev:  Customer Geo 
 COMM.                     >h:  Run Comments 1 
 TCS .hr                 64.59:  Time Ciculation Ended 
 CV  .mps                 2.17:  Crit Velocity 
 DD1 .            Nonso Okafor:  Direct Drillr 1 
 DDSV.               Geo-Pilot:  DD Service 
 DEFF.%                  98.00:  % Det Eff 
 DLRX.°/30m               0.81:  Dogleg Rot Max 
 DLSO.°/30m               0.55:  Dogleg Oriented 
 DLSX.°/30m               0.81:  Dogleg Str Max 
 DRET.      23.50.00 24-Aug-20:  Drill End Time 
 DRST.      07.34.24 22-Aug-20:  Drill Start Tim 
 DTIM.hr                 15.29:  Time Drilling 
 EDEP.m                4461.01:  End Depth 
 ENG1.       Zam Abdullah Sani:  Engineer 1 
 ENG2.         Dair Mahammadov:  Engineer 2 
 ENG3.          Rustam Gadirov:  Engineer 3 
 ETIM.      07.34.24 26-Aug-20:  End Time 
 FLOI.gpm               550.00:  Flow In 
 FLON.gpm               400.00:  Flow In Min 
 FLOS.cptm                1.00:  Fluid Loss 
 FLOX.gpm               600.00:  Flow In Max 
 FTRO.       Formation Presure:  FTWD Run Obj 
 HFLO.                      No:  High Flow 
 HPRE.                      No:  High Pressure 
 HTEM.                      No:  High Temp 
 HYDO.m                   1.80:  Hydro Offset 
 IFIN.deg                66.72:  Inc, Final 
 IMAX.deg                67.42:  Inc Max 
 IMIN.deg                66.72:  Inc Min 
 IMND.m                4408.37:  Inc Min Depth 
 IMXD.m                4323.37:  Inc Max Depth 
 JARR.                      No:  Jarring 
 LETM.      23.50.00 24-Aug-20:  Log End Time 
 LOST.hr                     0:  Lost Rig Time 
 LSTM.      07.34.24 22-Aug-20:  Log Start Time 
 MDCL.ppm             38000.00:  Mud Chlorides 
 MDES.     Inversion Oil/Synthetic:  Mud Desc 
 DFD .sg                  1.40:  Mud Density 
 MDMN.sg                  1.38:  Dens Mud Min 
 MDMX.sg                  1.41:  Dens Mud Max 
 MOIL.                    70.5:  Run Mud Oil % 
 MOWR.                   68:32:  Run Mud OWR 
 MSND.                    0.01:  Run Mud Sand % 
 MSOL.                   17.68:  Run Mud Solids% 
 DFV .spqt               77.00:  Mud Viscosity 
 MWOD.in                  6.75:  MWD Tool OD 
 MWSI.                      No:  Serv Intrp, MWD 
 OTIM.hr                159.42:  Time Operating 
 PCON.           Look Like New:  Pad Condition 
 PMAX.psia             8730.94:  Press Op, Max 
 PV  .cP                 31.00:  Mud PV 
 RUN .                     900:  Run Number 
 ROPA.m/hr               12.00:  ROP Avg 
 ROPN.m/hr                7.00:  ROP Min 
 ROPX.m/hr               17.00:  ROP Max 
 RPMA.rpm               120.00:  RPM Surface Avg 
 RPMN.rpm                60.00:  RPM Surface Min 
 RPMX.rpm               140.00:  RPM Surface Max 
 RRUN.                    L604:  Rig Run Number 
 RTIM.hr                 10.00:  Time Reaming 
 SAZI.deg               270.56:  Azm, Start 
 SDEP.m                4314.01:  Start Depth 
 SIDD.                      No:  Serv Intrp, DD 
 SINC.deg                67.42:  Inc, Start 
 SPPA.psig             3300.00:  SPP Avg 
 SPPN.psig             1750.00:  SPP Min 
 SPPX.psig             4630.00:  SPP Max 
 STIM.      11.00.00 21-Aug-20:  Start Time 
 SVCS.                 DD, MWD:  Services 
 SVER.                    9.20:  Sperry Version 
 TDAT.m                4461.01:  Tot Depth Attmp 
 TDDF.                      No:  Trip for DD 
 TDLG.m                 147.00:  Tot Depth Loggd 
 TFF .                      No:  Trip for Fail 
 TQAA.f-kp               16.00:  Torque Abs Avg 
 TQAN.f-kp               14.00:  Torque Abs Min 
 TQAX.f-kp               20.00:  Torque Abs Max 
 TRRT.°/30m              -0.14:  Turn Rotating 
 MRT .                    HCIM:  Maximum Recorded Temperature 
 TTMX.degC               78.00:  Max Tool Temp 
 VS01.                90515425:  Virtual Str1 SN 
 VS02.                90545184:  Virtual Str2 SN 
 VS03.                90527809:  Virtual Str3 SN 
 VS04.                90515232:  Virtual Str4 SN 
 VS05.                90621207:  Virtual Str5 SN 
 VS06.                90619737:  Virtual Str6 SN 
 WBMN.klb                 2.00:  WOB Min 
 WITN.          Keith Dischler:  Customer Rep 
 WITN.           Faig Mammadov:  Customer Rep 2 
 WOBA.klb                 5.00:  WOB Avg 
 WOBX.klb                 8.00:  WOB Max 
 YP  .lhf2               32.00:  Yield Point 
~Curve Information Block
#MNEM.UNIT                 API CODE     Curve Description
#---------               -----------    ---------------------------
 TIME.HHMMSS            00 000 000 000:  GT Time & Date
 GTET.sec               00 000 000 000:  GT Elapsed Test Time
 GTPQH.psia             00 000 000 000:  GT HR Quartz Pressure
 GTDEPTH.m              00 000 000 000:  GT Depth
 GTTVD.m                00 000 000 000:  GT True Vertical Depth
 GTTQ.degC              00 000 000 000:  GT Quartz Temperature
 GTTN.NONE              00 000 000 000:  GT Test Number
#Other Information
#
#WARRANTY: Halliburton will use its best efforts to furnish customers with 
#accurate information and interpretations that are part of, and incident to, the services 
#provided.  However, Halliburton cannot and does not warrant the accuracy 
#or correctness of such information and interpretations.  Under no circumstances should any 
#such information or interpretation be relied upon as the sole basis for any drilling, 
#completion, production, or financial decision or any procedure involving any risk to the 
#safety of any drilling venture, drilling rig or its crew or any other third party.  The 
#Customer has full responsibility for all drilling, completion and production operation.  
#Halliburton makes no representations or warranties, either expressed or 
#implied, including, but not limited to, the implied warranties of merchantability or fitness 
#for a particular purpose, with respect to the services rendered.  In no event will 
#Halliburton be liable for failure to obtain any particular results or for 
#any damages, including, but not limited to, indirect, special or consequential damages, 
#resulting from the use of any information or interpretation provided by Halliburton.
#
~A           TIME            GTET   GTPQH  GTDEPTH  GTTVD  GTTQ  GTTN  
# ...
   12:30:26.400.25-Aug-2020 316.40   20.46 4311.01 2041.94 71.61 12.00
   12:30:26.600.25-Aug-2020 316.60   20.47 4311.01 2041.94 71.61 12.00
   12:30:26.800.25-Aug-2020 316.80   20.44 4311.01 2041.94 71.61 12.00
   12:30:27.000.25-Aug-2020 317.00   20.46 4311.01 2041.94 71.61 12.00
   12:30:27.200.25-Aug-2020 317.20   20.48 4311.01 2041.94 71.61 12.00
   12:30:27.400.25-Aug-2020 317.40   20.48 4311.01 2041.94 71.61 12.00
   12:30:27.600.25-Aug-2020 317.60   20.48 4311.01 2041.94 71.61 12.00
   12:30:27.800.25-Aug-2020 317.80   20.44 4311.01 2041.94 71.61 12.00
   12:30:28.000.25-Aug-2020 318.00   20.49 4311.01 2041.94 71.61 12.00
   12:30:28.200.25-Aug-2020 318.20   20.49 4311.01 2041.94 71.61 12.00
   12:30:28.400.25-Aug-2020 318.40   20.49 4311.01 2041.94 71.61 12.00
   12:30:28.600.25-Aug-2020 318.60   20.49 4311.01 2041.94 71.62 12.00
   12:30:28.800.25-Aug-2020 318.80   20.49 4311.01 2041.94 71.61 12.00
   12:30:29.000.25-Aug-2020 319.00   20.50 4311.01 2041.94 71.62 12.00
   12:30:29.200.25-Aug-2020 319.20   20.50 4311.01 2041.94 71.62 12.00
   12:30:29.400.25-Aug-2020 319.40   20.50 4311.01 2041.94 71.62 12.00
   12:30:29.600.25-Aug-2020 319.60   20.51 4311.01 2041.94 71.62 12.00
   12:30:29.800.25-Aug-2020 319.80   20.51 4311.01 2041.94 71.62 12.00
   12:30:30.000.25-Aug-2020 320.00   20.51 4311.01 2041.94 71.62 12.00
   12:30:30.200.25-Aug-2020 320.20   20.52 4311.01 2041.94 71.62 12.00
   12:30:30.400.25-Aug-2020 320.40   20.52 4311.01 2041.94 71.62 12.00
   12:30:30.600.25-Aug-2020 320.60   20.52 4311.01 2041.94 71.62 12.00
   12:30:30.800.25-Aug-2020 320.80   20.52 4311.01 2041.94 71.62 12.00
   12:30:31.000.25-Aug-2020 321.00   20.53 4311.01 2041.94 71.62 12.00
   12:30:31.200.25-Aug-2020 321.20   20.53 4311.01 2041.94 71.62 12.00
   12:30:31.400.25-Aug-2020 321.40   20.50 4311.01 2041.94 71.62 12.00
   12:30:31.600.25-Aug-2020 321.60   20.54 4311.01 2041.94 71.62 12.00
   12:30:31.800.25-Aug-2020 321.80   20.54 4311.01 2041.94 71.62 12.00
   12:30:32.000.25-Aug-2020 322.00   20.55 4311.01 2041.94 71.62 12.00
   12:30:32.200.25-Aug-2020 322.20   20.55 4311.01 2041.94 71.62 12.00
   12:30:32.400.25-Aug-2020 322.40   20.55 4311.01 2041.94 71.62 12.00
   12:30:32.600.25-Aug-2020 322.60   20.55 4311.01 2041.94 71.62 12.00
   12:30:32.800.25-Aug-2020 322.80   20.55 4311.01 2041.94 71.62 12.00
   12:30:33.000.25-Aug-2020 323.00   20.56 4311.01 2041.94 71.62 12.00
   12:30:33.200.25-Aug-2020 323.20   20.56 4311.01 2041.94 71.62 12.00
   12:30:33.400.25-Aug-2020 323.40   20.56 4311.01 2041.94 71.62 12.00
   12:30:33.600.25-Aug-2020 323.60   20.56 4311.01 2041.94 71.62 12.00
   12:30:33.800.25-Aug-2020 323.80   20.57 4311.01 2041.94 71.62 12.00
   12:30:34.000.25-Aug-2020 324.00   20.57 4311.01 2041.94 71.62 12.00
   12:30:34.200.25-Aug-2020 324.20   20.58 4311.01 2041.94 71.62 12.00
   12:30:34.400.25-Aug-2020 324.40   20.57 4311.01 2041.94 71.62 12.00
   12:30:34.600.25-Aug-2020 324.60   20.54 4311.01 2041.94 71.62 12.00
   12:30:34.800.25-Aug-2020 324.80   20.59 4311.01 2041.94 71.62 12.00
   12:30:35.000.25-Aug-2020 325.00   20.59 4311.01 2041.94 71.62 12.00
   12:30:35.200.25-Aug-2020 325.20   20.59 4311.01 2041.94 71.62 12.00
   12:30:35.400.25-Aug-2020 325.40   20.60 4311.01 2041.94 71.62 12.00
   12:30:35.600.25-Aug-2020 325.60   20.59 4311.01 2041.94 71.62 12.00
   12:30:35.800.25-Aug-2020 325.80   20.58 4311.01 2041.94 71.62 12.00
   12:30:36.000.25-Aug-2020 326.00   20.59 4311.01 2041.94 71.62 12.00
   12:30:36.200.25-Aug-2020 326.20   20.60 4311.01 2041.94 71.62 12.00
   12:30:36.400.25-Aug-2020 326.40   20.61 4311.01 2041.94 71.62 12.00
   12:30:36.600.25-Aug-2020 326.60   20.60 4311.01 2041.94 71.62 12.00
   12:30:36.800.25-Aug-2020 326.80   20.60 4311.01 2041.94 71.62 12.00
   12:30:37.000.25-Aug-2020 327.00   20.62 4311.01 2041.94 71.62 12.00
   12:30:37.200.25-Aug-2020 327.20   20.62 4311.01 2041.94 71.62 12.00
   12:30:37.400.25-Aug-2020 327.40   20.63 4311.01 2041.94 71.62 12.00
   12:30:37.600.25-Aug-2020 327.60   20.59 4311.01 2041.94 71.62 12.00
   12:30:37.800.25-Aug-2020 327.80   20.64 4311.01 2041.94 71.62 12.00
   12:30:38.000.25-Aug-2020 328.00   20.62 4311.01 2041.94 71.62 12.00
   12:30:38.200.25-Aug-2020 328.20   20.64 4311.01 2041.94 71.62 12.00
   12:30:38.400.25-Aug-2020 328.40   20.63 4311.01 2041.94 71.62 12.00
   12:30:38.600.25-Aug-2020 328.60   20.63 4311.01 2041.94 71.62 12.00
   12:30:38.800.25-Aug-2020 328.80   20.64 4311.01 2041.94 71.62 12.00
   12:30:39.000.25-Aug-2020 329.00   20.64 4311.01 2041.94 71.62 12.00
   12:30:39.200.25-Aug-2020 329.20   20.65 4311.01 2041.94 71.62 12.00
   12:30:39.400.25-Aug-2020 329.40   20.65 4311.01 2041.94 71.62 12.00
   12:30:39.600.25-Aug-2020 329.60   20.66 4311.01 2041.94 71.62 12.00
   12:30:39.800.25-Aug-2020 329.80   20.66 4311.01 2041.94 71.62 12.00
   12:30:40.000.25-Aug-2020 330.00   20.66 4311.01 2041.94 71.62 12.00
   12:30:40.200.25-Aug-2020 330.20   20.66 4311.01 2041.94 71.62 12.00
   12:30:40.400.25-Aug-2020 330.40   20.66 4311.01 2041.94 71.62 12.00
   12:30:40.600.25-Aug-2020 330.60   20.67 4311.01 2041.94 71.62 12.00
   12:30:40.800.25-Aug-2020 330.80   20.67 4311.01 2041.94 71.62 12.00
   12:30:41.000.25-Aug-2020 331.00   20.67 4311.01 2041.94 71.62 12.00
   12:30:41.200.25-Aug-2020 331.20   20.67 4311.01 2041.94 71.62 12.00
   12:30:41.400.25-Aug-2020 331.40   20.68 4311.01 2041.94 71.62 12.00
   12:30:41.600.25-Aug-2020 331.60   20.68 4311.01 2041.94 71.62 12.00
   12:30:41.800.25-Aug-2020 331.80   20.68 4311.01 2041.94 71.62 12.00
   12:30:42.000.25-Aug-2020 332.00   20.69 4311.01 2041.94 71.62 12.00
   12:30:42.200.25-Aug-2020 332.20   20.67 4311.01 2041.94 71.62 12.00
   12:30:42.400.25-Aug-2020 332.40   20.68 4311.01 2041.94 71.62 12.00
   12:30:42.600.25-Aug-2020 332.60   20.69 4311.01 2041.94 71.62 12.00
   12:30:42.800.25-Aug-2020 332.80   20.69 4311.01 2041.94 71.62 12.00
   12:30:43.000.25-Aug-2020 333.00   20.70 4311.01 2041.94 71.62 12.00
   12:30:43.200.25-Aug-2020 333.20   20.70 4311.01 2041.94 71.62 12.00
   12:30:43.400.25-Aug-2020 333.40   20.70 4311.01 2041.94 71.62 12.00
   12:30:43.600.25-Aug-2020 333.60   20.70 4311.01 2041.94 71.62 12.00
   12:30:43.800.25-Aug-2020 333.80   20.71 4311.01 2041.94 71.62 12.00
   12:30:44.000.25-Aug-2020 334.00   20.71 4311.01 2041.94 71.62 12.00
   12:30:44.200.25-Aug-2020 334.20   20.72 4311.01 2041.94 71.62 12.00
   12:30:44.400.25-Aug-2020 334.40   20.72 4311.01 2041.94 71.62 12.00
   12:30:44.600.25-Aug-2020 334.60   20.72 4311.01 2041.94 71.62 12.00
   12:30:44.800.25-Aug-2020 334.80   20.72 4311.01 2041.94 71.62 12.00
   12:30:45.000.25-Aug-2020 335.00   20.72 4311.01 2041.94 71.62 12.00
   12:30:45.200.25-Aug-2020 335.20   20.72 4311.01 2041.94 71.62 12.00
   12:30:45.400.25-Aug-2020 335.40   20.71 4311.01 2041.94 71.62 12.00
   12:30:45.600.25-Aug-2020 335.60   20.72 4311.01 2041.94 71.62 12.00
   12:30:45.800.25-Aug-2020 335.80   20.73 4311.01 2041.94 71.62 12.00
   12:30:46.000.25-Aug-2020 336.00   20.73 4311.01 2041.94 71.62 12.00
   12:30:46.200.25-Aug-2020 336.20   20.74 4311.01 2041.94 71.62 12.00
   12:30:46.400.25-Aug-2020 336.40   20.74 4311.01 2041.94 71.62 12.00
   12:30:46.600.25-Aug-2020 336.60   20.71 4311.01 2041.94 71.62 12.00
   12:30:46.800.25-Aug-2020 336.80   20.75 4311.01 2041.94 71.62 12.00
   12:30:47.000.25-Aug-2020 337.00   20.74 4311.01 2041.94 71.62 12.00
   12:30:47.200.25-Aug-2020 337.20   20.75 4311.01 2041.94 71.62 12.00
   12:30:47.400.25-Aug-2020 337.40   20.72 4311.01 2041.94 71.62 12.00
   12:30:47.600.25-Aug-2020 337.60   20.77 4311.01 2041.94 71.62 12.00
   12:30:47.800.25-Aug-2020 337.80   20.76 4311.01 2041.94 71.62 12.00
   12:30:48.000.25-Aug-2020 338.00   20.76 4311.01 2041.94 71.62 12.00
   12:30:48.200.25-Aug-2020 338.20   20.76 4311.01 2041.94 71.62 12.00
   12:30:48.400.25-Aug-2020 338.40   20.77 4311.01 2041.94 71.62 12.00
   12:30:48.600.25-Aug-2020 338.60   20.75 4311.01 2041.94 71.62 12.00
   12:30:48.800.25-Aug-2020 338.80   20.76 4311.01 2041.94 71.62 12.00
