~Version Information
 VERS.                  2.0:   CWLS log ASCII Standard -VERSION 2.0
 WRAP.                   NO:   One line per depth step
~Well Information Block
#MNEM.UNIT     VALUE/NAME     DESCRIPTION
#---------     -----------    ---------------------------
 STRT.S             06:46:09 25-Aug-20: START TIME 06:46:09 25-Aug-20
 STOP.S             06:53:03 25-Aug-20: STOP TIME  06:53:03 25-Aug-20
 STEP.S                   0.00: STEP TIME
 NULL.                 -999.25: NULL VALUE
 DFWT.                        :  DIST FWL TEXT
 DFST.                        :  DIST FSL TEXT
 DMF .             Drill Floor:  DRILL MEAS FROM
 STIM.      09.59.28 01-Jun-20:  START TIME
 DATE.      05.00.00 28-Aug-20:  END TIME
 SPUD.               01-Jun-20:  SPUD DATE
 NREF.                    Grid:  NORTH REFERENCE
 HPTY.       Minimum Curvature:  HOLE POS TYPE
 DMOD.             Drill Model:  DRILL MOD DESC
 SVYD.                  Survey:  SURVEY DESC
 ILTD.               Lithology:  INTERP LTH DESC
 FTOP.          Formation Tops:  FORM TOPS DESC
 SON .        AZ-XX-0905455768:  JOB NUMBER
 WTYP.                Deviated:  WELL TYPE
 COMP.     BP Exploration(Caspian Sea):  COMPANY
 BASE.              Azerbaijan:  LOGGING EQUIPMENT BASE LOCATION
 REGN.                   EESSA:  REGION
 CTRY.              Azerbaijan:  COUNTRY NAME
 FLD .                     ACG:  FIELD NAME
 SRVC.          Turan Drilling:  CONTRACTOR
 WELL.                     B41:  WELL NAME
 RIG .           Central Azeri:  RIG NAME
 DCON.         Sperry Drilling:  DIRECTNL CONTR
 PDAT.          Mean Sea Level:  PERMANENT DATUM
 MDS .        Operator Entered:  MAG DATA SOURCE
 API .                        :  API NUMBER
 CNTY.                        :  COUNTY
 PROV.                        :  PROVINCE
 STAT.                        :  STATE
 UWI .                        :  UNIQUE WELL IDENTIFIER
 LOC .                        :  LOCATION
 LMF .             Drill Floor:  LOG MEASURED FROM
 TVDS.m                  43.29:  TVDSS CORRECTN
 LATI.deg                40.03:  LATITUDE
 LONG.deg                51.35:  LONGITUDE
 WHNS.m                  12.98:  WELL HEAD N/S
 WHEW.m                  -6.62:  WELL HEAD E/W
 UTMX.m              530128.28:  UTM X
 UTMY.m             4433192.49:  UTM Y
 DFWL.m                   0.00:  DISTANCE FWL
 DFSL.m                   0.00:  DISTANCE FSL
 SDEP.m                 378.00:  START DEPTH
 TDD .m                4463.01:  TOTAL DEPTH (DRILLER)
 VSDR.deg               296.18:  VERT SEC DIRECT
 GVFD.g                   1.00:  GRAVITY FIELD
 MFLD.nT              50269.00:  MAGNETIC FIELD
 MDIP.deg                59.50:  MAGNETIC DIP
 MDEC.deg                 6.44:  MAGNETIC DECL
 GRDC.deg                 0.20:  GRID CORRECTION
 AZTC.deg                 6.24:  AZM TOTAL CORR
 EPD .m                   0.00:  ELEVATION
 EGL .m                   0.00:  GROUND ELEVATION
 WDMS.m                 128.20:  WD ELEV
 APD .m                  43.29:  DEPTH ABOVE PD
 AGAP.m                  43.29:  AIR GAP
 VSEW.m                  -6.62:  VERT SEC E/W
 VSNS.m                  12.98:  VERT SEC N/S
 EKB .m                  43.29:  KB ELEVATION
 EDF .m                  43.29:  DF ELEVATION
 TDL .m                 147.00:  TOTAL DEPTH (LOGGER)
 VSC .                       0:  VS TO CLOSURE
 MAGU.                 1849241:  MAGUTM CHECKSUM
~Parameter Information Block
#MNEM.UNIT       Value        Description
#---------     -----------    ---------------------------
 AV  .mps                 0.70:  Ann Velocity 
 AZIF.deg               269.43:  Azm, Final 
 BHAT.        Rotary Steerable:  BHA Type 
 BROT.°/30m              -0.03:  Build Rotating 
 BS  .in                  8.50:  Bit Size 
 BSZ .in                  8.50:  Bit Size 
 BTPL.psig              880.00:  Bit Press Loss 
 CABU.                      No:  Customer Abuse 
 CGEO.          Parviz Guliyev:  Customer Geo 
 TCS .hr                 64.59:  Time Ciculation Ended 
 CV  .mps                 2.17:  Crit Velocity 
 DD1 .            Nonso Okafor:  Direct Drillr 1 
 DDSV.               Geo-Pilot:  DD Service 
 DEFF.%                  98.00:  % Det Eff 
 DLRX.°/30m               0.81:  Dogleg Rot Max 
 DLSO.°/30m               0.55:  Dogleg Oriented 
 DLSX.°/30m               0.81:  Dogleg Str Max 
 DRET.      23.50.00 24-Aug-20:  Drill End Time 
 DRST.      07.34.24 22-Aug-20:  Drill Start Tim 
 DTIM.hr                 15.29:  Time Drilling 
 EDEP.m                4461.01:  End Depth 
 ENG1.       Zam Abdullah Sani:  Engineer 1 
 ENG2.         Dair Mahammadov:  Engineer 2 
 ENG3.          Rustam Gadirov:  Engineer 3 
 ETIM.      07.34.24 26-Aug-20:  End Time 
 FLOI.gpm               550.00:  Flow In 
 FLON.gpm               400.00:  Flow In Min 
 FLOS.cptm                1.00:  Fluid Loss 
 FLOX.gpm               600.00:  Flow In Max 
 FTRO.       Formation Presure:  FTWD Run Obj 
 HFLO.                      No:  High Flow 
 HPRE.                      No:  High Pressure 
 HTEM.                      No:  High Temp 
 HYDO.m                   1.80:  Hydro Offset 
 IFIN.deg                66.72:  Inc, Final 
 IMAX.deg                67.42:  Inc Max 
 IMIN.deg                66.72:  Inc Min 
 IMND.m                4408.37:  Inc Min Depth 
 IMXD.m                4323.37:  Inc Max Depth 
 JARR.                      No:  Jarring 
 LETM.      23.50.00 24-Aug-20:  Log End Time 
 LOST.hr                     0:  Lost Rig Time 
 LSTM.      07.34.24 22-Aug-20:  Log Start Time 
 MDCL.ppm             38000.00:  Mud Chlorides 
 MDES.     Inversion Oil/Synthetic:  Mud Desc 
 DFD .sg                  1.40:  Mud Density 
 MDMN.sg                  1.38:  Dens Mud Min 
 MDMX.sg                  1.41:  Dens Mud Max 
 MOIL.                    70.5:  Run Mud Oil % 
 MOWR.                   68:32:  Run Mud OWR 
 MSND.                    0.01:  Run Mud Sand % 
 MSOL.                   17.68:  Run Mud Solids% 
 DFV .spqt               77.00:  Mud Viscosity 
 MWOD.in                  6.75:  MWD Tool OD 
 MWSI.                      No:  Serv Intrp, MWD 
 OTIM.hr                159.42:  Time Operating 
 PCON.           Look Like New:  Pad Condition 
 PMAX.psia             8730.94:  Press Op, Max 
 PV  .cP                 31.00:  Mud PV 
 RUN .                     900:  Run Number 
 ROPA.m/hr               12.00:  ROP Avg 
 ROPN.m/hr                7.00:  ROP Min 
 ROPX.m/hr               17.00:  ROP Max 
 RPMA.rpm               120.00:  RPM Surface Avg 
 RPMN.rpm                60.00:  RPM Surface Min 
 RPMX.rpm               140.00:  RPM Surface Max 
 RRUN.                    L604:  Rig Run Number 
 RTIM.hr                 10.00:  Time Reaming 
 SAZI.deg               270.56:  Azm, Start 
 SDEP.m                4314.01:  Start Depth 
 SIDD.                      No:  Serv Intrp, DD 
 SINC.deg                67.42:  Inc, Start 
 SPPA.psig             3300.00:  SPP Avg 
 SPPN.psig             1750.00:  SPP Min 
 SPPX.psig             4630.00:  SPP Max 
 STIM.      11.00.00 21-Aug-20:  Start Time 
 SVCS.                 DD, MWD:  Services 
 SVER.                    9.20:  Sperry Version 
 TDAT.m                4461.01:  Tot Depth Attmp 
 TDDF.                      No:  Trip for DD 
 TDLG.m                 147.00:  Tot Depth Loggd 
 TFF .                      No:  Trip for Fail 
 TQAA.f-kp               16.00:  Torque Abs Avg 
 TQAN.f-kp               14.00:  Torque Abs Min 
 TQAX.f-kp               20.00:  Torque Abs Max 
 TRRT.°/30m              -0.14:  Turn Rotating 
 MRT .                    HCIM:  Maximum Recorded Temperature 
 TTMX.degC               78.00:  Max Tool Temp 
 VS01.                90515425:  Virtual Str1 SN 
 VS02.                90545184:  Virtual Str2 SN 
 VS03.                90527809:  Virtual Str3 SN 
 VS04.                90515232:  Virtual Str4 SN 
 VS05.                90621207:  Virtual Str5 SN 
 VS06.                90619737:  Virtual Str6 SN 
 WBMN.klb                 2.00:  WOB Min 
 WITN.          Keith Dischler:  Customer Rep 
 WITN.           Faig Mammadov:  Customer Rep 2 
 WOBA.klb                 5.00:  WOB Avg 
 WOBX.klb                 8.00:  WOB Max 
 YP  .lhf2               32.00:  Yield Point 
~Curve Information Block
#MNEM.UNIT                 API CODE     Curve Description
#---------               -----------    ---------------------------
 TIME.HHMMSS            00 000 000 000:  GT Time & Date
 GTET.sec               00 000 000 000:  GT Elapsed Test Time
 GTPQH.psia             00 000 000 000:  GT HR Quartz Pressure
 GTDEPTH.m              00 000 000 000:  GT Depth
 GTTVD.m                00 000 000 000:  GT True Vertical Depth
 GTTQ.degC              00 000 000 000:  GT Quartz Temperature
 GTTN.NONE              00 000 000 000:  GT Test Number
#Other Information
#
#WARRANTY: Halliburton will use its best efforts to furnish customers with 
#accurate information and interpretations that are part of, and incident to, the services 
#provided.  However, Halliburton cannot and does not warrant the accuracy 
#or correctness of such information and interpretations.  Under no circumstances should any 
#such information or interpretation be relied upon as the sole basis for any drilling, 
#completion, production, or financial decision or any procedure involving any risk to the 
#safety of any drilling venture, drilling rig or its crew or any other third party.  The 
#Customer has full responsibility for all drilling, completion and production operation.  
#Halliburton makes no representations or warranties, either expressed or 
#implied, including, but not limited to, the implied warranties of merchantability or fitness 
#for a particular purpose, with respect to the services rendered.  In no event will 
#Halliburton be liable for failure to obtain any particular results or for 
#any damages, including, but not limited to, indirect, special or consequential damages, 
#resulting from the use of any information or interpretation provided by Halliburton.
#
~A           TIME            GTET   GTPQH  GTDEPTH  GTTVD  GTTQ  GTTN 
# ...
   06:51:54.000.25-Aug-2020 345.00   16.39 4396.51 2075.38 73.07 3.00
   06:51:54.200.25-Aug-2020 345.20   16.39 4396.51 2075.38 73.07 3.00
   06:51:54.400.25-Aug-2020 345.40   16.39 4396.51 2075.38 73.07 3.00
   06:51:54.600.25-Aug-2020 345.60   16.39 4396.51 2075.38 73.07 3.00
   06:51:54.800.25-Aug-2020 345.80   16.38 4396.51 2075.38 73.07 3.00
   06:51:55.000.25-Aug-2020 346.00   16.40 4396.51 2075.38 73.07 3.00
   06:51:55.200.25-Aug-2020 346.20   16.40 4396.51 2075.38 73.07 3.00
   06:51:55.400.25-Aug-2020 346.40   16.39 4396.51 2075.38 73.07 3.00
   06:51:55.600.25-Aug-2020 346.60   16.40 4396.51 2075.38 73.07 3.00
   06:51:55.800.25-Aug-2020 346.80   16.39 4396.51 2075.38 73.07 3.00
   06:51:56.000.25-Aug-2020 347.00   16.40 4396.51 2075.38 73.07 3.00
   06:51:56.200.25-Aug-2020 347.20   16.40 4396.51 2075.38 73.07 3.00
   06:51:56.400.25-Aug-2020 347.40   16.40 4396.51 2075.38 73.07 3.00
   06:51:56.600.25-Aug-2020 347.60   16.40 4396.51 2075.38 73.07 3.00
   06:51:56.800.25-Aug-2020 347.80   16.40 4396.51 2075.38 73.07 3.00
   06:51:57.000.25-Aug-2020 348.00   16.41 4396.51 2075.38 73.07 3.00
   06:51:57.200.25-Aug-2020 348.20   16.40 4396.51 2075.38 73.07 3.00
   06:51:57.400.25-Aug-2020 348.40   16.41 4396.51 2075.38 73.07 3.00
   06:51:57.600.25-Aug-2020 348.60   16.41 4396.51 2075.38 73.07 3.00
   06:51:57.800.25-Aug-2020 348.80   16.41 4396.51 2075.38 73.07 3.00
   06:51:58.000.25-Aug-2020 349.00   16.41 4396.51 2075.38 73.07 3.00
   06:51:58.200.25-Aug-2020 349.20   16.41 4396.51 2075.38 73.07 3.00
   06:51:58.400.25-Aug-2020 349.40   16.41 4396.51 2075.38 73.07 3.00
   06:51:58.600.25-Aug-2020 349.60   16.41 4396.51 2075.38 73.07 3.00
   06:51:58.800.25-Aug-2020 349.80   16.41 4396.51 2075.38 73.07 3.00
   06:51:59.000.25-Aug-2020 350.00   16.41 4396.51 2075.38 73.07 3.00
   06:51:59.200.25-Aug-2020 350.20   16.41 4396.51 2075.38 73.07 3.00
   06:51:59.400.25-Aug-2020 350.40   16.41 4396.51 2075.38 73.07 3.00
   06:51:59.600.25-Aug-2020 350.60   16.41 4396.51 2075.38 73.07 3.00
   06:51:59.800.25-Aug-2020 350.80   16.41 4396.51 2075.38 73.07 3.00
   06:52:00.000.25-Aug-2020 351.00   16.41 4396.51 2075.38 73.07 3.00
   06:52:00.200.25-Aug-2020 351.20   16.41 4396.51 2075.38 73.07 3.00
   06:52:00.400.25-Aug-2020 351.40   16.41 4396.51 2075.38 73.07 3.00
   06:52:00.600.25-Aug-2020 351.60   16.41 4396.51 2075.38 73.07 3.00
   06:52:00.800.25-Aug-2020 351.80   16.41 4396.51 2075.38 73.07 3.00
   06:52:01.000.25-Aug-2020 352.00   16.41 4396.51 2075.38 73.07 3.00
   06:52:01.200.25-Aug-2020 352.20   16.42 4396.51 2075.38 73.07 3.00
   06:52:01.400.25-Aug-2020 352.40   16.41 4396.51 2075.38 73.07 3.00
   06:52:01.600.25-Aug-2020 352.60   16.42 4396.51 2075.38 73.07 3.00
   06:52:01.800.25-Aug-2020 352.80   16.42 4396.51 2075.38 73.07 3.00
   06:52:02.000.25-Aug-2020 353.00   16.41 4396.51 2075.38 73.07 3.00
   06:52:02.200.25-Aug-2020 353.20   16.41 4396.51 2075.38 73.07 3.00
   06:52:02.400.25-Aug-2020 353.40   16.42 4396.51 2075.38 73.07 3.00
   06:52:02.600.25-Aug-2020 353.60   16.41 4396.51 2075.38 73.07 3.00
   06:52:02.800.25-Aug-2020 353.80   16.42 4396.51 2075.38 73.07 3.00
   06:52:03.000.25-Aug-2020 354.00   16.41 4396.51 2075.38 73.07 3.00
   06:52:03.200.25-Aug-2020 354.20   16.41 4396.51 2075.38 73.07 3.00
   06:52:03.400.25-Aug-2020 354.40   16.41 4396.51 2075.38 73.07 3.00
   06:52:03.600.25-Aug-2020 354.60   16.41 4396.51 2075.38 73.07 3.00
   06:52:03.800.25-Aug-2020 354.80   16.42 4396.51 2075.38 73.07 3.00
   06:52:04.000.25-Aug-2020 355.00   16.41 4396.51 2075.38 73.07 3.00
   06:52:04.200.25-Aug-2020 355.20   16.41 4396.51 2075.38 73.07 3.00
   06:52:04.400.25-Aug-2020 355.40   16.41 4396.51 2075.38 73.07 3.00
   06:52:04.600.25-Aug-2020 355.60   16.42 4396.51 2075.38 73.07 3.00
   06:52:04.800.25-Aug-2020 355.80   16.41 4396.51 2075.38 73.07 3.00
   06:52:05.000.25-Aug-2020 356.00   16.41 4396.51 2075.38 73.07 3.00
   06:52:05.200.25-Aug-2020 356.20   16.41 4396.51 2075.38 73.07 3.00
   06:52:05.400.25-Aug-2020 356.40   16.41 4396.51 2075.38 73.07 3.00
   06:52:05.600.25-Aug-2020 356.60   16.42 4396.51 2075.38 73.07 3.00
   06:52:05.800.25-Aug-2020 356.80   16.41 4396.51 2075.38 73.07 3.00
   06:52:06.000.25-Aug-2020 357.00   16.41 4396.51 2075.38 73.07 3.00
   06:52:06.200.25-Aug-2020 357.20   16.41 4396.51 2075.38 73.07 3.00
   06:52:06.400.25-Aug-2020 357.40   16.42 4396.51 2075.38 73.07 3.00
   06:52:06.600.25-Aug-2020 357.60   16.42 4396.51 2075.38 73.07 3.00
   06:52:06.800.25-Aug-2020 357.80   16.41 4396.51 2075.38 73.07 3.00
   06:52:07.000.25-Aug-2020 358.00   16.41 4396.51 2075.38 73.07 3.00
   06:52:07.200.25-Aug-2020 358.20   16.41 4396.51 2075.38 73.07 3.00
   06:52:07.400.25-Aug-2020 358.40   16.42 4396.51 2075.38 73.07 3.00
   06:52:07.600.25-Aug-2020 358.60   16.41 4396.51 2075.38 73.07 3.00
   06:52:07.800.25-Aug-2020 358.80   16.42 4396.51 2075.38 73.07 3.00
   06:52:08.000.25-Aug-2020 359.00   16.42 4396.51 2075.38 73.07 3.00
   06:52:08.200.25-Aug-2020 359.20   16.42 4396.51 2075.38 73.07 3.00
   06:52:08.400.25-Aug-2020 359.40   16.43 4396.51 2075.38 73.07 3.00
   06:52:08.600.25-Aug-2020 359.60 1378.16 4396.51 2075.38 73.07 3.00
   06:52:08.800.25-Aug-2020 359.80 4794.24 4396.51 2075.38 73.07 3.00
   06:52:09.000.25-Aug-2020 360.00 4791.76 4396.51 2075.38 73.07 3.00
   06:52:09.200.25-Aug-2020 360.20 4790.84 4396.51 2075.38 73.08 3.00
   06:52:09.400.25-Aug-2020 360.40 4790.64 4396.51 2075.38 73.08 3.00
   06:52:09.600.25-Aug-2020 360.60 4790.91 4396.51 2075.38 73.08 3.00
   06:52:09.800.25-Aug-2020 360.80 4792.21 4396.51 2075.38 73.08 3.00
   06:52:10.000.25-Aug-2020 361.00 4801.30 4396.51 2075.38 73.09 3.00
   06:52:10.200.25-Aug-2020 361.20 4801.30 4396.51 2075.38 73.09 3.00
   06:52:10.400.25-Aug-2020 361.40 4797.94 4396.51 2075.38 73.09 3.00
   06:52:10.600.25-Aug-2020 361.60 4796.35 4396.51 2075.38 73.10 3.00
   06:52:10.800.25-Aug-2020 361.80 4796.86 4396.51 2075.38 73.10 3.00
   06:52:11.000.25-Aug-2020 362.00 4798.17 4396.51 2075.38 73.10 3.00
   06:52:11.200.25-Aug-2020 362.20 4798.17 4396.51 2075.38 73.10 3.00
   06:52:11.400.25-Aug-2020 362.40 4798.29 4396.51 2075.38 73.11 3.00
   06:52:11.600.25-Aug-2020 362.60 4799.14 4396.51 2075.38 73.12 3.00
   06:52:11.800.25-Aug-2020 362.80 4798.65 4396.51 2075.38 73.12 3.00
   06:52:12.000.25-Aug-2020 363.00 4799.50 4396.51 2075.38 73.12 3.00
   06:52:12.200.25-Aug-2020 363.20 4799.50 4396.51 2075.38 73.12 3.00
   06:52:12.400.25-Aug-2020 363.40 4802.02 4396.51 2075.38 73.13 3.00
   06:52:12.600.25-Aug-2020 363.60 4800.90 4396.51 2075.38 73.14 3.00
   06:52:12.800.25-Aug-2020 363.80 4801.23 4396.51 2075.38 73.14 3.00
   06:52:13.000.25-Aug-2020 364.00 4801.38 4396.51 2075.38 73.14 3.00
   06:52:13.200.25-Aug-2020 364.20 4801.38 4396.51 2075.38 73.14 3.00
   06:52:13.400.25-Aug-2020 364.40 4811.32 4396.51 2075.38 73.15 3.00
   06:52:13.600.25-Aug-2020 364.60 4803.44 4396.51 2075.38 73.15 3.00
   06:52:13.800.25-Aug-2020 364.80 4802.59 4396.51 2075.38 73.16 3.00
   06:52:14.000.25-Aug-2020 365.00 4803.00 4396.51 2075.38 73.16 3.00
   06:52:14.200.25-Aug-2020 365.20 4803.00 4396.51 2075.38 73.16 3.00
   06:52:14.400.25-Aug-2020 365.40 4804.94 4396.51 2075.38 73.17 3.00
   06:52:14.600.25-Aug-2020 365.60 4809.97 4396.51 2075.38 73.17 3.00
   06:52:14.800.25-Aug-2020 365.80 4805.81 4396.51 2075.38 73.17 3.00
   06:52:15.000.25-Aug-2020 366.00 4808.90 4396.51 2075.38 73.18 3.00
   06:52:15.200.25-Aug-2020 366.20 4808.90 4396.51 2075.38 73.18 3.00
   06:52:15.400.25-Aug-2020 366.40 4811.40 4396.51 2075.38 73.18 3.00
   06:52:15.600.25-Aug-2020 366.60 4805.95 4396.51 2075.38 73.19 3.00
   06:52:15.800.25-Aug-2020 366.80 4803.91 4396.51 2075.38 73.19 3.00
   06:52:16.000.25-Aug-2020 367.00 4808.54 4396.51 2075.38 73.19 3.00
   06:52:16.200.25-Aug-2020 367.20 4808.54 4396.51 2075.38 73.19 3.00
   06:52:16.400.25-Aug-2020 367.40 4812.74 4396.51 2075.38 73.19 3.00
   06:52:16.600.25-Aug-2020 367.60 4808.02 4396.51 2075.38 73.20 3.00
   06:52:16.800.25-Aug-2020 367.80 4805.97 4396.51 2075.38 73.20 3.00
