~Version Information
 VERS.                  2.0:   CWLS log ASCII Standard -VERSION 2.0
 WRAP.                   NO:   One line per depth step
~Well Information Block
#MNEM.UNIT     VALUE/NAME     DESCRIPTION
#---------     -----------    ---------------------------
 STRT.S             12:03:19 25-Aug-20: START TIME 12:03:19 25-Aug-20
 STOP.S             12:10:17 25-Aug-20: STOP TIME  12:10:17 25-Aug-20
 STEP.S                   0.00: STEP TIME
 NULL.                 -999.25: NULL VALUE
 DFWT.                        :  DIST FWL TEXT
 DFST.                        :  DIST FSL TEXT
 DMF .             Drill Floor:  DRILL MEAS FROM
 STIM.      09.59.28 01-Jun-20:  START TIME
 DATE.      05.00.00 28-Aug-20:  END TIME
 SPUD.               01-Jun-20:  SPUD DATE
 NREF.                    Grid:  NORTH REFERENCE
 HPTY.       Minimum Curvature:  HOLE POS TYPE
 DMOD.             Drill Model:  DRILL MOD DESC
 SVYD.                  Survey:  SURVEY DESC
 ILTD.               Lithology:  INTERP LTH DESC
 FTOP.          Formation Tops:  FORM TOPS DESC
 SON .        AZ-XX-0905455768:  JOB NUMBER
 WTYP.                Deviated:  WELL TYPE
 COMP.     BP Exploration(Caspian Sea):  COMPANY
 BASE.              Azerbaijan:  LOGGING EQUIPMENT BASE LOCATION
 REGN.                   EESSA:  REGION
 CTRY.              Azerbaijan:  COUNTRY NAME
 FLD .                     ACG:  FIELD NAME
 SRVC.          Turan Drilling:  CONTRACTOR
 WELL.                     B41:  WELL NAME
 RIG .           Central Azeri:  RIG NAME
 DCON.         Sperry Drilling:  DIRECTNL CONTR
 PDAT.          Mean Sea Level:  PERMANENT DATUM
 MDS .        Operator Entered:  MAG DATA SOURCE
 API .                        :  API NUMBER
 CNTY.                        :  COUNTY
 PROV.                        :  PROVINCE
 STAT.                        :  STATE
 UWI .                        :  UNIQUE WELL IDENTIFIER
 LOC .                        :  LOCATION
 LMF .             Drill Floor:  LOG MEASURED FROM
 TVDS.m                  43.29:  TVDSS CORRECTN
 LATI.deg                40.03:  LATITUDE
 LONG.deg                51.35:  LONGITUDE
 WHNS.m                  12.98:  WELL HEAD N/S
 WHEW.m                  -6.62:  WELL HEAD E/W
 UTMX.m              530128.28:  UTM X
 UTMY.m             4433192.49:  UTM Y
 DFWL.m                   0.00:  DISTANCE FWL
 DFSL.m                   0.00:  DISTANCE FSL
 SDEP.m                 378.00:  START DEPTH
 TDD .m                4463.01:  TOTAL DEPTH (DRILLER)
 VSDR.deg               296.18:  VERT SEC DIRECT
 GVFD.g                   1.00:  GRAVITY FIELD
 MFLD.nT              50269.00:  MAGNETIC FIELD
 MDIP.deg                59.50:  MAGNETIC DIP
 MDEC.deg                 6.44:  MAGNETIC DECL
 GRDC.deg                 0.20:  GRID CORRECTION
 AZTC.deg                 6.24:  AZM TOTAL CORR
 EPD .m                   0.00:  ELEVATION
 EGL .m                   0.00:  GROUND ELEVATION
 WDMS.m                 128.20:  WD ELEV
 APD .m                  43.29:  DEPTH ABOVE PD
 AGAP.m                  43.29:  AIR GAP
 VSEW.m                  -6.62:  VERT SEC E/W
 VSNS.m                  12.98:  VERT SEC N/S
 EKB .m                  43.29:  KB ELEVATION
 EDF .m                  43.29:  DF ELEVATION
 TDL .m                 147.00:  TOTAL DEPTH (LOGGER)
 VSC .                       0:  VS TO CLOSURE
 MAGU.                 1849241:  MAGUTM CHECKSUM
~Parameter Information Block
#MNEM.UNIT       Value        Description
#---------     -----------    ---------------------------
 AV  .mps                 0.70:  Ann Velocity 
 AZIF.deg               269.43:  Azm, Final 
 BHAT.        Rotary Steerable:  BHA Type 
 BROT.°/30m              -0.03:  Build Rotating 
 BS  .in                  8.50:  Bit Size 
 BSZ .in                  8.50:  Bit Size 
 BTPL.psig              880.00:  Bit Press Loss 
 CABU.                      No:  Customer Abuse 
 CGEO.          Parviz Guliyev:  Customer Geo 
 COMM.                     DVX:  Run Comments 1 
 TCS .hr                 64.59:  Time Ciculation Ended 
 CV  .mps                 2.17:  Crit Velocity 
 DD1 .            Nonso Okafor:  Direct Drillr 1 
 DDSV.               Geo-Pilot:  DD Service 
 DEFF.%                  98.00:  % Det Eff 
 DLRX.°/30m               0.81:  Dogleg Rot Max 
 DLSO.°/30m               0.55:  Dogleg Oriented 
 DLSX.°/30m               0.81:  Dogleg Str Max 
 DRET.      23.50.00 24-Aug-20:  Drill End Time 
 DRST.      07.34.24 22-Aug-20:  Drill Start Tim 
 DTIM.hr                 15.29:  Time Drilling 
 EDEP.m                4461.01:  End Depth 
 ENG1.       Zam Abdullah Sani:  Engineer 1 
 ENG2.         Dair Mahammadov:  Engineer 2 
 ENG3.          Rustam Gadirov:  Engineer 3 
 ETIM.      07.34.24 26-Aug-20:  End Time 
 FLOI.gpm               550.00:  Flow In 
 FLON.gpm               400.00:  Flow In Min 
 FLOS.cptm                1.00:  Fluid Loss 
 FLOX.gpm               600.00:  Flow In Max 
 FTRO.       Formation Presure:  FTWD Run Obj 
 HFLO.                      No:  High Flow 
 HPRE.                      No:  High Pressure 
 HTEM.                      No:  High Temp 
 HYDO.m                   1.80:  Hydro Offset 
 IFIN.deg                66.72:  Inc, Final 
 IMAX.deg                67.42:  Inc Max 
 IMIN.deg                66.72:  Inc Min 
 IMND.m                4408.37:  Inc Min Depth 
 IMXD.m                4323.37:  Inc Max Depth 
 JARR.                      No:  Jarring 
 LETM.      23.50.00 24-Aug-20:  Log End Time 
 LOST.hr                     0:  Lost Rig Time 
 LSTM.      07.34.24 22-Aug-20:  Log Start Time 
 MDCL.ppm             38000.00:  Mud Chlorides 
 MDES.     Inversion Oil/Synthetic:  Mud Desc 
 DFD .sg                  1.40:  Mud Density 
 MDMN.sg                  1.38:  Dens Mud Min 
 MDMX.sg                  1.41:  Dens Mud Max 
 MOIL.                    70.5:  Run Mud Oil % 
 MOWR.                   68:32:  Run Mud OWR 
 MSND.                    0.01:  Run Mud Sand % 
 MSOL.                   17.68:  Run Mud Solids% 
 DFV .spqt               77.00:  Mud Viscosity 
 MWOD.in                  6.75:  MWD Tool OD 
 MWSI.                      No:  Serv Intrp, MWD 
 OTIM.hr                159.42:  Time Operating 
 PCON.           Look Like New:  Pad Condition 
 PMAX.psia             8730.94:  Press Op, Max 
 PV  .cP                 31.00:  Mud PV 
 RUN .                     900:  Run Number 
 ROPA.m/hr               12.00:  ROP Avg 
 ROPN.m/hr                7.00:  ROP Min 
 ROPX.m/hr               17.00:  ROP Max 
 RPMA.rpm               120.00:  RPM Surface Avg 
 RPMN.rpm                60.00:  RPM Surface Min 
 RPMX.rpm               140.00:  RPM Surface Max 
 RRUN.                    L604:  Rig Run Number 
 RTIM.hr                 10.00:  Time Reaming 
 SAZI.deg               270.56:  Azm, Start 
 SDEP.m                4314.01:  Start Depth 
 SIDD.                      No:  Serv Intrp, DD 
 SINC.deg                67.42:  Inc, Start 
 SPPA.psig             3300.00:  SPP Avg 
 SPPN.psig             1750.00:  SPP Min 
 SPPX.psig             4630.00:  SPP Max 
 STIM.      11.00.00 21-Aug-20:  Start Time 
 SVCS.                 DD, MWD:  Services 
 SVER.                    9.20:  Sperry Version 
 TDAT.m                4461.01:  Tot Depth Attmp 
 TDDF.                      No:  Trip for DD 
 TDLG.m                 147.00:  Tot Depth Loggd 
 TFF .                      No:  Trip for Fail 
 TQAA.f-kp               16.00:  Torque Abs Avg 
 TQAN.f-kp               14.00:  Torque Abs Min 
 TQAX.f-kp               20.00:  Torque Abs Max 
 TRRT.°/30m              -0.14:  Turn Rotating 
 MRT .                    HCIM:  Maximum Recorded Temperature 
 TTMX.degC               78.00:  Max Tool Temp 
 VS01.                90515425:  Virtual Str1 SN 
 VS02.                90545184:  Virtual Str2 SN 
 VS03.                90527809:  Virtual Str3 SN 
 VS04.                90515232:  Virtual Str4 SN 
 VS05.                90621207:  Virtual Str5 SN 
 VS06.                90619737:  Virtual Str6 SN 
 WBMN.klb                 2.00:  WOB Min 
 WITN.          Keith Dischler:  Customer Rep 
 WITN.           Faig Mammadov:  Customer Rep 2 
 WOBA.klb                 5.00:  WOB Avg 
 WOBX.klb                 8.00:  WOB Max 
 YP  .lhf2               32.00:  Yield Point 
~Curve Information Block
#MNEM.UNIT                 API CODE     Curve Description
#---------               -----------    ---------------------------
 TIME.HHMMSS            00 000 000 000:  GT Time & Date
 GTET.sec               00 000 000 000:  GT Elapsed Test Time
 GTPQH.psia             00 000 000 000:  GT HR Quartz Pressure
 GTDEPTH.m              00 000 000 000:  GT Depth
 GTTVD.m                00 000 000 000:  GT True Vertical Depth
 GTTQ.degC              00 000 000 000:  GT Quartz Temperature
 GTTN.NONE              00 000 000 000:  GT Test Number
#Other Information
#
#WARRANTY: Halliburton will use its best efforts to furnish customers with 
#accurate information and interpretations that are part of, and incident to, the services 
#provided.  However, Halliburton cannot and does not warrant the accuracy 
#or correctness of such information and interpretations.  Under no circumstances should any 
#such information or interpretation be relied upon as the sole basis for any drilling, 
#completion, production, or financial decision or any procedure involving any risk to the 
#safety of any drilling venture, drilling rig or its crew or any other third party.  The 
#Customer has full responsibility for all drilling, completion and production operation.  
#Halliburton makes no representations or warranties, either expressed or 
#implied, including, but not limited to, the implied warranties of merchantability or fitness 
#for a particular purpose, with respect to the services rendered.  In no event will 
#Halliburton be liable for failure to obtain any particular results or for 
#any damages, including, but not limited to, indirect, special or consequential damages, 
#resulting from the use of any information or interpretation provided by Halliburton.
#
~A           TIME            GTET   GTPQH  GTDEPTH  GTTVD  GTTQ  GTTN  
# ...
   12:05:34.600.25-Aug-2020 135.60  172.00 4311.51 2042.13 71.58 11.00
   12:05:34.800.25-Aug-2020 135.80  172.04 4311.51 2042.13 71.58 11.00
   12:05:35.000.25-Aug-2020 136.00  172.10 4311.51 2042.13 71.58 11.00
   12:05:35.200.25-Aug-2020 136.20  172.10 4311.51 2042.13 71.58 11.00
   12:05:35.400.25-Aug-2020 136.40  172.14 4311.51 2042.13 71.58 11.00
   12:05:35.600.25-Aug-2020 136.60  172.24 4311.51 2042.13 71.58 11.00
   12:05:35.800.25-Aug-2020 136.80  172.29 4311.51 2042.13 71.58 11.00
   12:05:36.000.25-Aug-2020 137.00  172.34 4311.51 2042.13 71.58 11.00
   12:05:36.200.25-Aug-2020 137.20  172.38 4311.51 2042.13 71.58 11.00
   12:05:36.400.25-Aug-2020 137.40  172.43 4311.51 2042.13 71.58 11.00
   12:05:36.600.25-Aug-2020 137.60  172.45 4311.51 2042.13 71.58 11.00
   12:05:36.800.25-Aug-2020 137.80  172.52 4311.51 2042.13 71.58 11.00
   12:05:37.000.25-Aug-2020 138.00  172.57 4311.51 2042.13 71.58 11.00
   12:05:37.200.25-Aug-2020 138.20  172.63 4311.51 2042.13 71.58 11.00
   12:05:37.400.25-Aug-2020 138.40  172.66 4311.51 2042.13 71.58 11.00
   12:05:37.600.25-Aug-2020 138.60  172.71 4311.51 2042.13 71.58 11.00
   12:05:37.800.25-Aug-2020 138.80  172.77 4311.51 2042.13 71.58 11.00
   12:05:38.000.25-Aug-2020 139.00  172.76 4311.51 2042.13 71.58 11.00
   12:05:38.200.25-Aug-2020 139.20  172.76 4311.51 2042.13 71.58 11.00
   12:05:38.400.25-Aug-2020 139.40  172.92 4311.51 2042.13 71.58 11.00
   12:05:38.600.25-Aug-2020 139.60  172.98 4311.51 2042.13 71.58 11.00
   12:05:38.800.25-Aug-2020 139.80  173.00 4311.51 2042.13 71.58 11.00
   12:05:39.000.25-Aug-2020 140.00  173.09 4311.51 2042.13 71.58 11.00
   12:05:39.200.25-Aug-2020 140.20  173.09 4311.51 2042.13 71.58 11.00
   12:05:39.400.25-Aug-2020 140.40  173.20 4311.51 2042.13 71.58 11.00
   12:05:39.600.25-Aug-2020 140.60  173.22 4311.51 2042.13 71.58 11.00
   12:05:39.800.25-Aug-2020 140.80  173.30 4311.51 2042.13 71.58 11.00
   12:05:40.000.25-Aug-2020 141.00  173.34 4311.51 2042.13 71.58 11.00
   12:05:40.200.25-Aug-2020 141.20  173.38 4311.51 2042.13 71.58 11.00
   12:05:40.400.25-Aug-2020 141.40  173.44 4311.51 2042.13 71.58 11.00
   12:05:40.600.25-Aug-2020 141.60  173.49 4311.51 2042.13 71.58 11.00
   12:05:40.800.25-Aug-2020 141.80  173.54 4311.51 2042.13 71.58 11.00
   12:05:41.000.25-Aug-2020 142.00  173.60 4311.51 2042.13 71.58 11.00
   12:05:41.200.25-Aug-2020 142.20  173.65 4311.51 2042.13 71.58 11.00
   12:05:41.400.25-Aug-2020 142.40  173.70 4311.51 2042.13 71.58 11.00
   12:05:41.600.25-Aug-2020 142.60  173.76 4311.51 2042.13 71.58 11.00
   12:05:41.800.25-Aug-2020 142.80  173.80 4311.51 2042.13 71.58 11.00
   12:05:42.000.25-Aug-2020 143.00  173.85 4311.51 2042.13 71.58 11.00
   12:05:42.200.25-Aug-2020 143.20  173.90 4311.51 2042.13 71.58 11.00
   12:05:42.400.25-Aug-2020 143.40  173.94 4311.51 2042.13 71.58 11.00
   12:05:42.600.25-Aug-2020 143.60  174.00 4311.51 2042.13 71.58 11.00
   12:05:42.800.25-Aug-2020 143.80  174.05 4311.51 2042.13 71.58 11.00
   12:05:43.000.25-Aug-2020 144.00  174.10 4311.51 2042.13 71.58 11.00
   12:05:43.200.25-Aug-2020 144.20  174.12 4311.51 2042.13 71.58 11.00
   12:05:43.400.25-Aug-2020 144.40  174.22 4311.51 2042.13 71.58 11.00
   12:05:43.600.25-Aug-2020 144.60  174.26 4311.51 2042.13 71.58 11.00
   12:05:43.800.25-Aug-2020 144.80  174.31 4311.51 2042.13 71.58 11.00
   12:05:44.000.25-Aug-2020 145.00  174.35 4311.51 2042.13 71.58 11.00
   12:05:44.200.25-Aug-2020 145.20  174.40 4311.51 2042.13 71.58 11.00
   12:05:44.400.25-Aug-2020 145.40  174.45 4311.51 2042.13 71.58 11.00
   12:05:44.600.25-Aug-2020 145.60  174.50 4311.51 2042.13 71.58 11.00
   12:05:44.800.25-Aug-2020 145.80  174.56 4311.51 2042.13 71.58 11.00
   12:05:45.000.25-Aug-2020 146.00  174.61 4311.51 2042.13 71.58 11.00
   12:05:45.200.25-Aug-2020 146.20  174.67 4311.51 2042.13 71.58 11.00
   12:05:45.400.25-Aug-2020 146.40  174.71 4311.51 2042.13 71.58 11.00
   12:05:45.600.25-Aug-2020 146.60  174.77 4311.51 2042.13 71.58 11.00
   12:05:45.800.25-Aug-2020 146.80  174.82 4311.51 2042.13 71.58 11.00
   12:05:46.000.25-Aug-2020 147.00  174.86 4311.51 2042.13 71.58 11.00
   12:05:46.200.25-Aug-2020 147.20  174.91 4311.51 2042.13 71.58 11.00
   12:05:46.400.25-Aug-2020 147.40  174.94 4311.51 2042.13 71.58 11.00
   12:05:46.600.25-Aug-2020 147.60  175.04 4311.51 2042.13 71.58 11.00
   12:05:46.800.25-Aug-2020 147.80  175.09 4311.51 2042.13 71.58 11.00
   12:05:47.000.25-Aug-2020 148.00  175.14 4311.51 2042.13 71.58 11.00
   12:05:47.200.25-Aug-2020 148.20  175.14 4311.51 2042.13 71.58 11.00
   12:05:47.400.25-Aug-2020 148.40  175.25 4311.51 2042.13 71.58 11.00
   12:05:47.600.25-Aug-2020 148.60  175.25 4311.51 2042.13 71.59 11.00
   12:05:47.800.25-Aug-2020 148.80  175.39 4311.51 2042.13 71.59 11.00
   12:05:48.000.25-Aug-2020 149.00  175.43 4311.51 2042.13 71.59 11.00
   12:05:48.200.25-Aug-2020 149.20  175.48 4311.51 2042.13 71.59 11.00
   12:05:48.400.25-Aug-2020 149.40  175.54 4311.51 2042.13 71.59 11.00
   12:05:48.600.25-Aug-2020 149.60  175.59 4311.51 2042.13 71.59 11.00
   12:05:48.800.25-Aug-2020 149.80  175.65 4311.51 2042.13 71.59 11.00
   12:05:49.000.25-Aug-2020 150.00  175.70 4311.51 2042.13 71.59 11.00
   12:05:49.200.25-Aug-2020 150.20  175.75 4311.51 2042.13 71.59 11.00
   12:05:49.400.25-Aug-2020 150.40  175.83 4311.51 2042.13 71.59 11.00
   12:05:49.600.25-Aug-2020 150.60  175.87 4311.51 2042.13 71.59 11.00
   12:05:49.800.25-Aug-2020 150.80  174.96 4311.51 2042.13 71.59 11.00
   12:05:50.000.25-Aug-2020 151.00  170.89 4311.51 2042.13 71.59 11.00
   12:05:50.200.25-Aug-2020 151.20  170.89 4311.51 2042.13 71.59 11.00
   12:05:50.400.25-Aug-2020 151.40  162.54 4311.51 2042.13 71.59 11.00
   12:05:50.600.25-Aug-2020 151.60  158.80 4311.51 2042.13 71.59 11.00
   12:05:50.800.25-Aug-2020 151.80  155.33 4311.51 2042.13 71.59 11.00
   12:05:51.000.25-Aug-2020 152.00  152.08 4311.51 2042.13 71.59 11.00
   12:05:51.200.25-Aug-2020 152.20  152.08 4311.51 2042.13 71.59 11.00
   12:05:51.400.25-Aug-2020 152.40  146.03 4311.51 2042.13 71.59 11.00
   12:05:51.600.25-Aug-2020 152.60  143.30 4311.51 2042.13 71.59 11.00
   12:05:51.800.25-Aug-2020 152.80  140.67 4311.51 2042.13 71.59 11.00
   12:05:52.000.25-Aug-2020 153.00  138.14 4311.51 2042.13 71.59 11.00
   12:05:52.200.25-Aug-2020 153.20  135.74 4311.51 2042.13 71.59 11.00
   12:05:52.400.25-Aug-2020 153.40  133.41 4311.51 2042.13 71.59 11.00
   12:05:52.600.25-Aug-2020 153.60  131.17 4311.51 2042.13 71.59 11.00
   12:05:52.800.25-Aug-2020 153.80  129.02 4311.51 2042.13 71.59 11.00
   12:05:53.000.25-Aug-2020 154.00  126.96 4311.51 2042.13 71.59 11.00
   12:05:53.200.25-Aug-2020 154.20  124.97 4311.51 2042.13 71.59 11.00
   12:05:53.400.25-Aug-2020 154.40  123.06 4311.51 2042.13 71.59 11.00
   12:05:53.600.25-Aug-2020 154.60  121.21 4311.51 2042.13 71.59 11.00
   12:05:53.800.25-Aug-2020 154.80  119.42 4311.51 2042.13 71.59 11.00
   12:05:54.000.25-Aug-2020 155.00  117.70 4311.51 2042.13 71.59 11.00
   12:05:54.200.25-Aug-2020 155.20  117.70 4311.51 2042.13 71.59 11.00
   12:05:54.400.25-Aug-2020 155.40  114.42 4311.51 2042.13 71.59 11.00
   12:05:54.600.25-Aug-2020 155.60  112.86 4311.51 2042.13 71.59 11.00
   12:05:54.800.25-Aug-2020 155.80  111.27 4311.51 2042.13 71.59 11.00
   12:05:55.000.25-Aug-2020 156.00  109.83 4311.51 2042.13 71.59 11.00
   12:05:55.200.25-Aug-2020 156.20  108.45 4311.51 2042.13 71.59 11.00
   12:05:55.400.25-Aug-2020 156.40  107.07 4311.51 2042.13 71.59 11.00
   12:05:55.600.25-Aug-2020 156.60  105.75 4311.51 2042.13 71.59 11.00
   12:05:55.800.25-Aug-2020 156.80  104.44 4311.51 2042.13 71.59 11.00
   12:05:56.000.25-Aug-2020 157.00  103.18 4311.51 2042.13 71.59 11.00
   12:05:56.200.25-Aug-2020 157.20  101.94 4311.51 2042.13 71.59 11.00
   12:05:56.400.25-Aug-2020 157.40  100.75 4311.51 2042.13 71.59 11.00
   12:05:56.600.25-Aug-2020 157.60   99.58 4311.51 2042.13 71.59 11.00
   12:05:56.800.25-Aug-2020 157.80   98.45 4311.51 2042.13 71.59 11.00
   12:05:57.000.25-Aug-2020 158.00   97.34 4311.51 2042.13 71.59 11.00
