~Version Information
 VERS.                  2.0:   CWLS log ASCII Standard -VERSION 2.0
 WRAP.                   NO:   One line per depth step
~Well Information Block
#MNEM.UNIT     VALUE/NAME     DESCRIPTION
#---------     -----------    ---------------------------
 STRT.S             12:03:19 25-Aug-20: START TIME 12:03:19 25-Aug-20
 STOP.S             12:10:17 25-Aug-20: STOP TIME  12:10:17 25-Aug-20
 STEP.S                   0.00: STEP TIME
 NULL.                 -999.25: NULL VALUE
 DFWT.                        :  DIST FWL TEXT
 DFST.                        :  DIST FSL TEXT
 DMF .             Drill Floor:  DRILL MEAS FROM
 STIM.      09.59.28 01-Jun-20:  START TIME
 DATE.      05.00.00 28-Aug-20:  END TIME
 SPUD.               01-Jun-20:  SPUD DATE
 NREF.                    Grid:  NORTH REFERENCE
 HPTY.       Minimum Curvature:  HOLE POS TYPE
 DMOD.             Drill Model:  DRILL MOD DESC
 SVYD.                  Survey:  SURVEY DESC
 ILTD.               Lithology:  INTERP LTH DESC
 FTOP.          Formation Tops:  FORM TOPS DESC
 SON .        AZ-XX-0905455768:  JOB NUMBER
 WTYP.                Deviated:  WELL TYPE
 COMP.     BP Exploration(Caspian Sea):  COMPANY
 BASE.              Azerbaijan:  LOGGING EQUIPMENT BASE LOCATION
 REGN.                   EESSA:  REGION
 CTRY.              Azerbaijan:  COUNTRY NAME
 FLD .                     ACG:  FIELD NAME
 SRVC.          Turan Drilling:  CONTRACTOR
 WELL.                     B41:  WELL NAME
 RIG .           Central Azeri:  RIG NAME
 DCON.         Sperry Drilling:  DIRECTNL CONTR
 PDAT.          Mean Sea Level:  PERMANENT DATUM
 MDS .        Operator Entered:  MAG DATA SOURCE
 API .                        :  API NUMBER
 CNTY.                        :  COUNTY
 PROV.                        :  PROVINCE
 STAT.                        :  STATE
 UWI .                        :  UNIQUE WELL IDENTIFIER
 LOC .                        :  LOCATION
 LMF .             Drill Floor:  LOG MEASURED FROM
 TVDS.m                  43.29:  TVDSS CORRECTN
 LATI.deg                40.03:  LATITUDE
 LONG.deg                51.35:  LONGITUDE
 WHNS.m                  12.98:  WELL HEAD N/S
 WHEW.m                  -6.62:  WELL HEAD E/W
 UTMX.m              530128.28:  UTM X
 UTMY.m             4433192.49:  UTM Y
 DFWL.m                   0.00:  DISTANCE FWL
 DFSL.m                   0.00:  DISTANCE FSL
 SDEP.m                 378.00:  START DEPTH
 TDD .m                4463.01:  TOTAL DEPTH (DRILLER)
 VSDR.deg               296.18:  VERT SEC DIRECT
 GVFD.g                   1.00:  GRAVITY FIELD
 MFLD.nT              50269.00:  MAGNETIC FIELD
 MDIP.deg                59.50:  MAGNETIC DIP
 MDEC.deg                 6.44:  MAGNETIC DECL
 GRDC.deg                 0.20:  GRID CORRECTION
 AZTC.deg                 6.24:  AZM TOTAL CORR
 EPD .m                   0.00:  ELEVATION
 EGL .m                   0.00:  GROUND ELEVATION
 WDMS.m                 128.20:  WD ELEV
 APD .m                  43.29:  DEPTH ABOVE PD
 AGAP.m                  43.29:  AIR GAP
 VSEW.m                  -6.62:  VERT SEC E/W
 VSNS.m                  12.98:  VERT SEC N/S
 EKB .m                  43.29:  KB ELEVATION
 EDF .m                  43.29:  DF ELEVATION
 TDL .m                 147.00:  TOTAL DEPTH (LOGGER)
 VSC .                       0:  VS TO CLOSURE
 MAGU.                 1849241:  MAGUTM CHECKSUM
~Parameter Information Block
#MNEM.UNIT       Value        Description
#---------     -----------    ---------------------------
 AV  .mps                 0.70:  Ann Velocity 
 AZIF.deg               269.43:  Azm, Final 
 BHAT.        Rotary Steerable:  BHA Type 
 BROT.°/30m              -0.03:  Build Rotating 
 BS  .in                  8.50:  Bit Size 
 BSZ .in                  8.50:  Bit Size 
 BTPL.psig              880.00:  Bit Press Loss 
 CABU.                      No:  Customer Abuse 
 CGEO.          Parviz Guliyev:  Customer Geo 
 COMM.                     DVX:  Run Comments 1 
 TCS .hr                 64.59:  Time Ciculation Ended 
 CV  .mps                 2.17:  Crit Velocity 
 DD1 .            Nonso Okafor:  Direct Drillr 1 
 DDSV.               Geo-Pilot:  DD Service 
 DEFF.%                  98.00:  % Det Eff 
 DLRX.°/30m               0.81:  Dogleg Rot Max 
 DLSO.°/30m               0.55:  Dogleg Oriented 
 DLSX.°/30m               0.81:  Dogleg Str Max 
 DRET.      23.50.00 24-Aug-20:  Drill End Time 
 DRST.      07.34.24 22-Aug-20:  Drill Start Tim 
 DTIM.hr                 15.29:  Time Drilling 
 EDEP.m                4461.01:  End Depth 
 ENG1.       Zam Abdullah Sani:  Engineer 1 
 ENG2.         Dair Mahammadov:  Engineer 2 
 ENG3.          Rustam Gadirov:  Engineer 3 
 ETIM.      07.34.24 26-Aug-20:  End Time 
 FLOI.gpm               550.00:  Flow In 
 FLON.gpm               400.00:  Flow In Min 
 FLOS.cptm                1.00:  Fluid Loss 
 FLOX.gpm               600.00:  Flow In Max 
 FTRO.       Formation Presure:  FTWD Run Obj 
 HFLO.                      No:  High Flow 
 HPRE.                      No:  High Pressure 
 HTEM.                      No:  High Temp 
 HYDO.m                   1.80:  Hydro Offset 
 IFIN.deg                66.72:  Inc, Final 
 IMAX.deg                67.42:  Inc Max 
 IMIN.deg                66.72:  Inc Min 
 IMND.m                4408.37:  Inc Min Depth 
 IMXD.m                4323.37:  Inc Max Depth 
 JARR.                      No:  Jarring 
 LETM.      23.50.00 24-Aug-20:  Log End Time 
 LOST.hr                     0:  Lost Rig Time 
 LSTM.      07.34.24 22-Aug-20:  Log Start Time 
 MDCL.ppm             38000.00:  Mud Chlorides 
 MDES.     Inversion Oil/Synthetic:  Mud Desc 
 DFD .sg                  1.40:  Mud Density 
 MDMN.sg                  1.38:  Dens Mud Min 
 MDMX.sg                  1.41:  Dens Mud Max 
 MOIL.                    70.5:  Run Mud Oil % 
 MOWR.                   68:32:  Run Mud OWR 
 MSND.                    0.01:  Run Mud Sand % 
 MSOL.                   17.68:  Run Mud Solids% 
 DFV .spqt               77.00:  Mud Viscosity 
 MWOD.in                  6.75:  MWD Tool OD 
 MWSI.                      No:  Serv Intrp, MWD 
 OTIM.hr                159.42:  Time Operating 
 PCON.           Look Like New:  Pad Condition 
 PMAX.psia             8730.94:  Press Op, Max 
 PV  .cP                 31.00:  Mud PV 
 RUN .                     900:  Run Number 
 ROPA.m/hr               12.00:  ROP Avg 
 ROPN.m/hr                7.00:  ROP Min 
 ROPX.m/hr               17.00:  ROP Max 
 RPMA.rpm               120.00:  RPM Surface Avg 
 RPMN.rpm                60.00:  RPM Surface Min 
 RPMX.rpm               140.00:  RPM Surface Max 
 RRUN.                    L604:  Rig Run Number 
 RTIM.hr                 10.00:  Time Reaming 
 SAZI.deg               270.56:  Azm, Start 
 SDEP.m                4314.01:  Start Depth 
 SIDD.                      No:  Serv Intrp, DD 
 SINC.deg                67.42:  Inc, Start 
 SPPA.psig             3300.00:  SPP Avg 
 SPPN.psig             1750.00:  SPP Min 
 SPPX.psig             4630.00:  SPP Max 
 STIM.      11.00.00 21-Aug-20:  Start Time 
 SVCS.                 DD, MWD:  Services 
 SVER.                    9.20:  Sperry Version 
 TDAT.m                4461.01:  Tot Depth Attmp 
 TDDF.                      No:  Trip for DD 
 TDLG.m                 147.00:  Tot Depth Loggd 
 TFF .                      No:  Trip for Fail 
 TQAA.f-kp               16.00:  Torque Abs Avg 
 TQAN.f-kp               14.00:  Torque Abs Min 
 TQAX.f-kp               20.00:  Torque Abs Max 
 TRRT.°/30m              -0.14:  Turn Rotating 
 MRT .                    HCIM:  Maximum Recorded Temperature 
 TTMX.degC               78.00:  Max Tool Temp 
 VS01.                90515425:  Virtual Str1 SN 
 VS02.                90545184:  Virtual Str2 SN 
 VS03.                90527809:  Virtual Str3 SN 
 VS04.                90515232:  Virtual Str4 SN 
 VS05.                90621207:  Virtual Str5 SN 
 VS06.                90619737:  Virtual Str6 SN 
 WBMN.klb                 2.00:  WOB Min 
 WITN.          Keith Dischler:  Customer Rep 
 WITN.           Faig Mammadov:  Customer Rep 2 
 WOBA.klb                 5.00:  WOB Avg 
 WOBX.klb                 8.00:  WOB Max 
 YP  .lhf2               32.00:  Yield Point 
~Curve Information Block
#MNEM.UNIT                 API CODE     Curve Description
#---------               -----------    ---------------------------
 TIME.HHMMSS            00 000 000 000:  GT Time & Date
 GTET.sec               00 000 000 000:  GT Elapsed Test Time
 GTPQH.psia             00 000 000 000:  GT HR Quartz Pressure
 GTDEPTH.m              00 000 000 000:  GT Depth
 GTTVD.m                00 000 000 000:  GT True Vertical Depth
 GTTQ.degC              00 000 000 000:  GT Quartz Temperature
 GTTN.NONE              00 000 000 000:  GT Test Number
#Other Information
#
#WARRANTY: Halliburton will use its best efforts to furnish customers with 
#accurate information and interpretations that are part of, and incident to, the services 
#provided.  However, Halliburton cannot and does not warrant the accuracy 
#or correctness of such information and interpretations.  Under no circumstances should any 
#such information or interpretation be relied upon as the sole basis for any drilling, 
#completion, production, or financial decision or any procedure involving any risk to the 
#safety of any drilling venture, drilling rig or its crew or any other third party.  The 
#Customer has full responsibility for all drilling, completion and production operation.  
#Halliburton makes no representations or warranties, either expressed or 
#implied, including, but not limited to, the implied warranties of merchantability or fitness 
#for a particular purpose, with respect to the services rendered.  In no event will 
#Halliburton be liable for failure to obtain any particular results or for 
#any damages, including, but not limited to, indirect, special or consequential damages, 
#resulting from the use of any information or interpretation provided by Halliburton.
#
~A           TIME            GTET   GTPQH  GTDEPTH  GTTVD  GTTQ  GTTN  
# ...
   12:08:12.800.25-Aug-2020 293.80   64.38 4311.51 2042.13 71.62 11.00
   12:08:13.000.25-Aug-2020 294.00   64.38 4311.51 2042.13 71.62 11.00
   12:08:13.200.25-Aug-2020 294.20   64.40 4311.51 2042.13 71.62 11.00
   12:08:13.400.25-Aug-2020 294.40   64.35 4311.51 2042.13 71.62 11.00
   12:08:13.600.25-Aug-2020 294.60   64.41 4311.51 2042.13 71.62 11.00
   12:08:13.800.25-Aug-2020 294.80   64.42 4311.51 2042.13 71.62 11.00
   12:08:14.000.25-Aug-2020 295.00   64.42 4311.51 2042.13 71.62 11.00
   12:08:14.200.25-Aug-2020 295.20   64.42 4311.51 2042.13 71.62 11.00
   12:08:14.400.25-Aug-2020 295.40   64.43 4311.51 2042.13 71.62 11.00
   12:08:14.600.25-Aug-2020 295.60   64.45 4311.51 2042.13 71.62 11.00
   12:08:14.800.25-Aug-2020 295.80   64.46 4311.51 2042.13 71.62 11.00
   12:08:15.000.25-Aug-2020 296.00   64.47 4311.51 2042.13 71.62 11.00
   12:08:15.200.25-Aug-2020 296.20   64.47 4311.51 2042.13 71.62 11.00
   12:08:15.400.25-Aug-2020 296.40   64.48 4311.51 2042.13 71.62 11.00
   12:08:15.600.25-Aug-2020 296.60   64.49 4311.51 2042.13 71.62 11.00
   12:08:15.800.25-Aug-2020 296.80   64.50 4311.51 2042.13 71.62 11.00
   12:08:16.000.25-Aug-2020 297.00   64.50 4311.51 2042.13 71.62 11.00
   12:08:16.200.25-Aug-2020 297.20   64.51 4311.51 2042.13 71.62 11.00
   12:08:16.400.25-Aug-2020 297.40   64.52 4311.51 2042.13 71.62 11.00
   12:08:16.600.25-Aug-2020 297.60   64.47 4311.51 2042.13 71.62 11.00
   12:08:16.800.25-Aug-2020 297.80   64.53 4311.51 2042.13 71.62 11.00
   12:08:17.000.25-Aug-2020 298.00   64.55 4311.51 2042.13 71.62 11.00
   12:08:17.200.25-Aug-2020 298.20   64.54 4311.51 2042.13 71.62 11.00
   12:08:17.400.25-Aug-2020 298.40   64.56 4311.51 2042.13 71.62 11.00
   12:08:17.600.25-Aug-2020 298.60   64.56 4311.51 2042.13 71.62 11.00
   12:08:17.800.25-Aug-2020 298.80   64.53 4311.51 2042.13 71.62 11.00
   12:08:18.000.25-Aug-2020 299.00   64.56 4311.51 2042.13 71.62 11.00
   12:08:18.200.25-Aug-2020 299.20   64.56 4311.51 2042.13 71.62 11.00
   12:08:18.400.25-Aug-2020 299.40   64.59 4311.51 2042.13 71.62 11.00
   12:08:18.600.25-Aug-2020 299.60   64.56 4311.51 2042.13 71.62 11.00
   12:08:18.800.25-Aug-2020 299.80   64.60 4311.51 2042.13 71.62 11.00
   12:08:19.000.25-Aug-2020 300.00   64.61 4311.51 2042.13 71.62 11.00
   12:08:19.200.25-Aug-2020 300.20   64.61 4311.51 2042.13 71.62 11.00
   12:08:19.400.25-Aug-2020 300.40   64.64 4311.51 2042.13 71.62 11.00
   12:08:19.600.25-Aug-2020 300.60   64.64 4311.51 2042.13 71.62 11.00
   12:08:19.800.25-Aug-2020 300.80   64.61 4311.51 2042.13 71.62 11.00
   12:08:20.000.25-Aug-2020 301.00   64.64 4311.51 2042.13 71.62 11.00
   12:08:20.200.25-Aug-2020 301.20   64.65 4311.51 2042.13 71.62 11.00
   12:08:20.400.25-Aug-2020 301.40   64.67 4311.51 2042.13 71.62 11.00
   12:08:20.600.25-Aug-2020 301.60   64.67 4311.51 2042.13 71.62 11.00
   12:08:20.800.25-Aug-2020 301.80   64.68 4311.51 2042.13 71.62 11.00
   12:08:21.000.25-Aug-2020 302.00   64.65 4311.51 2042.13 71.62 11.00
   12:08:21.200.25-Aug-2020 302.20   64.65 4311.51 2042.13 71.62 11.00
   12:08:21.400.25-Aug-2020 302.40   64.70 4311.51 2042.13 71.62 11.00
   12:08:21.600.25-Aug-2020 302.60   64.71 4311.51 2042.13 71.62 11.00
   12:08:21.800.25-Aug-2020 302.80   64.71 4311.51 2042.13 71.62 11.00
   12:08:22.000.25-Aug-2020 303.00   64.72 4311.51 2042.13 71.62 11.00
   12:08:22.200.25-Aug-2020 303.20   64.72 4311.51 2042.13 71.62 11.00
   12:08:22.400.25-Aug-2020 303.40   64.73 4311.51 2042.13 71.62 11.00
   12:08:22.600.25-Aug-2020 303.60   64.74 4311.51 2042.13 71.62 11.00
   12:08:22.800.25-Aug-2020 303.80   64.74 4311.51 2042.13 71.62 11.00
   12:08:23.000.25-Aug-2020 304.00   64.75 4311.51 2042.13 71.62 11.00
   12:08:23.200.25-Aug-2020 304.20   64.76 4311.51 2042.13 71.62 11.00
   12:08:23.400.25-Aug-2020 304.40   64.76 4311.51 2042.13 71.62 11.00
   12:08:23.600.25-Aug-2020 304.60   64.77 4311.51 2042.13 71.62 11.00
   12:08:23.800.25-Aug-2020 304.80   64.77 4311.51 2042.13 71.62 11.00
   12:08:24.000.25-Aug-2020 305.00   64.78 4311.51 2042.13 71.62 11.00
   12:08:24.200.25-Aug-2020 305.20   64.79 4311.51 2042.13 71.62 11.00
   12:08:24.400.25-Aug-2020 305.40   64.79 4311.51 2042.13 71.62 11.00
   12:08:24.600.25-Aug-2020 305.60   64.75 4311.51 2042.13 71.62 11.00
   12:08:24.800.25-Aug-2020 305.80   64.79 4311.51 2042.13 71.62 11.00
   12:08:25.000.25-Aug-2020 306.00   64.83 4311.51 2042.13 71.62 11.00
   12:08:25.200.25-Aug-2020 306.20   64.83 4311.51 2042.13 71.62 11.00
   12:08:25.400.25-Aug-2020 306.40   64.83 4311.51 2042.13 71.62 11.00
   12:08:25.600.25-Aug-2020 306.60   64.84 4311.51 2042.13 71.62 11.00
   12:08:25.800.25-Aug-2020 306.80   64.84 4311.51 2042.13 71.62 11.00
   12:08:26.000.25-Aug-2020 307.00   64.85 4311.51 2042.13 71.62 11.00
   12:08:26.200.25-Aug-2020 307.20   64.85 4311.51 2042.13 71.62 11.00
   12:08:26.400.25-Aug-2020 307.40   64.86 4311.51 2042.13 71.62 11.00
   12:08:26.600.25-Aug-2020 307.60   64.86 4311.51 2042.13 71.62 11.00
   12:08:26.800.25-Aug-2020 307.80   64.87 4311.51 2042.13 71.62 11.00
   12:08:27.000.25-Aug-2020 308.00   64.87 4311.51 2042.13 71.62 11.00
   12:08:27.200.25-Aug-2020 308.20   64.89 4311.51 2042.13 71.62 11.00
   12:08:27.400.25-Aug-2020 308.40   64.88 4311.51 2042.13 71.62 11.00
   12:08:27.600.25-Aug-2020 308.60   64.89 4311.51 2042.13 71.62 11.00
   12:08:27.800.25-Aug-2020 308.80   64.85 4311.51 2042.13 71.62 11.00
   12:08:28.000.25-Aug-2020 309.00   64.88 4311.51 2042.13 71.62 11.00
   12:08:28.200.25-Aug-2020 309.20   64.90 4311.51 2042.13 71.62 11.00
   12:08:28.400.25-Aug-2020 309.40   64.91 4311.51 2042.13 71.62 11.00
   12:08:28.600.25-Aug-2020 309.60   64.92 4311.51 2042.13 71.62 11.00
   12:08:28.800.25-Aug-2020 309.80   64.89 4311.51 2042.13 71.62 11.00
   12:08:29.000.25-Aug-2020 310.00   64.91 4311.51 2042.13 71.62 11.00
   12:08:29.200.25-Aug-2020 310.20   64.93 4311.51 2042.13 71.62 11.00
   12:08:29.400.25-Aug-2020 310.40   64.93 4311.51 2042.13 71.62 11.00
   12:08:29.600.25-Aug-2020 310.60   64.91 4311.51 2042.13 71.62 11.00
   12:08:29.800.25-Aug-2020 310.80   64.94 4311.51 2042.13 71.62 11.00
   12:08:30.000.25-Aug-2020 311.00   64.95 4311.51 2042.13 71.62 11.00
   12:08:30.200.25-Aug-2020 311.20   64.95 4311.51 2042.13 71.62 11.00
   12:08:30.400.25-Aug-2020 311.40   64.97 4311.51 2042.13 71.62 11.00
   12:08:30.600.25-Aug-2020 311.60   64.97 4311.51 2042.13 71.62 11.00
   12:08:30.800.25-Aug-2020 311.80   64.95 4311.51 2042.13 71.62 11.00
   12:08:31.000.25-Aug-2020 312.00   64.97 4311.51 2042.13 71.62 11.00
   12:08:31.200.25-Aug-2020 312.20   64.97 4311.51 2042.13 71.62 11.00
   12:08:31.400.25-Aug-2020 312.40   64.99 4311.51 2042.13 71.62 11.00
   12:08:31.600.25-Aug-2020 312.60   65.01 4311.51 2042.13 71.62 11.00
   12:08:31.800.25-Aug-2020 312.80   65.01 4311.51 2042.13 71.62 11.00
   12:08:32.000.25-Aug-2020 313.00   64.98 4311.51 2042.13 71.62 11.00
   12:08:32.200.25-Aug-2020 313.20   65.00 4311.51 2042.13 71.62 11.00
   12:08:32.400.25-Aug-2020 313.40   65.01 4311.51 2042.13 71.62 11.00
   12:08:32.600.25-Aug-2020 313.60   65.02 4311.51 2042.13 71.62 11.00
   12:08:32.800.25-Aug-2020 313.80   65.03 4311.51 2042.13 71.62 11.00
   12:08:33.000.25-Aug-2020 314.00   65.04 4311.51 2042.13 71.62 11.00
   12:08:33.200.25-Aug-2020 314.20   65.04 4311.51 2042.13 71.62 11.00
   12:08:33.400.25-Aug-2020 314.40   65.05 4311.51 2042.13 71.62 11.00
   12:08:33.600.25-Aug-2020 314.60   65.06 4311.51 2042.13 71.62 11.00
   12:08:33.800.25-Aug-2020 314.80   65.06 4311.51 2042.13 71.62 11.00
   12:08:34.000.25-Aug-2020 315.00   65.07 4311.51 2042.13 71.62 11.00
   12:08:34.200.25-Aug-2020 315.20   65.07 4311.51 2042.13 71.62 11.00
   12:08:34.400.25-Aug-2020 315.40   65.08 4311.51 2042.13 71.62 11.00
   12:08:34.600.25-Aug-2020 315.60   65.09 4311.51 2042.13 71.62 11.00
   12:08:34.800.25-Aug-2020 315.80   65.09 4311.51 2042.13 71.62 11.00
   12:08:35.000.25-Aug-2020 316.00   65.09 4311.51 2042.13 71.62 11.00
   12:08:35.200.25-Aug-2020 316.20   65.09 4311.51 2042.13 71.62 11.00
