~Version Information
 VERS.                  2.0:   CWLS log ASCII Standard -VERSION 2.0
 WRAP.                   NO:   One line per depth step
~Well Information Block
#MNEM.UNIT     VALUE/NAME     DESCRIPTION
#---------     -----------    ---------------------------
 STRT.S             05:42:16 25-Aug-20: START TIME 05:42:16 25-Aug-20
 STOP.S             05:49:10 25-Aug-20: STOP TIME  05:49:10 25-Aug-20
 STEP.S                   0.00: STEP TIME
 NULL.                 -999.25: NULL VALUE
 DFWT.                        :  DIST FWL TEXT
 DFST.                        :  DIST FSL TEXT
 DMF .             Drill Floor:  DRILL MEAS FROM
 STIM.      09.59.28 01-Jun-20:  START TIME
 DATE.      05.00.00 28-Aug-20:  END TIME
 SPUD.               01-Jun-20:  SPUD DATE
 NREF.                    Grid:  NORTH REFERENCE
 HPTY.       Minimum Curvature:  HOLE POS TYPE
 DMOD.             Drill Model:  DRILL MOD DESC
 SVYD.                  Survey:  SURVEY DESC
 ILTD.               Lithology:  INTERP LTH DESC
 FTOP.          Formation Tops:  FORM TOPS DESC
 SON .        AZ-XX-0905455768:  JOB NUMBER
 WTYP.                Deviated:  WELL TYPE
 COMP.     BP Exploration(Caspian Sea):  COMPANY
 BASE.              Azerbaijan:  LOGGING EQUIPMENT BASE LOCATION
 REGN.                   EESSA:  REGION
 CTRY.              Azerbaijan:  COUNTRY NAME
 FLD .                     ACG:  FIELD NAME
 SRVC.          Turan Drilling:  CONTRACTOR
 WELL.                     B41:  WELL NAME
 RIG .           Central Azeri:  RIG NAME
 DCON.         Sperry Drilling:  DIRECTNL CONTR
 PDAT.          Mean Sea Level:  PERMANENT DATUM
 MDS .        Operator Entered:  MAG DATA SOURCE
 API .                        :  API NUMBER
 CNTY.                        :  COUNTY
 PROV.                        :  PROVINCE
 STAT.                        :  STATE
 UWI .                        :  UNIQUE WELL IDENTIFIER
 LOC .                        :  LOCATION
 LMF .             Drill Floor:  LOG MEASURED FROM
 TVDS.m                  43.29:  TVDSS CORRECTN
 LATI.deg                40.03:  LATITUDE
 LONG.deg                51.35:  LONGITUDE
 WHNS.m                  12.98:  WELL HEAD N/S
 WHEW.m                  -6.62:  WELL HEAD E/W
 UTMX.m              530128.28:  UTM X
 UTMY.m             4433192.49:  UTM Y
 DFWL.m                   0.00:  DISTANCE FWL
 DFSL.m                   0.00:  DISTANCE FSL
 SDEP.m                 378.00:  START DEPTH
 TDD .m                4463.01:  TOTAL DEPTH (DRILLER)
 VSDR.deg               296.18:  VERT SEC DIRECT
 GVFD.g                   1.00:  GRAVITY FIELD
 MFLD.nT              50269.00:  MAGNETIC FIELD
 MDIP.deg                59.50:  MAGNETIC DIP
 MDEC.deg                 6.44:  MAGNETIC DECL
 GRDC.deg                 0.20:  GRID CORRECTION
 AZTC.deg                 6.24:  AZM TOTAL CORR
 EPD .m                   0.00:  ELEVATION
 EGL .m                   0.00:  GROUND ELEVATION
 WDMS.m                 128.20:  WD ELEV
 APD .m                  43.29:  DEPTH ABOVE PD
 AGAP.m                  43.29:  AIR GAP
 VSEW.m                  -6.62:  VERT SEC E/W
 VSNS.m                  12.98:  VERT SEC N/S
 EKB .m                  43.29:  KB ELEVATION
 EDF .m                  43.29:  DF ELEVATION
 TDL .m                 147.00:  TOTAL DEPTH (LOGGER)
 VSC .                       0:  VS TO CLOSURE
 MAGU.                 1849241:  MAGUTM CHECKSUM
~Parameter Information Block
#MNEM.UNIT       Value        Description
#---------     -----------    ---------------------------
 AV  .mps                 0.70:  Ann Velocity 
 AZIF.deg               269.43:  Azm, Final 
 BHAT.        Rotary Steerable:  BHA Type 
 BROT.°/30m              -0.03:  Build Rotating 
 BS  .in                  8.50:  Bit Size 
 BSZ .in                  8.50:  Bit Size 
 BTPL.psig              880.00:  Bit Press Loss 
 CABU.                      No:  Customer Abuse 
 CGEO.          Parviz Guliyev:  Customer Geo 
 TCS .hr                 64.59:  Time Ciculation Ended 
 CV  .mps                 2.17:  Crit Velocity 
 DD1 .            Nonso Okafor:  Direct Drillr 1 
 DDSV.               Geo-Pilot:  DD Service 
 DEFF.%                  98.00:  % Det Eff 
 DLRX.°/30m               0.81:  Dogleg Rot Max 
 DLSO.°/30m               0.55:  Dogleg Oriented 
 DLSX.°/30m               0.81:  Dogleg Str Max 
 DRET.      23.50.00 24-Aug-20:  Drill End Time 
 DRST.      07.34.24 22-Aug-20:  Drill Start Tim 
 DTIM.hr                 15.29:  Time Drilling 
 EDEP.m                4461.01:  End Depth 
 ENG1.       Zam Abdullah Sani:  Engineer 1 
 ENG2.         Dair Mahammadov:  Engineer 2 
 ENG3.          Rustam Gadirov:  Engineer 3 
 ETIM.      07.34.24 26-Aug-20:  End Time 
 FLOI.gpm               550.00:  Flow In 
 FLON.gpm               400.00:  Flow In Min 
 FLOS.cptm                1.00:  Fluid Loss 
 FLOX.gpm               600.00:  Flow In Max 
 FTRO.       Formation Presure:  FTWD Run Obj 
 HFLO.                      No:  High Flow 
 HPRE.                      No:  High Pressure 
 HTEM.                      No:  High Temp 
 HYDO.m                   1.80:  Hydro Offset 
 IFIN.deg                66.72:  Inc, Final 
 IMAX.deg                67.42:  Inc Max 
 IMIN.deg                66.72:  Inc Min 
 IMND.m                4408.37:  Inc Min Depth 
 IMXD.m                4323.37:  Inc Max Depth 
 JARR.                      No:  Jarring 
 LETM.      23.50.00 24-Aug-20:  Log End Time 
 LOST.hr                     0:  Lost Rig Time 
 LSTM.      07.34.24 22-Aug-20:  Log Start Time 
 MDCL.ppm             38000.00:  Mud Chlorides 
 MDES.     Inversion Oil/Synthetic:  Mud Desc 
 DFD .sg                  1.40:  Mud Density 
 MDMN.sg                  1.38:  Dens Mud Min 
 MDMX.sg                  1.41:  Dens Mud Max 
 MOIL.                    70.5:  Run Mud Oil % 
 MOWR.                   68:32:  Run Mud OWR 
 MSND.                    0.01:  Run Mud Sand % 
 MSOL.                   17.68:  Run Mud Solids% 
 DFV .spqt               77.00:  Mud Viscosity 
 MWOD.in                  6.75:  MWD Tool OD 
 MWSI.                      No:  Serv Intrp, MWD 
 OTIM.hr                159.42:  Time Operating 
 PCON.           Look Like New:  Pad Condition 
 PMAX.psia             8730.94:  Press Op, Max 
 PV  .cP                 31.00:  Mud PV 
 RUN .                     900:  Run Number 
 ROPA.m/hr               12.00:  ROP Avg 
 ROPN.m/hr                7.00:  ROP Min 
 ROPX.m/hr               17.00:  ROP Max 
 RPMA.rpm               120.00:  RPM Surface Avg 
 RPMN.rpm                60.00:  RPM Surface Min 
 RPMX.rpm               140.00:  RPM Surface Max 
 RRUN.                    L604:  Rig Run Number 
 RTIM.hr                 10.00:  Time Reaming 
 SAZI.deg               270.56:  Azm, Start 
 SDEP.m                4314.01:  Start Depth 
 SIDD.                      No:  Serv Intrp, DD 
 SINC.deg                67.42:  Inc, Start 
 SPPA.psig             3300.00:  SPP Avg 
 SPPN.psig             1750.00:  SPP Min 
 SPPX.psig             4630.00:  SPP Max 
 STIM.      11.00.00 21-Aug-20:  Start Time 
 SVCS.                 DD, MWD:  Services 
 SVER.                    9.20:  Sperry Version 
 TDAT.m                4461.01:  Tot Depth Attmp 
 TDDF.                      No:  Trip for DD 
 TDLG.m                 147.00:  Tot Depth Loggd 
 TFF .                      No:  Trip for Fail 
 TQAA.f-kp               16.00:  Torque Abs Avg 
 TQAN.f-kp               14.00:  Torque Abs Min 
 TQAX.f-kp               20.00:  Torque Abs Max 
 TRRT.°/30m              -0.14:  Turn Rotating 
 MRT .                    HCIM:  Maximum Recorded Temperature 
 TTMX.degC               78.00:  Max Tool Temp 
 VS01.                90515425:  Virtual Str1 SN 
 VS02.                90545184:  Virtual Str2 SN 
 VS03.                90527809:  Virtual Str3 SN 
 VS04.                90515232:  Virtual Str4 SN 
 VS05.                90621207:  Virtual Str5 SN 
 VS06.                90619737:  Virtual Str6 SN 
 WBMN.klb                 2.00:  WOB Min 
 WITN.          Keith Dischler:  Customer Rep 
 WITN.           Faig Mammadov:  Customer Rep 2 
 WOBA.klb                 5.00:  WOB Avg 
 WOBX.klb                 8.00:  WOB Max 
 YP  .lhf2               32.00:  Yield Point 
~Curve Information Block
#MNEM.UNIT                 API CODE     Curve Description
#---------               -----------    ---------------------------
 TIME.HHMMSS            00 000 000 000:  GT Time & Date
 GTET.sec               00 000 000 000:  GT Elapsed Test Time
 GTPQH.psia             00 000 000 000:  GT HR Quartz Pressure
 GTDEPTH.m              00 000 000 000:  GT Depth
 GTTVD.m                00 000 000 000:  GT True Vertical Depth
 GTTQ.degC              00 000 000 000:  GT Quartz Temperature
 GTTN.NONE              00 000 000 000:  GT Test Number
#Other Information
#
#WARRANTY: Halliburton will use its best efforts to furnish customers with 
#accurate information and interpretations that are part of, and incident to, the services 
#provided.  However, Halliburton cannot and does not warrant the accuracy 
#or correctness of such information and interpretations.  Under no circumstances should any 
#such information or interpretation be relied upon as the sole basis for any drilling, 
#completion, production, or financial decision or any procedure involving any risk to the 
#safety of any drilling venture, drilling rig or its crew or any other third party.  The 
#Customer has full responsibility for all drilling, completion and production operation.  
#Halliburton makes no representations or warranties, either expressed or 
#implied, including, but not limited to, the implied warranties of merchantability or fitness 
#for a particular purpose, with respect to the services rendered.  In no event will 
#Halliburton be liable for failure to obtain any particular results or for 
#any damages, including, but not limited to, indirect, special or consequential damages, 
#resulting from the use of any information or interpretation provided by Halliburton.
#
~A           TIME            GTET   GTPQH  GTDEPTH  GTTVD  GTTQ  GTTN 
# ...
   05:48:01.000.25-Aug-2020 345.00 3465.72 4418.01 2083.88 73.65 1.00
   05:48:01.200.25-Aug-2020 345.20 3465.87 4418.01 2083.88 73.65 1.00
   05:48:01.400.25-Aug-2020 345.40 3465.71 4418.01 2083.88 73.65 1.00
   05:48:01.600.25-Aug-2020 345.60 3465.80 4418.01 2083.88 73.65 1.00
   05:48:01.800.25-Aug-2020 345.80 3465.77 4418.01 2083.88 73.65 1.00
   05:48:02.000.25-Aug-2020 346.00 3465.79 4418.01 2083.88 73.65 1.00
   05:48:02.200.25-Aug-2020 346.20 3465.79 4418.01 2083.88 73.65 1.00
   05:48:02.400.25-Aug-2020 346.40 3465.80 4418.01 2083.88 73.65 1.00
   05:48:02.600.25-Aug-2020 346.60 3465.77 4418.01 2083.88 73.65 1.00
   05:48:02.800.25-Aug-2020 346.80 3465.77 4418.01 2083.88 73.65 1.00
   05:48:03.000.25-Aug-2020 347.00 3465.77 4418.01 2083.88 73.65 1.00
   05:48:03.200.25-Aug-2020 347.20 3465.77 4418.01 2083.88 73.65 1.00
   05:48:03.400.25-Aug-2020 347.40 3465.78 4418.01 2083.88 73.65 1.00
   05:48:03.600.25-Aug-2020 347.60 3465.78 4418.01 2083.88 73.65 1.00
   05:48:03.800.25-Aug-2020 347.80 3465.77 4418.01 2083.88 73.65 1.00
   05:48:04.000.25-Aug-2020 348.00 3465.78 4418.01 2083.88 73.65 1.00
   05:48:04.200.25-Aug-2020 348.20 3465.77 4418.01 2083.88 73.65 1.00
   05:48:04.400.25-Aug-2020 348.40 3465.78 4418.01 2083.88 73.65 1.00
   05:48:04.600.25-Aug-2020 348.60 3465.77 4418.01 2083.88 73.65 1.00
   05:48:04.800.25-Aug-2020 348.80 3465.77 4418.01 2083.88 73.65 1.00
   05:48:05.000.25-Aug-2020 349.00 3465.78 4418.01 2083.88 73.65 1.00
   05:48:05.200.25-Aug-2020 349.20 3465.78 4418.01 2083.88 73.65 1.00
   05:48:05.400.25-Aug-2020 349.40 3465.78 4418.01 2083.88 73.65 1.00
   05:48:05.600.25-Aug-2020 349.60 3465.77 4418.01 2083.88 73.65 1.00
   05:48:05.800.25-Aug-2020 349.80 3465.71 4418.01 2083.88 73.65 1.00
   05:48:06.000.25-Aug-2020 350.00 3465.87 4418.01 2083.88 73.65 1.00
   05:48:06.200.25-Aug-2020 350.20 3465.87 4418.01 2083.88 73.65 1.00
   05:48:06.400.25-Aug-2020 350.40 3465.79 4418.01 2083.88 73.65 1.00
   05:48:06.600.25-Aug-2020 350.60 3465.76 4418.01 2083.88 73.65 1.00
   05:48:06.800.25-Aug-2020 350.80 3465.79 4418.01 2083.88 73.65 1.00
   05:48:07.000.25-Aug-2020 351.00 3465.77 4418.01 2083.88 73.65 1.00
   05:48:07.200.25-Aug-2020 351.20 3465.77 4418.01 2083.88 73.65 1.00
   05:48:07.400.25-Aug-2020 351.40 3465.78 4418.01 2083.88 73.65 1.00
   05:48:07.600.25-Aug-2020 351.60 3465.77 4418.01 2083.88 73.65 1.00
   05:48:07.800.25-Aug-2020 351.80 3465.78 4418.01 2083.88 73.65 1.00
   05:48:08.000.25-Aug-2020 352.00 3465.76 4418.01 2083.88 73.65 1.00
   05:48:08.200.25-Aug-2020 352.20 3465.77 4418.01 2083.88 73.65 1.00
   05:48:08.400.25-Aug-2020 352.40 3465.78 4418.01 2083.88 73.65 1.00
   05:48:08.600.25-Aug-2020 352.60 3465.78 4418.01 2083.88 73.65 1.00
   05:48:08.800.25-Aug-2020 352.80 3465.77 4418.01 2083.88 73.65 1.00
   05:48:09.000.25-Aug-2020 353.00 3465.76 4418.01 2083.88 73.65 1.00
   05:48:09.200.25-Aug-2020 353.20 3465.67 4418.01 2083.88 73.65 1.00
   05:48:09.400.25-Aug-2020 353.40 3465.87 4418.01 2083.88 73.65 1.00
   05:48:09.600.25-Aug-2020 353.60 3465.78 4418.01 2083.88 73.65 1.00
   05:48:09.800.25-Aug-2020 353.80 3465.79 4418.01 2083.88 73.65 1.00
   05:48:10.000.25-Aug-2020 354.00 3465.76 4418.01 2083.88 73.65 1.00
   05:48:10.200.25-Aug-2020 354.20 3465.76 4418.01 2083.88 73.65 1.00
   05:48:10.400.25-Aug-2020 354.40 3465.76 4418.01 2083.88 73.65 1.00
   05:48:10.600.25-Aug-2020 354.60 3465.82 4418.01 2083.88 73.65 1.00
   05:48:10.800.25-Aug-2020 354.80 3465.77 4418.01 2083.88 73.65 1.00
   05:48:11.000.25-Aug-2020 355.00 3465.77 4418.01 2083.88 73.65 1.00
   05:48:11.200.25-Aug-2020 355.20 3465.77 4418.01 2083.88 73.65 1.00
   05:48:11.400.25-Aug-2020 355.40 3465.77 4418.01 2083.88 73.65 1.00
   05:48:11.600.25-Aug-2020 355.60 3465.73 4418.01 2083.88 73.65 1.00
   05:48:11.800.25-Aug-2020 355.80 3465.89 4418.01 2083.88 73.65 1.00
   05:48:12.000.25-Aug-2020 356.00 3465.72 4418.01 2083.88 73.65 1.00
   05:48:12.200.25-Aug-2020 356.20 3465.72 4418.01 2083.88 73.65 1.00
   05:48:12.400.25-Aug-2020 356.40 3465.77 4418.01 2083.88 73.65 1.00
   05:48:12.600.25-Aug-2020 356.60 3465.85 4418.01 2083.88 73.65 1.00
   05:48:12.800.25-Aug-2020 356.80 3465.76 4418.01 2083.88 73.65 1.00
   05:48:13.000.25-Aug-2020 357.00 3465.75 4418.01 2083.88 73.65 1.00
   05:48:13.200.25-Aug-2020 357.20 3465.75 4418.01 2083.88 73.65 1.00
   05:48:13.400.25-Aug-2020 357.40 3465.78 4418.01 2083.88 73.65 1.00
   05:48:13.600.25-Aug-2020 357.60 3465.69 4418.01 2083.88 73.65 1.00
   05:48:13.800.25-Aug-2020 357.80 3465.87 4418.01 2083.88 73.65 1.00
   05:48:14.000.25-Aug-2020 358.00 3465.76 4418.01 2083.88 73.65 1.00
   05:48:14.200.25-Aug-2020 358.20 3466.40 4418.01 2083.88 73.65 1.00
   05:48:14.400.25-Aug-2020 358.40 3466.75 4418.01 2083.88 73.65 1.00
   05:48:14.600.25-Aug-2020 358.60 3481.84 4418.01 2083.88 73.65 1.00
   05:48:14.800.25-Aug-2020 358.80 3963.09 4418.01 2083.88 73.65 1.00
   05:48:15.000.25-Aug-2020 359.00 4829.88 4418.01 2083.88 73.65 1.00
   05:48:15.200.25-Aug-2020 359.20 4829.88 4418.01 2083.88 73.65 1.00
   05:48:15.400.25-Aug-2020 359.40 4828.97 4418.01 2083.88 73.65 1.00
   05:48:15.600.25-Aug-2020 359.60 4829.77 4418.01 2083.88 73.65 1.00
   05:48:15.800.25-Aug-2020 359.80 4829.61 4418.01 2083.88 73.65 1.00
   05:48:16.000.25-Aug-2020 360.00 4829.85 4418.01 2083.88 73.65 1.00
   05:48:16.200.25-Aug-2020 360.20 4830.70 4418.01 2083.88 73.65 1.00
   05:48:16.400.25-Aug-2020 360.40 4830.50 4418.01 2083.88 73.65 1.00
   05:48:16.600.25-Aug-2020 360.60 4830.04 4418.01 2083.88 73.65 1.00
   05:48:16.800.25-Aug-2020 360.80 4830.26 4418.01 2083.88 73.65 1.00
   05:48:17.000.25-Aug-2020 361.00 4830.79 4418.01 2083.88 73.65 1.00
   05:48:17.200.25-Aug-2020 361.20 4829.77 4418.01 2083.88 73.65 1.00
   05:48:17.400.25-Aug-2020 361.40 4837.56 4418.01 2083.88 73.65 1.00
   05:48:17.600.25-Aug-2020 361.60 4839.94 4418.01 2083.88 73.66 1.00
   05:48:17.800.25-Aug-2020 361.80 4832.93 4418.01 2083.88 73.66 1.00
   05:48:18.000.25-Aug-2020 362.00 4831.97 4418.01 2083.88 73.66 1.00
   05:48:18.200.25-Aug-2020 362.20 4831.97 4418.01 2083.88 73.66 1.00
   05:48:18.400.25-Aug-2020 362.40 4830.11 4418.01 2083.88 73.66 1.00
   05:48:18.600.25-Aug-2020 362.60 4829.81 4418.01 2083.88 73.66 1.00
   05:48:18.800.25-Aug-2020 362.80 4832.27 4418.01 2083.88 73.66 1.00
   05:48:19.000.25-Aug-2020 363.00 4833.56 4418.01 2083.88 73.66 1.00
   05:48:19.200.25-Aug-2020 363.20 4833.56 4418.01 2083.88 73.66 1.00
   05:48:19.400.25-Aug-2020 363.40 4832.40 4418.01 2083.88 73.66 1.00
   05:48:19.600.25-Aug-2020 363.60 4832.84 4418.01 2083.88 73.67 1.00
   05:48:19.800.25-Aug-2020 363.80 4831.09 4418.01 2083.88 73.67 1.00
   05:48:20.000.25-Aug-2020 364.00 4832.38 4418.01 2083.88 73.67 1.00
   05:48:20.200.25-Aug-2020 364.20 4832.38 4418.01 2083.88 73.67 1.00
   05:48:20.400.25-Aug-2020 364.40 4834.00 4418.01 2083.88 73.67 1.00
   05:48:20.600.25-Aug-2020 364.60 4835.55 4418.01 2083.88 73.67 1.00
   05:48:20.800.25-Aug-2020 364.80 4835.98 4418.01 2083.88 73.67 1.00
   05:48:21.000.25-Aug-2020 365.00 4837.40 4418.01 2083.88 73.67 1.00
   05:48:21.200.25-Aug-2020 365.20 4834.37 4418.01 2083.88 73.67 1.00
   05:48:21.400.25-Aug-2020 365.40 4832.02 4418.01 2083.88 73.67 1.00
   05:48:21.600.25-Aug-2020 365.60 4830.53 4418.01 2083.88 73.67 1.00
   05:48:21.800.25-Aug-2020 365.80 4841.89 4418.01 2083.88 73.67 1.00
   05:48:22.000.25-Aug-2020 366.00 4832.42 4418.01 2083.88 73.67 1.00
   05:48:22.200.25-Aug-2020 366.20 4832.42 4418.01 2083.88 73.67 1.00
   05:48:22.400.25-Aug-2020 366.40 4835.37 4418.01 2083.88 73.68 1.00
   05:48:22.600.25-Aug-2020 366.60 4832.10 4418.01 2083.88 73.68 1.00
   05:48:22.800.25-Aug-2020 366.80 4831.56 4418.01 2083.88 73.68 1.00
   05:48:23.000.25-Aug-2020 367.00 4832.01 4418.01 2083.88 73.68 1.00
   05:48:23.200.25-Aug-2020 367.20 4832.01 4418.01 2083.88 73.68 1.00
   05:48:23.400.25-Aug-2020 367.40 4840.81 4418.01 2083.88 73.68 1.00
   05:48:23.600.25-Aug-2020 367.60 4835.33 4418.01 2083.88 73.68 1.00
   05:48:23.800.25-Aug-2020 367.80 4834.79 4418.01 2083.88 73.68 1.00
