~Version Information
 VERS.                  2.0:   CWLS log ASCII Standard -VERSION 2.0
 WRAP.                   NO:   One line per depth step
~Well Information Block
#MNEM.UNIT     VALUE/NAME     DESCRIPTION
#---------     -----------    ---------------------------
 STRT.S             07:44:59 25-Aug-20: START TIME 07:44:59 25-Aug-20
 STOP.S             07:51:54 25-Aug-20: STOP TIME  07:51:54 25-Aug-20
 STEP.S                   0.00: STEP TIME
 NULL.                 -999.25: NULL VALUE
 DFWT.                        :  DIST FWL TEXT
 DFST.                        :  DIST FSL TEXT
 DMF .             Drill Floor:  DRILL MEAS FROM
 STIM.      09.59.28 01-Jun-20:  START TIME
 DATE.      05.00.00 28-Aug-20:  END TIME
 SPUD.               01-Jun-20:  SPUD DATE
 NREF.                    Grid:  NORTH REFERENCE
 HPTY.       Minimum Curvature:  HOLE POS TYPE
 DMOD.             Drill Model:  DRILL MOD DESC
 SVYD.                  Survey:  SURVEY DESC
 ILTD.               Lithology:  INTERP LTH DESC
 FTOP.          Formation Tops:  FORM TOPS DESC
 SON .        AZ-XX-0905455768:  JOB NUMBER
 WTYP.                Deviated:  WELL TYPE
 COMP.     BP Exploration(Caspian Sea):  COMPANY
 BASE.              Azerbaijan:  LOGGING EQUIPMENT BASE LOCATION
 REGN.                   EESSA:  REGION
 CTRY.              Azerbaijan:  COUNTRY NAME
 FLD .                     ACG:  FIELD NAME
 SRVC.          Turan Drilling:  CONTRACTOR
 WELL.                     B41:  WELL NAME
 RIG .           Central Azeri:  RIG NAME
 DCON.         Sperry Drilling:  DIRECTNL CONTR
 PDAT.          Mean Sea Level:  PERMANENT DATUM
 MDS .        Operator Entered:  MAG DATA SOURCE
 API .                        :  API NUMBER
 CNTY.                        :  COUNTY
 PROV.                        :  PROVINCE
 STAT.                        :  STATE
 UWI .                        :  UNIQUE WELL IDENTIFIER
 LOC .                        :  LOCATION
 LMF .             Drill Floor:  LOG MEASURED FROM
 TVDS.m                  43.29:  TVDSS CORRECTN
 LATI.deg                40.03:  LATITUDE
 LONG.deg                51.35:  LONGITUDE
 WHNS.m                  12.98:  WELL HEAD N/S
 WHEW.m                  -6.62:  WELL HEAD E/W
 UTMX.m              530128.28:  UTM X
 UTMY.m             4433192.49:  UTM Y
 DFWL.m                   0.00:  DISTANCE FWL
 DFSL.m                   0.00:  DISTANCE FSL
 SDEP.m                 378.00:  START DEPTH
 TDD .m                4463.01:  TOTAL DEPTH (DRILLER)
 VSDR.deg               296.18:  VERT SEC DIRECT
 GVFD.g                   1.00:  GRAVITY FIELD
 MFLD.nT              50269.00:  MAGNETIC FIELD
 MDIP.deg                59.50:  MAGNETIC DIP
 MDEC.deg                 6.44:  MAGNETIC DECL
 GRDC.deg                 0.20:  GRID CORRECTION
 AZTC.deg                 6.24:  AZM TOTAL CORR
 EPD .m                   0.00:  ELEVATION
 EGL .m                   0.00:  GROUND ELEVATION
 WDMS.m                 128.20:  WD ELEV
 APD .m                  43.29:  DEPTH ABOVE PD
 AGAP.m                  43.29:  AIR GAP
 VSEW.m                  -6.62:  VERT SEC E/W
 VSNS.m                  12.98:  VERT SEC N/S
 EKB .m                  43.29:  KB ELEVATION
 EDF .m                  43.29:  DF ELEVATION
 TDL .m                 147.00:  TOTAL DEPTH (LOGGER)
 VSC .                       0:  VS TO CLOSURE
 MAGU.                 1849241:  MAGUTM CHECKSUM
~Parameter Information Block
#MNEM.UNIT       Value        Description
#---------     -----------    ---------------------------
 AV  .mps                 0.70:  Ann Velocity 
 AZIF.deg               269.43:  Azm, Final 
 BHAT.        Rotary Steerable:  BHA Type 
 BROT.°/30m              -0.03:  Build Rotating 
 BS  .in                  8.50:  Bit Size 
 BSZ .in                  8.50:  Bit Size 
 BTPL.psig              880.00:  Bit Press Loss 
 CABU.                      No:  Customer Abuse 
 CGEO.          Parviz Guliyev:  Customer Geo 
 COMM.                     í_:  Run Comments 1 
 TCS .hr                 64.59:  Time Ciculation Ended 
 CV  .mps                 2.17:  Crit Velocity 
 DD1 .            Nonso Okafor:  Direct Drillr 1 
 DDSV.               Geo-Pilot:  DD Service 
 DEFF.%                  98.00:  % Det Eff 
 DLRX.°/30m               0.81:  Dogleg Rot Max 
 DLSO.°/30m               0.55:  Dogleg Oriented 
 DLSX.°/30m               0.81:  Dogleg Str Max 
 DRET.      23.50.00 24-Aug-20:  Drill End Time 
 DRST.      07.34.24 22-Aug-20:  Drill Start Tim 
 DTIM.hr                 15.29:  Time Drilling 
 EDEP.m                4461.01:  End Depth 
 ENG1.       Zam Abdullah Sani:  Engineer 1 
 ENG2.         Dair Mahammadov:  Engineer 2 
 ENG3.          Rustam Gadirov:  Engineer 3 
 ETIM.      07.34.24 26-Aug-20:  End Time 
 FLOI.gpm               550.00:  Flow In 
 FLON.gpm               400.00:  Flow In Min 
 FLOS.cptm                1.00:  Fluid Loss 
 FLOX.gpm               600.00:  Flow In Max 
 FTRO.       Formation Presure:  FTWD Run Obj 
 HFLO.                      No:  High Flow 
 HPRE.                      No:  High Pressure 
 HTEM.                      No:  High Temp 
 HYDO.m                   1.80:  Hydro Offset 
 IFIN.deg                66.72:  Inc, Final 
 IMAX.deg                67.42:  Inc Max 
 IMIN.deg                66.72:  Inc Min 
 IMND.m                4408.37:  Inc Min Depth 
 IMXD.m                4323.37:  Inc Max Depth 
 JARR.                      No:  Jarring 
 LETM.      23.50.00 24-Aug-20:  Log End Time 
 LOST.hr                     0:  Lost Rig Time 
 LSTM.      07.34.24 22-Aug-20:  Log Start Time 
 MDCL.ppm             38000.00:  Mud Chlorides 
 MDES.     Inversion Oil/Synthetic:  Mud Desc 
 DFD .sg                  1.40:  Mud Density 
 MDMN.sg                  1.38:  Dens Mud Min 
 MDMX.sg                  1.41:  Dens Mud Max 
 MOIL.                    70.5:  Run Mud Oil % 
 MOWR.                   68:32:  Run Mud OWR 
 MSND.                    0.01:  Run Mud Sand % 
 MSOL.                   17.68:  Run Mud Solids% 
 DFV .spqt               77.00:  Mud Viscosity 
 MWOD.in                  6.75:  MWD Tool OD 
 MWSI.                      No:  Serv Intrp, MWD 
 OTIM.hr                159.42:  Time Operating 
 PCON.           Look Like New:  Pad Condition 
 PMAX.psia             8730.94:  Press Op, Max 
 PV  .cP                 31.00:  Mud PV 
 RUN .                     900:  Run Number 
 ROPA.m/hr               12.00:  ROP Avg 
 ROPN.m/hr                7.00:  ROP Min 
 ROPX.m/hr               17.00:  ROP Max 
 RPMA.rpm               120.00:  RPM Surface Avg 
 RPMN.rpm                60.00:  RPM Surface Min 
 RPMX.rpm               140.00:  RPM Surface Max 
 RRUN.                    L604:  Rig Run Number 
 RTIM.hr                 10.00:  Time Reaming 
 SAZI.deg               270.56:  Azm, Start 
 SDEP.m                4314.01:  Start Depth 
 SIDD.                      No:  Serv Intrp, DD 
 SINC.deg                67.42:  Inc, Start 
 SPPA.psig             3300.00:  SPP Avg 
 SPPN.psig             1750.00:  SPP Min 
 SPPX.psig             4630.00:  SPP Max 
 STIM.      11.00.00 21-Aug-20:  Start Time 
 SVCS.                 DD, MWD:  Services 
 SVER.                    9.20:  Sperry Version 
 TDAT.m                4461.01:  Tot Depth Attmp 
 TDDF.                      No:  Trip for DD 
 TDLG.m                 147.00:  Tot Depth Loggd 
 TFF .                      No:  Trip for Fail 
 TQAA.f-kp               16.00:  Torque Abs Avg 
 TQAN.f-kp               14.00:  Torque Abs Min 
 TQAX.f-kp               20.00:  Torque Abs Max 
 TRRT.°/30m              -0.14:  Turn Rotating 
 MRT .                    HCIM:  Maximum Recorded Temperature 
 TTMX.degC               78.00:  Max Tool Temp 
 VS01.                90515425:  Virtual Str1 SN 
 VS02.                90545184:  Virtual Str2 SN 
 VS03.                90527809:  Virtual Str3 SN 
 VS04.                90515232:  Virtual Str4 SN 
 VS05.                90621207:  Virtual Str5 SN 
 VS06.                90619737:  Virtual Str6 SN 
 WBMN.klb                 2.00:  WOB Min 
 WITN.          Keith Dischler:  Customer Rep 
 WITN.           Faig Mammadov:  Customer Rep 2 
 WOBA.klb                 5.00:  WOB Avg 
 WOBX.klb                 8.00:  WOB Max 
 YP  .lhf2               32.00:  Yield Point 
~Curve Information Block
#MNEM.UNIT                 API CODE     Curve Description
#---------               -----------    ---------------------------
 TIME.HHMMSS            00 000 000 000:  GT Time & Date
 GTET.sec               00 000 000 000:  GT Elapsed Test Time
 GTPQH.psia             00 000 000 000:  GT HR Quartz Pressure
 GTDEPTH.m              00 000 000 000:  GT Depth
 GTTVD.m                00 000 000 000:  GT True Vertical Depth
 GTTQ.degC              00 000 000 000:  GT Quartz Temperature
 GTTN.NONE              00 000 000 000:  GT Test Number
#Other Information
#
#WARRANTY: Halliburton will use its best efforts to furnish customers with 
#accurate information and interpretations that are part of, and incident to, the services 
#provided.  However, Halliburton cannot and does not warrant the accuracy 
#or correctness of such information and interpretations.  Under no circumstances should any 
#such information or interpretation be relied upon as the sole basis for any drilling, 
#completion, production, or financial decision or any procedure involving any risk to the 
#safety of any drilling venture, drilling rig or its crew or any other third party.  The 
#Customer has full responsibility for all drilling, completion and production operation.  
#Halliburton makes no representations or warranties, either expressed or 
#implied, including, but not limited to, the implied warranties of merchantability or fitness 
#for a particular purpose, with respect to the services rendered.  In no event will 
#Halliburton be liable for failure to obtain any particular results or for 
#any damages, including, but not limited to, indirect, special or consequential damages, 
#resulting from the use of any information or interpretation provided by Halliburton.
#
~A           TIME            GTET   GTPQH  GTDEPTH  GTTVD  GTTQ  GTTN 
# ...
   07:46:08.000.25-Aug-2020  69.00   33.13 4371.01 2065.33 72.43 4.00
   07:46:08.200.25-Aug-2020  69.20   33.13 4371.01 2065.33 72.43 4.00
   07:46:08.400.25-Aug-2020  69.40   34.11 4371.01 2065.33 72.43 4.00
   07:46:08.600.25-Aug-2020  69.60   34.55 4371.01 2065.33 72.43 4.00
   07:46:08.800.25-Aug-2020  69.80   35.06 4371.01 2065.33 72.43 4.00
   07:46:09.000.25-Aug-2020  70.00   35.69 4371.01 2065.33 72.43 4.00
   07:46:09.200.25-Aug-2020  70.20   35.69 4371.01 2065.33 72.43 4.00
   07:46:09.400.25-Aug-2020  70.40   36.66 4371.01 2065.33 72.43 4.00
   07:46:09.600.25-Aug-2020  70.60   37.20 4371.01 2065.33 72.43 4.00
   07:46:09.800.25-Aug-2020  70.80   37.71 4371.01 2065.33 72.43 4.00
   07:46:10.000.25-Aug-2020  71.00   38.31 4371.01 2065.33 72.43 4.00
   07:46:10.200.25-Aug-2020  71.20   38.91 4371.01 2065.33 72.43 4.00
   07:46:10.400.25-Aug-2020  71.40   39.44 4371.01 2065.33 72.43 4.00
   07:46:10.600.25-Aug-2020  71.60   39.98 4371.01 2065.33 72.43 4.00
   07:46:10.800.25-Aug-2020  71.80   40.53 4371.01 2065.33 72.43 4.00
   07:46:11.000.25-Aug-2020  72.00   41.07 4371.01 2065.33 72.43 4.00
   07:46:11.200.25-Aug-2020  72.20   41.59 4371.01 2065.33 72.43 4.00
   07:46:11.400.25-Aug-2020  72.40   42.15 4371.01 2065.33 72.43 4.00
   07:46:11.600.25-Aug-2020  72.60   42.82 4371.01 2065.33 72.43 4.00
   07:46:11.800.25-Aug-2020  72.80   43.46 4371.01 2065.33 72.43 4.00
   07:46:12.000.25-Aug-2020  73.00   44.04 4371.01 2065.33 72.43 4.00
   07:46:12.200.25-Aug-2020  73.20   44.04 4371.01 2065.33 72.43 4.00
   07:46:12.400.25-Aug-2020  73.40   45.13 4371.01 2065.33 72.43 4.00
   07:46:12.600.25-Aug-2020  73.60   45.80 4371.01 2065.33 72.43 4.00
   07:46:12.800.25-Aug-2020  73.80   46.40 4371.01 2065.33 72.43 4.00
   07:46:13.000.25-Aug-2020  74.00   46.94 4371.01 2065.33 72.43 4.00
   07:46:13.200.25-Aug-2020  74.20   46.94 4371.01 2065.33 72.43 4.00
   07:46:13.400.25-Aug-2020  74.40   47.77 4371.01 2065.33 72.43 4.00
   07:46:13.600.25-Aug-2020  74.60   48.14 4371.01 2065.33 72.44 4.00
   07:46:13.800.25-Aug-2020  74.80   48.53 4371.01 2065.33 72.44 4.00
   07:46:14.000.25-Aug-2020  75.00   48.90 4371.01 2065.33 72.44 4.00
   07:46:14.200.25-Aug-2020  75.20   49.28 4371.01 2065.33 72.44 4.00
   07:46:14.400.25-Aug-2020  75.40   49.78 4371.01 2065.33 72.44 4.00
   07:46:14.600.25-Aug-2020  75.60   50.22 4371.01 2065.33 72.44 4.00
   07:46:14.800.25-Aug-2020  75.80   50.64 4371.01 2065.33 72.44 4.00
   07:46:15.000.25-Aug-2020  76.00   51.04 4371.01 2065.33 72.44 4.00
   07:46:15.200.25-Aug-2020  76.20   51.46 4371.01 2065.33 72.44 4.00
   07:46:15.400.25-Aug-2020  76.40   51.89 4371.01 2065.33 72.44 4.00
   07:46:15.600.25-Aug-2020  76.60   52.28 4371.01 2065.33 72.44 4.00
   07:46:15.800.25-Aug-2020  76.80   52.74 4371.01 2065.33 72.44 4.00
   07:46:16.000.25-Aug-2020  77.00   53.09 4371.01 2065.33 72.44 4.00
   07:46:16.200.25-Aug-2020  77.20   53.09 4371.01 2065.33 72.44 4.00
   07:46:16.400.25-Aug-2020  77.40   54.03 4371.01 2065.33 72.44 4.00
   07:46:16.600.25-Aug-2020  77.60   54.58 4371.01 2065.33 72.44 4.00
   07:46:16.800.25-Aug-2020  77.80   55.18 4371.01 2065.33 72.44 4.00
   07:46:17.000.25-Aug-2020  78.00   55.79 4371.01 2065.33 72.44 4.00
   07:46:17.200.25-Aug-2020  78.20   55.79 4371.01 2065.33 72.44 4.00
   07:46:17.400.25-Aug-2020  78.40   56.82 4371.01 2065.33 72.44 4.00
   07:46:17.600.25-Aug-2020  78.60   57.29 4371.01 2065.33 72.44 4.00
   07:46:17.800.25-Aug-2020  78.80   57.80 4371.01 2065.33 72.44 4.00
   07:46:18.000.25-Aug-2020  79.00   58.32 4371.01 2065.33 72.44 4.00
   07:46:18.200.25-Aug-2020  79.20   58.94 4371.01 2065.33 72.44 4.00
   07:46:18.400.25-Aug-2020  79.40   59.51 4371.01 2065.33 72.44 4.00
   07:46:18.600.25-Aug-2020  79.60   60.04 4371.01 2065.33 72.44 4.00
   07:46:18.800.25-Aug-2020  79.80   60.71 4371.01 2065.33 72.44 4.00
   07:46:19.000.25-Aug-2020  80.00   61.24 4371.01 2065.33 72.44 4.00
   07:46:19.200.25-Aug-2020  80.20   61.69 4371.01 2065.33 72.44 4.00
   07:46:19.400.25-Aug-2020  80.40   62.09 4371.01 2065.33 72.44 4.00
   07:46:19.600.25-Aug-2020  80.60   62.51 4371.01 2065.33 72.44 4.00
   07:46:19.800.25-Aug-2020  80.80   63.00 4371.01 2065.33 72.44 4.00
   07:46:20.000.25-Aug-2020  81.00   63.82 4371.01 2065.33 72.44 4.00
   07:46:20.200.25-Aug-2020  81.20   63.82 4371.01 2065.33 72.44 4.00
   07:46:20.400.25-Aug-2020  81.40   65.46 4371.01 2065.33 72.44 4.00
   07:46:20.600.25-Aug-2020  81.60   68.47 4371.01 2065.33 72.44 4.00
   07:46:20.800.25-Aug-2020  81.80   70.70 4371.01 2065.33 72.44 4.00
   07:46:21.000.25-Aug-2020  82.00   72.09 4371.01 2065.33 72.44 4.00
   07:46:21.200.25-Aug-2020  82.20   72.09 4371.01 2065.33 72.44 4.00
   07:46:21.400.25-Aug-2020  82.40   74.53 4371.01 2065.33 72.44 4.00
   07:46:21.600.25-Aug-2020  82.60   75.71 4371.01 2065.33 72.44 4.00
   07:46:21.800.25-Aug-2020  82.80   76.86 4371.01 2065.33 72.44 4.00
   07:46:22.000.25-Aug-2020  83.00   77.89 4371.01 2065.33 72.44 4.00
   07:46:22.200.25-Aug-2020  83.20   78.80 4371.01 2065.33 72.44 4.00
   07:46:22.400.25-Aug-2020  83.40   79.80 4371.01 2065.33 72.44 4.00
   07:46:22.600.25-Aug-2020  83.60   80.88 4371.01 2065.33 72.45 4.00
   07:46:22.800.25-Aug-2020  83.80   81.80 4371.01 2065.33 72.45 4.00
   07:46:23.000.25-Aug-2020  84.00   82.72 4371.01 2065.33 72.45 4.00
   07:46:23.200.25-Aug-2020  84.20   84.09 4371.01 2065.33 72.45 4.00
   07:46:23.400.25-Aug-2020  84.40   85.20 4371.01 2065.33 72.45 4.00
   07:46:23.600.25-Aug-2020  84.60   86.17 4371.01 2065.33 72.45 4.00
   07:46:23.800.25-Aug-2020  84.80   87.32 4371.01 2065.33 72.45 4.00
   07:46:24.000.25-Aug-2020  85.00   88.36 4371.01 2065.33 72.45 4.00
   07:46:24.200.25-Aug-2020  85.20   88.36 4371.01 2065.33 72.45 4.00
   07:46:24.400.25-Aug-2020  85.40   90.38 4371.01 2065.33 72.45 4.00
   07:46:24.600.25-Aug-2020  85.60   91.40 4371.01 2065.33 72.45 4.00
   07:46:24.800.25-Aug-2020  85.80   92.33 4371.01 2065.33 72.45 4.00
   07:46:25.000.25-Aug-2020  86.00   93.26 4371.01 2065.33 72.45 4.00
   07:46:25.200.25-Aug-2020  86.20   93.26 4371.01 2065.33 72.45 4.00
   07:46:25.400.25-Aug-2020  86.40   95.16 4371.01 2065.33 72.45 4.00
   07:46:25.600.25-Aug-2020  86.60   96.06 4371.01 2065.33 72.45 4.00
   07:46:25.800.25-Aug-2020  86.80   96.90 4371.01 2065.33 72.45 4.00
   07:46:26.000.25-Aug-2020  87.00   97.71 4371.01 2065.33 72.45 4.00
   07:46:26.200.25-Aug-2020  87.20   98.50 4371.01 2065.33 72.45 4.00
   07:46:26.400.25-Aug-2020  87.40   99.24 4371.01 2065.33 72.45 4.00
   07:46:26.600.25-Aug-2020  87.60   99.98 4371.01 2065.33 72.45 4.00
   07:46:26.800.25-Aug-2020  87.80  100.82 4371.01 2065.33 72.45 4.00
   07:46:27.000.25-Aug-2020  88.00  101.77 4371.01 2065.33 72.45 4.00
   07:46:27.200.25-Aug-2020  88.20  103.08 4371.01 2065.33 72.45 4.00
   07:46:27.400.25-Aug-2020  88.40  104.18 4371.01 2065.33 72.45 4.00
   07:46:27.600.25-Aug-2020  88.60  105.08 4371.01 2065.33 72.45 4.00
   07:46:27.800.25-Aug-2020  88.80  106.09 4371.01 2065.33 72.45 4.00
   07:46:28.000.25-Aug-2020  89.00  107.15 4371.01 2065.33 72.45 4.00
   07:46:28.200.25-Aug-2020  89.20  107.15 4371.01 2065.33 72.45 4.00
   07:46:28.400.25-Aug-2020  89.40  109.09 4371.01 2065.33 72.45 4.00
   07:46:28.600.25-Aug-2020  89.60  109.98 4371.01 2065.33 72.45 4.00
   07:46:28.800.25-Aug-2020  89.80  110.86 4371.01 2065.33 72.45 4.00
   07:46:29.000.25-Aug-2020  90.00  112.06 4371.01 2065.33 72.45 4.00
   07:46:29.200.25-Aug-2020  90.20  112.06 4371.01 2065.33 72.45 4.00
   07:46:29.400.25-Aug-2020  90.40  114.81 4371.01 2065.33 72.45 4.00
   07:46:29.600.25-Aug-2020  90.60  115.83 4371.01 2065.33 72.45 4.00
   07:46:29.800.25-Aug-2020  90.80  116.55 4371.01 2065.33 72.45 4.00
   07:46:30.000.25-Aug-2020  91.00  117.14 4371.01 2065.33 72.45 4.00
   07:46:30.200.25-Aug-2020  91.20  117.60 4371.01 2065.33 72.45 4.00
   07:46:30.400.25-Aug-2020  91.40  118.09 4371.01 2065.33 72.45 4.00
   07:46:30.600.25-Aug-2020  91.60  118.58 4371.01 2065.33 72.45 4.00
   07:46:30.800.25-Aug-2020  91.80  118.90 4371.01 2065.33 72.45 4.00
