~Version Information
 VERS.                  2.0:   CWLS log ASCII Standard -VERSION 2.0
 WRAP.                   NO:   One line per depth step
~Well Information Block
#MNEM.UNIT     VALUE/NAME     DESCRIPTION
#---------     -----------    ---------------------------
 STRT.S             12:03:19 25-Aug-20: START TIME 12:03:19 25-Aug-20
 STOP.S             12:10:17 25-Aug-20: STOP TIME  12:10:17 25-Aug-20
 STEP.S                   0.00: STEP TIME
 NULL.                 -999.25: NULL VALUE
 DFWT.                        :  DIST FWL TEXT
 DFST.                        :  DIST FSL TEXT
 DMF .             Drill Floor:  DRILL MEAS FROM
 STIM.      09.59.28 01-Jun-20:  START TIME
 DATE.      05.00.00 28-Aug-20:  END TIME
 SPUD.               01-Jun-20:  SPUD DATE
 NREF.                    Grid:  NORTH REFERENCE
 HPTY.       Minimum Curvature:  HOLE POS TYPE
 DMOD.             Drill Model:  DRILL MOD DESC
 SVYD.                  Survey:  SURVEY DESC
 ILTD.               Lithology:  INTERP LTH DESC
 FTOP.          Formation Tops:  FORM TOPS DESC
 SON .        AZ-XX-0905455768:  JOB NUMBER
 WTYP.                Deviated:  WELL TYPE
 COMP.     BP Exploration(Caspian Sea):  COMPANY
 BASE.              Azerbaijan:  LOGGING EQUIPMENT BASE LOCATION
 REGN.                   EESSA:  REGION
 CTRY.              Azerbaijan:  COUNTRY NAME
 FLD .                     ACG:  FIELD NAME
 SRVC.          Turan Drilling:  CONTRACTOR
 WELL.                     B41:  WELL NAME
 RIG .           Central Azeri:  RIG NAME
 DCON.         Sperry Drilling:  DIRECTNL CONTR
 PDAT.          Mean Sea Level:  PERMANENT DATUM
 MDS .        Operator Entered:  MAG DATA SOURCE
 API .                        :  API NUMBER
 CNTY.                        :  COUNTY
 PROV.                        :  PROVINCE
 STAT.                        :  STATE
 UWI .                        :  UNIQUE WELL IDENTIFIER
 LOC .                        :  LOCATION
 LMF .             Drill Floor:  LOG MEASURED FROM
 TVDS.m                  43.29:  TVDSS CORRECTN
 LATI.deg                40.03:  LATITUDE
 LONG.deg                51.35:  LONGITUDE
 WHNS.m                  12.98:  WELL HEAD N/S
 WHEW.m                  -6.62:  WELL HEAD E/W
 UTMX.m              530128.28:  UTM X
 UTMY.m             4433192.49:  UTM Y
 DFWL.m                   0.00:  DISTANCE FWL
 DFSL.m                   0.00:  DISTANCE FSL
 SDEP.m                 378.00:  START DEPTH
 TDD .m                4463.01:  TOTAL DEPTH (DRILLER)
 VSDR.deg               296.18:  VERT SEC DIRECT
 GVFD.g                   1.00:  GRAVITY FIELD
 MFLD.nT              50269.00:  MAGNETIC FIELD
 MDIP.deg                59.50:  MAGNETIC DIP
 MDEC.deg                 6.44:  MAGNETIC DECL
 GRDC.deg                 0.20:  GRID CORRECTION
 AZTC.deg                 6.24:  AZM TOTAL CORR
 EPD .m                   0.00:  ELEVATION
 EGL .m                   0.00:  GROUND ELEVATION
 WDMS.m                 128.20:  WD ELEV
 APD .m                  43.29:  DEPTH ABOVE PD
 AGAP.m                  43.29:  AIR GAP
 VSEW.m                  -6.62:  VERT SEC E/W
 VSNS.m                  12.98:  VERT SEC N/S
 EKB .m                  43.29:  KB ELEVATION
 EDF .m                  43.29:  DF ELEVATION
 TDL .m                 147.00:  TOTAL DEPTH (LOGGER)
 VSC .                       0:  VS TO CLOSURE
 MAGU.                 1849241:  MAGUTM CHECKSUM
~Parameter Information Block
#MNEM.UNIT       Value        Description
#---------     -----------    ---------------------------
 AV  .mps                 0.70:  Ann Velocity 
 AZIF.deg               269.43:  Azm, Final 
 BHAT.        Rotary Steerable:  BHA Type 
 BROT.°/30m              -0.03:  Build Rotating 
 BS  .in                  8.50:  Bit Size 
 BSZ .in                  8.50:  Bit Size 
 BTPL.psig              880.00:  Bit Press Loss 
 CABU.                      No:  Customer Abuse 
 CGEO.          Parviz Guliyev:  Customer Geo 
 COMM.                     DVX:  Run Comments 1 
 TCS .hr                 64.59:  Time Ciculation Ended 
 CV  .mps                 2.17:  Crit Velocity 
 DD1 .            Nonso Okafor:  Direct Drillr 1 
 DDSV.               Geo-Pilot:  DD Service 
 DEFF.%                  98.00:  % Det Eff 
 DLRX.°/30m               0.81:  Dogleg Rot Max 
 DLSO.°/30m               0.55:  Dogleg Oriented 
 DLSX.°/30m               0.81:  Dogleg Str Max 
 DRET.      23.50.00 24-Aug-20:  Drill End Time 
 DRST.      07.34.24 22-Aug-20:  Drill Start Tim 
 DTIM.hr                 15.29:  Time Drilling 
 EDEP.m                4461.01:  End Depth 
 ENG1.       Zam Abdullah Sani:  Engineer 1 
 ENG2.         Dair Mahammadov:  Engineer 2 
 ENG3.          Rustam Gadirov:  Engineer 3 
 ETIM.      07.34.24 26-Aug-20:  End Time 
 FLOI.gpm               550.00:  Flow In 
 FLON.gpm               400.00:  Flow In Min 
 FLOS.cptm                1.00:  Fluid Loss 
 FLOX.gpm               600.00:  Flow In Max 
 FTRO.       Formation Presure:  FTWD Run Obj 
 HFLO.                      No:  High Flow 
 HPRE.                      No:  High Pressure 
 HTEM.                      No:  High Temp 
 HYDO.m                   1.80:  Hydro Offset 
 IFIN.deg                66.72:  Inc, Final 
 IMAX.deg                67.42:  Inc Max 
 IMIN.deg                66.72:  Inc Min 
 IMND.m                4408.37:  Inc Min Depth 
 IMXD.m                4323.37:  Inc Max Depth 
 JARR.                      No:  Jarring 
 LETM.      23.50.00 24-Aug-20:  Log End Time 
 LOST.hr                     0:  Lost Rig Time 
 LSTM.      07.34.24 22-Aug-20:  Log Start Time 
 MDCL.ppm             38000.00:  Mud Chlorides 
 MDES.     Inversion Oil/Synthetic:  Mud Desc 
 DFD .sg                  1.40:  Mud Density 
 MDMN.sg                  1.38:  Dens Mud Min 
 MDMX.sg                  1.41:  Dens Mud Max 
 MOIL.                    70.5:  Run Mud Oil % 
 MOWR.                   68:32:  Run Mud OWR 
 MSND.                    0.01:  Run Mud Sand % 
 MSOL.                   17.68:  Run Mud Solids% 
 DFV .spqt               77.00:  Mud Viscosity 
 MWOD.in                  6.75:  MWD Tool OD 
 MWSI.                      No:  Serv Intrp, MWD 
 OTIM.hr                159.42:  Time Operating 
 PCON.           Look Like New:  Pad Condition 
 PMAX.psia             8730.94:  Press Op, Max 
 PV  .cP                 31.00:  Mud PV 
 RUN .                     900:  Run Number 
 ROPA.m/hr               12.00:  ROP Avg 
 ROPN.m/hr                7.00:  ROP Min 
 ROPX.m/hr               17.00:  ROP Max 
 RPMA.rpm               120.00:  RPM Surface Avg 
 RPMN.rpm                60.00:  RPM Surface Min 
 RPMX.rpm               140.00:  RPM Surface Max 
 RRUN.                    L604:  Rig Run Number 
 RTIM.hr                 10.00:  Time Reaming 
 SAZI.deg               270.56:  Azm, Start 
 SDEP.m                4314.01:  Start Depth 
 SIDD.                      No:  Serv Intrp, DD 
 SINC.deg                67.42:  Inc, Start 
 SPPA.psig             3300.00:  SPP Avg 
 SPPN.psig             1750.00:  SPP Min 
 SPPX.psig             4630.00:  SPP Max 
 STIM.      11.00.00 21-Aug-20:  Start Time 
 SVCS.                 DD, MWD:  Services 
 SVER.                    9.20:  Sperry Version 
 TDAT.m                4461.01:  Tot Depth Attmp 
 TDDF.                      No:  Trip for DD 
 TDLG.m                 147.00:  Tot Depth Loggd 
 TFF .                      No:  Trip for Fail 
 TQAA.f-kp               16.00:  Torque Abs Avg 
 TQAN.f-kp               14.00:  Torque Abs Min 
 TQAX.f-kp               20.00:  Torque Abs Max 
 TRRT.°/30m              -0.14:  Turn Rotating 
 MRT .                    HCIM:  Maximum Recorded Temperature 
 TTMX.degC               78.00:  Max Tool Temp 
 VS01.                90515425:  Virtual Str1 SN 
 VS02.                90545184:  Virtual Str2 SN 
 VS03.                90527809:  Virtual Str3 SN 
 VS04.                90515232:  Virtual Str4 SN 
 VS05.                90621207:  Virtual Str5 SN 
 VS06.                90619737:  Virtual Str6 SN 
 WBMN.klb                 2.00:  WOB Min 
 WITN.          Keith Dischler:  Customer Rep 
 WITN.           Faig Mammadov:  Customer Rep 2 
 WOBA.klb                 5.00:  WOB Avg 
 WOBX.klb                 8.00:  WOB Max 
 YP  .lhf2               32.00:  Yield Point 
~Curve Information Block
#MNEM.UNIT                 API CODE     Curve Description
#---------               -----------    ---------------------------
 TIME.HHMMSS            00 000 000 000:  GT Time & Date
 GTET.sec               00 000 000 000:  GT Elapsed Test Time
 GTPQH.psia             00 000 000 000:  GT HR Quartz Pressure
 GTDEPTH.m              00 000 000 000:  GT Depth
 GTTVD.m                00 000 000 000:  GT True Vertical Depth
 GTTQ.degC              00 000 000 000:  GT Quartz Temperature
 GTTN.NONE              00 000 000 000:  GT Test Number
#Other Information
#
#WARRANTY: Halliburton will use its best efforts to furnish customers with 
#accurate information and interpretations that are part of, and incident to, the services 
#provided.  However, Halliburton cannot and does not warrant the accuracy 
#or correctness of such information and interpretations.  Under no circumstances should any 
#such information or interpretation be relied upon as the sole basis for any drilling, 
#completion, production, or financial decision or any procedure involving any risk to the 
#safety of any drilling venture, drilling rig or its crew or any other third party.  The 
#Customer has full responsibility for all drilling, completion and production operation.  
#Halliburton makes no representations or warranties, either expressed or 
#implied, including, but not limited to, the implied warranties of merchantability or fitness 
#for a particular purpose, with respect to the services rendered.  In no event will 
#Halliburton be liable for failure to obtain any particular results or for 
#any damages, including, but not limited to, indirect, special or consequential damages, 
#resulting from the use of any information or interpretation provided by Halliburton.
#
~A           TIME            GTET   GTPQH  GTDEPTH  GTTVD  GTTQ  GTTN  
# ...
   12:05:12.000.25-Aug-2020 113.00  167.91 4311.51 2042.13 71.57 11.00
   12:05:12.200.25-Aug-2020 113.20  167.96 4311.51 2042.13 71.57 11.00
   12:05:12.400.25-Aug-2020 113.40  168.00 4311.51 2042.13 71.57 11.00
   12:05:12.600.25-Aug-2020 113.60  167.94 4311.51 2042.13 71.57 11.00
   12:05:12.800.25-Aug-2020 113.80  167.96 4311.51 2042.13 71.57 11.00
   12:05:13.000.25-Aug-2020 114.00  168.02 4311.51 2042.13 71.57 11.00
   12:05:13.200.25-Aug-2020 114.20  168.08 4311.51 2042.13 71.57 11.00
   12:05:13.400.25-Aug-2020 114.40  168.12 4311.51 2042.13 71.57 11.00
   12:05:13.600.25-Aug-2020 114.60  168.14 4311.51 2042.13 71.57 11.00
   12:05:13.800.25-Aug-2020 114.80  168.16 4311.51 2042.13 71.57 11.00
   12:05:14.000.25-Aug-2020 115.00  168.19 4311.51 2042.13 71.57 11.00
   12:05:14.200.25-Aug-2020 115.20  168.24 4311.51 2042.13 71.57 11.00
   12:05:14.400.25-Aug-2020 115.40  168.30 4311.51 2042.13 71.57 11.00
   12:05:14.600.25-Aug-2020 115.60  168.35 4311.51 2042.13 71.57 11.00
   12:05:14.800.25-Aug-2020 115.80  168.40 4311.51 2042.13 71.57 11.00
   12:05:15.000.25-Aug-2020 116.00  168.41 4311.51 2042.13 71.57 11.00
   12:05:15.200.25-Aug-2020 116.20  168.41 4311.51 2042.13 71.57 11.00
   12:05:15.400.25-Aug-2020 116.40  168.47 4311.51 2042.13 71.57 11.00
   12:05:15.600.25-Aug-2020 116.60  168.52 4311.51 2042.13 71.57 11.00
   12:05:15.800.25-Aug-2020 116.80  168.57 4311.51 2042.13 71.57 11.00
   12:05:16.000.25-Aug-2020 117.00  168.55 4311.51 2042.13 71.57 11.00
   12:05:16.200.25-Aug-2020 117.20  168.65 4311.51 2042.13 71.57 11.00
   12:05:16.400.25-Aug-2020 117.40  168.66 4311.51 2042.13 71.57 11.00
   12:05:16.600.25-Aug-2020 117.60  168.71 4311.51 2042.13 71.57 11.00
   12:05:16.800.25-Aug-2020 117.80  168.76 4311.51 2042.13 71.57 11.00
   12:05:17.000.25-Aug-2020 118.00  168.81 4311.51 2042.13 71.57 11.00
   12:05:17.200.25-Aug-2020 118.20  168.85 4311.51 2042.13 71.57 11.00
   12:05:17.400.25-Aug-2020 118.40  168.82 4311.51 2042.13 71.57 11.00
   12:05:17.600.25-Aug-2020 118.60  168.91 4311.51 2042.13 71.57 11.00
   12:05:17.800.25-Aug-2020 118.80  168.92 4311.51 2042.13 71.57 11.00
   12:05:18.000.25-Aug-2020 119.00  168.98 4311.51 2042.13 71.57 11.00
   12:05:18.200.25-Aug-2020 119.20  169.02 4311.51 2042.13 71.57 11.00
   12:05:18.400.25-Aug-2020 119.40  169.07 4311.51 2042.13 71.57 11.00
   12:05:18.600.25-Aug-2020 119.60  169.12 4311.51 2042.13 71.57 11.00
   12:05:18.800.25-Aug-2020 119.80  169.16 4311.51 2042.13 71.57 11.00
   12:05:19.000.25-Aug-2020 120.00  169.21 4311.51 2042.13 71.57 11.00
   12:05:19.200.25-Aug-2020 120.20  169.21 4311.51 2042.13 71.57 11.00
   12:05:19.400.25-Aug-2020 120.40  169.29 4311.51 2042.13 71.57 11.00
   12:05:19.600.25-Aug-2020 120.60  169.34 4311.51 2042.13 71.57 11.00
   12:05:19.800.25-Aug-2020 120.80  169.37 4311.51 2042.13 71.57 11.00
   12:05:20.000.25-Aug-2020 121.00  169.41 4311.51 2042.13 71.57 11.00
   12:05:20.200.25-Aug-2020 121.20  169.41 4311.51 2042.13 71.57 11.00
   12:05:20.400.25-Aug-2020 121.40  169.50 4311.51 2042.13 71.57 11.00
   12:05:20.600.25-Aug-2020 121.60  169.53 4311.51 2042.13 71.57 11.00
   12:05:20.800.25-Aug-2020 121.80  169.56 4311.51 2042.13 71.57 11.00
   12:05:21.000.25-Aug-2020 122.00  169.52 4311.51 2042.13 71.57 11.00
   12:05:21.200.25-Aug-2020 122.20  169.60 4311.51 2042.13 71.57 11.00
   12:05:21.400.25-Aug-2020 122.40  169.61 4311.51 2042.13 71.57 11.00
   12:05:21.600.25-Aug-2020 122.60  169.65 4311.51 2042.13 71.57 11.00
   12:05:21.800.25-Aug-2020 122.80  169.70 4311.51 2042.13 71.57 11.00
   12:05:22.000.25-Aug-2020 123.00  169.74 4311.51 2042.13 71.57 11.00
   12:05:22.200.25-Aug-2020 123.20  169.74 4311.51 2042.13 71.57 11.00
   12:05:22.400.25-Aug-2020 123.40  169.83 4311.51 2042.13 71.57 11.00
   12:05:22.600.25-Aug-2020 123.60  169.86 4311.51 2042.13 71.57 11.00
   12:05:22.800.25-Aug-2020 123.80  169.91 4311.51 2042.13 71.57 11.00
   12:05:23.000.25-Aug-2020 124.00  169.94 4311.51 2042.13 71.57 11.00
   12:05:23.200.25-Aug-2020 124.20  169.94 4311.51 2042.13 71.57 11.00
   12:05:23.400.25-Aug-2020 124.40  170.02 4311.51 2042.13 71.57 11.00
   12:05:23.600.25-Aug-2020 124.60  170.05 4311.51 2042.13 71.58 11.00
   12:05:23.800.25-Aug-2020 124.80  170.09 4311.51 2042.13 71.58 11.00
   12:05:24.000.25-Aug-2020 125.00  170.12 4311.51 2042.13 71.58 11.00
   12:05:24.200.25-Aug-2020 125.20  170.09 4311.51 2042.13 71.58 11.00
   12:05:24.400.25-Aug-2020 125.40  170.18 4311.51 2042.13 71.58 11.00
   12:05:24.600.25-Aug-2020 125.60  170.17 4311.51 2042.13 71.58 11.00
   12:05:24.800.25-Aug-2020 125.80  170.22 4311.51 2042.13 71.58 11.00
   12:05:25.000.25-Aug-2020 126.00  170.26 4311.51 2042.13 71.58 11.00
   12:05:25.200.25-Aug-2020 126.20  170.30 4311.51 2042.13 71.58 11.00
   12:05:25.400.25-Aug-2020 126.40  170.27 4311.51 2042.13 71.58 11.00
   12:05:25.600.25-Aug-2020 126.60  170.33 4311.51 2042.13 71.58 11.00
   12:05:25.800.25-Aug-2020 126.80  170.37 4311.51 2042.13 71.58 11.00
   12:05:26.000.25-Aug-2020 127.00  170.41 4311.51 2042.13 71.58 11.00
   12:05:26.200.25-Aug-2020 127.20  170.44 4311.51 2042.13 71.58 11.00
   12:05:26.400.25-Aug-2020 127.40  170.49 4311.51 2042.13 71.58 11.00
   12:05:26.600.25-Aug-2020 127.60  170.53 4311.51 2042.13 71.58 11.00
   12:05:26.800.25-Aug-2020 127.80  170.53 4311.51 2042.13 71.58 11.00
   12:05:27.000.25-Aug-2020 128.00  170.57 4311.51 2042.13 71.58 11.00
   12:05:27.200.25-Aug-2020 128.20  170.59 4311.51 2042.13 71.58 11.00
   12:05:27.400.25-Aug-2020 128.40  170.62 4311.51 2042.13 71.58 11.00
   12:05:27.600.25-Aug-2020 128.60  170.63 4311.51 2042.13 71.58 11.00
   12:05:27.800.25-Aug-2020 128.80  170.68 4311.51 2042.13 71.58 11.00
   12:05:28.000.25-Aug-2020 129.00  170.70 4311.51 2042.13 71.58 11.00
   12:05:28.200.25-Aug-2020 129.20  170.74 4311.51 2042.13 71.58 11.00
   12:05:28.400.25-Aug-2020 129.40  170.79 4311.51 2042.13 71.58 11.00
   12:05:28.600.25-Aug-2020 129.60  170.76 4311.51 2042.13 71.58 11.00
   12:05:28.800.25-Aug-2020 129.80  170.83 4311.51 2042.13 71.58 11.00
   12:05:29.000.25-Aug-2020 130.00  170.86 4311.51 2042.13 71.58 11.00
   12:05:29.200.25-Aug-2020 130.20  170.91 4311.51 2042.13 71.58 11.00
   12:05:29.400.25-Aug-2020 130.40  170.94 4311.51 2042.13 71.58 11.00
   12:05:29.600.25-Aug-2020 130.60  170.98 4311.51 2042.13 71.58 11.00
   12:05:29.800.25-Aug-2020 130.80  171.02 4311.51 2042.13 71.58 11.00
   12:05:30.000.25-Aug-2020 131.00  171.06 4311.51 2042.13 71.58 11.00
   12:05:30.200.25-Aug-2020 131.20  171.09 4311.51 2042.13 71.58 11.00
   12:05:30.400.25-Aug-2020 131.40  171.13 4311.51 2042.13 71.58 11.00
   12:05:30.600.25-Aug-2020 131.60  171.17 4311.51 2042.13 71.58 11.00
   12:05:30.800.25-Aug-2020 131.80  171.21 4311.51 2042.13 71.58 11.00
   12:05:31.000.25-Aug-2020 132.00  171.25 4311.51 2042.13 71.58 11.00
   12:05:31.200.25-Aug-2020 132.20  171.25 4311.51 2042.13 71.58 11.00
   12:05:31.400.25-Aug-2020 132.40  171.32 4311.51 2042.13 71.58 11.00
   12:05:31.600.25-Aug-2020 132.60  171.35 4311.51 2042.13 71.58 11.00
   12:05:31.800.25-Aug-2020 132.80  171.39 4311.51 2042.13 71.58 11.00
   12:05:32.000.25-Aug-2020 133.00  171.43 4311.51 2042.13 71.58 11.00
   12:05:32.200.25-Aug-2020 133.20  171.41 4311.51 2042.13 71.58 11.00
   12:05:32.400.25-Aug-2020 133.40  171.50 4311.51 2042.13 71.58 11.00
   12:05:32.600.25-Aug-2020 133.60  171.53 4311.51 2042.13 71.58 11.00
   12:05:32.800.25-Aug-2020 133.80  171.58 4311.51 2042.13 71.58 11.00
   12:05:33.000.25-Aug-2020 134.00  171.62 4311.51 2042.13 71.58 11.00
   12:05:33.200.25-Aug-2020 134.20  171.67 4311.51 2042.13 71.58 11.00
   12:05:33.400.25-Aug-2020 134.40  171.71 4311.51 2042.13 71.58 11.00
   12:05:33.600.25-Aug-2020 134.60  171.75 4311.51 2042.13 71.58 11.00
   12:05:33.800.25-Aug-2020 134.80  171.81 4311.51 2042.13 71.58 11.00
   12:05:34.000.25-Aug-2020 135.00  171.86 4311.51 2042.13 71.58 11.00
   12:05:34.200.25-Aug-2020 135.20  171.86 4311.51 2042.13 71.58 11.00
   12:05:34.400.25-Aug-2020 135.40  171.95 4311.51 2042.13 71.58 11.00
