~Version Information
 VERS.                  2.0:   CWLS log ASCII Standard -VERSION 2.0
 WRAP.                   NO:   One line per depth step
~Well Information Block
#MNEM.UNIT     VALUE/NAME     DESCRIPTION
#---------     -----------    ---------------------------
 STRT.S             12:03:19 25-Aug-20: START TIME 12:03:19 25-Aug-20
 STOP.S             12:10:17 25-Aug-20: STOP TIME  12:10:17 25-Aug-20
 STEP.S                   0.00: STEP TIME
 NULL.                 -999.25: NULL VALUE
 DFWT.                        :  DIST FWL TEXT
 DFST.                        :  DIST FSL TEXT
 DMF .             Drill Floor:  DRILL MEAS FROM
 STIM.      09.59.28 01-Jun-20:  START TIME
 DATE.      05.00.00 28-Aug-20:  END TIME
 SPUD.               01-Jun-20:  SPUD DATE
 NREF.                    Grid:  NORTH REFERENCE
 HPTY.       Minimum Curvature:  HOLE POS TYPE
 DMOD.             Drill Model:  DRILL MOD DESC
 SVYD.                  Survey:  SURVEY DESC
 ILTD.               Lithology:  INTERP LTH DESC
 FTOP.          Formation Tops:  FORM TOPS DESC
 SON .        AZ-XX-0905455768:  JOB NUMBER
 WTYP.                Deviated:  WELL TYPE
 COMP.     BP Exploration(Caspian Sea):  COMPANY
 BASE.              Azerbaijan:  LOGGING EQUIPMENT BASE LOCATION
 REGN.                   EESSA:  REGION
 CTRY.              Azerbaijan:  COUNTRY NAME
 FLD .                     ACG:  FIELD NAME
 SRVC.          Turan Drilling:  CONTRACTOR
 WELL.                     B41:  WELL NAME
 RIG .           Central Azeri:  RIG NAME
 DCON.         Sperry Drilling:  DIRECTNL CONTR
 PDAT.          Mean Sea Level:  PERMANENT DATUM
 MDS .        Operator Entered:  MAG DATA SOURCE
 API .                        :  API NUMBER
 CNTY.                        :  COUNTY
 PROV.                        :  PROVINCE
 STAT.                        :  STATE
 UWI .                        :  UNIQUE WELL IDENTIFIER
 LOC .                        :  LOCATION
 LMF .             Drill Floor:  LOG MEASURED FROM
 TVDS.m                  43.29:  TVDSS CORRECTN
 LATI.deg                40.03:  LATITUDE
 LONG.deg                51.35:  LONGITUDE
 WHNS.m                  12.98:  WELL HEAD N/S
 WHEW.m                  -6.62:  WELL HEAD E/W
 UTMX.m              530128.28:  UTM X
 UTMY.m             4433192.49:  UTM Y
 DFWL.m                   0.00:  DISTANCE FWL
 DFSL.m                   0.00:  DISTANCE FSL
 SDEP.m                 378.00:  START DEPTH
 TDD .m                4463.01:  TOTAL DEPTH (DRILLER)
 VSDR.deg               296.18:  VERT SEC DIRECT
 GVFD.g                   1.00:  GRAVITY FIELD
 MFLD.nT              50269.00:  MAGNETIC FIELD
 MDIP.deg                59.50:  MAGNETIC DIP
 MDEC.deg                 6.44:  MAGNETIC DECL
 GRDC.deg                 0.20:  GRID CORRECTION
 AZTC.deg                 6.24:  AZM TOTAL CORR
 EPD .m                   0.00:  ELEVATION
 EGL .m                   0.00:  GROUND ELEVATION
 WDMS.m                 128.20:  WD ELEV
 APD .m                  43.29:  DEPTH ABOVE PD
 AGAP.m                  43.29:  AIR GAP
 VSEW.m                  -6.62:  VERT SEC E/W
 VSNS.m                  12.98:  VERT SEC N/S
 EKB .m                  43.29:  KB ELEVATION
 EDF .m                  43.29:  DF ELEVATION
 TDL .m                 147.00:  TOTAL DEPTH (LOGGER)
 VSC .                       0:  VS TO CLOSURE
 MAGU.                 1849241:  MAGUTM CHECKSUM
~Parameter Information Block
#MNEM.UNIT       Value        Description
#---------     -----------    ---------------------------
 AV  .mps                 0.70:  Ann Velocity 
 AZIF.deg               269.43:  Azm, Final 
 BHAT.        Rotary Steerable:  BHA Type 
 BROT.°/30m              -0.03:  Build Rotating 
 BS  .in                  8.50:  Bit Size 
 BSZ .in                  8.50:  Bit Size 
 BTPL.psig              880.00:  Bit Press Loss 
 CABU.                      No:  Customer Abuse 
 CGEO.          Parviz Guliyev:  Customer Geo 
 COMM.                     DVX:  Run Comments 1 
 TCS .hr                 64.59:  Time Ciculation Ended 
 CV  .mps                 2.17:  Crit Velocity 
 DD1 .            Nonso Okafor:  Direct Drillr 1 
 DDSV.               Geo-Pilot:  DD Service 
 DEFF.%                  98.00:  % Det Eff 
 DLRX.°/30m               0.81:  Dogleg Rot Max 
 DLSO.°/30m               0.55:  Dogleg Oriented 
 DLSX.°/30m               0.81:  Dogleg Str Max 
 DRET.      23.50.00 24-Aug-20:  Drill End Time 
 DRST.      07.34.24 22-Aug-20:  Drill Start Tim 
 DTIM.hr                 15.29:  Time Drilling 
 EDEP.m                4461.01:  End Depth 
 ENG1.       Zam Abdullah Sani:  Engineer 1 
 ENG2.         Dair Mahammadov:  Engineer 2 
 ENG3.          Rustam Gadirov:  Engineer 3 
 ETIM.      07.34.24 26-Aug-20:  End Time 
 FLOI.gpm               550.00:  Flow In 
 FLON.gpm               400.00:  Flow In Min 
 FLOS.cptm                1.00:  Fluid Loss 
 FLOX.gpm               600.00:  Flow In Max 
 FTRO.       Formation Presure:  FTWD Run Obj 
 HFLO.                      No:  High Flow 
 HPRE.                      No:  High Pressure 
 HTEM.                      No:  High Temp 
 HYDO.m                   1.80:  Hydro Offset 
 IFIN.deg                66.72:  Inc, Final 
 IMAX.deg                67.42:  Inc Max 
 IMIN.deg                66.72:  Inc Min 
 IMND.m                4408.37:  Inc Min Depth 
 IMXD.m                4323.37:  Inc Max Depth 
 JARR.                      No:  Jarring 
 LETM.      23.50.00 24-Aug-20:  Log End Time 
 LOST.hr                     0:  Lost Rig Time 
 LSTM.      07.34.24 22-Aug-20:  Log Start Time 
 MDCL.ppm             38000.00:  Mud Chlorides 
 MDES.     Inversion Oil/Synthetic:  Mud Desc 
 DFD .sg                  1.40:  Mud Density 
 MDMN.sg                  1.38:  Dens Mud Min 
 MDMX.sg                  1.41:  Dens Mud Max 
 MOIL.                    70.5:  Run Mud Oil % 
 MOWR.                   68:32:  Run Mud OWR 
 MSND.                    0.01:  Run Mud Sand % 
 MSOL.                   17.68:  Run Mud Solids% 
 DFV .spqt               77.00:  Mud Viscosity 
 MWOD.in                  6.75:  MWD Tool OD 
 MWSI.                      No:  Serv Intrp, MWD 
 OTIM.hr                159.42:  Time Operating 
 PCON.           Look Like New:  Pad Condition 
 PMAX.psia             8730.94:  Press Op, Max 
 PV  .cP                 31.00:  Mud PV 
 RUN .                     900:  Run Number 
 ROPA.m/hr               12.00:  ROP Avg 
 ROPN.m/hr                7.00:  ROP Min 
 ROPX.m/hr               17.00:  ROP Max 
 RPMA.rpm               120.00:  RPM Surface Avg 
 RPMN.rpm                60.00:  RPM Surface Min 
 RPMX.rpm               140.00:  RPM Surface Max 
 RRUN.                    L604:  Rig Run Number 
 RTIM.hr                 10.00:  Time Reaming 
 SAZI.deg               270.56:  Azm, Start 
 SDEP.m                4314.01:  Start Depth 
 SIDD.                      No:  Serv Intrp, DD 
 SINC.deg                67.42:  Inc, Start 
 SPPA.psig             3300.00:  SPP Avg 
 SPPN.psig             1750.00:  SPP Min 
 SPPX.psig             4630.00:  SPP Max 
 STIM.      11.00.00 21-Aug-20:  Start Time 
 SVCS.                 DD, MWD:  Services 
 SVER.                    9.20:  Sperry Version 
 TDAT.m                4461.01:  Tot Depth Attmp 
 TDDF.                      No:  Trip for DD 
 TDLG.m                 147.00:  Tot Depth Loggd 
 TFF .                      No:  Trip for Fail 
 TQAA.f-kp               16.00:  Torque Abs Avg 
 TQAN.f-kp               14.00:  Torque Abs Min 
 TQAX.f-kp               20.00:  Torque Abs Max 
 TRRT.°/30m              -0.14:  Turn Rotating 
 MRT .                    HCIM:  Maximum Recorded Temperature 
 TTMX.degC               78.00:  Max Tool Temp 
 VS01.                90515425:  Virtual Str1 SN 
 VS02.                90545184:  Virtual Str2 SN 
 VS03.                90527809:  Virtual Str3 SN 
 VS04.                90515232:  Virtual Str4 SN 
 VS05.                90621207:  Virtual Str5 SN 
 VS06.                90619737:  Virtual Str6 SN 
 WBMN.klb                 2.00:  WOB Min 
 WITN.          Keith Dischler:  Customer Rep 
 WITN.           Faig Mammadov:  Customer Rep 2 
 WOBA.klb                 5.00:  WOB Avg 
 WOBX.klb                 8.00:  WOB Max 
 YP  .lhf2               32.00:  Yield Point 
~Curve Information Block
#MNEM.UNIT                 API CODE     Curve Description
#---------               -----------    ---------------------------
 TIME.HHMMSS            00 000 000 000:  GT Time & Date
 GTET.sec               00 000 000 000:  GT Elapsed Test Time
 GTPQH.psia             00 000 000 000:  GT HR Quartz Pressure
 GTDEPTH.m              00 000 000 000:  GT Depth
 GTTVD.m                00 000 000 000:  GT True Vertical Depth
 GTTQ.degC              00 000 000 000:  GT Quartz Temperature
 GTTN.NONE              00 000 000 000:  GT Test Number
#Other Information
#
#WARRANTY: Halliburton will use its best efforts to furnish customers with 
#accurate information and interpretations that are part of, and incident to, the services 
#provided.  However, Halliburton cannot and does not warrant the accuracy 
#or correctness of such information and interpretations.  Under no circumstances should any 
#such information or interpretation be relied upon as the sole basis for any drilling, 
#completion, production, or financial decision or any procedure involving any risk to the 
#safety of any drilling venture, drilling rig or its crew or any other third party.  The 
#Customer has full responsibility for all drilling, completion and production operation.  
#Halliburton makes no representations or warranties, either expressed or 
#implied, including, but not limited to, the implied warranties of merchantability or fitness 
#for a particular purpose, with respect to the services rendered.  In no event will 
#Halliburton be liable for failure to obtain any particular results or for 
#any damages, including, but not limited to, indirect, special or consequential damages, 
#resulting from the use of any information or interpretation provided by Halliburton.
#
~A           TIME            GTET   GTPQH  GTDEPTH  GTTVD  GTTQ  GTTN  
# ...
   12:04:49.400.25-Aug-2020  90.40  161.45 4311.51 2042.13 71.55 11.00
   12:04:49.600.25-Aug-2020  90.60  161.51 4311.51 2042.13 71.55 11.00
   12:04:49.800.25-Aug-2020  90.80  161.63 4311.51 2042.13 71.55 11.00
   12:04:50.000.25-Aug-2020  91.00  161.74 4311.51 2042.13 71.55 11.00
   12:04:50.200.25-Aug-2020  91.20  161.74 4311.51 2042.13 71.55 11.00
   12:04:50.400.25-Aug-2020  91.40  161.90 4311.51 2042.13 71.55 11.00
   12:04:50.600.25-Aug-2020  91.60  161.94 4311.51 2042.13 71.55 11.00
   12:04:50.800.25-Aug-2020  91.80  162.00 4311.51 2042.13 71.55 11.00
   12:04:51.000.25-Aug-2020  92.00  162.10 4311.51 2042.13 71.55 11.00
   12:04:51.200.25-Aug-2020  92.20  162.10 4311.51 2042.13 71.55 11.00
   12:04:51.400.25-Aug-2020  92.40  162.30 4311.51 2042.13 71.55 11.00
   12:04:51.600.25-Aug-2020  92.60  162.41 4311.51 2042.13 71.55 11.00
   12:04:51.800.25-Aug-2020  92.80  162.41 4311.51 2042.13 71.55 11.00
   12:04:52.000.25-Aug-2020  93.00  162.47 4311.51 2042.13 71.55 11.00
   12:04:52.200.25-Aug-2020  93.20  162.53 4311.51 2042.13 71.55 11.00
   12:04:52.400.25-Aug-2020  93.40  162.64 4311.51 2042.13 71.55 11.00
   12:04:52.600.25-Aug-2020  93.60  162.73 4311.51 2042.13 71.56 11.00
   12:04:52.800.25-Aug-2020  93.80  162.78 4311.51 2042.13 71.56 11.00
   12:04:53.000.25-Aug-2020  94.00  162.82 4311.51 2042.13 71.56 11.00
   12:04:53.200.25-Aug-2020  94.20  162.86 4311.51 2042.13 71.56 11.00
   12:04:53.400.25-Aug-2020  94.40  162.97 4311.51 2042.13 71.56 11.00
   12:04:53.600.25-Aug-2020  94.60  163.06 4311.51 2042.13 71.56 11.00
   12:04:53.800.25-Aug-2020  94.80  163.16 4311.51 2042.13 71.56 11.00
   12:04:54.000.25-Aug-2020  95.00  163.24 4311.51 2042.13 71.56 11.00
   12:04:54.200.25-Aug-2020  95.20  163.33 4311.51 2042.13 71.56 11.00
   12:04:54.400.25-Aug-2020  95.40  163.29 4311.51 2042.13 71.56 11.00
   12:04:54.600.25-Aug-2020  95.60  163.32 4311.51 2042.13 71.56 11.00
   12:04:54.800.25-Aug-2020  95.80  163.43 4311.51 2042.13 71.56 11.00
   12:04:55.000.25-Aug-2020  96.00  163.52 4311.51 2042.13 71.56 11.00
   12:04:55.200.25-Aug-2020  96.20  163.60 4311.51 2042.13 71.56 11.00
   12:04:55.400.25-Aug-2020  96.40  163.69 4311.51 2042.13 71.56 11.00
   12:04:55.600.25-Aug-2020  96.60  163.76 4311.51 2042.13 71.56 11.00
   12:04:55.800.25-Aug-2020  96.80  163.84 4311.51 2042.13 71.56 11.00
   12:04:56.000.25-Aug-2020  97.00  163.92 4311.51 2042.13 71.56 11.00
   12:04:56.200.25-Aug-2020  97.20  163.92 4311.51 2042.13 71.56 11.00
   12:04:56.400.25-Aug-2020  97.40  164.05 4311.51 2042.13 71.56 11.00
   12:04:56.600.25-Aug-2020  97.60  164.11 4311.51 2042.13 71.56 11.00
   12:04:56.800.25-Aug-2020  97.80  164.18 4311.51 2042.13 71.56 11.00
   12:04:57.000.25-Aug-2020  98.00  164.23 4311.51 2042.13 71.56 11.00
   12:04:57.200.25-Aug-2020  98.20  164.29 4311.51 2042.13 71.56 11.00
   12:04:57.400.25-Aug-2020  98.40  164.35 4311.51 2042.13 71.56 11.00
   12:04:57.600.25-Aug-2020  98.60  164.42 4311.51 2042.13 71.56 11.00
   12:04:57.800.25-Aug-2020  98.80  164.48 4311.51 2042.13 71.56 11.00
   12:04:58.000.25-Aug-2020  99.00  164.40 4311.51 2042.13 71.56 11.00
   12:04:58.200.25-Aug-2020  99.20  164.40 4311.51 2042.13 71.56 11.00
   12:04:58.400.25-Aug-2020  99.40  164.51 4311.51 2042.13 71.56 11.00
   12:04:58.600.25-Aug-2020  99.60  164.59 4311.51 2042.13 71.56 11.00
   12:04:58.800.25-Aug-2020  99.80  164.67 4311.51 2042.13 71.56 11.00
   12:04:59.000.25-Aug-2020 100.00  164.74 4311.51 2042.13 71.56 11.00
   12:04:59.200.25-Aug-2020 100.20  164.74 4311.51 2042.13 71.56 11.00
   12:04:59.400.25-Aug-2020 100.40  164.88 4311.51 2042.13 71.56 11.00
   12:04:59.600.25-Aug-2020 100.60  164.95 4311.51 2042.13 71.56 11.00
   12:04:59.800.25-Aug-2020 100.80  165.01 4311.51 2042.13 71.56 11.00
   12:05:00.000.25-Aug-2020 101.00  165.08 4311.51 2042.13 71.56 11.00
   12:05:00.200.25-Aug-2020 101.20  165.14 4311.51 2042.13 71.56 11.00
   12:05:00.400.25-Aug-2020 101.40  165.20 4311.51 2042.13 71.56 11.00
   12:05:00.600.25-Aug-2020 101.60  165.26 4311.51 2042.13 71.56 11.00
   12:05:00.800.25-Aug-2020 101.80  165.31 4311.51 2042.13 71.56 11.00
   12:05:01.000.25-Aug-2020 102.00  165.36 4311.51 2042.13 71.56 11.00
   12:05:01.200.25-Aug-2020 102.20  165.30 4311.51 2042.13 71.56 11.00
   12:05:01.400.25-Aug-2020 102.40  165.30 4311.51 2042.13 71.56 11.00
   12:05:01.600.25-Aug-2020 102.60  165.38 4311.51 2042.13 71.56 11.00
   12:05:01.800.25-Aug-2020 102.80  165.46 4311.51 2042.13 71.56 11.00
   12:05:02.000.25-Aug-2020 103.00  165.53 4311.51 2042.13 71.56 11.00
   12:05:02.200.25-Aug-2020 103.20  165.53 4311.51 2042.13 71.56 11.00
   12:05:02.400.25-Aug-2020 103.40  165.58 4311.51 2042.13 71.56 11.00
   12:05:02.600.25-Aug-2020 103.60  165.63 4311.51 2042.13 71.56 11.00
   12:05:02.800.25-Aug-2020 103.80  165.69 4311.51 2042.13 71.56 11.00
   12:05:03.000.25-Aug-2020 104.00  165.77 4311.51 2042.13 71.56 11.00
   12:05:03.200.25-Aug-2020 104.20  165.77 4311.51 2042.13 71.56 11.00
   12:05:03.400.25-Aug-2020 104.40  165.90 4311.51 2042.13 71.56 11.00
   12:05:03.600.25-Aug-2020 104.60  165.92 4311.51 2042.13 71.56 11.00
   12:05:03.800.25-Aug-2020 104.80  165.94 4311.51 2042.13 71.56 11.00
   12:05:04.000.25-Aug-2020 105.00  165.97 4311.51 2042.13 71.56 11.00
   12:05:04.200.25-Aug-2020 105.20  166.04 4311.51 2042.13 71.56 11.00
   12:05:04.400.25-Aug-2020 105.40  166.12 4311.51 2042.13 71.56 11.00
   12:05:04.600.25-Aug-2020 105.60  166.10 4311.51 2042.13 71.56 11.00
   12:05:04.800.25-Aug-2020 105.80  166.15 4311.51 2042.13 71.56 11.00
   12:05:05.000.25-Aug-2020 106.00  166.23 4311.51 2042.13 71.56 11.00
   12:05:05.200.25-Aug-2020 106.20  166.29 4311.51 2042.13 71.56 11.00
   12:05:05.400.25-Aug-2020 106.40  166.36 4311.51 2042.13 71.56 11.00
   12:05:05.600.25-Aug-2020 106.60  166.41 4311.51 2042.13 71.56 11.00
   12:05:05.800.25-Aug-2020 106.80  166.39 4311.51 2042.13 71.57 11.00
   12:05:06.000.25-Aug-2020 107.00  166.45 4311.51 2042.13 71.56 11.00
   12:05:06.200.25-Aug-2020 107.20  166.45 4311.51 2042.13 71.56 11.00
   12:05:06.400.25-Aug-2020 107.40  166.59 4311.51 2042.13 71.57 11.00
   12:05:06.600.25-Aug-2020 107.60  166.65 4311.51 2042.13 71.57 11.00
   12:05:06.800.25-Aug-2020 107.80  166.71 4311.51 2042.13 71.57 11.00
   12:05:07.000.25-Aug-2020 108.00  166.76 4311.51 2042.13 71.57 11.00
   12:05:07.200.25-Aug-2020 108.20  166.76 4311.51 2042.13 71.57 11.00
   12:05:07.400.25-Aug-2020 108.40  166.87 4311.51 2042.13 71.57 11.00
   12:05:07.600.25-Aug-2020 108.60  166.93 4311.51 2042.13 71.57 11.00
   12:05:07.800.25-Aug-2020 108.80  166.98 4311.51 2042.13 71.57 11.00
   12:05:08.000.25-Aug-2020 109.00  167.03 4311.51 2042.13 71.57 11.00
   12:05:08.200.25-Aug-2020 109.20  167.09 4311.51 2042.13 71.57 11.00
   12:05:08.400.25-Aug-2020 109.40  167.14 4311.51 2042.13 71.57 11.00
   12:05:08.600.25-Aug-2020 109.60  167.18 4311.51 2042.13 71.57 11.00
   12:05:08.800.25-Aug-2020 109.80  167.23 4311.51 2042.13 71.57 11.00
   12:05:09.000.25-Aug-2020 110.00  167.28 4311.51 2042.13 71.57 11.00
   12:05:09.200.25-Aug-2020 110.20  167.32 4311.51 2042.13 71.57 11.00
   12:05:09.400.25-Aug-2020 110.40  167.26 4311.51 2042.13 71.57 11.00
   12:05:09.600.25-Aug-2020 110.60  167.28 4311.51 2042.13 71.57 11.00
   12:05:09.800.25-Aug-2020 110.80  167.34 4311.51 2042.13 71.57 11.00
   12:05:10.000.25-Aug-2020 111.00  167.40 4311.51 2042.13 71.57 11.00
   12:05:10.200.25-Aug-2020 111.20  167.40 4311.51 2042.13 71.57 11.00
   12:05:10.400.25-Aug-2020 111.40  167.51 4311.51 2042.13 71.57 11.00
   12:05:10.600.25-Aug-2020 111.60  167.57 4311.51 2042.13 71.57 11.00
   12:05:10.800.25-Aug-2020 111.80  167.61 4311.51 2042.13 71.57 11.00
   12:05:11.000.25-Aug-2020 112.00  167.67 4311.51 2042.13 71.57 11.00
   12:05:11.200.25-Aug-2020 112.20  167.67 4311.51 2042.13 71.57 11.00
   12:05:11.400.25-Aug-2020 112.40  167.76 4311.51 2042.13 71.57 11.00
   12:05:11.600.25-Aug-2020 112.60  167.81 4311.51 2042.13 71.57 11.00
   12:05:11.800.25-Aug-2020 112.80  167.86 4311.51 2042.13 71.57 11.00
