~Version Information
 VERS.                  2.0:   CWLS log ASCII Standard -VERSION 2.0
 WRAP.                   NO:   One line per depth step
~Well Information Block
#MNEM.UNIT     VALUE/NAME     DESCRIPTION
#---------     -----------    ---------------------------
 STRT.S             08:23:53 25-Aug-20: START TIME 08:23:53 25-Aug-20
 STOP.S             08:30:51 25-Aug-20: STOP TIME  08:30:51 25-Aug-20
 STEP.S                   0.00: STEP TIME
 NULL.                 -999.25: NULL VALUE
 DFWT.                        :  DIST FWL TEXT
 DFST.                        :  DIST FSL TEXT
 DMF .             Drill Floor:  DRILL MEAS FROM
 STIM.      09.59.28 01-Jun-20:  START TIME
 DATE.      05.00.00 28-Aug-20:  END TIME
 SPUD.               01-Jun-20:  SPUD DATE
 NREF.                    Grid:  NORTH REFERENCE
 HPTY.       Minimum Curvature:  HOLE POS TYPE
 DMOD.             Drill Model:  DRILL MOD DESC
 SVYD.                  Survey:  SURVEY DESC
 ILTD.               Lithology:  INTERP LTH DESC
 FTOP.          Formation Tops:  FORM TOPS DESC
 SON .        AZ-XX-0905455768:  JOB NUMBER
 WTYP.                Deviated:  WELL TYPE
 COMP.     BP Exploration(Caspian Sea):  COMPANY
 BASE.              Azerbaijan:  LOGGING EQUIPMENT BASE LOCATION
 REGN.                   EESSA:  REGION
 CTRY.              Azerbaijan:  COUNTRY NAME
 FLD .                     ACG:  FIELD NAME
 SRVC.          Turan Drilling:  CONTRACTOR
 WELL.                     B41:  WELL NAME
 RIG .           Central Azeri:  RIG NAME
 DCON.         Sperry Drilling:  DIRECTNL CONTR
 PDAT.          Mean Sea Level:  PERMANENT DATUM
 MDS .        Operator Entered:  MAG DATA SOURCE
 API .                        :  API NUMBER
 CNTY.                        :  COUNTY
 PROV.                        :  PROVINCE
 STAT.                        :  STATE
 UWI .                        :  UNIQUE WELL IDENTIFIER
 LOC .                        :  LOCATION
 LMF .             Drill Floor:  LOG MEASURED FROM
 TVDS.m                  43.29:  TVDSS CORRECTN
 LATI.deg                40.03:  LATITUDE
 LONG.deg                51.35:  LONGITUDE
 WHNS.m                  12.98:  WELL HEAD N/S
 WHEW.m                  -6.62:  WELL HEAD E/W
 UTMX.m              530128.28:  UTM X
 UTMY.m             4433192.49:  UTM Y
 DFWL.m                   0.00:  DISTANCE FWL
 DFSL.m                   0.00:  DISTANCE FSL
 SDEP.m                 378.00:  START DEPTH
 TDD .m                4463.01:  TOTAL DEPTH (DRILLER)
 VSDR.deg               296.18:  VERT SEC DIRECT
 GVFD.g                   1.00:  GRAVITY FIELD
 MFLD.nT              50269.00:  MAGNETIC FIELD
 MDIP.deg                59.50:  MAGNETIC DIP
 MDEC.deg                 6.44:  MAGNETIC DECL
 GRDC.deg                 0.20:  GRID CORRECTION
 AZTC.deg                 6.24:  AZM TOTAL CORR
 EPD .m                   0.00:  ELEVATION
 EGL .m                   0.00:  GROUND ELEVATION
 WDMS.m                 128.20:  WD ELEV
 APD .m                  43.29:  DEPTH ABOVE PD
 AGAP.m                  43.29:  AIR GAP
 VSEW.m                  -6.62:  VERT SEC E/W
 VSNS.m                  12.98:  VERT SEC N/S
 EKB .m                  43.29:  KB ELEVATION
 EDF .m                  43.29:  DF ELEVATION
 TDL .m                 147.00:  TOTAL DEPTH (LOGGER)
 VSC .                       0:  VS TO CLOSURE
 MAGU.                 1849241:  MAGUTM CHECKSUM
~Parameter Information Block
#MNEM.UNIT       Value        Description
#---------     -----------    ---------------------------
 AV  .mps                 0.70:  Ann Velocity 
 AZIF.deg               269.43:  Azm, Final 
 BHAT.        Rotary Steerable:  BHA Type 
 BROT.°/30m              -0.03:  Build Rotating 
 BS  .in                  8.50:  Bit Size 
 BSZ .in                  8.50:  Bit Size 
 BTPL.psig              880.00:  Bit Press Loss 
 CABU.                      No:  Customer Abuse 
 CGEO.          Parviz Guliyev:  Customer Geo 
 TCS .hr                 64.59:  Time Ciculation Ended 
 CV  .mps                 2.17:  Crit Velocity 
 DD1 .            Nonso Okafor:  Direct Drillr 1 
 DDSV.               Geo-Pilot:  DD Service 
 DEFF.%                  98.00:  % Det Eff 
 DLRX.°/30m               0.81:  Dogleg Rot Max 
 DLSO.°/30m               0.55:  Dogleg Oriented 
 DLSX.°/30m               0.81:  Dogleg Str Max 
 DRET.      23.50.00 24-Aug-20:  Drill End Time 
 DRST.      07.34.24 22-Aug-20:  Drill Start Tim 
 DTIM.hr                 15.29:  Time Drilling 
 EDEP.m                4461.01:  End Depth 
 ENG1.       Zam Abdullah Sani:  Engineer 1 
 ENG2.         Dair Mahammadov:  Engineer 2 
 ENG3.          Rustam Gadirov:  Engineer 3 
 ETIM.      07.34.24 26-Aug-20:  End Time 
 FLOI.gpm               550.00:  Flow In 
 FLON.gpm               400.00:  Flow In Min 
 FLOS.cptm                1.00:  Fluid Loss 
 FLOX.gpm               600.00:  Flow In Max 
 FTRO.       Formation Presure:  FTWD Run Obj 
 HFLO.                      No:  High Flow 
 HPRE.                      No:  High Pressure 
 HTEM.                      No:  High Temp 
 HYDO.m                   1.80:  Hydro Offset 
 IFIN.deg                66.72:  Inc, Final 
 IMAX.deg                67.42:  Inc Max 
 IMIN.deg                66.72:  Inc Min 
 IMND.m                4408.37:  Inc Min Depth 
 IMXD.m                4323.37:  Inc Max Depth 
 JARR.                      No:  Jarring 
 LETM.      23.50.00 24-Aug-20:  Log End Time 
 LOST.hr                     0:  Lost Rig Time 
 LSTM.      07.34.24 22-Aug-20:  Log Start Time 
 MDCL.ppm             38000.00:  Mud Chlorides 
 MDES.     Inversion Oil/Synthetic:  Mud Desc 
 DFD .sg                  1.40:  Mud Density 
 MDMN.sg                  1.38:  Dens Mud Min 
 MDMX.sg                  1.41:  Dens Mud Max 
 MOIL.                    70.5:  Run Mud Oil % 
 MOWR.                   68:32:  Run Mud OWR 
 MSND.                    0.01:  Run Mud Sand % 
 MSOL.                   17.68:  Run Mud Solids% 
 DFV .spqt               77.00:  Mud Viscosity 
 MWOD.in                  6.75:  MWD Tool OD 
 MWSI.                      No:  Serv Intrp, MWD 
 OTIM.hr                159.42:  Time Operating 
 PCON.           Look Like New:  Pad Condition 
 PMAX.psia             8730.94:  Press Op, Max 
 PV  .cP                 31.00:  Mud PV 
 RUN .                     900:  Run Number 
 ROPA.m/hr               12.00:  ROP Avg 
 ROPN.m/hr                7.00:  ROP Min 
 ROPX.m/hr               17.00:  ROP Max 
 RPMA.rpm               120.00:  RPM Surface Avg 
 RPMN.rpm                60.00:  RPM Surface Min 
 RPMX.rpm               140.00:  RPM Surface Max 
 RRUN.                    L604:  Rig Run Number 
 RTIM.hr                 10.00:  Time Reaming 
 SAZI.deg               270.56:  Azm, Start 
 SDEP.m                4314.01:  Start Depth 
 SIDD.                      No:  Serv Intrp, DD 
 SINC.deg                67.42:  Inc, Start 
 SPPA.psig             3300.00:  SPP Avg 
 SPPN.psig             1750.00:  SPP Min 
 SPPX.psig             4630.00:  SPP Max 
 STIM.      11.00.00 21-Aug-20:  Start Time 
 SVCS.                 DD, MWD:  Services 
 SVER.                    9.20:  Sperry Version 
 TDAT.m                4461.01:  Tot Depth Attmp 
 TDDF.                      No:  Trip for DD 
 TDLG.m                 147.00:  Tot Depth Loggd 
 TFF .                      No:  Trip for Fail 
 TQAA.f-kp               16.00:  Torque Abs Avg 
 TQAN.f-kp               14.00:  Torque Abs Min 
 TQAX.f-kp               20.00:  Torque Abs Max 
 TRRT.°/30m              -0.14:  Turn Rotating 
 MRT .                    HCIM:  Maximum Recorded Temperature 
 TTMX.degC               78.00:  Max Tool Temp 
 VS01.                90515425:  Virtual Str1 SN 
 VS02.                90545184:  Virtual Str2 SN 
 VS03.                90527809:  Virtual Str3 SN 
 VS04.                90515232:  Virtual Str4 SN 
 VS05.                90621207:  Virtual Str5 SN 
 VS06.                90619737:  Virtual Str6 SN 
 WBMN.klb                 2.00:  WOB Min 
 WITN.          Keith Dischler:  Customer Rep 
 WITN.           Faig Mammadov:  Customer Rep 2 
 WOBA.klb                 5.00:  WOB Avg 
 WOBX.klb                 8.00:  WOB Max 
 YP  .lhf2               32.00:  Yield Point 
~Curve Information Block
#MNEM.UNIT                 API CODE     Curve Description
#---------               -----------    ---------------------------
 TIME.HHMMSS            00 000 000 000:  GT Time & Date
 GTET.sec               00 000 000 000:  GT Elapsed Test Time
 GTPQH.psia             00 000 000 000:  GT HR Quartz Pressure
 GTDEPTH.m              00 000 000 000:  GT Depth
 GTTVD.m                00 000 000 000:  GT True Vertical Depth
 GTTQ.degC              00 000 000 000:  GT Quartz Temperature
 GTTN.NONE              00 000 000 000:  GT Test Number
#Other Information
#
#WARRANTY: Halliburton will use its best efforts to furnish customers with 
#accurate information and interpretations that are part of, and incident to, the services 
#provided.  However, Halliburton cannot and does not warrant the accuracy 
#or correctness of such information and interpretations.  Under no circumstances should any 
#such information or interpretation be relied upon as the sole basis for any drilling, 
#completion, production, or financial decision or any procedure involving any risk to the 
#safety of any drilling venture, drilling rig or its crew or any other third party.  The 
#Customer has full responsibility for all drilling, completion and production operation.  
#Halliburton makes no representations or warranties, either expressed or 
#implied, including, but not limited to, the implied warranties of merchantability or fitness 
#for a particular purpose, with respect to the services rendered.  In no event will 
#Halliburton be liable for failure to obtain any particular results or for 
#any damages, including, but not limited to, indirect, special or consequential damages, 
#resulting from the use of any information or interpretation provided by Halliburton.
#
~A           TIME            GTET   GTPQH  GTDEPTH  GTTVD  GTTQ  GTTN 
# ...
   08:24:39.000.25-Aug-2020  46.00 3301.70 4372.51 2065.92 72.17 6.00
   08:24:39.200.25-Aug-2020  46.20 3301.70 4372.51 2065.92 72.17 6.00
   08:24:39.400.25-Aug-2020  46.40 3290.49 4372.51 2065.92 72.17 6.00
   08:24:39.600.25-Aug-2020  46.60 3286.75 4372.51 2065.92 72.17 6.00
   08:24:39.800.25-Aug-2020  46.80 3283.64 4372.51 2065.92 72.17 6.00
   08:24:40.000.25-Aug-2020  47.00 3281.07 4372.51 2065.92 72.16 6.00
   08:24:40.200.25-Aug-2020  47.20 3281.07 4372.51 2065.92 72.16 6.00
   08:24:40.400.25-Aug-2020  47.40 3275.98 4372.51 2065.92 72.16 6.00
   08:24:40.600.25-Aug-2020  47.60 3273.04 4372.51 2065.92 72.16 6.00
   08:24:40.800.25-Aug-2020  47.80 3269.46 4372.51 2065.92 72.16 6.00
   08:24:41.000.25-Aug-2020  48.00 3265.58 4372.51 2065.92 72.16 6.00
   08:24:41.200.25-Aug-2020  48.20 3265.58 4372.51 2065.92 72.16 6.00
   08:24:41.400.25-Aug-2020  48.40 3259.18 4372.51 2065.92 72.15 6.00
   08:24:41.600.25-Aug-2020  48.60 3256.75 4372.51 2065.92 72.15 6.00
   08:24:41.800.25-Aug-2020  48.80 3255.75 4372.51 2065.92 72.15 6.00
   08:24:42.000.25-Aug-2020  49.00 3252.84 4372.51 2065.92 72.15 6.00
   08:24:42.200.25-Aug-2020  49.20 3252.84 4372.51 2065.92 72.15 6.00
   08:24:42.400.25-Aug-2020  49.40 3249.09 4372.51 2065.92 72.15 6.00
   08:24:42.600.25-Aug-2020  49.60 3250.69 4372.51 2065.92 72.15 6.00
   08:24:42.800.25-Aug-2020  49.80 3247.81 4372.51 2065.92 72.15 6.00
   08:24:43.000.25-Aug-2020  50.00 3246.62 4372.51 2065.92 72.15 6.00
   08:24:43.200.25-Aug-2020  50.20 3246.62 4372.51 2065.92 72.15 6.00
   08:24:43.400.25-Aug-2020  50.40 3243.22 4372.51 2065.92 72.14 6.00
   08:24:43.600.25-Aug-2020  50.60 3240.28 4372.51 2065.92 72.14 6.00
   08:24:43.800.25-Aug-2020  50.80 3242.66 4372.51 2065.92 72.14 6.00
   08:24:44.000.25-Aug-2020  51.00 3243.87 4372.51 2065.92 72.14 6.00
   08:24:44.200.25-Aug-2020  51.20 3243.87 4372.51 2065.92 72.14 6.00
   08:24:44.400.25-Aug-2020  51.40 3241.10 4372.51 2065.92 72.14 6.00
   08:24:44.600.25-Aug-2020  51.60 3240.03 4372.51 2065.92 72.14 6.00
   08:24:44.800.25-Aug-2020  51.80 3244.54 4372.51 2065.92 72.14 6.00
   08:24:45.000.25-Aug-2020  52.00 3245.51 4372.51 2065.92 72.14 6.00
   08:24:45.200.25-Aug-2020  52.20 3245.51 4372.51 2065.92 72.14 6.00
   08:24:45.400.25-Aug-2020  52.40 3245.51 4372.51 2065.92 72.14 6.00
   08:24:45.600.25-Aug-2020  52.60 3244.59 4372.51 2065.92 72.14 6.00
   08:24:45.800.25-Aug-2020  52.80 3242.93 4372.51 2065.92 72.13 6.00
   08:24:46.000.25-Aug-2020  53.00 3241.58 4372.51 2065.92 72.13 6.00
   08:24:46.200.25-Aug-2020  53.20 3241.58 4372.51 2065.92 72.13 6.00
   08:24:46.400.25-Aug-2020  53.40 3242.40 4372.51 2065.92 72.13 6.00
   08:24:46.600.25-Aug-2020  53.60 3277.19 4372.51 2065.92 72.13 6.00
   08:24:46.800.25-Aug-2020  53.80 3357.57 4372.51 2065.92 72.13 6.00
   08:24:47.000.25-Aug-2020  54.00 3358.92 4372.51 2065.92 72.13 6.00
   08:24:47.200.25-Aug-2020  54.20 3358.92 4372.51 2065.92 72.13 6.00
   08:24:47.400.25-Aug-2020  54.40 3359.14 4372.51 2065.92 72.13 6.00
   08:24:47.600.25-Aug-2020  54.60 3359.29 4372.51 2065.92 72.13 6.00
   08:24:47.800.25-Aug-2020  54.80 3359.17 4372.51 2065.92 72.13 6.00
   08:24:48.000.25-Aug-2020  55.00 3359.17 4372.51 2065.92 72.13 6.00
   08:24:48.200.25-Aug-2020  55.20 3359.17 4372.51 2065.92 72.13 6.00
   08:24:48.400.25-Aug-2020  55.40 3359.33 4372.51 2065.92 72.13 6.00
   08:24:48.600.25-Aug-2020  55.60 3359.35 4372.51 2065.92 72.13 6.00
   08:24:48.800.25-Aug-2020  55.80 3359.39 4372.51 2065.92 72.13 6.00
   08:24:49.000.25-Aug-2020  56.00 3359.43 4372.51 2065.92 72.13 6.00
   08:24:49.200.25-Aug-2020  56.20 3359.43 4372.51 2065.92 72.13 6.00
   08:24:49.400.25-Aug-2020  56.40 3359.47 4372.51 2065.92 72.13 6.00
   08:24:49.600.25-Aug-2020  56.60 3359.50 4372.51 2065.92 72.13 6.00
   08:24:49.800.25-Aug-2020  56.80 3359.53 4372.51 2065.92 72.13 6.00
   08:24:50.000.25-Aug-2020  57.00 3359.53 4372.51 2065.92 72.13 6.00
   08:24:50.200.25-Aug-2020  57.20 3359.53 4372.51 2065.92 72.13 6.00
   08:24:50.400.25-Aug-2020  57.40 3359.48 4372.51 2065.92 72.13 6.00
   08:24:50.600.25-Aug-2020  57.60 3359.78 4372.51 2065.92 72.13 6.00
   08:24:50.800.25-Aug-2020  57.80 3359.23 4372.51 2065.92 72.13 6.00
   08:24:51.000.25-Aug-2020  58.00 3359.29 4372.51 2065.92 72.13 6.00
   08:24:51.200.25-Aug-2020  58.20 3359.29 4372.51 2065.92 72.13 6.00
   08:24:51.400.25-Aug-2020  58.40 3359.47 4372.51 2065.92 72.13 6.00
   08:24:51.600.25-Aug-2020  58.60 3359.14 4372.51 2065.92 72.13 6.00
   08:24:51.800.25-Aug-2020  58.80 3359.86 4372.51 2065.92 72.13 6.00
   08:24:52.000.25-Aug-2020  59.00 3359.45 4372.51 2065.92 72.13 6.00
   08:24:52.200.25-Aug-2020  59.20 3359.45 4372.51 2065.92 72.13 6.00
   08:24:52.400.25-Aug-2020  59.40 3359.46 4372.51 2065.92 72.13 6.00
   08:24:52.600.25-Aug-2020  59.60 3359.52 4372.51 2065.92 72.13 6.00
   08:24:52.800.25-Aug-2020  59.80 3359.53 4372.51 2065.92 72.13 6.00
   08:24:53.000.25-Aug-2020  60.00 3359.46 4372.51 2065.92 72.13 6.00
   08:24:53.200.25-Aug-2020  60.20 3359.46 4372.51 2065.92 72.13 6.00
   08:24:53.400.25-Aug-2020  60.40 3359.11 4372.51 2065.92 72.13 6.00
   08:24:53.600.25-Aug-2020  60.60 3359.36 4372.51 2065.92 72.13 6.00
   08:24:53.800.25-Aug-2020  60.80 3359.52 4372.51 2065.92 72.13 6.00
   08:24:54.000.25-Aug-2020  61.00 3359.50 4372.51 2065.92 72.13 6.00
   08:24:54.200.25-Aug-2020  61.20 3359.50 4372.51 2065.92 72.13 6.00
   08:24:54.400.25-Aug-2020  61.40 3359.18 4372.51 2065.92 72.13 6.00
   08:24:54.600.25-Aug-2020  61.60 3359.91 4372.51 2065.92 72.13 6.00
   08:24:54.800.25-Aug-2020  61.80 3359.38 4372.51 2065.92 72.13 6.00
   08:24:55.000.25-Aug-2020  62.00 3359.42 4372.51 2065.92 72.13 6.00
   08:24:55.200.25-Aug-2020  62.20 3359.42 4372.51 2065.92 72.13 6.00
   08:24:55.400.25-Aug-2020  62.40 3359.58 4372.51 2065.92 72.13 6.00
   08:24:55.600.25-Aug-2020  62.60 3359.57 4372.51 2065.92 72.13 6.00
   08:24:55.800.25-Aug-2020  62.80 3359.58 4372.51 2065.92 72.13 6.00
   08:24:56.000.25-Aug-2020  63.00 3359.25 4372.51 2065.92 72.13 6.00
   08:24:56.200.25-Aug-2020  63.20 3359.25 4372.51 2065.92 72.13 6.00
   08:24:56.400.25-Aug-2020  63.40 3359.71 4372.51 2065.92 72.13 6.00
   08:24:56.600.25-Aug-2020  63.60 3359.54 4372.51 2065.92 72.13 6.00
   08:24:56.800.25-Aug-2020  63.80 3359.50 4372.51 2065.92 72.13 6.00
   08:24:57.000.25-Aug-2020  64.00 3359.61 4372.51 2065.92 72.13 6.00
   08:24:57.200.25-Aug-2020  64.20 3359.61 4372.51 2065.92 72.13 6.00
   08:24:57.400.25-Aug-2020  64.40 3359.60 4372.51 2065.92 72.13 6.00
   08:24:57.600.25-Aug-2020  64.60 3359.63 4372.51 2065.92 72.13 6.00
   08:24:57.800.25-Aug-2020  64.80 3359.65 4372.51 2065.92 72.13 6.00
   08:24:58.000.25-Aug-2020  65.00 3359.66 4372.51 2065.92 72.13 6.00
   08:24:58.200.25-Aug-2020  65.20 3359.66 4372.51 2065.92 72.13 6.00
   08:24:58.400.25-Aug-2020  65.40 3359.68 4372.51 2065.92 72.13 6.00
   08:24:58.600.25-Aug-2020  65.60 3359.70 4372.51 2065.92 72.13 6.00
   08:24:58.800.25-Aug-2020  65.80 3359.70 4372.51 2065.92 72.13 6.00
   08:24:59.000.25-Aug-2020  66.00 3359.71 4372.51 2065.92 72.13 6.00
   08:24:59.200.25-Aug-2020  66.20 3359.71 4372.51 2065.92 72.13 6.00
   08:24:59.400.25-Aug-2020  66.40 3359.72 4372.51 2065.92 72.13 6.00
   08:24:59.600.25-Aug-2020  66.60 3359.63 4372.51 2065.92 72.13 6.00
   08:24:59.800.25-Aug-2020  66.80 3360.06 4372.51 2065.92 72.13 6.00
   08:25:00.000.25-Aug-2020  67.00 3359.36 4372.51 2065.92 72.13 6.00
   08:25:00.200.25-Aug-2020  67.20 3359.36 4372.51 2065.92 72.13 6.00
   08:25:00.400.25-Aug-2020  67.40 3359.64 4372.51 2065.92 72.13 6.00
   08:25:00.600.25-Aug-2020  67.60 3359.60 4372.51 2065.92 72.13 6.00
   08:25:00.800.25-Aug-2020  67.80 3359.61 4372.51 2065.92 72.13 6.00
   08:25:01.000.25-Aug-2020  68.00 3359.63 4372.51 2065.92 72.13 6.00
   08:25:01.200.25-Aug-2020  68.20 3359.63 4372.51 2065.92 72.13 6.00
   08:25:01.400.25-Aug-2020  68.40 3359.68 4372.51 2065.92 72.13 6.00
   08:25:01.600.25-Aug-2020  68.60 3359.69 4372.51 2065.92 72.13 6.00
   08:25:01.800.25-Aug-2020  68.80 3359.71 4372.51 2065.92 72.13 6.00
