~Version Information
 VERS.                  2.0:   CWLS log ASCII Standard -VERSION 2.0
 WRAP.                   NO:   One line per depth step
~Well Information Block
#MNEM.UNIT     VALUE/NAME     DESCRIPTION
#---------     -----------    ---------------------------
 STRT.S             06:12:42 25-Aug-20: START TIME 06:12:42 25-Aug-20
 STOP.S             06:19:48 25-Aug-20: STOP TIME  06:19:48 25-Aug-20
 STEP.S                   0.00: STEP TIME
 NULL.                 -999.25: NULL VALUE
 DFWT.                        :  DIST FWL TEXT
 DFST.                        :  DIST FSL TEXT
 DMF .             Drill Floor:  DRILL MEAS FROM
 STIM.      09.59.28 01-Jun-20:  START TIME
 DATE.      05.00.00 28-Aug-20:  END TIME
 SPUD.               01-Jun-20:  SPUD DATE
 NREF.                    Grid:  NORTH REFERENCE
 HPTY.       Minimum Curvature:  HOLE POS TYPE
 DMOD.             Drill Model:  DRILL MOD DESC
 SVYD.                  Survey:  SURVEY DESC
 ILTD.               Lithology:  INTERP LTH DESC
 FTOP.          Formation Tops:  FORM TOPS DESC
 SON .        AZ-XX-0905455768:  JOB NUMBER
 WTYP.                Deviated:  WELL TYPE
 COMP.     BP Exploration(Caspian Sea):  COMPANY
 BASE.              Azerbaijan:  LOGGING EQUIPMENT BASE LOCATION
 REGN.                   EESSA:  REGION
 CTRY.              Azerbaijan:  COUNTRY NAME
 FLD .                     ACG:  FIELD NAME
 SRVC.          Turan Drilling:  CONTRACTOR
 WELL.                     B41:  WELL NAME
 RIG .           Central Azeri:  RIG NAME
 DCON.         Sperry Drilling:  DIRECTNL CONTR
 PDAT.          Mean Sea Level:  PERMANENT DATUM
 MDS .        Operator Entered:  MAG DATA SOURCE
 API .                        :  API NUMBER
 CNTY.                        :  COUNTY
 PROV.                        :  PROVINCE
 STAT.                        :  STATE
 UWI .                        :  UNIQUE WELL IDENTIFIER
 LOC .                        :  LOCATION
 LMF .             Drill Floor:  LOG MEASURED FROM
 TVDS.m                  43.29:  TVDSS CORRECTN
 LATI.deg                40.03:  LATITUDE
 LONG.deg                51.35:  LONGITUDE
 WHNS.m                  12.98:  WELL HEAD N/S
 WHEW.m                  -6.62:  WELL HEAD E/W
 UTMX.m              530128.28:  UTM X
 UTMY.m             4433192.49:  UTM Y
 DFWL.m                   0.00:  DISTANCE FWL
 DFSL.m                   0.00:  DISTANCE FSL
 SDEP.m                 378.00:  START DEPTH
 TDD .m                4463.01:  TOTAL DEPTH (DRILLER)
 VSDR.deg               296.18:  VERT SEC DIRECT
 GVFD.g                   1.00:  GRAVITY FIELD
 MFLD.nT              50269.00:  MAGNETIC FIELD
 MDIP.deg                59.50:  MAGNETIC DIP
 MDEC.deg                 6.44:  MAGNETIC DECL
 GRDC.deg                 0.20:  GRID CORRECTION
 AZTC.deg                 6.24:  AZM TOTAL CORR
 EPD .m                   0.00:  ELEVATION
 EGL .m                   0.00:  GROUND ELEVATION
 WDMS.m                 128.20:  WD ELEV
 APD .m                  43.29:  DEPTH ABOVE PD
 AGAP.m                  43.29:  AIR GAP
 VSEW.m                  -6.62:  VERT SEC E/W
 VSNS.m                  12.98:  VERT SEC N/S
 EKB .m                  43.29:  KB ELEVATION
 EDF .m                  43.29:  DF ELEVATION
 TDL .m                 147.00:  TOTAL DEPTH (LOGGER)
 VSC .                       0:  VS TO CLOSURE
 MAGU.                 1849241:  MAGUTM CHECKSUM
~Parameter Information Block
#MNEM.UNIT       Value        Description
#---------     -----------    ---------------------------
 AV  .mps                 0.70:  Ann Velocity 
 AZIF.deg               269.43:  Azm, Final 
 BHAT.        Rotary Steerable:  BHA Type 
 BROT.°/30m              -0.03:  Build Rotating 
 BS  .in                  8.50:  Bit Size 
 BSZ .in                  8.50:  Bit Size 
 BTPL.psig              880.00:  Bit Press Loss 
 CABU.                      No:  Customer Abuse 
 CGEO.          Parviz Guliyev:  Customer Geo 
 COMM.                     ôb:  Run Comments 1 
 TCS .hr                 64.59:  Time Ciculation Ended 
 CV  .mps                 2.17:  Crit Velocity 
 DD1 .            Nonso Okafor:  Direct Drillr 1 
 DDSV.               Geo-Pilot:  DD Service 
 DEFF.%                  98.00:  % Det Eff 
 DLRX.°/30m               0.81:  Dogleg Rot Max 
 DLSO.°/30m               0.55:  Dogleg Oriented 
 DLSX.°/30m               0.81:  Dogleg Str Max 
 DRET.      23.50.00 24-Aug-20:  Drill End Time 
 DRST.      07.34.24 22-Aug-20:  Drill Start Tim 
 DTIM.hr                 15.29:  Time Drilling 
 EDEP.m                4461.01:  End Depth 
 ENG1.       Zam Abdullah Sani:  Engineer 1 
 ENG2.         Dair Mahammadov:  Engineer 2 
 ENG3.          Rustam Gadirov:  Engineer 3 
 ETIM.      07.34.24 26-Aug-20:  End Time 
 FLOI.gpm               550.00:  Flow In 
 FLON.gpm               400.00:  Flow In Min 
 FLOS.cptm                1.00:  Fluid Loss 
 FLOX.gpm               600.00:  Flow In Max 
 FTRO.       Formation Presure:  FTWD Run Obj 
 HFLO.                      No:  High Flow 
 HPRE.                      No:  High Pressure 
 HTEM.                      No:  High Temp 
 HYDO.m                   1.80:  Hydro Offset 
 IFIN.deg                66.72:  Inc, Final 
 IMAX.deg                67.42:  Inc Max 
 IMIN.deg                66.72:  Inc Min 
 IMND.m                4408.37:  Inc Min Depth 
 IMXD.m                4323.37:  Inc Max Depth 
 JARR.                      No:  Jarring 
 LETM.      23.50.00 24-Aug-20:  Log End Time 
 LOST.hr                     0:  Lost Rig Time 
 LSTM.      07.34.24 22-Aug-20:  Log Start Time 
 MDCL.ppm             38000.00:  Mud Chlorides 
 MDES.     Inversion Oil/Synthetic:  Mud Desc 
 DFD .sg                  1.40:  Mud Density 
 MDMN.sg                  1.38:  Dens Mud Min 
 MDMX.sg                  1.41:  Dens Mud Max 
 MOIL.                    70.5:  Run Mud Oil % 
 MOWR.                   68:32:  Run Mud OWR 
 MSND.                    0.01:  Run Mud Sand % 
 MSOL.                   17.68:  Run Mud Solids% 
 DFV .spqt               77.00:  Mud Viscosity 
 MWOD.in                  6.75:  MWD Tool OD 
 MWSI.                      No:  Serv Intrp, MWD 
 OTIM.hr                159.42:  Time Operating 
 PCON.           Look Like New:  Pad Condition 
 PMAX.psia             8730.94:  Press Op, Max 
 PV  .cP                 31.00:  Mud PV 
 RUN .                     900:  Run Number 
 ROPA.m/hr               12.00:  ROP Avg 
 ROPN.m/hr                7.00:  ROP Min 
 ROPX.m/hr               17.00:  ROP Max 
 RPMA.rpm               120.00:  RPM Surface Avg 
 RPMN.rpm                60.00:  RPM Surface Min 
 RPMX.rpm               140.00:  RPM Surface Max 
 RRUN.                    L604:  Rig Run Number 
 RTIM.hr                 10.00:  Time Reaming 
 SAZI.deg               270.56:  Azm, Start 
 SDEP.m                4314.01:  Start Depth 
 SIDD.                      No:  Serv Intrp, DD 
 SINC.deg                67.42:  Inc, Start 
 SPPA.psig             3300.00:  SPP Avg 
 SPPN.psig             1750.00:  SPP Min 
 SPPX.psig             4630.00:  SPP Max 
 STIM.      11.00.00 21-Aug-20:  Start Time 
 SVCS.                 DD, MWD:  Services 
 SVER.                    9.20:  Sperry Version 
 TDAT.m                4461.01:  Tot Depth Attmp 
 TDDF.                      No:  Trip for DD 
 TDLG.m                 147.00:  Tot Depth Loggd 
 TFF .                      No:  Trip for Fail 
 TQAA.f-kp               16.00:  Torque Abs Avg 
 TQAN.f-kp               14.00:  Torque Abs Min 
 TQAX.f-kp               20.00:  Torque Abs Max 
 TRRT.°/30m              -0.14:  Turn Rotating 
 MRT .                    HCIM:  Maximum Recorded Temperature 
 TTMX.degC               78.00:  Max Tool Temp 
 VS01.                90515425:  Virtual Str1 SN 
 VS02.                90545184:  Virtual Str2 SN 
 VS03.                90527809:  Virtual Str3 SN 
 VS04.                90515232:  Virtual Str4 SN 
 VS05.                90621207:  Virtual Str5 SN 
 VS06.                90619737:  Virtual Str6 SN 
 WBMN.klb                 2.00:  WOB Min 
 WITN.          Keith Dischler:  Customer Rep 
 WITN.           Faig Mammadov:  Customer Rep 2 
 WOBA.klb                 5.00:  WOB Avg 
 WOBX.klb                 8.00:  WOB Max 
 YP  .lhf2               32.00:  Yield Point 
~Curve Information Block
#MNEM.UNIT                 API CODE     Curve Description
#---------               -----------    ---------------------------
 TIME.HHMMSS            00 000 000 000:  GT Time & Date
 GTET.sec               00 000 000 000:  GT Elapsed Test Time
 GTPQH.psia             00 000 000 000:  GT HR Quartz Pressure
 GTDEPTH.m              00 000 000 000:  GT Depth
 GTTVD.m                00 000 000 000:  GT True Vertical Depth
 GTTQ.degC              00 000 000 000:  GT Quartz Temperature
 GTTN.NONE              00 000 000 000:  GT Test Number
#Other Information
#
#WARRANTY: Halliburton will use its best efforts to furnish customers with 
#accurate information and interpretations that are part of, and incident to, the services 
#provided.  However, Halliburton cannot and does not warrant the accuracy 
#or correctness of such information and interpretations.  Under no circumstances should any 
#such information or interpretation be relied upon as the sole basis for any drilling, 
#completion, production, or financial decision or any procedure involving any risk to the 
#safety of any drilling venture, drilling rig or its crew or any other third party.  The 
#Customer has full responsibility for all drilling, completion and production operation.  
#Halliburton makes no representations or warranties, either expressed or 
#implied, including, but not limited to, the implied warranties of merchantability or fitness 
#for a particular purpose, with respect to the services rendered.  In no event will 
#Halliburton be liable for failure to obtain any particular results or for 
#any damages, including, but not limited to, indirect, special or consequential damages, 
#resulting from the use of any information or interpretation provided by Halliburton.
#
~A           TIME            GTET   GTPQH  GTDEPTH  GTTVD  GTTQ  GTTN 
# ...
   06:15:00.000.25-Aug-2020 138.00 4803.73 4397.01 2075.58 73.37 2.00
   06:15:00.200.25-Aug-2020 138.20 4803.73 4397.01 2075.58 73.37 2.00
   06:15:00.400.25-Aug-2020 138.40 4803.48 4397.01 2075.58 73.37 2.00
   06:15:00.600.25-Aug-2020 138.60 4802.88 4397.01 2075.58 73.37 2.00
   06:15:00.800.25-Aug-2020 138.80 4803.97 4397.01 2075.58 73.37 2.00
   06:15:01.000.25-Aug-2020 139.00 4817.38 4397.01 2075.58 73.36 2.00
   06:15:01.200.25-Aug-2020 139.20 4804.75 4397.01 2075.58 73.37 2.00
   06:15:01.400.25-Aug-2020 139.40 4804.09 4397.01 2075.58 73.36 2.00
   06:15:01.600.25-Aug-2020 139.60 4803.56 4397.01 2075.58 73.36 2.00
   06:15:01.800.25-Aug-2020 139.80 4802.28 4397.01 2075.58 73.36 2.00
   06:15:02.000.25-Aug-2020 140.00 4802.56 4397.01 2075.58 73.36 2.00
   06:15:02.200.25-Aug-2020 140.20 4802.56 4397.01 2075.58 73.36 2.00
   06:15:02.400.25-Aug-2020 140.40 4803.03 4397.01 2075.58 73.36 2.00
   06:15:02.600.25-Aug-2020 140.60 4802.64 4397.01 2075.58 73.36 2.00
   06:15:02.800.25-Aug-2020 140.80 4802.25 4397.01 2075.58 73.36 2.00
   06:15:03.000.25-Aug-2020 141.00 4802.10 4397.01 2075.58 73.36 2.00
   06:15:03.200.25-Aug-2020 141.20 4802.10 4397.01 2075.58 73.36 2.00
   06:15:03.400.25-Aug-2020 141.40 4804.05 4397.01 2075.58 73.36 2.00
   06:15:03.600.25-Aug-2020 141.60 4803.52 4397.01 2075.58 73.36 2.00
   06:15:03.800.25-Aug-2020 141.80 4802.54 4397.01 2075.58 73.36 2.00
   06:15:04.000.25-Aug-2020 142.00 4802.07 4397.01 2075.58 73.36 2.00
   06:15:04.200.25-Aug-2020 142.20 4802.07 4397.01 2075.58 73.36 2.00
   06:15:04.400.25-Aug-2020 142.40 4815.34 4397.01 2075.58 73.36 2.00
   06:15:04.600.25-Aug-2020 142.60 4804.38 4397.01 2075.58 73.36 2.00
   06:15:04.800.25-Aug-2020 142.80 4803.95 4397.01 2075.58 73.36 2.00
   06:15:05.000.25-Aug-2020 143.00 4803.95 4397.01 2075.58 73.36 2.00
   06:15:05.200.25-Aug-2020 143.20 4802.61 4397.01 2075.58 73.36 2.00
   06:15:05.400.25-Aug-2020 143.40 4800.44 4397.01 2075.58 73.36 2.00
   06:15:05.600.25-Aug-2020 143.60 4811.11 4397.01 2075.58 73.36 2.00
   06:15:05.800.25-Aug-2020 143.80 4809.99 4397.01 2075.58 73.36 2.00
   06:15:06.000.25-Aug-2020 144.00 4804.54 4397.01 2075.58 73.36 2.00
   06:15:06.200.25-Aug-2020 144.20 4804.54 4397.01 2075.58 73.36 2.00
   06:15:06.400.25-Aug-2020 144.40 4803.47 4397.01 2075.58 73.36 2.00
   06:15:06.600.25-Aug-2020 144.60 4802.47 4397.01 2075.58 73.36 2.00
   06:15:06.800.25-Aug-2020 144.80 4804.52 4397.01 2075.58 73.36 2.00
   06:15:07.000.25-Aug-2020 145.00 4808.33 4397.01 2075.58 73.36 2.00
   06:15:07.200.25-Aug-2020 145.20 4808.33 4397.01 2075.58 73.36 2.00
   06:15:07.400.25-Aug-2020 145.40 4806.57 4397.01 2075.58 73.36 2.00
   06:15:07.600.25-Aug-2020 145.60 4804.48 4397.01 2075.58 73.36 2.00
   06:15:07.800.25-Aug-2020 145.80 4804.06 4397.01 2075.58 73.36 2.00
   06:15:08.000.25-Aug-2020 146.00 4804.07 4397.01 2075.58 73.36 2.00
   06:15:08.200.25-Aug-2020 146.20 4804.07 4397.01 2075.58 73.36 2.00
   06:15:08.400.25-Aug-2020 146.40 4805.41 4397.01 2075.58 73.36 2.00
   06:15:08.600.25-Aug-2020 146.60 4804.90 4397.01 2075.58 73.36 2.00
   06:15:08.800.25-Aug-2020 146.80 4806.18 4397.01 2075.58 73.36 2.00
   06:15:09.000.25-Aug-2020 147.00 4804.45 4397.01 2075.58 73.36 2.00
   06:15:09.200.25-Aug-2020 147.20 4804.45 4397.01 2075.58 73.36 2.00
   06:15:09.400.25-Aug-2020 147.40 4805.56 4397.01 2075.58 73.36 2.00
   06:15:09.600.25-Aug-2020 147.60 4805.87 4397.01 2075.58 73.36 2.00
   06:15:09.800.25-Aug-2020 147.80 4806.28 4397.01 2075.58 73.36 2.00
   06:15:10.000.25-Aug-2020 148.00 4804.49 4397.01 2075.58 73.36 2.00
   06:15:10.200.25-Aug-2020 148.20 4804.49 4397.01 2075.58 73.36 2.00
   06:15:10.400.25-Aug-2020 148.40 4803.62 4397.01 2075.58 73.36 2.00
   06:15:10.600.25-Aug-2020 148.60 4804.18 4397.01 2075.58 73.36 2.00
   06:15:10.800.25-Aug-2020 148.80 4804.53 4397.01 2075.58 73.36 2.00
   06:15:11.000.25-Aug-2020 149.00 4804.61 4397.01 2075.58 73.36 2.00
   06:15:11.200.25-Aug-2020 149.20 4804.61 4397.01 2075.58 73.36 2.00
   06:15:11.400.25-Aug-2020 149.40 4804.63 4397.01 2075.58 73.36 2.00
   06:15:11.600.25-Aug-2020 149.60 4804.70 4397.01 2075.58 73.36 2.00
   06:15:11.800.25-Aug-2020 149.80 4804.65 4397.01 2075.58 73.36 2.00
   06:15:12.000.25-Aug-2020 150.00 4804.17 4397.01 2075.58 73.36 2.00
   06:15:12.200.25-Aug-2020 150.20 4804.17 4397.01 2075.58 73.36 2.00
   06:15:12.400.25-Aug-2020 150.40 4803.67 4397.01 2075.58 73.36 2.00
   06:15:12.600.25-Aug-2020 150.60 4803.00 4397.01 2075.58 73.36 2.00
   06:15:12.800.25-Aug-2020 150.80 4813.01 4397.01 2075.58 73.36 2.00
   06:15:13.000.25-Aug-2020 151.00 4804.50 4397.01 2075.58 73.36 2.00
   06:15:13.200.25-Aug-2020 151.20 4808.89 4397.01 2075.58 73.36 2.00
   06:15:13.400.25-Aug-2020 151.40 4805.36 4397.01 2075.58 73.36 2.00
   06:15:13.600.25-Aug-2020 151.60 4802.41 4397.01 2075.58 73.36 2.00
   06:15:13.800.25-Aug-2020 151.80 4801.25 4397.01 2075.58 73.36 2.00
   06:15:14.000.25-Aug-2020 152.00 4803.24 4397.01 2075.58 73.36 2.00
   06:15:14.200.25-Aug-2020 152.20 4803.24 4397.01 2075.58 73.36 2.00
   06:15:14.400.25-Aug-2020 152.40 4803.08 4397.01 2075.58 73.36 2.00
   06:15:14.600.25-Aug-2020 152.60 4802.64 4397.01 2075.58 73.36 2.00
   06:15:14.800.25-Aug-2020 152.80 4802.93 4397.01 2075.58 73.36 2.00
   06:15:15.000.25-Aug-2020 153.00 4802.05 4397.01 2075.58 73.36 2.00
   06:15:15.200.25-Aug-2020 153.20 4802.05 4397.01 2075.58 73.36 2.00
   06:15:15.400.25-Aug-2020 153.40 4803.53 4397.01 2075.58 73.36 2.00
   06:15:15.600.25-Aug-2020 153.60 4803.60 4397.01 2075.58 73.36 2.00
   06:15:15.800.25-Aug-2020 153.80 4802.47 4397.01 2075.58 73.36 2.00
   06:15:16.000.25-Aug-2020 154.00 4801.86 4397.01 2075.58 73.36 2.00
   06:15:16.200.25-Aug-2020 154.20 4801.86 4397.01 2075.58 73.36 2.00
   06:15:16.400.25-Aug-2020 154.40 4801.73 4397.01 2075.58 73.36 2.00
   06:15:16.600.25-Aug-2020 154.60 4807.87 4397.01 2075.58 73.36 2.00
   06:15:16.800.25-Aug-2020 154.80 4805.11 4397.01 2075.58 73.36 2.00
   06:15:17.000.25-Aug-2020 155.00 4803.39 4397.01 2075.58 73.36 2.00
   06:15:17.200.25-Aug-2020 155.20 4800.90 4397.01 2075.58 73.36 2.00
   06:15:17.400.25-Aug-2020 155.40 4814.21 4397.01 2075.58 73.36 2.00
   06:15:17.600.25-Aug-2020 155.60 4803.14 4397.01 2075.58 73.36 2.00
   06:15:17.800.25-Aug-2020 155.80 4803.61 4397.01 2075.58 73.36 2.00
   06:15:18.000.25-Aug-2020 156.00 4804.71 4397.01 2075.58 73.36 2.00
   06:15:18.200.25-Aug-2020 156.20 4804.71 4397.01 2075.58 73.36 2.00
   06:15:18.400.25-Aug-2020 156.40 4801.76 4397.01 2075.58 73.36 2.00
   06:15:18.600.25-Aug-2020 156.60 4815.76 4397.01 2075.58 73.36 2.00
   06:15:18.800.25-Aug-2020 156.80 4803.45 4397.01 2075.58 73.36 2.00
   06:15:19.000.25-Aug-2020 157.00 4803.11 4397.01 2075.58 73.36 2.00
   06:15:19.200.25-Aug-2020 157.20 4803.11 4397.01 2075.58 73.36 2.00
   06:15:19.400.25-Aug-2020 157.40 4803.15 4397.01 2075.58 73.36 2.00
   06:15:19.600.25-Aug-2020 157.60 4801.82 4397.01 2075.58 73.36 2.00
   06:15:19.800.25-Aug-2020 157.80 4804.14 4397.01 2075.58 73.36 2.00
   06:15:20.000.25-Aug-2020 158.00 4807.42 4397.01 2075.58 73.36 2.00
   06:15:20.200.25-Aug-2020 158.20 4807.42 4397.01 2075.58 73.36 2.00
   06:15:20.400.25-Aug-2020 158.40 4804.59 4397.01 2075.58 73.36 2.00
   06:15:20.600.25-Aug-2020 158.60 4802.77 4397.01 2075.58 73.36 2.00
   06:15:20.800.25-Aug-2020 158.80 4802.19 4397.01 2075.58 73.36 2.00
   06:15:21.000.25-Aug-2020 159.00 4803.69 4397.01 2075.58 73.36 2.00
   06:15:21.200.25-Aug-2020 159.20 4807.44 4397.01 2075.58 73.36 2.00
   06:15:21.400.25-Aug-2020 159.40 4812.28 4397.01 2075.58 73.36 2.00
   06:15:21.600.25-Aug-2020 159.60 4805.30 4397.01 2075.58 73.36 2.00
   06:15:21.800.25-Aug-2020 159.80 4802.70 4397.01 2075.58 73.36 2.00
   06:15:22.000.25-Aug-2020 160.00 4802.03 4397.01 2075.58 73.36 2.00
   06:15:22.200.25-Aug-2020 160.20 4802.03 4397.01 2075.58 73.36 2.00
   06:15:22.400.25-Aug-2020 160.40 4802.05 4397.01 2075.58 73.36 2.00
   06:15:22.600.25-Aug-2020 160.60 4802.34 4397.01 2075.58 73.36 2.00
   06:15:22.800.25-Aug-2020 160.80 4802.66 4397.01 2075.58 73.36 2.00
