~Version Information
 VERS.                  2.0:   CWLS log ASCII Standard -VERSION 2.0
 WRAP.                   NO:   One line per depth step
~Well Information Block
#MNEM.UNIT     VALUE/NAME     DESCRIPTION
#---------     -----------    ---------------------------
 STRT.S             06:46:09 25-Aug-20: START TIME 06:46:09 25-Aug-20
 STOP.S             06:53:03 25-Aug-20: STOP TIME  06:53:03 25-Aug-20
 STEP.S                   0.00: STEP TIME
 NULL.                 -999.25: NULL VALUE
 DFWT.                        :  DIST FWL TEXT
 DFST.                        :  DIST FSL TEXT
 DMF .             Drill Floor:  DRILL MEAS FROM
 STIM.      09.59.28 01-Jun-20:  START TIME
 DATE.      05.00.00 28-Aug-20:  END TIME
 SPUD.               01-Jun-20:  SPUD DATE
 NREF.                    Grid:  NORTH REFERENCE
 HPTY.       Minimum Curvature:  HOLE POS TYPE
 DMOD.             Drill Model:  DRILL MOD DESC
 SVYD.                  Survey:  SURVEY DESC
 ILTD.               Lithology:  INTERP LTH DESC
 FTOP.          Formation Tops:  FORM TOPS DESC
 SON .        AZ-XX-0905455768:  JOB NUMBER
 WTYP.                Deviated:  WELL TYPE
 COMP.     BP Exploration(Caspian Sea):  COMPANY
 BASE.              Azerbaijan:  LOGGING EQUIPMENT BASE LOCATION
 REGN.                   EESSA:  REGION
 CTRY.              Azerbaijan:  COUNTRY NAME
 FLD .                     ACG:  FIELD NAME
 SRVC.          Turan Drilling:  CONTRACTOR
 WELL.                     B41:  WELL NAME
 RIG .           Central Azeri:  RIG NAME
 DCON.         Sperry Drilling:  DIRECTNL CONTR
 PDAT.          Mean Sea Level:  PERMANENT DATUM
 MDS .        Operator Entered:  MAG DATA SOURCE
 API .                        :  API NUMBER
 CNTY.                        :  COUNTY
 PROV.                        :  PROVINCE
 STAT.                        :  STATE
 UWI .                        :  UNIQUE WELL IDENTIFIER
 LOC .                        :  LOCATION
 LMF .             Drill Floor:  LOG MEASURED FROM
 TVDS.m                  43.29:  TVDSS CORRECTN
 LATI.deg                40.03:  LATITUDE
 LONG.deg                51.35:  LONGITUDE
 WHNS.m                  12.98:  WELL HEAD N/S
 WHEW.m                  -6.62:  WELL HEAD E/W
 UTMX.m              530128.28:  UTM X
 UTMY.m             4433192.49:  UTM Y
 DFWL.m                   0.00:  DISTANCE FWL
 DFSL.m                   0.00:  DISTANCE FSL
 SDEP.m                 378.00:  START DEPTH
 TDD .m                4463.01:  TOTAL DEPTH (DRILLER)
 VSDR.deg               296.18:  VERT SEC DIRECT
 GVFD.g                   1.00:  GRAVITY FIELD
 MFLD.nT              50269.00:  MAGNETIC FIELD
 MDIP.deg                59.50:  MAGNETIC DIP
 MDEC.deg                 6.44:  MAGNETIC DECL
 GRDC.deg                 0.20:  GRID CORRECTION
 AZTC.deg                 6.24:  AZM TOTAL CORR
 EPD .m                   0.00:  ELEVATION
 EGL .m                   0.00:  GROUND ELEVATION
 WDMS.m                 128.20:  WD ELEV
 APD .m                  43.29:  DEPTH ABOVE PD
 AGAP.m                  43.29:  AIR GAP
 VSEW.m                  -6.62:  VERT SEC E/W
 VSNS.m                  12.98:  VERT SEC N/S
 EKB .m                  43.29:  KB ELEVATION
 EDF .m                  43.29:  DF ELEVATION
 TDL .m                 147.00:  TOTAL DEPTH (LOGGER)
 VSC .                       0:  VS TO CLOSURE
 MAGU.                 1849241:  MAGUTM CHECKSUM
~Parameter Information Block
#MNEM.UNIT       Value        Description
#---------     -----------    ---------------------------
 AV  .mps                 0.70:  Ann Velocity 
 AZIF.deg               269.43:  Azm, Final 
 BHAT.        Rotary Steerable:  BHA Type 
 BROT.°/30m              -0.03:  Build Rotating 
 BS  .in                  8.50:  Bit Size 
 BSZ .in                  8.50:  Bit Size 
 BTPL.psig              880.00:  Bit Press Loss 
 CABU.                      No:  Customer Abuse 
 CGEO.          Parviz Guliyev:  Customer Geo 
 TCS .hr                 64.59:  Time Ciculation Ended 
 CV  .mps                 2.17:  Crit Velocity 
 DD1 .            Nonso Okafor:  Direct Drillr 1 
 DDSV.               Geo-Pilot:  DD Service 
 DEFF.%                  98.00:  % Det Eff 
 DLRX.°/30m               0.81:  Dogleg Rot Max 
 DLSO.°/30m               0.55:  Dogleg Oriented 
 DLSX.°/30m               0.81:  Dogleg Str Max 
 DRET.      23.50.00 24-Aug-20:  Drill End Time 
 DRST.      07.34.24 22-Aug-20:  Drill Start Tim 
 DTIM.hr                 15.29:  Time Drilling 
 EDEP.m                4461.01:  End Depth 
 ENG1.       Zam Abdullah Sani:  Engineer 1 
 ENG2.         Dair Mahammadov:  Engineer 2 
 ENG3.          Rustam Gadirov:  Engineer 3 
 ETIM.      07.34.24 26-Aug-20:  End Time 
 FLOI.gpm               550.00:  Flow In 
 FLON.gpm               400.00:  Flow In Min 
 FLOS.cptm                1.00:  Fluid Loss 
 FLOX.gpm               600.00:  Flow In Max 
 FTRO.       Formation Presure:  FTWD Run Obj 
 HFLO.                      No:  High Flow 
 HPRE.                      No:  High Pressure 
 HTEM.                      No:  High Temp 
 HYDO.m                   1.80:  Hydro Offset 
 IFIN.deg                66.72:  Inc, Final 
 IMAX.deg                67.42:  Inc Max 
 IMIN.deg                66.72:  Inc Min 
 IMND.m                4408.37:  Inc Min Depth 
 IMXD.m                4323.37:  Inc Max Depth 
 JARR.                      No:  Jarring 
 LETM.      23.50.00 24-Aug-20:  Log End Time 
 LOST.hr                     0:  Lost Rig Time 
 LSTM.      07.34.24 22-Aug-20:  Log Start Time 
 MDCL.ppm             38000.00:  Mud Chlorides 
 MDES.     Inversion Oil/Synthetic:  Mud Desc 
 DFD .sg                  1.40:  Mud Density 
 MDMN.sg                  1.38:  Dens Mud Min 
 MDMX.sg                  1.41:  Dens Mud Max 
 MOIL.                    70.5:  Run Mud Oil % 
 MOWR.                   68:32:  Run Mud OWR 
 MSND.                    0.01:  Run Mud Sand % 
 MSOL.                   17.68:  Run Mud Solids% 
 DFV .spqt               77.00:  Mud Viscosity 
 MWOD.in                  6.75:  MWD Tool OD 
 MWSI.                      No:  Serv Intrp, MWD 
 OTIM.hr                159.42:  Time Operating 
 PCON.           Look Like New:  Pad Condition 
 PMAX.psia             8730.94:  Press Op, Max 
 PV  .cP                 31.00:  Mud PV 
 RUN .                     900:  Run Number 
 ROPA.m/hr               12.00:  ROP Avg 
 ROPN.m/hr                7.00:  ROP Min 
 ROPX.m/hr               17.00:  ROP Max 
 RPMA.rpm               120.00:  RPM Surface Avg 
 RPMN.rpm                60.00:  RPM Surface Min 
 RPMX.rpm               140.00:  RPM Surface Max 
 RRUN.                    L604:  Rig Run Number 
 RTIM.hr                 10.00:  Time Reaming 
 SAZI.deg               270.56:  Azm, Start 
 SDEP.m                4314.01:  Start Depth 
 SIDD.                      No:  Serv Intrp, DD 
 SINC.deg                67.42:  Inc, Start 
 SPPA.psig             3300.00:  SPP Avg 
 SPPN.psig             1750.00:  SPP Min 
 SPPX.psig             4630.00:  SPP Max 
 STIM.      11.00.00 21-Aug-20:  Start Time 
 SVCS.                 DD, MWD:  Services 
 SVER.                    9.20:  Sperry Version 
 TDAT.m                4461.01:  Tot Depth Attmp 
 TDDF.                      No:  Trip for DD 
 TDLG.m                 147.00:  Tot Depth Loggd 
 TFF .                      No:  Trip for Fail 
 TQAA.f-kp               16.00:  Torque Abs Avg 
 TQAN.f-kp               14.00:  Torque Abs Min 
 TQAX.f-kp               20.00:  Torque Abs Max 
 TRRT.°/30m              -0.14:  Turn Rotating 
 MRT .                    HCIM:  Maximum Recorded Temperature 
 TTMX.degC               78.00:  Max Tool Temp 
 VS01.                90515425:  Virtual Str1 SN 
 VS02.                90545184:  Virtual Str2 SN 
 VS03.                90527809:  Virtual Str3 SN 
 VS04.                90515232:  Virtual Str4 SN 
 VS05.                90621207:  Virtual Str5 SN 
 VS06.                90619737:  Virtual Str6 SN 
 WBMN.klb                 2.00:  WOB Min 
 WITN.          Keith Dischler:  Customer Rep 
 WITN.           Faig Mammadov:  Customer Rep 2 
 WOBA.klb                 5.00:  WOB Avg 
 WOBX.klb                 8.00:  WOB Max 
 YP  .lhf2               32.00:  Yield Point 
~Curve Information Block
#MNEM.UNIT                 API CODE     Curve Description
#---------               -----------    ---------------------------
 TIME.HHMMSS            00 000 000 000:  GT Time & Date
 GTET.sec               00 000 000 000:  GT Elapsed Test Time
 GTPQH.psia             00 000 000 000:  GT HR Quartz Pressure
 GTDEPTH.m              00 000 000 000:  GT Depth
 GTTVD.m                00 000 000 000:  GT True Vertical Depth
 GTTQ.degC              00 000 000 000:  GT Quartz Temperature
 GTTN.NONE              00 000 000 000:  GT Test Number
#Other Information
#
#WARRANTY: Halliburton will use its best efforts to furnish customers with 
#accurate information and interpretations that are part of, and incident to, the services 
#provided.  However, Halliburton cannot and does not warrant the accuracy 
#or correctness of such information and interpretations.  Under no circumstances should any 
#such information or interpretation be relied upon as the sole basis for any drilling, 
#completion, production, or financial decision or any procedure involving any risk to the 
#safety of any drilling venture, drilling rig or its crew or any other third party.  The 
#Customer has full responsibility for all drilling, completion and production operation.  
#Halliburton makes no representations or warranties, either expressed or 
#implied, including, but not limited to, the implied warranties of merchantability or fitness 
#for a particular purpose, with respect to the services rendered.  In no event will 
#Halliburton be liable for failure to obtain any particular results or for 
#any damages, including, but not limited to, indirect, special or consequential damages, 
#resulting from the use of any information or interpretation provided by Halliburton.
#
~A           TIME            GTET   GTPQH  GTDEPTH  GTTVD  GTTQ  GTTN 
# ...
   06:47:18.000.25-Aug-2020  69.00   28.25 4396.51 2075.38 73.02 3.00
   06:47:18.200.25-Aug-2020  69.20   28.25 4396.51 2075.38 73.02 3.00
   06:47:18.400.25-Aug-2020  69.40   28.37 4396.51 2075.38 73.02 3.00
   06:47:18.600.25-Aug-2020  69.60   28.42 4396.51 2075.38 73.02 3.00
   06:47:18.800.25-Aug-2020  69.80   28.46 4396.51 2075.38 73.02 3.00
   06:47:19.000.25-Aug-2020  70.00   28.51 4396.51 2075.38 73.02 3.00
   06:47:19.200.25-Aug-2020  70.20   28.51 4396.51 2075.38 73.02 3.00
   06:47:19.400.25-Aug-2020  70.40   28.64 4396.51 2075.38 73.02 3.00
   06:47:19.600.25-Aug-2020  70.60   28.69 4396.51 2075.38 73.02 3.00
   06:47:19.800.25-Aug-2020  70.80   28.73 4396.51 2075.38 73.02 3.00
   06:47:20.000.25-Aug-2020  71.00   28.79 4396.51 2075.38 73.02 3.00
   06:47:20.200.25-Aug-2020  71.20   28.85 4396.51 2075.38 73.02 3.00
   06:47:20.400.25-Aug-2020  71.40   28.91 4396.51 2075.38 73.02 3.00
   06:47:20.600.25-Aug-2020  71.60   28.95 4396.51 2075.38 73.02 3.00
   06:47:20.800.25-Aug-2020  71.80   28.99 4396.51 2075.38 73.02 3.00
   06:47:21.000.25-Aug-2020  72.00   29.05 4396.51 2075.38 73.02 3.00
   06:47:21.200.25-Aug-2020  72.20   29.11 4396.51 2075.38 73.02 3.00
   06:47:21.400.25-Aug-2020  72.40   29.16 4396.51 2075.38 73.02 3.00
   06:47:21.600.25-Aug-2020  72.60   29.22 4396.51 2075.38 73.02 3.00
   06:47:21.800.25-Aug-2020  72.80   29.26 4396.51 2075.38 73.02 3.00
   06:47:22.000.25-Aug-2020  73.00   29.28 4396.51 2075.38 73.02 3.00
   06:47:22.200.25-Aug-2020  73.20   29.28 4396.51 2075.38 73.02 3.00
   06:47:22.400.25-Aug-2020  73.40   29.39 4396.51 2075.38 73.02 3.00
   06:47:22.600.25-Aug-2020  73.60   29.44 4396.51 2075.38 73.02 3.00
   06:47:22.800.25-Aug-2020  73.80   29.49 4396.51 2075.38 73.02 3.00
   06:47:23.000.25-Aug-2020  74.00   29.54 4396.51 2075.38 73.02 3.00
   06:47:23.200.25-Aug-2020  74.20   29.54 4396.51 2075.38 73.02 3.00
   06:47:23.400.25-Aug-2020  74.40   29.63 4396.51 2075.38 73.02 3.00
   06:47:23.600.25-Aug-2020  74.60   29.68 4396.51 2075.38 73.02 3.00
   06:47:23.800.25-Aug-2020  74.80   29.72 4396.51 2075.38 73.02 3.00
   06:47:24.000.25-Aug-2020  75.00   29.76 4396.51 2075.38 73.02 3.00
   06:47:24.200.25-Aug-2020  75.20   29.81 4396.51 2075.38 73.02 3.00
   06:47:24.400.25-Aug-2020  75.40   29.85 4396.51 2075.38 73.02 3.00
   06:47:24.600.25-Aug-2020  75.60   29.89 4396.51 2075.38 73.02 3.00
   06:47:24.800.25-Aug-2020  75.80   29.93 4396.51 2075.38 73.02 3.00
   06:47:25.000.25-Aug-2020  76.00   29.98 4396.51 2075.38 73.02 3.00
   06:47:25.200.25-Aug-2020  76.20   30.03 4396.51 2075.38 73.02 3.00
   06:47:25.400.25-Aug-2020  76.40   30.07 4396.51 2075.38 73.02 3.00
   06:47:25.600.25-Aug-2020  76.60   30.09 4396.51 2075.38 73.03 3.00
   06:47:25.800.25-Aug-2020  76.80   30.13 4396.51 2075.38 73.03 3.00
   06:47:26.000.25-Aug-2020  77.00   30.19 4396.51 2075.38 73.03 3.00
   06:47:26.200.25-Aug-2020  77.20   30.19 4396.51 2075.38 73.03 3.00
   06:47:26.400.25-Aug-2020  77.40   30.28 4396.51 2075.38 73.03 3.00
   06:47:26.600.25-Aug-2020  77.60   30.32 4396.51 2075.38 73.03 3.00
   06:47:26.800.25-Aug-2020  77.80   30.37 4396.51 2075.38 73.03 3.00
   06:47:27.000.25-Aug-2020  78.00   30.41 4396.51 2075.38 73.03 3.00
   06:47:27.200.25-Aug-2020  78.20   30.41 4396.51 2075.38 73.03 3.00
   06:47:27.400.25-Aug-2020  78.40   30.48 4396.51 2075.38 73.03 3.00
   06:47:27.600.25-Aug-2020  78.60   30.52 4396.51 2075.38 73.03 3.00
   06:47:27.800.25-Aug-2020  78.80   30.55 4396.51 2075.38 73.03 3.00
   06:47:28.000.25-Aug-2020  79.00   30.60 4396.51 2075.38 73.03 3.00
   06:47:28.200.25-Aug-2020  79.20   30.63 4396.51 2075.38 73.03 3.00
   06:47:28.400.25-Aug-2020  79.40   30.68 4396.51 2075.38 73.03 3.00
   06:47:28.600.25-Aug-2020  79.60   30.71 4396.51 2075.38 73.03 3.00
   06:47:28.800.25-Aug-2020  79.80   30.73 4396.51 2075.38 73.03 3.00
   06:47:29.000.25-Aug-2020  80.00   30.77 4396.51 2075.38 73.03 3.00
   06:47:29.200.25-Aug-2020  80.20   30.82 4396.51 2075.38 73.03 3.00
   06:47:29.400.25-Aug-2020  80.40   30.86 4396.51 2075.38 73.03 3.00
   06:47:29.600.25-Aug-2020  80.60   30.91 4396.51 2075.38 73.03 3.00
   06:47:29.800.25-Aug-2020  80.80   30.94 4396.51 2075.38 73.03 3.00
   06:47:30.000.25-Aug-2020  81.00   30.96 4396.51 2075.38 73.03 3.00
   06:47:30.200.25-Aug-2020  81.20   30.96 4396.51 2075.38 73.03 3.00
   06:47:30.400.25-Aug-2020  81.40   31.05 4396.51 2075.38 73.03 3.00
   06:47:30.600.25-Aug-2020  81.60   31.09 4396.51 2075.38 73.03 3.00
   06:47:30.800.25-Aug-2020  81.80   31.12 4396.51 2075.38 73.03 3.00
   06:47:31.000.25-Aug-2020  82.00   31.15 4396.51 2075.38 73.03 3.00
   06:47:31.200.25-Aug-2020  82.20   31.15 4396.51 2075.38 73.03 3.00
   06:47:31.400.25-Aug-2020  82.40   31.25 4396.51 2075.38 73.03 3.00
   06:47:31.600.25-Aug-2020  82.60   31.29 4396.51 2075.38 73.03 3.00
   06:47:31.800.25-Aug-2020  82.80   31.31 4396.51 2075.38 73.03 3.00
   06:47:32.000.25-Aug-2020  83.00   31.33 4396.51 2075.38 73.03 3.00
   06:47:32.200.25-Aug-2020  83.20   31.37 4396.51 2075.38 73.03 3.00
   06:47:32.400.25-Aug-2020  83.40   31.42 4396.51 2075.38 73.03 3.00
   06:47:32.600.25-Aug-2020  83.60   31.46 4396.51 2075.38 73.03 3.00
   06:47:32.800.25-Aug-2020  83.80   31.50 4396.51 2075.38 73.03 3.00
   06:47:33.000.25-Aug-2020  84.00   31.53 4396.51 2075.38 73.03 3.00
   06:47:33.200.25-Aug-2020  84.20   31.57 4396.51 2075.38 73.03 3.00
   06:47:33.400.25-Aug-2020  84.40   31.59 4396.51 2075.38 73.03 3.00
   06:47:33.600.25-Aug-2020  84.60   31.60 4396.51 2075.38 73.03 3.00
   06:47:33.800.25-Aug-2020  84.80   31.65 4396.51 2075.38 73.03 3.00
   06:47:34.000.25-Aug-2020  85.00   31.69 4396.51 2075.38 73.03 3.00
   06:47:34.200.25-Aug-2020  85.20   31.69 4396.51 2075.38 73.03 3.00
   06:47:34.400.25-Aug-2020  85.40   31.77 4396.51 2075.38 73.03 3.00
   06:47:34.600.25-Aug-2020  85.60   31.81 4396.51 2075.38 73.03 3.00
   06:47:34.800.25-Aug-2020  85.80   31.84 4396.51 2075.38 73.03 3.00
   06:47:35.000.25-Aug-2020  86.00   31.87 4396.51 2075.38 73.03 3.00
   06:47:35.200.25-Aug-2020  86.20   31.87 4396.51 2075.38 73.03 3.00
   06:47:35.400.25-Aug-2020  86.40   31.94 4396.51 2075.38 73.03 3.00
   06:47:35.600.25-Aug-2020  86.60   31.97 4396.51 2075.38 73.04 3.00
   06:47:35.800.25-Aug-2020  86.80   32.00 4396.51 2075.38 73.04 3.00
   06:47:36.000.25-Aug-2020  87.00   32.04 4396.51 2075.38 73.04 3.00
   06:47:36.200.25-Aug-2020  87.20   32.07 4396.51 2075.38 73.04 3.00
   06:47:36.400.25-Aug-2020  87.40   32.10 4396.51 2075.38 73.04 3.00
   06:47:36.600.25-Aug-2020  87.60   32.13 4396.51 2075.38 73.04 3.00
   06:47:36.800.25-Aug-2020  87.80   32.17 4396.51 2075.38 73.04 3.00
   06:47:37.000.25-Aug-2020  88.00   32.18 4396.51 2075.38 73.04 3.00
   06:47:37.200.25-Aug-2020  88.20   32.19 4396.51 2075.38 73.04 3.00
   06:47:37.400.25-Aug-2020  88.40   32.23 4396.51 2075.38 73.04 3.00
   06:47:37.600.25-Aug-2020  88.60   32.27 4396.51 2075.38 73.04 3.00
   06:47:37.800.25-Aug-2020  88.80   32.31 4396.51 2075.38 73.04 3.00
   06:47:38.000.25-Aug-2020  89.00   32.35 4396.51 2075.38 73.04 3.00
   06:47:38.200.25-Aug-2020  89.20   32.35 4396.51 2075.38 73.04 3.00
   06:47:38.400.25-Aug-2020  89.40   32.40 4396.51 2075.38 73.04 3.00
   06:47:38.600.25-Aug-2020  89.60   32.43 4396.51 2075.38 73.04 3.00
   06:47:38.800.25-Aug-2020  89.80   32.47 4396.51 2075.38 73.04 3.00
   06:47:39.000.25-Aug-2020  90.00   32.49 4396.51 2075.38 73.04 3.00
   06:47:39.200.25-Aug-2020  90.20   32.49 4396.51 2075.38 73.04 3.00
   06:47:39.400.25-Aug-2020  90.40   32.55 4396.51 2075.38 73.04 3.00
   06:47:39.600.25-Aug-2020  90.60   32.58 4396.51 2075.38 73.04 3.00
   06:47:39.800.25-Aug-2020  90.80   32.61 4396.51 2075.38 73.04 3.00
   06:47:40.000.25-Aug-2020  91.00   32.63 4396.51 2075.38 73.04 3.00
   06:47:40.200.25-Aug-2020  91.20   32.64 4396.51 2075.38 73.04 3.00
   06:47:40.400.25-Aug-2020  91.40   32.66 4396.51 2075.38 73.04 3.00
   06:47:40.600.25-Aug-2020  91.60   32.69 4396.51 2075.38 73.04 3.00
   06:47:40.800.25-Aug-2020  91.80   32.73 4396.51 2075.38 73.04 3.00
