~Version Information
 VERS.                  2.0:   CWLS log ASCII Standard -VERSION 2.0
 WRAP.                   NO:   One line per depth step
~Well Information Block
#MNEM.UNIT     VALUE/NAME     DESCRIPTION
#---------     -----------    ---------------------------
 STRT.S             07:44:59 25-Aug-20: START TIME 07:44:59 25-Aug-20
 STOP.S             07:51:54 25-Aug-20: STOP TIME  07:51:54 25-Aug-20
 STEP.S                   0.00: STEP TIME
 NULL.                 -999.25: NULL VALUE
 DFWT.                        :  DIST FWL TEXT
 DFST.                        :  DIST FSL TEXT
 DMF .             Drill Floor:  DRILL MEAS FROM
 STIM.      09.59.28 01-Jun-20:  START TIME
 DATE.      05.00.00 28-Aug-20:  END TIME
 SPUD.               01-Jun-20:  SPUD DATE
 NREF.                    Grid:  NORTH REFERENCE
 HPTY.       Minimum Curvature:  HOLE POS TYPE
 DMOD.             Drill Model:  DRILL MOD DESC
 SVYD.                  Survey:  SURVEY DESC
 ILTD.               Lithology:  INTERP LTH DESC
 FTOP.          Formation Tops:  FORM TOPS DESC
 SON .        AZ-XX-0905455768:  JOB NUMBER
 WTYP.                Deviated:  WELL TYPE
 COMP.     BP Exploration(Caspian Sea):  COMPANY
 BASE.              Azerbaijan:  LOGGING EQUIPMENT BASE LOCATION
 REGN.                   EESSA:  REGION
 CTRY.              Azerbaijan:  COUNTRY NAME
 FLD .                     ACG:  FIELD NAME
 SRVC.          Turan Drilling:  CONTRACTOR
 WELL.                     B41:  WELL NAME
 RIG .           Central Azeri:  RIG NAME
 DCON.         Sperry Drilling:  DIRECTNL CONTR
 PDAT.          Mean Sea Level:  PERMANENT DATUM
 MDS .        Operator Entered:  MAG DATA SOURCE
 API .                        :  API NUMBER
 CNTY.                        :  COUNTY
 PROV.                        :  PROVINCE
 STAT.                        :  STATE
 UWI .                        :  UNIQUE WELL IDENTIFIER
 LOC .                        :  LOCATION
 LMF .             Drill Floor:  LOG MEASURED FROM
 TVDS.m                  43.29:  TVDSS CORRECTN
 LATI.deg                40.03:  LATITUDE
 LONG.deg                51.35:  LONGITUDE
 WHNS.m                  12.98:  WELL HEAD N/S
 WHEW.m                  -6.62:  WELL HEAD E/W
 UTMX.m              530128.28:  UTM X
 UTMY.m             4433192.49:  UTM Y
 DFWL.m                   0.00:  DISTANCE FWL
 DFSL.m                   0.00:  DISTANCE FSL
 SDEP.m                 378.00:  START DEPTH
 TDD .m                4463.01:  TOTAL DEPTH (DRILLER)
 VSDR.deg               296.18:  VERT SEC DIRECT
 GVFD.g                   1.00:  GRAVITY FIELD
 MFLD.nT              50269.00:  MAGNETIC FIELD
 MDIP.deg                59.50:  MAGNETIC DIP
 MDEC.deg                 6.44:  MAGNETIC DECL
 GRDC.deg                 0.20:  GRID CORRECTION
 AZTC.deg                 6.24:  AZM TOTAL CORR
 EPD .m                   0.00:  ELEVATION
 EGL .m                   0.00:  GROUND ELEVATION
 WDMS.m                 128.20:  WD ELEV
 APD .m                  43.29:  DEPTH ABOVE PD
 AGAP.m                  43.29:  AIR GAP
 VSEW.m                  -6.62:  VERT SEC E/W
 VSNS.m                  12.98:  VERT SEC N/S
 EKB .m                  43.29:  KB ELEVATION
 EDF .m                  43.29:  DF ELEVATION
 TDL .m                 147.00:  TOTAL DEPTH (LOGGER)
 VSC .                       0:  VS TO CLOSURE
 MAGU.                 1849241:  MAGUTM CHECKSUM
~Parameter Information Block
#MNEM.UNIT       Value        Description
#---------     -----------    ---------------------------
 AV  .mps                 0.70:  Ann Velocity 
 AZIF.deg               269.43:  Azm, Final 
 BHAT.        Rotary Steerable:  BHA Type 
 BROT.°/30m              -0.03:  Build Rotating 
 BS  .in                  8.50:  Bit Size 
 BSZ .in                  8.50:  Bit Size 
 BTPL.psig              880.00:  Bit Press Loss 
 CABU.                      No:  Customer Abuse 
 CGEO.          Parviz Guliyev:  Customer Geo 
 COMM.                     í_:  Run Comments 1 
 TCS .hr                 64.59:  Time Ciculation Ended 
 CV  .mps                 2.17:  Crit Velocity 
 DD1 .            Nonso Okafor:  Direct Drillr 1 
 DDSV.               Geo-Pilot:  DD Service 
 DEFF.%                  98.00:  % Det Eff 
 DLRX.°/30m               0.81:  Dogleg Rot Max 
 DLSO.°/30m               0.55:  Dogleg Oriented 
 DLSX.°/30m               0.81:  Dogleg Str Max 
 DRET.      23.50.00 24-Aug-20:  Drill End Time 
 DRST.      07.34.24 22-Aug-20:  Drill Start Tim 
 DTIM.hr                 15.29:  Time Drilling 
 EDEP.m                4461.01:  End Depth 
 ENG1.       Zam Abdullah Sani:  Engineer 1 
 ENG2.         Dair Mahammadov:  Engineer 2 
 ENG3.          Rustam Gadirov:  Engineer 3 
 ETIM.      07.34.24 26-Aug-20:  End Time 
 FLOI.gpm               550.00:  Flow In 
 FLON.gpm               400.00:  Flow In Min 
 FLOS.cptm                1.00:  Fluid Loss 
 FLOX.gpm               600.00:  Flow In Max 
 FTRO.       Formation Presure:  FTWD Run Obj 
 HFLO.                      No:  High Flow 
 HPRE.                      No:  High Pressure 
 HTEM.                      No:  High Temp 
 HYDO.m                   1.80:  Hydro Offset 
 IFIN.deg                66.72:  Inc, Final 
 IMAX.deg                67.42:  Inc Max 
 IMIN.deg                66.72:  Inc Min 
 IMND.m                4408.37:  Inc Min Depth 
 IMXD.m                4323.37:  Inc Max Depth 
 JARR.                      No:  Jarring 
 LETM.      23.50.00 24-Aug-20:  Log End Time 
 LOST.hr                     0:  Lost Rig Time 
 LSTM.      07.34.24 22-Aug-20:  Log Start Time 
 MDCL.ppm             38000.00:  Mud Chlorides 
 MDES.     Inversion Oil/Synthetic:  Mud Desc 
 DFD .sg                  1.40:  Mud Density 
 MDMN.sg                  1.38:  Dens Mud Min 
 MDMX.sg                  1.41:  Dens Mud Max 
 MOIL.                    70.5:  Run Mud Oil % 
 MOWR.                   68:32:  Run Mud OWR 
 MSND.                    0.01:  Run Mud Sand % 
 MSOL.                   17.68:  Run Mud Solids% 
 DFV .spqt               77.00:  Mud Viscosity 
 MWOD.in                  6.75:  MWD Tool OD 
 MWSI.                      No:  Serv Intrp, MWD 
 OTIM.hr                159.42:  Time Operating 
 PCON.           Look Like New:  Pad Condition 
 PMAX.psia             8730.94:  Press Op, Max 
 PV  .cP                 31.00:  Mud PV 
 RUN .                     900:  Run Number 
 ROPA.m/hr               12.00:  ROP Avg 
 ROPN.m/hr                7.00:  ROP Min 
 ROPX.m/hr               17.00:  ROP Max 
 RPMA.rpm               120.00:  RPM Surface Avg 
 RPMN.rpm                60.00:  RPM Surface Min 
 RPMX.rpm               140.00:  RPM Surface Max 
 RRUN.                    L604:  Rig Run Number 
 RTIM.hr                 10.00:  Time Reaming 
 SAZI.deg               270.56:  Azm, Start 
 SDEP.m                4314.01:  Start Depth 
 SIDD.                      No:  Serv Intrp, DD 
 SINC.deg                67.42:  Inc, Start 
 SPPA.psig             3300.00:  SPP Avg 
 SPPN.psig             1750.00:  SPP Min 
 SPPX.psig             4630.00:  SPP Max 
 STIM.      11.00.00 21-Aug-20:  Start Time 
 SVCS.                 DD, MWD:  Services 
 SVER.                    9.20:  Sperry Version 
 TDAT.m                4461.01:  Tot Depth Attmp 
 TDDF.                      No:  Trip for DD 
 TDLG.m                 147.00:  Tot Depth Loggd 
 TFF .                      No:  Trip for Fail 
 TQAA.f-kp               16.00:  Torque Abs Avg 
 TQAN.f-kp               14.00:  Torque Abs Min 
 TQAX.f-kp               20.00:  Torque Abs Max 
 TRRT.°/30m              -0.14:  Turn Rotating 
 MRT .                    HCIM:  Maximum Recorded Temperature 
 TTMX.degC               78.00:  Max Tool Temp 
 VS01.                90515425:  Virtual Str1 SN 
 VS02.                90545184:  Virtual Str2 SN 
 VS03.                90527809:  Virtual Str3 SN 
 VS04.                90515232:  Virtual Str4 SN 
 VS05.                90621207:  Virtual Str5 SN 
 VS06.                90619737:  Virtual Str6 SN 
 WBMN.klb                 2.00:  WOB Min 
 WITN.          Keith Dischler:  Customer Rep 
 WITN.           Faig Mammadov:  Customer Rep 2 
 WOBA.klb                 5.00:  WOB Avg 
 WOBX.klb                 8.00:  WOB Max 
 YP  .lhf2               32.00:  Yield Point 
~Curve Information Block
#MNEM.UNIT                 API CODE     Curve Description
#---------               -----------    ---------------------------
 TIME.HHMMSS            00 000 000 000:  GT Time & Date
 GTET.sec               00 000 000 000:  GT Elapsed Test Time
 GTPQH.psia             00 000 000 000:  GT HR Quartz Pressure
 GTDEPTH.m              00 000 000 000:  GT Depth
 GTTVD.m                00 000 000 000:  GT True Vertical Depth
 GTTQ.degC              00 000 000 000:  GT Quartz Temperature
 GTTN.NONE              00 000 000 000:  GT Test Number
#Other Information
#
#WARRANTY: Halliburton will use its best efforts to furnish customers with 
#accurate information and interpretations that are part of, and incident to, the services 
#provided.  However, Halliburton cannot and does not warrant the accuracy 
#or correctness of such information and interpretations.  Under no circumstances should any 
#such information or interpretation be relied upon as the sole basis for any drilling, 
#completion, production, or financial decision or any procedure involving any risk to the 
#safety of any drilling venture, drilling rig or its crew or any other third party.  The 
#Customer has full responsibility for all drilling, completion and production operation.  
#Halliburton makes no representations or warranties, either expressed or 
#implied, including, but not limited to, the implied warranties of merchantability or fitness 
#for a particular purpose, with respect to the services rendered.  In no event will 
#Halliburton be liable for failure to obtain any particular results or for 
#any damages, including, but not limited to, indirect, special or consequential damages, 
#resulting from the use of any information or interpretation provided by Halliburton.
#
~A           TIME            GTET   GTPQH  GTDEPTH  GTTVD  GTTQ  GTTN 
# ...
   07:45:22.000.25-Aug-2020  23.00 4792.86 4371.01 2065.33 72.57 4.00
   07:45:22.200.25-Aug-2020  23.20 4792.86 4371.01 2065.33 72.57 4.00
   07:45:22.400.25-Aug-2020  23.40 4789.93 4371.01 2065.33 72.57 4.00
   07:45:22.600.25-Aug-2020  23.60 4786.31 4371.01 2065.33 72.57 4.00
   07:45:22.800.25-Aug-2020  23.80 4786.06 4371.01 2065.33 72.57 4.00
   07:45:23.000.25-Aug-2020  24.00 4785.47 4371.01 2065.33 72.57 4.00
   07:45:23.200.25-Aug-2020  24.20 4785.47 4371.01 2065.33 72.57 4.00
   07:45:23.400.25-Aug-2020  24.40 4785.24 4371.01 2065.33 72.57 4.00
   07:45:23.600.25-Aug-2020  24.60 4785.54 4371.01 2065.33 72.57 4.00
   07:45:23.800.25-Aug-2020  24.80 4785.25 4371.01 2065.33 72.57 4.00
   07:45:24.000.25-Aug-2020  25.00 4785.43 4371.01 2065.33 72.57 4.00
   07:45:24.200.25-Aug-2020  25.20 4785.43 4371.01 2065.33 72.57 4.00
   07:45:24.400.25-Aug-2020  25.40 4785.02 4371.01 2065.33 72.57 4.00
   07:45:24.600.25-Aug-2020  25.60 4784.83 4371.01 2065.33 72.57 4.00
   07:45:24.800.25-Aug-2020  25.80 4785.54 4371.01 2065.33 72.57 4.00
   07:45:25.000.25-Aug-2020  26.00 4785.64 4371.01 2065.33 72.57 4.00
   07:45:25.200.25-Aug-2020  26.20 4785.64 4371.01 2065.33 72.57 4.00
   07:45:25.400.25-Aug-2020  26.40 4783.44 4371.01 2065.33 72.57 4.00
   07:45:25.600.25-Aug-2020  26.60 4787.01 4371.01 2065.33 72.57 4.00
   07:45:25.800.25-Aug-2020  26.80 4788.29 4371.01 2065.33 72.57 4.00
   07:45:26.000.25-Aug-2020  27.00 4791.43 4371.01 2065.33 72.57 4.00
   07:45:26.200.25-Aug-2020  27.20 4787.40 4371.01 2065.33 72.57 4.00
   07:45:26.400.25-Aug-2020  27.40 4785.61 4371.01 2065.33 72.57 4.00
   07:45:26.600.25-Aug-2020  27.60 4785.28 4371.01 2065.33 72.57 4.00
   07:45:26.800.25-Aug-2020  27.80 4784.10 4371.01 2065.33 72.57 4.00
   07:45:27.000.25-Aug-2020  28.00 4784.61 4371.01 2065.33 72.57 4.00
   07:45:27.200.25-Aug-2020  28.20 4786.02 4371.01 2065.33 72.57 4.00
   07:45:27.400.25-Aug-2020  28.40 4786.16 4371.01 2065.33 72.57 4.00
   07:45:27.600.25-Aug-2020  28.60 4786.07 4371.01 2065.33 72.57 4.00
   07:45:27.800.25-Aug-2020  28.80 4786.00 4371.01 2065.33 72.57 4.00
   07:45:28.000.25-Aug-2020  29.00 4785.04 4371.01 2065.33 72.57 4.00
   07:45:28.200.25-Aug-2020  29.20 4785.04 4371.01 2065.33 72.57 4.00
   07:45:28.400.25-Aug-2020  29.40 4786.20 4371.01 2065.33 72.57 4.00
   07:45:28.600.25-Aug-2020  29.60 4786.51 4371.01 2065.33 72.57 4.00
   07:45:28.800.25-Aug-2020  29.80 4785.34 4371.01 2065.33 72.57 4.00
   07:45:29.000.25-Aug-2020  30.00 4789.00 4371.01 2065.33 72.57 4.00
   07:45:29.200.25-Aug-2020  30.20 4789.00 4371.01 2065.33 72.57 4.00
   07:45:29.400.25-Aug-2020  30.40 4792.76 4371.01 2065.33 72.57 4.00
   07:45:29.600.25-Aug-2020  30.60 4787.92 4371.01 2065.33 72.57 4.00
   07:45:29.800.25-Aug-2020  30.80 4786.25 4371.01 2065.33 72.57 4.00
   07:45:30.000.25-Aug-2020  31.00 4785.90 4371.01 2065.33 72.57 4.00
   07:45:30.200.25-Aug-2020  31.20 4785.90 4371.01 2065.33 72.57 4.00
   07:45:30.400.25-Aug-2020  31.40 4787.42 4371.01 2065.33 72.57 4.00
   07:45:30.600.25-Aug-2020  31.60 4792.97 4371.01 2065.33 72.57 4.00
   07:45:30.800.25-Aug-2020  31.80 4789.19 4371.01 2065.33 72.57 4.00
   07:45:31.000.25-Aug-2020  32.00 4788.71 4371.01 2065.33 72.57 4.00
   07:45:31.200.25-Aug-2020  32.20 4788.71 4371.01 2065.33 72.57 4.00
   07:45:31.400.25-Aug-2020  32.40 4787.81 4371.01 2065.33 72.57 4.00
   07:45:31.600.25-Aug-2020  32.60 4787.72 4371.01 2065.33 72.57 4.00
   07:45:31.800.25-Aug-2020  32.80 4797.74 4371.01 2065.33 72.57 4.00
   07:45:32.000.25-Aug-2020  33.00 4791.71 4371.01 2065.33 72.57 4.00
   07:45:32.200.25-Aug-2020  33.20 4791.71 4371.01 2065.33 72.57 4.00
   07:45:32.400.25-Aug-2020  33.40 4791.17 4371.01 2065.33 72.57 4.00
   07:45:32.600.25-Aug-2020  33.60 4800.98 4371.01 2065.33 72.57 4.00
   07:45:32.800.25-Aug-2020  33.80 4789.98 4371.01 2065.33 72.57 4.00
   07:45:33.000.25-Aug-2020  34.00 4794.78 4371.01 2065.33 72.57 4.00
   07:45:33.200.25-Aug-2020  34.20 4794.78 4371.01 2065.33 72.57 4.00
   07:45:33.400.25-Aug-2020  34.40 4790.58 4371.01 2065.33 72.57 4.00
   07:45:33.600.25-Aug-2020  34.60 4796.31 4371.01 2065.33 72.57 4.00
   07:45:33.800.25-Aug-2020  34.80 4795.54 4371.01 2065.33 72.57 4.00
   07:45:34.000.25-Aug-2020  35.00 4793.95 4371.01 2065.33 72.57 4.00
   07:45:34.200.25-Aug-2020  35.20 4793.95 4371.01 2065.33 72.57 4.00
   07:45:34.400.25-Aug-2020  35.40 4792.39 4371.01 2065.33 72.57 4.00
   07:45:34.600.25-Aug-2020  35.60 4858.87 4371.01 2065.33 72.57 4.00
   07:45:34.800.25-Aug-2020  35.80 4960.18 4371.01 2065.33 72.57 4.00
   07:45:35.000.25-Aug-2020  36.00 4965.21 4371.01 2065.33 72.57 4.00
   07:45:35.200.25-Aug-2020  36.20 4965.21 4371.01 2065.33 72.57 4.00
   07:45:35.400.25-Aug-2020  36.40 4961.94 4371.01 2065.33 72.57 4.00
   07:45:35.600.25-Aug-2020  36.60 4964.30 4371.01 2065.33 72.57 4.00
   07:45:35.800.25-Aug-2020  36.80 4967.49 4371.01 2065.33 72.57 4.00
   07:45:36.000.25-Aug-2020  37.00 4970.26 4371.01 2065.33 72.57 4.00
   07:45:36.200.25-Aug-2020  37.20 4970.26 4371.01 2065.33 72.57 4.00
   07:45:36.400.25-Aug-2020  37.40 4978.17 4371.01 2065.33 72.57 4.00
   07:45:36.600.25-Aug-2020  37.60 4980.98 4371.01 2065.33 72.57 4.00
   07:45:36.800.25-Aug-2020  37.80 4981.42 4371.01 2065.33 72.57 4.00
   07:45:37.000.25-Aug-2020  38.00 4980.30 4371.01 2065.33 72.57 4.00
   07:45:37.200.25-Aug-2020  38.20 4980.30 4371.01 2065.33 72.57 4.00
   07:45:37.400.25-Aug-2020  38.40 4977.60 4371.01 2065.33 72.57 4.00
   07:45:37.600.25-Aug-2020  38.60 4977.71 4371.01 2065.33 72.57 4.00
   07:45:37.800.25-Aug-2020  38.80 4972.52 4371.01 2065.33 72.57 4.00
   07:45:38.000.25-Aug-2020  39.00 4968.15 4371.01 2065.33 72.57 4.00
   07:45:38.200.25-Aug-2020  39.20 4961.11 4371.01 2065.33 72.57 4.00
   07:45:38.400.25-Aug-2020  39.40 4954.90 4371.01 2065.33 72.57 4.00
   07:45:38.600.25-Aug-2020  39.60 4949.95 4371.01 2065.33 72.57 4.00
   07:45:38.800.25-Aug-2020  39.80 4945.85 4371.01 2065.33 72.57 4.00
   07:45:39.000.25-Aug-2020  40.00 4941.43 4371.01 2065.33 72.57 4.00
   07:45:39.200.25-Aug-2020  40.20 4941.43 4371.01 2065.33 72.57 4.00
   07:45:39.400.25-Aug-2020  40.40 4933.24 4371.01 2065.33 72.57 4.00
   07:45:39.600.25-Aug-2020  40.60 4927.68 4371.01 2065.33 72.57 4.00
   07:45:39.800.25-Aug-2020  40.80 4917.90 4371.01 2065.33 72.57 4.00
   07:45:40.000.25-Aug-2020  41.00 4695.88 4371.01 2065.33 72.57 4.00
   07:45:40.200.25-Aug-2020  41.20 4695.88 4371.01 2065.33 72.57 4.00
   07:45:40.400.25-Aug-2020  41.40 3472.73 4371.01 2065.33 72.57 4.00
   07:45:40.600.25-Aug-2020  41.60 3193.37 4371.01 2065.33 72.57 4.00
   07:45:40.800.25-Aug-2020  41.80 3080.33 4371.01 2065.33 72.57 4.00
   07:45:41.000.25-Aug-2020  42.00 2727.78 4371.01 2065.33 72.57 4.00
   07:45:41.200.25-Aug-2020  42.20 2727.78 4371.01 2065.33 72.57 4.00
   07:45:41.400.25-Aug-2020  42.40 1968.75 4371.01 2065.33 72.56 4.00
   07:45:41.600.25-Aug-2020  42.60 1611.35 4371.01 2065.33 72.56 4.00
   07:45:41.800.25-Aug-2020  42.80 1197.52 4371.01 2065.33 72.56 4.00
   07:45:42.000.25-Aug-2020  43.00  756.40 4371.01 2065.33 72.56 4.00
   07:45:42.200.25-Aug-2020  43.20  756.40 4371.01 2065.33 72.56 4.00
   07:45:42.400.25-Aug-2020  43.40   53.54 4371.01 2065.33 72.55 4.00
   07:45:42.600.25-Aug-2020  43.60   24.26 4371.01 2065.33 72.55 4.00
   07:45:42.800.25-Aug-2020  43.80   22.12 4371.01 2065.33 72.55 4.00
   07:45:43.000.25-Aug-2020  44.00   21.58 4371.01 2065.33 72.54 4.00
   07:45:43.200.25-Aug-2020  44.20   20.24 4371.01 2065.33 72.54 4.00
   07:45:43.400.25-Aug-2020  44.40   19.16 4371.01 2065.33 72.54 4.00
   07:45:43.600.25-Aug-2020  44.60   18.25 4371.01 2065.33 72.53 4.00
   07:45:43.800.25-Aug-2020  44.80   17.38 4371.01 2065.33 72.53 4.00
   07:45:44.000.25-Aug-2020  45.00   16.46 4371.01 2065.33 72.53 4.00
   07:45:44.200.25-Aug-2020  45.20   16.46 4371.01 2065.33 72.53 4.00
   07:45:44.400.25-Aug-2020  45.40   14.92 4371.01 2065.33 72.52 4.00
   07:45:44.600.25-Aug-2020  45.60   14.37 4371.01 2065.33 72.51 4.00
   07:45:44.800.25-Aug-2020  45.80   13.90 4371.01 2065.33 72.51 4.00
