~Version Information
 VERS.                  2.0:   CWLS log ASCII Standard -VERSION 2.0
 WRAP.                   NO:   One line per depth step
~Well Information Block
#MNEM.UNIT     VALUE/NAME     DESCRIPTION
#---------     -----------    ---------------------------
 STRT.S             06:46:09 25-Aug-20: START TIME 06:46:09 25-Aug-20
 STOP.S             06:53:03 25-Aug-20: STOP TIME  06:53:03 25-Aug-20
 STEP.S                   0.00: STEP TIME
 NULL.                 -999.25: NULL VALUE
 DFWT.                        :  DIST FWL TEXT
 DFST.                        :  DIST FSL TEXT
 DMF .             Drill Floor:  DRILL MEAS FROM
 STIM.      09.59.28 01-Jun-20:  START TIME
 DATE.      05.00.00 28-Aug-20:  END TIME
 SPUD.               01-Jun-20:  SPUD DATE
 NREF.                    Grid:  NORTH REFERENCE
 HPTY.       Minimum Curvature:  HOLE POS TYPE
 DMOD.             Drill Model:  DRILL MOD DESC
 SVYD.                  Survey:  SURVEY DESC
 ILTD.               Lithology:  INTERP LTH DESC
 FTOP.          Formation Tops:  FORM TOPS DESC
 SON .        AZ-XX-0905455768:  JOB NUMBER
 WTYP.                Deviated:  WELL TYPE
 COMP.     BP Exploration(Caspian Sea):  COMPANY
 BASE.              Azerbaijan:  LOGGING EQUIPMENT BASE LOCATION
 REGN.                   EESSA:  REGION
 CTRY.              Azerbaijan:  COUNTRY NAME
 FLD .                     ACG:  FIELD NAME
 SRVC.          Turan Drilling:  CONTRACTOR
 WELL.                     B41:  WELL NAME
 RIG .           Central Azeri:  RIG NAME
 DCON.         Sperry Drilling:  DIRECTNL CONTR
 PDAT.          Mean Sea Level:  PERMANENT DATUM
 MDS .        Operator Entered:  MAG DATA SOURCE
 API .                        :  API NUMBER
 CNTY.                        :  COUNTY
 PROV.                        :  PROVINCE
 STAT.                        :  STATE
 UWI .                        :  UNIQUE WELL IDENTIFIER
 LOC .                        :  LOCATION
 LMF .             Drill Floor:  LOG MEASURED FROM
 TVDS.m                  43.29:  TVDSS CORRECTN
 LATI.deg                40.03:  LATITUDE
 LONG.deg                51.35:  LONGITUDE
 WHNS.m                  12.98:  WELL HEAD N/S
 WHEW.m                  -6.62:  WELL HEAD E/W
 UTMX.m              530128.28:  UTM X
 UTMY.m             4433192.49:  UTM Y
 DFWL.m                   0.00:  DISTANCE FWL
 DFSL.m                   0.00:  DISTANCE FSL
 SDEP.m                 378.00:  START DEPTH
 TDD .m                4463.01:  TOTAL DEPTH (DRILLER)
 VSDR.deg               296.18:  VERT SEC DIRECT
 GVFD.g                   1.00:  GRAVITY FIELD
 MFLD.nT              50269.00:  MAGNETIC FIELD
 MDIP.deg                59.50:  MAGNETIC DIP
 MDEC.deg                 6.44:  MAGNETIC DECL
 GRDC.deg                 0.20:  GRID CORRECTION
 AZTC.deg                 6.24:  AZM TOTAL CORR
 EPD .m                   0.00:  ELEVATION
 EGL .m                   0.00:  GROUND ELEVATION
 WDMS.m                 128.20:  WD ELEV
 APD .m                  43.29:  DEPTH ABOVE PD
 AGAP.m                  43.29:  AIR GAP
 VSEW.m                  -6.62:  VERT SEC E/W
 VSNS.m                  12.98:  VERT SEC N/S
 EKB .m                  43.29:  KB ELEVATION
 EDF .m                  43.29:  DF ELEVATION
 TDL .m                 147.00:  TOTAL DEPTH (LOGGER)
 VSC .                       0:  VS TO CLOSURE
 MAGU.                 1849241:  MAGUTM CHECKSUM
~Parameter Information Block
#MNEM.UNIT       Value        Description
#---------     -----------    ---------------------------
 AV  .mps                 0.70:  Ann Velocity 
 AZIF.deg               269.43:  Azm, Final 
 BHAT.        Rotary Steerable:  BHA Type 
 BROT.°/30m              -0.03:  Build Rotating 
 BS  .in                  8.50:  Bit Size 
 BSZ .in                  8.50:  Bit Size 
 BTPL.psig              880.00:  Bit Press Loss 
 CABU.                      No:  Customer Abuse 
 CGEO.          Parviz Guliyev:  Customer Geo 
 TCS .hr                 64.59:  Time Ciculation Ended 
 CV  .mps                 2.17:  Crit Velocity 
 DD1 .            Nonso Okafor:  Direct Drillr 1 
 DDSV.               Geo-Pilot:  DD Service 
 DEFF.%                  98.00:  % Det Eff 
 DLRX.°/30m               0.81:  Dogleg Rot Max 
 DLSO.°/30m               0.55:  Dogleg Oriented 
 DLSX.°/30m               0.81:  Dogleg Str Max 
 DRET.      23.50.00 24-Aug-20:  Drill End Time 
 DRST.      07.34.24 22-Aug-20:  Drill Start Tim 
 DTIM.hr                 15.29:  Time Drilling 
 EDEP.m                4461.01:  End Depth 
 ENG1.       Zam Abdullah Sani:  Engineer 1 
 ENG2.         Dair Mahammadov:  Engineer 2 
 ENG3.          Rustam Gadirov:  Engineer 3 
 ETIM.      07.34.24 26-Aug-20:  End Time 
 FLOI.gpm               550.00:  Flow In 
 FLON.gpm               400.00:  Flow In Min 
 FLOS.cptm                1.00:  Fluid Loss 
 FLOX.gpm               600.00:  Flow In Max 
 FTRO.       Formation Presure:  FTWD Run Obj 
 HFLO.                      No:  High Flow 
 HPRE.                      No:  High Pressure 
 HTEM.                      No:  High Temp 
 HYDO.m                   1.80:  Hydro Offset 
 IFIN.deg                66.72:  Inc, Final 
 IMAX.deg                67.42:  Inc Max 
 IMIN.deg                66.72:  Inc Min 
 IMND.m                4408.37:  Inc Min Depth 
 IMXD.m                4323.37:  Inc Max Depth 
 JARR.                      No:  Jarring 
 LETM.      23.50.00 24-Aug-20:  Log End Time 
 LOST.hr                     0:  Lost Rig Time 
 LSTM.      07.34.24 22-Aug-20:  Log Start Time 
 MDCL.ppm             38000.00:  Mud Chlorides 
 MDES.     Inversion Oil/Synthetic:  Mud Desc 
 DFD .sg                  1.40:  Mud Density 
 MDMN.sg                  1.38:  Dens Mud Min 
 MDMX.sg                  1.41:  Dens Mud Max 
 MOIL.                    70.5:  Run Mud Oil % 
 MOWR.                   68:32:  Run Mud OWR 
 MSND.                    0.01:  Run Mud Sand % 
 MSOL.                   17.68:  Run Mud Solids% 
 DFV .spqt               77.00:  Mud Viscosity 
 MWOD.in                  6.75:  MWD Tool OD 
 MWSI.                      No:  Serv Intrp, MWD 
 OTIM.hr                159.42:  Time Operating 
 PCON.           Look Like New:  Pad Condition 
 PMAX.psia             8730.94:  Press Op, Max 
 PV  .cP                 31.00:  Mud PV 
 RUN .                     900:  Run Number 
 ROPA.m/hr               12.00:  ROP Avg 
 ROPN.m/hr                7.00:  ROP Min 
 ROPX.m/hr               17.00:  ROP Max 
 RPMA.rpm               120.00:  RPM Surface Avg 
 RPMN.rpm                60.00:  RPM Surface Min 
 RPMX.rpm               140.00:  RPM Surface Max 
 RRUN.                    L604:  Rig Run Number 
 RTIM.hr                 10.00:  Time Reaming 
 SAZI.deg               270.56:  Azm, Start 
 SDEP.m                4314.01:  Start Depth 
 SIDD.                      No:  Serv Intrp, DD 
 SINC.deg                67.42:  Inc, Start 
 SPPA.psig             3300.00:  SPP Avg 
 SPPN.psig             1750.00:  SPP Min 
 SPPX.psig             4630.00:  SPP Max 
 STIM.      11.00.00 21-Aug-20:  Start Time 
 SVCS.                 DD, MWD:  Services 
 SVER.                    9.20:  Sperry Version 
 TDAT.m                4461.01:  Tot Depth Attmp 
 TDDF.                      No:  Trip for DD 
 TDLG.m                 147.00:  Tot Depth Loggd 
 TFF .                      No:  Trip for Fail 
 TQAA.f-kp               16.00:  Torque Abs Avg 
 TQAN.f-kp               14.00:  Torque Abs Min 
 TQAX.f-kp               20.00:  Torque Abs Max 
 TRRT.°/30m              -0.14:  Turn Rotating 
 MRT .                    HCIM:  Maximum Recorded Temperature 
 TTMX.degC               78.00:  Max Tool Temp 
 VS01.                90515425:  Virtual Str1 SN 
 VS02.                90545184:  Virtual Str2 SN 
 VS03.                90527809:  Virtual Str3 SN 
 VS04.                90515232:  Virtual Str4 SN 
 VS05.                90621207:  Virtual Str5 SN 
 VS06.                90619737:  Virtual Str6 SN 
 WBMN.klb                 2.00:  WOB Min 
 WITN.          Keith Dischler:  Customer Rep 
 WITN.           Faig Mammadov:  Customer Rep 2 
 WOBA.klb                 5.00:  WOB Avg 
 WOBX.klb                 8.00:  WOB Max 
 YP  .lhf2               32.00:  Yield Point 
~Curve Information Block
#MNEM.UNIT                 API CODE     Curve Description
#---------               -----------    ---------------------------
 TIME.HHMMSS            00 000 000 000:  GT Time & Date
 GTET.sec               00 000 000 000:  GT Elapsed Test Time
 GTPQH.psia             00 000 000 000:  GT HR Quartz Pressure
 GTDEPTH.m              00 000 000 000:  GT Depth
 GTTVD.m                00 000 000 000:  GT True Vertical Depth
 GTTQ.degC              00 000 000 000:  GT Quartz Temperature
 GTTN.NONE              00 000 000 000:  GT Test Number
#Other Information
#
#WARRANTY: Halliburton will use its best efforts to furnish customers with 
#accurate information and interpretations that are part of, and incident to, the services 
#provided.  However, Halliburton cannot and does not warrant the accuracy 
#or correctness of such information and interpretations.  Under no circumstances should any 
#such information or interpretation be relied upon as the sole basis for any drilling, 
#completion, production, or financial decision or any procedure involving any risk to the 
#safety of any drilling venture, drilling rig or its crew or any other third party.  The 
#Customer has full responsibility for all drilling, completion and production operation.  
#Halliburton makes no representations or warranties, either expressed or 
#implied, including, but not limited to, the implied warranties of merchantability or fitness 
#for a particular purpose, with respect to the services rendered.  In no event will 
#Halliburton be liable for failure to obtain any particular results or for 
#any damages, including, but not limited to, indirect, special or consequential damages, 
#resulting from the use of any information or interpretation provided by Halliburton.
#
~A           TIME            GTET   GTPQH  GTDEPTH  GTTVD  GTTQ  GTTN 
# ...
   06:49:36.000.25-Aug-2020 207.00   21.14 4396.51 2075.38 73.07 3.00
   06:49:36.200.25-Aug-2020 207.20   21.14 4396.51 2075.38 73.07 3.00
   06:49:36.400.25-Aug-2020 207.40   21.15 4396.51 2075.38 73.07 3.00
   06:49:36.600.25-Aug-2020 207.60   21.15 4396.51 2075.38 73.07 3.00
   06:49:36.800.25-Aug-2020 207.80   21.15 4396.51 2075.38 73.07 3.00
   06:49:37.000.25-Aug-2020 208.00   21.15 4396.51 2075.38 73.07 3.00
   06:49:37.200.25-Aug-2020 208.20   21.15 4396.51 2075.38 73.07 3.00
   06:49:37.400.25-Aug-2020 208.40   21.16 4396.51 2075.38 73.07 3.00
   06:49:37.600.25-Aug-2020 208.60   21.15 4396.51 2075.38 73.07 3.00
   06:49:37.800.25-Aug-2020 208.80   21.16 4396.51 2075.38 73.07 3.00
   06:49:38.000.25-Aug-2020 209.00   21.16 4396.51 2075.38 73.07 3.00
   06:49:38.200.25-Aug-2020 209.20   21.16 4396.51 2075.38 73.07 3.00
   06:49:38.400.25-Aug-2020 209.40   21.16 4396.51 2075.38 73.07 3.00
   06:49:38.600.25-Aug-2020 209.60   21.17 4396.51 2075.38 73.07 3.00
   06:49:38.800.25-Aug-2020 209.80   21.17 4396.51 2075.38 73.07 3.00
   06:49:39.000.25-Aug-2020 210.00   21.16 4396.51 2075.38 73.07 3.00
   06:49:39.200.25-Aug-2020 210.20   21.16 4396.51 2075.38 73.07 3.00
   06:49:39.400.25-Aug-2020 210.40   21.17 4396.51 2075.38 73.07 3.00
   06:49:39.600.25-Aug-2020 210.60   21.18 4396.51 2075.38 73.07 3.00
   06:49:39.800.25-Aug-2020 210.80   21.18 4396.51 2075.38 73.07 3.00
   06:49:40.000.25-Aug-2020 211.00   21.18 4396.51 2075.38 73.07 3.00
   06:49:40.200.25-Aug-2020 211.20   21.18 4396.51 2075.38 73.07 3.00
   06:49:40.400.25-Aug-2020 211.40   21.18 4396.51 2075.38 73.07 3.00
   06:49:40.600.25-Aug-2020 211.60   21.19 4396.51 2075.38 73.07 3.00
   06:49:40.800.25-Aug-2020 211.80   21.19 4396.51 2075.38 73.07 3.00
   06:49:41.000.25-Aug-2020 212.00   21.19 4396.51 2075.38 73.07 3.00
   06:49:41.200.25-Aug-2020 212.20   21.20 4396.51 2075.38 73.07 3.00
   06:49:41.400.25-Aug-2020 212.40   21.20 4396.51 2075.38 73.07 3.00
   06:49:41.600.25-Aug-2020 212.60   21.19 4396.51 2075.38 73.07 3.00
   06:49:41.800.25-Aug-2020 212.80   21.20 4396.51 2075.38 73.07 3.00
   06:49:42.000.25-Aug-2020 213.00   21.20 4396.51 2075.38 73.07 3.00
   06:49:42.200.25-Aug-2020 213.20   21.20 4396.51 2075.38 73.07 3.00
   06:49:42.400.25-Aug-2020 213.40   21.20 4396.51 2075.38 73.07 3.00
   06:49:42.600.25-Aug-2020 213.60   21.20 4396.51 2075.38 73.07 3.00
   06:49:42.800.25-Aug-2020 213.80   21.20 4396.51 2075.38 73.07 3.00
   06:49:43.000.25-Aug-2020 214.00   21.21 4396.51 2075.38 73.07 3.00
   06:49:43.200.25-Aug-2020 214.20   21.21 4396.51 2075.38 73.07 3.00
   06:49:43.400.25-Aug-2020 214.40   21.20 4396.51 2075.38 73.07 3.00
   06:49:43.600.25-Aug-2020 214.60   21.21 4396.51 2075.38 73.07 3.00
   06:49:43.800.25-Aug-2020 214.80   21.21 4396.51 2075.38 73.07 3.00
   06:49:44.000.25-Aug-2020 215.00   21.22 4396.51 2075.38 73.07 3.00
   06:49:44.200.25-Aug-2020 215.20   21.21 4396.51 2075.38 73.07 3.00
   06:49:44.400.25-Aug-2020 215.40   21.22 4396.51 2075.38 73.07 3.00
   06:49:44.600.25-Aug-2020 215.60   21.22 4396.51 2075.38 73.07 3.00
   06:49:44.800.25-Aug-2020 215.80   21.23 4396.51 2075.38 73.07 3.00
   06:49:45.000.25-Aug-2020 216.00   21.22 4396.51 2075.38 73.07 3.00
   06:49:45.200.25-Aug-2020 216.20   21.23 4396.51 2075.38 73.07 3.00
   06:49:45.400.25-Aug-2020 216.40   21.23 4396.51 2075.38 73.07 3.00
   06:49:45.600.25-Aug-2020 216.60   21.22 4396.51 2075.38 73.07 3.00
   06:49:45.800.25-Aug-2020 216.80   21.23 4396.51 2075.38 73.07 3.00
   06:49:46.000.25-Aug-2020 217.00   21.23 4396.51 2075.38 73.07 3.00
   06:49:46.200.25-Aug-2020 217.20   21.23 4396.51 2075.38 73.07 3.00
   06:49:46.400.25-Aug-2020 217.40   21.23 4396.51 2075.38 73.07 3.00
   06:49:46.600.25-Aug-2020 217.60   21.24 4396.51 2075.38 73.07 3.00
   06:49:46.800.25-Aug-2020 217.80   21.24 4396.51 2075.38 73.07 3.00
   06:49:47.000.25-Aug-2020 218.00   21.25 4396.51 2075.38 73.07 3.00
   06:49:47.200.25-Aug-2020 218.20   21.25 4396.51 2075.38 73.07 3.00
   06:49:47.400.25-Aug-2020 218.40   21.25 4396.51 2075.38 73.07 3.00
   06:49:47.600.25-Aug-2020 218.60   21.25 4396.51 2075.38 73.07 3.00
   06:49:47.800.25-Aug-2020 218.80   21.25 4396.51 2075.38 73.07 3.00
   06:49:48.000.25-Aug-2020 219.00   21.25 4396.51 2075.38 73.07 3.00
   06:49:48.200.25-Aug-2020 219.20   21.25 4396.51 2075.38 73.07 3.00
   06:49:48.400.25-Aug-2020 219.40   21.25 4396.51 2075.38 73.07 3.00
   06:49:48.600.25-Aug-2020 219.60   21.26 4396.51 2075.38 73.07 3.00
   06:49:48.800.25-Aug-2020 219.80   21.25 4396.51 2075.38 73.07 3.00
   06:49:49.000.25-Aug-2020 220.00   21.26 4396.51 2075.38 73.07 3.00
   06:49:49.200.25-Aug-2020 220.20   21.26 4396.51 2075.38 73.07 3.00
   06:49:49.400.25-Aug-2020 220.40   21.26 4396.51 2075.38 73.07 3.00
   06:49:49.600.25-Aug-2020 220.60   21.26 4396.51 2075.38 73.07 3.00
   06:49:49.800.25-Aug-2020 220.80   21.26 4396.51 2075.38 73.07 3.00
   06:49:50.000.25-Aug-2020 221.00   21.26 4396.51 2075.38 73.07 3.00
   06:49:50.200.25-Aug-2020 221.20   21.26 4396.51 2075.38 73.07 3.00
   06:49:50.400.25-Aug-2020 221.40   21.27 4396.51 2075.38 73.07 3.00
   06:49:50.600.25-Aug-2020 221.60   21.28 4396.51 2075.38 73.07 3.00
   06:49:50.800.25-Aug-2020 221.80   21.27 4396.51 2075.38 73.07 3.00
   06:49:51.000.25-Aug-2020 222.00   21.28 4396.51 2075.38 73.07 3.00
   06:49:51.200.25-Aug-2020 222.20   21.28 4396.51 2075.38 73.07 3.00
   06:49:51.400.25-Aug-2020 222.40   21.28 4396.51 2075.38 73.07 3.00
   06:49:51.600.25-Aug-2020 222.60   21.28 4396.51 2075.38 73.07 3.00
   06:49:51.800.25-Aug-2020 222.80   21.28 4396.51 2075.38 73.07 3.00
   06:49:52.000.25-Aug-2020 223.00   21.28 4396.51 2075.38 73.07 3.00
   06:49:52.200.25-Aug-2020 223.20   21.29 4396.51 2075.38 73.07 3.00
   06:49:52.400.25-Aug-2020 223.40   21.28 4396.51 2075.38 73.07 3.00
   06:49:52.600.25-Aug-2020 223.60   21.29 4396.51 2075.38 73.07 3.00
   06:49:52.800.25-Aug-2020 223.80   21.29 4396.51 2075.38 73.07 3.00
   06:49:53.000.25-Aug-2020 224.00   21.29 4396.51 2075.38 73.07 3.00
   06:49:53.200.25-Aug-2020 224.20   21.29 4396.51 2075.38 73.07 3.00
   06:49:53.400.25-Aug-2020 224.40   21.29 4396.51 2075.38 73.07 3.00
   06:49:53.600.25-Aug-2020 224.60   21.30 4396.51 2075.38 73.07 3.00
   06:49:53.800.25-Aug-2020 224.80   21.29 4396.51 2075.38 73.07 3.00
   06:49:54.000.25-Aug-2020 225.00   21.30 4396.51 2075.38 73.07 3.00
   06:49:54.200.25-Aug-2020 225.20   21.30 4396.51 2075.38 73.07 3.00
   06:49:54.400.25-Aug-2020 225.40   21.29 4396.51 2075.38 73.07 3.00
   06:49:54.600.25-Aug-2020 225.60   21.30 4396.51 2075.38 73.07 3.00
   06:49:54.800.25-Aug-2020 225.80   21.31 4396.51 2075.38 73.07 3.00
   06:49:55.000.25-Aug-2020 226.00   21.30 4396.51 2075.38 73.07 3.00
   06:49:55.200.25-Aug-2020 226.20   21.30 4396.51 2075.38 73.07 3.00
   06:49:55.400.25-Aug-2020 226.40   21.31 4396.51 2075.38 73.07 3.00
   06:49:55.600.25-Aug-2020 226.60   21.31 4396.51 2075.38 73.07 3.00
   06:49:55.800.25-Aug-2020 226.80   21.31 4396.51 2075.38 73.07 3.00
   06:49:56.000.25-Aug-2020 227.00   21.31 4396.51 2075.38 73.07 3.00
   06:49:56.200.25-Aug-2020 227.20   21.32 4396.51 2075.38 73.07 3.00
   06:49:56.400.25-Aug-2020 227.40   21.31 4396.51 2075.38 73.07 3.00
   06:49:56.600.25-Aug-2020 227.60   21.32 4396.51 2075.38 73.07 3.00
   06:49:56.800.25-Aug-2020 227.80   21.32 4396.51 2075.38 73.07 3.00
   06:49:57.000.25-Aug-2020 228.00   21.32 4396.51 2075.38 73.07 3.00
   06:49:57.200.25-Aug-2020 228.20   21.32 4396.51 2075.38 73.07 3.00
   06:49:57.400.25-Aug-2020 228.40   21.32 4396.51 2075.38 73.07 3.00
   06:49:57.600.25-Aug-2020 228.60   21.33 4396.51 2075.38 73.07 3.00
   06:49:57.800.25-Aug-2020 228.80   21.34 4396.51 2075.38 73.07 3.00
   06:49:58.000.25-Aug-2020 229.00   21.35 4396.51 2075.38 73.07 3.00
   06:49:58.200.25-Aug-2020 229.20   21.35 4396.51 2075.38 73.07 3.00
   06:49:58.400.25-Aug-2020 229.40   21.34 4396.51 2075.38 73.07 3.00
   06:49:58.600.25-Aug-2020 229.60   21.35 4396.51 2075.38 73.07 3.00
   06:49:58.800.25-Aug-2020 229.80   21.35 4396.51 2075.38 73.07 3.00
