~Version Information
 VERS.                  2.0:   CWLS log ASCII Standard -VERSION 2.0
 WRAP.                   NO:   One line per depth step
~Well Information Block
#MNEM.UNIT     VALUE/NAME     DESCRIPTION
#---------     -----------    ---------------------------
 STRT.S             09:43:25 25-Aug-20: START TIME 09:43:25 25-Aug-20
 STOP.S             09:50:22 25-Aug-20: STOP TIME  09:50:22 25-Aug-20
 STEP.S                   0.00: STEP TIME
 NULL.                 -999.25: NULL VALUE
 DFWT.                        :  DIST FWL TEXT
 DFST.                        :  DIST FSL TEXT
 DMF .             Drill Floor:  DRILL MEAS FROM
 STIM.      09.59.28 01-Jun-20:  START TIME
 DATE.      05.00.00 28-Aug-20:  END TIME
 SPUD.               01-Jun-20:  SPUD DATE
 NREF.                    Grid:  NORTH REFERENCE
 HPTY.       Minimum Curvature:  HOLE POS TYPE
 DMOD.             Drill Model:  DRILL MOD DESC
 SVYD.                  Survey:  SURVEY DESC
 ILTD.               Lithology:  INTERP LTH DESC
 FTOP.          Formation Tops:  FORM TOPS DESC
 SON .        AZ-XX-0905455768:  JOB NUMBER
 WTYP.                Deviated:  WELL TYPE
 COMP.     BP Exploration(Caspian Sea):  COMPANY
 BASE.              Azerbaijan:  LOGGING EQUIPMENT BASE LOCATION
 REGN.                   EESSA:  REGION
 CTRY.              Azerbaijan:  COUNTRY NAME
 FLD .                     ACG:  FIELD NAME
 SRVC.          Turan Drilling:  CONTRACTOR
 WELL.                     B41:  WELL NAME
 RIG .           Central Azeri:  RIG NAME
 DCON.         Sperry Drilling:  DIRECTNL CONTR
 PDAT.          Mean Sea Level:  PERMANENT DATUM
 MDS .        Operator Entered:  MAG DATA SOURCE
 API .                        :  API NUMBER
 CNTY.                        :  COUNTY
 PROV.                        :  PROVINCE
 STAT.                        :  STATE
 UWI .                        :  UNIQUE WELL IDENTIFIER
 LOC .                        :  LOCATION
 LMF .             Drill Floor:  LOG MEASURED FROM
 TVDS.m                  43.29:  TVDSS CORRECTN
 LATI.deg                40.03:  LATITUDE
 LONG.deg                51.35:  LONGITUDE
 WHNS.m                  12.98:  WELL HEAD N/S
 WHEW.m                  -6.62:  WELL HEAD E/W
 UTMX.m              530128.28:  UTM X
 UTMY.m             4433192.49:  UTM Y
 DFWL.m                   0.00:  DISTANCE FWL
 DFSL.m                   0.00:  DISTANCE FSL
 SDEP.m                 378.00:  START DEPTH
 TDD .m                4463.01:  TOTAL DEPTH (DRILLER)
 VSDR.deg               296.18:  VERT SEC DIRECT
 GVFD.g                   1.00:  GRAVITY FIELD
 MFLD.nT              50269.00:  MAGNETIC FIELD
 MDIP.deg                59.50:  MAGNETIC DIP
 MDEC.deg                 6.44:  MAGNETIC DECL
 GRDC.deg                 0.20:  GRID CORRECTION
 AZTC.deg                 6.24:  AZM TOTAL CORR
 EPD .m                   0.00:  ELEVATION
 EGL .m                   0.00:  GROUND ELEVATION
 WDMS.m                 128.20:  WD ELEV
 APD .m                  43.29:  DEPTH ABOVE PD
 AGAP.m                  43.29:  AIR GAP
 VSEW.m                  -6.62:  VERT SEC E/W
 VSNS.m                  12.98:  VERT SEC N/S
 EKB .m                  43.29:  KB ELEVATION
 EDF .m                  43.29:  DF ELEVATION
 TDL .m                 147.00:  TOTAL DEPTH (LOGGER)
 VSC .                       0:  VS TO CLOSURE
 MAGU.                 1849241:  MAGUTM CHECKSUM
~Parameter Information Block
#MNEM.UNIT       Value        Description
#---------     -----------    ---------------------------
 AV  .mps                 0.70:  Ann Velocity 
 AZIF.deg               269.43:  Azm, Final 
 BHAT.        Rotary Steerable:  BHA Type 
 BROT.°/30m              -0.03:  Build Rotating 
 BS  .in                  8.50:  Bit Size 
 BSZ .in                  8.50:  Bit Size 
 BTPL.psig              880.00:  Bit Press Loss 
 CABU.                      No:  Customer Abuse 
 CGEO.          Parviz Guliyev:  Customer Geo 
 TCS .hr                 64.59:  Time Ciculation Ended 
 CV  .mps                 2.17:  Crit Velocity 
 DD1 .            Nonso Okafor:  Direct Drillr 1 
 DDSV.               Geo-Pilot:  DD Service 
 DEFF.%                  98.00:  % Det Eff 
 DLRX.°/30m               0.81:  Dogleg Rot Max 
 DLSO.°/30m               0.55:  Dogleg Oriented 
 DLSX.°/30m               0.81:  Dogleg Str Max 
 DRET.      23.50.00 24-Aug-20:  Drill End Time 
 DRST.      07.34.24 22-Aug-20:  Drill Start Tim 
 DTIM.hr                 15.29:  Time Drilling 
 EDEP.m                4461.01:  End Depth 
 ENG1.       Zam Abdullah Sani:  Engineer 1 
 ENG2.         Dair Mahammadov:  Engineer 2 
 ENG3.          Rustam Gadirov:  Engineer 3 
 ETIM.      07.34.24 26-Aug-20:  End Time 
 FLOI.gpm               550.00:  Flow In 
 FLON.gpm               400.00:  Flow In Min 
 FLOS.cptm                1.00:  Fluid Loss 
 FLOX.gpm               600.00:  Flow In Max 
 FTRO.       Formation Presure:  FTWD Run Obj 
 HFLO.                      No:  High Flow 
 HPRE.                      No:  High Pressure 
 HTEM.                      No:  High Temp 
 HYDO.m                   1.80:  Hydro Offset 
 IFIN.deg                66.72:  Inc, Final 
 IMAX.deg                67.42:  Inc Max 
 IMIN.deg                66.72:  Inc Min 
 IMND.m                4408.37:  Inc Min Depth 
 IMXD.m                4323.37:  Inc Max Depth 
 JARR.                      No:  Jarring 
 LETM.      23.50.00 24-Aug-20:  Log End Time 
 LOST.hr                     0:  Lost Rig Time 
 LSTM.      07.34.24 22-Aug-20:  Log Start Time 
 MDCL.ppm             38000.00:  Mud Chlorides 
 MDES.     Inversion Oil/Synthetic:  Mud Desc 
 DFD .sg                  1.40:  Mud Density 
 MDMN.sg                  1.38:  Dens Mud Min 
 MDMX.sg                  1.41:  Dens Mud Max 
 MOIL.                    70.5:  Run Mud Oil % 
 MOWR.                   68:32:  Run Mud OWR 
 MSND.                    0.01:  Run Mud Sand % 
 MSOL.                   17.68:  Run Mud Solids% 
 DFV .spqt               77.00:  Mud Viscosity 
 MWOD.in                  6.75:  MWD Tool OD 
 MWSI.                      No:  Serv Intrp, MWD 
 OTIM.hr                159.42:  Time Operating 
 PCON.           Look Like New:  Pad Condition 
 PMAX.psia             8730.94:  Press Op, Max 
 PV  .cP                 31.00:  Mud PV 
 RUN .                     900:  Run Number 
 ROPA.m/hr               12.00:  ROP Avg 
 ROPN.m/hr                7.00:  ROP Min 
 ROPX.m/hr               17.00:  ROP Max 
 RPMA.rpm               120.00:  RPM Surface Avg 
 RPMN.rpm                60.00:  RPM Surface Min 
 RPMX.rpm               140.00:  RPM Surface Max 
 RRUN.                    L604:  Rig Run Number 
 RTIM.hr                 10.00:  Time Reaming 
 SAZI.deg               270.56:  Azm, Start 
 SDEP.m                4314.01:  Start Depth 
 SIDD.                      No:  Serv Intrp, DD 
 SINC.deg                67.42:  Inc, Start 
 SPPA.psig             3300.00:  SPP Avg 
 SPPN.psig             1750.00:  SPP Min 
 SPPX.psig             4630.00:  SPP Max 
 STIM.      11.00.00 21-Aug-20:  Start Time 
 SVCS.                 DD, MWD:  Services 
 SVER.                    9.20:  Sperry Version 
 TDAT.m                4461.01:  Tot Depth Attmp 
 TDDF.                      No:  Trip for DD 
 TDLG.m                 147.00:  Tot Depth Loggd 
 TFF .                      No:  Trip for Fail 
 TQAA.f-kp               16.00:  Torque Abs Avg 
 TQAN.f-kp               14.00:  Torque Abs Min 
 TQAX.f-kp               20.00:  Torque Abs Max 
 TRRT.°/30m              -0.14:  Turn Rotating 
 MRT .                    HCIM:  Maximum Recorded Temperature 
 TTMX.degC               78.00:  Max Tool Temp 
 VS01.                90515425:  Virtual Str1 SN 
 VS02.                90545184:  Virtual Str2 SN 
 VS03.                90527809:  Virtual Str3 SN 
 VS04.                90515232:  Virtual Str4 SN 
 VS05.                90621207:  Virtual Str5 SN 
 VS06.                90619737:  Virtual Str6 SN 
 WBMN.klb                 2.00:  WOB Min 
 WITN.          Keith Dischler:  Customer Rep 
 WITN.           Faig Mammadov:  Customer Rep 2 
 WOBA.klb                 5.00:  WOB Avg 
 WOBX.klb                 8.00:  WOB Max 
 YP  .lhf2               32.00:  Yield Point 
~Curve Information Block
#MNEM.UNIT                 API CODE     Curve Description
#---------               -----------    ---------------------------
 TIME.HHMMSS            00 000 000 000:  GT Time & Date
 GTET.sec               00 000 000 000:  GT Elapsed Test Time
 GTPQH.psia             00 000 000 000:  GT HR Quartz Pressure
 GTDEPTH.m              00 000 000 000:  GT Depth
 GTTVD.m                00 000 000 000:  GT True Vertical Depth
 GTTQ.degC              00 000 000 000:  GT Quartz Temperature
 GTTN.NONE              00 000 000 000:  GT Test Number
#Other Information
#
#WARRANTY: Halliburton will use its best efforts to furnish customers with 
#accurate information and interpretations that are part of, and incident to, the services 
#provided.  However, Halliburton cannot and does not warrant the accuracy 
#or correctness of such information and interpretations.  Under no circumstances should any 
#such information or interpretation be relied upon as the sole basis for any drilling, 
#completion, production, or financial decision or any procedure involving any risk to the 
#safety of any drilling venture, drilling rig or its crew or any other third party.  The 
#Customer has full responsibility for all drilling, completion and production operation.  
#Halliburton makes no representations or warranties, either expressed or 
#implied, including, but not limited to, the implied warranties of merchantability or fitness 
#for a particular purpose, with respect to the services rendered.  In no event will 
#Halliburton be liable for failure to obtain any particular results or for 
#any damages, including, but not limited to, indirect, special or consequential damages, 
#resulting from the use of any information or interpretation provided by Halliburton.
#
~A           TIME            GTET   GTPQH  GTDEPTH  GTTVD  GTTQ  GTTN 
# ...
   09:47:38.000.25-Aug-2020 253.00 3351.87 4343.01 2054.32 71.78 8.00
   09:47:38.200.25-Aug-2020 253.20 3351.87 4343.01 2054.32 71.78 8.00
   09:47:38.400.25-Aug-2020 253.40 3351.71 4343.01 2054.32 71.78 8.00
   09:47:38.600.25-Aug-2020 253.60 3351.92 4343.01 2054.32 71.78 8.00
   09:47:38.800.25-Aug-2020 253.80 3351.90 4343.01 2054.32 71.78 8.00
   09:47:39.000.25-Aug-2020 254.00 3351.86 4343.01 2054.32 71.78 8.00
   09:47:39.200.25-Aug-2020 254.20 3351.86 4343.01 2054.32 71.78 8.00
   09:47:39.400.25-Aug-2020 254.40 3351.93 4343.01 2054.32 71.78 8.00
   09:47:39.600.25-Aug-2020 254.60 3348.88 4343.01 2054.32 71.78 8.00
   09:47:39.800.25-Aug-2020 254.80 3318.95 4343.01 2054.32 71.78 8.00
   09:47:40.000.25-Aug-2020 255.00 3309.31 4343.01 2054.32 71.78 8.00
   09:47:40.200.25-Aug-2020 255.20 3309.31 4343.01 2054.32 71.78 8.00
   09:47:40.400.25-Aug-2020 255.40 3307.05 4343.01 2054.32 71.78 8.00
   09:47:40.600.25-Aug-2020 255.60 3307.94 4343.01 2054.32 71.78 8.00
   09:47:40.800.25-Aug-2020 255.80 3309.44 4343.01 2054.32 71.78 8.00
   09:47:41.000.25-Aug-2020 256.00 3309.29 4343.01 2054.32 71.78 8.00
   09:47:41.200.25-Aug-2020 256.20 3309.29 4343.01 2054.32 71.78 8.00
   09:47:41.400.25-Aug-2020 256.40 3309.19 4343.01 2054.32 71.78 8.00
   09:47:41.600.25-Aug-2020 256.60 3308.94 4343.01 2054.32 71.78 8.00
   09:47:41.800.25-Aug-2020 256.80 3309.92 4343.01 2054.32 71.78 8.00
   09:47:42.000.25-Aug-2020 257.00 3310.16 4343.01 2054.32 71.78 8.00
   09:47:42.200.25-Aug-2020 257.20 3310.16 4343.01 2054.32 71.78 8.00
   09:47:42.400.25-Aug-2020 257.40 3310.13 4343.01 2054.32 71.78 8.00
   09:47:42.600.25-Aug-2020 257.60 3310.31 4343.01 2054.32 71.78 8.00
   09:47:42.800.25-Aug-2020 257.80 3310.33 4343.01 2054.32 71.78 8.00
   09:47:43.000.25-Aug-2020 258.00 3310.50 4343.01 2054.32 71.78 8.00
   09:47:43.200.25-Aug-2020 258.20 3310.50 4343.01 2054.32 71.78 8.00
   09:47:43.400.25-Aug-2020 258.40 3310.74 4343.01 2054.32 71.78 8.00
   09:47:43.600.25-Aug-2020 258.60 3310.83 4343.01 2054.32 71.78 8.00
   09:47:43.800.25-Aug-2020 258.80 3310.92 4343.01 2054.32 71.78 8.00
   09:47:44.000.25-Aug-2020 259.00 3311.21 4343.01 2054.32 71.78 8.00
   09:47:44.200.25-Aug-2020 259.20 3311.21 4343.01 2054.32 71.78 8.00
   09:47:44.400.25-Aug-2020 259.40 3311.27 4343.01 2054.32 71.78 8.00
   09:47:44.600.25-Aug-2020 259.60 3311.32 4343.01 2054.32 71.78 8.00
   09:47:44.800.25-Aug-2020 259.80 3311.52 4343.01 2054.32 71.78 8.00
   09:47:45.000.25-Aug-2020 260.00 3311.49 4343.01 2054.32 71.78 8.00
   09:47:45.200.25-Aug-2020 260.20 3311.49 4343.01 2054.32 71.78 8.00
   09:47:45.400.25-Aug-2020 260.40 3311.77 4343.01 2054.32 71.78 8.00
   09:47:45.600.25-Aug-2020 260.60 3312.23 4343.01 2054.32 71.78 8.00
   09:47:45.800.25-Aug-2020 260.80 3312.53 4343.01 2054.32 71.78 8.00
   09:47:46.000.25-Aug-2020 261.00 3312.57 4343.01 2054.32 71.78 8.00
   09:47:46.200.25-Aug-2020 261.20 3312.40 4343.01 2054.32 71.78 8.00
   09:47:46.400.25-Aug-2020 261.40 3312.53 4343.01 2054.32 71.78 8.00
   09:47:46.600.25-Aug-2020 261.60 3312.53 4343.01 2054.32 71.78 8.00
   09:47:46.800.25-Aug-2020 261.80 3312.63 4343.01 2054.32 71.78 8.00
   09:47:47.000.25-Aug-2020 262.00 3312.72 4343.01 2054.32 71.78 8.00
   09:47:47.200.25-Aug-2020 262.20 3312.72 4343.01 2054.32 71.78 8.00
   09:47:47.400.25-Aug-2020 262.40 3312.85 4343.01 2054.32 71.78 8.00
   09:47:47.600.25-Aug-2020 262.60 3312.91 4343.01 2054.32 71.78 8.00
   09:47:47.800.25-Aug-2020 262.80 3312.95 4343.01 2054.32 71.78 8.00
   09:47:48.000.25-Aug-2020 263.00 3312.96 4343.01 2054.32 71.78 8.00
   09:47:48.200.25-Aug-2020 263.20 3312.96 4343.01 2054.32 71.78 8.00
   09:47:48.400.25-Aug-2020 263.40 3312.94 4343.01 2054.32 71.78 8.00
   09:47:48.600.25-Aug-2020 263.60 3313.04 4343.01 2054.32 71.78 8.00
   09:47:48.800.25-Aug-2020 263.80 3313.50 4343.01 2054.32 71.78 8.00
   09:47:49.000.25-Aug-2020 264.00 3313.70 4343.01 2054.32 71.78 8.00
   09:47:49.200.25-Aug-2020 264.20 3313.70 4343.01 2054.32 71.78 8.00
   09:47:49.400.25-Aug-2020 264.40 3313.98 4343.01 2054.32 71.78 8.00
   09:47:49.600.25-Aug-2020 264.60 3313.89 4343.01 2054.32 71.78 8.00
   09:47:49.800.25-Aug-2020 264.80 3321.32 4343.01 2054.32 71.78 8.00
   09:47:50.000.25-Aug-2020 265.00 3341.41 4343.01 2054.32 71.78 8.00
   09:47:50.200.25-Aug-2020 265.20 3341.41 4343.01 2054.32 71.78 8.00
   09:47:50.400.25-Aug-2020 265.40 3350.04 4343.01 2054.32 71.78 8.00
   09:47:50.600.25-Aug-2020 265.60 3350.90 4343.01 2054.32 71.78 8.00
   09:47:50.800.25-Aug-2020 265.80 3350.98 4343.01 2054.32 71.78 8.00
   09:47:51.000.25-Aug-2020 266.00 3351.01 4343.01 2054.32 71.78 8.00
   09:47:51.200.25-Aug-2020 266.20 3351.01 4343.01 2054.32 71.78 8.00
   09:47:51.400.25-Aug-2020 266.40 3351.09 4343.01 2054.32 71.78 8.00
   09:47:51.600.25-Aug-2020 266.60 3351.04 4343.01 2054.32 71.78 8.00
   09:47:51.800.25-Aug-2020 266.80 3351.26 4343.01 2054.32 71.78 8.00
   09:47:52.000.25-Aug-2020 267.00 3351.24 4343.01 2054.32 71.78 8.00
   09:47:52.200.25-Aug-2020 267.20 3351.24 4343.01 2054.32 71.78 8.00
   09:47:52.400.25-Aug-2020 267.40 3351.21 4343.01 2054.32 71.78 8.00
   09:47:52.600.25-Aug-2020 267.60 3351.13 4343.01 2054.32 71.78 8.00
   09:47:52.800.25-Aug-2020 267.80 3351.32 4343.01 2054.32 71.78 8.00
   09:47:53.000.25-Aug-2020 268.00 3351.29 4343.01 2054.32 71.78 8.00
   09:47:53.200.25-Aug-2020 268.20 3351.29 4343.01 2054.32 71.78 8.00
   09:47:53.400.25-Aug-2020 268.40 3351.26 4343.01 2054.32 71.78 8.00
   09:47:53.600.25-Aug-2020 268.60 3351.26 4343.01 2054.32 71.78 8.00
   09:47:53.800.25-Aug-2020 268.80 3351.26 4343.01 2054.32 71.78 8.00
   09:47:54.000.25-Aug-2020 269.00 3351.26 4343.01 2054.32 71.78 8.00
   09:47:54.200.25-Aug-2020 269.20 3351.26 4343.01 2054.32 71.78 8.00
   09:47:54.400.25-Aug-2020 269.40 3351.28 4343.01 2054.32 71.78 8.00
   09:47:54.600.25-Aug-2020 269.60 3351.27 4343.01 2054.32 71.78 8.00
   09:47:54.800.25-Aug-2020 269.80 3351.27 4343.01 2054.32 71.78 8.00
   09:47:55.000.25-Aug-2020 270.00 3351.28 4343.01 2054.32 71.78 8.00
   09:47:55.200.25-Aug-2020 270.20 3351.28 4343.01 2054.32 71.78 8.00
   09:47:55.400.25-Aug-2020 270.40 3351.28 4343.01 2054.32 71.78 8.00
   09:47:55.600.25-Aug-2020 270.60 3351.29 4343.01 2054.32 71.78 8.00
   09:47:55.800.25-Aug-2020 270.80 3351.29 4343.01 2054.32 71.78 8.00
   09:47:56.000.25-Aug-2020 271.00 3351.29 4343.01 2054.32 71.78 8.00
   09:47:56.200.25-Aug-2020 271.20 3351.29 4343.01 2054.32 71.78 8.00
   09:47:56.400.25-Aug-2020 271.40 3351.30 4343.01 2054.32 71.78 8.00
   09:47:56.600.25-Aug-2020 271.60 3351.33 4343.01 2054.32 71.78 8.00
   09:47:56.800.25-Aug-2020 271.80 3351.33 4343.01 2054.32 71.78 8.00
   09:47:57.000.25-Aug-2020 272.00 3351.34 4343.01 2054.32 71.78 8.00
   09:47:57.200.25-Aug-2020 272.20 3351.34 4343.01 2054.32 71.78 8.00
   09:47:57.400.25-Aug-2020 272.40 3351.32 4343.01 2054.32 71.78 8.00
   09:47:57.600.25-Aug-2020 272.60 3351.32 4343.01 2054.32 71.78 8.00
   09:47:57.800.25-Aug-2020 272.80 3351.33 4343.01 2054.32 71.78 8.00
   09:47:58.000.25-Aug-2020 273.00 3351.33 4343.01 2054.32 71.78 8.00
   09:47:58.200.25-Aug-2020 273.20 3351.33 4343.01 2054.32 71.78 8.00
   09:47:58.400.25-Aug-2020 273.40 3351.34 4343.01 2054.32 71.78 8.00
   09:47:58.600.25-Aug-2020 273.60 3351.33 4343.01 2054.32 71.78 8.00
   09:47:58.800.25-Aug-2020 273.80 3351.35 4343.01 2054.32 71.78 8.00
   09:47:59.000.25-Aug-2020 274.00 3351.35 4343.01 2054.32 71.78 8.00
   09:47:59.200.25-Aug-2020 274.20 3351.35 4343.01 2054.32 71.78 8.00
   09:47:59.400.25-Aug-2020 274.40 3351.36 4343.01 2054.32 71.78 8.00
   09:47:59.600.25-Aug-2020 274.60 3351.25 4343.01 2054.32 71.78 8.00
   09:47:59.800.25-Aug-2020 274.80 3351.42 4343.01 2054.32 71.78 8.00
   09:48:00.000.25-Aug-2020 275.00 3351.42 4343.01 2054.32 71.78 8.00
   09:48:00.200.25-Aug-2020 275.20 3351.42 4343.01 2054.32 71.78 8.00
   09:48:00.400.25-Aug-2020 275.40 3351.38 4343.01 2054.32 71.78 8.00
   09:48:00.600.25-Aug-2020 275.60 3351.38 4343.01 2054.32 71.78 8.00
   09:48:00.800.25-Aug-2020 275.80 3351.32 4343.01 2054.32 71.78 8.00
