~Version Information
 VERS.                  2.0:   CWLS log ASCII Standard -VERSION 2.0
 WRAP.                   NO:   One line per depth step
~Well Information Block
#MNEM.UNIT     VALUE/NAME     DESCRIPTION
#---------     -----------    ---------------------------
 STRT.S             08:04:20 25-Aug-20: START TIME 08:04:20 25-Aug-20
 STOP.S             08:11:17 25-Aug-20: STOP TIME  08:11:17 25-Aug-20
 STEP.S                   0.00: STEP TIME
 NULL.                 -999.25: NULL VALUE
 DFWT.                        :  DIST FWL TEXT
 DFST.                        :  DIST FSL TEXT
 DMF .             Drill Floor:  DRILL MEAS FROM
 STIM.      09.59.28 01-Jun-20:  START TIME
 DATE.      05.00.00 28-Aug-20:  END TIME
 SPUD.               01-Jun-20:  SPUD DATE
 NREF.                    Grid:  NORTH REFERENCE
 HPTY.       Minimum Curvature:  HOLE POS TYPE
 DMOD.             Drill Model:  DRILL MOD DESC
 SVYD.                  Survey:  SURVEY DESC
 ILTD.               Lithology:  INTERP LTH DESC
 FTOP.          Formation Tops:  FORM TOPS DESC
 SON .        AZ-XX-0905455768:  JOB NUMBER
 WTYP.                Deviated:  WELL TYPE
 COMP.     BP Exploration(Caspian Sea):  COMPANY
 BASE.              Azerbaijan:  LOGGING EQUIPMENT BASE LOCATION
 REGN.                   EESSA:  REGION
 CTRY.              Azerbaijan:  COUNTRY NAME
 FLD .                     ACG:  FIELD NAME
 SRVC.          Turan Drilling:  CONTRACTOR
 WELL.                     B41:  WELL NAME
 RIG .           Central Azeri:  RIG NAME
 DCON.         Sperry Drilling:  DIRECTNL CONTR
 PDAT.          Mean Sea Level:  PERMANENT DATUM
 MDS .        Operator Entered:  MAG DATA SOURCE
 API .                        :  API NUMBER
 CNTY.                        :  COUNTY
 PROV.                        :  PROVINCE
 STAT.                        :  STATE
 UWI .                        :  UNIQUE WELL IDENTIFIER
 LOC .                        :  LOCATION
 LMF .             Drill Floor:  LOG MEASURED FROM
 TVDS.m                  43.29:  TVDSS CORRECTN
 LATI.deg                40.03:  LATITUDE
 LONG.deg                51.35:  LONGITUDE
 WHNS.m                  12.98:  WELL HEAD N/S
 WHEW.m                  -6.62:  WELL HEAD E/W
 UTMX.m              530128.28:  UTM X
 UTMY.m             4433192.49:  UTM Y
 DFWL.m                   0.00:  DISTANCE FWL
 DFSL.m                   0.00:  DISTANCE FSL
 SDEP.m                 378.00:  START DEPTH
 TDD .m                4463.01:  TOTAL DEPTH (DRILLER)
 VSDR.deg               296.18:  VERT SEC DIRECT
 GVFD.g                   1.00:  GRAVITY FIELD
 MFLD.nT              50269.00:  MAGNETIC FIELD
 MDIP.deg                59.50:  MAGNETIC DIP
 MDEC.deg                 6.44:  MAGNETIC DECL
 GRDC.deg                 0.20:  GRID CORRECTION
 AZTC.deg                 6.24:  AZM TOTAL CORR
 EPD .m                   0.00:  ELEVATION
 EGL .m                   0.00:  GROUND ELEVATION
 WDMS.m                 128.20:  WD ELEV
 APD .m                  43.29:  DEPTH ABOVE PD
 AGAP.m                  43.29:  AIR GAP
 VSEW.m                  -6.62:  VERT SEC E/W
 VSNS.m                  12.98:  VERT SEC N/S
 EKB .m                  43.29:  KB ELEVATION
 EDF .m                  43.29:  DF ELEVATION
 TDL .m                 147.00:  TOTAL DEPTH (LOGGER)
 VSC .                       0:  VS TO CLOSURE
 MAGU.                 1849241:  MAGUTM CHECKSUM
~Parameter Information Block
#MNEM.UNIT       Value        Description
#---------     -----------    ---------------------------
 AV  .mps                 0.70:  Ann Velocity 
 AZIF.deg               269.43:  Azm, Final 
 BHAT.        Rotary Steerable:  BHA Type 
 BROT.°/30m              -0.03:  Build Rotating 
 BS  .in                  8.50:  Bit Size 
 BSZ .in                  8.50:  Bit Size 
 BTPL.psig              880.00:  Bit Press Loss 
 CABU.                      No:  Customer Abuse 
 CGEO.          Parviz Guliyev:  Customer Geo 
 COMM.                     <oh:  Run Comments 1 
 TCS .hr                 64.59:  Time Ciculation Ended 
 CV  .mps                 2.17:  Crit Velocity 
 DD1 .            Nonso Okafor:  Direct Drillr 1 
 DDSV.               Geo-Pilot:  DD Service 
 DEFF.%                  98.00:  % Det Eff 
 DLRX.°/30m               0.81:  Dogleg Rot Max 
 DLSO.°/30m               0.55:  Dogleg Oriented 
 DLSX.°/30m               0.81:  Dogleg Str Max 
 DRET.      23.50.00 24-Aug-20:  Drill End Time 
 DRST.      07.34.24 22-Aug-20:  Drill Start Tim 
 DTIM.hr                 15.29:  Time Drilling 
 EDEP.m                4461.01:  End Depth 
 ENG1.       Zam Abdullah Sani:  Engineer 1 
 ENG2.         Dair Mahammadov:  Engineer 2 
 ENG3.          Rustam Gadirov:  Engineer 3 
 ETIM.      07.34.24 26-Aug-20:  End Time 
 FLOI.gpm               550.00:  Flow In 
 FLON.gpm               400.00:  Flow In Min 
 FLOS.cptm                1.00:  Fluid Loss 
 FLOX.gpm               600.00:  Flow In Max 
 FTRO.       Formation Presure:  FTWD Run Obj 
 HFLO.                      No:  High Flow 
 HPRE.                      No:  High Pressure 
 HTEM.                      No:  High Temp 
 HYDO.m                   1.80:  Hydro Offset 
 IFIN.deg                66.72:  Inc, Final 
 IMAX.deg                67.42:  Inc Max 
 IMIN.deg                66.72:  Inc Min 
 IMND.m                4408.37:  Inc Min Depth 
 IMXD.m                4323.37:  Inc Max Depth 
 JARR.                      No:  Jarring 
 LETM.      23.50.00 24-Aug-20:  Log End Time 
 LOST.hr                     0:  Lost Rig Time 
 LSTM.      07.34.24 22-Aug-20:  Log Start Time 
 MDCL.ppm             38000.00:  Mud Chlorides 
 MDES.     Inversion Oil/Synthetic:  Mud Desc 
 DFD .sg                  1.40:  Mud Density 
 MDMN.sg                  1.38:  Dens Mud Min 
 MDMX.sg                  1.41:  Dens Mud Max 
 MOIL.                    70.5:  Run Mud Oil % 
 MOWR.                   68:32:  Run Mud OWR 
 MSND.                    0.01:  Run Mud Sand % 
 MSOL.                   17.68:  Run Mud Solids% 
 DFV .spqt               77.00:  Mud Viscosity 
 MWOD.in                  6.75:  MWD Tool OD 
 MWSI.                      No:  Serv Intrp, MWD 
 OTIM.hr                159.42:  Time Operating 
 PCON.           Look Like New:  Pad Condition 
 PMAX.psia             8730.94:  Press Op, Max 
 PV  .cP                 31.00:  Mud PV 
 RUN .                     900:  Run Number 
 ROPA.m/hr               12.00:  ROP Avg 
 ROPN.m/hr                7.00:  ROP Min 
 ROPX.m/hr               17.00:  ROP Max 
 RPMA.rpm               120.00:  RPM Surface Avg 
 RPMN.rpm                60.00:  RPM Surface Min 
 RPMX.rpm               140.00:  RPM Surface Max 
 RRUN.                    L604:  Rig Run Number 
 RTIM.hr                 10.00:  Time Reaming 
 SAZI.deg               270.56:  Azm, Start 
 SDEP.m                4314.01:  Start Depth 
 SIDD.                      No:  Serv Intrp, DD 
 SINC.deg                67.42:  Inc, Start 
 SPPA.psig             3300.00:  SPP Avg 
 SPPN.psig             1750.00:  SPP Min 
 SPPX.psig             4630.00:  SPP Max 
 STIM.      11.00.00 21-Aug-20:  Start Time 
 SVCS.                 DD, MWD:  Services 
 SVER.                    9.20:  Sperry Version 
 TDAT.m                4461.01:  Tot Depth Attmp 
 TDDF.                      No:  Trip for DD 
 TDLG.m                 147.00:  Tot Depth Loggd 
 TFF .                      No:  Trip for Fail 
 TQAA.f-kp               16.00:  Torque Abs Avg 
 TQAN.f-kp               14.00:  Torque Abs Min 
 TQAX.f-kp               20.00:  Torque Abs Max 
 TRRT.°/30m              -0.14:  Turn Rotating 
 MRT .                    HCIM:  Maximum Recorded Temperature 
 TTMX.degC               78.00:  Max Tool Temp 
 VS01.                90515425:  Virtual Str1 SN 
 VS02.                90545184:  Virtual Str2 SN 
 VS03.                90527809:  Virtual Str3 SN 
 VS04.                90515232:  Virtual Str4 SN 
 VS05.                90621207:  Virtual Str5 SN 
 VS06.                90619737:  Virtual Str6 SN 
 WBMN.klb                 2.00:  WOB Min 
 WITN.          Keith Dischler:  Customer Rep 
 WITN.           Faig Mammadov:  Customer Rep 2 
 WOBA.klb                 5.00:  WOB Avg 
 WOBX.klb                 8.00:  WOB Max 
 YP  .lhf2               32.00:  Yield Point 
~Curve Information Block
#MNEM.UNIT                 API CODE     Curve Description
#---------               -----------    ---------------------------
 TIME.HHMMSS            00 000 000 000:  GT Time & Date
 GTET.sec               00 000 000 000:  GT Elapsed Test Time
 GTPQH.psia             00 000 000 000:  GT HR Quartz Pressure
 GTDEPTH.m              00 000 000 000:  GT Depth
 GTTVD.m                00 000 000 000:  GT True Vertical Depth
 GTTQ.degC              00 000 000 000:  GT Quartz Temperature
 GTTN.NONE              00 000 000 000:  GT Test Number
#Other Information
#
#WARRANTY: Halliburton will use its best efforts to furnish customers with 
#accurate information and interpretations that are part of, and incident to, the services 
#provided.  However, Halliburton cannot and does not warrant the accuracy 
#or correctness of such information and interpretations.  Under no circumstances should any 
#such information or interpretation be relied upon as the sole basis for any drilling, 
#completion, production, or financial decision or any procedure involving any risk to the 
#safety of any drilling venture, drilling rig or its crew or any other third party.  The 
#Customer has full responsibility for all drilling, completion and production operation.  
#Halliburton makes no representations or warranties, either expressed or 
#implied, including, but not limited to, the implied warranties of merchantability or fitness 
#for a particular purpose, with respect to the services rendered.  In no event will 
#Halliburton be liable for failure to obtain any particular results or for 
#any damages, including, but not limited to, indirect, special or consequential damages, 
#resulting from the use of any information or interpretation provided by Halliburton.
#
~A           TIME            GTET   GTPQH  GTDEPTH  GTTVD  GTTQ  GTTN 
# ...
   08:08:33.000.25-Aug-2020 253.00   93.79 4370.51 2065.14 72.26 5.00
   08:08:33.200.25-Aug-2020 253.20   93.79 4370.51 2065.14 72.26 5.00
   08:08:33.400.25-Aug-2020 253.40   93.80 4370.51 2065.14 72.26 5.00
   08:08:33.600.25-Aug-2020 253.60   93.81 4370.51 2065.14 72.26 5.00
   08:08:33.800.25-Aug-2020 253.80   93.82 4370.51 2065.14 72.26 5.00
   08:08:34.000.25-Aug-2020 254.00   93.82 4370.51 2065.14 72.26 5.00
   08:08:34.200.25-Aug-2020 254.20   93.82 4370.51 2065.14 72.26 5.00
   08:08:34.400.25-Aug-2020 254.40   93.84 4370.51 2065.14 72.26 5.00
   08:08:34.600.25-Aug-2020 254.60   93.84 4370.51 2065.14 72.26 5.00
   08:08:34.800.25-Aug-2020 254.80   93.84 4370.51 2065.14 72.26 5.00
   08:08:35.000.25-Aug-2020 255.00   93.81 4370.51 2065.14 72.26 5.00
   08:08:35.200.25-Aug-2020 255.20   93.88 4370.51 2065.14 72.26 5.00
   08:08:35.400.25-Aug-2020 255.40   93.73 4370.51 2065.14 72.26 5.00
   08:08:35.600.25-Aug-2020 255.60   92.99 4370.51 2065.14 72.26 5.00
   08:08:35.800.25-Aug-2020 255.80   92.02 4370.51 2065.14 72.26 5.00
   08:08:36.000.25-Aug-2020 256.00   91.03 4370.51 2065.14 72.26 5.00
   08:08:36.200.25-Aug-2020 256.20   90.04 4370.51 2065.14 72.26 5.00
   08:08:36.400.25-Aug-2020 256.40   89.16 4370.51 2065.14 72.26 5.00
   08:08:36.600.25-Aug-2020 256.60   88.30 4370.51 2065.14 72.26 5.00
   08:08:36.800.25-Aug-2020 256.80   87.44 4370.51 2065.14 72.26 5.00
   08:08:37.000.25-Aug-2020 257.00   86.56 4370.51 2065.14 72.26 5.00
   08:08:37.200.25-Aug-2020 257.20   86.56 4370.51 2065.14 72.26 5.00
   08:08:37.400.25-Aug-2020 257.40   84.99 4370.51 2065.14 72.26 5.00
   08:08:37.600.25-Aug-2020 257.60   84.23 4370.51 2065.14 72.26 5.00
   08:08:37.800.25-Aug-2020 257.80   83.50 4370.51 2065.14 72.26 5.00
   08:08:38.000.25-Aug-2020 258.00   82.76 4370.51 2065.14 72.26 5.00
   08:08:38.200.25-Aug-2020 258.20   82.76 4370.51 2065.14 72.26 5.00
   08:08:38.400.25-Aug-2020 258.40   81.35 4370.51 2065.14 72.26 5.00
   08:08:38.600.25-Aug-2020 258.60   80.61 4370.51 2065.14 72.26 5.00
   08:08:38.800.25-Aug-2020 258.80   79.95 4370.51 2065.14 72.26 5.00
   08:08:39.000.25-Aug-2020 259.00   79.34 4370.51 2065.14 72.26 5.00
   08:08:39.200.25-Aug-2020 259.20   78.70 4370.51 2065.14 72.26 5.00
   08:08:39.400.25-Aug-2020 259.40   78.07 4370.51 2065.14 72.26 5.00
   08:08:39.600.25-Aug-2020 259.60   77.45 4370.51 2065.14 72.26 5.00
   08:08:39.800.25-Aug-2020 259.80   76.84 4370.51 2065.14 72.26 5.00
   08:08:40.000.25-Aug-2020 260.00   76.23 4370.51 2065.14 72.26 5.00
   08:08:40.200.25-Aug-2020 260.20   75.61 4370.51 2065.14 72.26 5.00
   08:08:40.400.25-Aug-2020 260.40   75.07 4370.51 2065.14 72.26 5.00
   08:08:40.600.25-Aug-2020 260.60   74.53 4370.51 2065.14 72.26 5.00
   08:08:40.800.25-Aug-2020 260.80   73.98 4370.51 2065.14 72.26 5.00
   08:08:41.000.25-Aug-2020 261.00   73.44 4370.51 2065.14 72.26 5.00
   08:08:41.200.25-Aug-2020 261.20   73.44 4370.51 2065.14 72.26 5.00
   08:08:41.400.25-Aug-2020 261.40   72.38 4370.51 2065.14 72.26 5.00
   08:08:41.600.25-Aug-2020 261.60   71.88 4370.51 2065.14 72.26 5.00
   08:08:41.800.25-Aug-2020 261.80   71.36 4370.51 2065.14 72.26 5.00
   08:08:42.000.25-Aug-2020 262.00   70.86 4370.51 2065.14 72.26 5.00
   08:08:42.200.25-Aug-2020 262.20   70.86 4370.51 2065.14 72.26 5.00
   08:08:42.400.25-Aug-2020 262.40   69.89 4370.51 2065.14 72.26 5.00
   08:08:42.600.25-Aug-2020 262.60   69.41 4370.51 2065.14 72.26 5.00
   08:08:42.800.25-Aug-2020 262.80   68.95 4370.51 2065.14 72.26 5.00
   08:08:43.000.25-Aug-2020 263.00   68.48 4370.51 2065.14 72.26 5.00
   08:08:43.200.25-Aug-2020 263.20   68.03 4370.51 2065.14 72.26 5.00
   08:08:43.400.25-Aug-2020 263.40   67.59 4370.51 2065.14 72.26 5.00
   08:08:43.600.25-Aug-2020 263.60   67.14 4370.51 2065.14 72.26 5.00
   08:08:43.800.25-Aug-2020 263.80   66.65 4370.51 2065.14 72.26 5.00
   08:08:44.000.25-Aug-2020 264.00   66.27 4370.51 2065.14 72.26 5.00
   08:08:44.200.25-Aug-2020 264.20   65.88 4370.51 2065.14 72.26 5.00
   08:08:44.400.25-Aug-2020 264.40   65.47 4370.51 2065.14 72.26 5.00
   08:08:44.600.25-Aug-2020 264.60   65.07 4370.51 2065.14 72.26 5.00
   08:08:44.800.25-Aug-2020 264.80   64.66 4370.51 2065.14 72.26 5.00
   08:08:45.000.25-Aug-2020 265.00   64.28 4370.51 2065.14 72.26 5.00
   08:08:45.200.25-Aug-2020 265.20   64.28 4370.51 2065.14 72.26 5.00
   08:08:45.400.25-Aug-2020 265.40   63.51 4370.51 2065.14 72.26 5.00
   08:08:45.600.25-Aug-2020 265.60   63.36 4370.51 2065.14 72.26 5.00
   08:08:45.800.25-Aug-2020 265.80   63.42 4370.51 2065.14 72.26 5.00
   08:08:46.000.25-Aug-2020 266.00   63.46 4370.51 2065.14 72.26 5.00
   08:08:46.200.25-Aug-2020 266.20   63.46 4370.51 2065.14 72.26 5.00
   08:08:46.400.25-Aug-2020 266.40   63.55 4370.51 2065.14 72.26 5.00
   08:08:46.600.25-Aug-2020 266.60   63.60 4370.51 2065.14 72.26 5.00
   08:08:46.800.25-Aug-2020 266.80   63.63 4370.51 2065.14 72.26 5.00
   08:08:47.000.25-Aug-2020 267.00   63.65 4370.51 2065.14 72.26 5.00
   08:08:47.200.25-Aug-2020 267.20   63.70 4370.51 2065.14 72.26 5.00
   08:08:47.400.25-Aug-2020 267.40   63.73 4370.51 2065.14 72.26 5.00
   08:08:47.600.25-Aug-2020 267.60   63.76 4370.51 2065.14 72.26 5.00
   08:08:47.800.25-Aug-2020 267.80   63.78 4370.51 2065.14 72.26 5.00
   08:08:48.000.25-Aug-2020 268.00   63.77 4370.51 2065.14 72.26 5.00
   08:08:48.200.25-Aug-2020 268.20   63.85 4370.51 2065.14 72.26 5.00
   08:08:48.400.25-Aug-2020 268.40   63.86 4370.51 2065.14 72.26 5.00
   08:08:48.600.25-Aug-2020 268.60   63.89 4370.51 2065.14 72.26 5.00
   08:08:48.800.25-Aug-2020 268.80   63.91 4370.51 2065.14 72.26 5.00
   08:08:49.000.25-Aug-2020 269.00   63.90 4370.51 2065.14 72.26 5.00
   08:08:49.200.25-Aug-2020 269.20   63.90 4370.51 2065.14 72.26 5.00
   08:08:49.400.25-Aug-2020 269.40   63.97 4370.51 2065.14 72.26 5.00
   08:08:49.600.25-Aug-2020 269.60   63.99 4370.51 2065.14 72.26 5.00
   08:08:49.800.25-Aug-2020 269.80   64.00 4370.51 2065.14 72.26 5.00
   08:08:50.000.25-Aug-2020 270.00   64.02 4370.51 2065.14 72.26 5.00
   08:08:50.200.25-Aug-2020 270.20   64.02 4370.51 2065.14 72.26 5.00
   08:08:50.400.25-Aug-2020 270.40   64.01 4370.51 2065.14 72.26 5.00
   08:08:50.600.25-Aug-2020 270.60   64.07 4370.51 2065.14 72.26 5.00
   08:08:50.800.25-Aug-2020 270.80   64.08 4370.51 2065.14 72.26 5.00
   08:08:51.000.25-Aug-2020 271.00   64.10 4370.51 2065.14 72.26 5.00
   08:08:51.200.25-Aug-2020 271.20   64.12 4370.51 2065.14 72.26 5.00
   08:08:51.400.25-Aug-2020 271.40   64.13 4370.51 2065.14 72.26 5.00
   08:08:51.600.25-Aug-2020 271.60   64.14 4370.51 2065.14 72.26 5.00
   08:08:51.800.25-Aug-2020 271.80   64.12 4370.51 2065.14 72.26 5.00
   08:08:52.000.25-Aug-2020 272.00   64.18 4370.51 2065.14 72.26 5.00
   08:08:52.200.25-Aug-2020 272.20   64.19 4370.51 2065.14 72.26 5.00
   08:08:52.400.25-Aug-2020 272.40   64.20 4370.51 2065.14 72.26 5.00
   08:08:52.600.25-Aug-2020 272.60   64.23 4370.51 2065.14 72.26 5.00
   08:08:52.800.25-Aug-2020 272.80   64.23 4370.51 2065.14 72.26 5.00
   08:08:53.000.25-Aug-2020 273.00   64.25 4370.51 2065.14 72.26 5.00
   08:08:53.200.25-Aug-2020 273.20   64.25 4370.51 2065.14 72.26 5.00
   08:08:53.400.25-Aug-2020 273.40   64.28 4370.51 2065.14 72.26 5.00
   08:08:53.600.25-Aug-2020 273.60   64.29 4370.51 2065.14 72.26 5.00
   08:08:53.800.25-Aug-2020 273.80   64.30 4370.51 2065.14 72.26 5.00
   08:08:54.000.25-Aug-2020 274.00   64.32 4370.51 2065.14 72.26 5.00
   08:08:54.200.25-Aug-2020 274.20   64.32 4370.51 2065.14 72.26 5.00
   08:08:54.400.25-Aug-2020 274.40   64.34 4370.51 2065.14 72.26 5.00
   08:08:54.600.25-Aug-2020 274.60   64.34 4370.51 2065.14 72.26 5.00
   08:08:54.800.25-Aug-2020 274.80   64.36 4370.51 2065.14 72.26 5.00
   08:08:55.000.25-Aug-2020 275.00   64.37 4370.51 2065.14 72.26 5.00
   08:08:55.200.25-Aug-2020 275.20   64.39 4370.51 2065.14 72.26 5.00
   08:08:55.400.25-Aug-2020 275.40   64.36 4370.51 2065.14 72.26 5.00
   08:08:55.600.25-Aug-2020 275.60   64.42 4370.51 2065.14 72.26 5.00
   08:08:55.800.25-Aug-2020 275.80   64.42 4370.51 2065.14 72.26 5.00
