~Version Information
 VERS.                  2.0:   CWLS log ASCII Standard -VERSION 2.0
 WRAP.                   NO:   One line per depth step
~Well Information Block
#MNEM.UNIT     VALUE/NAME     DESCRIPTION
#---------     -----------    ---------------------------
 STRT.S             10:29:38 25-Aug-20: START TIME 10:29:38 25-Aug-20
 STOP.S             10:36:37 25-Aug-20: STOP TIME  10:36:37 25-Aug-20
 STEP.S                   0.00: STEP TIME
 NULL.                 -999.25: NULL VALUE
 DFWT.                        :  DIST FWL TEXT
 DFST.                        :  DIST FSL TEXT
 DMF .             Drill Floor:  DRILL MEAS FROM
 STIM.      09.59.28 01-Jun-20:  START TIME
 DATE.      05.00.00 28-Aug-20:  END TIME
 SPUD.               01-Jun-20:  SPUD DATE
 NREF.                    Grid:  NORTH REFERENCE
 HPTY.       Minimum Curvature:  HOLE POS TYPE
 DMOD.             Drill Model:  DRILL MOD DESC
 SVYD.                  Survey:  SURVEY DESC
 ILTD.               Lithology:  INTERP LTH DESC
 FTOP.          Formation Tops:  FORM TOPS DESC
 SON .        AZ-XX-0905455768:  JOB NUMBER
 WTYP.                Deviated:  WELL TYPE
 COMP.     BP Exploration(Caspian Sea):  COMPANY
 BASE.              Azerbaijan:  LOGGING EQUIPMENT BASE LOCATION
 REGN.                   EESSA:  REGION
 CTRY.              Azerbaijan:  COUNTRY NAME
 FLD .                     ACG:  FIELD NAME
 SRVC.          Turan Drilling:  CONTRACTOR
 WELL.                     B41:  WELL NAME
 RIG .           Central Azeri:  RIG NAME
 DCON.         Sperry Drilling:  DIRECTNL CONTR
 PDAT.          Mean Sea Level:  PERMANENT DATUM
 MDS .        Operator Entered:  MAG DATA SOURCE
 API .                        :  API NUMBER
 CNTY.                        :  COUNTY
 PROV.                        :  PROVINCE
 STAT.                        :  STATE
 UWI .                        :  UNIQUE WELL IDENTIFIER
 LOC .                        :  LOCATION
 LMF .             Drill Floor:  LOG MEASURED FROM
 TVDS.m                  43.29:  TVDSS CORRECTN
 LATI.deg                40.03:  LATITUDE
 LONG.deg                51.35:  LONGITUDE
 WHNS.m                  12.98:  WELL HEAD N/S
 WHEW.m                  -6.62:  WELL HEAD E/W
 UTMX.m              530128.28:  UTM X
 UTMY.m             4433192.49:  UTM Y
 DFWL.m                   0.00:  DISTANCE FWL
 DFSL.m                   0.00:  DISTANCE FSL
 SDEP.m                 378.00:  START DEPTH
 TDD .m                4463.01:  TOTAL DEPTH (DRILLER)
 VSDR.deg               296.18:  VERT SEC DIRECT
 GVFD.g                   1.00:  GRAVITY FIELD
 MFLD.nT              50269.00:  MAGNETIC FIELD
 MDIP.deg                59.50:  MAGNETIC DIP
 MDEC.deg                 6.44:  MAGNETIC DECL
 GRDC.deg                 0.20:  GRID CORRECTION
 AZTC.deg                 6.24:  AZM TOTAL CORR
 EPD .m                   0.00:  ELEVATION
 EGL .m                   0.00:  GROUND ELEVATION
 WDMS.m                 128.20:  WD ELEV
 APD .m                  43.29:  DEPTH ABOVE PD
 AGAP.m                  43.29:  AIR GAP
 VSEW.m                  -6.62:  VERT SEC E/W
 VSNS.m                  12.98:  VERT SEC N/S
 EKB .m                  43.29:  KB ELEVATION
 EDF .m                  43.29:  DF ELEVATION
 TDL .m                 147.00:  TOTAL DEPTH (LOGGER)
 VSC .                       0:  VS TO CLOSURE
 MAGU.                 1849241:  MAGUTM CHECKSUM
~Parameter Information Block
#MNEM.UNIT       Value        Description
#---------     -----------    ---------------------------
 AV  .mps                 0.70:  Ann Velocity 
 AZIF.deg               269.43:  Azm, Final 
 BHAT.        Rotary Steerable:  BHA Type 
 BROT.°/30m              -0.03:  Build Rotating 
 BS  .in                  8.50:  Bit Size 
 BSZ .in                  8.50:  Bit Size 
 BTPL.psig              880.00:  Bit Press Loss 
 CABU.                      No:  Customer Abuse 
 CGEO.          Parviz Guliyev:  Customer Geo 
 COMM.                     ¼+`:  Run Comments 1 
 TCS .hr                 64.59:  Time Ciculation Ended 
 CV  .mps                 2.17:  Crit Velocity 
 DD1 .            Nonso Okafor:  Direct Drillr 1 
 DDSV.               Geo-Pilot:  DD Service 
 DEFF.%                  98.00:  % Det Eff 
 DLRX.°/30m               0.81:  Dogleg Rot Max 
 DLSO.°/30m               0.55:  Dogleg Oriented 
 DLSX.°/30m               0.81:  Dogleg Str Max 
 DRET.      23.50.00 24-Aug-20:  Drill End Time 
 DRST.      07.34.24 22-Aug-20:  Drill Start Tim 
 DTIM.hr                 15.29:  Time Drilling 
 EDEP.m                4461.01:  End Depth 
 ENG1.       Zam Abdullah Sani:  Engineer 1 
 ENG2.         Dair Mahammadov:  Engineer 2 
 ENG3.          Rustam Gadirov:  Engineer 3 
 ETIM.      07.34.24 26-Aug-20:  End Time 
 FLOI.gpm               550.00:  Flow In 
 FLON.gpm               400.00:  Flow In Min 
 FLOS.cptm                1.00:  Fluid Loss 
 FLOX.gpm               600.00:  Flow In Max 
 FTRO.       Formation Presure:  FTWD Run Obj 
 HFLO.                      No:  High Flow 
 HPRE.                      No:  High Pressure 
 HTEM.                      No:  High Temp 
 HYDO.m                   1.80:  Hydro Offset 
 IFIN.deg                66.72:  Inc, Final 
 IMAX.deg                67.42:  Inc Max 
 IMIN.deg                66.72:  Inc Min 
 IMND.m                4408.37:  Inc Min Depth 
 IMXD.m                4323.37:  Inc Max Depth 
 JARR.                      No:  Jarring 
 LETM.      23.50.00 24-Aug-20:  Log End Time 
 LOST.hr                     0:  Lost Rig Time 
 LSTM.      07.34.24 22-Aug-20:  Log Start Time 
 MDCL.ppm             38000.00:  Mud Chlorides 
 MDES.     Inversion Oil/Synthetic:  Mud Desc 
 DFD .sg                  1.40:  Mud Density 
 MDMN.sg                  1.38:  Dens Mud Min 
 MDMX.sg                  1.41:  Dens Mud Max 
 MOIL.                    70.5:  Run Mud Oil % 
 MOWR.                   68:32:  Run Mud OWR 
 MSND.                    0.01:  Run Mud Sand % 
 MSOL.                   17.68:  Run Mud Solids% 
 DFV .spqt               77.00:  Mud Viscosity 
 MWOD.in                  6.75:  MWD Tool OD 
 MWSI.                      No:  Serv Intrp, MWD 
 OTIM.hr                159.42:  Time Operating 
 PCON.           Look Like New:  Pad Condition 
 PMAX.psia             8730.94:  Press Op, Max 
 PV  .cP                 31.00:  Mud PV 
 RUN .                     900:  Run Number 
 ROPA.m/hr               12.00:  ROP Avg 
 ROPN.m/hr                7.00:  ROP Min 
 ROPX.m/hr               17.00:  ROP Max 
 RPMA.rpm               120.00:  RPM Surface Avg 
 RPMN.rpm                60.00:  RPM Surface Min 
 RPMX.rpm               140.00:  RPM Surface Max 
 RRUN.                    L604:  Rig Run Number 
 RTIM.hr                 10.00:  Time Reaming 
 SAZI.deg               270.56:  Azm, Start 
 SDEP.m                4314.01:  Start Depth 
 SIDD.                      No:  Serv Intrp, DD 
 SINC.deg                67.42:  Inc, Start 
 SPPA.psig             3300.00:  SPP Avg 
 SPPN.psig             1750.00:  SPP Min 
 SPPX.psig             4630.00:  SPP Max 
 STIM.      11.00.00 21-Aug-20:  Start Time 
 SVCS.                 DD, MWD:  Services 
 SVER.                    9.20:  Sperry Version 
 TDAT.m                4461.01:  Tot Depth Attmp 
 TDDF.                      No:  Trip for DD 
 TDLG.m                 147.00:  Tot Depth Loggd 
 TFF .                      No:  Trip for Fail 
 TQAA.f-kp               16.00:  Torque Abs Avg 
 TQAN.f-kp               14.00:  Torque Abs Min 
 TQAX.f-kp               20.00:  Torque Abs Max 
 TRRT.°/30m              -0.14:  Turn Rotating 
 MRT .                    HCIM:  Maximum Recorded Temperature 
 TTMX.degC               78.00:  Max Tool Temp 
 VS01.                90515425:  Virtual Str1 SN 
 VS02.                90545184:  Virtual Str2 SN 
 VS03.                90527809:  Virtual Str3 SN 
 VS04.                90515232:  Virtual Str4 SN 
 VS05.                90621207:  Virtual Str5 SN 
 VS06.                90619737:  Virtual Str6 SN 
 WBMN.klb                 2.00:  WOB Min 
 WITN.          Keith Dischler:  Customer Rep 
 WITN.           Faig Mammadov:  Customer Rep 2 
 WOBA.klb                 5.00:  WOB Avg 
 WOBX.klb                 8.00:  WOB Max 
 YP  .lhf2               32.00:  Yield Point 
~Curve Information Block
#MNEM.UNIT                 API CODE     Curve Description
#---------               -----------    ---------------------------
 TIME.HHMMSS            00 000 000 000:  GT Time & Date
 GTET.sec               00 000 000 000:  GT Elapsed Test Time
 GTPQH.psia             00 000 000 000:  GT HR Quartz Pressure
 GTDEPTH.m              00 000 000 000:  GT Depth
 GTTVD.m                00 000 000 000:  GT True Vertical Depth
 GTTQ.degC              00 000 000 000:  GT Quartz Temperature
 GTTN.NONE              00 000 000 000:  GT Test Number
#Other Information
#
#WARRANTY: Halliburton will use its best efforts to furnish customers with 
#accurate information and interpretations that are part of, and incident to, the services 
#provided.  However, Halliburton cannot and does not warrant the accuracy 
#or correctness of such information and interpretations.  Under no circumstances should any 
#such information or interpretation be relied upon as the sole basis for any drilling, 
#completion, production, or financial decision or any procedure involving any risk to the 
#safety of any drilling venture, drilling rig or its crew or any other third party.  The 
#Customer has full responsibility for all drilling, completion and production operation.  
#Halliburton makes no representations or warranties, either expressed or 
#implied, including, but not limited to, the implied warranties of merchantability or fitness 
#for a particular purpose, with respect to the services rendered.  In no event will 
#Halliburton be liable for failure to obtain any particular results or for 
#any damages, including, but not limited to, indirect, special or consequential damages, 
#resulting from the use of any information or interpretation provided by Halliburton.
#
~A           TIME            GTET   GTPQH  GTDEPTH  GTTVD  GTTQ  GTTN 
# ...
   10:33:05.000.25-Aug-2020 207.00 3350.72 4330.01 2049.27 71.67 9.00
   10:33:05.200.25-Aug-2020 207.20 3350.72 4330.01 2049.27 71.67 9.00
   10:33:05.400.25-Aug-2020 207.40 3350.74 4330.01 2049.27 71.67 9.00
   10:33:05.600.25-Aug-2020 207.60 3350.73 4330.01 2049.27 71.67 9.00
   10:33:05.800.25-Aug-2020 207.80 3350.74 4330.01 2049.27 71.67 9.00
   10:33:06.000.25-Aug-2020 208.00 3350.73 4330.01 2049.27 71.67 9.00
   10:33:06.200.25-Aug-2020 208.20 3350.73 4330.01 2049.27 71.67 9.00
   10:33:06.400.25-Aug-2020 208.40 3350.73 4330.01 2049.27 71.67 9.00
   10:33:06.600.25-Aug-2020 208.60 3350.73 4330.01 2049.27 71.67 9.00
   10:33:06.800.25-Aug-2020 208.80 3350.73 4330.01 2049.27 71.67 9.00
   10:33:07.000.25-Aug-2020 209.00 3350.73 4330.01 2049.27 71.67 9.00
   10:33:07.200.25-Aug-2020 209.20 3350.73 4330.01 2049.27 71.67 9.00
   10:33:07.400.25-Aug-2020 209.40 3350.74 4330.01 2049.27 71.67 9.00
   10:33:07.600.25-Aug-2020 209.60 3350.73 4330.01 2049.27 71.67 9.00
   10:33:07.800.25-Aug-2020 209.80 3350.73 4330.01 2049.27 71.67 9.00
   10:33:08.000.25-Aug-2020 210.00 3350.74 4330.01 2049.27 71.67 9.00
   10:33:08.200.25-Aug-2020 210.20 3350.74 4330.01 2049.27 71.67 9.00
   10:33:08.400.25-Aug-2020 210.40 3350.73 4330.01 2049.27 71.67 9.00
   10:33:08.600.25-Aug-2020 210.60 3350.73 4330.01 2049.27 71.67 9.00
   10:33:08.800.25-Aug-2020 210.80 3350.59 4330.01 2049.27 71.67 9.00
   10:33:09.000.25-Aug-2020 211.00 3350.82 4330.01 2049.27 71.67 9.00
   10:33:09.200.25-Aug-2020 211.20 3350.82 4330.01 2049.27 71.67 9.00
   10:33:09.400.25-Aug-2020 211.40 3350.75 4330.01 2049.27 71.67 9.00
   10:33:09.600.25-Aug-2020 211.60 3350.73 4330.01 2049.27 71.67 9.00
   10:33:09.800.25-Aug-2020 211.80 3350.73 4330.01 2049.27 71.67 9.00
   10:33:10.000.25-Aug-2020 212.00 3350.73 4330.01 2049.27 71.67 9.00
   10:33:10.200.25-Aug-2020 212.20 3350.74 4330.01 2049.27 71.67 9.00
   10:33:10.400.25-Aug-2020 212.40 3350.73 4330.01 2049.27 71.67 9.00
   10:33:10.600.25-Aug-2020 212.60 3350.74 4330.01 2049.27 71.67 9.00
   10:33:10.800.25-Aug-2020 212.80 3350.73 4330.01 2049.27 71.67 9.00
   10:33:11.000.25-Aug-2020 213.00 3350.73 4330.01 2049.27 71.67 9.00
   10:33:11.200.25-Aug-2020 213.20 3350.74 4330.01 2049.27 71.67 9.00
   10:33:11.400.25-Aug-2020 213.40 3350.73 4330.01 2049.27 71.67 9.00
   10:33:11.600.25-Aug-2020 213.60 3350.73 4330.01 2049.27 71.67 9.00
   10:33:11.800.25-Aug-2020 213.80 3350.73 4330.01 2049.27 71.67 9.00
   10:33:12.000.25-Aug-2020 214.00 3350.73 4330.01 2049.27 71.67 9.00
   10:33:12.200.25-Aug-2020 214.20 3350.73 4330.01 2049.27 71.67 9.00
   10:33:12.400.25-Aug-2020 214.40 3350.76 4330.01 2049.27 71.67 9.00
   10:33:12.600.25-Aug-2020 214.60 3350.77 4330.01 2049.27 71.67 9.00
   10:33:12.800.25-Aug-2020 214.80 3350.74 4330.01 2049.27 71.67 9.00
   10:33:13.000.25-Aug-2020 215.00 3350.73 4330.01 2049.27 71.67 9.00
   10:33:13.200.25-Aug-2020 215.20 3350.73 4330.01 2049.27 71.67 9.00
   10:33:13.400.25-Aug-2020 215.40 3350.72 4330.01 2049.27 71.67 9.00
   10:33:13.600.25-Aug-2020 215.60 3350.74 4330.01 2049.27 71.67 9.00
   10:33:13.800.25-Aug-2020 215.80 3350.74 4330.01 2049.27 71.67 9.00
   10:33:14.000.25-Aug-2020 216.00 3350.74 4330.01 2049.27 71.67 9.00
   10:33:14.200.25-Aug-2020 216.20 3350.74 4330.01 2049.27 71.67 9.00
   10:33:14.400.25-Aug-2020 216.40 3350.75 4330.01 2049.27 71.67 9.00
   10:33:14.600.25-Aug-2020 216.60 3350.77 4330.01 2049.27 71.67 9.00
   10:33:14.800.25-Aug-2020 216.80 3350.74 4330.01 2049.27 71.67 9.00
   10:33:15.000.25-Aug-2020 217.00 3350.74 4330.01 2049.27 71.67 9.00
   10:33:15.200.25-Aug-2020 217.20 3350.64 4330.01 2049.27 71.67 9.00
   10:33:15.400.25-Aug-2020 217.40 3350.80 4330.01 2049.27 71.67 9.00
   10:33:15.600.25-Aug-2020 217.60 3350.76 4330.01 2049.27 71.67 9.00
   10:33:15.800.25-Aug-2020 217.80 3350.73 4330.01 2049.27 71.67 9.00
   10:33:16.000.25-Aug-2020 218.00 3350.74 4330.01 2049.27 71.67 9.00
   10:33:16.200.25-Aug-2020 218.20 3350.74 4330.01 2049.27 71.67 9.00
   10:33:16.400.25-Aug-2020 218.40 3350.67 4330.01 2049.27 71.67 9.00
   10:33:16.600.25-Aug-2020 218.60 3350.74 4330.01 2049.27 71.67 9.00
   10:33:16.800.25-Aug-2020 218.80 3350.77 4330.01 2049.27 71.67 9.00
   10:33:17.000.25-Aug-2020 219.00 3350.74 4330.01 2049.27 71.67 9.00
   10:33:17.200.25-Aug-2020 219.20 3350.74 4330.01 2049.27 71.67 9.00
   10:33:17.400.25-Aug-2020 219.40 3350.72 4330.01 2049.27 71.67 9.00
   10:33:17.600.25-Aug-2020 219.60 3350.74 4330.01 2049.27 71.67 9.00
   10:33:17.800.25-Aug-2020 219.80 3350.73 4330.01 2049.27 71.67 9.00
   10:33:18.000.25-Aug-2020 220.00 3350.73 4330.01 2049.27 71.67 9.00
   10:33:18.200.25-Aug-2020 220.20 3350.73 4330.01 2049.27 71.67 9.00
   10:33:18.400.25-Aug-2020 220.40 3350.73 4330.01 2049.27 71.67 9.00
   10:33:18.600.25-Aug-2020 220.60 3350.73 4330.01 2049.27 71.67 9.00
   10:33:18.800.25-Aug-2020 220.80 3350.73 4330.01 2049.27 71.67 9.00
   10:33:19.000.25-Aug-2020 221.00 3350.73 4330.01 2049.27 71.67 9.00
   10:33:19.200.25-Aug-2020 221.20 3350.73 4330.01 2049.27 71.67 9.00
   10:33:19.400.25-Aug-2020 221.40 3350.73 4330.01 2049.27 71.67 9.00
   10:33:19.600.25-Aug-2020 221.60 3350.74 4330.01 2049.27 71.67 9.00
   10:33:19.800.25-Aug-2020 221.80 3350.73 4330.01 2049.27 71.67 9.00
   10:33:20.000.25-Aug-2020 222.00 3350.63 4330.01 2049.27 71.67 9.00
   10:33:20.200.25-Aug-2020 222.20 3350.63 4330.01 2049.27 71.67 9.00
   10:33:20.400.25-Aug-2020 222.40 3350.75 4330.01 2049.27 71.67 9.00
   10:33:20.600.25-Aug-2020 222.60 3350.73 4330.01 2049.27 71.67 9.00
   10:33:20.800.25-Aug-2020 222.80 3350.73 4330.01 2049.27 71.67 9.00
   10:33:21.000.25-Aug-2020 223.00 3350.74 4330.01 2049.27 71.67 9.00
   10:33:21.200.25-Aug-2020 223.20 3350.74 4330.01 2049.27 71.67 9.00
   10:33:21.400.25-Aug-2020 223.40 3350.73 4330.01 2049.27 71.67 9.00
   10:33:21.600.25-Aug-2020 223.60 3350.73 4330.01 2049.27 71.67 9.00
   10:33:21.800.25-Aug-2020 223.80 3350.74 4330.01 2049.27 71.67 9.00
   10:33:22.000.25-Aug-2020 224.00 3350.72 4330.01 2049.27 71.67 9.00
   10:33:22.200.25-Aug-2020 224.20 3350.73 4330.01 2049.27 71.67 9.00
   10:33:22.400.25-Aug-2020 224.40 3350.73 4330.01 2049.27 71.67 9.00
   10:33:22.600.25-Aug-2020 224.60 3350.73 4330.01 2049.27 71.67 9.00
   10:33:22.800.25-Aug-2020 224.80 3350.72 4330.01 2049.27 71.67 9.00
   10:33:23.000.25-Aug-2020 225.00 3350.73 4330.01 2049.27 71.67 9.00
   10:33:23.200.25-Aug-2020 225.20 3350.73 4330.01 2049.27 71.67 9.00
   10:33:23.400.25-Aug-2020 225.40 3350.59 4330.01 2049.27 71.67 9.00
   10:33:23.600.25-Aug-2020 225.60 3350.82 4330.01 2049.27 71.67 9.00
   10:33:23.800.25-Aug-2020 225.80 3350.77 4330.01 2049.27 71.67 9.00
   10:33:24.000.25-Aug-2020 226.00 3350.74 4330.01 2049.27 71.67 9.00
   10:33:24.200.25-Aug-2020 226.20 3350.74 4330.01 2049.27 71.67 9.00
   10:33:24.400.25-Aug-2020 226.40 3350.72 4330.01 2049.27 71.67 9.00
   10:33:24.600.25-Aug-2020 226.60 3350.66 4330.01 2049.27 71.67 9.00
   10:33:24.800.25-Aug-2020 226.80 3350.75 4330.01 2049.27 71.67 9.00
   10:33:25.000.25-Aug-2020 227.00 3350.77 4330.01 2049.27 71.67 9.00
   10:33:25.200.25-Aug-2020 227.20 3350.77 4330.01 2049.27 71.67 9.00
   10:33:25.400.25-Aug-2020 227.40 3350.59 4330.01 2049.27 71.67 9.00
   10:33:25.600.25-Aug-2020 227.60 3350.81 4330.01 2049.27 71.67 9.00
   10:33:25.800.25-Aug-2020 227.80 3350.77 4330.01 2049.27 71.67 9.00
   10:33:26.000.25-Aug-2020 228.00 3350.74 4330.01 2049.27 71.67 9.00
   10:33:26.200.25-Aug-2020 228.20 3350.72 4330.01 2049.27 71.67 9.00
   10:33:26.400.25-Aug-2020 228.40 3350.72 4330.01 2049.27 71.67 9.00
   10:33:26.600.25-Aug-2020 228.60 3350.71 4330.01 2049.27 71.67 9.00
   10:33:26.800.25-Aug-2020 228.80 3350.72 4330.01 2049.27 71.67 9.00
   10:33:27.000.25-Aug-2020 229.00 3350.73 4330.01 2049.27 71.67 9.00
   10:33:27.200.25-Aug-2020 229.20 3350.74 4330.01 2049.27 71.67 9.00
   10:33:27.400.25-Aug-2020 229.40 3350.73 4330.01 2049.27 71.67 9.00
   10:33:27.600.25-Aug-2020 229.60 3350.58 4330.01 2049.27 71.67 9.00
   10:33:27.800.25-Aug-2020 229.80 3350.81 4330.01 2049.27 71.67 9.00
