~Version Information
 VERS.                  2.0:   CWLS log ASCII Standard -VERSION 2.0
 WRAP.                   NO:   One line per depth step
~Well Information Block
#MNEM.UNIT     VALUE/NAME     DESCRIPTION
#---------     -----------    ---------------------------
 STRT.S             06:12:42 25-Aug-20: START TIME 06:12:42 25-Aug-20
 STOP.S             06:19:48 25-Aug-20: STOP TIME  06:19:48 25-Aug-20
 STEP.S                   0.00: STEP TIME
 NULL.                 -999.25: NULL VALUE
 DFWT.                        :  DIST FWL TEXT
 DFST.                        :  DIST FSL TEXT
 DMF .             Drill Floor:  DRILL MEAS FROM
 STIM.      09.59.28 01-Jun-20:  START TIME
 DATE.      05.00.00 28-Aug-20:  END TIME
 SPUD.               01-Jun-20:  SPUD DATE
 NREF.                    Grid:  NORTH REFERENCE
 HPTY.       Minimum Curvature:  HOLE POS TYPE
 DMOD.             Drill Model:  DRILL MOD DESC
 SVYD.                  Survey:  SURVEY DESC
 ILTD.               Lithology:  INTERP LTH DESC
 FTOP.          Formation Tops:  FORM TOPS DESC
 SON .        AZ-XX-0905455768:  JOB NUMBER
 WTYP.                Deviated:  WELL TYPE
 COMP.     BP Exploration(Caspian Sea):  COMPANY
 BASE.              Azerbaijan:  LOGGING EQUIPMENT BASE LOCATION
 REGN.                   EESSA:  REGION
 CTRY.              Azerbaijan:  COUNTRY NAME
 FLD .                     ACG:  FIELD NAME
 SRVC.          Turan Drilling:  CONTRACTOR
 WELL.                     B41:  WELL NAME
 RIG .           Central Azeri:  RIG NAME
 DCON.         Sperry Drilling:  DIRECTNL CONTR
 PDAT.          Mean Sea Level:  PERMANENT DATUM
 MDS .        Operator Entered:  MAG DATA SOURCE
 API .                        :  API NUMBER
 CNTY.                        :  COUNTY
 PROV.                        :  PROVINCE
 STAT.                        :  STATE
 UWI .                        :  UNIQUE WELL IDENTIFIER
 LOC .                        :  LOCATION
 LMF .             Drill Floor:  LOG MEASURED FROM
 TVDS.m                  43.29:  TVDSS CORRECTN
 LATI.deg                40.03:  LATITUDE
 LONG.deg                51.35:  LONGITUDE
 WHNS.m                  12.98:  WELL HEAD N/S
 WHEW.m                  -6.62:  WELL HEAD E/W
 UTMX.m              530128.28:  UTM X
 UTMY.m             4433192.49:  UTM Y
 DFWL.m                   0.00:  DISTANCE FWL
 DFSL.m                   0.00:  DISTANCE FSL
 SDEP.m                 378.00:  START DEPTH
 TDD .m                4463.01:  TOTAL DEPTH (DRILLER)
 VSDR.deg               296.18:  VERT SEC DIRECT
 GVFD.g                   1.00:  GRAVITY FIELD
 MFLD.nT              50269.00:  MAGNETIC FIELD
 MDIP.deg                59.50:  MAGNETIC DIP
 MDEC.deg                 6.44:  MAGNETIC DECL
 GRDC.deg                 0.20:  GRID CORRECTION
 AZTC.deg                 6.24:  AZM TOTAL CORR
 EPD .m                   0.00:  ELEVATION
 EGL .m                   0.00:  GROUND ELEVATION
 WDMS.m                 128.20:  WD ELEV
 APD .m                  43.29:  DEPTH ABOVE PD
 AGAP.m                  43.29:  AIR GAP
 VSEW.m                  -6.62:  VERT SEC E/W
 VSNS.m                  12.98:  VERT SEC N/S
 EKB .m                  43.29:  KB ELEVATION
 EDF .m                  43.29:  DF ELEVATION
 TDL .m                 147.00:  TOTAL DEPTH (LOGGER)
 VSC .                       0:  VS TO CLOSURE
 MAGU.                 1849241:  MAGUTM CHECKSUM
~Parameter Information Block
#MNEM.UNIT       Value        Description
#---------     -----------    ---------------------------
 AV  .mps                 0.70:  Ann Velocity 
 AZIF.deg               269.43:  Azm, Final 
 BHAT.        Rotary Steerable:  BHA Type 
 BROT.°/30m              -0.03:  Build Rotating 
 BS  .in                  8.50:  Bit Size 
 BSZ .in                  8.50:  Bit Size 
 BTPL.psig              880.00:  Bit Press Loss 
 CABU.                      No:  Customer Abuse 
 CGEO.          Parviz Guliyev:  Customer Geo 
 COMM.                     ôb:  Run Comments 1 
 TCS .hr                 64.59:  Time Ciculation Ended 
 CV  .mps                 2.17:  Crit Velocity 
 DD1 .            Nonso Okafor:  Direct Drillr 1 
 DDSV.               Geo-Pilot:  DD Service 
 DEFF.%                  98.00:  % Det Eff 
 DLRX.°/30m               0.81:  Dogleg Rot Max 
 DLSO.°/30m               0.55:  Dogleg Oriented 
 DLSX.°/30m               0.81:  Dogleg Str Max 
 DRET.      23.50.00 24-Aug-20:  Drill End Time 
 DRST.      07.34.24 22-Aug-20:  Drill Start Tim 
 DTIM.hr                 15.29:  Time Drilling 
 EDEP.m                4461.01:  End Depth 
 ENG1.       Zam Abdullah Sani:  Engineer 1 
 ENG2.         Dair Mahammadov:  Engineer 2 
 ENG3.          Rustam Gadirov:  Engineer 3 
 ETIM.      07.34.24 26-Aug-20:  End Time 
 FLOI.gpm               550.00:  Flow In 
 FLON.gpm               400.00:  Flow In Min 
 FLOS.cptm                1.00:  Fluid Loss 
 FLOX.gpm               600.00:  Flow In Max 
 FTRO.       Formation Presure:  FTWD Run Obj 
 HFLO.                      No:  High Flow 
 HPRE.                      No:  High Pressure 
 HTEM.                      No:  High Temp 
 HYDO.m                   1.80:  Hydro Offset 
 IFIN.deg                66.72:  Inc, Final 
 IMAX.deg                67.42:  Inc Max 
 IMIN.deg                66.72:  Inc Min 
 IMND.m                4408.37:  Inc Min Depth 
 IMXD.m                4323.37:  Inc Max Depth 
 JARR.                      No:  Jarring 
 LETM.      23.50.00 24-Aug-20:  Log End Time 
 LOST.hr                     0:  Lost Rig Time 
 LSTM.      07.34.24 22-Aug-20:  Log Start Time 
 MDCL.ppm             38000.00:  Mud Chlorides 
 MDES.     Inversion Oil/Synthetic:  Mud Desc 
 DFD .sg                  1.40:  Mud Density 
 MDMN.sg                  1.38:  Dens Mud Min 
 MDMX.sg                  1.41:  Dens Mud Max 
 MOIL.                    70.5:  Run Mud Oil % 
 MOWR.                   68:32:  Run Mud OWR 
 MSND.                    0.01:  Run Mud Sand % 
 MSOL.                   17.68:  Run Mud Solids% 
 DFV .spqt               77.00:  Mud Viscosity 
 MWOD.in                  6.75:  MWD Tool OD 
 MWSI.                      No:  Serv Intrp, MWD 
 OTIM.hr                159.42:  Time Operating 
 PCON.           Look Like New:  Pad Condition 
 PMAX.psia             8730.94:  Press Op, Max 
 PV  .cP                 31.00:  Mud PV 
 RUN .                     900:  Run Number 
 ROPA.m/hr               12.00:  ROP Avg 
 ROPN.m/hr                7.00:  ROP Min 
 ROPX.m/hr               17.00:  ROP Max 
 RPMA.rpm               120.00:  RPM Surface Avg 
 RPMN.rpm                60.00:  RPM Surface Min 
 RPMX.rpm               140.00:  RPM Surface Max 
 RRUN.                    L604:  Rig Run Number 
 RTIM.hr                 10.00:  Time Reaming 
 SAZI.deg               270.56:  Azm, Start 
 SDEP.m                4314.01:  Start Depth 
 SIDD.                      No:  Serv Intrp, DD 
 SINC.deg                67.42:  Inc, Start 
 SPPA.psig             3300.00:  SPP Avg 
 SPPN.psig             1750.00:  SPP Min 
 SPPX.psig             4630.00:  SPP Max 
 STIM.      11.00.00 21-Aug-20:  Start Time 
 SVCS.                 DD, MWD:  Services 
 SVER.                    9.20:  Sperry Version 
 TDAT.m                4461.01:  Tot Depth Attmp 
 TDDF.                      No:  Trip for DD 
 TDLG.m                 147.00:  Tot Depth Loggd 
 TFF .                      No:  Trip for Fail 
 TQAA.f-kp               16.00:  Torque Abs Avg 
 TQAN.f-kp               14.00:  Torque Abs Min 
 TQAX.f-kp               20.00:  Torque Abs Max 
 TRRT.°/30m              -0.14:  Turn Rotating 
 MRT .                    HCIM:  Maximum Recorded Temperature 
 TTMX.degC               78.00:  Max Tool Temp 
 VS01.                90515425:  Virtual Str1 SN 
 VS02.                90545184:  Virtual Str2 SN 
 VS03.                90527809:  Virtual Str3 SN 
 VS04.                90515232:  Virtual Str4 SN 
 VS05.                90621207:  Virtual Str5 SN 
 VS06.                90619737:  Virtual Str6 SN 
 WBMN.klb                 2.00:  WOB Min 
 WITN.          Keith Dischler:  Customer Rep 
 WITN.           Faig Mammadov:  Customer Rep 2 
 WOBA.klb                 5.00:  WOB Avg 
 WOBX.klb                 8.00:  WOB Max 
 YP  .lhf2               32.00:  Yield Point 
~Curve Information Block
#MNEM.UNIT                 API CODE     Curve Description
#---------               -----------    ---------------------------
 TIME.HHMMSS            00 000 000 000:  GT Time & Date
 GTET.sec               00 000 000 000:  GT Elapsed Test Time
 GTPQH.psia             00 000 000 000:  GT HR Quartz Pressure
 GTDEPTH.m              00 000 000 000:  GT Depth
 GTTVD.m                00 000 000 000:  GT True Vertical Depth
 GTTQ.degC              00 000 000 000:  GT Quartz Temperature
 GTTN.NONE              00 000 000 000:  GT Test Number
#Other Information
#
#WARRANTY: Halliburton will use its best efforts to furnish customers with 
#accurate information and interpretations that are part of, and incident to, the services 
#provided.  However, Halliburton cannot and does not warrant the accuracy 
#or correctness of such information and interpretations.  Under no circumstances should any 
#such information or interpretation be relied upon as the sole basis for any drilling, 
#completion, production, or financial decision or any procedure involving any risk to the 
#safety of any drilling venture, drilling rig or its crew or any other third party.  The 
#Customer has full responsibility for all drilling, completion and production operation.  
#Halliburton makes no representations or warranties, either expressed or 
#implied, including, but not limited to, the implied warranties of merchantability or fitness 
#for a particular purpose, with respect to the services rendered.  In no event will 
#Halliburton be liable for failure to obtain any particular results or for 
#any damages, including, but not limited to, indirect, special or consequential damages, 
#resulting from the use of any information or interpretation provided by Halliburton.
#
~A           TIME            GTET   GTPQH  GTDEPTH  GTTVD  GTTQ  GTTN 
# ...
   06:13:28.000.25-Aug-2020  46.00 4796.68 4397.01 2075.58 73.40 2.00
   06:13:28.200.25-Aug-2020  46.20 4796.68 4397.01 2075.58 73.40 2.00
   06:13:28.400.25-Aug-2020  46.40 4802.67 4397.01 2075.58 73.40 2.00
   06:13:28.600.25-Aug-2020  46.60 4797.15 4397.01 2075.58 73.40 2.00
   06:13:28.800.25-Aug-2020  46.80 4797.49 4397.01 2075.58 73.40 2.00
   06:13:29.000.25-Aug-2020  47.00 4796.04 4397.01 2075.58 73.40 2.00
   06:13:29.200.25-Aug-2020  47.20 4796.03 4397.01 2075.58 73.40 2.00
   06:13:29.400.25-Aug-2020  47.40 4806.07 4397.01 2075.58 73.40 2.00
   06:13:29.600.25-Aug-2020  47.60 4804.02 4397.01 2075.58 73.40 2.00
   06:13:29.800.25-Aug-2020  47.80 4797.79 4397.01 2075.58 73.40 2.00
   06:13:30.000.25-Aug-2020  48.00 4797.64 4397.01 2075.58 73.40 2.00
   06:13:30.200.25-Aug-2020  48.20 4797.64 4397.01 2075.58 73.40 2.00
   06:13:30.400.25-Aug-2020  48.40 4797.76 4397.01 2075.58 73.40 2.00
   06:13:30.600.25-Aug-2020  48.60 4811.48 4397.01 2075.58 73.40 2.00
   06:13:30.800.25-Aug-2020  48.80 4800.34 4397.01 2075.58 73.40 2.00
   06:13:31.000.25-Aug-2020  49.00 4800.21 4397.01 2075.58 73.40 2.00
   06:13:31.200.25-Aug-2020  49.20 4800.21 4397.01 2075.58 73.40 2.00
   06:13:31.400.25-Aug-2020  49.40 4799.94 4397.01 2075.58 73.40 2.00
   06:13:31.600.25-Aug-2020  49.60 4798.89 4397.01 2075.58 73.40 2.00
   06:13:31.800.25-Aug-2020  49.80 4812.80 4397.01 2075.58 73.40 2.00
   06:13:32.000.25-Aug-2020  50.00 4801.02 4397.01 2075.58 73.40 2.00
   06:13:32.200.25-Aug-2020  50.20 4801.02 4397.01 2075.58 73.40 2.00
   06:13:32.400.25-Aug-2020  50.40 4801.67 4397.01 2075.58 73.40 2.00
   06:13:32.600.25-Aug-2020  50.60 4808.74 4397.01 2075.58 73.40 2.00
   06:13:32.800.25-Aug-2020  50.80 4798.81 4397.01 2075.58 73.40 2.00
   06:13:33.000.25-Aug-2020  51.00 4803.71 4397.01 2075.58 73.40 2.00
   06:13:33.200.25-Aug-2020  51.20 4801.25 4397.01 2075.58 73.40 2.00
   06:13:33.400.25-Aug-2020  51.40 4798.90 4397.01 2075.58 73.40 2.00
   06:13:33.600.25-Aug-2020  51.60 4796.77 4397.01 2075.58 73.40 2.00
   06:13:33.800.25-Aug-2020  51.80 4799.60 4397.01 2075.58 73.40 2.00
   06:13:34.000.25-Aug-2020  52.00 4802.40 4397.01 2075.58 73.40 2.00
   06:13:34.200.25-Aug-2020  52.20 4802.40 4397.01 2075.58 73.40 2.00
   06:13:34.400.25-Aug-2020  52.40 4801.42 4397.01 2075.58 73.40 2.00
   06:13:34.600.25-Aug-2020  52.60 4799.86 4397.01 2075.58 73.40 2.00
   06:13:34.800.25-Aug-2020  52.80 4799.44 4397.01 2075.58 73.40 2.00
   06:13:35.000.25-Aug-2020  53.00 4799.71 4397.01 2075.58 73.40 2.00
   06:13:35.200.25-Aug-2020  53.20 4799.71 4397.01 2075.58 73.40 2.00
   06:13:35.400.25-Aug-2020  53.40 4799.45 4397.01 2075.58 73.40 2.00
   06:13:35.600.25-Aug-2020  53.60 4799.35 4397.01 2075.58 73.40 2.00
   06:13:35.800.25-Aug-2020  53.80 4799.14 4397.01 2075.58 73.40 2.00
   06:13:36.000.25-Aug-2020  54.00 4799.39 4397.01 2075.58 73.40 2.00
   06:13:36.200.25-Aug-2020  54.20 4799.39 4397.01 2075.58 73.40 2.00
   06:13:36.400.25-Aug-2020  54.40 4798.22 4397.01 2075.58 73.40 2.00
   06:13:36.600.25-Aug-2020  54.60 4799.06 4397.01 2075.58 73.40 2.00
   06:13:36.800.25-Aug-2020  54.80 4798.83 4397.01 2075.58 73.40 2.00
   06:13:37.000.25-Aug-2020  55.00 4798.08 4397.01 2075.58 73.40 2.00
   06:13:37.200.25-Aug-2020  55.20 4797.69 4397.01 2075.58 73.40 2.00
   06:13:37.400.25-Aug-2020  55.40 4796.50 4397.01 2075.58 73.40 2.00
   06:13:37.600.25-Aug-2020  55.60 4806.56 4397.01 2075.58 73.40 2.00
   06:13:37.800.25-Aug-2020  55.80 4805.59 4397.01 2075.58 73.40 2.00
   06:13:38.000.25-Aug-2020  56.00 4799.85 4397.01 2075.58 73.40 2.00
   06:13:38.200.25-Aug-2020  56.20 4799.85 4397.01 2075.58 73.40 2.00
   06:13:38.400.25-Aug-2020  56.40 4798.38 4397.01 2075.58 73.40 2.00
   06:13:38.600.25-Aug-2020  56.60 4797.43 4397.01 2075.58 73.40 2.00
   06:13:38.800.25-Aug-2020  56.80 4796.93 4397.01 2075.58 73.40 2.00
   06:13:39.000.25-Aug-2020  57.00 4798.98 4397.01 2075.58 73.40 2.00
   06:13:39.200.25-Aug-2020  57.20 4798.98 4397.01 2075.58 73.40 2.00
   06:13:39.400.25-Aug-2020  57.40 4799.20 4397.01 2075.58 73.40 2.00
   06:13:39.600.25-Aug-2020  57.60 4798.69 4397.01 2075.58 73.40 2.00
   06:13:39.800.25-Aug-2020  57.80 4798.01 4397.01 2075.58 73.40 2.00
   06:13:40.000.25-Aug-2020  58.00 4797.22 4397.01 2075.58 73.40 2.00
   06:13:40.200.25-Aug-2020  58.20 4797.22 4397.01 2075.58 73.40 2.00
   06:13:40.400.25-Aug-2020  58.40 4798.34 4397.01 2075.58 73.40 2.00
   06:13:40.600.25-Aug-2020  58.60 4798.17 4397.01 2075.58 73.40 2.00
   06:13:40.800.25-Aug-2020  58.80 4796.24 4397.01 2075.58 73.40 2.00
   06:13:41.000.25-Aug-2020  59.00 4806.63 4397.01 2075.58 73.40 2.00
   06:13:41.200.25-Aug-2020  59.20 4804.80 4397.01 2075.58 73.40 2.00
   06:13:41.400.25-Aug-2020  59.40 4798.41 4397.01 2075.58 73.40 2.00
   06:13:41.600.25-Aug-2020  59.60 4797.69 4397.01 2075.58 73.40 2.00
   06:13:41.800.25-Aug-2020  59.80 4797.97 4397.01 2075.58 73.40 2.00
   06:13:42.000.25-Aug-2020  60.00 4798.79 4397.01 2075.58 73.40 2.00
   06:13:42.200.25-Aug-2020  60.20 4798.79 4397.01 2075.58 73.40 2.00
   06:13:42.400.25-Aug-2020  60.40 4807.92 4397.01 2075.58 73.40 2.00
   06:13:42.600.25-Aug-2020  60.60 4801.92 4397.01 2075.58 73.40 2.00
   06:13:42.800.25-Aug-2020  60.80 4800.22 4397.01 2075.58 73.40 2.00
   06:13:43.000.25-Aug-2020  61.00 4799.34 4397.01 2075.58 73.40 2.00
   06:13:43.200.25-Aug-2020  61.20 4799.34 4397.01 2075.58 73.40 2.00
   06:13:43.400.25-Aug-2020  61.40 4799.41 4397.01 2075.58 73.40 2.00
   06:13:43.600.25-Aug-2020  61.60 4813.08 4397.01 2075.58 73.40 2.00
   06:13:43.800.25-Aug-2020  61.80 4801.71 4397.01 2075.58 73.40 2.00
   06:13:44.000.25-Aug-2020  62.00 4802.04 4397.01 2075.58 73.40 2.00
   06:13:44.200.25-Aug-2020  62.20 4802.04 4397.01 2075.58 73.40 2.00
   06:13:44.400.25-Aug-2020  62.40 4801.42 4397.01 2075.58 73.40 2.00
   06:13:44.600.25-Aug-2020  62.60 4800.33 4397.01 2075.58 73.40 2.00
   06:13:44.800.25-Aug-2020  62.80 4810.65 4397.01 2075.58 73.39 2.00
   06:13:45.000.25-Aug-2020  63.00 4807.85 4397.01 2075.58 73.39 2.00
   06:13:45.200.25-Aug-2020  63.20 4801.72 4397.01 2075.58 73.39 2.00
   06:13:45.400.25-Aug-2020  63.40 4801.96 4397.01 2075.58 73.39 2.00
   06:13:45.600.25-Aug-2020  63.60 4800.93 4397.01 2075.58 73.39 2.00
   06:13:45.800.25-Aug-2020  63.80 4800.78 4397.01 2075.58 73.39 2.00
   06:13:46.000.25-Aug-2020  64.00 4810.87 4397.01 2075.58 73.39 2.00
   06:13:46.200.25-Aug-2020  64.20 4810.87 4397.01 2075.58 73.39 2.00
   06:13:46.400.25-Aug-2020  64.40 4807.24 4397.01 2075.58 73.39 2.00
   06:13:46.600.25-Aug-2020  64.60 4803.69 4397.01 2075.58 73.39 2.00
   06:13:46.800.25-Aug-2020  64.80 4801.59 4397.01 2075.58 73.39 2.00
   06:13:47.000.25-Aug-2020  65.00 4800.35 4397.01 2075.58 73.39 2.00
   06:13:47.200.25-Aug-2020  65.20 4800.35 4397.01 2075.58 73.39 2.00
   06:13:47.400.25-Aug-2020  65.40 4801.66 4397.01 2075.58 73.39 2.00
   06:13:47.600.25-Aug-2020  65.60 4801.75 4397.01 2075.58 73.39 2.00
   06:13:47.800.25-Aug-2020  65.80 4801.81 4397.01 2075.58 73.39 2.00
   06:13:48.000.25-Aug-2020  66.00 4802.00 4397.01 2075.58 73.39 2.00
   06:13:48.200.25-Aug-2020  66.20 4802.00 4397.01 2075.58 73.39 2.00
   06:13:48.400.25-Aug-2020  66.40 4801.62 4397.01 2075.58 73.39 2.00
   06:13:48.600.25-Aug-2020  66.60 4801.39 4397.01 2075.58 73.39 2.00
   06:13:48.800.25-Aug-2020  66.80 4801.67 4397.01 2075.58 73.39 2.00
   06:13:49.000.25-Aug-2020  67.00 4800.57 4397.01 2075.58 73.39 2.00
   06:13:49.200.25-Aug-2020  67.20 4800.47 4397.01 2075.58 73.39 2.00
   06:13:49.400.25-Aug-2020  67.40 4801.34 4397.01 2075.58 73.39 2.00
   06:13:49.600.25-Aug-2020  67.60 4803.16 4397.01 2075.58 73.39 2.00
   06:13:49.800.25-Aug-2020  67.80 4805.52 4397.01 2075.58 73.39 2.00
   06:13:50.000.25-Aug-2020  68.00 4809.37 4397.01 2075.58 73.39 2.00
   06:13:50.200.25-Aug-2020  68.20 4809.37 4397.01 2075.58 73.39 2.00
   06:13:50.400.25-Aug-2020  68.40 4799.94 4397.01 2075.58 73.39 2.00
   06:13:50.600.25-Aug-2020  68.60 4800.81 4397.01 2075.58 73.39 2.00
   06:13:50.800.25-Aug-2020  68.80 4801.73 4397.01 2075.58 73.39 2.00
