~Version Information
 VERS.                  2.0:   CWLS log ASCII Standard -VERSION 2.0
 WRAP.                   NO:   One line per depth step
~Well Information Block
#MNEM.UNIT     VALUE/NAME     DESCRIPTION
#---------     -----------    ---------------------------
 STRT.S             09:11:23 25-Aug-20: START TIME 09:11:23 25-Aug-20
 STOP.S             09:18:23 25-Aug-20: STOP TIME  09:18:23 25-Aug-20
 STEP.S                   0.00: STEP TIME
 NULL.                 -999.25: NULL VALUE
 DFWT.                        :  DIST FWL TEXT
 DFST.                        :  DIST FSL TEXT
 DMF .             Drill Floor:  DRILL MEAS FROM
 STIM.      09.59.28 01-Jun-20:  START TIME
 DATE.      05.00.00 28-Aug-20:  END TIME
 SPUD.               01-Jun-20:  SPUD DATE
 NREF.                    Grid:  NORTH REFERENCE
 HPTY.       Minimum Curvature:  HOLE POS TYPE
 DMOD.             Drill Model:  DRILL MOD DESC
 SVYD.                  Survey:  SURVEY DESC
 ILTD.               Lithology:  INTERP LTH DESC
 FTOP.          Formation Tops:  FORM TOPS DESC
 SON .        AZ-XX-0905455768:  JOB NUMBER
 WTYP.                Deviated:  WELL TYPE
 COMP.     BP Exploration(Caspian Sea):  COMPANY
 BASE.              Azerbaijan:  LOGGING EQUIPMENT BASE LOCATION
 REGN.                   EESSA:  REGION
 CTRY.              Azerbaijan:  COUNTRY NAME
 FLD .                     ACG:  FIELD NAME
 SRVC.          Turan Drilling:  CONTRACTOR
 WELL.                     B41:  WELL NAME
 RIG .           Central Azeri:  RIG NAME
 DCON.         Sperry Drilling:  DIRECTNL CONTR
 PDAT.          Mean Sea Level:  PERMANENT DATUM
 MDS .        Operator Entered:  MAG DATA SOURCE
 API .                        :  API NUMBER
 CNTY.                        :  COUNTY
 PROV.                        :  PROVINCE
 STAT.                        :  STATE
 UWI .                        :  UNIQUE WELL IDENTIFIER
 LOC .                        :  LOCATION
 LMF .             Drill Floor:  LOG MEASURED FROM
 TVDS.m                  43.29:  TVDSS CORRECTN
 LATI.deg                40.03:  LATITUDE
 LONG.deg                51.35:  LONGITUDE
 WHNS.m                  12.98:  WELL HEAD N/S
 WHEW.m                  -6.62:  WELL HEAD E/W
 UTMX.m              530128.28:  UTM X
 UTMY.m             4433192.49:  UTM Y
 DFWL.m                   0.00:  DISTANCE FWL
 DFSL.m                   0.00:  DISTANCE FSL
 SDEP.m                 378.00:  START DEPTH
 TDD .m                4463.01:  TOTAL DEPTH (DRILLER)
 VSDR.deg               296.18:  VERT SEC DIRECT
 GVFD.g                   1.00:  GRAVITY FIELD
 MFLD.nT              50269.00:  MAGNETIC FIELD
 MDIP.deg                59.50:  MAGNETIC DIP
 MDEC.deg                 6.44:  MAGNETIC DECL
 GRDC.deg                 0.20:  GRID CORRECTION
 AZTC.deg                 6.24:  AZM TOTAL CORR
 EPD .m                   0.00:  ELEVATION
 EGL .m                   0.00:  GROUND ELEVATION
 WDMS.m                 128.20:  WD ELEV
 APD .m                  43.29:  DEPTH ABOVE PD
 AGAP.m                  43.29:  AIR GAP
 VSEW.m                  -6.62:  VERT SEC E/W
 VSNS.m                  12.98:  VERT SEC N/S
 EKB .m                  43.29:  KB ELEVATION
 EDF .m                  43.29:  DF ELEVATION
 TDL .m                 147.00:  TOTAL DEPTH (LOGGER)
 VSC .                       0:  VS TO CLOSURE
 MAGU.                 1849241:  MAGUTM CHECKSUM
~Parameter Information Block
#MNEM.UNIT       Value        Description
#---------     -----------    ---------------------------
 AV  .mps                 0.70:  Ann Velocity 
 AZIF.deg               269.43:  Azm, Final 
 BHAT.        Rotary Steerable:  BHA Type 
 BROT.°/30m              -0.03:  Build Rotating 
 BS  .in                  8.50:  Bit Size 
 BSZ .in                  8.50:  Bit Size 
 BTPL.psig              880.00:  Bit Press Loss 
 CABU.                      No:  Customer Abuse 
 CGEO.          Parviz Guliyev:  Customer Geo 
 COMM.                     ìb:  Run Comments 1 
 TCS .hr                 64.59:  Time Ciculation Ended 
 CV  .mps                 2.17:  Crit Velocity 
 DD1 .            Nonso Okafor:  Direct Drillr 1 
 DDSV.               Geo-Pilot:  DD Service 
 DEFF.%                  98.00:  % Det Eff 
 DLRX.°/30m               0.81:  Dogleg Rot Max 
 DLSO.°/30m               0.55:  Dogleg Oriented 
 DLSX.°/30m               0.81:  Dogleg Str Max 
 DRET.      23.50.00 24-Aug-20:  Drill End Time 
 DRST.      07.34.24 22-Aug-20:  Drill Start Tim 
 DTIM.hr                 15.29:  Time Drilling 
 EDEP.m                4461.01:  End Depth 
 ENG1.       Zam Abdullah Sani:  Engineer 1 
 ENG2.         Dair Mahammadov:  Engineer 2 
 ENG3.          Rustam Gadirov:  Engineer 3 
 ETIM.      07.34.24 26-Aug-20:  End Time 
 FLOI.gpm               550.00:  Flow In 
 FLON.gpm               400.00:  Flow In Min 
 FLOS.cptm                1.00:  Fluid Loss 
 FLOX.gpm               600.00:  Flow In Max 
 FTRO.       Formation Presure:  FTWD Run Obj 
 HFLO.                      No:  High Flow 
 HPRE.                      No:  High Pressure 
 HTEM.                      No:  High Temp 
 HYDO.m                   1.80:  Hydro Offset 
 IFIN.deg                66.72:  Inc, Final 
 IMAX.deg                67.42:  Inc Max 
 IMIN.deg                66.72:  Inc Min 
 IMND.m                4408.37:  Inc Min Depth 
 IMXD.m                4323.37:  Inc Max Depth 
 JARR.                      No:  Jarring 
 LETM.      23.50.00 24-Aug-20:  Log End Time 
 LOST.hr                     0:  Lost Rig Time 
 LSTM.      07.34.24 22-Aug-20:  Log Start Time 
 MDCL.ppm             38000.00:  Mud Chlorides 
 MDES.     Inversion Oil/Synthetic:  Mud Desc 
 DFD .sg                  1.40:  Mud Density 
 MDMN.sg                  1.38:  Dens Mud Min 
 MDMX.sg                  1.41:  Dens Mud Max 
 MOIL.                    70.5:  Run Mud Oil % 
 MOWR.                   68:32:  Run Mud OWR 
 MSND.                    0.01:  Run Mud Sand % 
 MSOL.                   17.68:  Run Mud Solids% 
 DFV .spqt               77.00:  Mud Viscosity 
 MWOD.in                  6.75:  MWD Tool OD 
 MWSI.                      No:  Serv Intrp, MWD 
 OTIM.hr                159.42:  Time Operating 
 PCON.           Look Like New:  Pad Condition 
 PMAX.psia             8730.94:  Press Op, Max 
 PV  .cP                 31.00:  Mud PV 
 RUN .                     900:  Run Number 
 ROPA.m/hr               12.00:  ROP Avg 
 ROPN.m/hr                7.00:  ROP Min 
 ROPX.m/hr               17.00:  ROP Max 
 RPMA.rpm               120.00:  RPM Surface Avg 
 RPMN.rpm                60.00:  RPM Surface Min 
 RPMX.rpm               140.00:  RPM Surface Max 
 RRUN.                    L604:  Rig Run Number 
 RTIM.hr                 10.00:  Time Reaming 
 SAZI.deg               270.56:  Azm, Start 
 SDEP.m                4314.01:  Start Depth 
 SIDD.                      No:  Serv Intrp, DD 
 SINC.deg                67.42:  Inc, Start 
 SPPA.psig             3300.00:  SPP Avg 
 SPPN.psig             1750.00:  SPP Min 
 SPPX.psig             4630.00:  SPP Max 
 STIM.      11.00.00 21-Aug-20:  Start Time 
 SVCS.                 DD, MWD:  Services 
 SVER.                    9.20:  Sperry Version 
 TDAT.m                4461.01:  Tot Depth Attmp 
 TDDF.                      No:  Trip for DD 
 TDLG.m                 147.00:  Tot Depth Loggd 
 TFF .                      No:  Trip for Fail 
 TQAA.f-kp               16.00:  Torque Abs Avg 
 TQAN.f-kp               14.00:  Torque Abs Min 
 TQAX.f-kp               20.00:  Torque Abs Max 
 TRRT.°/30m              -0.14:  Turn Rotating 
 MRT .                    HCIM:  Maximum Recorded Temperature 
 TTMX.degC               78.00:  Max Tool Temp 
 VS01.                90515425:  Virtual Str1 SN 
 VS02.                90545184:  Virtual Str2 SN 
 VS03.                90527809:  Virtual Str3 SN 
 VS04.                90515232:  Virtual Str4 SN 
 VS05.                90621207:  Virtual Str5 SN 
 VS06.                90619737:  Virtual Str6 SN 
 WBMN.klb                 2.00:  WOB Min 
 WITN.          Keith Dischler:  Customer Rep 
 WITN.           Faig Mammadov:  Customer Rep 2 
 WOBA.klb                 5.00:  WOB Avg 
 WOBX.klb                 8.00:  WOB Max 
 YP  .lhf2               32.00:  Yield Point 
~Curve Information Block
#MNEM.UNIT                 API CODE     Curve Description
#---------               -----------    ---------------------------
 TIME.HHMMSS            00 000 000 000:  GT Time & Date
 GTET.sec               00 000 000 000:  GT Elapsed Test Time
 GTPQH.psia             00 000 000 000:  GT HR Quartz Pressure
 GTDEPTH.m              00 000 000 000:  GT Depth
 GTTVD.m                00 000 000 000:  GT True Vertical Depth
 GTTQ.degC              00 000 000 000:  GT Quartz Temperature
 GTTN.NONE              00 000 000 000:  GT Test Number
#Other Information
#
#WARRANTY: Halliburton will use its best efforts to furnish customers with 
#accurate information and interpretations that are part of, and incident to, the services 
#provided.  However, Halliburton cannot and does not warrant the accuracy 
#or correctness of such information and interpretations.  Under no circumstances should any 
#such information or interpretation be relied upon as the sole basis for any drilling, 
#completion, production, or financial decision or any procedure involving any risk to the 
#safety of any drilling venture, drilling rig or its crew or any other third party.  The 
#Customer has full responsibility for all drilling, completion and production operation.  
#Halliburton makes no representations or warranties, either expressed or 
#implied, including, but not limited to, the implied warranties of merchantability or fitness 
#for a particular purpose, with respect to the services rendered.  In no event will 
#Halliburton be liable for failure to obtain any particular results or for 
#any damages, including, but not limited to, indirect, special or consequential damages, 
#resulting from the use of any information or interpretation provided by Halliburton.
#
~A           TIME            GTET   GTPQH  GTDEPTH  GTTVD  GTTQ  GTTN 
# ...
   09:12:09.000.25-Aug-2020  46.00 3323.64 4360.51 2061.20 72.10 7.00
   09:12:09.200.25-Aug-2020  46.20 3322.07 4360.51 2061.20 72.10 7.00
   09:12:09.400.25-Aug-2020  46.40 3320.07 4360.51 2061.20 72.10 7.00
   09:12:09.600.25-Aug-2020  46.60 3318.57 4360.51 2061.20 72.10 7.00
   09:12:09.800.25-Aug-2020  46.80 3316.48 4360.51 2061.20 72.10 7.00
   09:12:10.000.25-Aug-2020  47.00 3315.38 4360.51 2061.20 72.10 7.00
   09:12:10.200.25-Aug-2020  47.20 3315.38 4360.51 2061.20 72.10 7.00
   09:12:10.400.25-Aug-2020  47.40 3313.52 4360.51 2061.20 72.10 7.00
   09:12:10.600.25-Aug-2020  47.60 3318.16 4360.51 2061.20 72.10 7.00
   09:12:10.800.25-Aug-2020  47.80 3315.50 4360.51 2061.20 72.09 7.00
   09:12:11.000.25-Aug-2020  48.00 3317.28 4360.51 2061.20 72.09 7.00
   09:12:11.200.25-Aug-2020  48.20 3317.28 4360.51 2061.20 72.09 7.00
   09:12:11.400.25-Aug-2020  48.40 3311.79 4360.51 2061.20 72.09 7.00
   09:12:11.600.25-Aug-2020  48.60 3311.09 4360.51 2061.20 72.09 7.00
   09:12:11.800.25-Aug-2020  48.80 3310.21 4360.51 2061.20 72.09 7.00
   09:12:12.000.25-Aug-2020  49.00 3309.83 4360.51 2061.20 72.09 7.00
   09:12:12.200.25-Aug-2020  49.20 3308.07 4360.51 2061.20 72.09 7.00
   09:12:12.400.25-Aug-2020  49.40 3307.83 4360.51 2061.20 72.08 7.00
   09:12:12.600.25-Aug-2020  49.60 3307.34 4360.51 2061.20 72.08 7.00
   09:12:12.800.25-Aug-2020  49.80 3307.07 4360.51 2061.20 72.08 7.00
   09:12:13.000.25-Aug-2020  50.00 3306.12 4360.51 2061.20 72.08 7.00
   09:12:13.200.25-Aug-2020  50.20 3306.12 4360.51 2061.20 72.08 7.00
   09:12:13.400.25-Aug-2020  50.40 3304.81 4360.51 2061.20 72.08 7.00
   09:12:13.600.25-Aug-2020  50.60 3304.65 4360.51 2061.20 72.08 7.00
   09:12:13.800.25-Aug-2020  50.80 3303.70 4360.51 2061.20 72.08 7.00
   09:12:14.000.25-Aug-2020  51.00 3303.78 4360.51 2061.20 72.07 7.00
   09:12:14.200.25-Aug-2020  51.20 3303.78 4360.51 2061.20 72.07 7.00
   09:12:14.400.25-Aug-2020  51.40 3303.07 4360.51 2061.20 72.07 7.00
   09:12:14.600.25-Aug-2020  51.60 3301.89 4360.51 2061.20 72.07 7.00
   09:12:14.800.25-Aug-2020  51.80 3301.38 4360.51 2061.20 72.07 7.00
   09:12:15.000.25-Aug-2020  52.00 3300.49 4360.51 2061.20 72.07 7.00
   09:12:15.200.25-Aug-2020  52.20 3300.49 4360.51 2061.20 72.07 7.00
   09:12:15.400.25-Aug-2020  52.40 3300.76 4360.51 2061.20 72.07 7.00
   09:12:15.600.25-Aug-2020  52.60 3301.24 4360.51 2061.20 72.07 7.00
   09:12:15.800.25-Aug-2020  52.80 3300.41 4360.51 2061.20 72.07 7.00
   09:12:16.000.25-Aug-2020  53.00 3299.82 4360.51 2061.20 72.07 7.00
   09:12:16.200.25-Aug-2020  53.20 3299.82 4360.51 2061.20 72.07 7.00
   09:12:16.400.25-Aug-2020  53.40 3299.15 4360.51 2061.20 72.07 7.00
   09:12:16.600.25-Aug-2020  53.60 3299.57 4360.51 2061.20 72.06 7.00
   09:12:16.800.25-Aug-2020  53.80 3299.68 4360.51 2061.20 72.06 7.00
   09:12:17.000.25-Aug-2020  54.00 3299.13 4360.51 2061.20 72.06 7.00
   09:12:17.200.25-Aug-2020  54.20 3299.28 4360.51 2061.20 72.06 7.00
   09:12:17.400.25-Aug-2020  54.40 3299.14 4360.51 2061.20 72.06 7.00
   09:12:17.600.25-Aug-2020  54.60 3298.84 4360.51 2061.20 72.06 7.00
   09:12:17.800.25-Aug-2020  54.80 3324.89 4360.51 2061.20 72.06 7.00
   09:12:18.000.25-Aug-2020  55.00 3357.60 4360.51 2061.20 72.06 7.00
   09:12:18.200.25-Aug-2020  55.20 3357.60 4360.51 2061.20 72.06 7.00
   09:12:18.400.25-Aug-2020  55.40 3357.91 4360.51 2061.20 72.06 7.00
   09:12:18.600.25-Aug-2020  55.60 3357.94 4360.51 2061.20 72.06 7.00
   09:12:18.800.25-Aug-2020  55.80 3358.03 4360.51 2061.20 72.06 7.00
   09:12:19.000.25-Aug-2020  56.00 3358.29 4360.51 2061.20 72.06 7.00
   09:12:19.200.25-Aug-2020  56.20 3358.29 4360.51 2061.20 72.06 7.00
   09:12:19.400.25-Aug-2020  56.40 3358.30 4360.51 2061.20 72.06 7.00
   09:12:19.600.25-Aug-2020  56.60 3358.07 4360.51 2061.20 72.06 7.00
   09:12:19.800.25-Aug-2020  56.80 3358.35 4360.51 2061.20 72.06 7.00
   09:12:20.000.25-Aug-2020  57.00 3358.20 4360.51 2061.20 72.06 7.00
   09:12:20.200.25-Aug-2020  57.20 3358.41 4360.51 2061.20 72.06 7.00
   09:12:20.400.25-Aug-2020  57.40 3358.31 4360.51 2061.20 72.06 7.00
   09:12:20.600.25-Aug-2020  57.60 3358.41 4360.51 2061.20 72.06 7.00
   09:12:20.800.25-Aug-2020  57.80 3358.36 4360.51 2061.20 72.06 7.00
   09:12:21.000.25-Aug-2020  58.00 3358.44 4360.51 2061.20 72.06 7.00
   09:12:21.200.25-Aug-2020  58.20 3358.42 4360.51 2061.20 72.06 7.00
   09:12:21.400.25-Aug-2020  58.40 3358.47 4360.51 2061.20 72.06 7.00
   09:12:21.600.25-Aug-2020  58.60 3358.45 4360.51 2061.20 72.06 7.00
   09:12:21.800.25-Aug-2020  58.80 3358.48 4360.51 2061.20 72.06 7.00
   09:12:22.000.25-Aug-2020  59.00 3358.44 4360.51 2061.20 72.06 7.00
   09:12:22.200.25-Aug-2020  59.20 3358.44 4360.51 2061.20 72.06 7.00
   09:12:22.400.25-Aug-2020  59.40 3358.56 4360.51 2061.20 72.06 7.00
   09:12:22.600.25-Aug-2020  59.60 3358.19 4360.51 2061.20 72.06 7.00
   09:12:22.800.25-Aug-2020  59.80 3358.52 4360.51 2061.20 72.06 7.00
   09:12:23.000.25-Aug-2020  60.00 3358.30 4360.51 2061.20 72.06 7.00
   09:12:23.200.25-Aug-2020  60.20 3358.30 4360.51 2061.20 72.06 7.00
   09:12:23.400.25-Aug-2020  60.40 3358.39 4360.51 2061.20 72.06 7.00
   09:12:23.600.25-Aug-2020  60.60 3358.37 4360.51 2061.20 72.06 7.00
   09:12:23.800.25-Aug-2020  60.80 3358.38 4360.51 2061.20 72.06 7.00
   09:12:24.000.25-Aug-2020  61.00 3358.33 4360.51 2061.20 72.06 7.00
   09:12:24.200.25-Aug-2020  61.20 3358.43 4360.51 2061.20 72.06 7.00
   09:12:24.400.25-Aug-2020  61.40 3358.39 4360.51 2061.20 72.06 7.00
   09:12:24.600.25-Aug-2020  61.60 3358.47 4360.51 2061.20 72.06 7.00
   09:12:24.800.25-Aug-2020  61.80 3358.17 4360.51 2061.20 72.06 7.00
   09:12:25.000.25-Aug-2020  62.00 3358.69 4360.51 2061.20 72.06 7.00
   09:12:25.200.25-Aug-2020  62.20 3358.21 4360.51 2061.20 72.06 7.00
   09:12:25.400.25-Aug-2020  62.40 3358.56 4360.51 2061.20 72.06 7.00
   09:12:25.600.25-Aug-2020  62.60 3358.30 4360.51 2061.20 72.06 7.00
   09:12:25.800.25-Aug-2020  62.80 3358.49 4360.51 2061.20 72.06 7.00
   09:12:26.000.25-Aug-2020  63.00 3358.40 4360.51 2061.20 72.06 7.00
   09:12:26.200.25-Aug-2020  63.20 3358.40 4360.51 2061.20 72.06 7.00
   09:12:26.400.25-Aug-2020  63.40 3358.64 4360.51 2061.20 72.06 7.00
   09:12:26.600.25-Aug-2020  63.60 3358.19 4360.51 2061.20 72.06 7.00
   09:12:26.800.25-Aug-2020  63.80 3358.49 4360.51 2061.20 72.06 7.00
   09:12:27.000.25-Aug-2020  64.00 3358.25 4360.51 2061.20 72.06 7.00
   09:12:27.200.25-Aug-2020  64.20 3358.25 4360.51 2061.20 72.06 7.00
   09:12:27.400.25-Aug-2020  64.40 3358.35 4360.51 2061.20 72.06 7.00
   09:12:27.600.25-Aug-2020  64.60 3358.45 4360.51 2061.20 72.06 7.00
   09:12:27.800.25-Aug-2020  64.80 3358.40 4360.51 2061.20 72.06 7.00
   09:12:28.000.25-Aug-2020  65.00 3358.40 4360.51 2061.20 72.06 7.00
   09:12:28.200.25-Aug-2020  65.20 3358.40 4360.51 2061.20 72.06 7.00
   09:12:28.400.25-Aug-2020  65.40 3358.43 4360.51 2061.20 72.06 7.00
   09:12:28.600.25-Aug-2020  65.60 3358.51 4360.51 2061.20 72.06 7.00
   09:12:28.800.25-Aug-2020  65.80 3358.45 4360.51 2061.20 72.06 7.00
   09:12:29.000.25-Aug-2020  66.00 3358.53 4360.51 2061.20 72.06 7.00
   09:12:29.200.25-Aug-2020  66.20 3358.53 4360.51 2061.20 72.06 7.00
   09:12:29.400.25-Aug-2020  66.40 3358.56 4360.51 2061.20 72.06 7.00
   09:12:29.600.25-Aug-2020  66.60 3358.54 4360.51 2061.20 72.06 7.00
   09:12:29.800.25-Aug-2020  66.80 3358.60 4360.51 2061.20 72.06 7.00
   09:12:30.000.25-Aug-2020  67.00 3358.57 4360.51 2061.20 72.06 7.00
   09:12:30.200.25-Aug-2020  67.20 3358.57 4360.51 2061.20 72.06 7.00
   09:12:30.400.25-Aug-2020  67.40 3358.58 4360.51 2061.20 72.06 7.00
   09:12:30.600.25-Aug-2020  67.60 3358.62 4360.51 2061.20 72.06 7.00
   09:12:30.800.25-Aug-2020  67.80 3358.61 4360.51 2061.20 72.06 7.00
   09:12:31.000.25-Aug-2020  68.00 3358.43 4360.51 2061.20 72.06 7.00
   09:12:31.200.25-Aug-2020  68.20 3358.43 4360.51 2061.20 72.06 7.00
   09:12:31.400.25-Aug-2020  68.40 3358.11 4360.51 2061.20 72.06 7.00
   09:12:31.600.25-Aug-2020  68.60 3358.69 4360.51 2061.20 72.06 7.00
   09:12:31.800.25-Aug-2020  68.80 3358.30 4360.51 2061.20 72.06 7.00
