~Version Information
 VERS.                  2.0:   CWLS log ASCII Standard -VERSION 2.0
 WRAP.                   NO:   One line per depth step
~Well Information Block
#MNEM.UNIT     VALUE/NAME     DESCRIPTION
#---------     -----------    ---------------------------
 STRT.S             11:11:27 25-Aug-20: START TIME 11:11:27 25-Aug-20
 STOP.S             11:18:24 25-Aug-20: STOP TIME  11:18:24 25-Aug-20
 STEP.S                   0.00: STEP TIME
 NULL.                 -999.25: NULL VALUE
 DFWT.                        :  DIST FWL TEXT
 DFST.                        :  DIST FSL TEXT
 DMF .             Drill Floor:  DRILL MEAS FROM
 STIM.      09.59.28 01-Jun-20:  START TIME
 DATE.      05.00.00 28-Aug-20:  END TIME
 SPUD.               01-Jun-20:  SPUD DATE
 NREF.                    Grid:  NORTH REFERENCE
 HPTY.       Minimum Curvature:  HOLE POS TYPE
 DMOD.             Drill Model:  DRILL MOD DESC
 SVYD.                  Survey:  SURVEY DESC
 ILTD.               Lithology:  INTERP LTH DESC
 FTOP.          Formation Tops:  FORM TOPS DESC
 SON .        AZ-XX-0905455768:  JOB NUMBER
 WTYP.                Deviated:  WELL TYPE
 COMP.     BP Exploration(Caspian Sea):  COMPANY
 BASE.              Azerbaijan:  LOGGING EQUIPMENT BASE LOCATION
 REGN.                   EESSA:  REGION
 CTRY.              Azerbaijan:  COUNTRY NAME
 FLD .                     ACG:  FIELD NAME
 SRVC.          Turan Drilling:  CONTRACTOR
 WELL.                     B41:  WELL NAME
 RIG .           Central Azeri:  RIG NAME
 DCON.         Sperry Drilling:  DIRECTNL CONTR
 PDAT.          Mean Sea Level:  PERMANENT DATUM
 MDS .        Operator Entered:  MAG DATA SOURCE
 API .                        :  API NUMBER
 CNTY.                        :  COUNTY
 PROV.                        :  PROVINCE
 STAT.                        :  STATE
 UWI .                        :  UNIQUE WELL IDENTIFIER
 LOC .                        :  LOCATION
 LMF .             Drill Floor:  LOG MEASURED FROM
 TVDS.m                  43.29:  TVDSS CORRECTN
 LATI.deg                40.03:  LATITUDE
 LONG.deg                51.35:  LONGITUDE
 WHNS.m                  12.98:  WELL HEAD N/S
 WHEW.m                  -6.62:  WELL HEAD E/W
 UTMX.m              530128.28:  UTM X
 UTMY.m             4433192.49:  UTM Y
 DFWL.m                   0.00:  DISTANCE FWL
 DFSL.m                   0.00:  DISTANCE FSL
 SDEP.m                 378.00:  START DEPTH
 TDD .m                4463.01:  TOTAL DEPTH (DRILLER)
 VSDR.deg               296.18:  VERT SEC DIRECT
 GVFD.g                   1.00:  GRAVITY FIELD
 MFLD.nT              50269.00:  MAGNETIC FIELD
 MDIP.deg                59.50:  MAGNETIC DIP
 MDEC.deg                 6.44:  MAGNETIC DECL
 GRDC.deg                 0.20:  GRID CORRECTION
 AZTC.deg                 6.24:  AZM TOTAL CORR
 EPD .m                   0.00:  ELEVATION
 EGL .m                   0.00:  GROUND ELEVATION
 WDMS.m                 128.20:  WD ELEV
 APD .m                  43.29:  DEPTH ABOVE PD
 AGAP.m                  43.29:  AIR GAP
 VSEW.m                  -6.62:  VERT SEC E/W
 VSNS.m                  12.98:  VERT SEC N/S
 EKB .m                  43.29:  KB ELEVATION
 EDF .m                  43.29:  DF ELEVATION
 TDL .m                 147.00:  TOTAL DEPTH (LOGGER)
 VSC .                       0:  VS TO CLOSURE
 MAGU.                 1849241:  MAGUTM CHECKSUM
~Parameter Information Block
#MNEM.UNIT       Value        Description
#---------     -----------    ---------------------------
 AV  .mps                 0.70:  Ann Velocity 
 AZIF.deg               269.43:  Azm, Final 
 BHAT.        Rotary Steerable:  BHA Type 
 BROT.°/30m              -0.03:  Build Rotating 
 BS  .in                  8.50:  Bit Size 
 BSZ .in                  8.50:  Bit Size 
 BTPL.psig              880.00:  Bit Press Loss 
 CABU.                      No:  Customer Abuse 
 CGEO.          Parviz Guliyev:  Customer Geo 
 COMM.                     ìra:  Run Comments 1 
 TCS .hr                 64.59:  Time Ciculation Ended 
 CV  .mps                 2.17:  Crit Velocity 
 DD1 .            Nonso Okafor:  Direct Drillr 1 
 DDSV.               Geo-Pilot:  DD Service 
 DEFF.%                  98.00:  % Det Eff 
 DLRX.°/30m               0.81:  Dogleg Rot Max 
 DLSO.°/30m               0.55:  Dogleg Oriented 
 DLSX.°/30m               0.81:  Dogleg Str Max 
 DRET.      23.50.00 24-Aug-20:  Drill End Time 
 DRST.      07.34.24 22-Aug-20:  Drill Start Tim 
 DTIM.hr                 15.29:  Time Drilling 
 EDEP.m                4461.01:  End Depth 
 ENG1.       Zam Abdullah Sani:  Engineer 1 
 ENG2.         Dair Mahammadov:  Engineer 2 
 ENG3.          Rustam Gadirov:  Engineer 3 
 ETIM.      07.34.24 26-Aug-20:  End Time 
 FLOI.gpm               550.00:  Flow In 
 FLON.gpm               400.00:  Flow In Min 
 FLOS.cptm                1.00:  Fluid Loss 
 FLOX.gpm               600.00:  Flow In Max 
 FTRO.       Formation Presure:  FTWD Run Obj 
 HFLO.                      No:  High Flow 
 HPRE.                      No:  High Pressure 
 HTEM.                      No:  High Temp 
 HYDO.m                   1.80:  Hydro Offset 
 IFIN.deg                66.72:  Inc, Final 
 IMAX.deg                67.42:  Inc Max 
 IMIN.deg                66.72:  Inc Min 
 IMND.m                4408.37:  Inc Min Depth 
 IMXD.m                4323.37:  Inc Max Depth 
 JARR.                      No:  Jarring 
 LETM.      23.50.00 24-Aug-20:  Log End Time 
 LOST.hr                     0:  Lost Rig Time 
 LSTM.      07.34.24 22-Aug-20:  Log Start Time 
 MDCL.ppm             38000.00:  Mud Chlorides 
 MDES.     Inversion Oil/Synthetic:  Mud Desc 
 DFD .sg                  1.40:  Mud Density 
 MDMN.sg                  1.38:  Dens Mud Min 
 MDMX.sg                  1.41:  Dens Mud Max 
 MOIL.                    70.5:  Run Mud Oil % 
 MOWR.                   68:32:  Run Mud OWR 
 MSND.                    0.01:  Run Mud Sand % 
 MSOL.                   17.68:  Run Mud Solids% 
 DFV .spqt               77.00:  Mud Viscosity 
 MWOD.in                  6.75:  MWD Tool OD 
 MWSI.                      No:  Serv Intrp, MWD 
 OTIM.hr                159.42:  Time Operating 
 PCON.           Look Like New:  Pad Condition 
 PMAX.psia             8730.94:  Press Op, Max 
 PV  .cP                 31.00:  Mud PV 
 RUN .                     900:  Run Number 
 ROPA.m/hr               12.00:  ROP Avg 
 ROPN.m/hr                7.00:  ROP Min 
 ROPX.m/hr               17.00:  ROP Max 
 RPMA.rpm               120.00:  RPM Surface Avg 
 RPMN.rpm                60.00:  RPM Surface Min 
 RPMX.rpm               140.00:  RPM Surface Max 
 RRUN.                    L604:  Rig Run Number 
 RTIM.hr                 10.00:  Time Reaming 
 SAZI.deg               270.56:  Azm, Start 
 SDEP.m                4314.01:  Start Depth 
 SIDD.                      No:  Serv Intrp, DD 
 SINC.deg                67.42:  Inc, Start 
 SPPA.psig             3300.00:  SPP Avg 
 SPPN.psig             1750.00:  SPP Min 
 SPPX.psig             4630.00:  SPP Max 
 STIM.      11.00.00 21-Aug-20:  Start Time 
 SVCS.                 DD, MWD:  Services 
 SVER.                    9.20:  Sperry Version 
 TDAT.m                4461.01:  Tot Depth Attmp 
 TDDF.                      No:  Trip for DD 
 TDLG.m                 147.00:  Tot Depth Loggd 
 TFF .                      No:  Trip for Fail 
 TQAA.f-kp               16.00:  Torque Abs Avg 
 TQAN.f-kp               14.00:  Torque Abs Min 
 TQAX.f-kp               20.00:  Torque Abs Max 
 TRRT.°/30m              -0.14:  Turn Rotating 
 MRT .                    HCIM:  Maximum Recorded Temperature 
 TTMX.degC               78.00:  Max Tool Temp 
 VS01.                90515425:  Virtual Str1 SN 
 VS02.                90545184:  Virtual Str2 SN 
 VS03.                90527809:  Virtual Str3 SN 
 VS04.                90515232:  Virtual Str4 SN 
 VS05.                90621207:  Virtual Str5 SN 
 VS06.                90619737:  Virtual Str6 SN 
 WBMN.klb                 2.00:  WOB Min 
 WITN.          Keith Dischler:  Customer Rep 
 WITN.           Faig Mammadov:  Customer Rep 2 
 WOBA.klb                 5.00:  WOB Avg 
 WOBX.klb                 8.00:  WOB Max 
 YP  .lhf2               32.00:  Yield Point 
~Curve Information Block
#MNEM.UNIT                 API CODE     Curve Description
#---------               -----------    ---------------------------
 TIME.HHMMSS            00 000 000 000:  GT Time & Date
 GTET.sec               00 000 000 000:  GT Elapsed Test Time
 GTPQH.psia             00 000 000 000:  GT HR Quartz Pressure
 GTDEPTH.m              00 000 000 000:  GT Depth
 GTTVD.m                00 000 000 000:  GT True Vertical Depth
 GTTQ.degC              00 000 000 000:  GT Quartz Temperature
 GTTN.NONE              00 000 000 000:  GT Test Number
#Other Information
#
#WARRANTY: Halliburton will use its best efforts to furnish customers with 
#accurate information and interpretations that are part of, and incident to, the services 
#provided.  However, Halliburton cannot and does not warrant the accuracy 
#or correctness of such information and interpretations.  Under no circumstances should any 
#such information or interpretation be relied upon as the sole basis for any drilling, 
#completion, production, or financial decision or any procedure involving any risk to the 
#safety of any drilling venture, drilling rig or its crew or any other third party.  The 
#Customer has full responsibility for all drilling, completion and production operation.  
#Halliburton makes no representations or warranties, either expressed or 
#implied, including, but not limited to, the implied warranties of merchantability or fitness 
#for a particular purpose, with respect to the services rendered.  In no event will 
#Halliburton be liable for failure to obtain any particular results or for 
#any damages, including, but not limited to, indirect, special or consequential damages, 
#resulting from the use of any information or interpretation provided by Halliburton.
#
~A           TIME            GTET   GTPQH  GTDEPTH  GTTVD  GTTQ  GTTN  
# ...
   11:17:51.200.25-Aug-2020 384.20 4768.98 4320.01 2045.42 71.58 10.00
   11:17:51.400.25-Aug-2020 384.40 4763.65 4320.01 2045.42 71.58 10.00
   11:17:51.600.25-Aug-2020 384.60 4761.53 4320.01 2045.42 71.58 10.00
   11:17:51.800.25-Aug-2020 384.80 4760.68 4320.01 2045.42 71.58 10.00
   11:17:52.000.25-Aug-2020 385.00 4770.92 4320.01 2045.42 71.58 10.00
   11:17:52.200.25-Aug-2020 385.20 4770.92 4320.01 2045.42 71.58 10.00
   11:17:52.400.25-Aug-2020 385.40 4769.38 4320.01 2045.42 71.58 10.00
   11:17:52.600.25-Aug-2020 385.60 4759.12 4320.01 2045.42 71.58 10.00
   11:17:52.800.25-Aug-2020 385.80 4761.38 4320.01 2045.42 71.58 10.00
   11:17:53.000.25-Aug-2020 386.00 4762.87 4320.01 2045.42 71.58 10.00
   11:17:53.200.25-Aug-2020 386.20 4764.13 4320.01 2045.42 71.58 10.00
   11:17:53.400.25-Aug-2020 386.40 4766.40 4320.01 2045.42 71.58 10.00
   11:17:53.600.25-Aug-2020 386.60 4759.85 4320.01 2045.42 71.58 10.00
   11:17:53.800.25-Aug-2020 386.80 4762.00 4320.01 2045.42 71.58 10.00
   11:17:54.000.25-Aug-2020 387.00 4760.98 4320.01 2045.42 71.58 10.00
   11:17:54.200.25-Aug-2020 387.20 4760.98 4320.01 2045.42 71.58 10.00
   11:17:54.400.25-Aug-2020 387.40 4758.87 4320.01 2045.42 71.58 10.00
   11:17:54.600.25-Aug-2020 387.60 4759.25 4320.01 2045.42 71.58 10.00
   11:17:54.800.25-Aug-2020 387.80 4759.14 4320.01 2045.42 71.58 10.00
   11:17:55.000.25-Aug-2020 388.00 4759.47 4320.01 2045.42 71.58 10.00
   11:17:55.200.25-Aug-2020 388.20 4759.47 4320.01 2045.42 71.58 10.00
   11:17:55.400.25-Aug-2020 388.40 4759.98 4320.01 2045.42 71.58 10.00
   11:17:55.600.25-Aug-2020 388.60 4759.97 4320.01 2045.42 71.58 10.00
   11:17:55.800.25-Aug-2020 388.80 4760.15 4320.01 2045.42 71.58 10.00
   11:17:56.000.25-Aug-2020 389.00 4759.91 4320.01 2045.42 71.58 10.00
   11:17:56.200.25-Aug-2020 389.20 4759.91 4320.01 2045.42 71.58 10.00
   11:17:56.400.25-Aug-2020 389.40 4758.76 4320.01 2045.42 71.58 10.00
   11:17:56.600.25-Aug-2020 389.60 4758.68 4320.01 2045.42 71.58 10.00
   11:17:56.800.25-Aug-2020 389.80 4769.26 4320.01 2045.42 71.58 10.00
   11:17:57.000.25-Aug-2020 390.00 4757.26 4320.01 2045.42 71.58 10.00
   11:17:57.200.25-Aug-2020 390.20 4757.26 4320.01 2045.42 71.58 10.00
   11:17:57.400.25-Aug-2020 390.40 4761.09 4320.01 2045.42 71.58 10.00
   11:17:57.600.25-Aug-2020 390.60 4759.17 4320.01 2045.42 71.58 10.00
   11:17:57.800.25-Aug-2020 390.80 4757.06 4320.01 2045.42 71.58 10.00
   11:17:58.000.25-Aug-2020 391.00 4758.88 4320.01 2045.42 71.58 10.00
   11:17:58.200.25-Aug-2020 391.20 4758.88 4320.01 2045.42 71.58 10.00
   11:17:58.400.25-Aug-2020 391.40 4758.90 4320.01 2045.42 71.58 10.00
   11:17:58.600.25-Aug-2020 391.60 4758.67 4320.01 2045.42 71.58 10.00
   11:17:58.800.25-Aug-2020 391.80 4758.14 4320.01 2045.42 71.58 10.00
   11:17:59.000.25-Aug-2020 392.00 4758.07 4320.01 2045.42 71.58 10.00
   11:17:59.200.25-Aug-2020 392.20 4758.07 4320.01 2045.42 71.58 10.00
   11:17:59.400.25-Aug-2020 392.40 4758.27 4320.01 2045.42 71.58 10.00
   11:17:59.600.25-Aug-2020 392.60 4758.53 4320.01 2045.42 71.58 10.00
   11:17:59.800.25-Aug-2020 392.80 4757.96 4320.01 2045.42 71.58 10.00
   11:18:00.000.25-Aug-2020 393.00 4757.52 4320.01 2045.42 71.58 10.00
   11:18:00.200.25-Aug-2020 393.20 4757.52 4320.01 2045.42 71.58 10.00
   11:18:00.400.25-Aug-2020 393.40 4756.59 4320.01 2045.42 71.58 10.00
   11:18:00.600.25-Aug-2020 393.60 4763.04 4320.01 2045.42 71.58 10.00
   11:18:00.800.25-Aug-2020 393.80 4761.37 4320.01 2045.42 71.58 10.00
   11:18:01.000.25-Aug-2020 394.00 4759.00 4320.01 2045.42 71.58 10.00
   11:18:01.200.25-Aug-2020 394.20 4759.00 4320.01 2045.42 71.58 10.00
   11:18:01.400.25-Aug-2020 394.40 4762.38 4320.01 2045.42 71.58 10.00
   11:18:01.600.25-Aug-2020 394.60 4765.76 4320.01 2045.42 71.58 10.00
   11:18:01.800.25-Aug-2020 394.80 4758.44 4320.01 2045.42 71.58 10.00
   11:18:02.000.25-Aug-2020 395.00 4760.38 4320.01 2045.42 71.58 10.00
   11:18:02.200.25-Aug-2020 395.20 4760.38 4320.01 2045.42 71.58 10.00
   11:18:02.400.25-Aug-2020 395.40 4757.34 4320.01 2045.42 71.58 10.00
   11:18:02.600.25-Aug-2020 395.60 4768.84 4320.01 2045.42 71.58 10.00
   11:18:02.800.25-Aug-2020 395.80 4756.92 4320.01 2045.42 71.58 10.00
   11:18:03.000.25-Aug-2020 396.00 4763.45 4320.01 2045.42 71.58 10.00
   11:18:03.200.25-Aug-2020 396.20 4763.45 4320.01 2045.42 71.58 10.00
   11:18:03.400.25-Aug-2020 396.40 4760.35 4320.01 2045.42 71.58 10.00
   11:18:03.600.25-Aug-2020 396.60 4770.70 4320.01 2045.42 71.58 10.00
   11:18:03.800.25-Aug-2020 396.80 4754.24 4320.01 2045.42 71.58 10.00
   11:18:04.000.25-Aug-2020 397.00 4769.04 4320.01 2045.42 71.58 10.00
   11:18:04.200.25-Aug-2020 397.20 4769.04 4320.01 2045.42 71.58 10.00
   11:18:04.400.25-Aug-2020 397.40 4761.34 4320.01 2045.42 71.58 10.00
   11:18:04.600.25-Aug-2020 397.60 4762.74 4320.01 2045.42 71.58 10.00
   11:18:04.800.25-Aug-2020 397.80 4763.95 4320.01 2045.42 71.58 10.00
   11:18:05.000.25-Aug-2020 398.00 4766.29 4320.01 2045.42 71.58 10.00
   11:18:05.200.25-Aug-2020 398.20 4766.29 4320.01 2045.42 71.58 10.00
   11:18:05.400.25-Aug-2020 398.40 4762.00 4320.01 2045.42 71.58 10.00
   11:18:05.600.25-Aug-2020 398.60 4761.09 4320.01 2045.42 71.58 10.00
   11:18:05.800.25-Aug-2020 398.80 4759.21 4320.01 2045.42 71.58 10.00
   11:18:06.000.25-Aug-2020 399.00 4759.24 4320.01 2045.42 71.58 10.00
   11:18:06.200.25-Aug-2020 399.20 4759.24 4320.01 2045.42 71.58 10.00
   11:18:06.400.25-Aug-2020 399.40 4759.46 4320.01 2045.42 71.58 10.00
   11:18:06.600.25-Aug-2020 399.60 4759.65 4320.01 2045.42 71.58 10.00
   11:18:06.800.25-Aug-2020 399.80 4759.98 4320.01 2045.42 71.58 10.00
   11:18:07.000.25-Aug-2020 400.00 4759.63 4320.01 2045.42 71.58 10.00
   11:18:07.200.25-Aug-2020 400.20 4759.70 4320.01 2045.42 71.58 10.00
   11:18:07.400.25-Aug-2020 400.40 4759.47 4320.01 2045.42 71.58 10.00
   11:18:07.600.25-Aug-2020 400.60 4759.31 4320.01 2045.42 71.58 10.00
   11:18:07.800.25-Aug-2020 400.80 4759.07 4320.01 2045.42 71.58 10.00
   11:18:08.000.25-Aug-2020 401.00 4758.57 4320.01 2045.42 71.58 10.00
   11:18:08.200.25-Aug-2020 401.20 4758.57 4320.01 2045.42 71.58 10.00
   11:18:08.400.25-Aug-2020 401.40 4769.29 4320.01 2045.42 71.58 10.00
   11:18:08.600.25-Aug-2020 401.60 4757.31 4320.01 2045.42 71.58 10.00
   11:18:08.800.25-Aug-2020 401.80 4763.64 4320.01 2045.42 71.58 10.00
   11:18:09.000.25-Aug-2020 402.00 4761.17 4320.01 2045.42 71.58 10.00
   11:18:09.200.25-Aug-2020 402.20 4758.81 4320.01 2045.42 71.58 10.00
   11:18:09.400.25-Aug-2020 402.40 4756.53 4320.01 2045.42 71.58 10.00
   11:18:09.600.25-Aug-2020 402.60 4758.26 4320.01 2045.42 71.58 10.00
   11:18:09.800.25-Aug-2020 402.80 4757.84 4320.01 2045.42 71.58 10.00
   11:18:10.000.25-Aug-2020 403.00 4757.82 4320.01 2045.42 71.58 10.00
   11:18:10.200.25-Aug-2020 403.20 4757.82 4320.01 2045.42 71.58 10.00
   11:18:10.400.25-Aug-2020 403.40 4757.28 4320.01 2045.42 71.58 10.00
   11:18:10.600.25-Aug-2020 403.60 4757.42 4320.01 2045.42 71.58 10.00
   11:18:10.800.25-Aug-2020 403.80 4757.43 4320.01 2045.42 71.58 10.00
   11:18:11.000.25-Aug-2020 404.00 4757.92 4320.01 2045.42 71.58 10.00
   11:18:11.200.25-Aug-2020 404.20 4758.31 4320.01 2045.42 71.58 10.00
   11:18:11.400.25-Aug-2020 404.40 4757.60 4320.01 2045.42 71.58 10.00
   11:18:11.600.25-Aug-2020 404.60 4757.10 4320.01 2045.42 71.58 10.00
   11:18:11.800.25-Aug-2020 404.80 4767.70 4320.01 2045.42 71.58 10.00
   11:18:12.000.25-Aug-2020 405.00 4756.14 4320.01 2045.42 71.58 10.00
   11:18:12.200.25-Aug-2020 405.20 4762.78 4320.01 2045.42 71.58 10.00
   11:18:12.400.25-Aug-2020 405.40 4760.84 4320.01 2045.42 71.58 10.00
   11:18:12.600.25-Aug-2020 405.60 4758.34 4320.01 2045.42 71.58 10.00
   11:18:12.800.25-Aug-2020 405.80 4759.04 4320.01 2045.42 71.58 10.00
   11:18:13.000.25-Aug-2020 406.00 4761.67 4320.01 2045.42 71.58 10.00
   11:18:13.200.25-Aug-2020 406.20 4765.20 4320.01 2045.42 71.58 10.00
   11:18:13.400.25-Aug-2020 406.40 4757.85 4320.01 2045.42 71.57 10.00
   11:18:13.600.25-Aug-2020 406.60 4760.16 4320.01 2045.42 71.57 10.00
