~Version Information
 VERS.                  2.0:   CWLS log ASCII Standard -VERSION 2.0
 WRAP.                   NO:   One line per depth step
~Well Information Block
#MNEM.UNIT     VALUE/NAME     DESCRIPTION
#---------     -----------    ---------------------------
 STRT.S             12:25:10 25-Aug-20: START TIME 12:25:10 25-Aug-20
 STOP.S             12:32:06 25-Aug-20: STOP TIME  12:32:06 25-Aug-20
 STEP.S                   0.00: STEP TIME
 NULL.                 -999.25: NULL VALUE
 DFWT.                        :  DIST FWL TEXT
 DFST.                        :  DIST FSL TEXT
 DMF .             Drill Floor:  DRILL MEAS FROM
 STIM.      09.59.28 01-Jun-20:  START TIME
 DATE.      05.00.00 28-Aug-20:  END TIME
 SPUD.               01-Jun-20:  SPUD DATE
 NREF.                    Grid:  NORTH REFERENCE
 HPTY.       Minimum Curvature:  HOLE POS TYPE
 DMOD.             Drill Model:  DRILL MOD DESC
 SVYD.                  Survey:  SURVEY DESC
 ILTD.               Lithology:  INTERP LTH DESC
 FTOP.          Formation Tops:  FORM TOPS DESC
 SON .        AZ-XX-0905455768:  JOB NUMBER
 WTYP.                Deviated:  WELL TYPE
 COMP.     BP Exploration(Caspian Sea):  COMPANY
 BASE.              Azerbaijan:  LOGGING EQUIPMENT BASE LOCATION
 REGN.                   EESSA:  REGION
 CTRY.              Azerbaijan:  COUNTRY NAME
 FLD .                     ACG:  FIELD NAME
 SRVC.          Turan Drilling:  CONTRACTOR
 WELL.                     B41:  WELL NAME
 RIG .           Central Azeri:  RIG NAME
 DCON.         Sperry Drilling:  DIRECTNL CONTR
 PDAT.          Mean Sea Level:  PERMANENT DATUM
 MDS .        Operator Entered:  MAG DATA SOURCE
 API .                        :  API NUMBER
 CNTY.                        :  COUNTY
 PROV.                        :  PROVINCE
 STAT.                        :  STATE
 UWI .                        :  UNIQUE WELL IDENTIFIER
 LOC .                        :  LOCATION
 LMF .             Drill Floor:  LOG MEASURED FROM
 TVDS.m                  43.29:  TVDSS CORRECTN
 LATI.deg                40.03:  LATITUDE
 LONG.deg                51.35:  LONGITUDE
 WHNS.m                  12.98:  WELL HEAD N/S
 WHEW.m                  -6.62:  WELL HEAD E/W
 UTMX.m              530128.28:  UTM X
 UTMY.m             4433192.49:  UTM Y
 DFWL.m                   0.00:  DISTANCE FWL
 DFSL.m                   0.00:  DISTANCE FSL
 SDEP.m                 378.00:  START DEPTH
 TDD .m                4463.01:  TOTAL DEPTH (DRILLER)
 VSDR.deg               296.18:  VERT SEC DIRECT
 GVFD.g                   1.00:  GRAVITY FIELD
 MFLD.nT              50269.00:  MAGNETIC FIELD
 MDIP.deg                59.50:  MAGNETIC DIP
 MDEC.deg                 6.44:  MAGNETIC DECL
 GRDC.deg                 0.20:  GRID CORRECTION
 AZTC.deg                 6.24:  AZM TOTAL CORR
 EPD .m                   0.00:  ELEVATION
 EGL .m                   0.00:  GROUND ELEVATION
 WDMS.m                 128.20:  WD ELEV
 APD .m                  43.29:  DEPTH ABOVE PD
 AGAP.m                  43.29:  AIR GAP
 VSEW.m                  -6.62:  VERT SEC E/W
 VSNS.m                  12.98:  VERT SEC N/S
 EKB .m                  43.29:  KB ELEVATION
 EDF .m                  43.29:  DF ELEVATION
 TDL .m                 147.00:  TOTAL DEPTH (LOGGER)
 VSC .                       0:  VS TO CLOSURE
 MAGU.                 1849241:  MAGUTM CHECKSUM
~Parameter Information Block
#MNEM.UNIT       Value        Description
#---------     -----------    ---------------------------
 AV  .mps                 0.70:  Ann Velocity 
 AZIF.deg               269.43:  Azm, Final 
 BHAT.        Rotary Steerable:  BHA Type 
 BROT.°/30m              -0.03:  Build Rotating 
 BS  .in                  8.50:  Bit Size 
 BSZ .in                  8.50:  Bit Size 
 BTPL.psig              880.00:  Bit Press Loss 
 CABU.                      No:  Customer Abuse 
 CGEO.          Parviz Guliyev:  Customer Geo 
 COMM.                     >h:  Run Comments 1 
 TCS .hr                 64.59:  Time Ciculation Ended 
 CV  .mps                 2.17:  Crit Velocity 
 DD1 .            Nonso Okafor:  Direct Drillr 1 
 DDSV.               Geo-Pilot:  DD Service 
 DEFF.%                  98.00:  % Det Eff 
 DLRX.°/30m               0.81:  Dogleg Rot Max 
 DLSO.°/30m               0.55:  Dogleg Oriented 
 DLSX.°/30m               0.81:  Dogleg Str Max 
 DRET.      23.50.00 24-Aug-20:  Drill End Time 
 DRST.      07.34.24 22-Aug-20:  Drill Start Tim 
 DTIM.hr                 15.29:  Time Drilling 
 EDEP.m                4461.01:  End Depth 
 ENG1.       Zam Abdullah Sani:  Engineer 1 
 ENG2.         Dair Mahammadov:  Engineer 2 
 ENG3.          Rustam Gadirov:  Engineer 3 
 ETIM.      07.34.24 26-Aug-20:  End Time 
 FLOI.gpm               550.00:  Flow In 
 FLON.gpm               400.00:  Flow In Min 
 FLOS.cptm                1.00:  Fluid Loss 
 FLOX.gpm               600.00:  Flow In Max 
 FTRO.       Formation Presure:  FTWD Run Obj 
 HFLO.                      No:  High Flow 
 HPRE.                      No:  High Pressure 
 HTEM.                      No:  High Temp 
 HYDO.m                   1.80:  Hydro Offset 
 IFIN.deg                66.72:  Inc, Final 
 IMAX.deg                67.42:  Inc Max 
 IMIN.deg                66.72:  Inc Min 
 IMND.m                4408.37:  Inc Min Depth 
 IMXD.m                4323.37:  Inc Max Depth 
 JARR.                      No:  Jarring 
 LETM.      23.50.00 24-Aug-20:  Log End Time 
 LOST.hr                     0:  Lost Rig Time 
 LSTM.      07.34.24 22-Aug-20:  Log Start Time 
 MDCL.ppm             38000.00:  Mud Chlorides 
 MDES.     Inversion Oil/Synthetic:  Mud Desc 
 DFD .sg                  1.40:  Mud Density 
 MDMN.sg                  1.38:  Dens Mud Min 
 MDMX.sg                  1.41:  Dens Mud Max 
 MOIL.                    70.5:  Run Mud Oil % 
 MOWR.                   68:32:  Run Mud OWR 
 MSND.                    0.01:  Run Mud Sand % 
 MSOL.                   17.68:  Run Mud Solids% 
 DFV .spqt               77.00:  Mud Viscosity 
 MWOD.in                  6.75:  MWD Tool OD 
 MWSI.                      No:  Serv Intrp, MWD 
 OTIM.hr                159.42:  Time Operating 
 PCON.           Look Like New:  Pad Condition 
 PMAX.psia             8730.94:  Press Op, Max 
 PV  .cP                 31.00:  Mud PV 
 RUN .                     900:  Run Number 
 ROPA.m/hr               12.00:  ROP Avg 
 ROPN.m/hr                7.00:  ROP Min 
 ROPX.m/hr               17.00:  ROP Max 
 RPMA.rpm               120.00:  RPM Surface Avg 
 RPMN.rpm                60.00:  RPM Surface Min 
 RPMX.rpm               140.00:  RPM Surface Max 
 RRUN.                    L604:  Rig Run Number 
 RTIM.hr                 10.00:  Time Reaming 
 SAZI.deg               270.56:  Azm, Start 
 SDEP.m                4314.01:  Start Depth 
 SIDD.                      No:  Serv Intrp, DD 
 SINC.deg                67.42:  Inc, Start 
 SPPA.psig             3300.00:  SPP Avg 
 SPPN.psig             1750.00:  SPP Min 
 SPPX.psig             4630.00:  SPP Max 
 STIM.      11.00.00 21-Aug-20:  Start Time 
 SVCS.                 DD, MWD:  Services 
 SVER.                    9.20:  Sperry Version 
 TDAT.m                4461.01:  Tot Depth Attmp 
 TDDF.                      No:  Trip for DD 
 TDLG.m                 147.00:  Tot Depth Loggd 
 TFF .                      No:  Trip for Fail 
 TQAA.f-kp               16.00:  Torque Abs Avg 
 TQAN.f-kp               14.00:  Torque Abs Min 
 TQAX.f-kp               20.00:  Torque Abs Max 
 TRRT.°/30m              -0.14:  Turn Rotating 
 MRT .                    HCIM:  Maximum Recorded Temperature 
 TTMX.degC               78.00:  Max Tool Temp 
 VS01.                90515425:  Virtual Str1 SN 
 VS02.                90545184:  Virtual Str2 SN 
 VS03.                90527809:  Virtual Str3 SN 
 VS04.                90515232:  Virtual Str4 SN 
 VS05.                90621207:  Virtual Str5 SN 
 VS06.                90619737:  Virtual Str6 SN 
 WBMN.klb                 2.00:  WOB Min 
 WITN.          Keith Dischler:  Customer Rep 
 WITN.           Faig Mammadov:  Customer Rep 2 
 WOBA.klb                 5.00:  WOB Avg 
 WOBX.klb                 8.00:  WOB Max 
 YP  .lhf2               32.00:  Yield Point 
~Curve Information Block
#MNEM.UNIT                 API CODE     Curve Description
#---------               -----------    ---------------------------
 TIME.HHMMSS            00 000 000 000:  GT Time & Date
 GTET.sec               00 000 000 000:  GT Elapsed Test Time
 GTPQH.psia             00 000 000 000:  GT HR Quartz Pressure
 GTDEPTH.m              00 000 000 000:  GT Depth
 GTTVD.m                00 000 000 000:  GT True Vertical Depth
 GTTQ.degC              00 000 000 000:  GT Quartz Temperature
 GTTN.NONE              00 000 000 000:  GT Test Number
#Other Information
#
#WARRANTY: Halliburton will use its best efforts to furnish customers with 
#accurate information and interpretations that are part of, and incident to, the services 
#provided.  However, Halliburton cannot and does not warrant the accuracy 
#or correctness of such information and interpretations.  Under no circumstances should any 
#such information or interpretation be relied upon as the sole basis for any drilling, 
#completion, production, or financial decision or any procedure involving any risk to the 
#safety of any drilling venture, drilling rig or its crew or any other third party.  The 
#Customer has full responsibility for all drilling, completion and production operation.  
#Halliburton makes no representations or warranties, either expressed or 
#implied, including, but not limited to, the implied warranties of merchantability or fitness 
#for a particular purpose, with respect to the services rendered.  In no event will 
#Halliburton be liable for failure to obtain any particular results or for 
#any damages, including, but not limited to, indirect, special or consequential damages, 
#resulting from the use of any information or interpretation provided by Halliburton.
#
~A           TIME            GTET   GTPQH  GTDEPTH  GTTVD  GTTQ  GTTN  
# ...
   12:27:25.600.25-Aug-2020 135.60   46.99 4311.01 2041.94 71.57 12.00
   12:27:25.800.25-Aug-2020 135.80   47.01 4311.01 2041.94 71.57 12.00
   12:27:26.000.25-Aug-2020 136.00   47.02 4311.01 2041.94 71.57 12.00
   12:27:26.200.25-Aug-2020 136.20   46.99 4311.01 2041.94 71.57 12.00
   12:27:26.400.25-Aug-2020 136.40   47.04 4311.01 2041.94 71.57 12.00
   12:27:26.600.25-Aug-2020 136.60   47.03 4311.01 2041.94 71.57 12.00
   12:27:26.800.25-Aug-2020 136.80   47.07 4311.01 2041.94 71.57 12.00
   12:27:27.000.25-Aug-2020 137.00   47.09 4311.01 2041.94 71.57 12.00
   12:27:27.200.25-Aug-2020 137.20   47.10 4311.01 2041.94 71.57 12.00
   12:27:27.400.25-Aug-2020 137.40   47.07 4311.01 2041.94 71.57 12.00
   12:27:27.600.25-Aug-2020 137.60   47.12 4311.01 2041.94 71.57 12.00
   12:27:27.800.25-Aug-2020 137.80   47.14 4311.01 2041.94 71.57 12.00
   12:27:28.000.25-Aug-2020 138.00   47.16 4311.01 2041.94 71.57 12.00
   12:27:28.200.25-Aug-2020 138.20   47.19 4311.01 2041.94 71.57 12.00
   12:27:28.400.25-Aug-2020 138.40   47.19 4311.01 2041.94 71.57 12.00
   12:27:28.600.25-Aug-2020 138.60   47.19 4311.01 2041.94 71.57 12.00
   12:27:28.800.25-Aug-2020 138.80   47.21 4311.01 2041.94 71.57 12.00
   12:27:29.000.25-Aug-2020 139.00   47.23 4311.01 2041.94 71.57 12.00
   12:27:29.200.25-Aug-2020 139.20   47.26 4311.01 2041.94 71.57 12.00
   12:27:29.400.25-Aug-2020 139.40   47.24 4311.01 2041.94 71.57 12.00
   12:27:29.600.25-Aug-2020 139.60   47.30 4311.01 2041.94 71.57 12.00
   12:27:29.800.25-Aug-2020 139.80   47.30 4311.01 2041.94 71.57 12.00
   12:27:30.000.25-Aug-2020 140.00   47.33 4311.01 2041.94 71.57 12.00
   12:27:30.200.25-Aug-2020 140.20   47.35 4311.01 2041.94 71.57 12.00
   12:27:30.400.25-Aug-2020 140.40   47.37 4311.01 2041.94 71.57 12.00
   12:27:30.600.25-Aug-2020 140.60   47.35 4311.01 2041.94 71.57 12.00
   12:27:30.800.25-Aug-2020 140.80   47.38 4311.01 2041.94 71.57 12.00
   12:27:31.000.25-Aug-2020 141.00   47.41 4311.01 2041.94 71.57 12.00
   12:27:31.200.25-Aug-2020 141.20   47.44 4311.01 2041.94 71.57 12.00
   12:27:31.400.25-Aug-2020 141.40   47.46 4311.01 2041.94 71.57 12.00
   12:27:31.600.25-Aug-2020 141.60   47.48 4311.01 2041.94 71.57 12.00
   12:27:31.800.25-Aug-2020 141.80   47.49 4311.01 2041.94 71.57 12.00
   12:27:32.000.25-Aug-2020 142.00   47.52 4311.01 2041.94 71.57 12.00
   12:27:32.200.25-Aug-2020 142.20   47.54 4311.01 2041.94 71.57 12.00
   12:27:32.400.25-Aug-2020 142.40   47.55 4311.01 2041.94 71.57 12.00
   12:27:32.600.25-Aug-2020 142.60   47.58 4311.01 2041.94 71.57 12.00
   12:27:32.800.25-Aug-2020 142.80   47.60 4311.01 2041.94 71.57 12.00
   12:27:33.000.25-Aug-2020 143.00   47.61 4311.01 2041.94 71.57 12.00
   12:27:33.200.25-Aug-2020 143.20   47.61 4311.01 2041.94 71.57 12.00
   12:27:33.400.25-Aug-2020 143.40   47.65 4311.01 2041.94 71.57 12.00
   12:27:33.600.25-Aug-2020 143.60   47.67 4311.01 2041.94 71.57 12.00
   12:27:33.800.25-Aug-2020 143.80   47.68 4311.01 2041.94 71.57 12.00
   12:27:34.000.25-Aug-2020 144.00   47.70 4311.01 2041.94 71.57 12.00
   12:27:34.200.25-Aug-2020 144.20   47.67 4311.01 2041.94 71.57 12.00
   12:27:34.400.25-Aug-2020 144.40   47.71 4311.01 2041.94 71.57 12.00
   12:27:34.600.25-Aug-2020 144.60   47.73 4311.01 2041.94 71.57 12.00
   12:27:34.800.25-Aug-2020 144.80   47.75 4311.01 2041.94 71.58 12.00
   12:27:35.000.25-Aug-2020 145.00   47.78 4311.01 2041.94 71.57 12.00
   12:27:35.200.25-Aug-2020 145.20   47.78 4311.01 2041.94 71.58 12.00
   12:27:35.400.25-Aug-2020 145.40   47.80 4311.01 2041.94 71.58 12.00
   12:27:35.600.25-Aug-2020 145.60   47.82 4311.01 2041.94 71.58 12.00
   12:27:35.800.25-Aug-2020 145.80   47.84 4311.01 2041.94 71.58 12.00
   12:27:36.000.25-Aug-2020 146.00   47.85 4311.01 2041.94 71.58 12.00
   12:27:36.200.25-Aug-2020 146.20   47.85 4311.01 2041.94 71.58 12.00
   12:27:36.400.25-Aug-2020 146.40   47.89 4311.01 2041.94 71.58 12.00
   12:27:36.600.25-Aug-2020 146.60   47.90 4311.01 2041.94 71.58 12.00
   12:27:36.800.25-Aug-2020 146.80   47.93 4311.01 2041.94 71.58 12.00
   12:27:37.000.25-Aug-2020 147.00   47.94 4311.01 2041.94 71.58 12.00
   12:27:37.200.25-Aug-2020 147.20   47.94 4311.01 2041.94 71.58 12.00
   12:27:37.400.25-Aug-2020 147.40   47.93 4311.01 2041.94 71.58 12.00
   12:27:37.600.25-Aug-2020 147.60   47.95 4311.01 2041.94 71.58 12.00
   12:27:37.800.25-Aug-2020 147.80   47.99 4311.01 2041.94 71.58 12.00
   12:27:38.000.25-Aug-2020 148.00   48.00 4311.01 2041.94 71.58 12.00
   12:27:38.200.25-Aug-2020 148.20   48.02 4311.01 2041.94 71.58 12.00
   12:27:38.400.25-Aug-2020 148.40   48.02 4311.01 2041.94 71.58 12.00
   12:27:38.600.25-Aug-2020 148.60   48.02 4311.01 2041.94 71.58 12.00
   12:27:38.800.25-Aug-2020 148.80   48.02 4311.01 2041.94 71.58 12.00
   12:27:39.000.25-Aug-2020 149.00   47.66 4311.01 2041.94 71.58 12.00
   12:27:39.200.25-Aug-2020 149.20   47.66 4311.01 2041.94 71.58 12.00
   12:27:39.400.25-Aug-2020 149.40   44.87 4311.01 2041.94 71.58 12.00
   12:27:39.600.25-Aug-2020 149.60   43.50 4311.01 2041.94 71.58 12.00
   12:27:39.800.25-Aug-2020 149.80   42.28 4311.01 2041.94 71.58 12.00
   12:27:40.000.25-Aug-2020 150.00   41.17 4311.01 2041.94 71.58 12.00
   12:27:40.200.25-Aug-2020 150.20   41.17 4311.01 2041.94 71.58 12.00
   12:27:40.400.25-Aug-2020 150.40   39.16 4311.01 2041.94 71.58 12.00
   12:27:40.600.25-Aug-2020 150.60   38.22 4311.01 2041.94 71.58 12.00
   12:27:40.800.25-Aug-2020 150.80   37.36 4311.01 2041.94 71.58 12.00
   12:27:41.000.25-Aug-2020 151.00   36.59 4311.01 2041.94 71.58 12.00
   12:27:41.200.25-Aug-2020 151.20   36.59 4311.01 2041.94 71.58 12.00
   12:27:41.400.25-Aug-2020 151.40   35.15 4311.01 2041.94 71.58 12.00
   12:27:41.600.25-Aug-2020 151.60   34.43 4311.01 2041.94 71.58 12.00
   12:27:41.800.25-Aug-2020 151.80   33.83 4311.01 2041.94 71.58 12.00
   12:27:42.000.25-Aug-2020 152.00   33.24 4311.01 2041.94 71.58 12.00
   12:27:42.200.25-Aug-2020 152.20   32.69 4311.01 2041.94 71.58 12.00
   12:27:42.400.25-Aug-2020 152.40   32.15 4311.01 2041.94 71.58 12.00
   12:27:42.600.25-Aug-2020 152.60   31.66 4311.01 2041.94 71.58 12.00
   12:27:42.800.25-Aug-2020 152.80   31.17 4311.01 2041.94 71.58 12.00
   12:27:43.000.25-Aug-2020 153.00   30.70 4311.01 2041.94 71.58 12.00
   12:27:43.200.25-Aug-2020 153.20   30.26 4311.01 2041.94 71.58 12.00
   12:27:43.400.25-Aug-2020 153.40   29.86 4311.01 2041.94 71.58 12.00
   12:27:43.600.25-Aug-2020 153.60   29.48 4311.01 2041.94 71.58 12.00
   12:27:43.800.25-Aug-2020 153.80   29.08 4311.01 2041.94 71.58 12.00
   12:27:44.000.25-Aug-2020 154.00   28.70 4311.01 2041.94 71.58 12.00
   12:27:44.200.25-Aug-2020 154.20   28.34 4311.01 2041.94 71.58 12.00
   12:27:44.400.25-Aug-2020 154.40   28.01 4311.01 2041.94 71.58 12.00
   12:27:44.600.25-Aug-2020 154.60   27.69 4311.01 2041.94 71.58 12.00
   12:27:44.800.25-Aug-2020 154.80   27.38 4311.01 2041.94 71.58 12.00
   12:27:45.000.25-Aug-2020 155.00   27.06 4311.01 2041.94 71.58 12.00
   12:27:45.200.25-Aug-2020 155.20   26.72 4311.01 2041.94 71.58 12.00
   12:27:45.400.25-Aug-2020 155.40   26.47 4311.01 2041.94 71.58 12.00
   12:27:45.600.25-Aug-2020 155.60   26.23 4311.01 2041.94 71.58 12.00
   12:27:45.800.25-Aug-2020 155.80   25.98 4311.01 2041.94 71.58 12.00
   12:27:46.000.25-Aug-2020 156.00   25.72 4311.01 2041.94 71.58 12.00
   12:27:46.200.25-Aug-2020 156.20   25.48 4311.01 2041.94 71.58 12.00
   12:27:46.400.25-Aug-2020 156.40   25.25 4311.01 2041.94 71.58 12.00
   12:27:46.600.25-Aug-2020 156.60   25.02 4311.01 2041.94 71.58 12.00
   12:27:46.800.25-Aug-2020 156.80   24.81 4311.01 2041.94 71.58 12.00
   12:27:47.000.25-Aug-2020 157.00   24.59 4311.01 2041.94 71.58 12.00
   12:27:47.200.25-Aug-2020 157.20   24.39 4311.01 2041.94 71.58 12.00
   12:27:47.400.25-Aug-2020 157.40   24.18 4311.01 2041.94 71.58 12.00
   12:27:47.600.25-Aug-2020 157.60   23.98 4311.01 2041.94 71.58 12.00
   12:27:47.800.25-Aug-2020 157.80   23.81 4311.01 2041.94 71.58 12.00
   12:27:48.000.25-Aug-2020 158.00   23.61 4311.01 2041.94 71.58 12.00
