~Version Information
 VERS.                  2.0:   CWLS log ASCII Standard -VERSION 2.0
 WRAP.                   NO:   One line per depth step
~Well Information Block
#MNEM.UNIT     VALUE/NAME     DESCRIPTION
#---------     -----------    ---------------------------
 STRT.S             07:44:59 25-Aug-20: START TIME 07:44:59 25-Aug-20
 STOP.S             07:51:54 25-Aug-20: STOP TIME  07:51:54 25-Aug-20
 STEP.S                   0.00: STEP TIME
 NULL.                 -999.25: NULL VALUE
 DFWT.                        :  DIST FWL TEXT
 DFST.                        :  DIST FSL TEXT
 DMF .             Drill Floor:  DRILL MEAS FROM
 STIM.      09.59.28 01-Jun-20:  START TIME
 DATE.      05.00.00 28-Aug-20:  END TIME
 SPUD.               01-Jun-20:  SPUD DATE
 NREF.                    Grid:  NORTH REFERENCE
 HPTY.       Minimum Curvature:  HOLE POS TYPE
 DMOD.             Drill Model:  DRILL MOD DESC
 SVYD.                  Survey:  SURVEY DESC
 ILTD.               Lithology:  INTERP LTH DESC
 FTOP.          Formation Tops:  FORM TOPS DESC
 SON .        AZ-XX-0905455768:  JOB NUMBER
 WTYP.                Deviated:  WELL TYPE
 COMP.     BP Exploration(Caspian Sea):  COMPANY
 BASE.              Azerbaijan:  LOGGING EQUIPMENT BASE LOCATION
 REGN.                   EESSA:  REGION
 CTRY.              Azerbaijan:  COUNTRY NAME
 FLD .                     ACG:  FIELD NAME
 SRVC.          Turan Drilling:  CONTRACTOR
 WELL.                     B41:  WELL NAME
 RIG .           Central Azeri:  RIG NAME
 DCON.         Sperry Drilling:  DIRECTNL CONTR
 PDAT.          Mean Sea Level:  PERMANENT DATUM
 MDS .        Operator Entered:  MAG DATA SOURCE
 API .                        :  API NUMBER
 CNTY.                        :  COUNTY
 PROV.                        :  PROVINCE
 STAT.                        :  STATE
 UWI .                        :  UNIQUE WELL IDENTIFIER
 LOC .                        :  LOCATION
 LMF .             Drill Floor:  LOG MEASURED FROM
 TVDS.m                  43.29:  TVDSS CORRECTN
 LATI.deg                40.03:  LATITUDE
 LONG.deg                51.35:  LONGITUDE
 WHNS.m                  12.98:  WELL HEAD N/S
 WHEW.m                  -6.62:  WELL HEAD E/W
 UTMX.m              530128.28:  UTM X
 UTMY.m             4433192.49:  UTM Y
 DFWL.m                   0.00:  DISTANCE FWL
 DFSL.m                   0.00:  DISTANCE FSL
 SDEP.m                 378.00:  START DEPTH
 TDD .m                4463.01:  TOTAL DEPTH (DRILLER)
 VSDR.deg               296.18:  VERT SEC DIRECT
 GVFD.g                   1.00:  GRAVITY FIELD
 MFLD.nT              50269.00:  MAGNETIC FIELD
 MDIP.deg                59.50:  MAGNETIC DIP
 MDEC.deg                 6.44:  MAGNETIC DECL
 GRDC.deg                 0.20:  GRID CORRECTION
 AZTC.deg                 6.24:  AZM TOTAL CORR
 EPD .m                   0.00:  ELEVATION
 EGL .m                   0.00:  GROUND ELEVATION
 WDMS.m                 128.20:  WD ELEV
 APD .m                  43.29:  DEPTH ABOVE PD
 AGAP.m                  43.29:  AIR GAP
 VSEW.m                  -6.62:  VERT SEC E/W
 VSNS.m                  12.98:  VERT SEC N/S
 EKB .m                  43.29:  KB ELEVATION
 EDF .m                  43.29:  DF ELEVATION
 TDL .m                 147.00:  TOTAL DEPTH (LOGGER)
 VSC .                       0:  VS TO CLOSURE
 MAGU.                 1849241:  MAGUTM CHECKSUM
~Parameter Information Block
#MNEM.UNIT       Value        Description
#---------     -----------    ---------------------------
 AV  .mps                 0.70:  Ann Velocity 
 AZIF.deg               269.43:  Azm, Final 
 BHAT.        Rotary Steerable:  BHA Type 
 BROT.°/30m              -0.03:  Build Rotating 
 BS  .in                  8.50:  Bit Size 
 BSZ .in                  8.50:  Bit Size 
 BTPL.psig              880.00:  Bit Press Loss 
 CABU.                      No:  Customer Abuse 
 CGEO.          Parviz Guliyev:  Customer Geo 
 COMM.                     í_:  Run Comments 1 
 TCS .hr                 64.59:  Time Ciculation Ended 
 CV  .mps                 2.17:  Crit Velocity 
 DD1 .            Nonso Okafor:  Direct Drillr 1 
 DDSV.               Geo-Pilot:  DD Service 
 DEFF.%                  98.00:  % Det Eff 
 DLRX.°/30m               0.81:  Dogleg Rot Max 
 DLSO.°/30m               0.55:  Dogleg Oriented 
 DLSX.°/30m               0.81:  Dogleg Str Max 
 DRET.      23.50.00 24-Aug-20:  Drill End Time 
 DRST.      07.34.24 22-Aug-20:  Drill Start Tim 
 DTIM.hr                 15.29:  Time Drilling 
 EDEP.m                4461.01:  End Depth 
 ENG1.       Zam Abdullah Sani:  Engineer 1 
 ENG2.         Dair Mahammadov:  Engineer 2 
 ENG3.          Rustam Gadirov:  Engineer 3 
 ETIM.      07.34.24 26-Aug-20:  End Time 
 FLOI.gpm               550.00:  Flow In 
 FLON.gpm               400.00:  Flow In Min 
 FLOS.cptm                1.00:  Fluid Loss 
 FLOX.gpm               600.00:  Flow In Max 
 FTRO.       Formation Presure:  FTWD Run Obj 
 HFLO.                      No:  High Flow 
 HPRE.                      No:  High Pressure 
 HTEM.                      No:  High Temp 
 HYDO.m                   1.80:  Hydro Offset 
 IFIN.deg                66.72:  Inc, Final 
 IMAX.deg                67.42:  Inc Max 
 IMIN.deg                66.72:  Inc Min 
 IMND.m                4408.37:  Inc Min Depth 
 IMXD.m                4323.37:  Inc Max Depth 
 JARR.                      No:  Jarring 
 LETM.      23.50.00 24-Aug-20:  Log End Time 
 LOST.hr                     0:  Lost Rig Time 
 LSTM.      07.34.24 22-Aug-20:  Log Start Time 
 MDCL.ppm             38000.00:  Mud Chlorides 
 MDES.     Inversion Oil/Synthetic:  Mud Desc 
 DFD .sg                  1.40:  Mud Density 
 MDMN.sg                  1.38:  Dens Mud Min 
 MDMX.sg                  1.41:  Dens Mud Max 
 MOIL.                    70.5:  Run Mud Oil % 
 MOWR.                   68:32:  Run Mud OWR 
 MSND.                    0.01:  Run Mud Sand % 
 MSOL.                   17.68:  Run Mud Solids% 
 DFV .spqt               77.00:  Mud Viscosity 
 MWOD.in                  6.75:  MWD Tool OD 
 MWSI.                      No:  Serv Intrp, MWD 
 OTIM.hr                159.42:  Time Operating 
 PCON.           Look Like New:  Pad Condition 
 PMAX.psia             8730.94:  Press Op, Max 
 PV  .cP                 31.00:  Mud PV 
 RUN .                     900:  Run Number 
 ROPA.m/hr               12.00:  ROP Avg 
 ROPN.m/hr                7.00:  ROP Min 
 ROPX.m/hr               17.00:  ROP Max 
 RPMA.rpm               120.00:  RPM Surface Avg 
 RPMN.rpm                60.00:  RPM Surface Min 
 RPMX.rpm               140.00:  RPM Surface Max 
 RRUN.                    L604:  Rig Run Number 
 RTIM.hr                 10.00:  Time Reaming 
 SAZI.deg               270.56:  Azm, Start 
 SDEP.m                4314.01:  Start Depth 
 SIDD.                      No:  Serv Intrp, DD 
 SINC.deg                67.42:  Inc, Start 
 SPPA.psig             3300.00:  SPP Avg 
 SPPN.psig             1750.00:  SPP Min 
 SPPX.psig             4630.00:  SPP Max 
 STIM.      11.00.00 21-Aug-20:  Start Time 
 SVCS.                 DD, MWD:  Services 
 SVER.                    9.20:  Sperry Version 
 TDAT.m                4461.01:  Tot Depth Attmp 
 TDDF.                      No:  Trip for DD 
 TDLG.m                 147.00:  Tot Depth Loggd 
 TFF .                      No:  Trip for Fail 
 TQAA.f-kp               16.00:  Torque Abs Avg 
 TQAN.f-kp               14.00:  Torque Abs Min 
 TQAX.f-kp               20.00:  Torque Abs Max 
 TRRT.°/30m              -0.14:  Turn Rotating 
 MRT .                    HCIM:  Maximum Recorded Temperature 
 TTMX.degC               78.00:  Max Tool Temp 
 VS01.                90515425:  Virtual Str1 SN 
 VS02.                90545184:  Virtual Str2 SN 
 VS03.                90527809:  Virtual Str3 SN 
 VS04.                90515232:  Virtual Str4 SN 
 VS05.                90621207:  Virtual Str5 SN 
 VS06.                90619737:  Virtual Str6 SN 
 WBMN.klb                 2.00:  WOB Min 
 WITN.          Keith Dischler:  Customer Rep 
 WITN.           Faig Mammadov:  Customer Rep 2 
 WOBA.klb                 5.00:  WOB Avg 
 WOBX.klb                 8.00:  WOB Max 
 YP  .lhf2               32.00:  Yield Point 
~Curve Information Block
#MNEM.UNIT                 API CODE     Curve Description
#---------               -----------    ---------------------------
 TIME.HHMMSS            00 000 000 000:  GT Time & Date
 GTET.sec               00 000 000 000:  GT Elapsed Test Time
 GTPQH.psia             00 000 000 000:  GT HR Quartz Pressure
 GTDEPTH.m              00 000 000 000:  GT Depth
 GTTVD.m                00 000 000 000:  GT True Vertical Depth
 GTTQ.degC              00 000 000 000:  GT Quartz Temperature
 GTTN.NONE              00 000 000 000:  GT Test Number
#Other Information
#
#WARRANTY: Halliburton will use its best efforts to furnish customers with 
#accurate information and interpretations that are part of, and incident to, the services 
#provided.  However, Halliburton cannot and does not warrant the accuracy 
#or correctness of such information and interpretations.  Under no circumstances should any 
#such information or interpretation be relied upon as the sole basis for any drilling, 
#completion, production, or financial decision or any procedure involving any risk to the 
#safety of any drilling venture, drilling rig or its crew or any other third party.  The 
#Customer has full responsibility for all drilling, completion and production operation.  
#Halliburton makes no representations or warranties, either expressed or 
#implied, including, but not limited to, the implied warranties of merchantability or fitness 
#for a particular purpose, with respect to the services rendered.  In no event will 
#Halliburton be liable for failure to obtain any particular results or for 
#any damages, including, but not limited to, indirect, special or consequential damages, 
#resulting from the use of any information or interpretation provided by Halliburton.
#
~A           TIME            GTET   GTPQH  GTDEPTH  GTTVD  GTTQ  GTTN 
# ...
   07:47:17.000.25-Aug-2020 138.00  387.74 4371.01 2065.33 72.48 4.00
   07:47:17.200.25-Aug-2020 138.20  387.74 4371.01 2065.33 72.48 4.00
   07:47:17.400.25-Aug-2020 138.40  391.32 4371.01 2065.33 72.48 4.00
   07:47:17.600.25-Aug-2020 138.60  392.91 4371.01 2065.33 72.48 4.00
   07:47:17.800.25-Aug-2020 138.80  395.28 4371.01 2065.33 72.48 4.00
   07:47:18.000.25-Aug-2020 139.00  397.68 4371.01 2065.33 72.48 4.00
   07:47:18.200.25-Aug-2020 139.20  399.49 4371.01 2065.33 72.48 4.00
   07:47:18.400.25-Aug-2020 139.40  400.86 4371.01 2065.33 72.48 4.00
   07:47:18.600.25-Aug-2020 139.60  402.02 4371.01 2065.33 72.48 4.00
   07:47:18.800.25-Aug-2020 139.80  403.29 4371.01 2065.33 72.48 4.00
   07:47:19.000.25-Aug-2020 140.00  404.57 4371.01 2065.33 72.48 4.00
   07:47:19.200.25-Aug-2020 140.20  406.04 4371.01 2065.33 72.48 4.00
   07:47:19.400.25-Aug-2020 140.40  407.81 4371.01 2065.33 72.48 4.00
   07:47:19.600.25-Aug-2020 140.60  410.30 4371.01 2065.33 72.48 4.00
   07:47:19.800.25-Aug-2020 140.80  414.62 4371.01 2065.33 72.48 4.00
   07:47:20.000.25-Aug-2020 141.00  418.65 4371.01 2065.33 72.48 4.00
   07:47:20.200.25-Aug-2020 141.20  418.65 4371.01 2065.33 72.48 4.00
   07:47:20.400.25-Aug-2020 141.40  425.90 4371.01 2065.33 72.48 4.00
   07:47:20.600.25-Aug-2020 141.60  428.92 4371.01 2065.33 72.48 4.00
   07:47:20.800.25-Aug-2020 141.80  432.82 4371.01 2065.33 72.48 4.00
   07:47:21.000.25-Aug-2020 142.00  436.22 4371.01 2065.33 72.48 4.00
   07:47:21.200.25-Aug-2020 142.20  436.22 4371.01 2065.33 72.48 4.00
   07:47:21.400.25-Aug-2020 142.40  442.10 4371.01 2065.33 72.48 4.00
   07:47:21.600.25-Aug-2020 142.60  444.79 4371.01 2065.33 72.48 4.00
   07:47:21.800.25-Aug-2020 142.80  446.86 4371.01 2065.33 72.48 4.00
   07:47:22.000.25-Aug-2020 143.00  449.05 4371.01 2065.33 72.48 4.00
   07:47:22.200.25-Aug-2020 143.20  451.02 4371.01 2065.33 72.48 4.00
   07:47:22.400.25-Aug-2020 143.40  454.02 4371.01 2065.33 72.48 4.00
   07:47:22.600.25-Aug-2020 143.60  456.33 4371.01 2065.33 72.48 4.00
   07:47:22.800.25-Aug-2020 143.80  459.26 4371.01 2065.33 72.48 4.00
   07:47:23.000.25-Aug-2020 144.00  461.81 4371.01 2065.33 72.48 4.00
   07:47:23.200.25-Aug-2020 144.20  464.09 4371.01 2065.33 72.48 4.00
   07:47:23.400.25-Aug-2020 144.40  466.52 4371.01 2065.33 72.48 4.00
   07:47:23.600.25-Aug-2020 144.60  468.86 4371.01 2065.33 72.48 4.00
   07:47:23.800.25-Aug-2020 144.80  471.00 4371.01 2065.33 72.48 4.00
   07:47:24.000.25-Aug-2020 145.00  473.73 4371.01 2065.33 72.48 4.00
   07:47:24.200.25-Aug-2020 145.20  473.73 4371.01 2065.33 72.48 4.00
   07:47:24.400.25-Aug-2020 145.40  478.42 4371.01 2065.33 72.48 4.00
   07:47:24.600.25-Aug-2020 145.60  481.36 4371.01 2065.33 72.48 4.00
   07:47:24.800.25-Aug-2020 145.80  483.79 4371.01 2065.33 72.48 4.00
   07:47:25.000.25-Aug-2020 146.00  486.85 4371.01 2065.33 72.48 4.00
   07:47:25.200.25-Aug-2020 146.20  486.85 4371.01 2065.33 72.48 4.00
   07:47:25.400.25-Aug-2020 146.40  493.57 4371.01 2065.33 72.48 4.00
   07:47:25.600.25-Aug-2020 146.60  495.93 4371.01 2065.33 72.48 4.00
   07:47:25.800.25-Aug-2020 146.80  495.78 4371.01 2065.33 72.48 4.00
   07:47:26.000.25-Aug-2020 147.00  448.14 4371.01 2065.33 72.48 4.00
   07:47:26.200.25-Aug-2020 147.20  387.88 4371.01 2065.33 72.48 4.00
   07:47:26.400.25-Aug-2020 147.40  341.65 4371.01 2065.33 72.48 4.00
   07:47:26.600.25-Aug-2020 147.60  307.68 4371.01 2065.33 72.48 4.00
   07:47:26.800.25-Aug-2020 147.80  280.36 4371.01 2065.33 72.48 4.00
   07:47:27.000.25-Aug-2020 148.00  257.38 4371.01 2065.33 72.48 4.00
   07:47:27.200.25-Aug-2020 148.20  237.89 4371.01 2065.33 72.48 4.00
   07:47:27.400.25-Aug-2020 148.40  221.67 4371.01 2065.33 72.48 4.00
   07:47:27.600.25-Aug-2020 148.60  207.68 4371.01 2065.33 72.48 4.00
   07:47:27.800.25-Aug-2020 148.80  195.27 4371.01 2065.33 72.48 4.00
   07:47:28.000.25-Aug-2020 149.00  184.50 4371.01 2065.33 72.48 4.00
   07:47:28.200.25-Aug-2020 149.20  184.50 4371.01 2065.33 72.48 4.00
   07:47:28.400.25-Aug-2020 149.40  166.40 4371.01 2065.33 72.48 4.00
   07:47:28.600.25-Aug-2020 149.60  158.47 4371.01 2065.33 72.48 4.00
   07:47:28.800.25-Aug-2020 149.80  151.42 4371.01 2065.33 72.48 4.00
   07:47:29.000.25-Aug-2020 150.00  145.22 4371.01 2065.33 72.48 4.00
   07:47:29.200.25-Aug-2020 150.20  145.22 4371.01 2065.33 72.48 4.00
   07:47:29.400.25-Aug-2020 150.40  134.40 4371.01 2065.33 72.48 4.00
   07:47:29.600.25-Aug-2020 150.60  129.55 4371.01 2065.33 72.48 4.00
   07:47:29.800.25-Aug-2020 150.80  125.04 4371.01 2065.33 72.48 4.00
   07:47:30.000.25-Aug-2020 151.00  120.85 4371.01 2065.33 72.48 4.00
   07:47:30.200.25-Aug-2020 151.20  116.96 4371.01 2065.33 72.48 4.00
   07:47:30.400.25-Aug-2020 151.40  113.37 4371.01 2065.33 72.48 4.00
   07:47:30.600.25-Aug-2020 151.60  110.14 4371.01 2065.33 72.48 4.00
   07:47:30.800.25-Aug-2020 151.80  107.36 4371.01 2065.33 72.48 4.00
   07:47:31.000.25-Aug-2020 152.00  104.64 4371.01 2065.33 72.48 4.00
   07:47:31.200.25-Aug-2020 152.20  102.72 4371.01 2065.33 72.48 4.00
   07:47:31.400.25-Aug-2020 152.40  101.18 4371.01 2065.33 72.48 4.00
   07:47:31.600.25-Aug-2020 152.60   99.38 4371.01 2065.33 72.48 4.00
   07:47:31.800.25-Aug-2020 152.80   97.73 4371.01 2065.33 72.48 4.00
   07:47:32.000.25-Aug-2020 153.00   96.11 4371.01 2065.33 72.48 4.00
   07:47:32.200.25-Aug-2020 153.20   96.11 4371.01 2065.33 72.48 4.00
   07:47:32.400.25-Aug-2020 153.40   93.19 4371.01 2065.33 72.48 4.00
   07:47:32.600.25-Aug-2020 153.60   91.68 4371.01 2065.33 72.48 4.00
   07:47:32.800.25-Aug-2020 153.80   90.25 4371.01 2065.33 72.47 4.00
   07:47:33.000.25-Aug-2020 154.00   88.99 4371.01 2065.33 72.47 4.00
   07:47:33.200.25-Aug-2020 154.20   88.99 4371.01 2065.33 72.47 4.00
   07:47:33.400.25-Aug-2020 154.40   86.56 4371.01 2065.33 72.47 4.00
   07:47:33.600.25-Aug-2020 154.60   85.35 4371.01 2065.33 72.47 4.00
   07:47:33.800.25-Aug-2020 154.80   84.12 4371.01 2065.33 72.47 4.00
   07:47:34.000.25-Aug-2020 155.00   82.93 4371.01 2065.33 72.47 4.00
   07:47:34.200.25-Aug-2020 155.20   81.78 4371.01 2065.33 72.47 4.00
   07:47:34.400.25-Aug-2020 155.40   80.64 4371.01 2065.33 72.47 4.00
   07:47:34.600.25-Aug-2020 155.60   79.57 4371.01 2065.33 72.47 4.00
   07:47:34.800.25-Aug-2020 155.80   78.54 4371.01 2065.33 72.47 4.00
   07:47:35.000.25-Aug-2020 156.00   77.62 4371.01 2065.33 72.47 4.00
   07:47:35.200.25-Aug-2020 156.20   76.84 4371.01 2065.33 72.47 4.00
   07:47:35.400.25-Aug-2020 156.40   76.11 4371.01 2065.33 72.47 4.00
   07:47:35.600.25-Aug-2020 156.60   75.97 4371.01 2065.33 72.47 4.00
   07:47:35.800.25-Aug-2020 156.80   75.82 4371.01 2065.33 72.47 4.00
   07:47:36.000.25-Aug-2020 157.00   75.54 4371.01 2065.33 72.47 4.00
   07:47:36.200.25-Aug-2020 157.20   75.54 4371.01 2065.33 72.47 4.00
   07:47:36.400.25-Aug-2020 157.40   76.48 4371.01 2065.33 72.47 4.00
   07:47:36.600.25-Aug-2020 157.60   77.14 4371.01 2065.33 72.47 4.00
   07:47:36.800.25-Aug-2020 157.80   77.82 4371.01 2065.33 72.47 4.00
   07:47:37.000.25-Aug-2020 158.00   78.47 4371.01 2065.33 72.47 4.00
   07:47:37.200.25-Aug-2020 158.20   78.47 4371.01 2065.33 72.47 4.00
   07:47:37.400.25-Aug-2020 158.40   79.94 4371.01 2065.33 72.47 4.00
   07:47:37.600.25-Aug-2020 158.60   80.52 4371.01 2065.33 72.47 4.00
   07:47:37.800.25-Aug-2020 158.80   81.03 4371.01 2065.33 72.47 4.00
   07:47:38.000.25-Aug-2020 159.00   81.53 4371.01 2065.33 72.47 4.00
   07:47:38.200.25-Aug-2020 159.20   82.02 4371.01 2065.33 72.47 4.00
   07:47:38.400.25-Aug-2020 159.40   82.54 4371.01 2065.33 72.47 4.00
   07:47:38.600.25-Aug-2020 159.60   83.02 4371.01 2065.33 72.47 4.00
   07:47:38.800.25-Aug-2020 159.80   83.43 4371.01 2065.33 72.47 4.00
   07:47:39.000.25-Aug-2020 160.00   83.88 4371.01 2065.33 72.47 4.00
   07:47:39.200.25-Aug-2020 160.20   84.35 4371.01 2065.33 72.47 4.00
   07:47:39.400.25-Aug-2020 160.40   84.80 4371.01 2065.33 72.47 4.00
   07:47:39.600.25-Aug-2020 160.60   85.24 4371.01 2065.33 72.47 4.00
   07:47:39.800.25-Aug-2020 160.80   85.73 4371.01 2065.33 72.47 4.00
