~Version Information
 VERS.                  2.0:   CWLS log ASCII Standard -VERSION 2.0
 WRAP.                   NO:   One line per depth step
~Well Information Block
#MNEM.UNIT     VALUE/NAME     DESCRIPTION
#---------     -----------    ---------------------------
 STRT.S             07:44:59 25-Aug-20: START TIME 07:44:59 25-Aug-20
 STOP.S             07:51:54 25-Aug-20: STOP TIME  07:51:54 25-Aug-20
 STEP.S                   0.00: STEP TIME
 NULL.                 -999.25: NULL VALUE
 DFWT.                        :  DIST FWL TEXT
 DFST.                        :  DIST FSL TEXT
 DMF .             Drill Floor:  DRILL MEAS FROM
 STIM.      09.59.28 01-Jun-20:  START TIME
 DATE.      05.00.00 28-Aug-20:  END TIME
 SPUD.               01-Jun-20:  SPUD DATE
 NREF.                    Grid:  NORTH REFERENCE
 HPTY.       Minimum Curvature:  HOLE POS TYPE
 DMOD.             Drill Model:  DRILL MOD DESC
 SVYD.                  Survey:  SURVEY DESC
 ILTD.               Lithology:  INTERP LTH DESC
 FTOP.          Formation Tops:  FORM TOPS DESC
 SON .        AZ-XX-0905455768:  JOB NUMBER
 WTYP.                Deviated:  WELL TYPE
 COMP.     BP Exploration(Caspian Sea):  COMPANY
 BASE.              Azerbaijan:  LOGGING EQUIPMENT BASE LOCATION
 REGN.                   EESSA:  REGION
 CTRY.              Azerbaijan:  COUNTRY NAME
 FLD .                     ACG:  FIELD NAME
 SRVC.          Turan Drilling:  CONTRACTOR
 WELL.                     B41:  WELL NAME
 RIG .           Central Azeri:  RIG NAME
 DCON.         Sperry Drilling:  DIRECTNL CONTR
 PDAT.          Mean Sea Level:  PERMANENT DATUM
 MDS .        Operator Entered:  MAG DATA SOURCE
 API .                        :  API NUMBER
 CNTY.                        :  COUNTY
 PROV.                        :  PROVINCE
 STAT.                        :  STATE
 UWI .                        :  UNIQUE WELL IDENTIFIER
 LOC .                        :  LOCATION
 LMF .             Drill Floor:  LOG MEASURED FROM
 TVDS.m                  43.29:  TVDSS CORRECTN
 LATI.deg                40.03:  LATITUDE
 LONG.deg                51.35:  LONGITUDE
 WHNS.m                  12.98:  WELL HEAD N/S
 WHEW.m                  -6.62:  WELL HEAD E/W
 UTMX.m              530128.28:  UTM X
 UTMY.m             4433192.49:  UTM Y
 DFWL.m                   0.00:  DISTANCE FWL
 DFSL.m                   0.00:  DISTANCE FSL
 SDEP.m                 378.00:  START DEPTH
 TDD .m                4463.01:  TOTAL DEPTH (DRILLER)
 VSDR.deg               296.18:  VERT SEC DIRECT
 GVFD.g                   1.00:  GRAVITY FIELD
 MFLD.nT              50269.00:  MAGNETIC FIELD
 MDIP.deg                59.50:  MAGNETIC DIP
 MDEC.deg                 6.44:  MAGNETIC DECL
 GRDC.deg                 0.20:  GRID CORRECTION
 AZTC.deg                 6.24:  AZM TOTAL CORR
 EPD .m                   0.00:  ELEVATION
 EGL .m                   0.00:  GROUND ELEVATION
 WDMS.m                 128.20:  WD ELEV
 APD .m                  43.29:  DEPTH ABOVE PD
 AGAP.m                  43.29:  AIR GAP
 VSEW.m                  -6.62:  VERT SEC E/W
 VSNS.m                  12.98:  VERT SEC N/S
 EKB .m                  43.29:  KB ELEVATION
 EDF .m                  43.29:  DF ELEVATION
 TDL .m                 147.00:  TOTAL DEPTH (LOGGER)
 VSC .                       0:  VS TO CLOSURE
 MAGU.                 1849241:  MAGUTM CHECKSUM
~Parameter Information Block
#MNEM.UNIT       Value        Description
#---------     -----------    ---------------------------
 AV  .mps                 0.70:  Ann Velocity 
 AZIF.deg               269.43:  Azm, Final 
 BHAT.        Rotary Steerable:  BHA Type 
 BROT.°/30m              -0.03:  Build Rotating 
 BS  .in                  8.50:  Bit Size 
 BSZ .in                  8.50:  Bit Size 
 BTPL.psig              880.00:  Bit Press Loss 
 CABU.                      No:  Customer Abuse 
 CGEO.          Parviz Guliyev:  Customer Geo 
 COMM.                     í_:  Run Comments 1 
 TCS .hr                 64.59:  Time Ciculation Ended 
 CV  .mps                 2.17:  Crit Velocity 
 DD1 .            Nonso Okafor:  Direct Drillr 1 
 DDSV.               Geo-Pilot:  DD Service 
 DEFF.%                  98.00:  % Det Eff 
 DLRX.°/30m               0.81:  Dogleg Rot Max 
 DLSO.°/30m               0.55:  Dogleg Oriented 
 DLSX.°/30m               0.81:  Dogleg Str Max 
 DRET.      23.50.00 24-Aug-20:  Drill End Time 
 DRST.      07.34.24 22-Aug-20:  Drill Start Tim 
 DTIM.hr                 15.29:  Time Drilling 
 EDEP.m                4461.01:  End Depth 
 ENG1.       Zam Abdullah Sani:  Engineer 1 
 ENG2.         Dair Mahammadov:  Engineer 2 
 ENG3.          Rustam Gadirov:  Engineer 3 
 ETIM.      07.34.24 26-Aug-20:  End Time 
 FLOI.gpm               550.00:  Flow In 
 FLON.gpm               400.00:  Flow In Min 
 FLOS.cptm                1.00:  Fluid Loss 
 FLOX.gpm               600.00:  Flow In Max 
 FTRO.       Formation Presure:  FTWD Run Obj 
 HFLO.                      No:  High Flow 
 HPRE.                      No:  High Pressure 
 HTEM.                      No:  High Temp 
 HYDO.m                   1.80:  Hydro Offset 
 IFIN.deg                66.72:  Inc, Final 
 IMAX.deg                67.42:  Inc Max 
 IMIN.deg                66.72:  Inc Min 
 IMND.m                4408.37:  Inc Min Depth 
 IMXD.m                4323.37:  Inc Max Depth 
 JARR.                      No:  Jarring 
 LETM.      23.50.00 24-Aug-20:  Log End Time 
 LOST.hr                     0:  Lost Rig Time 
 LSTM.      07.34.24 22-Aug-20:  Log Start Time 
 MDCL.ppm             38000.00:  Mud Chlorides 
 MDES.     Inversion Oil/Synthetic:  Mud Desc 
 DFD .sg                  1.40:  Mud Density 
 MDMN.sg                  1.38:  Dens Mud Min 
 MDMX.sg                  1.41:  Dens Mud Max 
 MOIL.                    70.5:  Run Mud Oil % 
 MOWR.                   68:32:  Run Mud OWR 
 MSND.                    0.01:  Run Mud Sand % 
 MSOL.                   17.68:  Run Mud Solids% 
 DFV .spqt               77.00:  Mud Viscosity 
 MWOD.in                  6.75:  MWD Tool OD 
 MWSI.                      No:  Serv Intrp, MWD 
 OTIM.hr                159.42:  Time Operating 
 PCON.           Look Like New:  Pad Condition 
 PMAX.psia             8730.94:  Press Op, Max 
 PV  .cP                 31.00:  Mud PV 
 RUN .                     900:  Run Number 
 ROPA.m/hr               12.00:  ROP Avg 
 ROPN.m/hr                7.00:  ROP Min 
 ROPX.m/hr               17.00:  ROP Max 
 RPMA.rpm               120.00:  RPM Surface Avg 
 RPMN.rpm                60.00:  RPM Surface Min 
 RPMX.rpm               140.00:  RPM Surface Max 
 RRUN.                    L604:  Rig Run Number 
 RTIM.hr                 10.00:  Time Reaming 
 SAZI.deg               270.56:  Azm, Start 
 SDEP.m                4314.01:  Start Depth 
 SIDD.                      No:  Serv Intrp, DD 
 SINC.deg                67.42:  Inc, Start 
 SPPA.psig             3300.00:  SPP Avg 
 SPPN.psig             1750.00:  SPP Min 
 SPPX.psig             4630.00:  SPP Max 
 STIM.      11.00.00 21-Aug-20:  Start Time 
 SVCS.                 DD, MWD:  Services 
 SVER.                    9.20:  Sperry Version 
 TDAT.m                4461.01:  Tot Depth Attmp 
 TDDF.                      No:  Trip for DD 
 TDLG.m                 147.00:  Tot Depth Loggd 
 TFF .                      No:  Trip for Fail 
 TQAA.f-kp               16.00:  Torque Abs Avg 
 TQAN.f-kp               14.00:  Torque Abs Min 
 TQAX.f-kp               20.00:  Torque Abs Max 
 TRRT.°/30m              -0.14:  Turn Rotating 
 MRT .                    HCIM:  Maximum Recorded Temperature 
 TTMX.degC               78.00:  Max Tool Temp 
 VS01.                90515425:  Virtual Str1 SN 
 VS02.                90545184:  Virtual Str2 SN 
 VS03.                90527809:  Virtual Str3 SN 
 VS04.                90515232:  Virtual Str4 SN 
 VS05.                90621207:  Virtual Str5 SN 
 VS06.                90619737:  Virtual Str6 SN 
 WBMN.klb                 2.00:  WOB Min 
 WITN.          Keith Dischler:  Customer Rep 
 WITN.           Faig Mammadov:  Customer Rep 2 
 WOBA.klb                 5.00:  WOB Avg 
 WOBX.klb                 8.00:  WOB Max 
 YP  .lhf2               32.00:  Yield Point 
~Curve Information Block
#MNEM.UNIT                 API CODE     Curve Description
#---------               -----------    ---------------------------
 TIME.HHMMSS            00 000 000 000:  GT Time & Date
 GTET.sec               00 000 000 000:  GT Elapsed Test Time
 GTPQH.psia             00 000 000 000:  GT HR Quartz Pressure
 GTDEPTH.m              00 000 000 000:  GT Depth
 GTTVD.m                00 000 000 000:  GT True Vertical Depth
 GTTQ.degC              00 000 000 000:  GT Quartz Temperature
 GTTN.NONE              00 000 000 000:  GT Test Number
#Other Information
#
#WARRANTY: Halliburton will use its best efforts to furnish customers with 
#accurate information and interpretations that are part of, and incident to, the services 
#provided.  However, Halliburton cannot and does not warrant the accuracy 
#or correctness of such information and interpretations.  Under no circumstances should any 
#such information or interpretation be relied upon as the sole basis for any drilling, 
#completion, production, or financial decision or any procedure involving any risk to the 
#safety of any drilling venture, drilling rig or its crew or any other third party.  The 
#Customer has full responsibility for all drilling, completion and production operation.  
#Halliburton makes no representations or warranties, either expressed or 
#implied, including, but not limited to, the implied warranties of merchantability or fitness 
#for a particular purpose, with respect to the services rendered.  In no event will 
#Halliburton be liable for failure to obtain any particular results or for 
#any damages, including, but not limited to, indirect, special or consequential damages, 
#resulting from the use of any information or interpretation provided by Halliburton.
#
~A           TIME            GTET   GTPQH  GTDEPTH  GTTVD  GTTQ  GTTN 
# ...
   07:46:54.000.25-Aug-2020 115.00  262.60 4371.01 2065.33 72.47 4.00
   07:46:54.200.25-Aug-2020 115.20  263.32 4371.01 2065.33 72.47 4.00
   07:46:54.400.25-Aug-2020 115.40  263.79 4371.01 2065.33 72.47 4.00
   07:46:54.600.25-Aug-2020 115.60  264.40 4371.01 2065.33 72.47 4.00
   07:46:54.800.25-Aug-2020 115.80  265.08 4371.01 2065.33 72.47 4.00
   07:46:55.000.25-Aug-2020 116.00  265.73 4371.01 2065.33 72.47 4.00
   07:46:55.200.25-Aug-2020 116.20  266.37 4371.01 2065.33 72.47 4.00
   07:46:55.400.25-Aug-2020 116.40  266.95 4371.01 2065.33 72.47 4.00
   07:46:55.600.25-Aug-2020 116.60  267.43 4371.01 2065.33 72.47 4.00
   07:46:55.800.25-Aug-2020 116.80  268.04 4371.01 2065.33 72.47 4.00
   07:46:56.000.25-Aug-2020 117.00  268.83 4371.01 2065.33 72.47 4.00
   07:46:56.200.25-Aug-2020 117.20  269.62 4371.01 2065.33 72.47 4.00
   07:46:56.400.25-Aug-2020 117.40  270.42 4371.01 2065.33 72.47 4.00
   07:46:56.600.25-Aug-2020 117.60  271.42 4371.01 2065.33 72.47 4.00
   07:46:56.800.25-Aug-2020 117.80  272.44 4371.01 2065.33 72.47 4.00
   07:46:57.000.25-Aug-2020 118.00  273.39 4371.01 2065.33 72.47 4.00
   07:46:57.200.25-Aug-2020 118.20  274.45 4371.01 2065.33 72.47 4.00
   07:46:57.400.25-Aug-2020 118.40  275.43 4371.01 2065.33 72.47 4.00
   07:46:57.600.25-Aug-2020 118.60  276.66 4371.01 2065.33 72.47 4.00
   07:46:57.800.25-Aug-2020 118.80  277.60 4371.01 2065.33 72.47 4.00
   07:46:58.000.25-Aug-2020 119.00  278.38 4371.01 2065.33 72.47 4.00
   07:46:58.200.25-Aug-2020 119.20  278.94 4371.01 2065.33 72.47 4.00
   07:46:58.400.25-Aug-2020 119.40  279.37 4371.01 2065.33 72.47 4.00
   07:46:58.600.25-Aug-2020 119.60  279.84 4371.01 2065.33 72.47 4.00
   07:46:58.800.25-Aug-2020 119.80  280.27 4371.01 2065.33 72.47 4.00
   07:46:59.000.25-Aug-2020 120.00  280.78 4371.01 2065.33 72.47 4.00
   07:46:59.200.25-Aug-2020 120.20  281.40 4371.01 2065.33 72.47 4.00
   07:46:59.400.25-Aug-2020 120.40  281.88 4371.01 2065.33 72.47 4.00
   07:46:59.600.25-Aug-2020 120.60  282.37 4371.01 2065.33 72.47 4.00
   07:46:59.800.25-Aug-2020 120.80  283.01 4371.01 2065.33 72.47 4.00
   07:47:00.000.25-Aug-2020 121.00  283.59 4371.01 2065.33 72.47 4.00
   07:47:00.200.25-Aug-2020 121.20  283.59 4371.01 2065.33 72.47 4.00
   07:47:00.400.25-Aug-2020 121.40  287.88 4371.01 2065.33 72.47 4.00
   07:47:00.600.25-Aug-2020 121.60  289.70 4371.01 2065.33 72.47 4.00
   07:47:00.800.25-Aug-2020 121.80  291.68 4371.01 2065.33 72.47 4.00
   07:47:01.000.25-Aug-2020 122.00  293.73 4371.01 2065.33 72.47 4.00
   07:47:01.200.25-Aug-2020 122.20  293.73 4371.01 2065.33 72.47 4.00
   07:47:01.400.25-Aug-2020 122.40  297.56 4371.01 2065.33 72.47 4.00
   07:47:01.600.25-Aug-2020 122.60  298.16 4371.01 2065.33 72.47 4.00
   07:47:01.800.25-Aug-2020 122.80  298.88 4371.01 2065.33 72.47 4.00
   07:47:02.000.25-Aug-2020 123.00  299.65 4371.01 2065.33 72.47 4.00
   07:47:02.200.25-Aug-2020 123.20  300.08 4371.01 2065.33 72.47 4.00
   07:47:02.400.25-Aug-2020 123.40  300.56 4371.01 2065.33 72.47 4.00
   07:47:02.600.25-Aug-2020 123.60  301.47 4371.01 2065.33 72.47 4.00
   07:47:02.800.25-Aug-2020 123.80  302.24 4371.01 2065.33 72.47 4.00
   07:47:03.000.25-Aug-2020 124.00  302.88 4371.01 2065.33 72.47 4.00
   07:47:03.200.25-Aug-2020 124.20  303.41 4371.01 2065.33 72.47 4.00
   07:47:03.400.25-Aug-2020 124.40  303.91 4371.01 2065.33 72.47 4.00
   07:47:03.600.25-Aug-2020 124.60  304.31 4371.01 2065.33 72.47 4.00
   07:47:03.800.25-Aug-2020 124.80  304.90 4371.01 2065.33 72.47 4.00
   07:47:04.000.25-Aug-2020 125.00  305.34 4371.01 2065.33 72.47 4.00
   07:47:04.200.25-Aug-2020 125.20  305.34 4371.01 2065.33 72.47 4.00
   07:47:04.400.25-Aug-2020 125.40  306.12 4371.01 2065.33 72.47 4.00
   07:47:04.600.25-Aug-2020 125.60  306.54 4371.01 2065.33 72.47 4.00
   07:47:04.800.25-Aug-2020 125.80  306.96 4371.01 2065.33 72.47 4.00
   07:47:05.000.25-Aug-2020 126.00  307.39 4371.01 2065.33 72.47 4.00
   07:47:05.200.25-Aug-2020 126.20  307.39 4371.01 2065.33 72.47 4.00
   07:47:05.400.25-Aug-2020 126.40  308.15 4371.01 2065.33 72.47 4.00
   07:47:05.600.25-Aug-2020 126.60  308.81 4371.01 2065.33 72.47 4.00
   07:47:05.800.25-Aug-2020 126.80  309.19 4371.01 2065.33 72.47 4.00
   07:47:06.000.25-Aug-2020 127.00  309.51 4371.01 2065.33 72.47 4.00
   07:47:06.200.25-Aug-2020 127.20  310.26 4371.01 2065.33 72.47 4.00
   07:47:06.400.25-Aug-2020 127.40  310.91 4371.01 2065.33 72.47 4.00
   07:47:06.600.25-Aug-2020 127.60  311.49 4371.01 2065.33 72.47 4.00
   07:47:06.800.25-Aug-2020 127.80  311.92 4371.01 2065.33 72.47 4.00
   07:47:07.000.25-Aug-2020 128.00  312.36 4371.01 2065.33 72.47 4.00
   07:47:07.200.25-Aug-2020 128.20  312.78 4371.01 2065.33 72.47 4.00
   07:47:07.400.25-Aug-2020 128.40  313.15 4371.01 2065.33 72.47 4.00
   07:47:07.600.25-Aug-2020 128.60  313.55 4371.01 2065.33 72.47 4.00
   07:47:07.800.25-Aug-2020 128.80  313.97 4371.01 2065.33 72.47 4.00
   07:47:08.000.25-Aug-2020 129.00  314.38 4371.01 2065.33 72.47 4.00
   07:47:08.200.25-Aug-2020 129.20  314.38 4371.01 2065.33 72.47 4.00
   07:47:08.400.25-Aug-2020 129.40  315.12 4371.01 2065.33 72.47 4.00
   07:47:08.600.25-Aug-2020 129.60  315.49 4371.01 2065.33 72.47 4.00
   07:47:08.800.25-Aug-2020 129.80  315.83 4371.01 2065.33 72.47 4.00
   07:47:09.000.25-Aug-2020 130.00  316.15 4371.01 2065.33 72.47 4.00
   07:47:09.200.25-Aug-2020 130.20  316.15 4371.01 2065.33 72.47 4.00
   07:47:09.400.25-Aug-2020 130.40  317.03 4371.01 2065.33 72.47 4.00
   07:47:09.600.25-Aug-2020 130.60  317.91 4371.01 2065.33 72.47 4.00
   07:47:09.800.25-Aug-2020 130.80  320.17 4371.01 2065.33 72.47 4.00
   07:47:10.000.25-Aug-2020 131.00  321.84 4371.01 2065.33 72.47 4.00
   07:47:10.200.25-Aug-2020 131.20  323.47 4371.01 2065.33 72.47 4.00
   07:47:10.400.25-Aug-2020 131.40  325.05 4371.01 2065.33 72.47 4.00
   07:47:10.600.25-Aug-2020 131.60  326.39 4371.01 2065.33 72.47 4.00
   07:47:10.800.25-Aug-2020 131.80  326.91 4371.01 2065.33 72.47 4.00
   07:47:11.000.25-Aug-2020 132.00  327.25 4371.01 2065.33 72.47 4.00
   07:47:11.200.25-Aug-2020 132.20  327.66 4371.01 2065.33 72.47 4.00
   07:47:11.400.25-Aug-2020 132.40  328.26 4371.01 2065.33 72.47 4.00
   07:47:11.600.25-Aug-2020 132.60  328.91 4371.01 2065.33 72.47 4.00
   07:47:11.800.25-Aug-2020 132.80  330.51 4371.01 2065.33 72.47 4.00
   07:47:12.000.25-Aug-2020 133.00  333.03 4371.01 2065.33 72.47 4.00
   07:47:12.200.25-Aug-2020 133.20  333.03 4371.01 2065.33 72.47 4.00
   07:47:12.400.25-Aug-2020 133.40  337.88 4371.01 2065.33 72.47 4.00
   07:47:12.600.25-Aug-2020 133.60  340.04 4371.01 2065.33 72.48 4.00
   07:47:12.800.25-Aug-2020 133.80  342.10 4371.01 2065.33 72.48 4.00
   07:47:13.000.25-Aug-2020 134.00  344.24 4371.01 2065.33 72.48 4.00
   07:47:13.200.25-Aug-2020 134.20  344.24 4371.01 2065.33 72.48 4.00
   07:47:13.400.25-Aug-2020 134.40  348.12 4371.01 2065.33 72.48 4.00
   07:47:13.600.25-Aug-2020 134.60  349.91 4371.01 2065.33 72.48 4.00
   07:47:13.800.25-Aug-2020 134.80  351.73 4371.01 2065.33 72.48 4.00
   07:47:14.000.25-Aug-2020 135.00  353.50 4371.01 2065.33 72.48 4.00
   07:47:14.200.25-Aug-2020 135.20  355.53 4371.01 2065.33 72.48 4.00
   07:47:14.400.25-Aug-2020 135.40  357.48 4371.01 2065.33 72.48 4.00
   07:47:14.600.25-Aug-2020 135.60  359.38 4371.01 2065.33 72.48 4.00
   07:47:14.800.25-Aug-2020 135.80  361.79 4371.01 2065.33 72.48 4.00
   07:47:15.000.25-Aug-2020 136.00  364.25 4371.01 2065.33 72.48 4.00
   07:47:15.200.25-Aug-2020 136.20  366.70 4371.01 2065.33 72.48 4.00
   07:47:15.400.25-Aug-2020 136.40  369.29 4371.01 2065.33 72.48 4.00
   07:47:15.600.25-Aug-2020 136.60  371.60 4371.01 2065.33 72.48 4.00
   07:47:15.800.25-Aug-2020 136.80  373.65 4371.01 2065.33 72.48 4.00
   07:47:16.000.25-Aug-2020 137.00  375.95 4371.01 2065.33 72.48 4.00
   07:47:16.200.25-Aug-2020 137.20  375.95 4371.01 2065.33 72.48 4.00
   07:47:16.400.25-Aug-2020 137.40  381.57 4371.01 2065.33 72.48 4.00
   07:47:16.600.25-Aug-2020 137.60  383.80 4371.01 2065.33 72.48 4.00
   07:47:16.800.25-Aug-2020 137.80  385.94 4371.01 2065.33 72.48 4.00
