~Version Information
 VERS.                  2.0:   CWLS log ASCII Standard -VERSION 2.0
 WRAP.                   NO:   One line per depth step
~Well Information Block
#MNEM.UNIT     VALUE/NAME     DESCRIPTION
#---------     -----------    ---------------------------
 STRT.S             12:25:10 25-Aug-20: START TIME 12:25:10 25-Aug-20
 STOP.S             12:32:06 25-Aug-20: STOP TIME  12:32:06 25-Aug-20
 STEP.S                   0.00: STEP TIME
 NULL.                 -999.25: NULL VALUE
 DFWT.                        :  DIST FWL TEXT
 DFST.                        :  DIST FSL TEXT
 DMF .             Drill Floor:  DRILL MEAS FROM
 STIM.      09.59.28 01-Jun-20:  START TIME
 DATE.      05.00.00 28-Aug-20:  END TIME
 SPUD.               01-Jun-20:  SPUD DATE
 NREF.                    Grid:  NORTH REFERENCE
 HPTY.       Minimum Curvature:  HOLE POS TYPE
 DMOD.             Drill Model:  DRILL MOD DESC
 SVYD.                  Survey:  SURVEY DESC
 ILTD.               Lithology:  INTERP LTH DESC
 FTOP.          Formation Tops:  FORM TOPS DESC
 SON .        AZ-XX-0905455768:  JOB NUMBER
 WTYP.                Deviated:  WELL TYPE
 COMP.     BP Exploration(Caspian Sea):  COMPANY
 BASE.              Azerbaijan:  LOGGING EQUIPMENT BASE LOCATION
 REGN.                   EESSA:  REGION
 CTRY.              Azerbaijan:  COUNTRY NAME
 FLD .                     ACG:  FIELD NAME
 SRVC.          Turan Drilling:  CONTRACTOR
 WELL.                     B41:  WELL NAME
 RIG .           Central Azeri:  RIG NAME
 DCON.         Sperry Drilling:  DIRECTNL CONTR
 PDAT.          Mean Sea Level:  PERMANENT DATUM
 MDS .        Operator Entered:  MAG DATA SOURCE
 API .                        :  API NUMBER
 CNTY.                        :  COUNTY
 PROV.                        :  PROVINCE
 STAT.                        :  STATE
 UWI .                        :  UNIQUE WELL IDENTIFIER
 LOC .                        :  LOCATION
 LMF .             Drill Floor:  LOG MEASURED FROM
 TVDS.m                  43.29:  TVDSS CORRECTN
 LATI.deg                40.03:  LATITUDE
 LONG.deg                51.35:  LONGITUDE
 WHNS.m                  12.98:  WELL HEAD N/S
 WHEW.m                  -6.62:  WELL HEAD E/W
 UTMX.m              530128.28:  UTM X
 UTMY.m             4433192.49:  UTM Y
 DFWL.m                   0.00:  DISTANCE FWL
 DFSL.m                   0.00:  DISTANCE FSL
 SDEP.m                 378.00:  START DEPTH
 TDD .m                4463.01:  TOTAL DEPTH (DRILLER)
 VSDR.deg               296.18:  VERT SEC DIRECT
 GVFD.g                   1.00:  GRAVITY FIELD
 MFLD.nT              50269.00:  MAGNETIC FIELD
 MDIP.deg                59.50:  MAGNETIC DIP
 MDEC.deg                 6.44:  MAGNETIC DECL
 GRDC.deg                 0.20:  GRID CORRECTION
 AZTC.deg                 6.24:  AZM TOTAL CORR
 EPD .m                   0.00:  ELEVATION
 EGL .m                   0.00:  GROUND ELEVATION
 WDMS.m                 128.20:  WD ELEV
 APD .m                  43.29:  DEPTH ABOVE PD
 AGAP.m                  43.29:  AIR GAP
 VSEW.m                  -6.62:  VERT SEC E/W
 VSNS.m                  12.98:  VERT SEC N/S
 EKB .m                  43.29:  KB ELEVATION
 EDF .m                  43.29:  DF ELEVATION
 TDL .m                 147.00:  TOTAL DEPTH (LOGGER)
 VSC .                       0:  VS TO CLOSURE
 MAGU.                 1849241:  MAGUTM CHECKSUM
~Parameter Information Block
#MNEM.UNIT       Value        Description
#---------     -----------    ---------------------------
 AV  .mps                 0.70:  Ann Velocity 
 AZIF.deg               269.43:  Azm, Final 
 BHAT.        Rotary Steerable:  BHA Type 
 BROT.°/30m              -0.03:  Build Rotating 
 BS  .in                  8.50:  Bit Size 
 BSZ .in                  8.50:  Bit Size 
 BTPL.psig              880.00:  Bit Press Loss 
 CABU.                      No:  Customer Abuse 
 CGEO.          Parviz Guliyev:  Customer Geo 
 COMM.                     >h:  Run Comments 1 
 TCS .hr                 64.59:  Time Ciculation Ended 
 CV  .mps                 2.17:  Crit Velocity 
 DD1 .            Nonso Okafor:  Direct Drillr 1 
 DDSV.               Geo-Pilot:  DD Service 
 DEFF.%                  98.00:  % Det Eff 
 DLRX.°/30m               0.81:  Dogleg Rot Max 
 DLSO.°/30m               0.55:  Dogleg Oriented 
 DLSX.°/30m               0.81:  Dogleg Str Max 
 DRET.      23.50.00 24-Aug-20:  Drill End Time 
 DRST.      07.34.24 22-Aug-20:  Drill Start Tim 
 DTIM.hr                 15.29:  Time Drilling 
 EDEP.m                4461.01:  End Depth 
 ENG1.       Zam Abdullah Sani:  Engineer 1 
 ENG2.         Dair Mahammadov:  Engineer 2 
 ENG3.          Rustam Gadirov:  Engineer 3 
 ETIM.      07.34.24 26-Aug-20:  End Time 
 FLOI.gpm               550.00:  Flow In 
 FLON.gpm               400.00:  Flow In Min 
 FLOS.cptm                1.00:  Fluid Loss 
 FLOX.gpm               600.00:  Flow In Max 
 FTRO.       Formation Presure:  FTWD Run Obj 
 HFLO.                      No:  High Flow 
 HPRE.                      No:  High Pressure 
 HTEM.                      No:  High Temp 
 HYDO.m                   1.80:  Hydro Offset 
 IFIN.deg                66.72:  Inc, Final 
 IMAX.deg                67.42:  Inc Max 
 IMIN.deg                66.72:  Inc Min 
 IMND.m                4408.37:  Inc Min Depth 
 IMXD.m                4323.37:  Inc Max Depth 
 JARR.                      No:  Jarring 
 LETM.      23.50.00 24-Aug-20:  Log End Time 
 LOST.hr                     0:  Lost Rig Time 
 LSTM.      07.34.24 22-Aug-20:  Log Start Time 
 MDCL.ppm             38000.00:  Mud Chlorides 
 MDES.     Inversion Oil/Synthetic:  Mud Desc 
 DFD .sg                  1.40:  Mud Density 
 MDMN.sg                  1.38:  Dens Mud Min 
 MDMX.sg                  1.41:  Dens Mud Max 
 MOIL.                    70.5:  Run Mud Oil % 
 MOWR.                   68:32:  Run Mud OWR 
 MSND.                    0.01:  Run Mud Sand % 
 MSOL.                   17.68:  Run Mud Solids% 
 DFV .spqt               77.00:  Mud Viscosity 
 MWOD.in                  6.75:  MWD Tool OD 
 MWSI.                      No:  Serv Intrp, MWD 
 OTIM.hr                159.42:  Time Operating 
 PCON.           Look Like New:  Pad Condition 
 PMAX.psia             8730.94:  Press Op, Max 
 PV  .cP                 31.00:  Mud PV 
 RUN .                     900:  Run Number 
 ROPA.m/hr               12.00:  ROP Avg 
 ROPN.m/hr                7.00:  ROP Min 
 ROPX.m/hr               17.00:  ROP Max 
 RPMA.rpm               120.00:  RPM Surface Avg 
 RPMN.rpm                60.00:  RPM Surface Min 
 RPMX.rpm               140.00:  RPM Surface Max 
 RRUN.                    L604:  Rig Run Number 
 RTIM.hr                 10.00:  Time Reaming 
 SAZI.deg               270.56:  Azm, Start 
 SDEP.m                4314.01:  Start Depth 
 SIDD.                      No:  Serv Intrp, DD 
 SINC.deg                67.42:  Inc, Start 
 SPPA.psig             3300.00:  SPP Avg 
 SPPN.psig             1750.00:  SPP Min 
 SPPX.psig             4630.00:  SPP Max 
 STIM.      11.00.00 21-Aug-20:  Start Time 
 SVCS.                 DD, MWD:  Services 
 SVER.                    9.20:  Sperry Version 
 TDAT.m                4461.01:  Tot Depth Attmp 
 TDDF.                      No:  Trip for DD 
 TDLG.m                 147.00:  Tot Depth Loggd 
 TFF .                      No:  Trip for Fail 
 TQAA.f-kp               16.00:  Torque Abs Avg 
 TQAN.f-kp               14.00:  Torque Abs Min 
 TQAX.f-kp               20.00:  Torque Abs Max 
 TRRT.°/30m              -0.14:  Turn Rotating 
 MRT .                    HCIM:  Maximum Recorded Temperature 
 TTMX.degC               78.00:  Max Tool Temp 
 VS01.                90515425:  Virtual Str1 SN 
 VS02.                90545184:  Virtual Str2 SN 
 VS03.                90527809:  Virtual Str3 SN 
 VS04.                90515232:  Virtual Str4 SN 
 VS05.                90621207:  Virtual Str5 SN 
 VS06.                90619737:  Virtual Str6 SN 
 WBMN.klb                 2.00:  WOB Min 
 WITN.          Keith Dischler:  Customer Rep 
 WITN.           Faig Mammadov:  Customer Rep 2 
 WOBA.klb                 5.00:  WOB Avg 
 WOBX.klb                 8.00:  WOB Max 
 YP  .lhf2               32.00:  Yield Point 
~Curve Information Block
#MNEM.UNIT                 API CODE     Curve Description
#---------               -----------    ---------------------------
 TIME.HHMMSS            00 000 000 000:  GT Time & Date
 GTET.sec               00 000 000 000:  GT Elapsed Test Time
 GTPQH.psia             00 000 000 000:  GT HR Quartz Pressure
 GTDEPTH.m              00 000 000 000:  GT Depth
 GTTVD.m                00 000 000 000:  GT True Vertical Depth
 GTTQ.degC              00 000 000 000:  GT Quartz Temperature
 GTTN.NONE              00 000 000 000:  GT Test Number
#Other Information
#
#WARRANTY: Halliburton will use its best efforts to furnish customers with 
#accurate information and interpretations that are part of, and incident to, the services 
#provided.  However, Halliburton cannot and does not warrant the accuracy 
#or correctness of such information and interpretations.  Under no circumstances should any 
#such information or interpretation be relied upon as the sole basis for any drilling, 
#completion, production, or financial decision or any procedure involving any risk to the 
#safety of any drilling venture, drilling rig or its crew or any other third party.  The 
#Customer has full responsibility for all drilling, completion and production operation.  
#Halliburton makes no representations or warranties, either expressed or 
#implied, including, but not limited to, the implied warranties of merchantability or fitness 
#for a particular purpose, with respect to the services rendered.  In no event will 
#Halliburton be liable for failure to obtain any particular results or for 
#any damages, including, but not limited to, indirect, special or consequential damages, 
#resulting from the use of any information or interpretation provided by Halliburton.
#
~A           TIME            GTET   GTPQH  GTDEPTH  GTTVD  GTTQ  GTTN  
# ...
   12:28:33.400.25-Aug-2020 203.40   25.28 4311.01 2041.94 71.59 12.00
   12:28:33.600.25-Aug-2020 203.60   25.29 4311.01 2041.94 71.59 12.00
   12:28:33.800.25-Aug-2020 203.80   25.31 4311.01 2041.94 71.59 12.00
   12:28:34.000.25-Aug-2020 204.00   25.32 4311.01 2041.94 71.59 12.00
   12:28:34.200.25-Aug-2020 204.20   25.33 4311.01 2041.94 71.59 12.00
   12:28:34.400.25-Aug-2020 204.40   25.29 4311.01 2041.94 71.59 12.00
   12:28:34.600.25-Aug-2020 204.60   25.35 4311.01 2041.94 71.59 12.00
   12:28:34.800.25-Aug-2020 204.80   25.34 4311.01 2041.94 71.59 12.00
   12:28:35.000.25-Aug-2020 205.00   25.35 4311.01 2041.94 71.59 12.00
   12:28:35.200.25-Aug-2020 205.20   25.35 4311.01 2041.94 71.59 12.00
   12:28:35.400.25-Aug-2020 205.40   25.33 4311.01 2041.94 71.59 12.00
   12:28:35.600.25-Aug-2020 205.60   25.38 4311.01 2041.94 71.59 12.00
   12:28:35.800.25-Aug-2020 205.80   25.39 4311.01 2041.94 71.59 12.00
   12:28:36.000.25-Aug-2020 206.00   25.39 4311.01 2041.94 71.59 12.00
   12:28:36.200.25-Aug-2020 206.20   25.40 4311.01 2041.94 71.59 12.00
   12:28:36.400.25-Aug-2020 206.40   25.40 4311.01 2041.94 71.59 12.00
   12:28:36.600.25-Aug-2020 206.60   25.37 4311.01 2041.94 71.59 12.00
   12:28:36.800.25-Aug-2020 206.80   25.43 4311.01 2041.94 71.59 12.00
   12:28:37.000.25-Aug-2020 207.00   25.42 4311.01 2041.94 71.59 12.00
   12:28:37.200.25-Aug-2020 207.20   25.43 4311.01 2041.94 71.59 12.00
   12:28:37.400.25-Aug-2020 207.40   25.44 4311.01 2041.94 71.59 12.00
   12:28:37.600.25-Aug-2020 207.60   25.44 4311.01 2041.94 71.59 12.00
   12:28:37.800.25-Aug-2020 207.80   25.45 4311.01 2041.94 71.59 12.00
   12:28:38.000.25-Aug-2020 208.00   25.46 4311.01 2041.94 71.59 12.00
   12:28:38.200.25-Aug-2020 208.20   25.46 4311.01 2041.94 71.59 12.00
   12:28:38.400.25-Aug-2020 208.40   25.48 4311.01 2041.94 71.59 12.00
   12:28:38.600.25-Aug-2020 208.60   25.48 4311.01 2041.94 71.59 12.00
   12:28:38.800.25-Aug-2020 208.80   25.49 4311.01 2041.94 71.59 12.00
   12:28:39.000.25-Aug-2020 209.00   25.50 4311.01 2041.94 71.59 12.00
   12:28:39.200.25-Aug-2020 209.20   25.49 4311.01 2041.94 71.59 12.00
   12:28:39.400.25-Aug-2020 209.40   25.51 4311.01 2041.94 71.59 12.00
   12:28:39.600.25-Aug-2020 209.60   25.51 4311.01 2041.94 71.59 12.00
   12:28:39.800.25-Aug-2020 209.80   25.52 4311.01 2041.94 71.59 12.00
   12:28:40.000.25-Aug-2020 210.00   25.53 4311.01 2041.94 71.59 12.00
   12:28:40.200.25-Aug-2020 210.20   25.53 4311.01 2041.94 71.59 12.00
   12:28:40.400.25-Aug-2020 210.40   25.55 4311.01 2041.94 71.59 12.00
   12:28:40.600.25-Aug-2020 210.60   25.55 4311.01 2041.94 71.59 12.00
   12:28:40.800.25-Aug-2020 210.80   25.56 4311.01 2041.94 71.59 12.00
   12:28:41.000.25-Aug-2020 211.00   25.56 4311.01 2041.94 71.59 12.00
   12:28:41.200.25-Aug-2020 211.20   25.56 4311.01 2041.94 71.59 12.00
   12:28:41.400.25-Aug-2020 211.40   25.57 4311.01 2041.94 71.59 12.00
   12:28:41.600.25-Aug-2020 211.60   25.58 4311.01 2041.94 71.59 12.00
   12:28:41.800.25-Aug-2020 211.80   25.59 4311.01 2041.94 71.59 12.00
   12:28:42.000.25-Aug-2020 212.00   25.59 4311.01 2041.94 71.59 12.00
   12:28:42.200.25-Aug-2020 212.20   25.60 4311.01 2041.94 71.59 12.00
   12:28:42.400.25-Aug-2020 212.40   25.60 4311.01 2041.94 71.59 12.00
   12:28:42.600.25-Aug-2020 212.60   25.61 4311.01 2041.94 71.59 12.00
   12:28:42.800.25-Aug-2020 212.80   25.62 4311.01 2041.94 71.59 12.00
   12:28:43.000.25-Aug-2020 213.00   25.62 4311.01 2041.94 71.59 12.00
   12:28:43.200.25-Aug-2020 213.20   25.62 4311.01 2041.94 71.59 12.00
   12:28:43.400.25-Aug-2020 213.40   25.59 4311.01 2041.94 71.59 12.00
   12:28:43.600.25-Aug-2020 213.60   25.66 4311.01 2041.94 71.59 12.00
   12:28:43.800.25-Aug-2020 213.80   25.65 4311.01 2041.94 71.59 12.00
   12:28:44.000.25-Aug-2020 214.00   25.66 4311.01 2041.94 71.59 12.00
   12:28:44.200.25-Aug-2020 214.20   25.66 4311.01 2041.94 71.59 12.00
   12:28:44.400.25-Aug-2020 214.40   25.67 4311.01 2041.94 71.59 12.00
   12:28:44.600.25-Aug-2020 214.60   25.64 4311.01 2041.94 71.59 12.00
   12:28:44.800.25-Aug-2020 214.80   25.70 4311.01 2041.94 71.59 12.00
   12:28:45.000.25-Aug-2020 215.00   25.69 4311.01 2041.94 71.59 12.00
   12:28:45.200.25-Aug-2020 215.20   25.69 4311.01 2041.94 71.59 12.00
   12:28:45.400.25-Aug-2020 215.40   25.69 4311.01 2041.94 71.59 12.00
   12:28:45.600.25-Aug-2020 215.60   25.70 4311.01 2041.94 71.59 12.00
   12:28:45.800.25-Aug-2020 215.80   25.71 4311.01 2041.94 71.59 12.00
   12:28:46.000.25-Aug-2020 216.00   25.71 4311.01 2041.94 71.59 12.00
   12:28:46.200.25-Aug-2020 216.20   25.72 4311.01 2041.94 71.59 12.00
   12:28:46.400.25-Aug-2020 216.40   25.74 4311.01 2041.94 71.59 12.00
   12:28:46.600.25-Aug-2020 216.60   25.71 4311.01 2041.94 71.59 12.00
   12:28:46.800.25-Aug-2020 216.80   25.74 4311.01 2041.94 71.59 12.00
   12:28:47.000.25-Aug-2020 217.00   25.75 4311.01 2041.94 71.59 12.00
   12:28:47.200.25-Aug-2020 217.20   25.76 4311.01 2041.94 71.59 12.00
   12:28:47.400.25-Aug-2020 217.40   25.76 4311.01 2041.94 71.59 12.00
   12:28:47.600.25-Aug-2020 217.60   25.77 4311.01 2041.94 71.59 12.00
   12:28:47.800.25-Aug-2020 217.80   25.76 4311.01 2041.94 71.59 12.00
   12:28:48.000.25-Aug-2020 218.00   25.78 4311.01 2041.94 71.59 12.00
   12:28:48.200.25-Aug-2020 218.20   25.78 4311.01 2041.94 71.59 12.00
   12:28:48.400.25-Aug-2020 218.40   25.79 4311.01 2041.94 71.59 12.00
   12:28:48.600.25-Aug-2020 218.60   25.80 4311.01 2041.94 71.59 12.00
   12:28:48.800.25-Aug-2020 218.80   25.80 4311.01 2041.94 71.59 12.00
   12:28:49.000.25-Aug-2020 219.00   25.82 4311.01 2041.94 71.59 12.00
   12:28:49.200.25-Aug-2020 219.20   25.82 4311.01 2041.94 71.59 12.00
   12:28:49.400.25-Aug-2020 219.40   25.82 4311.01 2041.94 71.59 12.00
   12:28:49.600.25-Aug-2020 219.60   25.83 4311.01 2041.94 71.59 12.00
   12:28:49.800.25-Aug-2020 219.80   25.84 4311.01 2041.94 71.59 12.00
   12:28:50.000.25-Aug-2020 220.00   25.85 4311.01 2041.94 71.59 12.00
   12:28:50.200.25-Aug-2020 220.20   25.85 4311.01 2041.94 71.59 12.00
   12:28:50.400.25-Aug-2020 220.40   25.86 4311.01 2041.94 71.59 12.00
   12:28:50.600.25-Aug-2020 220.60   25.86 4311.01 2041.94 71.59 12.00
   12:28:50.800.25-Aug-2020 220.80   25.86 4311.01 2041.94 71.59 12.00
   12:28:51.000.25-Aug-2020 221.00   25.88 4311.01 2041.94 71.59 12.00
   12:28:51.200.25-Aug-2020 221.20   25.88 4311.01 2041.94 71.59 12.00
   12:28:51.400.25-Aug-2020 221.40   25.87 4311.01 2041.94 71.59 12.00
   12:28:51.600.25-Aug-2020 221.60   25.88 4311.01 2041.94 71.60 12.00
   12:28:51.800.25-Aug-2020 221.80   25.89 4311.01 2041.94 71.60 12.00
   12:28:52.000.25-Aug-2020 222.00   25.90 4311.01 2041.94 71.60 12.00
   12:28:52.200.25-Aug-2020 222.20   25.90 4311.01 2041.94 71.60 12.00
   12:28:52.400.25-Aug-2020 222.40   25.91 4311.01 2041.94 71.60 12.00
   12:28:52.600.25-Aug-2020 222.60   25.92 4311.01 2041.94 71.60 12.00
   12:28:52.800.25-Aug-2020 222.80   25.93 4311.01 2041.94 71.60 12.00
   12:28:53.000.25-Aug-2020 223.00   25.94 4311.01 2041.94 71.60 12.00
   12:28:53.200.25-Aug-2020 223.20   25.94 4311.01 2041.94 71.60 12.00
   12:28:53.400.25-Aug-2020 223.40   25.94 4311.01 2041.94 71.60 12.00
   12:28:53.600.25-Aug-2020 223.60   25.95 4311.01 2041.94 71.60 12.00
   12:28:53.800.25-Aug-2020 223.80   25.96 4311.01 2041.94 71.60 12.00
   12:28:54.000.25-Aug-2020 224.00   25.97 4311.01 2041.94 71.60 12.00
   12:28:54.200.25-Aug-2020 224.20   25.97 4311.01 2041.94 71.60 12.00
   12:28:54.400.25-Aug-2020 224.40   25.98 4311.01 2041.94 71.60 12.00
   12:28:54.600.25-Aug-2020 224.60   25.97 4311.01 2041.94 71.60 12.00
   12:28:54.800.25-Aug-2020 224.80   25.97 4311.01 2041.94 71.60 12.00
   12:28:55.000.25-Aug-2020 225.00   25.99 4311.01 2041.94 71.60 12.00
   12:28:55.200.25-Aug-2020 225.20   25.99 4311.01 2041.94 71.60 12.00
   12:28:55.400.25-Aug-2020 225.40   26.00 4311.01 2041.94 71.60 12.00
   12:28:55.600.25-Aug-2020 225.60   26.01 4311.01 2041.94 71.60 12.00
   12:28:55.800.25-Aug-2020 225.80   25.97 4311.01 2041.94 71.60 12.00
