~Version Information
 VERS.                  2.0:   CWLS log ASCII Standard -VERSION 2.0
 WRAP.                   NO:   One line per depth step
~Well Information Block
#MNEM.UNIT     VALUE/NAME     DESCRIPTION
#---------     -----------    ---------------------------
 STRT.S             10:29:38 25-Aug-20: START TIME 10:29:38 25-Aug-20
 STOP.S             10:36:37 25-Aug-20: STOP TIME  10:36:37 25-Aug-20
 STEP.S                   0.00: STEP TIME
 NULL.                 -999.25: NULL VALUE
 DFWT.                        :  DIST FWL TEXT
 DFST.                        :  DIST FSL TEXT
 DMF .             Drill Floor:  DRILL MEAS FROM
 STIM.      09.59.28 01-Jun-20:  START TIME
 DATE.      05.00.00 28-Aug-20:  END TIME
 SPUD.               01-Jun-20:  SPUD DATE
 NREF.                    Grid:  NORTH REFERENCE
 HPTY.       Minimum Curvature:  HOLE POS TYPE
 DMOD.             Drill Model:  DRILL MOD DESC
 SVYD.                  Survey:  SURVEY DESC
 ILTD.               Lithology:  INTERP LTH DESC
 FTOP.          Formation Tops:  FORM TOPS DESC
 SON .        AZ-XX-0905455768:  JOB NUMBER
 WTYP.                Deviated:  WELL TYPE
 COMP.     BP Exploration(Caspian Sea):  COMPANY
 BASE.              Azerbaijan:  LOGGING EQUIPMENT BASE LOCATION
 REGN.                   EESSA:  REGION
 CTRY.              Azerbaijan:  COUNTRY NAME
 FLD .                     ACG:  FIELD NAME
 SRVC.          Turan Drilling:  CONTRACTOR
 WELL.                     B41:  WELL NAME
 RIG .           Central Azeri:  RIG NAME
 DCON.         Sperry Drilling:  DIRECTNL CONTR
 PDAT.          Mean Sea Level:  PERMANENT DATUM
 MDS .        Operator Entered:  MAG DATA SOURCE
 API .                        :  API NUMBER
 CNTY.                        :  COUNTY
 PROV.                        :  PROVINCE
 STAT.                        :  STATE
 UWI .                        :  UNIQUE WELL IDENTIFIER
 LOC .                        :  LOCATION
 LMF .             Drill Floor:  LOG MEASURED FROM
 TVDS.m                  43.29:  TVDSS CORRECTN
 LATI.deg                40.03:  LATITUDE
 LONG.deg                51.35:  LONGITUDE
 WHNS.m                  12.98:  WELL HEAD N/S
 WHEW.m                  -6.62:  WELL HEAD E/W
 UTMX.m              530128.28:  UTM X
 UTMY.m             4433192.49:  UTM Y
 DFWL.m                   0.00:  DISTANCE FWL
 DFSL.m                   0.00:  DISTANCE FSL
 SDEP.m                 378.00:  START DEPTH
 TDD .m                4463.01:  TOTAL DEPTH (DRILLER)
 VSDR.deg               296.18:  VERT SEC DIRECT
 GVFD.g                   1.00:  GRAVITY FIELD
 MFLD.nT              50269.00:  MAGNETIC FIELD
 MDIP.deg                59.50:  MAGNETIC DIP
 MDEC.deg                 6.44:  MAGNETIC DECL
 GRDC.deg                 0.20:  GRID CORRECTION
 AZTC.deg                 6.24:  AZM TOTAL CORR
 EPD .m                   0.00:  ELEVATION
 EGL .m                   0.00:  GROUND ELEVATION
 WDMS.m                 128.20:  WD ELEV
 APD .m                  43.29:  DEPTH ABOVE PD
 AGAP.m                  43.29:  AIR GAP
 VSEW.m                  -6.62:  VERT SEC E/W
 VSNS.m                  12.98:  VERT SEC N/S
 EKB .m                  43.29:  KB ELEVATION
 EDF .m                  43.29:  DF ELEVATION
 TDL .m                 147.00:  TOTAL DEPTH (LOGGER)
 VSC .                       0:  VS TO CLOSURE
 MAGU.                 1849241:  MAGUTM CHECKSUM
~Parameter Information Block
#MNEM.UNIT       Value        Description
#---------     -----------    ---------------------------
 AV  .mps                 0.70:  Ann Velocity 
 AZIF.deg               269.43:  Azm, Final 
 BHAT.        Rotary Steerable:  BHA Type 
 BROT.°/30m              -0.03:  Build Rotating 
 BS  .in                  8.50:  Bit Size 
 BSZ .in                  8.50:  Bit Size 
 BTPL.psig              880.00:  Bit Press Loss 
 CABU.                      No:  Customer Abuse 
 CGEO.          Parviz Guliyev:  Customer Geo 
 COMM.                     ¼+`:  Run Comments 1 
 TCS .hr                 64.59:  Time Ciculation Ended 
 CV  .mps                 2.17:  Crit Velocity 
 DD1 .            Nonso Okafor:  Direct Drillr 1 
 DDSV.               Geo-Pilot:  DD Service 
 DEFF.%                  98.00:  % Det Eff 
 DLRX.°/30m               0.81:  Dogleg Rot Max 
 DLSO.°/30m               0.55:  Dogleg Oriented 
 DLSX.°/30m               0.81:  Dogleg Str Max 
 DRET.      23.50.00 24-Aug-20:  Drill End Time 
 DRST.      07.34.24 22-Aug-20:  Drill Start Tim 
 DTIM.hr                 15.29:  Time Drilling 
 EDEP.m                4461.01:  End Depth 
 ENG1.       Zam Abdullah Sani:  Engineer 1 
 ENG2.         Dair Mahammadov:  Engineer 2 
 ENG3.          Rustam Gadirov:  Engineer 3 
 ETIM.      07.34.24 26-Aug-20:  End Time 
 FLOI.gpm               550.00:  Flow In 
 FLON.gpm               400.00:  Flow In Min 
 FLOS.cptm                1.00:  Fluid Loss 
 FLOX.gpm               600.00:  Flow In Max 
 FTRO.       Formation Presure:  FTWD Run Obj 
 HFLO.                      No:  High Flow 
 HPRE.                      No:  High Pressure 
 HTEM.                      No:  High Temp 
 HYDO.m                   1.80:  Hydro Offset 
 IFIN.deg                66.72:  Inc, Final 
 IMAX.deg                67.42:  Inc Max 
 IMIN.deg                66.72:  Inc Min 
 IMND.m                4408.37:  Inc Min Depth 
 IMXD.m                4323.37:  Inc Max Depth 
 JARR.                      No:  Jarring 
 LETM.      23.50.00 24-Aug-20:  Log End Time 
 LOST.hr                     0:  Lost Rig Time 
 LSTM.      07.34.24 22-Aug-20:  Log Start Time 
 MDCL.ppm             38000.00:  Mud Chlorides 
 MDES.     Inversion Oil/Synthetic:  Mud Desc 
 DFD .sg                  1.40:  Mud Density 
 MDMN.sg                  1.38:  Dens Mud Min 
 MDMX.sg                  1.41:  Dens Mud Max 
 MOIL.                    70.5:  Run Mud Oil % 
 MOWR.                   68:32:  Run Mud OWR 
 MSND.                    0.01:  Run Mud Sand % 
 MSOL.                   17.68:  Run Mud Solids% 
 DFV .spqt               77.00:  Mud Viscosity 
 MWOD.in                  6.75:  MWD Tool OD 
 MWSI.                      No:  Serv Intrp, MWD 
 OTIM.hr                159.42:  Time Operating 
 PCON.           Look Like New:  Pad Condition 
 PMAX.psia             8730.94:  Press Op, Max 
 PV  .cP                 31.00:  Mud PV 
 RUN .                     900:  Run Number 
 ROPA.m/hr               12.00:  ROP Avg 
 ROPN.m/hr                7.00:  ROP Min 
 ROPX.m/hr               17.00:  ROP Max 
 RPMA.rpm               120.00:  RPM Surface Avg 
 RPMN.rpm                60.00:  RPM Surface Min 
 RPMX.rpm               140.00:  RPM Surface Max 
 RRUN.                    L604:  Rig Run Number 
 RTIM.hr                 10.00:  Time Reaming 
 SAZI.deg               270.56:  Azm, Start 
 SDEP.m                4314.01:  Start Depth 
 SIDD.                      No:  Serv Intrp, DD 
 SINC.deg                67.42:  Inc, Start 
 SPPA.psig             3300.00:  SPP Avg 
 SPPN.psig             1750.00:  SPP Min 
 SPPX.psig             4630.00:  SPP Max 
 STIM.      11.00.00 21-Aug-20:  Start Time 
 SVCS.                 DD, MWD:  Services 
 SVER.                    9.20:  Sperry Version 
 TDAT.m                4461.01:  Tot Depth Attmp 
 TDDF.                      No:  Trip for DD 
 TDLG.m                 147.00:  Tot Depth Loggd 
 TFF .                      No:  Trip for Fail 
 TQAA.f-kp               16.00:  Torque Abs Avg 
 TQAN.f-kp               14.00:  Torque Abs Min 
 TQAX.f-kp               20.00:  Torque Abs Max 
 TRRT.°/30m              -0.14:  Turn Rotating 
 MRT .                    HCIM:  Maximum Recorded Temperature 
 TTMX.degC               78.00:  Max Tool Temp 
 VS01.                90515425:  Virtual Str1 SN 
 VS02.                90545184:  Virtual Str2 SN 
 VS03.                90527809:  Virtual Str3 SN 
 VS04.                90515232:  Virtual Str4 SN 
 VS05.                90621207:  Virtual Str5 SN 
 VS06.                90619737:  Virtual Str6 SN 
 WBMN.klb                 2.00:  WOB Min 
 WITN.          Keith Dischler:  Customer Rep 
 WITN.           Faig Mammadov:  Customer Rep 2 
 WOBA.klb                 5.00:  WOB Avg 
 WOBX.klb                 8.00:  WOB Max 
 YP  .lhf2               32.00:  Yield Point 
~Curve Information Block
#MNEM.UNIT                 API CODE     Curve Description
#---------               -----------    ---------------------------
 TIME.HHMMSS            00 000 000 000:  GT Time & Date
 GTET.sec               00 000 000 000:  GT Elapsed Test Time
 GTPQH.psia             00 000 000 000:  GT HR Quartz Pressure
 GTDEPTH.m              00 000 000 000:  GT Depth
 GTTVD.m                00 000 000 000:  GT True Vertical Depth
 GTTQ.degC              00 000 000 000:  GT Quartz Temperature
 GTTN.NONE              00 000 000 000:  GT Test Number
#Other Information
#
#WARRANTY: Halliburton will use its best efforts to furnish customers with 
#accurate information and interpretations that are part of, and incident to, the services 
#provided.  However, Halliburton cannot and does not warrant the accuracy 
#or correctness of such information and interpretations.  Under no circumstances should any 
#such information or interpretation be relied upon as the sole basis for any drilling, 
#completion, production, or financial decision or any procedure involving any risk to the 
#safety of any drilling venture, drilling rig or its crew or any other third party.  The 
#Customer has full responsibility for all drilling, completion and production operation.  
#Halliburton makes no representations or warranties, either expressed or 
#implied, including, but not limited to, the implied warranties of merchantability or fitness 
#for a particular purpose, with respect to the services rendered.  In no event will 
#Halliburton be liable for failure to obtain any particular results or for 
#any damages, including, but not limited to, indirect, special or consequential damages, 
#resulting from the use of any information or interpretation provided by Halliburton.
#
~A           TIME            GTET   GTPQH  GTDEPTH  GTTVD  GTTQ  GTTN 
# ...
   10:30:24.000.25-Aug-2020  46.00 3345.29 4330.01 2049.27 71.72 9.00
   10:30:24.200.25-Aug-2020  46.20 3345.29 4330.01 2049.27 71.72 9.00
   10:30:24.400.25-Aug-2020  46.40 3344.55 4330.01 2049.27 71.72 9.00
   10:30:24.600.25-Aug-2020  46.60 3344.18 4330.01 2049.27 71.72 9.00
   10:30:24.800.25-Aug-2020  46.80 3344.03 4330.01 2049.27 71.72 9.00
   10:30:25.000.25-Aug-2020  47.00 3343.92 4330.01 2049.27 71.72 9.00
   10:30:25.200.25-Aug-2020  47.20 3343.92 4330.01 2049.27 71.72 9.00
   10:30:25.400.25-Aug-2020  47.40 3343.63 4330.01 2049.27 71.71 9.00
   10:30:25.600.25-Aug-2020  47.60 3343.65 4330.01 2049.27 71.71 9.00
   10:30:25.800.25-Aug-2020  47.80 3343.51 4330.01 2049.27 71.71 9.00
   10:30:26.000.25-Aug-2020  48.00 3343.50 4330.01 2049.27 71.71 9.00
   10:30:26.200.25-Aug-2020  48.20 3343.50 4330.01 2049.27 71.71 9.00
   10:30:26.400.25-Aug-2020  48.40 3343.53 4330.01 2049.27 71.71 9.00
   10:30:26.600.25-Aug-2020  48.60 3343.36 4330.01 2049.27 71.71 9.00
   10:30:26.800.25-Aug-2020  48.80 3343.34 4330.01 2049.27 71.70 9.00
   10:30:27.000.25-Aug-2020  49.00 3343.24 4330.01 2049.27 71.70 9.00
   10:30:27.200.25-Aug-2020  49.20 3343.24 4330.01 2049.27 71.70 9.00
   10:30:27.400.25-Aug-2020  49.40 3343.16 4330.01 2049.27 71.70 9.00
   10:30:27.600.25-Aug-2020  49.60 3342.92 4330.01 2049.27 71.70 9.00
   10:30:27.800.25-Aug-2020  49.80 3343.00 4330.01 2049.27 71.70 9.00
   10:30:28.000.25-Aug-2020  50.00 3343.11 4330.01 2049.27 71.70 9.00
   10:30:28.200.25-Aug-2020  50.20 3343.11 4330.01 2049.27 71.70 9.00
   10:30:28.400.25-Aug-2020  50.40 3343.14 4330.01 2049.27 71.70 9.00
   10:30:28.600.25-Aug-2020  50.60 3343.17 4330.01 2049.27 71.69 9.00
   10:30:28.800.25-Aug-2020  50.80 3342.66 4330.01 2049.27 71.69 9.00
   10:30:29.000.25-Aug-2020  51.00 3343.01 4330.01 2049.27 71.69 9.00
   10:30:29.200.25-Aug-2020  51.20 3343.01 4330.01 2049.27 71.69 9.00
   10:30:29.400.25-Aug-2020  51.40 3343.03 4330.01 2049.27 71.69 9.00
   10:30:29.600.25-Aug-2020  51.60 3343.03 4330.01 2049.27 71.69 9.00
   10:30:29.800.25-Aug-2020  51.80 3343.13 4330.01 2049.27 71.69 9.00
   10:30:30.000.25-Aug-2020  52.00 3343.10 4330.01 2049.27 71.69 9.00
   10:30:30.200.25-Aug-2020  52.20 3343.10 4330.01 2049.27 71.69 9.00
   10:30:30.400.25-Aug-2020  52.40 3343.12 4330.01 2049.27 71.69 9.00
   10:30:30.600.25-Aug-2020  52.60 3343.09 4330.01 2049.27 71.69 9.00
   10:30:30.800.25-Aug-2020  52.80 3343.19 4330.01 2049.27 71.69 9.00
   10:30:31.000.25-Aug-2020  53.00 3343.15 4330.01 2049.27 71.69 9.00
   10:30:31.200.25-Aug-2020  53.20 3343.15 4330.01 2049.27 71.68 9.00
   10:30:31.400.25-Aug-2020  53.40 3343.00 4330.01 2049.27 71.68 9.00
   10:30:31.600.25-Aug-2020  53.60 3346.99 4330.01 2049.27 71.68 9.00
   10:30:31.800.25-Aug-2020  53.80 3350.40 4330.01 2049.27 71.68 9.00
   10:30:32.000.25-Aug-2020  54.00 3350.53 4330.01 2049.27 71.68 9.00
   10:30:32.200.25-Aug-2020  54.20 3350.53 4330.01 2049.27 71.68 9.00
   10:30:32.400.25-Aug-2020  54.40 3350.64 4330.01 2049.27 71.68 9.00
   10:30:32.600.25-Aug-2020  54.60 3350.60 4330.01 2049.27 71.68 9.00
   10:30:32.800.25-Aug-2020  54.80 3350.61 4330.01 2049.27 71.68 9.00
   10:30:33.000.25-Aug-2020  55.00 3350.67 4330.01 2049.27 71.68 9.00
   10:30:33.200.25-Aug-2020  55.20 3350.67 4330.01 2049.27 71.68 9.00
   10:30:33.400.25-Aug-2020  55.40 3350.73 4330.01 2049.27 71.68 9.00
   10:30:33.600.25-Aug-2020  55.60 3350.74 4330.01 2049.27 71.68 9.00
   10:30:33.800.25-Aug-2020  55.80 3350.77 4330.01 2049.27 71.68 9.00
   10:30:34.000.25-Aug-2020  56.00 3350.78 4330.01 2049.27 71.68 9.00
   10:30:34.200.25-Aug-2020  56.20 3350.78 4330.01 2049.27 71.68 9.00
   10:30:34.400.25-Aug-2020  56.40 3350.82 4330.01 2049.27 71.68 9.00
   10:30:34.600.25-Aug-2020  56.60 3350.84 4330.01 2049.27 71.68 9.00
   10:30:34.800.25-Aug-2020  56.80 3350.86 4330.01 2049.27 71.68 9.00
   10:30:35.000.25-Aug-2020  57.00 3350.87 4330.01 2049.27 71.68 9.00
   10:30:35.200.25-Aug-2020  57.20 3350.89 4330.01 2049.27 71.68 9.00
   10:30:35.400.25-Aug-2020  57.40 3350.90 4330.01 2049.27 71.68 9.00
   10:30:35.600.25-Aug-2020  57.60 3350.82 4330.01 2049.27 71.68 9.00
   10:30:35.800.25-Aug-2020  57.80 3350.97 4330.01 2049.27 71.68 9.00
   10:30:36.000.25-Aug-2020  58.00 3350.87 4330.01 2049.27 71.68 9.00
   10:30:36.200.25-Aug-2020  58.20 3350.87 4330.01 2049.27 71.68 9.00
   10:30:36.400.25-Aug-2020  58.40 3350.91 4330.01 2049.27 71.68 9.00
   10:30:36.600.25-Aug-2020  58.60 3350.95 4330.01 2049.27 71.68 9.00
   10:30:36.800.25-Aug-2020  58.80 3350.82 4330.01 2049.27 71.68 9.00
   10:30:37.000.25-Aug-2020  59.00 3350.99 4330.01 2049.27 71.68 9.00
   10:30:37.200.25-Aug-2020  59.20 3350.99 4330.01 2049.27 71.68 9.00
   10:30:37.400.25-Aug-2020  59.40 3350.95 4330.01 2049.27 71.68 9.00
   10:30:37.600.25-Aug-2020  59.60 3350.80 4330.01 2049.27 71.68 9.00
   10:30:37.800.25-Aug-2020  59.80 3350.98 4330.01 2049.27 71.68 9.00
   10:30:38.000.25-Aug-2020  60.00 3350.92 4330.01 2049.27 71.68 9.00
   10:30:38.200.25-Aug-2020  60.20 3350.93 4330.01 2049.27 71.68 9.00
   10:30:38.400.25-Aug-2020  60.40 3350.94 4330.01 2049.27 71.68 9.00
   10:30:38.600.25-Aug-2020  60.60 3350.85 4330.01 2049.27 71.68 9.00
   10:30:38.800.25-Aug-2020  60.80 3351.06 4330.01 2049.27 71.68 9.00
   10:30:39.000.25-Aug-2020  61.00 3350.92 4330.01 2049.27 71.68 9.00
   10:30:39.200.25-Aug-2020  61.20 3350.92 4330.01 2049.27 71.68 9.00
   10:30:39.400.25-Aug-2020  61.40 3350.95 4330.01 2049.27 71.68 9.00
   10:30:39.600.25-Aug-2020  61.60 3350.86 4330.01 2049.27 71.68 9.00
   10:30:39.800.25-Aug-2020  61.80 3351.07 4330.01 2049.27 71.68 9.00
   10:30:40.000.25-Aug-2020  62.00 3350.92 4330.01 2049.27 71.68 9.00
   10:30:40.200.25-Aug-2020  62.20 3350.92 4330.01 2049.27 71.68 9.00
   10:30:40.400.25-Aug-2020  62.40 3350.96 4330.01 2049.27 71.68 9.00
   10:30:40.600.25-Aug-2020  62.60 3350.99 4330.01 2049.27 71.68 9.00
   10:30:40.800.25-Aug-2020  62.80 3351.00 4330.01 2049.27 71.68 9.00
   10:30:41.000.25-Aug-2020  63.00 3351.00 4330.01 2049.27 71.68 9.00
   10:30:41.200.25-Aug-2020  63.20 3351.00 4330.01 2049.27 71.68 9.00
   10:30:41.400.25-Aug-2020  63.40 3351.01 4330.01 2049.27 71.68 9.00
   10:30:41.600.25-Aug-2020  63.60 3351.02 4330.01 2049.27 71.68 9.00
   10:30:41.800.25-Aug-2020  63.80 3351.02 4330.01 2049.27 71.68 9.00
   10:30:42.000.25-Aug-2020  64.00 3351.03 4330.01 2049.27 71.68 9.00
   10:30:42.200.25-Aug-2020  64.20 3351.03 4330.01 2049.27 71.68 9.00
   10:30:42.400.25-Aug-2020  64.40 3351.03 4330.01 2049.27 71.68 9.00
   10:30:42.600.25-Aug-2020  64.60 3351.03 4330.01 2049.27 71.68 9.00
   10:30:42.800.25-Aug-2020  64.80 3351.03 4330.01 2049.27 71.68 9.00
   10:30:43.000.25-Aug-2020  65.00 3351.03 4330.01 2049.27 71.68 9.00
   10:30:43.200.25-Aug-2020  65.20 3351.03 4330.01 2049.27 71.68 9.00
   10:30:43.400.25-Aug-2020  65.40 3350.97 4330.01 2049.27 71.68 9.00
   10:30:43.600.25-Aug-2020  65.60 3350.96 4330.01 2049.27 71.68 9.00
   10:30:43.800.25-Aug-2020  65.80 3351.00 4330.01 2049.27 71.68 9.00
   10:30:44.000.25-Aug-2020  66.00 3351.01 4330.01 2049.27 71.68 9.00
   10:30:44.200.25-Aug-2020  66.20 3351.01 4330.01 2049.27 71.68 9.00
   10:30:44.400.25-Aug-2020  66.40 3351.03 4330.01 2049.27 71.68 9.00
   10:30:44.600.25-Aug-2020  66.60 3351.03 4330.01 2049.27 71.68 9.00
   10:30:44.800.25-Aug-2020  66.80 3351.05 4330.01 2049.27 71.68 9.00
   10:30:45.000.25-Aug-2020  67.00 3351.05 4330.01 2049.27 71.68 9.00
   10:30:45.200.25-Aug-2020  67.20 3351.05 4330.01 2049.27 71.68 9.00
   10:30:45.400.25-Aug-2020  67.40 3351.05 4330.01 2049.27 71.68 9.00
   10:30:45.600.25-Aug-2020  67.60 3351.06 4330.01 2049.27 71.68 9.00
   10:30:45.800.25-Aug-2020  67.80 3351.06 4330.01 2049.27 71.68 9.00
   10:30:46.000.25-Aug-2020  68.00 3351.07 4330.01 2049.27 71.68 9.00
   10:30:46.200.25-Aug-2020  68.20 3351.07 4330.01 2049.27 71.68 9.00
   10:30:46.400.25-Aug-2020  68.40 3351.06 4330.01 2049.27 71.68 9.00
   10:30:46.600.25-Aug-2020  68.60 3351.06 4330.01 2049.27 71.68 9.00
   10:30:46.800.25-Aug-2020  68.80 3351.05 4330.01 2049.27 71.68 9.00
