~Version Information
 VERS.                  2.0:   CWLS log ASCII Standard -VERSION 2.0
 WRAP.                   NO:   One line per depth step
~Well Information Block
#MNEM.UNIT     VALUE/NAME     DESCRIPTION
#---------     -----------    ---------------------------
 STRT.S             06:12:42 25-Aug-20: START TIME 06:12:42 25-Aug-20
 STOP.S             06:19:48 25-Aug-20: STOP TIME  06:19:48 25-Aug-20
 STEP.S                   0.00: STEP TIME
 NULL.                 -999.25: NULL VALUE
 DFWT.                        :  DIST FWL TEXT
 DFST.                        :  DIST FSL TEXT
 DMF .             Drill Floor:  DRILL MEAS FROM
 STIM.      09.59.28 01-Jun-20:  START TIME
 DATE.      05.00.00 28-Aug-20:  END TIME
 SPUD.               01-Jun-20:  SPUD DATE
 NREF.                    Grid:  NORTH REFERENCE
 HPTY.       Minimum Curvature:  HOLE POS TYPE
 DMOD.             Drill Model:  DRILL MOD DESC
 SVYD.                  Survey:  SURVEY DESC
 ILTD.               Lithology:  INTERP LTH DESC
 FTOP.          Formation Tops:  FORM TOPS DESC
 SON .        AZ-XX-0905455768:  JOB NUMBER
 WTYP.                Deviated:  WELL TYPE
 COMP.     BP Exploration(Caspian Sea):  COMPANY
 BASE.              Azerbaijan:  LOGGING EQUIPMENT BASE LOCATION
 REGN.                   EESSA:  REGION
 CTRY.              Azerbaijan:  COUNTRY NAME
 FLD .                     ACG:  FIELD NAME
 SRVC.          Turan Drilling:  CONTRACTOR
 WELL.                     B41:  WELL NAME
 RIG .           Central Azeri:  RIG NAME
 DCON.         Sperry Drilling:  DIRECTNL CONTR
 PDAT.          Mean Sea Level:  PERMANENT DATUM
 MDS .        Operator Entered:  MAG DATA SOURCE
 API .                        :  API NUMBER
 CNTY.                        :  COUNTY
 PROV.                        :  PROVINCE
 STAT.                        :  STATE
 UWI .                        :  UNIQUE WELL IDENTIFIER
 LOC .                        :  LOCATION
 LMF .             Drill Floor:  LOG MEASURED FROM
 TVDS.m                  43.29:  TVDSS CORRECTN
 LATI.deg                40.03:  LATITUDE
 LONG.deg                51.35:  LONGITUDE
 WHNS.m                  12.98:  WELL HEAD N/S
 WHEW.m                  -6.62:  WELL HEAD E/W
 UTMX.m              530128.28:  UTM X
 UTMY.m             4433192.49:  UTM Y
 DFWL.m                   0.00:  DISTANCE FWL
 DFSL.m                   0.00:  DISTANCE FSL
 SDEP.m                 378.00:  START DEPTH
 TDD .m                4463.01:  TOTAL DEPTH (DRILLER)
 VSDR.deg               296.18:  VERT SEC DIRECT
 GVFD.g                   1.00:  GRAVITY FIELD
 MFLD.nT              50269.00:  MAGNETIC FIELD
 MDIP.deg                59.50:  MAGNETIC DIP
 MDEC.deg                 6.44:  MAGNETIC DECL
 GRDC.deg                 0.20:  GRID CORRECTION
 AZTC.deg                 6.24:  AZM TOTAL CORR
 EPD .m                   0.00:  ELEVATION
 EGL .m                   0.00:  GROUND ELEVATION
 WDMS.m                 128.20:  WD ELEV
 APD .m                  43.29:  DEPTH ABOVE PD
 AGAP.m                  43.29:  AIR GAP
 VSEW.m                  -6.62:  VERT SEC E/W
 VSNS.m                  12.98:  VERT SEC N/S
 EKB .m                  43.29:  KB ELEVATION
 EDF .m                  43.29:  DF ELEVATION
 TDL .m                 147.00:  TOTAL DEPTH (LOGGER)
 VSC .                       0:  VS TO CLOSURE
 MAGU.                 1849241:  MAGUTM CHECKSUM
~Parameter Information Block
#MNEM.UNIT       Value        Description
#---------     -----------    ---------------------------
 AV  .mps                 0.70:  Ann Velocity 
 AZIF.deg               269.43:  Azm, Final 
 BHAT.        Rotary Steerable:  BHA Type 
 BROT.°/30m              -0.03:  Build Rotating 
 BS  .in                  8.50:  Bit Size 
 BSZ .in                  8.50:  Bit Size 
 BTPL.psig              880.00:  Bit Press Loss 
 CABU.                      No:  Customer Abuse 
 CGEO.          Parviz Guliyev:  Customer Geo 
 COMM.                     ôb:  Run Comments 1 
 TCS .hr                 64.59:  Time Ciculation Ended 
 CV  .mps                 2.17:  Crit Velocity 
 DD1 .            Nonso Okafor:  Direct Drillr 1 
 DDSV.               Geo-Pilot:  DD Service 
 DEFF.%                  98.00:  % Det Eff 
 DLRX.°/30m               0.81:  Dogleg Rot Max 
 DLSO.°/30m               0.55:  Dogleg Oriented 
 DLSX.°/30m               0.81:  Dogleg Str Max 
 DRET.      23.50.00 24-Aug-20:  Drill End Time 
 DRST.      07.34.24 22-Aug-20:  Drill Start Tim 
 DTIM.hr                 15.29:  Time Drilling 
 EDEP.m                4461.01:  End Depth 
 ENG1.       Zam Abdullah Sani:  Engineer 1 
 ENG2.         Dair Mahammadov:  Engineer 2 
 ENG3.          Rustam Gadirov:  Engineer 3 
 ETIM.      07.34.24 26-Aug-20:  End Time 
 FLOI.gpm               550.00:  Flow In 
 FLON.gpm               400.00:  Flow In Min 
 FLOS.cptm                1.00:  Fluid Loss 
 FLOX.gpm               600.00:  Flow In Max 
 FTRO.       Formation Presure:  FTWD Run Obj 
 HFLO.                      No:  High Flow 
 HPRE.                      No:  High Pressure 
 HTEM.                      No:  High Temp 
 HYDO.m                   1.80:  Hydro Offset 
 IFIN.deg                66.72:  Inc, Final 
 IMAX.deg                67.42:  Inc Max 
 IMIN.deg                66.72:  Inc Min 
 IMND.m                4408.37:  Inc Min Depth 
 IMXD.m                4323.37:  Inc Max Depth 
 JARR.                      No:  Jarring 
 LETM.      23.50.00 24-Aug-20:  Log End Time 
 LOST.hr                     0:  Lost Rig Time 
 LSTM.      07.34.24 22-Aug-20:  Log Start Time 
 MDCL.ppm             38000.00:  Mud Chlorides 
 MDES.     Inversion Oil/Synthetic:  Mud Desc 
 DFD .sg                  1.40:  Mud Density 
 MDMN.sg                  1.38:  Dens Mud Min 
 MDMX.sg                  1.41:  Dens Mud Max 
 MOIL.                    70.5:  Run Mud Oil % 
 MOWR.                   68:32:  Run Mud OWR 
 MSND.                    0.01:  Run Mud Sand % 
 MSOL.                   17.68:  Run Mud Solids% 
 DFV .spqt               77.00:  Mud Viscosity 
 MWOD.in                  6.75:  MWD Tool OD 
 MWSI.                      No:  Serv Intrp, MWD 
 OTIM.hr                159.42:  Time Operating 
 PCON.           Look Like New:  Pad Condition 
 PMAX.psia             8730.94:  Press Op, Max 
 PV  .cP                 31.00:  Mud PV 
 RUN .                     900:  Run Number 
 ROPA.m/hr               12.00:  ROP Avg 
 ROPN.m/hr                7.00:  ROP Min 
 ROPX.m/hr               17.00:  ROP Max 
 RPMA.rpm               120.00:  RPM Surface Avg 
 RPMN.rpm                60.00:  RPM Surface Min 
 RPMX.rpm               140.00:  RPM Surface Max 
 RRUN.                    L604:  Rig Run Number 
 RTIM.hr                 10.00:  Time Reaming 
 SAZI.deg               270.56:  Azm, Start 
 SDEP.m                4314.01:  Start Depth 
 SIDD.                      No:  Serv Intrp, DD 
 SINC.deg                67.42:  Inc, Start 
 SPPA.psig             3300.00:  SPP Avg 
 SPPN.psig             1750.00:  SPP Min 
 SPPX.psig             4630.00:  SPP Max 
 STIM.      11.00.00 21-Aug-20:  Start Time 
 SVCS.                 DD, MWD:  Services 
 SVER.                    9.20:  Sperry Version 
 TDAT.m                4461.01:  Tot Depth Attmp 
 TDDF.                      No:  Trip for DD 
 TDLG.m                 147.00:  Tot Depth Loggd 
 TFF .                      No:  Trip for Fail 
 TQAA.f-kp               16.00:  Torque Abs Avg 
 TQAN.f-kp               14.00:  Torque Abs Min 
 TQAX.f-kp               20.00:  Torque Abs Max 
 TRRT.°/30m              -0.14:  Turn Rotating 
 MRT .                    HCIM:  Maximum Recorded Temperature 
 TTMX.degC               78.00:  Max Tool Temp 
 VS01.                90515425:  Virtual Str1 SN 
 VS02.                90545184:  Virtual Str2 SN 
 VS03.                90527809:  Virtual Str3 SN 
 VS04.                90515232:  Virtual Str4 SN 
 VS05.                90621207:  Virtual Str5 SN 
 VS06.                90619737:  Virtual Str6 SN 
 WBMN.klb                 2.00:  WOB Min 
 WITN.          Keith Dischler:  Customer Rep 
 WITN.           Faig Mammadov:  Customer Rep 2 
 WOBA.klb                 5.00:  WOB Avg 
 WOBX.klb                 8.00:  WOB Max 
 YP  .lhf2               32.00:  Yield Point 
~Curve Information Block
#MNEM.UNIT                 API CODE     Curve Description
#---------               -----------    ---------------------------
 TIME.HHMMSS            00 000 000 000:  GT Time & Date
 GTET.sec               00 000 000 000:  GT Elapsed Test Time
 GTPQH.psia             00 000 000 000:  GT HR Quartz Pressure
 GTDEPTH.m              00 000 000 000:  GT Depth
 GTTVD.m                00 000 000 000:  GT True Vertical Depth
 GTTQ.degC              00 000 000 000:  GT Quartz Temperature
 GTTN.NONE              00 000 000 000:  GT Test Number
#Other Information
#
#WARRANTY: Halliburton will use its best efforts to furnish customers with 
#accurate information and interpretations that are part of, and incident to, the services 
#provided.  However, Halliburton cannot and does not warrant the accuracy 
#or correctness of such information and interpretations.  Under no circumstances should any 
#such information or interpretation be relied upon as the sole basis for any drilling, 
#completion, production, or financial decision or any procedure involving any risk to the 
#safety of any drilling venture, drilling rig or its crew or any other third party.  The 
#Customer has full responsibility for all drilling, completion and production operation.  
#Halliburton makes no representations or warranties, either expressed or 
#implied, including, but not limited to, the implied warranties of merchantability or fitness 
#for a particular purpose, with respect to the services rendered.  In no event will 
#Halliburton be liable for failure to obtain any particular results or for 
#any damages, including, but not limited to, indirect, special or consequential damages, 
#resulting from the use of any information or interpretation provided by Halliburton.
#
~A           TIME            GTET   GTPQH  GTDEPTH  GTTVD  GTTQ  GTTN 
# ...
   06:19:13.000.25-Aug-2020 391.00 4800.92 4397.01 2075.58 73.31 2.00
   06:19:13.200.25-Aug-2020 391.20 4800.95 4397.01 2075.58 73.31 2.00
   06:19:13.400.25-Aug-2020 391.40 4800.14 4397.01 2075.58 73.31 2.00
   06:19:13.600.25-Aug-2020 391.60 4808.38 4397.01 2075.58 73.31 2.00
   06:19:13.800.25-Aug-2020 391.80 4799.88 4397.01 2075.58 73.31 2.00
   06:19:14.000.25-Aug-2020 392.00 4804.17 4397.01 2075.58 73.31 2.00
   06:19:14.200.25-Aug-2020 392.20 4804.17 4397.01 2075.58 73.31 2.00
   06:19:14.400.25-Aug-2020 392.40 4801.14 4397.01 2075.58 73.31 2.00
   06:19:14.600.25-Aug-2020 392.60 4800.23 4397.01 2075.58 73.31 2.00
   06:19:14.800.25-Aug-2020 392.80 4800.00 4397.01 2075.58 73.31 2.00
   06:19:15.000.25-Aug-2020 393.00 4799.34 4397.01 2075.58 73.31 2.00
   06:19:15.200.25-Aug-2020 393.20 4799.34 4397.01 2075.58 73.31 2.00
   06:19:15.400.25-Aug-2020 393.40 4799.46 4397.01 2075.58 73.31 2.00
   06:19:15.600.25-Aug-2020 393.60 4799.94 4397.01 2075.58 73.31 2.00
   06:19:15.800.25-Aug-2020 393.80 4801.10 4397.01 2075.58 73.31 2.00
   06:19:16.000.25-Aug-2020 394.00 4801.11 4397.01 2075.58 73.31 2.00
   06:19:16.200.25-Aug-2020 394.20 4801.11 4397.01 2075.58 73.31 2.00
   06:19:16.400.25-Aug-2020 394.40 4799.61 4397.01 2075.58 73.31 2.00
   06:19:16.600.25-Aug-2020 394.60 4798.12 4397.01 2075.58 73.31 2.00
   06:19:16.800.25-Aug-2020 394.80 4798.64 4397.01 2075.58 73.31 2.00
   06:19:17.000.25-Aug-2020 395.00 4808.22 4397.01 2075.58 73.31 2.00
   06:19:17.200.25-Aug-2020 395.20 4800.95 4397.01 2075.58 73.31 2.00
   06:19:17.400.25-Aug-2020 395.40 4805.43 4397.01 2075.58 73.31 2.00
   06:19:17.600.25-Aug-2020 395.60 4801.22 4397.01 2075.58 73.31 2.00
   06:19:17.800.25-Aug-2020 395.80 4799.62 4397.01 2075.58 73.31 2.00
   06:19:18.000.25-Aug-2020 396.00 4798.44 4397.01 2075.58 73.31 2.00
   06:19:18.200.25-Aug-2020 396.20 4798.44 4397.01 2075.58 73.31 2.00
   06:19:18.400.25-Aug-2020 396.40 4801.33 4397.01 2075.58 73.31 2.00
   06:19:18.600.25-Aug-2020 396.60 4802.04 4397.01 2075.58 73.31 2.00
   06:19:18.800.25-Aug-2020 396.80 4802.65 4397.01 2075.58 73.31 2.00
   06:19:19.000.25-Aug-2020 397.00 4800.56 4397.01 2075.58 73.31 2.00
   06:19:19.200.25-Aug-2020 397.20 4800.56 4397.01 2075.58 73.31 2.00
   06:19:19.400.25-Aug-2020 397.40 4800.19 4397.01 2075.58 73.31 2.00
   06:19:19.600.25-Aug-2020 397.60 4800.47 4397.01 2075.58 73.31 2.00
   06:19:19.800.25-Aug-2020 397.80 4810.84 4397.01 2075.58 73.31 2.00
   06:19:20.000.25-Aug-2020 398.00 4808.01 4397.01 2075.58 73.31 2.00
   06:19:20.200.25-Aug-2020 398.20 4808.01 4397.01 2075.58 73.31 2.00
   06:19:20.400.25-Aug-2020 398.40 4802.13 4397.01 2075.58 73.31 2.00
   06:19:20.600.25-Aug-2020 398.60 4802.11 4397.01 2075.58 73.31 2.00
   06:19:20.800.25-Aug-2020 398.80 4803.51 4397.01 2075.58 73.31 2.00
   06:19:21.000.25-Aug-2020 399.00 4806.62 4397.01 2075.58 73.31 2.00
   06:19:21.200.25-Aug-2020 399.20 4810.59 4397.01 2075.58 73.31 2.00
   06:19:21.400.25-Aug-2020 399.40 4804.02 4397.01 2075.58 73.31 2.00
   06:19:21.600.25-Aug-2020 399.60 4801.96 4397.01 2075.58 73.31 2.00
   06:19:21.800.25-Aug-2020 399.80 4800.46 4397.01 2075.58 73.31 2.00
   06:19:22.000.25-Aug-2020 400.00 4801.56 4397.01 2075.58 73.31 2.00
   06:19:22.200.25-Aug-2020 400.20 4801.56 4397.01 2075.58 73.31 2.00
   06:19:22.400.25-Aug-2020 400.40 4814.52 4397.01 2075.58 73.31 2.00
   06:19:22.600.25-Aug-2020 400.60 4801.55 4397.01 2075.58 73.31 2.00
   06:19:22.800.25-Aug-2020 400.80 4801.87 4397.01 2075.58 73.31 2.00
   06:19:23.000.25-Aug-2020 401.00 4803.19 4397.01 2075.58 73.31 2.00
   06:19:23.200.25-Aug-2020 401.20 4803.19 4397.01 2075.58 73.31 2.00
   06:19:23.400.25-Aug-2020 401.40 4801.60 4397.01 2075.58 73.31 2.00
   06:19:23.600.25-Aug-2020 401.60 4802.44 4397.01 2075.58 73.31 2.00
   06:19:23.800.25-Aug-2020 401.80 4802.47 4397.01 2075.58 73.31 2.00
   06:19:24.000.25-Aug-2020 402.00 4802.24 4397.01 2075.58 73.31 2.00
   06:19:24.200.25-Aug-2020 402.20 4802.24 4397.01 2075.58 73.31 2.00
   06:19:24.400.25-Aug-2020 402.40 4802.34 4397.01 2075.58 73.31 2.00
   06:19:24.600.25-Aug-2020 402.60 4801.87 4397.01 2075.58 73.31 2.00
   06:19:24.800.25-Aug-2020 402.80 4802.16 4397.01 2075.58 73.31 2.00
   06:19:25.000.25-Aug-2020 403.00 4802.01 4397.01 2075.58 73.31 2.00
   06:19:25.200.25-Aug-2020 403.20 4800.66 4397.01 2075.58 73.31 2.00
   06:19:25.400.25-Aug-2020 403.40 4801.74 4397.01 2075.58 73.31 2.00
   06:19:25.600.25-Aug-2020 403.60 4801.85 4397.01 2075.58 73.31 2.00
   06:19:25.800.25-Aug-2020 403.80 4800.94 4397.01 2075.58 73.31 2.00
   06:19:26.000.25-Aug-2020 404.00 4809.16 4397.01 2075.58 73.31 2.00
   06:19:26.200.25-Aug-2020 404.20 4809.16 4397.01 2075.58 73.31 2.00
   06:19:26.400.25-Aug-2020 404.40 4804.77 4397.01 2075.58 73.31 2.00
   06:19:26.600.25-Aug-2020 404.60 4802.82 4397.01 2075.58 73.31 2.00
   06:19:26.800.25-Aug-2020 404.80 4801.90 4397.01 2075.58 73.31 2.00
   06:19:27.000.25-Aug-2020 405.00 4800.71 4397.01 2075.58 73.31 2.00
   06:19:27.200.25-Aug-2020 405.20 4800.71 4397.01 2075.58 73.31 2.00
   06:19:27.400.25-Aug-2020 405.40 4800.39 4397.01 2075.58 73.31 2.00
   06:19:27.600.25-Aug-2020 405.60 4800.98 4397.01 2075.58 73.31 2.00
   06:19:27.800.25-Aug-2020 405.80 4800.40 4397.01 2075.58 73.31 2.00
   06:19:28.000.25-Aug-2020 406.00 4801.35 4397.01 2075.58 73.31 2.00
   06:19:28.200.25-Aug-2020 406.20 4801.35 4397.01 2075.58 73.31 2.00
   06:19:28.400.25-Aug-2020 406.40 4802.59 4397.01 2075.58 73.31 2.00
   06:19:28.600.25-Aug-2020 406.60 4801.87 4397.01 2075.58 73.31 2.00
   06:19:28.800.25-Aug-2020 406.80 4801.28 4397.01 2075.58 73.31 2.00
   06:19:29.000.25-Aug-2020 407.00 4799.74 4397.01 2075.58 73.31 2.00
   06:19:29.200.25-Aug-2020 407.20 4800.16 4397.01 2075.58 73.31 2.00
   06:19:29.400.25-Aug-2020 407.40 4809.76 4397.01 2075.58 73.31 2.00
   06:19:29.600.25-Aug-2020 407.60 4802.50 4397.01 2075.58 73.31 2.00
   06:19:29.800.25-Aug-2020 407.80 4806.23 4397.01 2075.58 73.31 2.00
   06:19:30.000.25-Aug-2020 408.00 4802.04 4397.01 2075.58 73.31 2.00
   06:19:30.200.25-Aug-2020 408.20 4802.04 4397.01 2075.58 73.31 2.00
   06:19:30.400.25-Aug-2020 408.40 4798.76 4397.01 2075.58 73.31 2.00
   06:19:30.600.25-Aug-2020 408.60 4812.78 4397.01 2075.58 73.31 2.00
   06:19:30.800.25-Aug-2020 408.80 4801.88 4397.01 2075.58 73.31 2.00
   06:19:31.000.25-Aug-2020 409.00 4802.62 4397.01 2075.58 73.31 2.00
   06:19:31.200.25-Aug-2020 409.20 4802.62 4397.01 2075.58 73.31 2.00
   06:19:31.400.25-Aug-2020 409.40 4801.29 4397.01 2075.58 73.31 2.00
   06:19:31.600.25-Aug-2020 409.60 4799.64 4397.01 2075.58 73.31 2.00
   06:19:31.800.25-Aug-2020 409.80 4813.68 4397.01 2075.58 73.31 2.00
   06:19:32.000.25-Aug-2020 410.00 4802.27 4397.01 2075.58 73.31 2.00
   06:19:32.200.25-Aug-2020 410.20 4802.27 4397.01 2075.58 73.31 2.00
   06:19:32.400.25-Aug-2020 410.40 4803.84 4397.01 2075.58 73.31 2.00
   06:19:32.600.25-Aug-2020 410.60 4802.62 4397.01 2075.58 73.31 2.00
   06:19:32.800.25-Aug-2020 410.80 4801.27 4397.01 2075.58 73.31 2.00
   06:19:33.000.25-Aug-2020 411.00 4801.82 4397.01 2075.58 73.31 2.00
   06:19:33.200.25-Aug-2020 411.20 4812.04 4397.01 2075.58 73.31 2.00
   06:19:33.400.25-Aug-2020 411.40 4809.16 4397.01 2075.58 73.31 2.00
   06:19:33.600.25-Aug-2020 411.60 4802.76 4397.01 2075.58 73.31 2.00
   06:19:33.800.25-Aug-2020 411.80 4802.75 4397.01 2075.58 73.31 2.00
   06:19:34.000.25-Aug-2020 412.00 4802.39 4397.01 2075.58 73.31 2.00
   06:19:34.200.25-Aug-2020 412.20 4802.39 4397.01 2075.58 73.31 2.00
   06:19:34.400.25-Aug-2020 412.40 4810.25 4397.01 2075.58 73.31 2.00
   06:19:34.600.25-Aug-2020 412.60 4803.00 4397.01 2075.58 73.31 2.00
   06:19:34.800.25-Aug-2020 412.80 4807.81 4397.01 2075.58 73.31 2.00
   06:19:35.000.25-Aug-2020 413.00 4804.33 4397.01 2075.58 73.31 2.00
   06:19:35.200.25-Aug-2020 413.20 4804.33 4397.01 2075.58 73.31 2.00
   06:19:35.400.25-Aug-2020 413.40 4800.54 4397.01 2075.58 73.31 2.00
   06:19:35.600.25-Aug-2020 413.60 4801.64 4397.01 2075.58 73.31 2.00
   06:19:35.800.25-Aug-2020 413.80 4801.73 4397.01 2075.58 73.31 2.00
