~Version Information
 VERS.                  2.0:   CWLS log ASCII Standard -VERSION 2.0
 WRAP.                   NO:   One line per depth step
~Well Information Block
#MNEM.UNIT     VALUE/NAME     DESCRIPTION
#---------     -----------    ---------------------------
 STRT.S             06:12:42 25-Aug-20: START TIME 06:12:42 25-Aug-20
 STOP.S             06:19:48 25-Aug-20: STOP TIME  06:19:48 25-Aug-20
 STEP.S                   0.00: STEP TIME
 NULL.                 -999.25: NULL VALUE
 DFWT.                        :  DIST FWL TEXT
 DFST.                        :  DIST FSL TEXT
 DMF .             Drill Floor:  DRILL MEAS FROM
 STIM.      09.59.28 01-Jun-20:  START TIME
 DATE.      05.00.00 28-Aug-20:  END TIME
 SPUD.               01-Jun-20:  SPUD DATE
 NREF.                    Grid:  NORTH REFERENCE
 HPTY.       Minimum Curvature:  HOLE POS TYPE
 DMOD.             Drill Model:  DRILL MOD DESC
 SVYD.                  Survey:  SURVEY DESC
 ILTD.               Lithology:  INTERP LTH DESC
 FTOP.          Formation Tops:  FORM TOPS DESC
 SON .        AZ-XX-0905455768:  JOB NUMBER
 WTYP.                Deviated:  WELL TYPE
 COMP.     BP Exploration(Caspian Sea):  COMPANY
 BASE.              Azerbaijan:  LOGGING EQUIPMENT BASE LOCATION
 REGN.                   EESSA:  REGION
 CTRY.              Azerbaijan:  COUNTRY NAME
 FLD .                     ACG:  FIELD NAME
 SRVC.          Turan Drilling:  CONTRACTOR
 WELL.                     B41:  WELL NAME
 RIG .           Central Azeri:  RIG NAME
 DCON.         Sperry Drilling:  DIRECTNL CONTR
 PDAT.          Mean Sea Level:  PERMANENT DATUM
 MDS .        Operator Entered:  MAG DATA SOURCE
 API .                        :  API NUMBER
 CNTY.                        :  COUNTY
 PROV.                        :  PROVINCE
 STAT.                        :  STATE
 UWI .                        :  UNIQUE WELL IDENTIFIER
 LOC .                        :  LOCATION
 LMF .             Drill Floor:  LOG MEASURED FROM
 TVDS.m                  43.29:  TVDSS CORRECTN
 LATI.deg                40.03:  LATITUDE
 LONG.deg                51.35:  LONGITUDE
 WHNS.m                  12.98:  WELL HEAD N/S
 WHEW.m                  -6.62:  WELL HEAD E/W
 UTMX.m              530128.28:  UTM X
 UTMY.m             4433192.49:  UTM Y
 DFWL.m                   0.00:  DISTANCE FWL
 DFSL.m                   0.00:  DISTANCE FSL
 SDEP.m                 378.00:  START DEPTH
 TDD .m                4463.01:  TOTAL DEPTH (DRILLER)
 VSDR.deg               296.18:  VERT SEC DIRECT
 GVFD.g                   1.00:  GRAVITY FIELD
 MFLD.nT              50269.00:  MAGNETIC FIELD
 MDIP.deg                59.50:  MAGNETIC DIP
 MDEC.deg                 6.44:  MAGNETIC DECL
 GRDC.deg                 0.20:  GRID CORRECTION
 AZTC.deg                 6.24:  AZM TOTAL CORR
 EPD .m                   0.00:  ELEVATION
 EGL .m                   0.00:  GROUND ELEVATION
 WDMS.m                 128.20:  WD ELEV
 APD .m                  43.29:  DEPTH ABOVE PD
 AGAP.m                  43.29:  AIR GAP
 VSEW.m                  -6.62:  VERT SEC E/W
 VSNS.m                  12.98:  VERT SEC N/S
 EKB .m                  43.29:  KB ELEVATION
 EDF .m                  43.29:  DF ELEVATION
 TDL .m                 147.00:  TOTAL DEPTH (LOGGER)
 VSC .                       0:  VS TO CLOSURE
 MAGU.                 1849241:  MAGUTM CHECKSUM
~Parameter Information Block
#MNEM.UNIT       Value        Description
#---------     -----------    ---------------------------
 AV  .mps                 0.70:  Ann Velocity 
 AZIF.deg               269.43:  Azm, Final 
 BHAT.        Rotary Steerable:  BHA Type 
 BROT.°/30m              -0.03:  Build Rotating 
 BS  .in                  8.50:  Bit Size 
 BSZ .in                  8.50:  Bit Size 
 BTPL.psig              880.00:  Bit Press Loss 
 CABU.                      No:  Customer Abuse 
 CGEO.          Parviz Guliyev:  Customer Geo 
 COMM.                     ôb:  Run Comments 1 
 TCS .hr                 64.59:  Time Ciculation Ended 
 CV  .mps                 2.17:  Crit Velocity 
 DD1 .            Nonso Okafor:  Direct Drillr 1 
 DDSV.               Geo-Pilot:  DD Service 
 DEFF.%                  98.00:  % Det Eff 
 DLRX.°/30m               0.81:  Dogleg Rot Max 
 DLSO.°/30m               0.55:  Dogleg Oriented 
 DLSX.°/30m               0.81:  Dogleg Str Max 
 DRET.      23.50.00 24-Aug-20:  Drill End Time 
 DRST.      07.34.24 22-Aug-20:  Drill Start Tim 
 DTIM.hr                 15.29:  Time Drilling 
 EDEP.m                4461.01:  End Depth 
 ENG1.       Zam Abdullah Sani:  Engineer 1 
 ENG2.         Dair Mahammadov:  Engineer 2 
 ENG3.          Rustam Gadirov:  Engineer 3 
 ETIM.      07.34.24 26-Aug-20:  End Time 
 FLOI.gpm               550.00:  Flow In 
 FLON.gpm               400.00:  Flow In Min 
 FLOS.cptm                1.00:  Fluid Loss 
 FLOX.gpm               600.00:  Flow In Max 
 FTRO.       Formation Presure:  FTWD Run Obj 
 HFLO.                      No:  High Flow 
 HPRE.                      No:  High Pressure 
 HTEM.                      No:  High Temp 
 HYDO.m                   1.80:  Hydro Offset 
 IFIN.deg                66.72:  Inc, Final 
 IMAX.deg                67.42:  Inc Max 
 IMIN.deg                66.72:  Inc Min 
 IMND.m                4408.37:  Inc Min Depth 
 IMXD.m                4323.37:  Inc Max Depth 
 JARR.                      No:  Jarring 
 LETM.      23.50.00 24-Aug-20:  Log End Time 
 LOST.hr                     0:  Lost Rig Time 
 LSTM.      07.34.24 22-Aug-20:  Log Start Time 
 MDCL.ppm             38000.00:  Mud Chlorides 
 MDES.     Inversion Oil/Synthetic:  Mud Desc 
 DFD .sg                  1.40:  Mud Density 
 MDMN.sg                  1.38:  Dens Mud Min 
 MDMX.sg                  1.41:  Dens Mud Max 
 MOIL.                    70.5:  Run Mud Oil % 
 MOWR.                   68:32:  Run Mud OWR 
 MSND.                    0.01:  Run Mud Sand % 
 MSOL.                   17.68:  Run Mud Solids% 
 DFV .spqt               77.00:  Mud Viscosity 
 MWOD.in                  6.75:  MWD Tool OD 
 MWSI.                      No:  Serv Intrp, MWD 
 OTIM.hr                159.42:  Time Operating 
 PCON.           Look Like New:  Pad Condition 
 PMAX.psia             8730.94:  Press Op, Max 
 PV  .cP                 31.00:  Mud PV 
 RUN .                     900:  Run Number 
 ROPA.m/hr               12.00:  ROP Avg 
 ROPN.m/hr                7.00:  ROP Min 
 ROPX.m/hr               17.00:  ROP Max 
 RPMA.rpm               120.00:  RPM Surface Avg 
 RPMN.rpm                60.00:  RPM Surface Min 
 RPMX.rpm               140.00:  RPM Surface Max 
 RRUN.                    L604:  Rig Run Number 
 RTIM.hr                 10.00:  Time Reaming 
 SAZI.deg               270.56:  Azm, Start 
 SDEP.m                4314.01:  Start Depth 
 SIDD.                      No:  Serv Intrp, DD 
 SINC.deg                67.42:  Inc, Start 
 SPPA.psig             3300.00:  SPP Avg 
 SPPN.psig             1750.00:  SPP Min 
 SPPX.psig             4630.00:  SPP Max 
 STIM.      11.00.00 21-Aug-20:  Start Time 
 SVCS.                 DD, MWD:  Services 
 SVER.                    9.20:  Sperry Version 
 TDAT.m                4461.01:  Tot Depth Attmp 
 TDDF.                      No:  Trip for DD 
 TDLG.m                 147.00:  Tot Depth Loggd 
 TFF .                      No:  Trip for Fail 
 TQAA.f-kp               16.00:  Torque Abs Avg 
 TQAN.f-kp               14.00:  Torque Abs Min 
 TQAX.f-kp               20.00:  Torque Abs Max 
 TRRT.°/30m              -0.14:  Turn Rotating 
 MRT .                    HCIM:  Maximum Recorded Temperature 
 TTMX.degC               78.00:  Max Tool Temp 
 VS01.                90515425:  Virtual Str1 SN 
 VS02.                90545184:  Virtual Str2 SN 
 VS03.                90527809:  Virtual Str3 SN 
 VS04.                90515232:  Virtual Str4 SN 
 VS05.                90621207:  Virtual Str5 SN 
 VS06.                90619737:  Virtual Str6 SN 
 WBMN.klb                 2.00:  WOB Min 
 WITN.          Keith Dischler:  Customer Rep 
 WITN.           Faig Mammadov:  Customer Rep 2 
 WOBA.klb                 5.00:  WOB Avg 
 WOBX.klb                 8.00:  WOB Max 
 YP  .lhf2               32.00:  Yield Point 
~Curve Information Block
#MNEM.UNIT                 API CODE     Curve Description
#---------               -----------    ---------------------------
 TIME.HHMMSS            00 000 000 000:  GT Time & Date
 GTET.sec               00 000 000 000:  GT Elapsed Test Time
 GTPQH.psia             00 000 000 000:  GT HR Quartz Pressure
 GTDEPTH.m              00 000 000 000:  GT Depth
 GTTVD.m                00 000 000 000:  GT True Vertical Depth
 GTTQ.degC              00 000 000 000:  GT Quartz Temperature
 GTTN.NONE              00 000 000 000:  GT Test Number
#Other Information
#
#WARRANTY: Halliburton will use its best efforts to furnish customers with 
#accurate information and interpretations that are part of, and incident to, the services 
#provided.  However, Halliburton cannot and does not warrant the accuracy 
#or correctness of such information and interpretations.  Under no circumstances should any 
#such information or interpretation be relied upon as the sole basis for any drilling, 
#completion, production, or financial decision or any procedure involving any risk to the 
#safety of any drilling venture, drilling rig or its crew or any other third party.  The 
#Customer has full responsibility for all drilling, completion and production operation.  
#Halliburton makes no representations or warranties, either expressed or 
#implied, including, but not limited to, the implied warranties of merchantability or fitness 
#for a particular purpose, with respect to the services rendered.  In no event will 
#Halliburton be liable for failure to obtain any particular results or for 
#any damages, including, but not limited to, indirect, special or consequential damages, 
#resulting from the use of any information or interpretation provided by Halliburton.
#
~A           TIME            GTET   GTPQH  GTDEPTH  GTTVD  GTTQ  GTTN 
# ...
   06:16:55.000.25-Aug-2020 253.00 4805.75 4397.01 2075.58 73.34 2.00
   06:16:55.200.25-Aug-2020 253.20 4805.75 4397.01 2075.58 73.34 2.00
   06:16:55.400.25-Aug-2020 253.40 4802.62 4397.01 2075.58 73.34 2.00
   06:16:55.600.25-Aug-2020 253.60 4812.26 4397.01 2075.58 73.34 2.00
   06:16:55.800.25-Aug-2020 253.80 4804.21 4397.01 2075.58 73.34 2.00
   06:16:56.000.25-Aug-2020 254.00 4808.84 4397.01 2075.58 73.34 2.00
   06:16:56.200.25-Aug-2020 254.20 4808.84 4397.01 2075.58 73.34 2.00
   06:16:56.400.25-Aug-2020 254.40 4804.07 4397.01 2075.58 73.34 2.00
   06:16:56.600.25-Aug-2020 254.60 4811.32 4397.01 2075.58 73.34 2.00
   06:16:56.800.25-Aug-2020 254.80 4803.14 4397.01 2075.58 73.34 2.00
   06:16:57.000.25-Aug-2020 255.00 4808.79 4397.01 2075.58 73.34 2.00
   06:16:57.200.25-Aug-2020 255.20 4806.04 4397.01 2075.58 73.34 2.00
   06:16:57.400.25-Aug-2020 255.40 4803.69 4397.01 2075.58 73.34 2.00
   06:16:57.600.25-Aug-2020 255.60 4802.11 4397.01 2075.58 73.34 2.00
   06:16:57.800.25-Aug-2020 255.80 4802.41 4397.01 2075.58 73.34 2.00
   06:16:58.000.25-Aug-2020 256.00 4802.21 4397.01 2075.58 73.34 2.00
   06:16:58.200.25-Aug-2020 256.20 4802.21 4397.01 2075.58 73.34 2.00
   06:16:58.400.25-Aug-2020 256.40 4803.02 4397.01 2075.58 73.34 2.00
   06:16:58.600.25-Aug-2020 256.60 4803.58 4397.01 2075.58 73.34 2.00
   06:16:58.800.25-Aug-2020 256.80 4803.38 4397.01 2075.58 73.34 2.00
   06:16:59.000.25-Aug-2020 257.00 4803.10 4397.01 2075.58 73.34 2.00
   06:16:59.200.25-Aug-2020 257.20 4803.10 4397.01 2075.58 73.34 2.00
   06:16:59.400.25-Aug-2020 257.40 4802.86 4397.01 2075.58 73.34 2.00
   06:16:59.600.25-Aug-2020 257.60 4802.36 4397.01 2075.58 73.34 2.00
   06:16:59.800.25-Aug-2020 257.80 4802.55 4397.01 2075.58 73.34 2.00
   06:17:00.000.25-Aug-2020 258.00 4802.06 4397.01 2075.58 73.34 2.00
   06:17:00.200.25-Aug-2020 258.20 4802.06 4397.01 2075.58 73.34 2.00
   06:17:00.400.25-Aug-2020 258.40 4807.49 4397.01 2075.58 73.34 2.00
   06:17:00.600.25-Aug-2020 258.60 4811.52 4397.01 2075.58 73.34 2.00
   06:17:00.800.25-Aug-2020 258.80 4803.75 4397.01 2075.58 73.34 2.00
   06:17:01.000.25-Aug-2020 259.00 4801.33 4397.01 2075.58 73.34 2.00
   06:17:01.200.25-Aug-2020 259.20 4800.05 4397.01 2075.58 73.34 2.00
   06:17:01.400.25-Aug-2020 259.40 4800.68 4397.01 2075.58 73.34 2.00
   06:17:01.600.25-Aug-2020 259.60 4802.00 4397.01 2075.58 73.34 2.00
   06:17:01.800.25-Aug-2020 259.80 4802.92 4397.01 2075.58 73.34 2.00
   06:17:02.000.25-Aug-2020 260.00 4802.83 4397.01 2075.58 73.34 2.00
   06:17:02.200.25-Aug-2020 260.20 4802.83 4397.01 2075.58 73.34 2.00
   06:17:02.400.25-Aug-2020 260.40 4802.26 4397.01 2075.58 73.34 2.00
   06:17:02.600.25-Aug-2020 260.60 4801.41 4397.01 2075.58 73.34 2.00
   06:17:02.800.25-Aug-2020 260.80 4802.57 4397.01 2075.58 73.34 2.00
   06:17:03.000.25-Aug-2020 261.00 4803.19 4397.01 2075.58 73.34 2.00
   06:17:03.200.25-Aug-2020 261.20 4803.19 4397.01 2075.58 73.34 2.00
   06:17:03.400.25-Aug-2020 261.40 4802.02 4397.01 2075.58 73.34 2.00
   06:17:03.600.25-Aug-2020 261.60 4803.20 4397.01 2075.58 73.34 2.00
   06:17:03.800.25-Aug-2020 261.80 4805.38 4397.01 2075.58 73.34 2.00
   06:17:04.000.25-Aug-2020 262.00 4810.59 4397.01 2075.58 73.34 2.00
   06:17:04.200.25-Aug-2020 262.20 4810.59 4397.01 2075.58 73.34 2.00
   06:17:04.400.25-Aug-2020 262.40 4802.38 4397.01 2075.58 73.34 2.00
   06:17:04.600.25-Aug-2020 262.60 4801.49 4397.01 2075.58 73.34 2.00
   06:17:04.800.25-Aug-2020 262.80 4809.09 4397.01 2075.58 73.34 2.00
   06:17:05.000.25-Aug-2020 263.00 4800.95 4397.01 2075.58 73.34 2.00
   06:17:05.200.25-Aug-2020 263.20 4805.83 4397.01 2075.58 73.34 2.00
   06:17:05.400.25-Aug-2020 263.40 4803.44 4397.01 2075.58 73.34 2.00
   06:17:05.600.25-Aug-2020 263.60 4801.33 4397.01 2075.58 73.34 2.00
   06:17:05.800.25-Aug-2020 263.80 4799.65 4397.01 2075.58 73.34 2.00
   06:17:06.000.25-Aug-2020 264.00 4802.44 4397.01 2075.58 73.34 2.00
   06:17:06.200.25-Aug-2020 264.20 4802.44 4397.01 2075.58 73.34 2.00
   06:17:06.400.25-Aug-2020 264.40 4809.91 4397.01 2075.58 73.34 2.00
   06:17:06.600.25-Aug-2020 264.60 4803.48 4397.01 2075.58 73.34 2.00
   06:17:06.800.25-Aug-2020 264.80 4801.88 4397.01 2075.58 73.34 2.00
   06:17:07.000.25-Aug-2020 265.00 4801.31 4397.01 2075.58 73.34 2.00
   06:17:07.200.25-Aug-2020 265.20 4801.31 4397.01 2075.58 73.34 2.00
   06:17:07.400.25-Aug-2020 265.40 4806.70 4397.01 2075.58 73.34 2.00
   06:17:07.600.25-Aug-2020 265.60 4810.76 4397.01 2075.58 73.34 2.00
   06:17:07.800.25-Aug-2020 265.80 4803.83 4397.01 2075.58 73.34 2.00
   06:17:08.000.25-Aug-2020 266.00 4801.87 4397.01 2075.58 73.34 2.00
   06:17:08.200.25-Aug-2020 266.20 4801.87 4397.01 2075.58 73.34 2.00
   06:17:08.400.25-Aug-2020 266.40 4802.88 4397.01 2075.58 73.33 2.00
   06:17:08.600.25-Aug-2020 266.60 4806.52 4397.01 2075.58 73.34 2.00
   06:17:08.800.25-Aug-2020 266.80 4811.13 4397.01 2075.58 73.33 2.00
   06:17:09.000.25-Aug-2020 267.00 4804.27 4397.01 2075.58 73.33 2.00
   06:17:09.200.25-Aug-2020 267.20 4801.54 4397.01 2075.58 73.33 2.00
   06:17:09.400.25-Aug-2020 267.40 4800.71 4397.01 2075.58 73.33 2.00
   06:17:09.600.25-Aug-2020 267.60 4800.98 4397.01 2075.58 73.33 2.00
   06:17:09.800.25-Aug-2020 267.80 4800.75 4397.01 2075.58 73.33 2.00
   06:17:10.000.25-Aug-2020 268.00 4801.16 4397.01 2075.58 73.33 2.00
   06:17:10.200.25-Aug-2020 268.20 4801.16 4397.01 2075.58 73.33 2.00
   06:17:10.400.25-Aug-2020 268.40 4801.65 4397.01 2075.58 73.33 2.00
   06:17:10.600.25-Aug-2020 268.60 4801.49 4397.01 2075.58 73.33 2.00
   06:17:10.800.25-Aug-2020 268.80 4801.62 4397.01 2075.58 73.33 2.00
   06:17:11.000.25-Aug-2020 269.00 4801.56 4397.01 2075.58 73.33 2.00
   06:17:11.200.25-Aug-2020 269.20 4801.56 4397.01 2075.58 73.33 2.00
   06:17:11.400.25-Aug-2020 269.40 4800.95 4397.01 2075.58 73.33 2.00
   06:17:11.600.25-Aug-2020 269.60 4801.24 4397.01 2075.58 73.33 2.00
   06:17:11.800.25-Aug-2020 269.80 4799.94 4397.01 2075.58 73.33 2.00
   06:17:12.000.25-Aug-2020 270.00 4800.56 4397.01 2075.58 73.33 2.00
   06:17:12.200.25-Aug-2020 270.20 4800.56 4397.01 2075.58 73.33 2.00
   06:17:12.400.25-Aug-2020 270.40 4807.68 4397.01 2075.58 73.33 2.00
   06:17:12.600.25-Aug-2020 270.60 4800.63 4397.01 2075.58 73.33 2.00
   06:17:12.800.25-Aug-2020 270.80 4800.04 4397.01 2075.58 73.33 2.00
   06:17:13.000.25-Aug-2020 271.00 4798.69 4397.01 2075.58 73.33 2.00
   06:17:13.200.25-Aug-2020 271.20 4799.48 4397.01 2075.58 73.33 2.00
   06:17:13.400.25-Aug-2020 271.40 4800.61 4397.01 2075.58 73.33 2.00
   06:17:13.600.25-Aug-2020 271.60 4800.77 4397.01 2075.58 73.33 2.00
   06:17:13.800.25-Aug-2020 271.80 4800.19 4397.01 2075.58 73.33 2.00
   06:17:14.000.25-Aug-2020 272.00 4800.24 4397.01 2075.58 73.33 2.00
   06:17:14.200.25-Aug-2020 272.20 4800.24 4397.01 2075.58 73.33 2.00
   06:17:14.400.25-Aug-2020 272.40 4800.14 4397.01 2075.58 73.33 2.00
   06:17:14.600.25-Aug-2020 272.60 4801.32 4397.01 2075.58 73.33 2.00
   06:17:14.800.25-Aug-2020 272.80 4801.21 4397.01 2075.58 73.33 2.00
   06:17:15.000.25-Aug-2020 273.00 4800.31 4397.01 2075.58 73.33 2.00
   06:17:15.200.25-Aug-2020 273.20 4800.31 4397.01 2075.58 73.33 2.00
   06:17:15.400.25-Aug-2020 273.40 4799.52 4397.01 2075.58 73.33 2.00
   06:17:15.600.25-Aug-2020 273.60 4810.50 4397.01 2075.58 73.33 2.00
   06:17:15.800.25-Aug-2020 273.80 4808.62 4397.01 2075.58 73.33 2.00
   06:17:16.000.25-Aug-2020 274.00 4802.51 4397.01 2075.58 73.33 2.00
   06:17:16.200.25-Aug-2020 274.20 4802.51 4397.01 2075.58 73.33 2.00
   06:17:16.400.25-Aug-2020 274.40 4801.32 4397.01 2075.58 73.33 2.00
   06:17:16.600.25-Aug-2020 274.60 4801.42 4397.01 2075.58 73.33 2.00
   06:17:16.800.25-Aug-2020 274.80 4805.56 4397.01 2075.58 73.33 2.00
   06:17:17.000.25-Aug-2020 275.00 4811.11 4397.01 2075.58 73.33 2.00
   06:17:17.200.25-Aug-2020 275.20 4804.53 4397.01 2075.58 73.33 2.00
   06:17:17.400.25-Aug-2020 275.40 4802.12 4397.01 2075.58 73.33 2.00
   06:17:17.600.25-Aug-2020 275.60 4801.46 4397.01 2075.58 73.33 2.00
   06:17:17.800.25-Aug-2020 275.80 4801.38 4397.01 2075.58 73.33 2.00
