~Version Information
 VERS.                  2.0:   CWLS log ASCII Standard -VERSION 2.0
 WRAP.                   NO:   One line per depth step
~Well Information Block
#MNEM.UNIT     VALUE/NAME     DESCRIPTION
#---------     -----------    ---------------------------
 STRT.S             11:11:27 25-Aug-20: START TIME 11:11:27 25-Aug-20
 STOP.S             11:18:24 25-Aug-20: STOP TIME  11:18:24 25-Aug-20
 STEP.S                   0.00: STEP TIME
 NULL.                 -999.25: NULL VALUE
 DFWT.                        :  DIST FWL TEXT
 DFST.                        :  DIST FSL TEXT
 DMF .             Drill Floor:  DRILL MEAS FROM
 STIM.      09.59.28 01-Jun-20:  START TIME
 DATE.      05.00.00 28-Aug-20:  END TIME
 SPUD.               01-Jun-20:  SPUD DATE
 NREF.                    Grid:  NORTH REFERENCE
 HPTY.       Minimum Curvature:  HOLE POS TYPE
 DMOD.             Drill Model:  DRILL MOD DESC
 SVYD.                  Survey:  SURVEY DESC
 ILTD.               Lithology:  INTERP LTH DESC
 FTOP.          Formation Tops:  FORM TOPS DESC
 SON .        AZ-XX-0905455768:  JOB NUMBER
 WTYP.                Deviated:  WELL TYPE
 COMP.     BP Exploration(Caspian Sea):  COMPANY
 BASE.              Azerbaijan:  LOGGING EQUIPMENT BASE LOCATION
 REGN.                   EESSA:  REGION
 CTRY.              Azerbaijan:  COUNTRY NAME
 FLD .                     ACG:  FIELD NAME
 SRVC.          Turan Drilling:  CONTRACTOR
 WELL.                     B41:  WELL NAME
 RIG .           Central Azeri:  RIG NAME
 DCON.         Sperry Drilling:  DIRECTNL CONTR
 PDAT.          Mean Sea Level:  PERMANENT DATUM
 MDS .        Operator Entered:  MAG DATA SOURCE
 API .                        :  API NUMBER
 CNTY.                        :  COUNTY
 PROV.                        :  PROVINCE
 STAT.                        :  STATE
 UWI .                        :  UNIQUE WELL IDENTIFIER
 LOC .                        :  LOCATION
 LMF .             Drill Floor:  LOG MEASURED FROM
 TVDS.m                  43.29:  TVDSS CORRECTN
 LATI.deg                40.03:  LATITUDE
 LONG.deg                51.35:  LONGITUDE
 WHNS.m                  12.98:  WELL HEAD N/S
 WHEW.m                  -6.62:  WELL HEAD E/W
 UTMX.m              530128.28:  UTM X
 UTMY.m             4433192.49:  UTM Y
 DFWL.m                   0.00:  DISTANCE FWL
 DFSL.m                   0.00:  DISTANCE FSL
 SDEP.m                 378.00:  START DEPTH
 TDD .m                4463.01:  TOTAL DEPTH (DRILLER)
 VSDR.deg               296.18:  VERT SEC DIRECT
 GVFD.g                   1.00:  GRAVITY FIELD
 MFLD.nT              50269.00:  MAGNETIC FIELD
 MDIP.deg                59.50:  MAGNETIC DIP
 MDEC.deg                 6.44:  MAGNETIC DECL
 GRDC.deg                 0.20:  GRID CORRECTION
 AZTC.deg                 6.24:  AZM TOTAL CORR
 EPD .m                   0.00:  ELEVATION
 EGL .m                   0.00:  GROUND ELEVATION
 WDMS.m                 128.20:  WD ELEV
 APD .m                  43.29:  DEPTH ABOVE PD
 AGAP.m                  43.29:  AIR GAP
 VSEW.m                  -6.62:  VERT SEC E/W
 VSNS.m                  12.98:  VERT SEC N/S
 EKB .m                  43.29:  KB ELEVATION
 EDF .m                  43.29:  DF ELEVATION
 TDL .m                 147.00:  TOTAL DEPTH (LOGGER)
 VSC .                       0:  VS TO CLOSURE
 MAGU.                 1849241:  MAGUTM CHECKSUM
~Parameter Information Block
#MNEM.UNIT       Value        Description
#---------     -----------    ---------------------------
 AV  .mps                 0.70:  Ann Velocity 
 AZIF.deg               269.43:  Azm, Final 
 BHAT.        Rotary Steerable:  BHA Type 
 BROT.°/30m              -0.03:  Build Rotating 
 BS  .in                  8.50:  Bit Size 
 BSZ .in                  8.50:  Bit Size 
 BTPL.psig              880.00:  Bit Press Loss 
 CABU.                      No:  Customer Abuse 
 CGEO.          Parviz Guliyev:  Customer Geo 
 COMM.                     ìra:  Run Comments 1 
 TCS .hr                 64.59:  Time Ciculation Ended 
 CV  .mps                 2.17:  Crit Velocity 
 DD1 .            Nonso Okafor:  Direct Drillr 1 
 DDSV.               Geo-Pilot:  DD Service 
 DEFF.%                  98.00:  % Det Eff 
 DLRX.°/30m               0.81:  Dogleg Rot Max 
 DLSO.°/30m               0.55:  Dogleg Oriented 
 DLSX.°/30m               0.81:  Dogleg Str Max 
 DRET.      23.50.00 24-Aug-20:  Drill End Time 
 DRST.      07.34.24 22-Aug-20:  Drill Start Tim 
 DTIM.hr                 15.29:  Time Drilling 
 EDEP.m                4461.01:  End Depth 
 ENG1.       Zam Abdullah Sani:  Engineer 1 
 ENG2.         Dair Mahammadov:  Engineer 2 
 ENG3.          Rustam Gadirov:  Engineer 3 
 ETIM.      07.34.24 26-Aug-20:  End Time 
 FLOI.gpm               550.00:  Flow In 
 FLON.gpm               400.00:  Flow In Min 
 FLOS.cptm                1.00:  Fluid Loss 
 FLOX.gpm               600.00:  Flow In Max 
 FTRO.       Formation Presure:  FTWD Run Obj 
 HFLO.                      No:  High Flow 
 HPRE.                      No:  High Pressure 
 HTEM.                      No:  High Temp 
 HYDO.m                   1.80:  Hydro Offset 
 IFIN.deg                66.72:  Inc, Final 
 IMAX.deg                67.42:  Inc Max 
 IMIN.deg                66.72:  Inc Min 
 IMND.m                4408.37:  Inc Min Depth 
 IMXD.m                4323.37:  Inc Max Depth 
 JARR.                      No:  Jarring 
 LETM.      23.50.00 24-Aug-20:  Log End Time 
 LOST.hr                     0:  Lost Rig Time 
 LSTM.      07.34.24 22-Aug-20:  Log Start Time 
 MDCL.ppm             38000.00:  Mud Chlorides 
 MDES.     Inversion Oil/Synthetic:  Mud Desc 
 DFD .sg                  1.40:  Mud Density 
 MDMN.sg                  1.38:  Dens Mud Min 
 MDMX.sg                  1.41:  Dens Mud Max 
 MOIL.                    70.5:  Run Mud Oil % 
 MOWR.                   68:32:  Run Mud OWR 
 MSND.                    0.01:  Run Mud Sand % 
 MSOL.                   17.68:  Run Mud Solids% 
 DFV .spqt               77.00:  Mud Viscosity 
 MWOD.in                  6.75:  MWD Tool OD 
 MWSI.                      No:  Serv Intrp, MWD 
 OTIM.hr                159.42:  Time Operating 
 PCON.           Look Like New:  Pad Condition 
 PMAX.psia             8730.94:  Press Op, Max 
 PV  .cP                 31.00:  Mud PV 
 RUN .                     900:  Run Number 
 ROPA.m/hr               12.00:  ROP Avg 
 ROPN.m/hr                7.00:  ROP Min 
 ROPX.m/hr               17.00:  ROP Max 
 RPMA.rpm               120.00:  RPM Surface Avg 
 RPMN.rpm                60.00:  RPM Surface Min 
 RPMX.rpm               140.00:  RPM Surface Max 
 RRUN.                    L604:  Rig Run Number 
 RTIM.hr                 10.00:  Time Reaming 
 SAZI.deg               270.56:  Azm, Start 
 SDEP.m                4314.01:  Start Depth 
 SIDD.                      No:  Serv Intrp, DD 
 SINC.deg                67.42:  Inc, Start 
 SPPA.psig             3300.00:  SPP Avg 
 SPPN.psig             1750.00:  SPP Min 
 SPPX.psig             4630.00:  SPP Max 
 STIM.      11.00.00 21-Aug-20:  Start Time 
 SVCS.                 DD, MWD:  Services 
 SVER.                    9.20:  Sperry Version 
 TDAT.m                4461.01:  Tot Depth Attmp 
 TDDF.                      No:  Trip for DD 
 TDLG.m                 147.00:  Tot Depth Loggd 
 TFF .                      No:  Trip for Fail 
 TQAA.f-kp               16.00:  Torque Abs Avg 
 TQAN.f-kp               14.00:  Torque Abs Min 
 TQAX.f-kp               20.00:  Torque Abs Max 
 TRRT.°/30m              -0.14:  Turn Rotating 
 MRT .                    HCIM:  Maximum Recorded Temperature 
 TTMX.degC               78.00:  Max Tool Temp 
 VS01.                90515425:  Virtual Str1 SN 
 VS02.                90545184:  Virtual Str2 SN 
 VS03.                90527809:  Virtual Str3 SN 
 VS04.                90515232:  Virtual Str4 SN 
 VS05.                90621207:  Virtual Str5 SN 
 VS06.                90619737:  Virtual Str6 SN 
 WBMN.klb                 2.00:  WOB Min 
 WITN.          Keith Dischler:  Customer Rep 
 WITN.           Faig Mammadov:  Customer Rep 2 
 WOBA.klb                 5.00:  WOB Avg 
 WOBX.klb                 8.00:  WOB Max 
 YP  .lhf2               32.00:  Yield Point 
~Curve Information Block
#MNEM.UNIT                 API CODE     Curve Description
#---------               -----------    ---------------------------
 TIME.HHMMSS            00 000 000 000:  GT Time & Date
 GTET.sec               00 000 000 000:  GT Elapsed Test Time
 GTPQH.psia             00 000 000 000:  GT HR Quartz Pressure
 GTDEPTH.m              00 000 000 000:  GT Depth
 GTTVD.m                00 000 000 000:  GT True Vertical Depth
 GTTQ.degC              00 000 000 000:  GT Quartz Temperature
 GTTN.NONE              00 000 000 000:  GT Test Number
#Other Information
#
#WARRANTY: Halliburton will use its best efforts to furnish customers with 
#accurate information and interpretations that are part of, and incident to, the services 
#provided.  However, Halliburton cannot and does not warrant the accuracy 
#or correctness of such information and interpretations.  Under no circumstances should any 
#such information or interpretation be relied upon as the sole basis for any drilling, 
#completion, production, or financial decision or any procedure involving any risk to the 
#safety of any drilling venture, drilling rig or its crew or any other third party.  The 
#Customer has full responsibility for all drilling, completion and production operation.  
#Halliburton makes no representations or warranties, either expressed or 
#implied, including, but not limited to, the implied warranties of merchantability or fitness 
#for a particular purpose, with respect to the services rendered.  In no event will 
#Halliburton be liable for failure to obtain any particular results or for 
#any damages, including, but not limited to, indirect, special or consequential damages, 
#resulting from the use of any information or interpretation provided by Halliburton.
#
~A           TIME            GTET   GTPQH  GTDEPTH  GTTVD  GTTQ  GTTN  
# ...
   11:15:13.000.25-Aug-2020 226.00 2184.60 4320.01 2045.42 71.51 10.00
   11:15:13.200.25-Aug-2020 226.20 2184.60 4320.01 2045.42 71.51 10.00
   11:15:13.400.25-Aug-2020 226.40 2186.80 4320.01 2045.42 71.51 10.00
   11:15:13.600.25-Aug-2020 226.60 2187.87 4320.01 2045.42 71.52 10.00
   11:15:13.800.25-Aug-2020 226.80 2188.80 4320.01 2045.42 71.51 10.00
   11:15:14.000.25-Aug-2020 227.00 2189.95 4320.01 2045.42 71.52 10.00
   11:15:14.200.25-Aug-2020 227.20 2190.68 4320.01 2045.42 71.52 10.00
   11:15:14.400.25-Aug-2020 227.40 2192.53 4320.01 2045.42 71.52 10.00
   11:15:14.600.25-Aug-2020 227.60 2193.51 4320.01 2045.42 71.52 10.00
   11:15:14.800.25-Aug-2020 227.80 2194.70 4320.01 2045.42 71.52 10.00
   11:15:15.000.25-Aug-2020 228.00 2196.01 4320.01 2045.42 71.52 10.00
   11:15:15.200.25-Aug-2020 228.20 2197.21 4320.01 2045.42 71.52 10.00
   11:15:15.400.25-Aug-2020 228.40 2198.37 4320.01 2045.42 71.52 10.00
   11:15:15.600.25-Aug-2020 228.60 2199.28 4320.01 2045.42 71.52 10.00
   11:15:15.800.25-Aug-2020 228.80 2200.72 4320.01 2045.42 71.52 10.00
   11:15:16.000.25-Aug-2020 229.00 2201.99 4320.01 2045.42 71.52 10.00
   11:15:16.200.25-Aug-2020 229.20 2201.99 4320.01 2045.42 71.52 10.00
   11:15:16.400.25-Aug-2020 229.40 2203.80 4320.01 2045.42 71.52 10.00
   11:15:16.600.25-Aug-2020 229.60 2204.75 4320.01 2045.42 71.52 10.00
   11:15:16.800.25-Aug-2020 229.80 2205.58 4320.01 2045.42 71.52 10.00
   11:15:17.000.25-Aug-2020 230.00 2206.55 4320.01 2045.42 71.52 10.00
   11:15:17.200.25-Aug-2020 230.20 2206.55 4320.01 2045.42 71.52 10.00
   11:15:17.400.25-Aug-2020 230.40 2208.44 4320.01 2045.42 71.52 10.00
   11:15:17.600.25-Aug-2020 230.60 2209.18 4320.01 2045.42 71.52 10.00
   11:15:17.800.25-Aug-2020 230.80 2209.95 4320.01 2045.42 71.52 10.00
   11:15:18.000.25-Aug-2020 231.00 2210.77 4320.01 2045.42 71.52 10.00
   11:15:18.200.25-Aug-2020 231.20 2211.57 4320.01 2045.42 71.52 10.00
   11:15:18.400.25-Aug-2020 231.40 2212.40 4320.01 2045.42 71.52 10.00
   11:15:18.600.25-Aug-2020 231.60 2213.21 4320.01 2045.42 71.52 10.00
   11:15:18.800.25-Aug-2020 231.80 2213.95 4320.01 2045.42 71.52 10.00
   11:15:19.000.25-Aug-2020 232.00 2214.74 4320.01 2045.42 71.52 10.00
   11:15:19.200.25-Aug-2020 232.20 2214.74 4320.01 2045.42 71.52 10.00
   11:15:19.400.25-Aug-2020 232.40 2216.94 4320.01 2045.42 71.52 10.00
   11:15:19.600.25-Aug-2020 232.60 2217.77 4320.01 2045.42 71.52 10.00
   11:15:19.800.25-Aug-2020 232.80 2218.57 4320.01 2045.42 71.52 10.00
   11:15:20.000.25-Aug-2020 233.00 2219.58 4320.01 2045.42 71.52 10.00
   11:15:20.200.25-Aug-2020 233.20 2219.58 4320.01 2045.42 71.52 10.00
   11:15:20.400.25-Aug-2020 233.40 2221.43 4320.01 2045.42 71.52 10.00
   11:15:20.600.25-Aug-2020 233.60 2222.36 4320.01 2045.42 71.52 10.00
   11:15:20.800.25-Aug-2020 233.80 2223.32 4320.01 2045.42 71.52 10.00
   11:15:21.000.25-Aug-2020 234.00 2224.22 4320.01 2045.42 71.52 10.00
   11:15:21.200.25-Aug-2020 234.20 2224.22 4320.01 2045.42 71.52 10.00
   11:15:21.400.25-Aug-2020 234.40 2226.81 4320.01 2045.42 71.52 10.00
   11:15:21.600.25-Aug-2020 234.60 2228.42 4320.01 2045.42 71.52 10.00
   11:15:21.800.25-Aug-2020 234.80 2230.71 4320.01 2045.42 71.52 10.00
   11:15:22.000.25-Aug-2020 235.00 2232.36 4320.01 2045.42 71.52 10.00
   11:15:22.200.25-Aug-2020 235.20 2233.67 4320.01 2045.42 71.52 10.00
   11:15:22.400.25-Aug-2020 235.40 2234.71 4320.01 2045.42 71.52 10.00
   11:15:22.600.25-Aug-2020 235.60 2236.86 4320.01 2045.42 71.52 10.00
   11:15:22.800.25-Aug-2020 235.80 2237.68 4320.01 2045.42 71.52 10.00
   11:15:23.000.25-Aug-2020 236.00 2238.52 4320.01 2045.42 71.52 10.00
   11:15:23.200.25-Aug-2020 236.20 2238.52 4320.01 2045.42 71.52 10.00
   11:15:23.400.25-Aug-2020 236.40 2241.04 4320.01 2045.42 71.52 10.00
   11:15:23.600.25-Aug-2020 236.60 2241.56 4320.01 2045.42 71.52 10.00
   11:15:23.800.25-Aug-2020 236.80 2243.48 4320.01 2045.42 71.52 10.00
   11:15:24.000.25-Aug-2020 237.00 2244.45 4320.01 2045.42 71.52 10.00
   11:15:24.200.25-Aug-2020 237.20 2244.45 4320.01 2045.42 71.52 10.00
   11:15:24.400.25-Aug-2020 237.40 2246.41 4320.01 2045.42 71.52 10.00
   11:15:24.600.25-Aug-2020 237.60 2247.50 4320.01 2045.42 71.52 10.00
   11:15:24.800.25-Aug-2020 237.80 2248.77 4320.01 2045.42 71.52 10.00
   11:15:25.000.25-Aug-2020 238.00 2249.82 4320.01 2045.42 71.52 10.00
   11:15:25.200.25-Aug-2020 238.20 2249.82 4320.01 2045.42 71.52 10.00
   11:15:25.400.25-Aug-2020 238.40 2252.15 4320.01 2045.42 71.52 10.00
   11:15:25.600.25-Aug-2020 238.60 2252.99 4320.01 2045.42 71.52 10.00
   11:15:25.800.25-Aug-2020 238.80 2254.01 4320.01 2045.42 71.52 10.00
   11:15:26.000.25-Aug-2020 239.00 2255.08 4320.01 2045.42 71.52 10.00
   11:15:26.200.25-Aug-2020 239.20 2255.08 4320.01 2045.42 71.52 10.00
   11:15:26.400.25-Aug-2020 239.40 2257.51 4320.01 2045.42 71.52 10.00
   11:15:26.600.25-Aug-2020 239.60 2258.50 4320.01 2045.42 71.52 10.00
   11:15:26.800.25-Aug-2020 239.80 2259.42 4320.01 2045.42 71.52 10.00
   11:15:27.000.25-Aug-2020 240.00 2260.66 4320.01 2045.42 71.52 10.00
   11:15:27.200.25-Aug-2020 240.20 2260.66 4320.01 2045.42 71.52 10.00
   11:15:27.400.25-Aug-2020 240.40 2262.46 4320.01 2045.42 71.52 10.00
   11:15:27.600.25-Aug-2020 240.60 2262.91 4320.01 2045.42 71.52 10.00
   11:15:27.800.25-Aug-2020 240.80 2264.72 4320.01 2045.42 71.52 10.00
   11:15:28.000.25-Aug-2020 241.00 2265.63 4320.01 2045.42 71.52 10.00
   11:15:28.200.25-Aug-2020 241.20 2266.17 4320.01 2045.42 71.52 10.00
   11:15:28.400.25-Aug-2020 241.40 2266.97 4320.01 2045.42 71.52 10.00
   11:15:28.600.25-Aug-2020 241.60 2267.78 4320.01 2045.42 71.52 10.00
   11:15:28.800.25-Aug-2020 241.80 2268.49 4320.01 2045.42 71.52 10.00
   11:15:29.000.25-Aug-2020 242.00 2269.19 4320.01 2045.42 71.52 10.00
   11:15:29.200.25-Aug-2020 242.20 2269.19 4320.01 2045.42 71.52 10.00
   11:15:29.400.25-Aug-2020 242.40 2270.63 4320.01 2045.42 71.52 10.00
   11:15:29.600.25-Aug-2020 242.60 2271.39 4320.01 2045.42 71.52 10.00
   11:15:29.800.25-Aug-2020 242.80 2272.42 4320.01 2045.42 71.52 10.00
   11:15:30.000.25-Aug-2020 243.00 2273.41 4320.01 2045.42 71.52 10.00
   11:15:30.200.25-Aug-2020 243.20 2274.22 4320.01 2045.42 71.52 10.00
   11:15:30.400.25-Aug-2020 243.40 2274.95 4320.01 2045.42 71.52 10.00
   11:15:30.600.25-Aug-2020 243.60 2275.71 4320.01 2045.42 71.52 10.00
   11:15:30.800.25-Aug-2020 243.80 2276.45 4320.01 2045.42 71.52 10.00
   11:15:31.000.25-Aug-2020 244.00 2277.13 4320.01 2045.42 71.52 10.00
   11:15:31.200.25-Aug-2020 244.20 2277.13 4320.01 2045.42 71.52 10.00
   11:15:31.400.25-Aug-2020 244.40 2278.67 4320.01 2045.42 71.52 10.00
   11:15:31.600.25-Aug-2020 244.60 2279.57 4320.01 2045.42 71.52 10.00
   11:15:31.800.25-Aug-2020 244.80 2280.38 4320.01 2045.42 71.52 10.00
   11:15:32.000.25-Aug-2020 245.00 2281.27 4320.01 2045.42 71.52 10.00
   11:15:32.200.25-Aug-2020 245.20 2281.27 4320.01 2045.42 71.52 10.00
   11:15:32.400.25-Aug-2020 245.40 2282.72 4320.01 2045.42 71.52 10.00
   11:15:32.600.25-Aug-2020 245.60 2283.48 4320.01 2045.42 71.52 10.00
   11:15:32.800.25-Aug-2020 245.80 2284.27 4320.01 2045.42 71.52 10.00
   11:15:33.000.25-Aug-2020 246.00 2285.02 4320.01 2045.42 71.52 10.00
   11:15:33.200.25-Aug-2020 246.20 2285.83 4320.01 2045.42 71.52 10.00
   11:15:33.400.25-Aug-2020 246.40 2286.65 4320.01 2045.42 71.52 10.00
   11:15:33.600.25-Aug-2020 246.60 2287.41 4320.01 2045.42 71.52 10.00
   11:15:33.800.25-Aug-2020 246.80 2288.15 4320.01 2045.42 71.52 10.00
   11:15:34.000.25-Aug-2020 247.00 2288.85 4320.01 2045.42 71.52 10.00
   11:15:34.200.25-Aug-2020 247.20 2289.58 4320.01 2045.42 71.52 10.00
   11:15:34.400.25-Aug-2020 247.40 2290.19 4320.01 2045.42 71.52 10.00
   11:15:34.600.25-Aug-2020 247.60 2291.11 4320.01 2045.42 71.52 10.00
   11:15:34.800.25-Aug-2020 247.80 2291.74 4320.01 2045.42 71.52 10.00
   11:15:35.000.25-Aug-2020 248.00 2292.32 4320.01 2045.42 71.52 10.00
   11:15:35.200.25-Aug-2020 248.20 2292.32 4320.01 2045.42 71.52 10.00
   11:15:35.400.25-Aug-2020 248.40 2293.58 4320.01 2045.42 71.52 10.00
