~Version Information
 VERS.                  2.0:   CWLS log ASCII Standard -VERSION 2.0
 WRAP.                   NO:   One line per depth step
~Well Information Block
#MNEM.UNIT     VALUE/NAME     DESCRIPTION
#---------     -----------    ---------------------------
 STRT.S             07:44:59 25-Aug-20: START TIME 07:44:59 25-Aug-20
 STOP.S             07:51:54 25-Aug-20: STOP TIME  07:51:54 25-Aug-20
 STEP.S                   0.00: STEP TIME
 NULL.                 -999.25: NULL VALUE
 DFWT.                        :  DIST FWL TEXT
 DFST.                        :  DIST FSL TEXT
 DMF .             Drill Floor:  DRILL MEAS FROM
 STIM.      09.59.28 01-Jun-20:  START TIME
 DATE.      05.00.00 28-Aug-20:  END TIME
 SPUD.               01-Jun-20:  SPUD DATE
 NREF.                    Grid:  NORTH REFERENCE
 HPTY.       Minimum Curvature:  HOLE POS TYPE
 DMOD.             Drill Model:  DRILL MOD DESC
 SVYD.                  Survey:  SURVEY DESC
 ILTD.               Lithology:  INTERP LTH DESC
 FTOP.          Formation Tops:  FORM TOPS DESC
 SON .        AZ-XX-0905455768:  JOB NUMBER
 WTYP.                Deviated:  WELL TYPE
 COMP.     BP Exploration(Caspian Sea):  COMPANY
 BASE.              Azerbaijan:  LOGGING EQUIPMENT BASE LOCATION
 REGN.                   EESSA:  REGION
 CTRY.              Azerbaijan:  COUNTRY NAME
 FLD .                     ACG:  FIELD NAME
 SRVC.          Turan Drilling:  CONTRACTOR
 WELL.                     B41:  WELL NAME
 RIG .           Central Azeri:  RIG NAME
 DCON.         Sperry Drilling:  DIRECTNL CONTR
 PDAT.          Mean Sea Level:  PERMANENT DATUM
 MDS .        Operator Entered:  MAG DATA SOURCE
 API .                        :  API NUMBER
 CNTY.                        :  COUNTY
 PROV.                        :  PROVINCE
 STAT.                        :  STATE
 UWI .                        :  UNIQUE WELL IDENTIFIER
 LOC .                        :  LOCATION
 LMF .             Drill Floor:  LOG MEASURED FROM
 TVDS.m                  43.29:  TVDSS CORRECTN
 LATI.deg                40.03:  LATITUDE
 LONG.deg                51.35:  LONGITUDE
 WHNS.m                  12.98:  WELL HEAD N/S
 WHEW.m                  -6.62:  WELL HEAD E/W
 UTMX.m              530128.28:  UTM X
 UTMY.m             4433192.49:  UTM Y
 DFWL.m                   0.00:  DISTANCE FWL
 DFSL.m                   0.00:  DISTANCE FSL
 SDEP.m                 378.00:  START DEPTH
 TDD .m                4463.01:  TOTAL DEPTH (DRILLER)
 VSDR.deg               296.18:  VERT SEC DIRECT
 GVFD.g                   1.00:  GRAVITY FIELD
 MFLD.nT              50269.00:  MAGNETIC FIELD
 MDIP.deg                59.50:  MAGNETIC DIP
 MDEC.deg                 6.44:  MAGNETIC DECL
 GRDC.deg                 0.20:  GRID CORRECTION
 AZTC.deg                 6.24:  AZM TOTAL CORR
 EPD .m                   0.00:  ELEVATION
 EGL .m                   0.00:  GROUND ELEVATION
 WDMS.m                 128.20:  WD ELEV
 APD .m                  43.29:  DEPTH ABOVE PD
 AGAP.m                  43.29:  AIR GAP
 VSEW.m                  -6.62:  VERT SEC E/W
 VSNS.m                  12.98:  VERT SEC N/S
 EKB .m                  43.29:  KB ELEVATION
 EDF .m                  43.29:  DF ELEVATION
 TDL .m                 147.00:  TOTAL DEPTH (LOGGER)
 VSC .                       0:  VS TO CLOSURE
 MAGU.                 1849241:  MAGUTM CHECKSUM
~Parameter Information Block
#MNEM.UNIT       Value        Description
#---------     -----------    ---------------------------
 AV  .mps                 0.70:  Ann Velocity 
 AZIF.deg               269.43:  Azm, Final 
 BHAT.        Rotary Steerable:  BHA Type 
 BROT.°/30m              -0.03:  Build Rotating 
 BS  .in                  8.50:  Bit Size 
 BSZ .in                  8.50:  Bit Size 
 BTPL.psig              880.00:  Bit Press Loss 
 CABU.                      No:  Customer Abuse 
 CGEO.          Parviz Guliyev:  Customer Geo 
 COMM.                     í_:  Run Comments 1 
 TCS .hr                 64.59:  Time Ciculation Ended 
 CV  .mps                 2.17:  Crit Velocity 
 DD1 .            Nonso Okafor:  Direct Drillr 1 
 DDSV.               Geo-Pilot:  DD Service 
 DEFF.%                  98.00:  % Det Eff 
 DLRX.°/30m               0.81:  Dogleg Rot Max 
 DLSO.°/30m               0.55:  Dogleg Oriented 
 DLSX.°/30m               0.81:  Dogleg Str Max 
 DRET.      23.50.00 24-Aug-20:  Drill End Time 
 DRST.      07.34.24 22-Aug-20:  Drill Start Tim 
 DTIM.hr                 15.29:  Time Drilling 
 EDEP.m                4461.01:  End Depth 
 ENG1.       Zam Abdullah Sani:  Engineer 1 
 ENG2.         Dair Mahammadov:  Engineer 2 
 ENG3.          Rustam Gadirov:  Engineer 3 
 ETIM.      07.34.24 26-Aug-20:  End Time 
 FLOI.gpm               550.00:  Flow In 
 FLON.gpm               400.00:  Flow In Min 
 FLOS.cptm                1.00:  Fluid Loss 
 FLOX.gpm               600.00:  Flow In Max 
 FTRO.       Formation Presure:  FTWD Run Obj 
 HFLO.                      No:  High Flow 
 HPRE.                      No:  High Pressure 
 HTEM.                      No:  High Temp 
 HYDO.m                   1.80:  Hydro Offset 
 IFIN.deg                66.72:  Inc, Final 
 IMAX.deg                67.42:  Inc Max 
 IMIN.deg                66.72:  Inc Min 
 IMND.m                4408.37:  Inc Min Depth 
 IMXD.m                4323.37:  Inc Max Depth 
 JARR.                      No:  Jarring 
 LETM.      23.50.00 24-Aug-20:  Log End Time 
 LOST.hr                     0:  Lost Rig Time 
 LSTM.      07.34.24 22-Aug-20:  Log Start Time 
 MDCL.ppm             38000.00:  Mud Chlorides 
 MDES.     Inversion Oil/Synthetic:  Mud Desc 
 DFD .sg                  1.40:  Mud Density 
 MDMN.sg                  1.38:  Dens Mud Min 
 MDMX.sg                  1.41:  Dens Mud Max 
 MOIL.                    70.5:  Run Mud Oil % 
 MOWR.                   68:32:  Run Mud OWR 
 MSND.                    0.01:  Run Mud Sand % 
 MSOL.                   17.68:  Run Mud Solids% 
 DFV .spqt               77.00:  Mud Viscosity 
 MWOD.in                  6.75:  MWD Tool OD 
 MWSI.                      No:  Serv Intrp, MWD 
 OTIM.hr                159.42:  Time Operating 
 PCON.           Look Like New:  Pad Condition 
 PMAX.psia             8730.94:  Press Op, Max 
 PV  .cP                 31.00:  Mud PV 
 RUN .                     900:  Run Number 
 ROPA.m/hr               12.00:  ROP Avg 
 ROPN.m/hr                7.00:  ROP Min 
 ROPX.m/hr               17.00:  ROP Max 
 RPMA.rpm               120.00:  RPM Surface Avg 
 RPMN.rpm                60.00:  RPM Surface Min 
 RPMX.rpm               140.00:  RPM Surface Max 
 RRUN.                    L604:  Rig Run Number 
 RTIM.hr                 10.00:  Time Reaming 
 SAZI.deg               270.56:  Azm, Start 
 SDEP.m                4314.01:  Start Depth 
 SIDD.                      No:  Serv Intrp, DD 
 SINC.deg                67.42:  Inc, Start 
 SPPA.psig             3300.00:  SPP Avg 
 SPPN.psig             1750.00:  SPP Min 
 SPPX.psig             4630.00:  SPP Max 
 STIM.      11.00.00 21-Aug-20:  Start Time 
 SVCS.                 DD, MWD:  Services 
 SVER.                    9.20:  Sperry Version 
 TDAT.m                4461.01:  Tot Depth Attmp 
 TDDF.                      No:  Trip for DD 
 TDLG.m                 147.00:  Tot Depth Loggd 
 TFF .                      No:  Trip for Fail 
 TQAA.f-kp               16.00:  Torque Abs Avg 
 TQAN.f-kp               14.00:  Torque Abs Min 
 TQAX.f-kp               20.00:  Torque Abs Max 
 TRRT.°/30m              -0.14:  Turn Rotating 
 MRT .                    HCIM:  Maximum Recorded Temperature 
 TTMX.degC               78.00:  Max Tool Temp 
 VS01.                90515425:  Virtual Str1 SN 
 VS02.                90545184:  Virtual Str2 SN 
 VS03.                90527809:  Virtual Str3 SN 
 VS04.                90515232:  Virtual Str4 SN 
 VS05.                90621207:  Virtual Str5 SN 
 VS06.                90619737:  Virtual Str6 SN 
 WBMN.klb                 2.00:  WOB Min 
 WITN.          Keith Dischler:  Customer Rep 
 WITN.           Faig Mammadov:  Customer Rep 2 
 WOBA.klb                 5.00:  WOB Avg 
 WOBX.klb                 8.00:  WOB Max 
 YP  .lhf2               32.00:  Yield Point 
~Curve Information Block
#MNEM.UNIT                 API CODE     Curve Description
#---------               -----------    ---------------------------
 TIME.HHMMSS            00 000 000 000:  GT Time & Date
 GTET.sec               00 000 000 000:  GT Elapsed Test Time
 GTPQH.psia             00 000 000 000:  GT HR Quartz Pressure
 GTDEPTH.m              00 000 000 000:  GT Depth
 GTTVD.m                00 000 000 000:  GT True Vertical Depth
 GTTQ.degC              00 000 000 000:  GT Quartz Temperature
 GTTN.NONE              00 000 000 000:  GT Test Number
#Other Information
#
#WARRANTY: Halliburton will use its best efforts to furnish customers with 
#accurate information and interpretations that are part of, and incident to, the services 
#provided.  However, Halliburton cannot and does not warrant the accuracy 
#or correctness of such information and interpretations.  Under no circumstances should any 
#such information or interpretation be relied upon as the sole basis for any drilling, 
#completion, production, or financial decision or any procedure involving any risk to the 
#safety of any drilling venture, drilling rig or its crew or any other third party.  The 
#Customer has full responsibility for all drilling, completion and production operation.  
#Halliburton makes no representations or warranties, either expressed or 
#implied, including, but not limited to, the implied warranties of merchantability or fitness 
#for a particular purpose, with respect to the services rendered.  In no event will 
#Halliburton be liable for failure to obtain any particular results or for 
#any damages, including, but not limited to, indirect, special or consequential damages, 
#resulting from the use of any information or interpretation provided by Halliburton.
#
~A           TIME            GTET   GTPQH  GTDEPTH  GTTVD  GTTQ  GTTN 
# ...
   07:47:40.000.25-Aug-2020 161.00   86.18 4371.01 2065.33 72.47 4.00
   07:47:40.200.25-Aug-2020 161.20   86.18 4371.01 2065.33 72.47 4.00
   07:47:40.400.25-Aug-2020 161.40   87.28 4371.01 2065.33 72.47 4.00
   07:47:40.600.25-Aug-2020 161.60   87.85 4371.01 2065.33 72.47 4.00
   07:47:40.800.25-Aug-2020 161.80   88.41 4371.01 2065.33 72.47 4.00
   07:47:41.000.25-Aug-2020 162.00   88.88 4371.01 2065.33 72.47 4.00
   07:47:41.200.25-Aug-2020 162.20   88.88 4371.01 2065.33 72.47 4.00
   07:47:41.400.25-Aug-2020 162.40   89.84 4371.01 2065.33 72.47 4.00
   07:47:41.600.25-Aug-2020 162.60   90.29 4371.01 2065.33 72.47 4.00
   07:47:41.800.25-Aug-2020 162.80   90.72 4371.01 2065.33 72.47 4.00
   07:47:42.000.25-Aug-2020 163.00   91.14 4371.01 2065.33 72.47 4.00
   07:47:42.200.25-Aug-2020 163.20   91.56 4371.01 2065.33 72.47 4.00
   07:47:42.400.25-Aug-2020 163.40   91.95 4371.01 2065.33 72.47 4.00
   07:47:42.600.25-Aug-2020 163.60   92.33 4371.01 2065.33 72.47 4.00
   07:47:42.800.25-Aug-2020 163.80   92.72 4371.01 2065.33 72.47 4.00
   07:47:43.000.25-Aug-2020 164.00   93.11 4371.01 2065.33 72.47 4.00
   07:47:43.200.25-Aug-2020 164.20   93.49 4371.01 2065.33 72.47 4.00
   07:47:43.400.25-Aug-2020 164.40   93.89 4371.01 2065.33 72.47 4.00
   07:47:43.600.25-Aug-2020 164.60   94.20 4371.01 2065.33 72.47 4.00
   07:47:43.800.25-Aug-2020 164.80   94.66 4371.01 2065.33 72.47 4.00
   07:47:44.000.25-Aug-2020 165.00   95.41 4371.01 2065.33 72.47 4.00
   07:47:44.200.25-Aug-2020 165.20   95.41 4371.01 2065.33 72.47 4.00
   07:47:44.400.25-Aug-2020 165.40   97.33 4371.01 2065.33 72.47 4.00
   07:47:44.600.25-Aug-2020 165.60   98.44 4371.01 2065.33 72.47 4.00
   07:47:44.800.25-Aug-2020 165.80   99.43 4371.01 2065.33 72.47 4.00
   07:47:45.000.25-Aug-2020 166.00  100.43 4371.01 2065.33 72.47 4.00
   07:47:45.200.25-Aug-2020 166.20  100.43 4371.01 2065.33 72.47 4.00
   07:47:45.400.25-Aug-2020 166.40  102.16 4371.01 2065.33 72.47 4.00
   07:47:45.600.25-Aug-2020 166.60  102.98 4371.01 2065.33 72.47 4.00
   07:47:45.800.25-Aug-2020 166.80  103.77 4371.01 2065.33 72.47 4.00
   07:47:46.000.25-Aug-2020 167.00  104.53 4371.01 2065.33 72.47 4.00
   07:47:46.200.25-Aug-2020 167.20  105.28 4371.01 2065.33 72.47 4.00
   07:47:46.400.25-Aug-2020 167.40  106.04 4371.01 2065.33 72.47 4.00
   07:47:46.600.25-Aug-2020 167.60  106.78 4371.01 2065.33 72.47 4.00
   07:47:46.800.25-Aug-2020 167.80  107.48 4371.01 2065.33 72.47 4.00
   07:47:47.000.25-Aug-2020 168.00  108.21 4371.01 2065.33 72.47 4.00
   07:47:47.200.25-Aug-2020 168.20  109.04 4371.01 2065.33 72.47 4.00
   07:47:47.400.25-Aug-2020 168.40  109.83 4371.01 2065.33 72.47 4.00
   07:47:47.600.25-Aug-2020 168.60  110.58 4371.01 2065.33 72.47 4.00
   07:47:47.800.25-Aug-2020 168.80  111.19 4371.01 2065.33 72.47 4.00
   07:47:48.000.25-Aug-2020 169.00  111.78 4371.01 2065.33 72.47 4.00
   07:47:48.200.25-Aug-2020 169.20  112.36 4371.01 2065.33 72.47 4.00
   07:47:48.400.25-Aug-2020 169.40  112.87 4371.01 2065.33 72.47 4.00
   07:47:48.600.25-Aug-2020 169.60  113.45 4371.01 2065.33 72.47 4.00
   07:47:48.800.25-Aug-2020 169.80  113.89 4371.01 2065.33 72.47 4.00
   07:47:49.000.25-Aug-2020 170.00  114.42 4371.01 2065.33 72.47 4.00
   07:47:49.200.25-Aug-2020 170.20  114.42 4371.01 2065.33 72.47 4.00
   07:47:49.400.25-Aug-2020 170.40  115.76 4371.01 2065.33 72.47 4.00
   07:47:49.600.25-Aug-2020 170.60  116.40 4371.01 2065.33 72.47 4.00
   07:47:49.800.25-Aug-2020 170.80  117.02 4371.01 2065.33 72.47 4.00
   07:47:50.000.25-Aug-2020 171.00  117.60 4371.01 2065.33 72.47 4.00
   07:47:50.200.25-Aug-2020 171.20  118.08 4371.01 2065.33 72.47 4.00
   07:47:50.400.25-Aug-2020 171.40  118.60 4371.01 2065.33 72.47 4.00
   07:47:50.600.25-Aug-2020 171.60  119.14 4371.01 2065.33 72.47 4.00
   07:47:50.800.25-Aug-2020 171.80  119.72 4371.01 2065.33 72.47 4.00
   07:47:51.000.25-Aug-2020 172.00  120.23 4371.01 2065.33 72.47 4.00
   07:47:51.200.25-Aug-2020 172.20  120.72 4371.01 2065.33 72.47 4.00
   07:47:51.400.25-Aug-2020 172.40  121.15 4371.01 2065.33 72.47 4.00
   07:47:51.600.25-Aug-2020 172.60  121.58 4371.01 2065.33 72.47 4.00
   07:47:51.800.25-Aug-2020 172.80  121.99 4371.01 2065.33 72.47 4.00
   07:47:52.000.25-Aug-2020 173.00  122.46 4371.01 2065.33 72.47 4.00
   07:47:52.200.25-Aug-2020 173.20  122.46 4371.01 2065.33 72.47 4.00
   07:47:52.400.25-Aug-2020 173.40  123.41 4371.01 2065.33 72.47 4.00
   07:47:52.600.25-Aug-2020 173.60  123.82 4371.01 2065.33 72.47 4.00
   07:47:52.800.25-Aug-2020 173.80  124.26 4371.01 2065.33 72.47 4.00
   07:47:53.000.25-Aug-2020 174.00  124.72 4371.01 2065.33 72.47 4.00
   07:47:53.200.25-Aug-2020 174.20  124.72 4371.01 2065.33 72.47 4.00
   07:47:53.400.25-Aug-2020 174.40  125.54 4371.01 2065.33 72.47 4.00
   07:47:53.600.25-Aug-2020 174.60  125.98 4371.01 2065.33 72.47 4.00
   07:47:53.800.25-Aug-2020 174.80  126.39 4371.01 2065.33 72.47 4.00
   07:47:54.000.25-Aug-2020 175.00  126.76 4371.01 2065.33 72.47 4.00
   07:47:54.200.25-Aug-2020 175.20  127.14 4371.01 2065.33 72.47 4.00
   07:47:54.400.25-Aug-2020 175.40  127.50 4371.01 2065.33 72.47 4.00
   07:47:54.600.25-Aug-2020 175.60  127.74 4371.01 2065.33 72.47 4.00
   07:47:54.800.25-Aug-2020 175.80  128.01 4371.01 2065.33 72.47 4.00
   07:47:55.000.25-Aug-2020 176.00  128.26 4371.01 2065.33 72.47 4.00
   07:47:55.200.25-Aug-2020 176.20  128.52 4371.01 2065.33 72.47 4.00
   07:47:55.400.25-Aug-2020 176.40  128.74 4371.01 2065.33 72.47 4.00
   07:47:55.600.25-Aug-2020 176.60  128.96 4371.01 2065.33 72.47 4.00
   07:47:55.800.25-Aug-2020 176.80  129.18 4371.01 2065.33 72.47 4.00
   07:47:56.000.25-Aug-2020 177.00  129.42 4371.01 2065.33 72.47 4.00
   07:47:56.200.25-Aug-2020 177.20  129.42 4371.01 2065.33 72.47 4.00
   07:47:56.400.25-Aug-2020 177.40  129.89 4371.01 2065.33 72.47 4.00
   07:47:56.600.25-Aug-2020 177.60  130.59 4371.01 2065.33 72.47 4.00
   07:47:56.800.25-Aug-2020 177.80  131.17 4371.01 2065.33 72.47 4.00
   07:47:57.000.25-Aug-2020 178.00  131.65 4371.01 2065.33 72.47 4.00
   07:47:57.200.25-Aug-2020 178.20  131.65 4371.01 2065.33 72.47 4.00
   07:47:57.400.25-Aug-2020 178.40  132.40 4371.01 2065.33 72.47 4.00
   07:47:57.600.25-Aug-2020 178.60  132.78 4371.01 2065.33 72.47 4.00
   07:47:57.800.25-Aug-2020 178.80  133.06 4371.01 2065.33 72.47 4.00
   07:47:58.000.25-Aug-2020 179.00  133.55 4371.01 2065.33 72.47 4.00
   07:47:58.200.25-Aug-2020 179.20  134.12 4371.01 2065.33 72.47 4.00
   07:47:58.400.25-Aug-2020 179.40  134.75 4371.01 2065.33 72.47 4.00
   07:47:58.600.25-Aug-2020 179.60  135.56 4371.01 2065.33 72.47 4.00
   07:47:58.800.25-Aug-2020 179.80  136.23 4371.01 2065.33 72.47 4.00
   07:47:59.000.25-Aug-2020 180.00  136.88 4371.01 2065.33 72.47 4.00
   07:47:59.200.25-Aug-2020 180.20  137.50 4371.01 2065.33 72.47 4.00
   07:47:59.400.25-Aug-2020 180.40  138.14 4371.01 2065.33 72.47 4.00
   07:47:59.600.25-Aug-2020 180.60  138.72 4371.01 2065.33 72.47 4.00
   07:47:59.800.25-Aug-2020 180.80  139.24 4371.01 2065.33 72.47 4.00
   07:48:00.000.25-Aug-2020 181.00  139.56 4371.01 2065.33 72.47 4.00
   07:48:00.200.25-Aug-2020 181.20  139.56 4371.01 2065.33 72.47 4.00
   07:48:00.400.25-Aug-2020 181.40  140.22 4371.01 2065.33 72.47 4.00
   07:48:00.600.25-Aug-2020 181.60  140.56 4371.01 2065.33 72.47 4.00
   07:48:00.800.25-Aug-2020 181.80  140.93 4371.01 2065.33 72.47 4.00
   07:48:01.000.25-Aug-2020 182.00  141.34 4371.01 2065.33 72.47 4.00
   07:48:01.200.25-Aug-2020 182.20  141.34 4371.01 2065.33 72.47 4.00
   07:48:01.400.25-Aug-2020 182.40  142.01 4371.01 2065.33 72.47 4.00
   07:48:01.600.25-Aug-2020 182.60  142.30 4371.01 2065.33 72.47 4.00
   07:48:01.800.25-Aug-2020 182.80  142.52 4371.01 2065.33 72.47 4.00
   07:48:02.000.25-Aug-2020 183.00  142.69 4371.01 2065.33 72.47 4.00
   07:48:02.200.25-Aug-2020 183.20  142.87 4371.01 2065.33 72.47 4.00
   07:48:02.400.25-Aug-2020 183.40  143.26 4371.01 2065.33 72.47 4.00
   07:48:02.600.25-Aug-2020 183.60  143.57 4371.01 2065.33 72.47 4.00
   07:48:02.800.25-Aug-2020 183.80  144.08 4371.01 2065.33 72.47 4.00
