~Version Information
 VERS.                  2.0:   CWLS log ASCII Standard -VERSION 2.0
 WRAP.                   NO:   One line per depth step
~Well Information Block
#MNEM.UNIT     VALUE/NAME     DESCRIPTION
#---------     -----------    ---------------------------
 STRT.S             06:12:42 25-Aug-20: START TIME 06:12:42 25-Aug-20
 STOP.S             06:19:48 25-Aug-20: STOP TIME  06:19:48 25-Aug-20
 STEP.S                   0.00: STEP TIME
 NULL.                 -999.25: NULL VALUE
 DFWT.                        :  DIST FWL TEXT
 DFST.                        :  DIST FSL TEXT
 DMF .             Drill Floor:  DRILL MEAS FROM
 STIM.      09.59.28 01-Jun-20:  START TIME
 DATE.      05.00.00 28-Aug-20:  END TIME
 SPUD.               01-Jun-20:  SPUD DATE
 NREF.                    Grid:  NORTH REFERENCE
 HPTY.       Minimum Curvature:  HOLE POS TYPE
 DMOD.             Drill Model:  DRILL MOD DESC
 SVYD.                  Survey:  SURVEY DESC
 ILTD.               Lithology:  INTERP LTH DESC
 FTOP.          Formation Tops:  FORM TOPS DESC
 SON .        AZ-XX-0905455768:  JOB NUMBER
 WTYP.                Deviated:  WELL TYPE
 COMP.     BP Exploration(Caspian Sea):  COMPANY
 BASE.              Azerbaijan:  LOGGING EQUIPMENT BASE LOCATION
 REGN.                   EESSA:  REGION
 CTRY.              Azerbaijan:  COUNTRY NAME
 FLD .                     ACG:  FIELD NAME
 SRVC.          Turan Drilling:  CONTRACTOR
 WELL.                     B41:  WELL NAME
 RIG .           Central Azeri:  RIG NAME
 DCON.         Sperry Drilling:  DIRECTNL CONTR
 PDAT.          Mean Sea Level:  PERMANENT DATUM
 MDS .        Operator Entered:  MAG DATA SOURCE
 API .                        :  API NUMBER
 CNTY.                        :  COUNTY
 PROV.                        :  PROVINCE
 STAT.                        :  STATE
 UWI .                        :  UNIQUE WELL IDENTIFIER
 LOC .                        :  LOCATION
 LMF .             Drill Floor:  LOG MEASURED FROM
 TVDS.m                  43.29:  TVDSS CORRECTN
 LATI.deg                40.03:  LATITUDE
 LONG.deg                51.35:  LONGITUDE
 WHNS.m                  12.98:  WELL HEAD N/S
 WHEW.m                  -6.62:  WELL HEAD E/W
 UTMX.m              530128.28:  UTM X
 UTMY.m             4433192.49:  UTM Y
 DFWL.m                   0.00:  DISTANCE FWL
 DFSL.m                   0.00:  DISTANCE FSL
 SDEP.m                 378.00:  START DEPTH
 TDD .m                4463.01:  TOTAL DEPTH (DRILLER)
 VSDR.deg               296.18:  VERT SEC DIRECT
 GVFD.g                   1.00:  GRAVITY FIELD
 MFLD.nT              50269.00:  MAGNETIC FIELD
 MDIP.deg                59.50:  MAGNETIC DIP
 MDEC.deg                 6.44:  MAGNETIC DECL
 GRDC.deg                 0.20:  GRID CORRECTION
 AZTC.deg                 6.24:  AZM TOTAL CORR
 EPD .m                   0.00:  ELEVATION
 EGL .m                   0.00:  GROUND ELEVATION
 WDMS.m                 128.20:  WD ELEV
 APD .m                  43.29:  DEPTH ABOVE PD
 AGAP.m                  43.29:  AIR GAP
 VSEW.m                  -6.62:  VERT SEC E/W
 VSNS.m                  12.98:  VERT SEC N/S
 EKB .m                  43.29:  KB ELEVATION
 EDF .m                  43.29:  DF ELEVATION
 TDL .m                 147.00:  TOTAL DEPTH (LOGGER)
 VSC .                       0:  VS TO CLOSURE
 MAGU.                 1849241:  MAGUTM CHECKSUM
~Parameter Information Block
#MNEM.UNIT       Value        Description
#---------     -----------    ---------------------------
 AV  .mps                 0.70:  Ann Velocity 
 AZIF.deg               269.43:  Azm, Final 
 BHAT.        Rotary Steerable:  BHA Type 
 BROT.°/30m              -0.03:  Build Rotating 
 BS  .in                  8.50:  Bit Size 
 BSZ .in                  8.50:  Bit Size 
 BTPL.psig              880.00:  Bit Press Loss 
 CABU.                      No:  Customer Abuse 
 CGEO.          Parviz Guliyev:  Customer Geo 
 COMM.                     ôb:  Run Comments 1 
 TCS .hr                 64.59:  Time Ciculation Ended 
 CV  .mps                 2.17:  Crit Velocity 
 DD1 .            Nonso Okafor:  Direct Drillr 1 
 DDSV.               Geo-Pilot:  DD Service 
 DEFF.%                  98.00:  % Det Eff 
 DLRX.°/30m               0.81:  Dogleg Rot Max 
 DLSO.°/30m               0.55:  Dogleg Oriented 
 DLSX.°/30m               0.81:  Dogleg Str Max 
 DRET.      23.50.00 24-Aug-20:  Drill End Time 
 DRST.      07.34.24 22-Aug-20:  Drill Start Tim 
 DTIM.hr                 15.29:  Time Drilling 
 EDEP.m                4461.01:  End Depth 
 ENG1.       Zam Abdullah Sani:  Engineer 1 
 ENG2.         Dair Mahammadov:  Engineer 2 
 ENG3.          Rustam Gadirov:  Engineer 3 
 ETIM.      07.34.24 26-Aug-20:  End Time 
 FLOI.gpm               550.00:  Flow In 
 FLON.gpm               400.00:  Flow In Min 
 FLOS.cptm                1.00:  Fluid Loss 
 FLOX.gpm               600.00:  Flow In Max 
 FTRO.       Formation Presure:  FTWD Run Obj 
 HFLO.                      No:  High Flow 
 HPRE.                      No:  High Pressure 
 HTEM.                      No:  High Temp 
 HYDO.m                   1.80:  Hydro Offset 
 IFIN.deg                66.72:  Inc, Final 
 IMAX.deg                67.42:  Inc Max 
 IMIN.deg                66.72:  Inc Min 
 IMND.m                4408.37:  Inc Min Depth 
 IMXD.m                4323.37:  Inc Max Depth 
 JARR.                      No:  Jarring 
 LETM.      23.50.00 24-Aug-20:  Log End Time 
 LOST.hr                     0:  Lost Rig Time 
 LSTM.      07.34.24 22-Aug-20:  Log Start Time 
 MDCL.ppm             38000.00:  Mud Chlorides 
 MDES.     Inversion Oil/Synthetic:  Mud Desc 
 DFD .sg                  1.40:  Mud Density 
 MDMN.sg                  1.38:  Dens Mud Min 
 MDMX.sg                  1.41:  Dens Mud Max 
 MOIL.                    70.5:  Run Mud Oil % 
 MOWR.                   68:32:  Run Mud OWR 
 MSND.                    0.01:  Run Mud Sand % 
 MSOL.                   17.68:  Run Mud Solids% 
 DFV .spqt               77.00:  Mud Viscosity 
 MWOD.in                  6.75:  MWD Tool OD 
 MWSI.                      No:  Serv Intrp, MWD 
 OTIM.hr                159.42:  Time Operating 
 PCON.           Look Like New:  Pad Condition 
 PMAX.psia             8730.94:  Press Op, Max 
 PV  .cP                 31.00:  Mud PV 
 RUN .                     900:  Run Number 
 ROPA.m/hr               12.00:  ROP Avg 
 ROPN.m/hr                7.00:  ROP Min 
 ROPX.m/hr               17.00:  ROP Max 
 RPMA.rpm               120.00:  RPM Surface Avg 
 RPMN.rpm                60.00:  RPM Surface Min 
 RPMX.rpm               140.00:  RPM Surface Max 
 RRUN.                    L604:  Rig Run Number 
 RTIM.hr                 10.00:  Time Reaming 
 SAZI.deg               270.56:  Azm, Start 
 SDEP.m                4314.01:  Start Depth 
 SIDD.                      No:  Serv Intrp, DD 
 SINC.deg                67.42:  Inc, Start 
 SPPA.psig             3300.00:  SPP Avg 
 SPPN.psig             1750.00:  SPP Min 
 SPPX.psig             4630.00:  SPP Max 
 STIM.      11.00.00 21-Aug-20:  Start Time 
 SVCS.                 DD, MWD:  Services 
 SVER.                    9.20:  Sperry Version 
 TDAT.m                4461.01:  Tot Depth Attmp 
 TDDF.                      No:  Trip for DD 
 TDLG.m                 147.00:  Tot Depth Loggd 
 TFF .                      No:  Trip for Fail 
 TQAA.f-kp               16.00:  Torque Abs Avg 
 TQAN.f-kp               14.00:  Torque Abs Min 
 TQAX.f-kp               20.00:  Torque Abs Max 
 TRRT.°/30m              -0.14:  Turn Rotating 
 MRT .                    HCIM:  Maximum Recorded Temperature 
 TTMX.degC               78.00:  Max Tool Temp 
 VS01.                90515425:  Virtual Str1 SN 
 VS02.                90545184:  Virtual Str2 SN 
 VS03.                90527809:  Virtual Str3 SN 
 VS04.                90515232:  Virtual Str4 SN 
 VS05.                90621207:  Virtual Str5 SN 
 VS06.                90619737:  Virtual Str6 SN 
 WBMN.klb                 2.00:  WOB Min 
 WITN.          Keith Dischler:  Customer Rep 
 WITN.           Faig Mammadov:  Customer Rep 2 
 WOBA.klb                 5.00:  WOB Avg 
 WOBX.klb                 8.00:  WOB Max 
 YP  .lhf2               32.00:  Yield Point 
~Curve Information Block
#MNEM.UNIT                 API CODE     Curve Description
#---------               -----------    ---------------------------
 TIME.HHMMSS            00 000 000 000:  GT Time & Date
 GTET.sec               00 000 000 000:  GT Elapsed Test Time
 GTPQH.psia             00 000 000 000:  GT HR Quartz Pressure
 GTDEPTH.m              00 000 000 000:  GT Depth
 GTTVD.m                00 000 000 000:  GT True Vertical Depth
 GTTQ.degC              00 000 000 000:  GT Quartz Temperature
 GTTN.NONE              00 000 000 000:  GT Test Number
#Other Information
#
#WARRANTY: Halliburton will use its best efforts to furnish customers with 
#accurate information and interpretations that are part of, and incident to, the services 
#provided.  However, Halliburton cannot and does not warrant the accuracy 
#or correctness of such information and interpretations.  Under no circumstances should any 
#such information or interpretation be relied upon as the sole basis for any drilling, 
#completion, production, or financial decision or any procedure involving any risk to the 
#safety of any drilling venture, drilling rig or its crew or any other third party.  The 
#Customer has full responsibility for all drilling, completion and production operation.  
#Halliburton makes no representations or warranties, either expressed or 
#implied, including, but not limited to, the implied warranties of merchantability or fitness 
#for a particular purpose, with respect to the services rendered.  In no event will 
#Halliburton be liable for failure to obtain any particular results or for 
#any damages, including, but not limited to, indirect, special or consequential damages, 
#resulting from the use of any information or interpretation provided by Halliburton.
#
~A           TIME            GTET   GTPQH  GTDEPTH  GTTVD  GTTQ  GTTN 
# ...
   06:13:05.000.25-Aug-2020  23.00 4792.37 4397.01 2075.58 73.42 2.00
   06:13:05.200.25-Aug-2020  23.20 4786.16 4397.01 2075.58 73.42 2.00
   06:13:05.400.25-Aug-2020  23.40 4785.57 4397.01 2075.58 73.42 2.00
   06:13:05.600.25-Aug-2020  23.60 4785.81 4397.01 2075.58 73.42 2.00
   06:13:05.800.25-Aug-2020  23.80 4786.64 4397.01 2075.58 73.42 2.00
   06:13:06.000.25-Aug-2020  24.00 4790.08 4397.01 2075.58 73.42 2.00
   06:13:06.200.25-Aug-2020  24.20 4790.08 4397.01 2075.58 73.42 2.00
   06:13:06.400.25-Aug-2020  24.40 4789.65 4397.01 2075.58 73.42 2.00
   06:13:06.600.25-Aug-2020  24.60 4787.45 4397.01 2075.58 73.42 2.00
   06:13:06.800.25-Aug-2020  24.80 4786.84 4397.01 2075.58 73.42 2.00
   06:13:07.000.25-Aug-2020  25.00 4787.03 4397.01 2075.58 73.42 2.00
   06:13:07.200.25-Aug-2020  25.20 4787.03 4397.01 2075.58 73.42 2.00
   06:13:07.400.25-Aug-2020  25.40 4792.21 4397.01 2075.58 73.42 2.00
   06:13:07.600.25-Aug-2020  25.60 4797.08 4397.01 2075.58 73.42 2.00
   06:13:07.800.25-Aug-2020  25.80 4791.02 4397.01 2075.58 73.42 2.00
   06:13:08.000.25-Aug-2020  26.00 4789.32 4397.01 2075.58 73.42 2.00
   06:13:08.200.25-Aug-2020  26.20 4789.32 4397.01 2075.58 73.42 2.00
   06:13:08.400.25-Aug-2020  26.40 4791.32 4397.01 2075.58 73.42 2.00
   06:13:08.600.25-Aug-2020  26.60 4791.00 4397.01 2075.58 73.42 2.00
   06:13:08.800.25-Aug-2020  26.80 4791.48 4397.01 2075.58 73.42 2.00
   06:13:09.000.25-Aug-2020  27.00 4790.39 4397.01 2075.58 73.42 2.00
   06:13:09.200.25-Aug-2020  27.20 4790.39 4397.01 2075.58 73.42 2.00
   06:13:09.400.25-Aug-2020  27.40 4802.56 4397.01 2075.58 73.42 2.00
   06:13:09.600.25-Aug-2020  27.60 4791.18 4397.01 2075.58 73.41 2.00
   06:13:09.800.25-Aug-2020  27.80 4791.93 4397.01 2075.58 73.41 2.00
   06:13:10.000.25-Aug-2020  28.00 4792.94 4397.01 2075.58 73.41 2.00
   06:13:10.200.25-Aug-2020  28.20 4792.94 4397.01 2075.58 73.41 2.00
   06:13:10.400.25-Aug-2020  28.40 4789.87 4397.01 2075.58 73.41 2.00
   06:13:10.600.25-Aug-2020  28.60 4790.07 4397.01 2075.58 73.41 2.00
   06:13:10.800.25-Aug-2020  28.80 4790.59 4397.01 2075.58 73.41 2.00
   06:13:11.000.25-Aug-2020  29.00 4791.44 4397.01 2075.58 73.41 2.00
   06:13:11.200.25-Aug-2020  29.20 4791.44 4397.01 2075.58 73.41 2.00
   06:13:11.400.25-Aug-2020  29.40 4792.39 4397.01 2075.58 73.41 2.00
   06:13:11.600.25-Aug-2020  29.60 4792.43 4397.01 2075.58 73.41 2.00
   06:13:11.800.25-Aug-2020  29.80 4792.58 4397.01 2075.58 73.41 2.00
   06:13:12.000.25-Aug-2020  30.00 4792.73 4397.01 2075.58 73.41 2.00
   06:13:12.200.25-Aug-2020  30.20 4792.73 4397.01 2075.58 73.41 2.00
   06:13:12.400.25-Aug-2020  30.40 4791.89 4397.01 2075.58 73.41 2.00
   06:13:12.600.25-Aug-2020  30.60 4792.16 4397.01 2075.58 73.41 2.00
   06:13:12.800.25-Aug-2020  30.80 4791.27 4397.01 2075.58 73.41 2.00
   06:13:13.000.25-Aug-2020  31.00 4800.28 4397.01 2075.58 73.41 2.00
   06:13:13.200.25-Aug-2020  31.20 4792.57 4397.01 2075.58 73.41 2.00
   06:13:13.400.25-Aug-2020  31.40 4797.32 4397.01 2075.58 73.41 2.00
   06:13:13.600.25-Aug-2020  31.60 4794.05 4397.01 2075.58 73.41 2.00
   06:13:13.800.25-Aug-2020  31.80 4791.96 4397.01 2075.58 73.41 2.00
   06:13:14.000.25-Aug-2020  32.00 4789.21 4397.01 2075.58 73.41 2.00
   06:13:14.200.25-Aug-2020  32.20 4789.21 4397.01 2075.58 73.41 2.00
   06:13:14.400.25-Aug-2020  32.40 4791.62 4397.01 2075.58 73.41 2.00
   06:13:14.600.25-Aug-2020  32.60 4792.34 4397.01 2075.58 73.41 2.00
   06:13:14.800.25-Aug-2020  32.80 4791.89 4397.01 2075.58 73.41 2.00
   06:13:15.000.25-Aug-2020  33.00 4791.47 4397.01 2075.58 73.41 2.00
   06:13:15.200.25-Aug-2020  33.20 4791.47 4397.01 2075.58 73.41 2.00
   06:13:15.400.25-Aug-2020  33.40 4791.05 4397.01 2075.58 73.41 2.00
   06:13:15.600.25-Aug-2020  33.60 4791.70 4397.01 2075.58 73.41 2.00
   06:13:15.800.25-Aug-2020  33.80 4792.46 4397.01 2075.58 73.41 2.00
   06:13:16.000.25-Aug-2020  34.00 4793.02 4397.01 2075.58 73.41 2.00
   06:13:16.200.25-Aug-2020  34.20 4793.02 4397.01 2075.58 73.41 2.00
   06:13:16.400.25-Aug-2020  34.40 4800.01 4397.01 2075.58 73.41 2.00
   06:13:16.600.25-Aug-2020  34.60 4792.45 4397.01 2075.58 73.41 2.00
   06:13:16.800.25-Aug-2020  34.80 4797.88 4397.01 2075.58 73.41 2.00
   06:13:17.000.25-Aug-2020  35.00 4794.90 4397.01 2075.58 73.41 2.00
   06:13:17.200.25-Aug-2020  35.20 4793.55 4397.01 2075.58 73.41 2.00
   06:13:17.400.25-Aug-2020  35.40 4791.61 4397.01 2075.58 73.41 2.00
   06:13:17.600.25-Aug-2020  35.60 4805.08 4397.01 2075.58 73.41 2.00
   06:13:17.800.25-Aug-2020  35.80 4794.62 4397.01 2075.58 73.41 2.00
   06:13:18.000.25-Aug-2020  36.00 4795.20 4397.01 2075.58 73.41 2.00
   06:13:18.200.25-Aug-2020  36.20 4795.20 4397.01 2075.58 73.41 2.00
   06:13:18.400.25-Aug-2020  36.40 4794.71 4397.01 2075.58 73.41 2.00
   06:13:18.600.25-Aug-2020  36.60 4793.15 4397.01 2075.58 73.41 2.00
   06:13:18.800.25-Aug-2020  36.80 4793.53 4397.01 2075.58 73.41 2.00
   06:13:19.000.25-Aug-2020  37.00 4803.21 4397.01 2075.58 73.41 2.00
   06:13:19.200.25-Aug-2020  37.20 4803.21 4397.01 2075.58 73.41 2.00
   06:13:19.400.25-Aug-2020  37.40 4800.25 4397.01 2075.58 73.41 2.00
   06:13:19.600.25-Aug-2020  37.60 4797.64 4397.01 2075.58 73.41 2.00
   06:13:19.800.25-Aug-2020  37.80 4795.80 4397.01 2075.58 73.41 2.00
   06:13:20.000.25-Aug-2020  38.00 4803.77 4397.01 2075.58 73.41 2.00
   06:13:20.200.25-Aug-2020  38.20 4803.77 4397.01 2075.58 73.41 2.00
   06:13:20.400.25-Aug-2020  38.40 4800.85 4397.01 2075.58 73.41 2.00
   06:13:20.600.25-Aug-2020  38.60 4797.82 4397.01 2075.58 73.41 2.00
   06:13:20.800.25-Aug-2020  38.80 4805.28 4397.01 2075.58 73.41 2.00
   06:13:21.000.25-Aug-2020  39.00 4795.53 4397.01 2075.58 73.41 2.00
   06:13:21.200.25-Aug-2020  39.20 4800.31 4397.01 2075.58 73.41 2.00
   06:13:21.400.25-Aug-2020  39.40 4798.30 4397.01 2075.58 73.41 2.00
   06:13:21.600.25-Aug-2020  39.60 4796.98 4397.01 2075.58 73.41 2.00
   06:13:21.800.25-Aug-2020  39.80 4795.52 4397.01 2075.58 73.41 2.00
   06:13:22.000.25-Aug-2020  40.00 4795.90 4397.01 2075.58 73.41 2.00
   06:13:22.200.25-Aug-2020  40.20 4795.90 4397.01 2075.58 73.41 2.00
   06:13:22.400.25-Aug-2020  40.40 4795.02 4397.01 2075.58 73.41 2.00
   06:13:22.600.25-Aug-2020  40.60 4795.52 4397.01 2075.58 73.41 2.00
   06:13:22.800.25-Aug-2020  40.80 4796.10 4397.01 2075.58 73.41 2.00
   06:13:23.000.25-Aug-2020  41.00 4796.60 4397.01 2075.58 73.41 2.00
   06:13:23.200.25-Aug-2020  41.20 4796.60 4397.01 2075.58 73.41 2.00
   06:13:23.400.25-Aug-2020  41.40 4797.20 4397.01 2075.58 73.41 2.00
   06:13:23.600.25-Aug-2020  41.60 4797.45 4397.01 2075.58 73.41 2.00
   06:13:23.800.25-Aug-2020  41.80 4797.38 4397.01 2075.58 73.41 2.00
   06:13:24.000.25-Aug-2020  42.00 4796.96 4397.01 2075.58 73.41 2.00
   06:13:24.200.25-Aug-2020  42.20 4796.96 4397.01 2075.58 73.41 2.00
   06:13:24.400.25-Aug-2020  42.40 4796.96 4397.01 2075.58 73.41 2.00
   06:13:24.600.25-Aug-2020  42.60 4805.59 4397.01 2075.58 73.41 2.00
   06:13:24.800.25-Aug-2020  42.80 4803.86 4397.01 2075.58 73.41 2.00
   06:13:25.000.25-Aug-2020  43.00 4797.58 4397.01 2075.58 73.41 2.00
   06:13:25.200.25-Aug-2020  43.20 4796.57 4397.01 2075.58 73.41 2.00
   06:13:25.400.25-Aug-2020  43.40 4796.17 4397.01 2075.58 73.41 2.00
   06:13:25.600.25-Aug-2020  43.60 4795.17 4397.01 2075.58 73.41 2.00
   06:13:25.800.25-Aug-2020  43.80 4794.66 4397.01 2075.58 73.41 2.00
   06:13:26.000.25-Aug-2020  44.00 4796.12 4397.01 2075.58 73.41 2.00
   06:13:26.200.25-Aug-2020  44.20 4796.12 4397.01 2075.58 73.41 2.00
   06:13:26.400.25-Aug-2020  44.40 4797.65 4397.01 2075.58 73.40 2.00
   06:13:26.600.25-Aug-2020  44.60 4796.65 4397.01 2075.58 73.40 2.00
   06:13:26.800.25-Aug-2020  44.80 4796.19 4397.01 2075.58 73.40 2.00
   06:13:27.000.25-Aug-2020  45.00 4796.35 4397.01 2075.58 73.40 2.00
   06:13:27.200.25-Aug-2020  45.20 4796.35 4397.01 2075.58 73.40 2.00
   06:13:27.400.25-Aug-2020  45.40 4796.44 4397.01 2075.58 73.40 2.00
   06:13:27.600.25-Aug-2020  45.60 4797.06 4397.01 2075.58 73.40 2.00
   06:13:27.800.25-Aug-2020  45.80 4797.16 4397.01 2075.58 73.40 2.00
