~Version Information
 VERS.                  2.0:   CWLS log ASCII Standard -VERSION 2.0
 WRAP.                   NO:   One line per depth step
~Well Information Block
#MNEM.UNIT     VALUE/NAME     DESCRIPTION
#---------     -----------    ---------------------------
 STRT.S             12:25:10 25-Aug-20: START TIME 12:25:10 25-Aug-20
 STOP.S             12:32:06 25-Aug-20: STOP TIME  12:32:06 25-Aug-20
 STEP.S                   0.00: STEP TIME
 NULL.                 -999.25: NULL VALUE
 DFWT.                        :  DIST FWL TEXT
 DFST.                        :  DIST FSL TEXT
 DMF .             Drill Floor:  DRILL MEAS FROM
 STIM.      09.59.28 01-Jun-20:  START TIME
 DATE.      05.00.00 28-Aug-20:  END TIME
 SPUD.               01-Jun-20:  SPUD DATE
 NREF.                    Grid:  NORTH REFERENCE
 HPTY.       Minimum Curvature:  HOLE POS TYPE
 DMOD.             Drill Model:  DRILL MOD DESC
 SVYD.                  Survey:  SURVEY DESC
 ILTD.               Lithology:  INTERP LTH DESC
 FTOP.          Formation Tops:  FORM TOPS DESC
 SON .        AZ-XX-0905455768:  JOB NUMBER
 WTYP.                Deviated:  WELL TYPE
 COMP.     BP Exploration(Caspian Sea):  COMPANY
 BASE.              Azerbaijan:  LOGGING EQUIPMENT BASE LOCATION
 REGN.                   EESSA:  REGION
 CTRY.              Azerbaijan:  COUNTRY NAME
 FLD .                     ACG:  FIELD NAME
 SRVC.          Turan Drilling:  CONTRACTOR
 WELL.                     B41:  WELL NAME
 RIG .           Central Azeri:  RIG NAME
 DCON.         Sperry Drilling:  DIRECTNL CONTR
 PDAT.          Mean Sea Level:  PERMANENT DATUM
 MDS .        Operator Entered:  MAG DATA SOURCE
 API .                        :  API NUMBER
 CNTY.                        :  COUNTY
 PROV.                        :  PROVINCE
 STAT.                        :  STATE
 UWI .                        :  UNIQUE WELL IDENTIFIER
 LOC .                        :  LOCATION
 LMF .             Drill Floor:  LOG MEASURED FROM
 TVDS.m                  43.29:  TVDSS CORRECTN
 LATI.deg                40.03:  LATITUDE
 LONG.deg                51.35:  LONGITUDE
 WHNS.m                  12.98:  WELL HEAD N/S
 WHEW.m                  -6.62:  WELL HEAD E/W
 UTMX.m              530128.28:  UTM X
 UTMY.m             4433192.49:  UTM Y
 DFWL.m                   0.00:  DISTANCE FWL
 DFSL.m                   0.00:  DISTANCE FSL
 SDEP.m                 378.00:  START DEPTH
 TDD .m                4463.01:  TOTAL DEPTH (DRILLER)
 VSDR.deg               296.18:  VERT SEC DIRECT
 GVFD.g                   1.00:  GRAVITY FIELD
 MFLD.nT              50269.00:  MAGNETIC FIELD
 MDIP.deg                59.50:  MAGNETIC DIP
 MDEC.deg                 6.44:  MAGNETIC DECL
 GRDC.deg                 0.20:  GRID CORRECTION
 AZTC.deg                 6.24:  AZM TOTAL CORR
 EPD .m                   0.00:  ELEVATION
 EGL .m                   0.00:  GROUND ELEVATION
 WDMS.m                 128.20:  WD ELEV
 APD .m                  43.29:  DEPTH ABOVE PD
 AGAP.m                  43.29:  AIR GAP
 VSEW.m                  -6.62:  VERT SEC E/W
 VSNS.m                  12.98:  VERT SEC N/S
 EKB .m                  43.29:  KB ELEVATION
 EDF .m                  43.29:  DF ELEVATION
 TDL .m                 147.00:  TOTAL DEPTH (LOGGER)
 VSC .                       0:  VS TO CLOSURE
 MAGU.                 1849241:  MAGUTM CHECKSUM
~Parameter Information Block
#MNEM.UNIT       Value        Description
#---------     -----------    ---------------------------
 AV  .mps                 0.70:  Ann Velocity 
 AZIF.deg               269.43:  Azm, Final 
 BHAT.        Rotary Steerable:  BHA Type 
 BROT.°/30m              -0.03:  Build Rotating 
 BS  .in                  8.50:  Bit Size 
 BSZ .in                  8.50:  Bit Size 
 BTPL.psig              880.00:  Bit Press Loss 
 CABU.                      No:  Customer Abuse 
 CGEO.          Parviz Guliyev:  Customer Geo 
 COMM.                     >h:  Run Comments 1 
 TCS .hr                 64.59:  Time Ciculation Ended 
 CV  .mps                 2.17:  Crit Velocity 
 DD1 .            Nonso Okafor:  Direct Drillr 1 
 DDSV.               Geo-Pilot:  DD Service 
 DEFF.%                  98.00:  % Det Eff 
 DLRX.°/30m               0.81:  Dogleg Rot Max 
 DLSO.°/30m               0.55:  Dogleg Oriented 
 DLSX.°/30m               0.81:  Dogleg Str Max 
 DRET.      23.50.00 24-Aug-20:  Drill End Time 
 DRST.      07.34.24 22-Aug-20:  Drill Start Tim 
 DTIM.hr                 15.29:  Time Drilling 
 EDEP.m                4461.01:  End Depth 
 ENG1.       Zam Abdullah Sani:  Engineer 1 
 ENG2.         Dair Mahammadov:  Engineer 2 
 ENG3.          Rustam Gadirov:  Engineer 3 
 ETIM.      07.34.24 26-Aug-20:  End Time 
 FLOI.gpm               550.00:  Flow In 
 FLON.gpm               400.00:  Flow In Min 
 FLOS.cptm                1.00:  Fluid Loss 
 FLOX.gpm               600.00:  Flow In Max 
 FTRO.       Formation Presure:  FTWD Run Obj 
 HFLO.                      No:  High Flow 
 HPRE.                      No:  High Pressure 
 HTEM.                      No:  High Temp 
 HYDO.m                   1.80:  Hydro Offset 
 IFIN.deg                66.72:  Inc, Final 
 IMAX.deg                67.42:  Inc Max 
 IMIN.deg                66.72:  Inc Min 
 IMND.m                4408.37:  Inc Min Depth 
 IMXD.m                4323.37:  Inc Max Depth 
 JARR.                      No:  Jarring 
 LETM.      23.50.00 24-Aug-20:  Log End Time 
 LOST.hr                     0:  Lost Rig Time 
 LSTM.      07.34.24 22-Aug-20:  Log Start Time 
 MDCL.ppm             38000.00:  Mud Chlorides 
 MDES.     Inversion Oil/Synthetic:  Mud Desc 
 DFD .sg                  1.40:  Mud Density 
 MDMN.sg                  1.38:  Dens Mud Min 
 MDMX.sg                  1.41:  Dens Mud Max 
 MOIL.                    70.5:  Run Mud Oil % 
 MOWR.                   68:32:  Run Mud OWR 
 MSND.                    0.01:  Run Mud Sand % 
 MSOL.                   17.68:  Run Mud Solids% 
 DFV .spqt               77.00:  Mud Viscosity 
 MWOD.in                  6.75:  MWD Tool OD 
 MWSI.                      No:  Serv Intrp, MWD 
 OTIM.hr                159.42:  Time Operating 
 PCON.           Look Like New:  Pad Condition 
 PMAX.psia             8730.94:  Press Op, Max 
 PV  .cP                 31.00:  Mud PV 
 RUN .                     900:  Run Number 
 ROPA.m/hr               12.00:  ROP Avg 
 ROPN.m/hr                7.00:  ROP Min 
 ROPX.m/hr               17.00:  ROP Max 
 RPMA.rpm               120.00:  RPM Surface Avg 
 RPMN.rpm                60.00:  RPM Surface Min 
 RPMX.rpm               140.00:  RPM Surface Max 
 RRUN.                    L604:  Rig Run Number 
 RTIM.hr                 10.00:  Time Reaming 
 SAZI.deg               270.56:  Azm, Start 
 SDEP.m                4314.01:  Start Depth 
 SIDD.                      No:  Serv Intrp, DD 
 SINC.deg                67.42:  Inc, Start 
 SPPA.psig             3300.00:  SPP Avg 
 SPPN.psig             1750.00:  SPP Min 
 SPPX.psig             4630.00:  SPP Max 
 STIM.      11.00.00 21-Aug-20:  Start Time 
 SVCS.                 DD, MWD:  Services 
 SVER.                    9.20:  Sperry Version 
 TDAT.m                4461.01:  Tot Depth Attmp 
 TDDF.                      No:  Trip for DD 
 TDLG.m                 147.00:  Tot Depth Loggd 
 TFF .                      No:  Trip for Fail 
 TQAA.f-kp               16.00:  Torque Abs Avg 
 TQAN.f-kp               14.00:  Torque Abs Min 
 TQAX.f-kp               20.00:  Torque Abs Max 
 TRRT.°/30m              -0.14:  Turn Rotating 
 MRT .                    HCIM:  Maximum Recorded Temperature 
 TTMX.degC               78.00:  Max Tool Temp 
 VS01.                90515425:  Virtual Str1 SN 
 VS02.                90545184:  Virtual Str2 SN 
 VS03.                90527809:  Virtual Str3 SN 
 VS04.                90515232:  Virtual Str4 SN 
 VS05.                90621207:  Virtual Str5 SN 
 VS06.                90619737:  Virtual Str6 SN 
 WBMN.klb                 2.00:  WOB Min 
 WITN.          Keith Dischler:  Customer Rep 
 WITN.           Faig Mammadov:  Customer Rep 2 
 WOBA.klb                 5.00:  WOB Avg 
 WOBX.klb                 8.00:  WOB Max 
 YP  .lhf2               32.00:  Yield Point 
~Curve Information Block
#MNEM.UNIT                 API CODE     Curve Description
#---------               -----------    ---------------------------
 TIME.HHMMSS            00 000 000 000:  GT Time & Date
 GTET.sec               00 000 000 000:  GT Elapsed Test Time
 GTPQH.psia             00 000 000 000:  GT HR Quartz Pressure
 GTDEPTH.m              00 000 000 000:  GT Depth
 GTTVD.m                00 000 000 000:  GT True Vertical Depth
 GTTQ.degC              00 000 000 000:  GT Quartz Temperature
 GTTN.NONE              00 000 000 000:  GT Test Number
#Other Information
#
#WARRANTY: Halliburton will use its best efforts to furnish customers with 
#accurate information and interpretations that are part of, and incident to, the services 
#provided.  However, Halliburton cannot and does not warrant the accuracy 
#or correctness of such information and interpretations.  Under no circumstances should any 
#such information or interpretation be relied upon as the sole basis for any drilling, 
#completion, production, or financial decision or any procedure involving any risk to the 
#safety of any drilling venture, drilling rig or its crew or any other third party.  The 
#Customer has full responsibility for all drilling, completion and production operation.  
#Halliburton makes no representations or warranties, either expressed or 
#implied, including, but not limited to, the implied warranties of merchantability or fitness 
#for a particular purpose, with respect to the services rendered.  In no event will 
#Halliburton be liable for failure to obtain any particular results or for 
#any damages, including, but not limited to, indirect, special or consequential damages, 
#resulting from the use of any information or interpretation provided by Halliburton.
#
~A           TIME            GTET   GTPQH  GTDEPTH  GTTVD  GTTQ  GTTN  
# ...
   12:28:56.000.25-Aug-2020 226.00   26.04 4311.01 2041.94 71.60 12.00
   12:28:56.200.25-Aug-2020 226.20   26.04 4311.01 2041.94 71.60 12.00
   12:28:56.400.25-Aug-2020 226.40   26.03 4311.01 2041.94 71.60 12.00
   12:28:56.600.25-Aug-2020 226.60   26.04 4311.01 2041.94 71.60 12.00
   12:28:56.800.25-Aug-2020 226.80   26.01 4311.01 2041.94 71.60 12.00
   12:28:57.000.25-Aug-2020 227.00   26.04 4311.01 2041.94 71.60 12.00
   12:28:57.200.25-Aug-2020 227.20   26.04 4311.01 2041.94 71.60 12.00
   12:28:57.400.25-Aug-2020 227.40   26.06 4311.01 2041.94 71.60 12.00
   12:28:57.600.25-Aug-2020 227.60   26.06 4311.01 2041.94 71.60 12.00
   12:28:57.800.25-Aug-2020 227.80   26.03 4311.01 2041.94 71.60 12.00
   12:28:58.000.25-Aug-2020 228.00   26.08 4311.01 2041.94 71.60 12.00
   12:28:58.200.25-Aug-2020 228.20   26.08 4311.01 2041.94 71.60 12.00
   12:28:58.400.25-Aug-2020 228.40   26.09 4311.01 2041.94 71.60 12.00
   12:28:58.600.25-Aug-2020 228.60   26.09 4311.01 2041.94 71.60 12.00
   12:28:58.800.25-Aug-2020 228.80   26.09 4311.01 2041.94 71.60 12.00
   12:28:59.000.25-Aug-2020 229.00   26.10 4311.01 2041.94 71.60 12.00
   12:28:59.200.25-Aug-2020 229.20   26.10 4311.01 2041.94 71.60 12.00
   12:28:59.400.25-Aug-2020 229.40   26.10 4311.01 2041.94 71.60 12.00
   12:28:59.600.25-Aug-2020 229.60   26.12 4311.01 2041.94 71.60 12.00
   12:28:59.800.25-Aug-2020 229.80   26.13 4311.01 2041.94 71.60 12.00
   12:29:00.000.25-Aug-2020 230.00   26.13 4311.01 2041.94 71.60 12.00
   12:29:00.200.25-Aug-2020 230.20   26.13 4311.01 2041.94 71.60 12.00
   12:29:00.400.25-Aug-2020 230.40   26.14 4311.01 2041.94 71.60 12.00
   12:29:00.600.25-Aug-2020 230.60   26.14 4311.01 2041.94 71.60 12.00
   12:29:00.800.25-Aug-2020 230.80   26.15 4311.01 2041.94 71.60 12.00
   12:29:01.000.25-Aug-2020 231.00   26.16 4311.01 2041.94 71.60 12.00
   12:29:01.200.25-Aug-2020 231.20   26.16 4311.01 2041.94 71.60 12.00
   12:29:01.400.25-Aug-2020 231.40   26.18 4311.01 2041.94 71.60 12.00
   12:29:01.600.25-Aug-2020 231.60   26.17 4311.01 2041.94 71.60 12.00
   12:29:01.800.25-Aug-2020 231.80   26.18 4311.01 2041.94 71.60 12.00
   12:29:02.000.25-Aug-2020 232.00   26.18 4311.01 2041.94 71.60 12.00
   12:29:02.200.25-Aug-2020 232.20   26.19 4311.01 2041.94 71.60 12.00
   12:29:02.400.25-Aug-2020 232.40   26.20 4311.01 2041.94 71.60 12.00
   12:29:02.600.25-Aug-2020 232.60   26.20 4311.01 2041.94 71.60 12.00
   12:29:02.800.25-Aug-2020 232.80   26.19 4311.01 2041.94 71.60 12.00
   12:29:03.000.25-Aug-2020 233.00   26.21 4311.01 2041.94 71.60 12.00
   12:29:03.200.25-Aug-2020 233.20   26.23 4311.01 2041.94 71.60 12.00
   12:29:03.400.25-Aug-2020 233.40   26.24 4311.01 2041.94 71.60 12.00
   12:29:03.600.25-Aug-2020 233.60   26.24 4311.01 2041.94 71.60 12.00
   12:29:03.800.25-Aug-2020 233.80   26.24 4311.01 2041.94 71.60 12.00
   12:29:04.000.25-Aug-2020 234.00   26.25 4311.01 2041.94 71.60 12.00
   12:29:04.200.25-Aug-2020 234.20   26.25 4311.01 2041.94 71.60 12.00
   12:29:04.400.25-Aug-2020 234.40   26.26 4311.01 2041.94 71.60 12.00
   12:29:04.600.25-Aug-2020 234.60   26.26 4311.01 2041.94 71.60 12.00
   12:29:04.800.25-Aug-2020 234.80   26.26 4311.01 2041.94 71.60 12.00
   12:29:05.000.25-Aug-2020 235.00   26.28 4311.01 2041.94 71.60 12.00
   12:29:05.200.25-Aug-2020 235.20   26.28 4311.01 2041.94 71.60 12.00
   12:29:05.400.25-Aug-2020 235.40   26.29 4311.01 2041.94 71.60 12.00
   12:29:05.600.25-Aug-2020 235.60   26.29 4311.01 2041.94 71.60 12.00
   12:29:05.800.25-Aug-2020 235.80   26.30 4311.01 2041.94 71.60 12.00
   12:29:06.000.25-Aug-2020 236.00   26.28 4311.01 2041.94 71.60 12.00
   12:29:06.200.25-Aug-2020 236.20   26.30 4311.01 2041.94 71.60 12.00
   12:29:06.400.25-Aug-2020 236.40   26.32 4311.01 2041.94 71.60 12.00
   12:29:06.600.25-Aug-2020 236.60   26.32 4311.01 2041.94 71.60 12.00
   12:29:06.800.25-Aug-2020 236.80   26.32 4311.01 2041.94 71.60 12.00
   12:29:07.000.25-Aug-2020 237.00   26.30 4311.01 2041.94 71.60 12.00
   12:29:07.200.25-Aug-2020 237.20   26.30 4311.01 2041.94 71.60 12.00
   12:29:07.400.25-Aug-2020 237.40   26.33 4311.01 2041.94 71.60 12.00
   12:29:07.600.25-Aug-2020 237.60   26.33 4311.01 2041.94 71.60 12.00
   12:29:07.800.25-Aug-2020 237.80   26.35 4311.01 2041.94 71.60 12.00
   12:29:08.000.25-Aug-2020 238.00   26.31 4311.01 2041.94 71.60 12.00
   12:29:08.200.25-Aug-2020 238.20   26.31 4311.01 2041.94 71.60 12.00
   12:29:08.400.25-Aug-2020 238.40   26.36 4311.01 2041.94 71.60 12.00
   12:29:08.600.25-Aug-2020 238.60   26.38 4311.01 2041.94 71.60 12.00
   12:29:08.800.25-Aug-2020 238.80   26.37 4311.01 2041.94 71.60 12.00
   12:29:09.000.25-Aug-2020 239.00   26.34 4311.01 2041.94 71.60 12.00
   12:29:09.200.25-Aug-2020 239.20   26.40 4311.01 2041.94 71.60 12.00
   12:29:09.400.25-Aug-2020 239.40   26.39 4311.01 2041.94 71.60 12.00
   12:29:09.600.25-Aug-2020 239.60   26.39 4311.01 2041.94 71.60 12.00
   12:29:09.800.25-Aug-2020 239.80   26.40 4311.01 2041.94 71.60 12.00
   12:29:10.000.25-Aug-2020 240.00   26.41 4311.01 2041.94 71.60 12.00
   12:29:10.200.25-Aug-2020 240.20   26.41 4311.01 2041.94 71.60 12.00
   12:29:10.400.25-Aug-2020 240.40   26.37 4311.01 2041.94 71.60 12.00
   12:29:10.600.25-Aug-2020 240.60   26.42 4311.01 2041.94 71.60 12.00
   12:29:10.800.25-Aug-2020 240.80   26.42 4311.01 2041.94 71.60 12.00
   12:29:11.000.25-Aug-2020 241.00   26.43 4311.01 2041.94 71.60 12.00
   12:29:11.200.25-Aug-2020 241.20   26.44 4311.01 2041.94 71.60 12.00
   12:29:11.400.25-Aug-2020 241.40   26.44 4311.01 2041.94 71.60 12.00
   12:29:11.600.25-Aug-2020 241.60   26.44 4311.01 2041.94 71.60 12.00
   12:29:11.800.25-Aug-2020 241.80   26.45 4311.01 2041.94 71.60 12.00
   12:29:12.000.25-Aug-2020 242.00   26.46 4311.01 2041.94 71.60 12.00
   12:29:12.200.25-Aug-2020 242.20   26.47 4311.01 2041.94 71.60 12.00
   12:29:12.400.25-Aug-2020 242.40   26.47 4311.01 2041.94 71.60 12.00
   12:29:12.600.25-Aug-2020 242.60   26.47 4311.01 2041.94 71.60 12.00
   12:29:12.800.25-Aug-2020 242.80   26.48 4311.01 2041.94 71.60 12.00
   12:29:13.000.25-Aug-2020 243.00   26.49 4311.01 2041.94 71.60 12.00
   12:29:13.200.25-Aug-2020 243.20   26.48 4311.01 2041.94 71.60 12.00
   12:29:13.400.25-Aug-2020 243.40   26.50 4311.01 2041.94 71.60 12.00
   12:29:13.600.25-Aug-2020 243.60   26.50 4311.01 2041.94 71.60 12.00
   12:29:13.800.25-Aug-2020 243.80   26.50 4311.01 2041.94 71.60 12.00
   12:29:14.000.25-Aug-2020 244.00   26.47 4311.01 2041.94 71.60 12.00
   12:29:14.200.25-Aug-2020 244.20   26.53 4311.01 2041.94 71.60 12.00
   12:29:14.400.25-Aug-2020 244.40   26.52 4311.01 2041.94 71.60 12.00
   12:29:14.600.25-Aug-2020 244.60   26.53 4311.01 2041.94 71.60 12.00
   12:29:14.800.25-Aug-2020 244.80   26.53 4311.01 2041.94 71.60 12.00
   12:29:15.000.25-Aug-2020 245.00   26.54 4311.01 2041.94 71.60 12.00
   12:29:15.200.25-Aug-2020 245.20   26.55 4311.01 2041.94 71.60 12.00
   12:29:15.400.25-Aug-2020 245.40   26.55 4311.01 2041.94 71.60 12.00
   12:29:15.600.25-Aug-2020 245.60   26.55 4311.01 2041.94 71.60 12.00
   12:29:15.800.25-Aug-2020 245.80   26.55 4311.01 2041.94 71.60 12.00
   12:29:16.000.25-Aug-2020 246.00   26.56 4311.01 2041.94 71.60 12.00
   12:29:16.200.25-Aug-2020 246.20   26.56 4311.01 2041.94 71.60 12.00
   12:29:16.400.25-Aug-2020 246.40   26.58 4311.01 2041.94 71.60 12.00
   12:29:16.600.25-Aug-2020 246.60   26.57 4311.01 2041.94 71.60 12.00
   12:29:16.800.25-Aug-2020 246.80   26.58 4311.01 2041.94 71.60 12.00
   12:29:17.000.25-Aug-2020 247.00   26.58 4311.01 2041.94 71.60 12.00
   12:29:17.200.25-Aug-2020 247.20   26.55 4311.01 2041.94 71.60 12.00
   12:29:17.400.25-Aug-2020 247.40   26.61 4311.01 2041.94 71.60 12.00
   12:29:17.600.25-Aug-2020 247.60   26.61 4311.01 2041.94 71.60 12.00
   12:29:17.800.25-Aug-2020 247.80   26.61 4311.01 2041.94 71.60 12.00
   12:29:18.000.25-Aug-2020 248.00   26.61 4311.01 2041.94 71.60 12.00
   12:29:18.200.25-Aug-2020 248.20   26.61 4311.01 2041.94 71.60 12.00
   12:29:18.400.25-Aug-2020 248.40   26.59 4311.01 2041.94 71.60 12.00
