~Version Information
 VERS.                  2.0:   CWLS log ASCII Standard -VERSION 2.0
 WRAP.                   NO:   One line per depth step
~Well Information Block
#MNEM.UNIT     VALUE/NAME     DESCRIPTION
#---------     -----------    ---------------------------
 STRT.S             06:12:42 25-Aug-20: START TIME 06:12:42 25-Aug-20
 STOP.S             06:19:48 25-Aug-20: STOP TIME  06:19:48 25-Aug-20
 STEP.S                   0.00: STEP TIME
 NULL.                 -999.25: NULL VALUE
 DFWT.                        :  DIST FWL TEXT
 DFST.                        :  DIST FSL TEXT
 DMF .             Drill Floor:  DRILL MEAS FROM
 STIM.      09.59.28 01-Jun-20:  START TIME
 DATE.      05.00.00 28-Aug-20:  END TIME
 SPUD.               01-Jun-20:  SPUD DATE
 NREF.                    Grid:  NORTH REFERENCE
 HPTY.       Minimum Curvature:  HOLE POS TYPE
 DMOD.             Drill Model:  DRILL MOD DESC
 SVYD.                  Survey:  SURVEY DESC
 ILTD.               Lithology:  INTERP LTH DESC
 FTOP.          Formation Tops:  FORM TOPS DESC
 SON .        AZ-XX-0905455768:  JOB NUMBER
 WTYP.                Deviated:  WELL TYPE
 COMP.     BP Exploration(Caspian Sea):  COMPANY
 BASE.              Azerbaijan:  LOGGING EQUIPMENT BASE LOCATION
 REGN.                   EESSA:  REGION
 CTRY.              Azerbaijan:  COUNTRY NAME
 FLD .                     ACG:  FIELD NAME
 SRVC.          Turan Drilling:  CONTRACTOR
 WELL.                     B41:  WELL NAME
 RIG .           Central Azeri:  RIG NAME
 DCON.         Sperry Drilling:  DIRECTNL CONTR
 PDAT.          Mean Sea Level:  PERMANENT DATUM
 MDS .        Operator Entered:  MAG DATA SOURCE
 API .                        :  API NUMBER
 CNTY.                        :  COUNTY
 PROV.                        :  PROVINCE
 STAT.                        :  STATE
 UWI .                        :  UNIQUE WELL IDENTIFIER
 LOC .                        :  LOCATION
 LMF .             Drill Floor:  LOG MEASURED FROM
 TVDS.m                  43.29:  TVDSS CORRECTN
 LATI.deg                40.03:  LATITUDE
 LONG.deg                51.35:  LONGITUDE
 WHNS.m                  12.98:  WELL HEAD N/S
 WHEW.m                  -6.62:  WELL HEAD E/W
 UTMX.m              530128.28:  UTM X
 UTMY.m             4433192.49:  UTM Y
 DFWL.m                   0.00:  DISTANCE FWL
 DFSL.m                   0.00:  DISTANCE FSL
 SDEP.m                 378.00:  START DEPTH
 TDD .m                4463.01:  TOTAL DEPTH (DRILLER)
 VSDR.deg               296.18:  VERT SEC DIRECT
 GVFD.g                   1.00:  GRAVITY FIELD
 MFLD.nT              50269.00:  MAGNETIC FIELD
 MDIP.deg                59.50:  MAGNETIC DIP
 MDEC.deg                 6.44:  MAGNETIC DECL
 GRDC.deg                 0.20:  GRID CORRECTION
 AZTC.deg                 6.24:  AZM TOTAL CORR
 EPD .m                   0.00:  ELEVATION
 EGL .m                   0.00:  GROUND ELEVATION
 WDMS.m                 128.20:  WD ELEV
 APD .m                  43.29:  DEPTH ABOVE PD
 AGAP.m                  43.29:  AIR GAP
 VSEW.m                  -6.62:  VERT SEC E/W
 VSNS.m                  12.98:  VERT SEC N/S
 EKB .m                  43.29:  KB ELEVATION
 EDF .m                  43.29:  DF ELEVATION
 TDL .m                 147.00:  TOTAL DEPTH (LOGGER)
 VSC .                       0:  VS TO CLOSURE
 MAGU.                 1849241:  MAGUTM CHECKSUM
~Parameter Information Block
#MNEM.UNIT       Value        Description
#---------     -----------    ---------------------------
 AV  .mps                 0.70:  Ann Velocity 
 AZIF.deg               269.43:  Azm, Final 
 BHAT.        Rotary Steerable:  BHA Type 
 BROT.°/30m              -0.03:  Build Rotating 
 BS  .in                  8.50:  Bit Size 
 BSZ .in                  8.50:  Bit Size 
 BTPL.psig              880.00:  Bit Press Loss 
 CABU.                      No:  Customer Abuse 
 CGEO.          Parviz Guliyev:  Customer Geo 
 COMM.                     ôb:  Run Comments 1 
 TCS .hr                 64.59:  Time Ciculation Ended 
 CV  .mps                 2.17:  Crit Velocity 
 DD1 .            Nonso Okafor:  Direct Drillr 1 
 DDSV.               Geo-Pilot:  DD Service 
 DEFF.%                  98.00:  % Det Eff 
 DLRX.°/30m               0.81:  Dogleg Rot Max 
 DLSO.°/30m               0.55:  Dogleg Oriented 
 DLSX.°/30m               0.81:  Dogleg Str Max 
 DRET.      23.50.00 24-Aug-20:  Drill End Time 
 DRST.      07.34.24 22-Aug-20:  Drill Start Tim 
 DTIM.hr                 15.29:  Time Drilling 
 EDEP.m                4461.01:  End Depth 
 ENG1.       Zam Abdullah Sani:  Engineer 1 
 ENG2.         Dair Mahammadov:  Engineer 2 
 ENG3.          Rustam Gadirov:  Engineer 3 
 ETIM.      07.34.24 26-Aug-20:  End Time 
 FLOI.gpm               550.00:  Flow In 
 FLON.gpm               400.00:  Flow In Min 
 FLOS.cptm                1.00:  Fluid Loss 
 FLOX.gpm               600.00:  Flow In Max 
 FTRO.       Formation Presure:  FTWD Run Obj 
 HFLO.                      No:  High Flow 
 HPRE.                      No:  High Pressure 
 HTEM.                      No:  High Temp 
 HYDO.m                   1.80:  Hydro Offset 
 IFIN.deg                66.72:  Inc, Final 
 IMAX.deg                67.42:  Inc Max 
 IMIN.deg                66.72:  Inc Min 
 IMND.m                4408.37:  Inc Min Depth 
 IMXD.m                4323.37:  Inc Max Depth 
 JARR.                      No:  Jarring 
 LETM.      23.50.00 24-Aug-20:  Log End Time 
 LOST.hr                     0:  Lost Rig Time 
 LSTM.      07.34.24 22-Aug-20:  Log Start Time 
 MDCL.ppm             38000.00:  Mud Chlorides 
 MDES.     Inversion Oil/Synthetic:  Mud Desc 
 DFD .sg                  1.40:  Mud Density 
 MDMN.sg                  1.38:  Dens Mud Min 
 MDMX.sg                  1.41:  Dens Mud Max 
 MOIL.                    70.5:  Run Mud Oil % 
 MOWR.                   68:32:  Run Mud OWR 
 MSND.                    0.01:  Run Mud Sand % 
 MSOL.                   17.68:  Run Mud Solids% 
 DFV .spqt               77.00:  Mud Viscosity 
 MWOD.in                  6.75:  MWD Tool OD 
 MWSI.                      No:  Serv Intrp, MWD 
 OTIM.hr                159.42:  Time Operating 
 PCON.           Look Like New:  Pad Condition 
 PMAX.psia             8730.94:  Press Op, Max 
 PV  .cP                 31.00:  Mud PV 
 RUN .                     900:  Run Number 
 ROPA.m/hr               12.00:  ROP Avg 
 ROPN.m/hr                7.00:  ROP Min 
 ROPX.m/hr               17.00:  ROP Max 
 RPMA.rpm               120.00:  RPM Surface Avg 
 RPMN.rpm                60.00:  RPM Surface Min 
 RPMX.rpm               140.00:  RPM Surface Max 
 RRUN.                    L604:  Rig Run Number 
 RTIM.hr                 10.00:  Time Reaming 
 SAZI.deg               270.56:  Azm, Start 
 SDEP.m                4314.01:  Start Depth 
 SIDD.                      No:  Serv Intrp, DD 
 SINC.deg                67.42:  Inc, Start 
 SPPA.psig             3300.00:  SPP Avg 
 SPPN.psig             1750.00:  SPP Min 
 SPPX.psig             4630.00:  SPP Max 
 STIM.      11.00.00 21-Aug-20:  Start Time 
 SVCS.                 DD, MWD:  Services 
 SVER.                    9.20:  Sperry Version 
 TDAT.m                4461.01:  Tot Depth Attmp 
 TDDF.                      No:  Trip for DD 
 TDLG.m                 147.00:  Tot Depth Loggd 
 TFF .                      No:  Trip for Fail 
 TQAA.f-kp               16.00:  Torque Abs Avg 
 TQAN.f-kp               14.00:  Torque Abs Min 
 TQAX.f-kp               20.00:  Torque Abs Max 
 TRRT.°/30m              -0.14:  Turn Rotating 
 MRT .                    HCIM:  Maximum Recorded Temperature 
 TTMX.degC               78.00:  Max Tool Temp 
 VS01.                90515425:  Virtual Str1 SN 
 VS02.                90545184:  Virtual Str2 SN 
 VS03.                90527809:  Virtual Str3 SN 
 VS04.                90515232:  Virtual Str4 SN 
 VS05.                90621207:  Virtual Str5 SN 
 VS06.                90619737:  Virtual Str6 SN 
 WBMN.klb                 2.00:  WOB Min 
 WITN.          Keith Dischler:  Customer Rep 
 WITN.           Faig Mammadov:  Customer Rep 2 
 WOBA.klb                 5.00:  WOB Avg 
 WOBX.klb                 8.00:  WOB Max 
 YP  .lhf2               32.00:  Yield Point 
~Curve Information Block
#MNEM.UNIT                 API CODE     Curve Description
#---------               -----------    ---------------------------
 TIME.HHMMSS            00 000 000 000:  GT Time & Date
 GTET.sec               00 000 000 000:  GT Elapsed Test Time
 GTPQH.psia             00 000 000 000:  GT HR Quartz Pressure
 GTDEPTH.m              00 000 000 000:  GT Depth
 GTTVD.m                00 000 000 000:  GT True Vertical Depth
 GTTQ.degC              00 000 000 000:  GT Quartz Temperature
 GTTN.NONE              00 000 000 000:  GT Test Number
#Other Information
#
#WARRANTY: Halliburton will use its best efforts to furnish customers with 
#accurate information and interpretations that are part of, and incident to, the services 
#provided.  However, Halliburton cannot and does not warrant the accuracy 
#or correctness of such information and interpretations.  Under no circumstances should any 
#such information or interpretation be relied upon as the sole basis for any drilling, 
#completion, production, or financial decision or any procedure involving any risk to the 
#safety of any drilling venture, drilling rig or its crew or any other third party.  The 
#Customer has full responsibility for all drilling, completion and production operation.  
#Halliburton makes no representations or warranties, either expressed or 
#implied, including, but not limited to, the implied warranties of merchantability or fitness 
#for a particular purpose, with respect to the services rendered.  In no event will 
#Halliburton be liable for failure to obtain any particular results or for 
#any damages, including, but not limited to, indirect, special or consequential damages, 
#resulting from the use of any information or interpretation provided by Halliburton.
#
~A           TIME            GTET   GTPQH  GTDEPTH  GTTVD  GTTQ  GTTN 
   06:12:42.000.25-Aug-2020   0.00 4756.78 4397.01 2075.58 73.43 2.00
   06:12:42.200.25-Aug-2020   0.20 4756.78 4397.01 2075.58 73.43 2.00
   06:12:42.400.25-Aug-2020   0.40 4758.82 4397.01 2075.58 73.43 2.00
   06:12:42.600.25-Aug-2020   0.60 4771.34 4397.01 2075.58 73.43 2.00
   06:12:42.800.25-Aug-2020   0.80 4760.04 4397.01 2075.58 73.43 2.00
   06:12:43.000.25-Aug-2020   1.00 4760.84 4397.01 2075.58 73.43 2.00
   06:12:43.200.25-Aug-2020   1.20 4760.84 4397.01 2075.58 73.43 2.00
   06:12:43.400.25-Aug-2020   1.40 4775.23 4397.01 2075.58 73.43 2.00
   06:12:43.600.25-Aug-2020   1.60 4764.15 4397.01 2075.58 73.43 2.00
   06:12:43.800.25-Aug-2020   1.80 4765.31 4397.01 2075.58 73.43 2.00
   06:12:44.000.25-Aug-2020   2.00 4766.77 4397.01 2075.58 73.43 2.00
   06:12:44.200.25-Aug-2020   2.20 4766.77 4397.01 2075.58 73.43 2.00
   06:12:44.400.25-Aug-2020   2.40 4765.66 4397.01 2075.58 73.43 2.00
   06:12:44.600.25-Aug-2020   2.60 4774.40 4397.01 2075.58 73.43 2.00
   06:12:44.800.25-Aug-2020   2.80 4766.98 4397.01 2075.58 73.43 2.00
   06:12:45.000.25-Aug-2020   3.00 4772.49 4397.01 2075.58 73.43 2.00
   06:12:45.200.25-Aug-2020   3.20 4769.70 4397.01 2075.58 73.43 2.00
   06:12:45.400.25-Aug-2020   3.40 4767.43 4397.01 2075.58 73.43 2.00
   06:12:45.600.25-Aug-2020   3.60 4765.78 4397.01 2075.58 73.43 2.00
   06:12:45.800.25-Aug-2020   3.80 4765.95 4397.01 2075.58 73.43 2.00
   06:12:46.000.25-Aug-2020   4.00 4765.47 4397.01 2075.58 73.43 2.00
   06:12:46.200.25-Aug-2020   4.20 4765.47 4397.01 2075.58 73.43 2.00
   06:12:46.400.25-Aug-2020   4.40 4765.48 4397.01 2075.58 73.43 2.00
   06:12:46.600.25-Aug-2020   4.60 4765.29 4397.01 2075.58 73.43 2.00
   06:12:46.800.25-Aug-2020   4.80 4766.20 4397.01 2075.58 73.43 2.00
   06:12:47.000.25-Aug-2020   5.00 4766.99 4397.01 2075.58 73.43 2.00
   06:12:47.200.25-Aug-2020   5.20 4766.99 4397.01 2075.58 73.43 2.00
   06:12:47.400.25-Aug-2020   5.40 4766.67 4397.01 2075.58 73.43 2.00
   06:12:47.600.25-Aug-2020   5.60 4767.32 4397.01 2075.58 73.43 2.00
   06:12:47.800.25-Aug-2020   5.80 4766.86 4397.01 2075.58 73.43 2.00
   06:12:48.000.25-Aug-2020   6.00 4767.60 4397.01 2075.58 73.43 2.00
   06:12:48.200.25-Aug-2020   6.20 4767.60 4397.01 2075.58 73.43 2.00
   06:12:48.400.25-Aug-2020   6.40 4779.33 4397.01 2075.58 73.43 2.00
   06:12:48.600.25-Aug-2020   6.60 4776.63 4397.01 2075.58 73.43 2.00
   06:12:48.800.25-Aug-2020   6.80 4770.65 4397.01 2075.58 73.43 2.00
   06:12:49.000.25-Aug-2020   7.00 4770.01 4397.01 2075.58 73.43 2.00
   06:12:49.200.25-Aug-2020   7.20 4769.67 4397.01 2075.58 73.43 2.00
   06:12:49.400.25-Aug-2020   7.40 4770.23 4397.01 2075.58 73.43 2.00
   06:12:49.600.25-Aug-2020   7.60 4771.37 4397.01 2075.58 73.43 2.00
   06:12:49.800.25-Aug-2020   7.80 4771.91 4397.01 2075.58 73.43 2.00
   06:12:50.000.25-Aug-2020   8.00 4770.89 4397.01 2075.58 73.43 2.00
   06:12:50.200.25-Aug-2020   8.20 4770.89 4397.01 2075.58 73.43 2.00
   06:12:50.400.25-Aug-2020   8.40 4770.89 4397.01 2075.58 73.43 2.00
   06:12:50.600.25-Aug-2020   8.60 4772.14 4397.01 2075.58 73.43 2.00
   06:12:50.800.25-Aug-2020   8.80 4770.88 4397.01 2075.58 73.43 2.00
   06:12:51.000.25-Aug-2020   9.00 4771.17 4397.01 2075.58 73.43 2.00
   06:12:51.200.25-Aug-2020   9.20 4771.17 4397.01 2075.58 73.43 2.00
   06:12:51.400.25-Aug-2020   9.40 4771.51 4397.01 2075.58 73.43 2.00
   06:12:51.600.25-Aug-2020   9.60 4770.38 4397.01 2075.58 73.43 2.00
   06:12:51.800.25-Aug-2020   9.80 4771.02 4397.01 2075.58 73.43 2.00
   06:12:52.000.25-Aug-2020  10.00 4780.88 4397.01 2075.58 73.43 2.00
   06:12:52.200.25-Aug-2020  10.20 4780.88 4397.01 2075.58 73.43 2.00
   06:12:52.400.25-Aug-2020  10.40 4772.54 4397.01 2075.58 73.43 2.00
   06:12:52.600.25-Aug-2020  10.60 4772.54 4397.01 2075.58 73.43 2.00
   06:12:52.800.25-Aug-2020  10.80 4771.56 4397.01 2075.58 73.43 2.00
   06:12:53.000.25-Aug-2020  11.00 4772.46 4397.01 2075.58 73.43 2.00
   06:12:53.200.25-Aug-2020  11.20 4782.78 4397.01 2075.58 73.43 2.00
   06:12:53.400.25-Aug-2020  11.40 4781.04 4397.01 2075.58 73.43 2.00
   06:12:53.600.25-Aug-2020  11.60 4775.15 4397.01 2075.58 73.43 2.00
   06:12:53.800.25-Aug-2020  11.80 4774.79 4397.01 2075.58 73.42 2.00
   06:12:54.000.25-Aug-2020  12.00 4774.70 4397.01 2075.58 73.42 2.00
   06:12:54.200.25-Aug-2020  12.20 4774.70 4397.01 2075.58 73.42 2.00
   06:12:54.400.25-Aug-2020  12.40 4788.41 4397.01 2075.58 73.42 2.00
   06:12:54.600.25-Aug-2020  12.60 4777.82 4397.01 2075.58 73.42 2.00
   06:12:54.800.25-Aug-2020  12.80 4778.36 4397.01 2075.58 73.42 2.00
   06:12:55.000.25-Aug-2020  13.00 4779.63 4397.01 2075.58 73.42 2.00
   06:12:55.200.25-Aug-2020  13.20 4779.63 4397.01 2075.58 73.42 2.00
   06:12:55.400.25-Aug-2020  13.40 4777.58 4397.01 2075.58 73.42 2.00
   06:12:55.600.25-Aug-2020  13.60 4791.39 4397.01 2075.58 73.42 2.00
   06:12:55.800.25-Aug-2020  13.80 4780.01 4397.01 2075.58 73.42 2.00
   06:12:56.000.25-Aug-2020  14.00 4779.74 4397.01 2075.58 73.42 2.00
   06:12:56.200.25-Aug-2020  14.20 4779.74 4397.01 2075.58 73.42 2.00
   06:12:56.400.25-Aug-2020  14.40 4788.67 4397.01 2075.58 73.42 2.00
   06:12:56.600.25-Aug-2020  14.60 4778.75 4397.01 2075.58 73.42 2.00
   06:12:56.800.25-Aug-2020  14.80 4784.91 4397.01 2075.58 73.42 2.00
   06:12:57.000.25-Aug-2020  15.00 4782.77 4397.01 2075.58 73.42 2.00
   06:12:57.200.25-Aug-2020  15.20 4780.74 4397.01 2075.58 73.42 2.00
   06:12:57.400.25-Aug-2020  15.40 4778.98 4397.01 2075.58 73.42 2.00
   06:12:57.600.25-Aug-2020  15.60 4781.70 4397.01 2075.58 73.42 2.00
   06:12:57.800.25-Aug-2020  15.80 4784.42 4397.01 2075.58 73.42 2.00
   06:12:58.000.25-Aug-2020  16.00 4789.14 4397.01 2075.58 73.42 2.00
   06:12:58.200.25-Aug-2020  16.20 4789.14 4397.01 2075.58 73.42 2.00
   06:12:58.400.25-Aug-2020  16.40 4782.22 4397.01 2075.58 73.42 2.00
   06:12:58.600.25-Aug-2020  16.60 4782.07 4397.01 2075.58 73.42 2.00
   06:12:58.800.25-Aug-2020  16.80 4782.63 4397.01 2075.58 73.42 2.00
   06:12:59.000.25-Aug-2020  17.00 4782.62 4397.01 2075.58 73.42 2.00
   06:12:59.200.25-Aug-2020  17.20 4782.62 4397.01 2075.58 73.42 2.00
   06:12:59.400.25-Aug-2020  17.40 4783.13 4397.01 2075.58 73.42 2.00
   06:12:59.600.25-Aug-2020  17.60 4783.27 4397.01 2075.58 73.42 2.00
   06:12:59.800.25-Aug-2020  17.80 4783.68 4397.01 2075.58 73.42 2.00
   06:13:00.000.25-Aug-2020  18.00 4783.16 4397.01 2075.58 73.42 2.00
   06:13:00.200.25-Aug-2020  18.20 4783.16 4397.01 2075.58 73.42 2.00
   06:13:00.400.25-Aug-2020  18.40 4784.11 4397.01 2075.58 73.42 2.00
   06:13:00.600.25-Aug-2020  18.60 4784.14 4397.01 2075.58 73.42 2.00
   06:13:00.800.25-Aug-2020  18.80 4783.44 4397.01 2075.58 73.42 2.00
   06:13:01.000.25-Aug-2020  19.00 4783.15 4397.01 2075.58 73.42 2.00
   06:13:01.200.25-Aug-2020  19.20 4782.26 4397.01 2075.58 73.42 2.00
   06:13:01.400.25-Aug-2020  19.40 4791.55 4397.01 2075.58 73.42 2.00
   06:13:01.600.25-Aug-2020  19.60 4790.70 4397.01 2075.58 73.42 2.00
   06:13:01.800.25-Aug-2020  19.80 4785.46 4397.01 2075.58 73.42 2.00
   06:13:02.000.25-Aug-2020  20.00 4784.89 4397.01 2075.58 73.42 2.00
   06:13:02.200.25-Aug-2020  20.20 4784.89 4397.01 2075.58 73.42 2.00
   06:13:02.400.25-Aug-2020  20.40 4783.96 4397.01 2075.58 73.42 2.00
   06:13:02.600.25-Aug-2020  20.60 4783.47 4397.01 2075.58 73.42 2.00
   06:13:02.800.25-Aug-2020  20.80 4785.22 4397.01 2075.58 73.42 2.00
   06:13:03.000.25-Aug-2020  21.00 4786.33 4397.01 2075.58 73.42 2.00
   06:13:03.200.25-Aug-2020  21.20 4786.33 4397.01 2075.58 73.42 2.00
   06:13:03.400.25-Aug-2020  21.40 4786.01 4397.01 2075.58 73.42 2.00
   06:13:03.600.25-Aug-2020  21.60 4785.56 4397.01 2075.58 73.42 2.00
   06:13:03.800.25-Aug-2020  21.80 4784.75 4397.01 2075.58 73.42 2.00
   06:13:04.000.25-Aug-2020  22.00 4785.45 4397.01 2075.58 73.42 2.00
   06:13:04.200.25-Aug-2020  22.20 4785.45 4397.01 2075.58 73.42 2.00
   06:13:04.400.25-Aug-2020  22.40 4786.23 4397.01 2075.58 73.42 2.00
   06:13:04.600.25-Aug-2020  22.60 4784.50 4397.01 2075.58 73.42 2.00
   06:13:04.800.25-Aug-2020  22.80 4794.22 4397.01 2075.58 73.42 2.00
