~Version Information
 VERS.                  2.0:   CWLS log ASCII Standard -VERSION 2.0
 WRAP.                   NO:   One line per depth step
~Well Information Block
#MNEM.UNIT     VALUE/NAME     DESCRIPTION
#---------     -----------    ---------------------------
 STRT.S             08:23:53 25-Aug-20: START TIME 08:23:53 25-Aug-20
 STOP.S             08:30:51 25-Aug-20: STOP TIME  08:30:51 25-Aug-20
 STEP.S                   0.00: STEP TIME
 NULL.                 -999.25: NULL VALUE
 DFWT.                        :  DIST FWL TEXT
 DFST.                        :  DIST FSL TEXT
 DMF .             Drill Floor:  DRILL MEAS FROM
 STIM.      09.59.28 01-Jun-20:  START TIME
 DATE.      05.00.00 28-Aug-20:  END TIME
 SPUD.               01-Jun-20:  SPUD DATE
 NREF.                    Grid:  NORTH REFERENCE
 HPTY.       Minimum Curvature:  HOLE POS TYPE
 DMOD.             Drill Model:  DRILL MOD DESC
 SVYD.                  Survey:  SURVEY DESC
 ILTD.               Lithology:  INTERP LTH DESC
 FTOP.          Formation Tops:  FORM TOPS DESC
 SON .        AZ-XX-0905455768:  JOB NUMBER
 WTYP.                Deviated:  WELL TYPE
 COMP.     BP Exploration(Caspian Sea):  COMPANY
 BASE.              Azerbaijan:  LOGGING EQUIPMENT BASE LOCATION
 REGN.                   EESSA:  REGION
 CTRY.              Azerbaijan:  COUNTRY NAME
 FLD .                     ACG:  FIELD NAME
 SRVC.          Turan Drilling:  CONTRACTOR
 WELL.                     B41:  WELL NAME
 RIG .           Central Azeri:  RIG NAME
 DCON.         Sperry Drilling:  DIRECTNL CONTR
 PDAT.          Mean Sea Level:  PERMANENT DATUM
 MDS .        Operator Entered:  MAG DATA SOURCE
 API .                        :  API NUMBER
 CNTY.                        :  COUNTY
 PROV.                        :  PROVINCE
 STAT.                        :  STATE
 UWI .                        :  UNIQUE WELL IDENTIFIER
 LOC .                        :  LOCATION
 LMF .             Drill Floor:  LOG MEASURED FROM
 TVDS.m                  43.29:  TVDSS CORRECTN
 LATI.deg                40.03:  LATITUDE
 LONG.deg                51.35:  LONGITUDE
 WHNS.m                  12.98:  WELL HEAD N/S
 WHEW.m                  -6.62:  WELL HEAD E/W
 UTMX.m              530128.28:  UTM X
 UTMY.m             4433192.49:  UTM Y
 DFWL.m                   0.00:  DISTANCE FWL
 DFSL.m                   0.00:  DISTANCE FSL
 SDEP.m                 378.00:  START DEPTH
 TDD .m                4463.01:  TOTAL DEPTH (DRILLER)
 VSDR.deg               296.18:  VERT SEC DIRECT
 GVFD.g                   1.00:  GRAVITY FIELD
 MFLD.nT              50269.00:  MAGNETIC FIELD
 MDIP.deg                59.50:  MAGNETIC DIP
 MDEC.deg                 6.44:  MAGNETIC DECL
 GRDC.deg                 0.20:  GRID CORRECTION
 AZTC.deg                 6.24:  AZM TOTAL CORR
 EPD .m                   0.00:  ELEVATION
 EGL .m                   0.00:  GROUND ELEVATION
 WDMS.m                 128.20:  WD ELEV
 APD .m                  43.29:  DEPTH ABOVE PD
 AGAP.m                  43.29:  AIR GAP
 VSEW.m                  -6.62:  VERT SEC E/W
 VSNS.m                  12.98:  VERT SEC N/S
 EKB .m                  43.29:  KB ELEVATION
 EDF .m                  43.29:  DF ELEVATION
 TDL .m                 147.00:  TOTAL DEPTH (LOGGER)
 VSC .                       0:  VS TO CLOSURE
 MAGU.                 1849241:  MAGUTM CHECKSUM
~Parameter Information Block
#MNEM.UNIT       Value        Description
#---------     -----------    ---------------------------
 AV  .mps                 0.70:  Ann Velocity 
 AZIF.deg               269.43:  Azm, Final 
 BHAT.        Rotary Steerable:  BHA Type 
 BROT.°/30m              -0.03:  Build Rotating 
 BS  .in                  8.50:  Bit Size 
 BSZ .in                  8.50:  Bit Size 
 BTPL.psig              880.00:  Bit Press Loss 
 CABU.                      No:  Customer Abuse 
 CGEO.          Parviz Guliyev:  Customer Geo 
 TCS .hr                 64.59:  Time Ciculation Ended 
 CV  .mps                 2.17:  Crit Velocity 
 DD1 .            Nonso Okafor:  Direct Drillr 1 
 DDSV.               Geo-Pilot:  DD Service 
 DEFF.%                  98.00:  % Det Eff 
 DLRX.°/30m               0.81:  Dogleg Rot Max 
 DLSO.°/30m               0.55:  Dogleg Oriented 
 DLSX.°/30m               0.81:  Dogleg Str Max 
 DRET.      23.50.00 24-Aug-20:  Drill End Time 
 DRST.      07.34.24 22-Aug-20:  Drill Start Tim 
 DTIM.hr                 15.29:  Time Drilling 
 EDEP.m                4461.01:  End Depth 
 ENG1.       Zam Abdullah Sani:  Engineer 1 
 ENG2.         Dair Mahammadov:  Engineer 2 
 ENG3.          Rustam Gadirov:  Engineer 3 
 ETIM.      07.34.24 26-Aug-20:  End Time 
 FLOI.gpm               550.00:  Flow In 
 FLON.gpm               400.00:  Flow In Min 
 FLOS.cptm                1.00:  Fluid Loss 
 FLOX.gpm               600.00:  Flow In Max 
 FTRO.       Formation Presure:  FTWD Run Obj 
 HFLO.                      No:  High Flow 
 HPRE.                      No:  High Pressure 
 HTEM.                      No:  High Temp 
 HYDO.m                   1.80:  Hydro Offset 
 IFIN.deg                66.72:  Inc, Final 
 IMAX.deg                67.42:  Inc Max 
 IMIN.deg                66.72:  Inc Min 
 IMND.m                4408.37:  Inc Min Depth 
 IMXD.m                4323.37:  Inc Max Depth 
 JARR.                      No:  Jarring 
 LETM.      23.50.00 24-Aug-20:  Log End Time 
 LOST.hr                     0:  Lost Rig Time 
 LSTM.      07.34.24 22-Aug-20:  Log Start Time 
 MDCL.ppm             38000.00:  Mud Chlorides 
 MDES.     Inversion Oil/Synthetic:  Mud Desc 
 DFD .sg                  1.40:  Mud Density 
 MDMN.sg                  1.38:  Dens Mud Min 
 MDMX.sg                  1.41:  Dens Mud Max 
 MOIL.                    70.5:  Run Mud Oil % 
 MOWR.                   68:32:  Run Mud OWR 
 MSND.                    0.01:  Run Mud Sand % 
 MSOL.                   17.68:  Run Mud Solids% 
 DFV .spqt               77.00:  Mud Viscosity 
 MWOD.in                  6.75:  MWD Tool OD 
 MWSI.                      No:  Serv Intrp, MWD 
 OTIM.hr                159.42:  Time Operating 
 PCON.           Look Like New:  Pad Condition 
 PMAX.psia             8730.94:  Press Op, Max 
 PV  .cP                 31.00:  Mud PV 
 RUN .                     900:  Run Number 
 ROPA.m/hr               12.00:  ROP Avg 
 ROPN.m/hr                7.00:  ROP Min 
 ROPX.m/hr               17.00:  ROP Max 
 RPMA.rpm               120.00:  RPM Surface Avg 
 RPMN.rpm                60.00:  RPM Surface Min 
 RPMX.rpm               140.00:  RPM Surface Max 
 RRUN.                    L604:  Rig Run Number 
 RTIM.hr                 10.00:  Time Reaming 
 SAZI.deg               270.56:  Azm, Start 
 SDEP.m                4314.01:  Start Depth 
 SIDD.                      No:  Serv Intrp, DD 
 SINC.deg                67.42:  Inc, Start 
 SPPA.psig             3300.00:  SPP Avg 
 SPPN.psig             1750.00:  SPP Min 
 SPPX.psig             4630.00:  SPP Max 
 STIM.      11.00.00 21-Aug-20:  Start Time 
 SVCS.                 DD, MWD:  Services 
 SVER.                    9.20:  Sperry Version 
 TDAT.m                4461.01:  Tot Depth Attmp 
 TDDF.                      No:  Trip for DD 
 TDLG.m                 147.00:  Tot Depth Loggd 
 TFF .                      No:  Trip for Fail 
 TQAA.f-kp               16.00:  Torque Abs Avg 
 TQAN.f-kp               14.00:  Torque Abs Min 
 TQAX.f-kp               20.00:  Torque Abs Max 
 TRRT.°/30m              -0.14:  Turn Rotating 
 MRT .                    HCIM:  Maximum Recorded Temperature 
 TTMX.degC               78.00:  Max Tool Temp 
 VS01.                90515425:  Virtual Str1 SN 
 VS02.                90545184:  Virtual Str2 SN 
 VS03.                90527809:  Virtual Str3 SN 
 VS04.                90515232:  Virtual Str4 SN 
 VS05.                90621207:  Virtual Str5 SN 
 VS06.                90619737:  Virtual Str6 SN 
 WBMN.klb                 2.00:  WOB Min 
 WITN.          Keith Dischler:  Customer Rep 
 WITN.           Faig Mammadov:  Customer Rep 2 
 WOBA.klb                 5.00:  WOB Avg 
 WOBX.klb                 8.00:  WOB Max 
 YP  .lhf2               32.00:  Yield Point 
~Curve Information Block
#MNEM.UNIT                 API CODE     Curve Description
#---------               -----------    ---------------------------
 TIME.HHMMSS            00 000 000 000:  GT Time & Date
 GTET.sec               00 000 000 000:  GT Elapsed Test Time
 GTPQH.psia             00 000 000 000:  GT HR Quartz Pressure
 GTDEPTH.m              00 000 000 000:  GT Depth
 GTTVD.m                00 000 000 000:  GT True Vertical Depth
 GTTQ.degC              00 000 000 000:  GT Quartz Temperature
 GTTN.NONE              00 000 000 000:  GT Test Number
#Other Information
#
#WARRANTY: Halliburton will use its best efforts to furnish customers with 
#accurate information and interpretations that are part of, and incident to, the services 
#provided.  However, Halliburton cannot and does not warrant the accuracy 
#or correctness of such information and interpretations.  Under no circumstances should any 
#such information or interpretation be relied upon as the sole basis for any drilling, 
#completion, production, or financial decision or any procedure involving any risk to the 
#safety of any drilling venture, drilling rig or its crew or any other third party.  The 
#Customer has full responsibility for all drilling, completion and production operation.  
#Halliburton makes no representations or warranties, either expressed or 
#implied, including, but not limited to, the implied warranties of merchantability or fitness 
#for a particular purpose, with respect to the services rendered.  In no event will 
#Halliburton be liable for failure to obtain any particular results or for 
#any damages, including, but not limited to, indirect, special or consequential damages, 
#resulting from the use of any information or interpretation provided by Halliburton.
#
~A           TIME            GTET   GTPQH  GTDEPTH  GTTVD  GTTQ  GTTN 
# ...
   08:26:34.000.25-Aug-2020 161.00 3358.89 4372.51 2065.92 72.13 6.00
   08:26:34.200.25-Aug-2020 161.20 3358.89 4372.51 2065.92 72.13 6.00
   08:26:34.400.25-Aug-2020 161.40 3358.95 4372.51 2065.92 72.13 6.00
   08:26:34.600.25-Aug-2020 161.60 3358.97 4372.51 2065.92 72.13 6.00
   08:26:34.800.25-Aug-2020 161.80 3359.02 4372.51 2065.92 72.13 6.00
   08:26:35.000.25-Aug-2020 162.00 3359.07 4372.51 2065.92 72.13 6.00
   08:26:35.200.25-Aug-2020 162.20 3359.07 4372.51 2065.92 72.13 6.00
   08:26:35.400.25-Aug-2020 162.40 3359.11 4372.51 2065.92 72.13 6.00
   08:26:35.600.25-Aug-2020 162.60 3359.14 4372.51 2065.92 72.13 6.00
   08:26:35.800.25-Aug-2020 162.80 3359.16 4372.51 2065.92 72.13 6.00
   08:26:36.000.25-Aug-2020 163.00 3359.19 4372.51 2065.92 72.13 6.00
   08:26:36.200.25-Aug-2020 163.20 3359.19 4372.51 2065.92 72.13 6.00
   08:26:36.400.25-Aug-2020 163.40 3359.69 4372.51 2065.92 72.13 6.00
   08:26:36.600.25-Aug-2020 163.60 3359.29 4372.51 2065.92 72.13 6.00
   08:26:36.800.25-Aug-2020 163.80 3359.42 4372.51 2065.92 72.13 6.00
   08:26:37.000.25-Aug-2020 164.00 3359.56 4372.51 2065.92 72.13 6.00
   08:26:37.200.25-Aug-2020 164.20 3359.56 4372.51 2065.92 72.13 6.00
   08:26:37.400.25-Aug-2020 164.40 3359.23 4372.51 2065.92 72.13 6.00
   08:26:37.600.25-Aug-2020 164.60 3359.93 4372.51 2065.92 72.13 6.00
   08:26:37.800.25-Aug-2020 164.80 3359.58 4372.51 2065.92 72.13 6.00
   08:26:38.000.25-Aug-2020 165.00 3359.49 4372.51 2065.92 72.13 6.00
   08:26:38.200.25-Aug-2020 165.20 3359.49 4372.51 2065.92 72.13 6.00
   08:26:38.400.25-Aug-2020 165.40 3359.61 4372.51 2065.92 72.13 6.00
   08:26:38.600.25-Aug-2020 165.60 3359.37 4372.51 2065.92 72.13 6.00
   08:26:38.800.25-Aug-2020 165.80 3359.67 4372.51 2065.92 72.13 6.00
   08:26:39.000.25-Aug-2020 166.00 3359.75 4372.51 2065.92 72.13 6.00
   08:26:39.200.25-Aug-2020 166.20 3359.75 4372.51 2065.92 72.13 6.00
   08:26:39.400.25-Aug-2020 166.40 3359.58 4372.51 2065.92 72.13 6.00
   08:26:39.600.25-Aug-2020 166.60 3359.63 4372.51 2065.92 72.13 6.00
   08:26:39.800.25-Aug-2020 166.80 3359.62 4372.51 2065.92 72.13 6.00
   08:26:40.000.25-Aug-2020 167.00 3359.35 4372.51 2065.92 72.13 6.00
   08:26:40.200.25-Aug-2020 167.20 3359.35 4372.51 2065.92 72.13 6.00
   08:26:40.400.25-Aug-2020 167.40 3359.63 4372.51 2065.92 72.13 6.00
   08:26:40.600.25-Aug-2020 167.60 3359.57 4372.51 2065.92 72.13 6.00
   08:26:40.800.25-Aug-2020 167.80 3359.63 4372.51 2065.92 72.13 6.00
   08:26:41.000.25-Aug-2020 168.00 3359.65 4372.51 2065.92 72.13 6.00
   08:26:41.200.25-Aug-2020 168.20 3359.65 4372.51 2065.92 72.13 6.00
   08:26:41.400.25-Aug-2020 168.40 3359.89 4372.51 2065.92 72.13 6.00
   08:26:41.600.25-Aug-2020 168.60 3359.53 4372.51 2065.92 72.13 6.00
   08:26:41.800.25-Aug-2020 168.80 3359.54 4372.51 2065.92 72.13 6.00
   08:26:42.000.25-Aug-2020 169.00 3359.69 4372.51 2065.92 72.13 6.00
   08:26:42.200.25-Aug-2020 169.20 3359.69 4372.51 2065.92 72.13 6.00
   08:26:42.400.25-Aug-2020 169.40 3359.64 4372.51 2065.92 72.13 6.00
   08:26:42.600.25-Aug-2020 169.60 3359.65 4372.51 2065.92 72.13 6.00
   08:26:42.800.25-Aug-2020 169.80 3359.65 4372.51 2065.92 72.13 6.00
   08:26:43.000.25-Aug-2020 170.00 3359.64 4372.51 2065.92 72.13 6.00
   08:26:43.200.25-Aug-2020 170.20 3359.64 4372.51 2065.92 72.13 6.00
   08:26:43.400.25-Aug-2020 170.40 3359.64 4372.51 2065.92 72.13 6.00
   08:26:43.600.25-Aug-2020 170.60 3359.64 4372.51 2065.92 72.13 6.00
   08:26:43.800.25-Aug-2020 170.80 3359.63 4372.51 2065.92 72.13 6.00
   08:26:44.000.25-Aug-2020 171.00 3359.64 4372.51 2065.92 72.13 6.00
   08:26:44.200.25-Aug-2020 171.20 3359.64 4372.51 2065.92 72.13 6.00
   08:26:44.400.25-Aug-2020 171.40 3359.63 4372.51 2065.92 72.13 6.00
   08:26:44.600.25-Aug-2020 171.60 3359.64 4372.51 2065.92 72.13 6.00
   08:26:44.800.25-Aug-2020 171.80 3359.63 4372.51 2065.92 72.13 6.00
   08:26:45.000.25-Aug-2020 172.00 3359.42 4372.51 2065.92 72.13 6.00
   08:26:45.200.25-Aug-2020 172.20 3359.42 4372.51 2065.92 72.13 6.00
   08:26:45.400.25-Aug-2020 172.40 3359.77 4372.51 2065.92 72.13 6.00
   08:26:45.600.25-Aug-2020 172.60 3359.67 4372.51 2065.92 72.13 6.00
   08:26:45.800.25-Aug-2020 172.80 3359.64 4372.51 2065.92 72.13 6.00
   08:26:46.000.25-Aug-2020 173.00 3359.68 4372.51 2065.92 72.13 6.00
   08:26:46.200.25-Aug-2020 173.20 3359.68 4372.51 2065.92 72.13 6.00
   08:26:46.400.25-Aug-2020 173.40 3359.65 4372.51 2065.92 72.13 6.00
   08:26:46.600.25-Aug-2020 173.60 3359.66 4372.51 2065.92 72.13 6.00
   08:26:46.800.25-Aug-2020 173.80 3359.67 4372.51 2065.92 72.13 6.00
   08:26:47.000.25-Aug-2020 174.00 3359.66 4372.51 2065.92 72.13 6.00
   08:26:47.200.25-Aug-2020 174.20 3359.66 4372.51 2065.92 72.13 6.00
   08:26:47.400.25-Aug-2020 174.40 3359.66 4372.51 2065.92 72.13 6.00
   08:26:47.600.25-Aug-2020 174.60 3359.65 4372.51 2065.92 72.13 6.00
   08:26:47.800.25-Aug-2020 174.80 3359.65 4372.51 2065.92 72.13 6.00
   08:26:48.000.25-Aug-2020 175.00 3359.66 4372.51 2065.92 72.13 6.00
   08:26:48.200.25-Aug-2020 175.20 3359.66 4372.51 2065.92 72.13 6.00
   08:26:48.400.25-Aug-2020 175.40 3359.80 4372.51 2065.92 72.13 6.00
   08:26:48.600.25-Aug-2020 175.60 3359.45 4372.51 2065.92 72.13 6.00
   08:26:48.800.25-Aug-2020 175.80 3359.74 4372.51 2065.92 72.13 6.00
   08:26:49.000.25-Aug-2020 176.00 3359.70 4372.51 2065.92 72.13 6.00
   08:26:49.200.25-Aug-2020 176.20 3359.70 4372.51 2065.92 72.13 6.00
   08:26:49.400.25-Aug-2020 176.40 3359.61 4372.51 2065.92 72.13 6.00
   08:26:49.600.25-Aug-2020 176.60 3359.96 4372.51 2065.92 72.13 6.00
   08:26:49.800.25-Aug-2020 176.80 3359.56 4372.51 2065.92 72.13 6.00
   08:26:50.000.25-Aug-2020 177.00 3359.55 4372.51 2065.92 72.13 6.00
   08:26:50.200.25-Aug-2020 177.20 3359.55 4372.51 2065.92 72.13 6.00
   08:26:50.400.25-Aug-2020 177.40 3359.40 4372.51 2065.92 72.13 6.00
   08:26:50.600.25-Aug-2020 177.60 3360.00 4372.51 2065.92 72.13 6.00
   08:26:50.800.25-Aug-2020 177.80 3359.68 4372.51 2065.92 72.13 6.00
   08:26:51.000.25-Aug-2020 178.00 3359.59 4372.51 2065.92 72.13 6.00
   08:26:51.200.25-Aug-2020 178.20 3359.59 4372.51 2065.92 72.13 6.00
   08:26:51.400.25-Aug-2020 178.40 3359.71 4372.51 2065.92 72.13 6.00
   08:26:51.600.25-Aug-2020 178.60 3359.47 4372.51 2065.92 72.13 6.00
   08:26:51.800.25-Aug-2020 178.80 3359.73 4372.51 2065.92 72.13 6.00
   08:26:52.000.25-Aug-2020 179.00 3359.81 4372.51 2065.92 72.13 6.00
   08:26:52.200.25-Aug-2020 179.20 3359.81 4372.51 2065.92 72.13 6.00
   08:26:52.400.25-Aug-2020 179.40 3359.63 4372.51 2065.92 72.13 6.00
   08:26:52.600.25-Aug-2020 179.60 3359.69 4372.51 2065.92 72.13 6.00
   08:26:52.800.25-Aug-2020 179.80 3359.68 4372.51 2065.92 72.13 6.00
   08:26:53.000.25-Aug-2020 180.00 3359.46 4372.51 2065.92 72.13 6.00
   08:26:53.200.25-Aug-2020 180.20 3359.46 4372.51 2065.92 72.13 6.00
   08:26:53.400.25-Aug-2020 180.40 3359.81 4372.51 2065.92 72.13 6.00
   08:26:53.600.25-Aug-2020 180.60 3359.69 4372.51 2065.92 72.13 6.00
   08:26:53.800.25-Aug-2020 180.80 3359.64 4372.51 2065.92 72.13 6.00
   08:26:54.000.25-Aug-2020 181.00 3359.68 4372.51 2065.92 72.13 6.00
   08:26:54.200.25-Aug-2020 181.20 3359.68 4372.51 2065.92 72.13 6.00
   08:26:54.400.25-Aug-2020 181.40 3359.67 4372.51 2065.92 72.13 6.00
   08:26:54.600.25-Aug-2020 181.60 3359.68 4372.51 2065.92 72.13 6.00
   08:26:54.800.25-Aug-2020 181.80 3359.68 4372.51 2065.92 72.13 6.00
   08:26:55.000.25-Aug-2020 182.00 3359.68 4372.51 2065.92 72.13 6.00
   08:26:55.200.25-Aug-2020 182.20 3359.68 4372.51 2065.92 72.13 6.00
   08:26:55.400.25-Aug-2020 182.40 3359.68 4372.51 2065.92 72.13 6.00
   08:26:55.600.25-Aug-2020 182.60 3359.67 4372.51 2065.92 72.13 6.00
   08:26:55.800.25-Aug-2020 182.80 3359.68 4372.51 2065.92 72.13 6.00
   08:26:56.000.25-Aug-2020 183.00 3359.68 4372.51 2065.92 72.13 6.00
   08:26:56.200.25-Aug-2020 183.20 3359.68 4372.51 2065.92 72.13 6.00
   08:26:56.400.25-Aug-2020 183.40 3359.68 4372.51 2065.92 72.13 6.00
   08:26:56.600.25-Aug-2020 183.60 3359.63 4372.51 2065.92 72.13 6.00
   08:26:56.800.25-Aug-2020 183.80 3359.96 4372.51 2065.92 72.13 6.00
