~Version Information
 VERS.                  2.0:   CWLS log ASCII Standard -VERSION 2.0
 WRAP.                   NO:   One line per depth step
~Well Information Block
#MNEM.UNIT     VALUE/NAME     DESCRIPTION
#---------     -----------    ---------------------------
 STRT.S             06:46:09 25-Aug-20: START TIME 06:46:09 25-Aug-20
 STOP.S             06:53:03 25-Aug-20: STOP TIME  06:53:03 25-Aug-20
 STEP.S                   0.00: STEP TIME
 NULL.                 -999.25: NULL VALUE
 DFWT.                        :  DIST FWL TEXT
 DFST.                        :  DIST FSL TEXT
 DMF .             Drill Floor:  DRILL MEAS FROM
 STIM.      09.59.28 01-Jun-20:  START TIME
 DATE.      05.00.00 28-Aug-20:  END TIME
 SPUD.               01-Jun-20:  SPUD DATE
 NREF.                    Grid:  NORTH REFERENCE
 HPTY.       Minimum Curvature:  HOLE POS TYPE
 DMOD.             Drill Model:  DRILL MOD DESC
 SVYD.                  Survey:  SURVEY DESC
 ILTD.               Lithology:  INTERP LTH DESC
 FTOP.          Formation Tops:  FORM TOPS DESC
 SON .        AZ-XX-0905455768:  JOB NUMBER
 WTYP.                Deviated:  WELL TYPE
 COMP.     BP Exploration(Caspian Sea):  COMPANY
 BASE.              Azerbaijan:  LOGGING EQUIPMENT BASE LOCATION
 REGN.                   EESSA:  REGION
 CTRY.              Azerbaijan:  COUNTRY NAME
 FLD .                     ACG:  FIELD NAME
 SRVC.          Turan Drilling:  CONTRACTOR
 WELL.                     B41:  WELL NAME
 RIG .           Central Azeri:  RIG NAME
 DCON.         Sperry Drilling:  DIRECTNL CONTR
 PDAT.          Mean Sea Level:  PERMANENT DATUM
 MDS .        Operator Entered:  MAG DATA SOURCE
 API .                        :  API NUMBER
 CNTY.                        :  COUNTY
 PROV.                        :  PROVINCE
 STAT.                        :  STATE
 UWI .                        :  UNIQUE WELL IDENTIFIER
 LOC .                        :  LOCATION
 LMF .             Drill Floor:  LOG MEASURED FROM
 TVDS.m                  43.29:  TVDSS CORRECTN
 LATI.deg                40.03:  LATITUDE
 LONG.deg                51.35:  LONGITUDE
 WHNS.m                  12.98:  WELL HEAD N/S
 WHEW.m                  -6.62:  WELL HEAD E/W
 UTMX.m              530128.28:  UTM X
 UTMY.m             4433192.49:  UTM Y
 DFWL.m                   0.00:  DISTANCE FWL
 DFSL.m                   0.00:  DISTANCE FSL
 SDEP.m                 378.00:  START DEPTH
 TDD .m                4463.01:  TOTAL DEPTH (DRILLER)
 VSDR.deg               296.18:  VERT SEC DIRECT
 GVFD.g                   1.00:  GRAVITY FIELD
 MFLD.nT              50269.00:  MAGNETIC FIELD
 MDIP.deg                59.50:  MAGNETIC DIP
 MDEC.deg                 6.44:  MAGNETIC DECL
 GRDC.deg                 0.20:  GRID CORRECTION
 AZTC.deg                 6.24:  AZM TOTAL CORR
 EPD .m                   0.00:  ELEVATION
 EGL .m                   0.00:  GROUND ELEVATION
 WDMS.m                 128.20:  WD ELEV
 APD .m                  43.29:  DEPTH ABOVE PD
 AGAP.m                  43.29:  AIR GAP
 VSEW.m                  -6.62:  VERT SEC E/W
 VSNS.m                  12.98:  VERT SEC N/S
 EKB .m                  43.29:  KB ELEVATION
 EDF .m                  43.29:  DF ELEVATION
 TDL .m                 147.00:  TOTAL DEPTH (LOGGER)
 VSC .                       0:  VS TO CLOSURE
 MAGU.                 1849241:  MAGUTM CHECKSUM
~Parameter Information Block
#MNEM.UNIT       Value        Description
#---------     -----------    ---------------------------
 AV  .mps                 0.70:  Ann Velocity 
 AZIF.deg               269.43:  Azm, Final 
 BHAT.        Rotary Steerable:  BHA Type 
 BROT.°/30m              -0.03:  Build Rotating 
 BS  .in                  8.50:  Bit Size 
 BSZ .in                  8.50:  Bit Size 
 BTPL.psig              880.00:  Bit Press Loss 
 CABU.                      No:  Customer Abuse 
 CGEO.          Parviz Guliyev:  Customer Geo 
 TCS .hr                 64.59:  Time Ciculation Ended 
 CV  .mps                 2.17:  Crit Velocity 
 DD1 .            Nonso Okafor:  Direct Drillr 1 
 DDSV.               Geo-Pilot:  DD Service 
 DEFF.%                  98.00:  % Det Eff 
 DLRX.°/30m               0.81:  Dogleg Rot Max 
 DLSO.°/30m               0.55:  Dogleg Oriented 
 DLSX.°/30m               0.81:  Dogleg Str Max 
 DRET.      23.50.00 24-Aug-20:  Drill End Time 
 DRST.      07.34.24 22-Aug-20:  Drill Start Tim 
 DTIM.hr                 15.29:  Time Drilling 
 EDEP.m                4461.01:  End Depth 
 ENG1.       Zam Abdullah Sani:  Engineer 1 
 ENG2.         Dair Mahammadov:  Engineer 2 
 ENG3.          Rustam Gadirov:  Engineer 3 
 ETIM.      07.34.24 26-Aug-20:  End Time 
 FLOI.gpm               550.00:  Flow In 
 FLON.gpm               400.00:  Flow In Min 
 FLOS.cptm                1.00:  Fluid Loss 
 FLOX.gpm               600.00:  Flow In Max 
 FTRO.       Formation Presure:  FTWD Run Obj 
 HFLO.                      No:  High Flow 
 HPRE.                      No:  High Pressure 
 HTEM.                      No:  High Temp 
 HYDO.m                   1.80:  Hydro Offset 
 IFIN.deg                66.72:  Inc, Final 
 IMAX.deg                67.42:  Inc Max 
 IMIN.deg                66.72:  Inc Min 
 IMND.m                4408.37:  Inc Min Depth 
 IMXD.m                4323.37:  Inc Max Depth 
 JARR.                      No:  Jarring 
 LETM.      23.50.00 24-Aug-20:  Log End Time 
 LOST.hr                     0:  Lost Rig Time 
 LSTM.      07.34.24 22-Aug-20:  Log Start Time 
 MDCL.ppm             38000.00:  Mud Chlorides 
 MDES.     Inversion Oil/Synthetic:  Mud Desc 
 DFD .sg                  1.40:  Mud Density 
 MDMN.sg                  1.38:  Dens Mud Min 
 MDMX.sg                  1.41:  Dens Mud Max 
 MOIL.                    70.5:  Run Mud Oil % 
 MOWR.                   68:32:  Run Mud OWR 
 MSND.                    0.01:  Run Mud Sand % 
 MSOL.                   17.68:  Run Mud Solids% 
 DFV .spqt               77.00:  Mud Viscosity 
 MWOD.in                  6.75:  MWD Tool OD 
 MWSI.                      No:  Serv Intrp, MWD 
 OTIM.hr                159.42:  Time Operating 
 PCON.           Look Like New:  Pad Condition 
 PMAX.psia             8730.94:  Press Op, Max 
 PV  .cP                 31.00:  Mud PV 
 RUN .                     900:  Run Number 
 ROPA.m/hr               12.00:  ROP Avg 
 ROPN.m/hr                7.00:  ROP Min 
 ROPX.m/hr               17.00:  ROP Max 
 RPMA.rpm               120.00:  RPM Surface Avg 
 RPMN.rpm                60.00:  RPM Surface Min 
 RPMX.rpm               140.00:  RPM Surface Max 
 RRUN.                    L604:  Rig Run Number 
 RTIM.hr                 10.00:  Time Reaming 
 SAZI.deg               270.56:  Azm, Start 
 SDEP.m                4314.01:  Start Depth 
 SIDD.                      No:  Serv Intrp, DD 
 SINC.deg                67.42:  Inc, Start 
 SPPA.psig             3300.00:  SPP Avg 
 SPPN.psig             1750.00:  SPP Min 
 SPPX.psig             4630.00:  SPP Max 
 STIM.      11.00.00 21-Aug-20:  Start Time 
 SVCS.                 DD, MWD:  Services 
 SVER.                    9.20:  Sperry Version 
 TDAT.m                4461.01:  Tot Depth Attmp 
 TDDF.                      No:  Trip for DD 
 TDLG.m                 147.00:  Tot Depth Loggd 
 TFF .                      No:  Trip for Fail 
 TQAA.f-kp               16.00:  Torque Abs Avg 
 TQAN.f-kp               14.00:  Torque Abs Min 
 TQAX.f-kp               20.00:  Torque Abs Max 
 TRRT.°/30m              -0.14:  Turn Rotating 
 MRT .                    HCIM:  Maximum Recorded Temperature 
 TTMX.degC               78.00:  Max Tool Temp 
 VS01.                90515425:  Virtual Str1 SN 
 VS02.                90545184:  Virtual Str2 SN 
 VS03.                90527809:  Virtual Str3 SN 
 VS04.                90515232:  Virtual Str4 SN 
 VS05.                90621207:  Virtual Str5 SN 
 VS06.                90619737:  Virtual Str6 SN 
 WBMN.klb                 2.00:  WOB Min 
 WITN.          Keith Dischler:  Customer Rep 
 WITN.           Faig Mammadov:  Customer Rep 2 
 WOBA.klb                 5.00:  WOB Avg 
 WOBX.klb                 8.00:  WOB Max 
 YP  .lhf2               32.00:  Yield Point 
~Curve Information Block
#MNEM.UNIT                 API CODE     Curve Description
#---------               -----------    ---------------------------
 TIME.HHMMSS            00 000 000 000:  GT Time & Date
 GTET.sec               00 000 000 000:  GT Elapsed Test Time
 GTPQH.psia             00 000 000 000:  GT HR Quartz Pressure
 GTDEPTH.m              00 000 000 000:  GT Depth
 GTTVD.m                00 000 000 000:  GT True Vertical Depth
 GTTQ.degC              00 000 000 000:  GT Quartz Temperature
 GTTN.NONE              00 000 000 000:  GT Test Number
#Other Information
#
#WARRANTY: Halliburton will use its best efforts to furnish customers with 
#accurate information and interpretations that are part of, and incident to, the services 
#provided.  However, Halliburton cannot and does not warrant the accuracy 
#or correctness of such information and interpretations.  Under no circumstances should any 
#such information or interpretation be relied upon as the sole basis for any drilling, 
#completion, production, or financial decision or any procedure involving any risk to the 
#safety of any drilling venture, drilling rig or its crew or any other third party.  The 
#Customer has full responsibility for all drilling, completion and production operation.  
#Halliburton makes no representations or warranties, either expressed or 
#implied, including, but not limited to, the implied warranties of merchantability or fitness 
#for a particular purpose, with respect to the services rendered.  In no event will 
#Halliburton be liable for failure to obtain any particular results or for 
#any damages, including, but not limited to, indirect, special or consequential damages, 
#resulting from the use of any information or interpretation provided by Halliburton.
#
~A           TIME            GTET   GTPQH  GTDEPTH  GTTVD  GTTQ  GTTN 
# ...
   06:46:55.000.25-Aug-2020  46.00   23.50 4396.51 2075.38 73.09 3.00
   06:46:55.200.25-Aug-2020  46.20   23.50 4396.51 2075.38 73.09 3.00
   06:46:55.400.25-Aug-2020  46.40   22.82 4396.51 2075.38 73.08 3.00
   06:46:55.600.25-Aug-2020  46.60   22.56 4396.51 2075.38 73.08 3.00
   06:46:55.800.25-Aug-2020  46.80   22.32 4396.51 2075.38 73.07 3.00
   06:46:56.000.25-Aug-2020  47.00   22.08 4396.51 2075.38 73.07 3.00
   06:46:56.200.25-Aug-2020  47.20   21.86 4396.51 2075.38 73.07 3.00
   06:46:56.400.25-Aug-2020  47.40   21.65 4396.51 2075.38 73.06 3.00
   06:46:56.600.25-Aug-2020  47.60   21.46 4396.51 2075.38 73.06 3.00
   06:46:56.800.25-Aug-2020  47.80   21.29 4396.51 2075.38 73.06 3.00
   06:46:57.000.25-Aug-2020  48.00   21.12 4396.51 2075.38 73.05 3.00
   06:46:57.200.25-Aug-2020  48.20   20.97 4396.51 2075.38 73.05 3.00
   06:46:57.400.25-Aug-2020  48.40   20.81 4396.51 2075.38 73.05 3.00
   06:46:57.600.25-Aug-2020  48.60   20.67 4396.51 2075.38 73.04 3.00
   06:46:57.800.25-Aug-2020  48.80   20.51 4396.51 2075.38 73.04 3.00
   06:46:58.000.25-Aug-2020  49.00   20.37 4396.51 2075.38 73.04 3.00
   06:46:58.200.25-Aug-2020  49.20   20.37 4396.51 2075.38 73.04 3.00
   06:46:58.400.25-Aug-2020  49.40   20.11 4396.51 2075.38 73.03 3.00
   06:46:58.600.25-Aug-2020  49.60   19.97 4396.51 2075.38 73.03 3.00
   06:46:58.800.25-Aug-2020  49.80   19.84 4396.51 2075.38 73.03 3.00
   06:46:59.000.25-Aug-2020  50.00   19.73 4396.51 2075.38 73.03 3.00
   06:46:59.200.25-Aug-2020  50.20   19.61 4396.51 2075.38 73.03 3.00
   06:46:59.400.25-Aug-2020  50.40   19.50 4396.51 2075.38 73.02 3.00
   06:46:59.600.25-Aug-2020  50.60   19.60 4396.51 2075.38 73.02 3.00
   06:46:59.800.25-Aug-2020  50.80   19.79 4396.51 2075.38 73.02 3.00
   06:47:00.000.25-Aug-2020  51.00   19.95 4396.51 2075.38 73.02 3.00
   06:47:00.200.25-Aug-2020  51.20   20.15 4396.51 2075.38 73.02 3.00
   06:47:00.400.25-Aug-2020  51.40   20.32 4396.51 2075.38 73.02 3.00
   06:47:00.600.25-Aug-2020  51.60   20.49 4396.51 2075.38 73.02 3.00
   06:47:00.800.25-Aug-2020  51.80   20.64 4396.51 2075.38 73.01 3.00
   06:47:01.000.25-Aug-2020  52.00   20.80 4396.51 2075.38 73.01 3.00
   06:47:01.200.25-Aug-2020  52.20   20.80 4396.51 2075.38 73.01 3.00
   06:47:01.400.25-Aug-2020  52.40   21.09 4396.51 2075.38 73.01 3.00
   06:47:01.600.25-Aug-2020  52.60   21.23 4396.51 2075.38 73.01 3.00
   06:47:01.800.25-Aug-2020  52.80   21.37 4396.51 2075.38 73.01 3.00
   06:47:02.000.25-Aug-2020  53.00   21.51 4396.51 2075.38 73.01 3.00
   06:47:02.200.25-Aug-2020  53.20   21.51 4396.51 2075.38 73.01 3.00
   06:47:02.400.25-Aug-2020  53.40   21.78 4396.51 2075.38 73.01 3.00
   06:47:02.600.25-Aug-2020  53.60   21.92 4396.51 2075.38 73.01 3.00
   06:47:02.800.25-Aug-2020  53.80   22.04 4396.51 2075.38 73.01 3.00
   06:47:03.000.25-Aug-2020  54.00   22.16 4396.51 2075.38 73.01 3.00
   06:47:03.200.25-Aug-2020  54.20   22.16 4396.51 2075.38 73.01 3.00
   06:47:03.400.25-Aug-2020  54.40   22.42 4396.51 2075.38 73.00 3.00
   06:47:03.600.25-Aug-2020  54.60   22.55 4396.51 2075.38 73.00 3.00
   06:47:03.800.25-Aug-2020  54.80   22.68 4396.51 2075.38 73.00 3.00
   06:47:04.000.25-Aug-2020  55.00   22.81 4396.51 2075.38 73.00 3.00
   06:47:04.200.25-Aug-2020  55.20   22.93 4396.51 2075.38 73.00 3.00
   06:47:04.400.25-Aug-2020  55.40   23.04 4396.51 2075.38 73.00 3.00
   06:47:04.600.25-Aug-2020  55.60   23.16 4396.51 2075.38 73.00 3.00
   06:47:04.800.25-Aug-2020  55.80   23.26 4396.51 2075.38 73.00 3.00
   06:47:05.000.25-Aug-2020  56.00   23.37 4396.51 2075.38 73.00 3.00
   06:47:05.200.25-Aug-2020  56.20   23.47 4396.51 2075.38 73.00 3.00
   06:47:05.400.25-Aug-2020  56.40   23.58 4396.51 2075.38 73.00 3.00
   06:47:05.600.25-Aug-2020  56.60   23.67 4396.51 2075.38 73.00 3.00
   06:47:05.800.25-Aug-2020  56.80   23.77 4396.51 2075.38 73.00 3.00
   06:47:06.000.25-Aug-2020  57.00   23.87 4396.51 2075.38 73.00 3.00
   06:47:06.200.25-Aug-2020  57.20   23.87 4396.51 2075.38 73.00 3.00
   06:47:06.400.25-Aug-2020  57.40   24.06 4396.51 2075.38 73.00 3.00
   06:47:06.600.25-Aug-2020  57.60   24.17 4396.51 2075.38 73.00 3.00
   06:47:06.800.25-Aug-2020  57.80   24.23 4396.51 2075.38 73.00 3.00
   06:47:07.000.25-Aug-2020  58.00   24.34 4396.51 2075.38 73.00 3.00
   06:47:07.200.25-Aug-2020  58.20   24.34 4396.51 2075.38 73.00 3.00
   06:47:07.400.25-Aug-2020  58.40   24.53 4396.51 2075.38 73.00 3.00
   06:47:07.600.25-Aug-2020  58.60   24.62 4396.51 2075.38 73.00 3.00
   06:47:07.800.25-Aug-2020  58.80   24.70 4396.51 2075.38 73.00 3.00
   06:47:08.000.25-Aug-2020  59.00   24.78 4396.51 2075.38 73.00 3.00
   06:47:08.200.25-Aug-2020  59.20   24.78 4396.51 2075.38 73.00 3.00
   06:47:08.400.25-Aug-2020  59.40   24.97 4396.51 2075.38 73.00 3.00
   06:47:08.600.25-Aug-2020  59.60   25.06 4396.51 2075.38 73.00 3.00
   06:47:08.800.25-Aug-2020  59.80   25.11 4396.51 2075.38 73.00 3.00
   06:47:09.000.25-Aug-2020  60.00   25.21 4396.51 2075.38 73.00 3.00
   06:47:09.200.25-Aug-2020  60.20   25.29 4396.51 2075.38 73.00 3.00
   06:47:09.400.25-Aug-2020  60.40   25.38 4396.51 2075.38 73.00 3.00
   06:47:09.600.25-Aug-2020  60.60   25.46 4396.51 2075.38 73.00 3.00
   06:47:09.800.25-Aug-2020  60.80   25.53 4396.51 2075.38 73.00 3.00
   06:47:10.000.25-Aug-2020  61.00   25.60 4396.51 2075.38 73.00 3.00
   06:47:10.200.25-Aug-2020  61.20   25.60 4396.51 2075.38 73.00 3.00
   06:47:10.400.25-Aug-2020  61.40   25.77 4396.51 2075.38 73.00 3.00
   06:47:10.600.25-Aug-2020  61.60   25.86 4396.51 2075.38 73.00 3.00
   06:47:10.800.25-Aug-2020  61.80   25.91 4396.51 2075.38 73.01 3.00
   06:47:11.000.25-Aug-2020  62.00   25.98 4396.51 2075.38 73.01 3.00
   06:47:11.200.25-Aug-2020  62.20   25.98 4396.51 2075.38 73.01 3.00
   06:47:11.400.25-Aug-2020  62.40   26.15 4396.51 2075.38 73.01 3.00
   06:47:11.600.25-Aug-2020  62.60   26.22 4396.51 2075.38 73.01 3.00
   06:47:11.800.25-Aug-2020  62.80   26.30 4396.51 2075.38 73.01 3.00
   06:47:12.000.25-Aug-2020  63.00   26.37 4396.51 2075.38 73.01 3.00
   06:47:12.200.25-Aug-2020  63.20   26.43 4396.51 2075.38 73.01 3.00
   06:47:12.400.25-Aug-2020  63.40   26.51 4396.51 2075.38 73.01 3.00
   06:47:12.600.25-Aug-2020  63.60   26.58 4396.51 2075.38 73.01 3.00
   06:47:12.800.25-Aug-2020  63.80   26.65 4396.51 2075.38 73.01 3.00
   06:47:13.000.25-Aug-2020  64.00   26.72 4396.51 2075.38 73.01 3.00
   06:47:13.200.25-Aug-2020  64.20   26.72 4396.51 2075.38 73.01 3.00
   06:47:13.400.25-Aug-2020  64.40   26.85 4396.51 2075.38 73.01 3.00
   06:47:13.600.25-Aug-2020  64.60   26.92 4396.51 2075.38 73.01 3.00
   06:47:13.800.25-Aug-2020  64.80   26.98 4396.51 2075.38 73.01 3.00
   06:47:14.000.25-Aug-2020  65.00   27.05 4396.51 2075.38 73.01 3.00
   06:47:14.200.25-Aug-2020  65.20   27.12 4396.51 2075.38 73.01 3.00
   06:47:14.400.25-Aug-2020  65.40   27.16 4396.51 2075.38 73.01 3.00
   06:47:14.600.25-Aug-2020  65.60   27.22 4396.51 2075.38 73.01 3.00
   06:47:14.800.25-Aug-2020  65.80   27.31 4396.51 2075.38 73.01 3.00
   06:47:15.000.25-Aug-2020  66.00   27.37 4396.51 2075.38 73.01 3.00
   06:47:15.200.25-Aug-2020  66.20   27.37 4396.51 2075.38 73.01 3.00
   06:47:15.400.25-Aug-2020  66.40   27.50 4396.51 2075.38 73.01 3.00
   06:47:15.600.25-Aug-2020  66.60   27.56 4396.51 2075.38 73.01 3.00
   06:47:15.800.25-Aug-2020  66.80   27.63 4396.51 2075.38 73.01 3.00
   06:47:16.000.25-Aug-2020  67.00   27.68 4396.51 2075.38 73.01 3.00
   06:47:16.200.25-Aug-2020  67.20   27.74 4396.51 2075.38 73.01 3.00
   06:47:16.400.25-Aug-2020  67.40   27.80 4396.51 2075.38 73.01 3.00
   06:47:16.600.25-Aug-2020  67.60   27.85 4396.51 2075.38 73.01 3.00
   06:47:16.800.25-Aug-2020  67.80   27.91 4396.51 2075.38 73.01 3.00
   06:47:17.000.25-Aug-2020  68.00   27.97 4396.51 2075.38 73.01 3.00
   06:47:17.200.25-Aug-2020  68.20   28.03 4396.51 2075.38 73.01 3.00
   06:47:17.400.25-Aug-2020  68.40   28.08 4396.51 2075.38 73.01 3.00
   06:47:17.600.25-Aug-2020  68.60   28.13 4396.51 2075.38 73.01 3.00
   06:47:17.800.25-Aug-2020  68.80   28.17 4396.51 2075.38 73.01 3.00
