~Version Information
 VERS.                  2.0:   CWLS log ASCII Standard -VERSION 2.0
 WRAP.                   NO:   One line per depth step
~Well Information Block
#MNEM.UNIT     VALUE/NAME     DESCRIPTION
#---------     -----------    ---------------------------
 STRT.S             08:04:20 25-Aug-20: START TIME 08:04:20 25-Aug-20
 STOP.S             08:11:17 25-Aug-20: STOP TIME  08:11:17 25-Aug-20
 STEP.S                   0.00: STEP TIME
 NULL.                 -999.25: NULL VALUE
 DFWT.                        :  DIST FWL TEXT
 DFST.                        :  DIST FSL TEXT
 DMF .             Drill Floor:  DRILL MEAS FROM
 STIM.      09.59.28 01-Jun-20:  START TIME
 DATE.      05.00.00 28-Aug-20:  END TIME
 SPUD.               01-Jun-20:  SPUD DATE
 NREF.                    Grid:  NORTH REFERENCE
 HPTY.       Minimum Curvature:  HOLE POS TYPE
 DMOD.             Drill Model:  DRILL MOD DESC
 SVYD.                  Survey:  SURVEY DESC
 ILTD.               Lithology:  INTERP LTH DESC
 FTOP.          Formation Tops:  FORM TOPS DESC
 SON .        AZ-XX-0905455768:  JOB NUMBER
 WTYP.                Deviated:  WELL TYPE
 COMP.     BP Exploration(Caspian Sea):  COMPANY
 BASE.              Azerbaijan:  LOGGING EQUIPMENT BASE LOCATION
 REGN.                   EESSA:  REGION
 CTRY.              Azerbaijan:  COUNTRY NAME
 FLD .                     ACG:  FIELD NAME
 SRVC.          Turan Drilling:  CONTRACTOR
 WELL.                     B41:  WELL NAME
 RIG .           Central Azeri:  RIG NAME
 DCON.         Sperry Drilling:  DIRECTNL CONTR
 PDAT.          Mean Sea Level:  PERMANENT DATUM
 MDS .        Operator Entered:  MAG DATA SOURCE
 API .                        :  API NUMBER
 CNTY.                        :  COUNTY
 PROV.                        :  PROVINCE
 STAT.                        :  STATE
 UWI .                        :  UNIQUE WELL IDENTIFIER
 LOC .                        :  LOCATION
 LMF .             Drill Floor:  LOG MEASURED FROM
 TVDS.m                  43.29:  TVDSS CORRECTN
 LATI.deg                40.03:  LATITUDE
 LONG.deg                51.35:  LONGITUDE
 WHNS.m                  12.98:  WELL HEAD N/S
 WHEW.m                  -6.62:  WELL HEAD E/W
 UTMX.m              530128.28:  UTM X
 UTMY.m             4433192.49:  UTM Y
 DFWL.m                   0.00:  DISTANCE FWL
 DFSL.m                   0.00:  DISTANCE FSL
 SDEP.m                 378.00:  START DEPTH
 TDD .m                4463.01:  TOTAL DEPTH (DRILLER)
 VSDR.deg               296.18:  VERT SEC DIRECT
 GVFD.g                   1.00:  GRAVITY FIELD
 MFLD.nT              50269.00:  MAGNETIC FIELD
 MDIP.deg                59.50:  MAGNETIC DIP
 MDEC.deg                 6.44:  MAGNETIC DECL
 GRDC.deg                 0.20:  GRID CORRECTION
 AZTC.deg                 6.24:  AZM TOTAL CORR
 EPD .m                   0.00:  ELEVATION
 EGL .m                   0.00:  GROUND ELEVATION
 WDMS.m                 128.20:  WD ELEV
 APD .m                  43.29:  DEPTH ABOVE PD
 AGAP.m                  43.29:  AIR GAP
 VSEW.m                  -6.62:  VERT SEC E/W
 VSNS.m                  12.98:  VERT SEC N/S
 EKB .m                  43.29:  KB ELEVATION
 EDF .m                  43.29:  DF ELEVATION
 TDL .m                 147.00:  TOTAL DEPTH (LOGGER)
 VSC .                       0:  VS TO CLOSURE
 MAGU.                 1849241:  MAGUTM CHECKSUM
~Parameter Information Block
#MNEM.UNIT       Value        Description
#---------     -----------    ---------------------------
 AV  .mps                 0.70:  Ann Velocity 
 AZIF.deg               269.43:  Azm, Final 
 BHAT.        Rotary Steerable:  BHA Type 
 BROT.°/30m              -0.03:  Build Rotating 
 BS  .in                  8.50:  Bit Size 
 BSZ .in                  8.50:  Bit Size 
 BTPL.psig              880.00:  Bit Press Loss 
 CABU.                      No:  Customer Abuse 
 CGEO.          Parviz Guliyev:  Customer Geo 
 COMM.                     <oh:  Run Comments 1 
 TCS .hr                 64.59:  Time Ciculation Ended 
 CV  .mps                 2.17:  Crit Velocity 
 DD1 .            Nonso Okafor:  Direct Drillr 1 
 DDSV.               Geo-Pilot:  DD Service 
 DEFF.%                  98.00:  % Det Eff 
 DLRX.°/30m               0.81:  Dogleg Rot Max 
 DLSO.°/30m               0.55:  Dogleg Oriented 
 DLSX.°/30m               0.81:  Dogleg Str Max 
 DRET.      23.50.00 24-Aug-20:  Drill End Time 
 DRST.      07.34.24 22-Aug-20:  Drill Start Tim 
 DTIM.hr                 15.29:  Time Drilling 
 EDEP.m                4461.01:  End Depth 
 ENG1.       Zam Abdullah Sani:  Engineer 1 
 ENG2.         Dair Mahammadov:  Engineer 2 
 ENG3.          Rustam Gadirov:  Engineer 3 
 ETIM.      07.34.24 26-Aug-20:  End Time 
 FLOI.gpm               550.00:  Flow In 
 FLON.gpm               400.00:  Flow In Min 
 FLOS.cptm                1.00:  Fluid Loss 
 FLOX.gpm               600.00:  Flow In Max 
 FTRO.       Formation Presure:  FTWD Run Obj 
 HFLO.                      No:  High Flow 
 HPRE.                      No:  High Pressure 
 HTEM.                      No:  High Temp 
 HYDO.m                   1.80:  Hydro Offset 
 IFIN.deg                66.72:  Inc, Final 
 IMAX.deg                67.42:  Inc Max 
 IMIN.deg                66.72:  Inc Min 
 IMND.m                4408.37:  Inc Min Depth 
 IMXD.m                4323.37:  Inc Max Depth 
 JARR.                      No:  Jarring 
 LETM.      23.50.00 24-Aug-20:  Log End Time 
 LOST.hr                     0:  Lost Rig Time 
 LSTM.      07.34.24 22-Aug-20:  Log Start Time 
 MDCL.ppm             38000.00:  Mud Chlorides 
 MDES.     Inversion Oil/Synthetic:  Mud Desc 
 DFD .sg                  1.40:  Mud Density 
 MDMN.sg                  1.38:  Dens Mud Min 
 MDMX.sg                  1.41:  Dens Mud Max 
 MOIL.                    70.5:  Run Mud Oil % 
 MOWR.                   68:32:  Run Mud OWR 
 MSND.                    0.01:  Run Mud Sand % 
 MSOL.                   17.68:  Run Mud Solids% 
 DFV .spqt               77.00:  Mud Viscosity 
 MWOD.in                  6.75:  MWD Tool OD 
 MWSI.                      No:  Serv Intrp, MWD 
 OTIM.hr                159.42:  Time Operating 
 PCON.           Look Like New:  Pad Condition 
 PMAX.psia             8730.94:  Press Op, Max 
 PV  .cP                 31.00:  Mud PV 
 RUN .                     900:  Run Number 
 ROPA.m/hr               12.00:  ROP Avg 
 ROPN.m/hr                7.00:  ROP Min 
 ROPX.m/hr               17.00:  ROP Max 
 RPMA.rpm               120.00:  RPM Surface Avg 
 RPMN.rpm                60.00:  RPM Surface Min 
 RPMX.rpm               140.00:  RPM Surface Max 
 RRUN.                    L604:  Rig Run Number 
 RTIM.hr                 10.00:  Time Reaming 
 SAZI.deg               270.56:  Azm, Start 
 SDEP.m                4314.01:  Start Depth 
 SIDD.                      No:  Serv Intrp, DD 
 SINC.deg                67.42:  Inc, Start 
 SPPA.psig             3300.00:  SPP Avg 
 SPPN.psig             1750.00:  SPP Min 
 SPPX.psig             4630.00:  SPP Max 
 STIM.      11.00.00 21-Aug-20:  Start Time 
 SVCS.                 DD, MWD:  Services 
 SVER.                    9.20:  Sperry Version 
 TDAT.m                4461.01:  Tot Depth Attmp 
 TDDF.                      No:  Trip for DD 
 TDLG.m                 147.00:  Tot Depth Loggd 
 TFF .                      No:  Trip for Fail 
 TQAA.f-kp               16.00:  Torque Abs Avg 
 TQAN.f-kp               14.00:  Torque Abs Min 
 TQAX.f-kp               20.00:  Torque Abs Max 
 TRRT.°/30m              -0.14:  Turn Rotating 
 MRT .                    HCIM:  Maximum Recorded Temperature 
 TTMX.degC               78.00:  Max Tool Temp 
 VS01.                90515425:  Virtual Str1 SN 
 VS02.                90545184:  Virtual Str2 SN 
 VS03.                90527809:  Virtual Str3 SN 
 VS04.                90515232:  Virtual Str4 SN 
 VS05.                90621207:  Virtual Str5 SN 
 VS06.                90619737:  Virtual Str6 SN 
 WBMN.klb                 2.00:  WOB Min 
 WITN.          Keith Dischler:  Customer Rep 
 WITN.           Faig Mammadov:  Customer Rep 2 
 WOBA.klb                 5.00:  WOB Avg 
 WOBX.klb                 8.00:  WOB Max 
 YP  .lhf2               32.00:  Yield Point 
~Curve Information Block
#MNEM.UNIT                 API CODE     Curve Description
#---------               -----------    ---------------------------
 TIME.HHMMSS            00 000 000 000:  GT Time & Date
 GTET.sec               00 000 000 000:  GT Elapsed Test Time
 GTPQH.psia             00 000 000 000:  GT HR Quartz Pressure
 GTDEPTH.m              00 000 000 000:  GT Depth
 GTTVD.m                00 000 000 000:  GT True Vertical Depth
 GTTQ.degC              00 000 000 000:  GT Quartz Temperature
 GTTN.NONE              00 000 000 000:  GT Test Number
#Other Information
#
#WARRANTY: Halliburton will use its best efforts to furnish customers with 
#accurate information and interpretations that are part of, and incident to, the services 
#provided.  However, Halliburton cannot and does not warrant the accuracy 
#or correctness of such information and interpretations.  Under no circumstances should any 
#such information or interpretation be relied upon as the sole basis for any drilling, 
#completion, production, or financial decision or any procedure involving any risk to the 
#safety of any drilling venture, drilling rig or its crew or any other third party.  The 
#Customer has full responsibility for all drilling, completion and production operation.  
#Halliburton makes no representations or warranties, either expressed or 
#implied, including, but not limited to, the implied warranties of merchantability or fitness 
#for a particular purpose, with respect to the services rendered.  In no event will 
#Halliburton be liable for failure to obtain any particular results or for 
#any damages, including, but not limited to, indirect, special or consequential damages, 
#resulting from the use of any information or interpretation provided by Halliburton.
#
~A           TIME            GTET   GTPQH  GTDEPTH  GTTVD  GTTQ  GTTN 
# ...
   08:05:29.000.25-Aug-2020  69.00  152.90 4370.51 2065.14 72.20 5.00
   08:05:29.200.25-Aug-2020  69.20  153.09 4370.51 2065.14 72.20 5.00
   08:05:29.400.25-Aug-2020  69.40  153.29 4370.51 2065.14 72.20 5.00
   08:05:29.600.25-Aug-2020  69.60  153.47 4370.51 2065.14 72.20 5.00
   08:05:29.800.25-Aug-2020  69.80  153.66 4370.51 2065.14 72.20 5.00
   08:05:30.000.25-Aug-2020  70.00  153.83 4370.51 2065.14 72.20 5.00
   08:05:30.200.25-Aug-2020  70.20  153.83 4370.51 2065.14 72.20 5.00
   08:05:30.400.25-Aug-2020  70.40  154.17 4370.51 2065.14 72.20 5.00
   08:05:30.600.25-Aug-2020  70.60  154.34 4370.51 2065.14 72.20 5.00
   08:05:30.800.25-Aug-2020  70.80  154.51 4370.51 2065.14 72.20 5.00
   08:05:31.000.25-Aug-2020  71.00  154.67 4370.51 2065.14 72.20 5.00
   08:05:31.200.25-Aug-2020  71.20  154.67 4370.51 2065.14 72.20 5.00
   08:05:31.400.25-Aug-2020  71.40  154.97 4370.51 2065.14 72.20 5.00
   08:05:31.600.25-Aug-2020  71.60  155.03 4370.51 2065.14 72.20 5.00
   08:05:31.800.25-Aug-2020  71.80  155.20 4370.51 2065.14 72.20 5.00
   08:05:32.000.25-Aug-2020  72.00  155.40 4370.51 2065.14 72.20 5.00
   08:05:32.200.25-Aug-2020  72.20  155.60 4370.51 2065.14 72.20 5.00
   08:05:32.400.25-Aug-2020  72.40  155.77 4370.51 2065.14 72.20 5.00
   08:05:32.600.25-Aug-2020  72.60  155.86 4370.51 2065.14 72.20 5.00
   08:05:32.800.25-Aug-2020  72.80  155.98 4370.51 2065.14 72.20 5.00
   08:05:33.000.25-Aug-2020  73.00  156.14 4370.51 2065.14 72.20 5.00
   08:05:33.200.25-Aug-2020  73.20  156.14 4370.51 2065.14 72.20 5.00
   08:05:33.400.25-Aug-2020  73.40  156.50 4370.51 2065.14 72.20 5.00
   08:05:33.600.25-Aug-2020  73.60  156.67 4370.51 2065.14 72.20 5.00
   08:05:33.800.25-Aug-2020  73.80  156.80 4370.51 2065.14 72.20 5.00
   08:05:34.000.25-Aug-2020  74.00  156.84 4370.51 2065.14 72.20 5.00
   08:05:34.200.25-Aug-2020  74.20  156.84 4370.51 2065.14 72.20 5.00
   08:05:34.400.25-Aug-2020  74.40  157.16 4370.51 2065.14 72.20 5.00
   08:05:34.600.25-Aug-2020  74.60  157.33 4370.51 2065.14 72.21 5.00
   08:05:34.800.25-Aug-2020  74.80  157.43 4370.51 2065.14 72.21 5.00
   08:05:35.000.25-Aug-2020  75.00  157.54 4370.51 2065.14 72.21 5.00
   08:05:35.200.25-Aug-2020  75.20  157.54 4370.51 2065.14 72.21 5.00
   08:05:35.400.25-Aug-2020  75.40  157.83 4370.51 2065.14 72.21 5.00
   08:05:35.600.25-Aug-2020  75.60  157.99 4370.51 2065.14 72.21 5.00
   08:05:35.800.25-Aug-2020  75.80  158.14 4370.51 2065.14 72.21 5.00
   08:05:36.000.25-Aug-2020  76.00  158.19 4370.51 2065.14 72.21 5.00
   08:05:36.200.25-Aug-2020  76.20  158.27 4370.51 2065.14 72.21 5.00
   08:05:36.400.25-Aug-2020  76.40  158.43 4370.51 2065.14 72.21 5.00
   08:05:36.600.25-Aug-2020  76.60  158.58 4370.51 2065.14 72.21 5.00
   08:05:36.800.25-Aug-2020  76.80  158.73 4370.51 2065.14 72.21 5.00
   08:05:37.000.25-Aug-2020  77.00  158.87 4370.51 2065.14 72.21 5.00
   08:05:37.200.25-Aug-2020  77.20  158.98 4370.51 2065.14 72.21 5.00
   08:05:37.400.25-Aug-2020  77.40  159.10 4370.51 2065.14 72.21 5.00
   08:05:37.600.25-Aug-2020  77.60  159.22 4370.51 2065.14 72.21 5.00
   08:05:37.800.25-Aug-2020  77.80  159.33 4370.51 2065.14 72.21 5.00
   08:05:38.000.25-Aug-2020  78.00  159.44 4370.51 2065.14 72.21 5.00
   08:05:38.200.25-Aug-2020  78.20  159.44 4370.51 2065.14 72.21 5.00
   08:05:38.400.25-Aug-2020  78.40  159.67 4370.51 2065.14 72.21 5.00
   08:05:38.600.25-Aug-2020  78.60  159.78 4370.51 2065.14 72.21 5.00
   08:05:38.800.25-Aug-2020  78.80  159.89 4370.51 2065.14 72.21 5.00
   08:05:39.000.25-Aug-2020  79.00  160.00 4370.51 2065.14 72.21 5.00
   08:05:39.200.25-Aug-2020  79.20  160.00 4370.51 2065.14 72.21 5.00
   08:05:39.400.25-Aug-2020  79.40  160.20 4370.51 2065.14 72.21 5.00
   08:05:39.600.25-Aug-2020  79.60  160.22 4370.51 2065.14 72.21 5.00
   08:05:39.800.25-Aug-2020  79.80  160.30 4370.51 2065.14 72.21 5.00
   08:05:40.000.25-Aug-2020  80.00  160.41 4370.51 2065.14 72.21 5.00
   08:05:40.200.25-Aug-2020  80.20  160.55 4370.51 2065.14 72.21 5.00
   08:05:40.400.25-Aug-2020  80.40  160.67 4370.51 2065.14 72.21 5.00
   08:05:40.600.25-Aug-2020  80.60  160.78 4370.51 2065.14 72.21 5.00
   08:05:40.800.25-Aug-2020  80.80  160.88 4370.51 2065.14 72.21 5.00
   08:05:41.000.25-Aug-2020  81.00  160.98 4370.51 2065.14 72.21 5.00
   08:05:41.200.25-Aug-2020  81.20  161.08 4370.51 2065.14 72.21 5.00
   08:05:41.400.25-Aug-2020  81.40  161.18 4370.51 2065.14 72.21 5.00
   08:05:41.600.25-Aug-2020  81.60  161.27 4370.51 2065.14 72.21 5.00
   08:05:41.800.25-Aug-2020  81.80  161.36 4370.51 2065.14 72.21 5.00
   08:05:42.000.25-Aug-2020  82.00  161.45 4370.51 2065.14 72.21 5.00
   08:05:42.200.25-Aug-2020  82.20  161.45 4370.51 2065.14 72.21 5.00
   08:05:42.400.25-Aug-2020  82.40  161.62 4370.51 2065.14 72.21 5.00
   08:05:42.600.25-Aug-2020  82.60  161.71 4370.51 2065.14 72.21 5.00
   08:05:42.800.25-Aug-2020  82.80  161.71 4370.51 2065.14 72.21 5.00
   08:05:43.000.25-Aug-2020  83.00  162.21 4370.51 2065.14 72.22 5.00
   08:05:43.200.25-Aug-2020  83.20  162.26 4370.51 2065.14 72.22 5.00
   08:05:43.400.25-Aug-2020  83.40  162.39 4370.51 2065.14 72.22 5.00
   08:05:43.600.25-Aug-2020  83.60  162.49 4370.51 2065.14 72.22 5.00
   08:05:43.800.25-Aug-2020  83.80  162.60 4370.51 2065.14 72.22 5.00
   08:05:44.000.25-Aug-2020  84.00  162.70 4370.51 2065.14 72.22 5.00
   08:05:44.200.25-Aug-2020  84.20  162.77 4370.51 2065.14 72.22 5.00
   08:05:44.400.25-Aug-2020  84.40  162.76 4370.51 2065.14 72.22 5.00
   08:05:44.600.25-Aug-2020  84.60  162.84 4370.51 2065.14 72.22 5.00
   08:05:44.800.25-Aug-2020  84.80  162.97 4370.51 2065.14 72.22 5.00
   08:05:45.000.25-Aug-2020  85.00  163.09 4370.51 2065.14 72.22 5.00
   08:05:45.200.25-Aug-2020  85.20  163.09 4370.51 2065.14 72.22 5.00
   08:05:45.400.25-Aug-2020  85.40  163.15 4370.51 2065.14 72.22 5.00
   08:05:45.600.25-Aug-2020  85.60  163.20 4370.51 2065.14 72.22 5.00
   08:05:45.800.25-Aug-2020  85.80  163.31 4370.51 2065.14 72.22 5.00
   08:05:46.000.25-Aug-2020  86.00  163.41 4370.51 2065.14 72.22 5.00
   08:05:46.200.25-Aug-2020  86.20  163.41 4370.51 2065.14 72.22 5.00
   08:05:46.400.25-Aug-2020  86.40  163.59 4370.51 2065.14 72.22 5.00
   08:05:46.600.25-Aug-2020  86.60  163.66 4370.51 2065.14 72.22 5.00
   08:05:46.800.25-Aug-2020  86.80  163.66 4370.51 2065.14 72.22 5.00
   08:05:47.000.25-Aug-2020  87.00  163.70 4370.51 2065.14 72.22 5.00
   08:05:47.200.25-Aug-2020  87.20  163.78 4370.51 2065.14 72.22 5.00
   08:05:47.400.25-Aug-2020  87.40  163.87 4370.51 2065.14 72.22 5.00
   08:05:47.600.25-Aug-2020  87.60  163.96 4370.51 2065.14 72.22 5.00
   08:05:47.800.25-Aug-2020  87.80  164.05 4370.51 2065.14 72.22 5.00
   08:05:48.000.25-Aug-2020  88.00  164.12 4370.51 2065.14 72.22 5.00
   08:05:48.200.25-Aug-2020  88.20  164.19 4370.51 2065.14 72.22 5.00
   08:05:48.400.25-Aug-2020  88.40  164.26 4370.51 2065.14 72.22 5.00
   08:05:48.600.25-Aug-2020  88.60  164.33 4370.51 2065.14 72.22 5.00
   08:05:48.800.25-Aug-2020  88.80  164.39 4370.51 2065.14 72.22 5.00
   08:05:49.000.25-Aug-2020  89.00  164.39 4370.51 2065.14 72.22 5.00
   08:05:49.200.25-Aug-2020  89.20  164.46 4370.51 2065.14 72.22 5.00
   08:05:49.400.25-Aug-2020  89.40  164.46 4370.51 2065.14 72.22 5.00
   08:05:49.600.25-Aug-2020  89.60  164.63 4370.51 2065.14 72.22 5.00
   08:05:49.800.25-Aug-2020  89.80  164.69 4370.51 2065.14 72.22 5.00
   08:05:50.000.25-Aug-2020  90.00  164.75 4370.51 2065.14 72.22 5.00
   08:05:50.200.25-Aug-2020  90.20  164.75 4370.51 2065.14 72.22 5.00
   08:05:50.400.25-Aug-2020  90.40  164.79 4370.51 2065.14 72.22 5.00
   08:05:50.600.25-Aug-2020  90.60  164.81 4370.51 2065.14 72.22 5.00
   08:05:50.800.25-Aug-2020  90.80  164.88 4370.51 2065.14 72.22 5.00
   08:05:51.000.25-Aug-2020  91.00  164.96 4370.51 2065.14 72.22 5.00
   08:05:51.200.25-Aug-2020  91.20  165.04 4370.51 2065.14 72.22 5.00
   08:05:51.400.25-Aug-2020  91.40  165.11 4370.51 2065.14 72.22 5.00
   08:05:51.600.25-Aug-2020  91.60  165.18 4370.51 2065.14 72.22 5.00
   08:05:51.800.25-Aug-2020  91.80  165.23 4370.51 2065.14 72.22 5.00
