~Version Information
 VERS.                  2.0:   CWLS log ASCII Standard -VERSION 2.0
 WRAP.                   NO:   One line per depth step
~Well Information Block
#MNEM.UNIT     VALUE/NAME     DESCRIPTION
#---------     -----------    ---------------------------
 STRT.S             11:11:27 25-Aug-20: START TIME 11:11:27 25-Aug-20
 STOP.S             11:18:24 25-Aug-20: STOP TIME  11:18:24 25-Aug-20
 STEP.S                   0.00: STEP TIME
 NULL.                 -999.25: NULL VALUE
 DFWT.                        :  DIST FWL TEXT
 DFST.                        :  DIST FSL TEXT
 DMF .             Drill Floor:  DRILL MEAS FROM
 STIM.      09.59.28 01-Jun-20:  START TIME
 DATE.      05.00.00 28-Aug-20:  END TIME
 SPUD.               01-Jun-20:  SPUD DATE
 NREF.                    Grid:  NORTH REFERENCE
 HPTY.       Minimum Curvature:  HOLE POS TYPE
 DMOD.             Drill Model:  DRILL MOD DESC
 SVYD.                  Survey:  SURVEY DESC
 ILTD.               Lithology:  INTERP LTH DESC
 FTOP.          Formation Tops:  FORM TOPS DESC
 SON .        AZ-XX-0905455768:  JOB NUMBER
 WTYP.                Deviated:  WELL TYPE
 COMP.     BP Exploration(Caspian Sea):  COMPANY
 BASE.              Azerbaijan:  LOGGING EQUIPMENT BASE LOCATION
 REGN.                   EESSA:  REGION
 CTRY.              Azerbaijan:  COUNTRY NAME
 FLD .                     ACG:  FIELD NAME
 SRVC.          Turan Drilling:  CONTRACTOR
 WELL.                     B41:  WELL NAME
 RIG .           Central Azeri:  RIG NAME
 DCON.         Sperry Drilling:  DIRECTNL CONTR
 PDAT.          Mean Sea Level:  PERMANENT DATUM
 MDS .        Operator Entered:  MAG DATA SOURCE
 API .                        :  API NUMBER
 CNTY.                        :  COUNTY
 PROV.                        :  PROVINCE
 STAT.                        :  STATE
 UWI .                        :  UNIQUE WELL IDENTIFIER
 LOC .                        :  LOCATION
 LMF .             Drill Floor:  LOG MEASURED FROM
 TVDS.m                  43.29:  TVDSS CORRECTN
 LATI.deg                40.03:  LATITUDE
 LONG.deg                51.35:  LONGITUDE
 WHNS.m                  12.98:  WELL HEAD N/S
 WHEW.m                  -6.62:  WELL HEAD E/W
 UTMX.m              530128.28:  UTM X
 UTMY.m             4433192.49:  UTM Y
 DFWL.m                   0.00:  DISTANCE FWL
 DFSL.m                   0.00:  DISTANCE FSL
 SDEP.m                 378.00:  START DEPTH
 TDD .m                4463.01:  TOTAL DEPTH (DRILLER)
 VSDR.deg               296.18:  VERT SEC DIRECT
 GVFD.g                   1.00:  GRAVITY FIELD
 MFLD.nT              50269.00:  MAGNETIC FIELD
 MDIP.deg                59.50:  MAGNETIC DIP
 MDEC.deg                 6.44:  MAGNETIC DECL
 GRDC.deg                 0.20:  GRID CORRECTION
 AZTC.deg                 6.24:  AZM TOTAL CORR
 EPD .m                   0.00:  ELEVATION
 EGL .m                   0.00:  GROUND ELEVATION
 WDMS.m                 128.20:  WD ELEV
 APD .m                  43.29:  DEPTH ABOVE PD
 AGAP.m                  43.29:  AIR GAP
 VSEW.m                  -6.62:  VERT SEC E/W
 VSNS.m                  12.98:  VERT SEC N/S
 EKB .m                  43.29:  KB ELEVATION
 EDF .m                  43.29:  DF ELEVATION
 TDL .m                 147.00:  TOTAL DEPTH (LOGGER)
 VSC .                       0:  VS TO CLOSURE
 MAGU.                 1849241:  MAGUTM CHECKSUM
~Parameter Information Block
#MNEM.UNIT       Value        Description
#---------     -----------    ---------------------------
 AV  .mps                 0.70:  Ann Velocity 
 AZIF.deg               269.43:  Azm, Final 
 BHAT.        Rotary Steerable:  BHA Type 
 BROT.°/30m              -0.03:  Build Rotating 
 BS  .in                  8.50:  Bit Size 
 BSZ .in                  8.50:  Bit Size 
 BTPL.psig              880.00:  Bit Press Loss 
 CABU.                      No:  Customer Abuse 
 CGEO.          Parviz Guliyev:  Customer Geo 
 COMM.                     ìra:  Run Comments 1 
 TCS .hr                 64.59:  Time Ciculation Ended 
 CV  .mps                 2.17:  Crit Velocity 
 DD1 .            Nonso Okafor:  Direct Drillr 1 
 DDSV.               Geo-Pilot:  DD Service 
 DEFF.%                  98.00:  % Det Eff 
 DLRX.°/30m               0.81:  Dogleg Rot Max 
 DLSO.°/30m               0.55:  Dogleg Oriented 
 DLSX.°/30m               0.81:  Dogleg Str Max 
 DRET.      23.50.00 24-Aug-20:  Drill End Time 
 DRST.      07.34.24 22-Aug-20:  Drill Start Tim 
 DTIM.hr                 15.29:  Time Drilling 
 EDEP.m                4461.01:  End Depth 
 ENG1.       Zam Abdullah Sani:  Engineer 1 
 ENG2.         Dair Mahammadov:  Engineer 2 
 ENG3.          Rustam Gadirov:  Engineer 3 
 ETIM.      07.34.24 26-Aug-20:  End Time 
 FLOI.gpm               550.00:  Flow In 
 FLON.gpm               400.00:  Flow In Min 
 FLOS.cptm                1.00:  Fluid Loss 
 FLOX.gpm               600.00:  Flow In Max 
 FTRO.       Formation Presure:  FTWD Run Obj 
 HFLO.                      No:  High Flow 
 HPRE.                      No:  High Pressure 
 HTEM.                      No:  High Temp 
 HYDO.m                   1.80:  Hydro Offset 
 IFIN.deg                66.72:  Inc, Final 
 IMAX.deg                67.42:  Inc Max 
 IMIN.deg                66.72:  Inc Min 
 IMND.m                4408.37:  Inc Min Depth 
 IMXD.m                4323.37:  Inc Max Depth 
 JARR.                      No:  Jarring 
 LETM.      23.50.00 24-Aug-20:  Log End Time 
 LOST.hr                     0:  Lost Rig Time 
 LSTM.      07.34.24 22-Aug-20:  Log Start Time 
 MDCL.ppm             38000.00:  Mud Chlorides 
 MDES.     Inversion Oil/Synthetic:  Mud Desc 
 DFD .sg                  1.40:  Mud Density 
 MDMN.sg                  1.38:  Dens Mud Min 
 MDMX.sg                  1.41:  Dens Mud Max 
 MOIL.                    70.5:  Run Mud Oil % 
 MOWR.                   68:32:  Run Mud OWR 
 MSND.                    0.01:  Run Mud Sand % 
 MSOL.                   17.68:  Run Mud Solids% 
 DFV .spqt               77.00:  Mud Viscosity 
 MWOD.in                  6.75:  MWD Tool OD 
 MWSI.                      No:  Serv Intrp, MWD 
 OTIM.hr                159.42:  Time Operating 
 PCON.           Look Like New:  Pad Condition 
 PMAX.psia             8730.94:  Press Op, Max 
 PV  .cP                 31.00:  Mud PV 
 RUN .                     900:  Run Number 
 ROPA.m/hr               12.00:  ROP Avg 
 ROPN.m/hr                7.00:  ROP Min 
 ROPX.m/hr               17.00:  ROP Max 
 RPMA.rpm               120.00:  RPM Surface Avg 
 RPMN.rpm                60.00:  RPM Surface Min 
 RPMX.rpm               140.00:  RPM Surface Max 
 RRUN.                    L604:  Rig Run Number 
 RTIM.hr                 10.00:  Time Reaming 
 SAZI.deg               270.56:  Azm, Start 
 SDEP.m                4314.01:  Start Depth 
 SIDD.                      No:  Serv Intrp, DD 
 SINC.deg                67.42:  Inc, Start 
 SPPA.psig             3300.00:  SPP Avg 
 SPPN.psig             1750.00:  SPP Min 
 SPPX.psig             4630.00:  SPP Max 
 STIM.      11.00.00 21-Aug-20:  Start Time 
 SVCS.                 DD, MWD:  Services 
 SVER.                    9.20:  Sperry Version 
 TDAT.m                4461.01:  Tot Depth Attmp 
 TDDF.                      No:  Trip for DD 
 TDLG.m                 147.00:  Tot Depth Loggd 
 TFF .                      No:  Trip for Fail 
 TQAA.f-kp               16.00:  Torque Abs Avg 
 TQAN.f-kp               14.00:  Torque Abs Min 
 TQAX.f-kp               20.00:  Torque Abs Max 
 TRRT.°/30m              -0.14:  Turn Rotating 
 MRT .                    HCIM:  Maximum Recorded Temperature 
 TTMX.degC               78.00:  Max Tool Temp 
 VS01.                90515425:  Virtual Str1 SN 
 VS02.                90545184:  Virtual Str2 SN 
 VS03.                90527809:  Virtual Str3 SN 
 VS04.                90515232:  Virtual Str4 SN 
 VS05.                90621207:  Virtual Str5 SN 
 VS06.                90619737:  Virtual Str6 SN 
 WBMN.klb                 2.00:  WOB Min 
 WITN.          Keith Dischler:  Customer Rep 
 WITN.           Faig Mammadov:  Customer Rep 2 
 WOBA.klb                 5.00:  WOB Avg 
 WOBX.klb                 8.00:  WOB Max 
 YP  .lhf2               32.00:  Yield Point 
~Curve Information Block
#MNEM.UNIT                 API CODE     Curve Description
#---------               -----------    ---------------------------
 TIME.HHMMSS            00 000 000 000:  GT Time & Date
 GTET.sec               00 000 000 000:  GT Elapsed Test Time
 GTPQH.psia             00 000 000 000:  GT HR Quartz Pressure
 GTDEPTH.m              00 000 000 000:  GT Depth
 GTTVD.m                00 000 000 000:  GT True Vertical Depth
 GTTQ.degC              00 000 000 000:  GT Quartz Temperature
 GTTN.NONE              00 000 000 000:  GT Test Number
#Other Information
#
#WARRANTY: Halliburton will use its best efforts to furnish customers with 
#accurate information and interpretations that are part of, and incident to, the services 
#provided.  However, Halliburton cannot and does not warrant the accuracy 
#or correctness of such information and interpretations.  Under no circumstances should any 
#such information or interpretation be relied upon as the sole basis for any drilling, 
#completion, production, or financial decision or any procedure involving any risk to the 
#safety of any drilling venture, drilling rig or its crew or any other third party.  The 
#Customer has full responsibility for all drilling, completion and production operation.  
#Halliburton makes no representations or warranties, either expressed or 
#implied, including, but not limited to, the implied warranties of merchantability or fitness 
#for a particular purpose, with respect to the services rendered.  In no event will 
#Halliburton be liable for failure to obtain any particular results or for 
#any damages, including, but not limited to, indirect, special or consequential damages, 
#resulting from the use of any information or interpretation provided by Halliburton.
#
~A           TIME            GTET   GTPQH  GTDEPTH  GTTVD  GTTQ  GTTN  
# ...
   11:12:12.200.25-Aug-2020  45.20 4341.69 4320.01 2045.42 71.55 10.00
   11:12:12.400.25-Aug-2020  45.40 3251.97 4320.01 2045.42 71.55 10.00
   11:12:12.600.25-Aug-2020  45.60 3181.88 4320.01 2045.42 71.55 10.00
   11:12:12.800.25-Aug-2020  45.80 3099.94 4320.01 2045.42 71.55 10.00
   11:12:13.000.25-Aug-2020  46.00 3238.23 4320.01 2045.42 71.55 10.00
   11:12:13.200.25-Aug-2020  46.20 3238.23 4320.01 2045.42 71.55 10.00
   11:12:13.400.25-Aug-2020  46.40 3194.48 4320.01 2045.42 71.55 10.00
   11:12:13.600.25-Aug-2020  46.60 3075.22 4320.01 2045.42 71.55 10.00
   11:12:13.800.25-Aug-2020  46.80 2863.03 4320.01 2045.42 71.54 10.00
   11:12:14.000.25-Aug-2020  47.00 2804.80 4320.01 2045.42 71.54 10.00
   11:12:14.200.25-Aug-2020  47.20 2804.80 4320.01 2045.42 71.54 10.00
   11:12:14.400.25-Aug-2020  47.40 2492.75 4320.01 2045.42 71.54 10.00
   11:12:14.600.25-Aug-2020  47.60 2438.40 4320.01 2045.42 71.54 10.00
   11:12:14.800.25-Aug-2020  47.80 2373.13 4320.01 2045.42 71.54 10.00
   11:12:15.000.25-Aug-2020  48.00 2282.70 4320.01 2045.42 71.54 10.00
   11:12:15.200.25-Aug-2020  48.20 2234.47 4320.01 2045.42 71.54 10.00
   11:12:15.400.25-Aug-2020  48.40 2167.58 4320.01 2045.42 71.53 10.00
   11:12:15.600.25-Aug-2020  48.60 2080.39 4320.01 2045.42 71.53 10.00
   11:12:15.800.25-Aug-2020  48.80 1998.18 4320.01 2045.42 71.53 10.00
   11:12:16.000.25-Aug-2020  49.00 1951.16 4320.01 2045.42 71.53 10.00
   11:12:16.200.25-Aug-2020  49.20 1951.16 4320.01 2045.42 71.53 10.00
   11:12:16.400.25-Aug-2020  49.40 1790.07 4320.01 2045.42 71.52 10.00
   11:12:16.600.25-Aug-2020  49.60 1731.00 4320.01 2045.42 71.52 10.00
   11:12:16.800.25-Aug-2020  49.80 1676.49 4320.01 2045.42 71.52 10.00
   11:12:17.000.25-Aug-2020  50.00 1620.76 4320.01 2045.42 71.52 10.00
   11:12:17.200.25-Aug-2020  50.20 1620.76 4320.01 2045.42 71.52 10.00
   11:12:17.400.25-Aug-2020  50.40 1628.89 4320.01 2045.42 71.51 10.00
   11:12:17.600.25-Aug-2020  50.60 1668.20 4320.01 2045.42 71.51 10.00
   11:12:17.800.25-Aug-2020  50.80 1770.71 4320.01 2045.42 71.51 10.00
   11:12:18.000.25-Aug-2020  51.00 1825.84 4320.01 2045.42 71.51 10.00
   11:12:18.200.25-Aug-2020  51.20 1825.84 4320.01 2045.42 71.51 10.00
   11:12:18.400.25-Aug-2020  51.40 1837.07 4320.01 2045.42 71.50 10.00
   11:12:18.600.25-Aug-2020  51.60 1828.25 4320.01 2045.42 71.50 10.00
   11:12:18.800.25-Aug-2020  51.80 1818.16 4320.01 2045.42 71.50 10.00
   11:12:19.000.25-Aug-2020  52.00 1801.88 4320.01 2045.42 71.50 10.00
   11:12:19.200.25-Aug-2020  52.20 1783.40 4320.01 2045.42 71.50 10.00
   11:12:19.400.25-Aug-2020  52.40 1766.16 4320.01 2045.42 71.49 10.00
   11:12:19.600.25-Aug-2020  52.60 1747.10 4320.01 2045.42 71.49 10.00
   11:12:19.800.25-Aug-2020  52.80 1724.94 4320.01 2045.42 71.49 10.00
   11:12:20.000.25-Aug-2020  53.00 1701.84 4320.01 2045.42 71.49 10.00
   11:12:20.200.25-Aug-2020  53.20 1701.84 4320.01 2045.42 71.49 10.00
   11:12:20.400.25-Aug-2020  53.40 1680.47 4320.01 2045.42 71.49 10.00
   11:12:20.600.25-Aug-2020  53.60 1679.27 4320.01 2045.42 71.49 10.00
   11:12:20.800.25-Aug-2020  53.80 1667.09 4320.01 2045.42 71.48 10.00
   11:12:21.000.25-Aug-2020  54.00 1652.29 4320.01 2045.42 71.48 10.00
   11:12:21.200.25-Aug-2020  54.20 1652.29 4320.01 2045.42 71.48 10.00
   11:12:21.400.25-Aug-2020  54.40 1636.14 4320.01 2045.42 71.48 10.00
   11:12:21.600.25-Aug-2020  54.60 1622.67 4320.01 2045.42 71.48 10.00
   11:12:21.800.25-Aug-2020  54.80 1625.55 4320.01 2045.42 71.48 10.00
   11:12:22.000.25-Aug-2020  55.00 1696.04 4320.01 2045.42 71.48 10.00
   11:12:22.200.25-Aug-2020  55.20 1696.04 4320.01 2045.42 71.48 10.00
   11:12:22.400.25-Aug-2020  55.40 1821.94 4320.01 2045.42 71.48 10.00
   11:12:22.600.25-Aug-2020  55.60 1874.14 4320.01 2045.42 71.47 10.00
   11:12:22.800.25-Aug-2020  55.80 1923.17 4320.01 2045.42 71.47 10.00
   11:12:23.000.25-Aug-2020  56.00 1967.63 4320.01 2045.42 71.47 10.00
   11:12:23.200.25-Aug-2020  56.20 2006.42 4320.01 2045.42 71.47 10.00
   11:12:23.400.25-Aug-2020  56.40 2045.82 4320.01 2045.42 71.47 10.00
   11:12:23.600.25-Aug-2020  56.60 2087.40 4320.01 2045.42 71.47 10.00
   11:12:23.800.25-Aug-2020  56.80 2125.65 4320.01 2045.42 71.47 10.00
   11:12:24.000.25-Aug-2020  57.00 2161.37 4320.01 2045.42 71.47 10.00
   11:12:24.200.25-Aug-2020  57.20 2161.37 4320.01 2045.42 71.47 10.00
   11:12:24.400.25-Aug-2020  57.40 2226.99 4320.01 2045.42 71.47 10.00
   11:12:24.600.25-Aug-2020  57.60 2254.48 4320.01 2045.42 71.47 10.00
   11:12:24.800.25-Aug-2020  57.80 2278.71 4320.01 2045.42 71.47 10.00
   11:12:25.000.25-Aug-2020  58.00 2302.29 4320.01 2045.42 71.47 10.00
   11:12:25.200.25-Aug-2020  58.20 2302.29 4320.01 2045.42 71.47 10.00
   11:12:25.400.25-Aug-2020  58.40 2353.85 4320.01 2045.42 71.47 10.00
   11:12:25.600.25-Aug-2020  58.60 2377.03 4320.01 2045.42 71.47 10.00
   11:12:25.800.25-Aug-2020  58.80 2398.90 4320.01 2045.42 71.47 10.00
   11:12:26.000.25-Aug-2020  59.00 2422.39 4320.01 2045.42 71.47 10.00
   11:12:26.200.25-Aug-2020  59.20 2422.39 4320.01 2045.42 71.47 10.00
   11:12:26.400.25-Aug-2020  59.40 2469.53 4320.01 2045.42 71.47 10.00
   11:12:26.600.25-Aug-2020  59.60 2489.74 4320.01 2045.42 71.47 10.00
   11:12:26.800.25-Aug-2020  59.80 2509.02 4320.01 2045.42 71.47 10.00
   11:12:27.000.25-Aug-2020  60.00 2525.91 4320.01 2045.42 71.47 10.00
   11:12:27.200.25-Aug-2020  60.20 2525.91 4320.01 2045.42 71.47 10.00
   11:12:27.400.25-Aug-2020  60.40 2555.87 4320.01 2045.42 71.47 10.00
   11:12:27.600.25-Aug-2020  60.60 2569.74 4320.01 2045.42 71.47 10.00
   11:12:27.800.25-Aug-2020  60.80 2583.44 4320.01 2045.42 71.47 10.00
   11:12:28.000.25-Aug-2020  61.00 2597.31 4320.01 2045.42 71.47 10.00
   11:12:28.200.25-Aug-2020  61.20 2597.31 4320.01 2045.42 71.47 10.00
   11:12:28.400.25-Aug-2020  61.40 2623.96 4320.01 2045.42 71.48 10.00
   11:12:28.600.25-Aug-2020  61.60 2636.58 4320.01 2045.42 71.48 10.00
   11:12:28.800.25-Aug-2020  61.80 2648.41 4320.01 2045.42 71.48 10.00
   11:12:29.000.25-Aug-2020  62.00 2659.67 4320.01 2045.42 71.48 10.00
   11:12:29.200.25-Aug-2020  62.20 2659.67 4320.01 2045.42 71.48 10.00
   11:12:29.400.25-Aug-2020  62.40 2681.04 4320.01 2045.42 71.48 10.00
   11:12:29.600.25-Aug-2020  62.60 2694.32 4320.01 2045.42 71.48 10.00
   11:12:29.800.25-Aug-2020  62.80 2707.52 4320.01 2045.42 71.48 10.00
   11:12:30.000.25-Aug-2020  63.00 2730.97 4320.01 2045.42 71.48 10.00
   11:12:30.200.25-Aug-2020  63.20 2730.97 4320.01 2045.42 71.48 10.00
   11:12:30.400.25-Aug-2020  63.40 2767.73 4320.01 2045.42 71.48 10.00
   11:12:30.600.25-Aug-2020  63.60 2779.38 4320.01 2045.42 71.48 10.00
   11:12:30.800.25-Aug-2020  63.80 2787.26 4320.01 2045.42 71.48 10.00
   11:12:31.000.25-Aug-2020  64.00 2792.12 4320.01 2045.42 71.48 10.00
   11:12:31.200.25-Aug-2020  64.20 2796.39 4320.01 2045.42 71.49 10.00
   11:12:31.400.25-Aug-2020  64.40 2799.33 4320.01 2045.42 71.49 10.00
   11:12:31.600.25-Aug-2020  64.60 2802.13 4320.01 2045.42 71.49 10.00
   11:12:31.800.25-Aug-2020  64.80 2804.82 4320.01 2045.42 71.49 10.00
   11:12:32.000.25-Aug-2020  65.00 2807.61 4320.01 2045.42 71.49 10.00
   11:12:32.200.25-Aug-2020  65.20 2807.61 4320.01 2045.42 71.49 10.00
   11:12:32.400.25-Aug-2020  65.40 2813.59 4320.01 2045.42 71.49 10.00
   11:12:32.600.25-Aug-2020  65.60 2816.72 4320.01 2045.42 71.49 10.00
   11:12:32.800.25-Aug-2020  65.80 2819.79 4320.01 2045.42 71.49 10.00
   11:12:33.000.25-Aug-2020  66.00 2824.77 4320.01 2045.42 71.49 10.00
   11:12:33.200.25-Aug-2020  66.20 2824.77 4320.01 2045.42 71.49 10.00
   11:12:33.400.25-Aug-2020  66.40 2835.84 4320.01 2045.42 71.49 10.00
   11:12:33.600.25-Aug-2020  66.60 2849.08 4320.01 2045.42 71.49 10.00
   11:12:33.800.25-Aug-2020  66.80 2855.66 4320.01 2045.42 71.49 10.00
   11:12:34.000.25-Aug-2020  67.00 2861.03 4320.01 2045.42 71.49 10.00
   11:12:34.200.25-Aug-2020  67.20 2867.38 4320.01 2045.42 71.49 10.00
   11:12:34.400.25-Aug-2020  67.40 2876.64 4320.01 2045.42 71.49 10.00
   11:12:34.600.25-Aug-2020  67.60 2883.15 4320.01 2045.42 71.50 10.00
