~Version Information
 VERS.                  2.0:   CWLS log ASCII Standard -VERSION 2.0
 WRAP.                   NO:   One line per depth step
~Well Information Block
#MNEM.UNIT     VALUE/NAME     DESCRIPTION
#---------     -----------    ---------------------------
 STRT.S             06:12:42 25-Aug-20: START TIME 06:12:42 25-Aug-20
 STOP.S             06:19:48 25-Aug-20: STOP TIME  06:19:48 25-Aug-20
 STEP.S                   0.00: STEP TIME
 NULL.                 -999.25: NULL VALUE
 DFWT.                        :  DIST FWL TEXT
 DFST.                        :  DIST FSL TEXT
 DMF .             Drill Floor:  DRILL MEAS FROM
 STIM.      09.59.28 01-Jun-20:  START TIME
 DATE.      05.00.00 28-Aug-20:  END TIME
 SPUD.               01-Jun-20:  SPUD DATE
 NREF.                    Grid:  NORTH REFERENCE
 HPTY.       Minimum Curvature:  HOLE POS TYPE
 DMOD.             Drill Model:  DRILL MOD DESC
 SVYD.                  Survey:  SURVEY DESC
 ILTD.               Lithology:  INTERP LTH DESC
 FTOP.          Formation Tops:  FORM TOPS DESC
 SON .        AZ-XX-0905455768:  JOB NUMBER
 WTYP.                Deviated:  WELL TYPE
 COMP.     BP Exploration(Caspian Sea):  COMPANY
 BASE.              Azerbaijan:  LOGGING EQUIPMENT BASE LOCATION
 REGN.                   EESSA:  REGION
 CTRY.              Azerbaijan:  COUNTRY NAME
 FLD .                     ACG:  FIELD NAME
 SRVC.          Turan Drilling:  CONTRACTOR
 WELL.                     B41:  WELL NAME
 RIG .           Central Azeri:  RIG NAME
 DCON.         Sperry Drilling:  DIRECTNL CONTR
 PDAT.          Mean Sea Level:  PERMANENT DATUM
 MDS .        Operator Entered:  MAG DATA SOURCE
 API .                        :  API NUMBER
 CNTY.                        :  COUNTY
 PROV.                        :  PROVINCE
 STAT.                        :  STATE
 UWI .                        :  UNIQUE WELL IDENTIFIER
 LOC .                        :  LOCATION
 LMF .             Drill Floor:  LOG MEASURED FROM
 TVDS.m                  43.29:  TVDSS CORRECTN
 LATI.deg                40.03:  LATITUDE
 LONG.deg                51.35:  LONGITUDE
 WHNS.m                  12.98:  WELL HEAD N/S
 WHEW.m                  -6.62:  WELL HEAD E/W
 UTMX.m              530128.28:  UTM X
 UTMY.m             4433192.49:  UTM Y
 DFWL.m                   0.00:  DISTANCE FWL
 DFSL.m                   0.00:  DISTANCE FSL
 SDEP.m                 378.00:  START DEPTH
 TDD .m                4463.01:  TOTAL DEPTH (DRILLER)
 VSDR.deg               296.18:  VERT SEC DIRECT
 GVFD.g                   1.00:  GRAVITY FIELD
 MFLD.nT              50269.00:  MAGNETIC FIELD
 MDIP.deg                59.50:  MAGNETIC DIP
 MDEC.deg                 6.44:  MAGNETIC DECL
 GRDC.deg                 0.20:  GRID CORRECTION
 AZTC.deg                 6.24:  AZM TOTAL CORR
 EPD .m                   0.00:  ELEVATION
 EGL .m                   0.00:  GROUND ELEVATION
 WDMS.m                 128.20:  WD ELEV
 APD .m                  43.29:  DEPTH ABOVE PD
 AGAP.m                  43.29:  AIR GAP
 VSEW.m                  -6.62:  VERT SEC E/W
 VSNS.m                  12.98:  VERT SEC N/S
 EKB .m                  43.29:  KB ELEVATION
 EDF .m                  43.29:  DF ELEVATION
 TDL .m                 147.00:  TOTAL DEPTH (LOGGER)
 VSC .                       0:  VS TO CLOSURE
 MAGU.                 1849241:  MAGUTM CHECKSUM
~Parameter Information Block
#MNEM.UNIT       Value        Description
#---------     -----------    ---------------------------
 AV  .mps                 0.70:  Ann Velocity 
 AZIF.deg               269.43:  Azm, Final 
 BHAT.        Rotary Steerable:  BHA Type 
 BROT.°/30m              -0.03:  Build Rotating 
 BS  .in                  8.50:  Bit Size 
 BSZ .in                  8.50:  Bit Size 
 BTPL.psig              880.00:  Bit Press Loss 
 CABU.                      No:  Customer Abuse 
 CGEO.          Parviz Guliyev:  Customer Geo 
 COMM.                     ôb:  Run Comments 1 
 TCS .hr                 64.59:  Time Ciculation Ended 
 CV  .mps                 2.17:  Crit Velocity 
 DD1 .            Nonso Okafor:  Direct Drillr 1 
 DDSV.               Geo-Pilot:  DD Service 
 DEFF.%                  98.00:  % Det Eff 
 DLRX.°/30m               0.81:  Dogleg Rot Max 
 DLSO.°/30m               0.55:  Dogleg Oriented 
 DLSX.°/30m               0.81:  Dogleg Str Max 
 DRET.      23.50.00 24-Aug-20:  Drill End Time 
 DRST.      07.34.24 22-Aug-20:  Drill Start Tim 
 DTIM.hr                 15.29:  Time Drilling 
 EDEP.m                4461.01:  End Depth 
 ENG1.       Zam Abdullah Sani:  Engineer 1 
 ENG2.         Dair Mahammadov:  Engineer 2 
 ENG3.          Rustam Gadirov:  Engineer 3 
 ETIM.      07.34.24 26-Aug-20:  End Time 
 FLOI.gpm               550.00:  Flow In 
 FLON.gpm               400.00:  Flow In Min 
 FLOS.cptm                1.00:  Fluid Loss 
 FLOX.gpm               600.00:  Flow In Max 
 FTRO.       Formation Presure:  FTWD Run Obj 
 HFLO.                      No:  High Flow 
 HPRE.                      No:  High Pressure 
 HTEM.                      No:  High Temp 
 HYDO.m                   1.80:  Hydro Offset 
 IFIN.deg                66.72:  Inc, Final 
 IMAX.deg                67.42:  Inc Max 
 IMIN.deg                66.72:  Inc Min 
 IMND.m                4408.37:  Inc Min Depth 
 IMXD.m                4323.37:  Inc Max Depth 
 JARR.                      No:  Jarring 
 LETM.      23.50.00 24-Aug-20:  Log End Time 
 LOST.hr                     0:  Lost Rig Time 
 LSTM.      07.34.24 22-Aug-20:  Log Start Time 
 MDCL.ppm             38000.00:  Mud Chlorides 
 MDES.     Inversion Oil/Synthetic:  Mud Desc 
 DFD .sg                  1.40:  Mud Density 
 MDMN.sg                  1.38:  Dens Mud Min 
 MDMX.sg                  1.41:  Dens Mud Max 
 MOIL.                    70.5:  Run Mud Oil % 
 MOWR.                   68:32:  Run Mud OWR 
 MSND.                    0.01:  Run Mud Sand % 
 MSOL.                   17.68:  Run Mud Solids% 
 DFV .spqt               77.00:  Mud Viscosity 
 MWOD.in                  6.75:  MWD Tool OD 
 MWSI.                      No:  Serv Intrp, MWD 
 OTIM.hr                159.42:  Time Operating 
 PCON.           Look Like New:  Pad Condition 
 PMAX.psia             8730.94:  Press Op, Max 
 PV  .cP                 31.00:  Mud PV 
 RUN .                     900:  Run Number 
 ROPA.m/hr               12.00:  ROP Avg 
 ROPN.m/hr                7.00:  ROP Min 
 ROPX.m/hr               17.00:  ROP Max 
 RPMA.rpm               120.00:  RPM Surface Avg 
 RPMN.rpm                60.00:  RPM Surface Min 
 RPMX.rpm               140.00:  RPM Surface Max 
 RRUN.                    L604:  Rig Run Number 
 RTIM.hr                 10.00:  Time Reaming 
 SAZI.deg               270.56:  Azm, Start 
 SDEP.m                4314.01:  Start Depth 
 SIDD.                      No:  Serv Intrp, DD 
 SINC.deg                67.42:  Inc, Start 
 SPPA.psig             3300.00:  SPP Avg 
 SPPN.psig             1750.00:  SPP Min 
 SPPX.psig             4630.00:  SPP Max 
 STIM.      11.00.00 21-Aug-20:  Start Time 
 SVCS.                 DD, MWD:  Services 
 SVER.                    9.20:  Sperry Version 
 TDAT.m                4461.01:  Tot Depth Attmp 
 TDDF.                      No:  Trip for DD 
 TDLG.m                 147.00:  Tot Depth Loggd 
 TFF .                      No:  Trip for Fail 
 TQAA.f-kp               16.00:  Torque Abs Avg 
 TQAN.f-kp               14.00:  Torque Abs Min 
 TQAX.f-kp               20.00:  Torque Abs Max 
 TRRT.°/30m              -0.14:  Turn Rotating 
 MRT .                    HCIM:  Maximum Recorded Temperature 
 TTMX.degC               78.00:  Max Tool Temp 
 VS01.                90515425:  Virtual Str1 SN 
 VS02.                90545184:  Virtual Str2 SN 
 VS03.                90527809:  Virtual Str3 SN 
 VS04.                90515232:  Virtual Str4 SN 
 VS05.                90621207:  Virtual Str5 SN 
 VS06.                90619737:  Virtual Str6 SN 
 WBMN.klb                 2.00:  WOB Min 
 WITN.          Keith Dischler:  Customer Rep 
 WITN.           Faig Mammadov:  Customer Rep 2 
 WOBA.klb                 5.00:  WOB Avg 
 WOBX.klb                 8.00:  WOB Max 
 YP  .lhf2               32.00:  Yield Point 
~Curve Information Block
#MNEM.UNIT                 API CODE     Curve Description
#---------               -----------    ---------------------------
 TIME.HHMMSS            00 000 000 000:  GT Time & Date
 GTET.sec               00 000 000 000:  GT Elapsed Test Time
 GTPQH.psia             00 000 000 000:  GT HR Quartz Pressure
 GTDEPTH.m              00 000 000 000:  GT Depth
 GTTVD.m                00 000 000 000:  GT True Vertical Depth
 GTTQ.degC              00 000 000 000:  GT Quartz Temperature
 GTTN.NONE              00 000 000 000:  GT Test Number
#Other Information
#
#WARRANTY: Halliburton will use its best efforts to furnish customers with 
#accurate information and interpretations that are part of, and incident to, the services 
#provided.  However, Halliburton cannot and does not warrant the accuracy 
#or correctness of such information and interpretations.  Under no circumstances should any 
#such information or interpretation be relied upon as the sole basis for any drilling, 
#completion, production, or financial decision or any procedure involving any risk to the 
#safety of any drilling venture, drilling rig or its crew or any other third party.  The 
#Customer has full responsibility for all drilling, completion and production operation.  
#Halliburton makes no representations or warranties, either expressed or 
#implied, including, but not limited to, the implied warranties of merchantability or fitness 
#for a particular purpose, with respect to the services rendered.  In no event will 
#Halliburton be liable for failure to obtain any particular results or for 
#any damages, including, but not limited to, indirect, special or consequential damages, 
#resulting from the use of any information or interpretation provided by Halliburton.
#
~A           TIME            GTET   GTPQH  GTDEPTH  GTTVD  GTTQ  GTTN 
# ...
   06:15:23.000.25-Aug-2020 161.00 4802.85 4397.01 2075.58 73.36 2.00
   06:15:23.200.25-Aug-2020 161.20 4802.85 4397.01 2075.58 73.36 2.00
   06:15:23.400.25-Aug-2020 161.40 4802.84 4397.01 2075.58 73.36 2.00
   06:15:23.600.25-Aug-2020 161.60 4802.70 4397.01 2075.58 73.36 2.00
   06:15:23.800.25-Aug-2020 161.80 4802.04 4397.01 2075.58 73.36 2.00
   06:15:24.000.25-Aug-2020 162.00 4802.17 4397.01 2075.58 73.36 2.00
   06:15:24.200.25-Aug-2020 162.20 4802.17 4397.01 2075.58 73.36 2.00
   06:15:24.400.25-Aug-2020 162.40 4800.66 4397.01 2075.58 73.36 2.00
   06:15:24.600.25-Aug-2020 162.60 4801.59 4397.01 2075.58 73.36 2.00
   06:15:24.800.25-Aug-2020 162.80 4811.65 4397.01 2075.58 73.36 2.00
   06:15:25.000.25-Aug-2020 163.00 4808.37 4397.01 2075.58 73.36 2.00
   06:15:25.200.25-Aug-2020 163.20 4801.72 4397.01 2075.58 73.36 2.00
   06:15:25.400.25-Aug-2020 163.40 4800.64 4397.01 2075.58 73.36 2.00
   06:15:25.600.25-Aug-2020 163.60 4799.77 4397.01 2075.58 73.36 2.00
   06:15:25.800.25-Aug-2020 163.80 4800.98 4397.01 2075.58 73.36 2.00
   06:15:26.000.25-Aug-2020 164.00 4801.59 4397.01 2075.58 73.36 2.00
   06:15:26.200.25-Aug-2020 164.20 4801.59 4397.01 2075.58 73.36 2.00
   06:15:26.400.25-Aug-2020 164.40 4801.14 4397.01 2075.58 73.36 2.00
   06:15:26.600.25-Aug-2020 164.60 4800.45 4397.01 2075.58 73.36 2.00
   06:15:26.800.25-Aug-2020 164.80 4800.18 4397.01 2075.58 73.36 2.00
   06:15:27.000.25-Aug-2020 165.00 4801.42 4397.01 2075.58 73.36 2.00
   06:15:27.200.25-Aug-2020 165.20 4801.42 4397.01 2075.58 73.36 2.00
   06:15:27.400.25-Aug-2020 165.40 4801.97 4397.01 2075.58 73.36 2.00
   06:15:27.600.25-Aug-2020 165.60 4801.11 4397.01 2075.58 73.36 2.00
   06:15:27.800.25-Aug-2020 165.80 4801.09 4397.01 2075.58 73.36 2.00
   06:15:28.000.25-Aug-2020 166.00 4799.83 4397.01 2075.58 73.36 2.00
   06:15:28.200.25-Aug-2020 166.20 4799.83 4397.01 2075.58 73.36 2.00
   06:15:28.400.25-Aug-2020 166.40 4808.95 4397.01 2075.58 73.36 2.00
   06:15:28.600.25-Aug-2020 166.60 4802.77 4397.01 2075.58 73.36 2.00
   06:15:28.800.25-Aug-2020 166.80 4802.03 4397.01 2075.58 73.36 2.00
   06:15:29.000.25-Aug-2020 167.00 4802.28 4397.01 2075.58 73.36 2.00
   06:15:29.200.25-Aug-2020 167.20 4802.28 4397.01 2075.58 73.36 2.00
   06:15:29.400.25-Aug-2020 167.40 4806.56 4397.01 2075.58 73.36 2.00
   06:15:29.600.25-Aug-2020 167.60 4812.14 4397.01 2075.58 73.36 2.00
   06:15:29.800.25-Aug-2020 167.80 4806.06 4397.01 2075.58 73.36 2.00
   06:15:30.000.25-Aug-2020 168.00 4803.60 4397.01 2075.58 73.36 2.00
   06:15:30.200.25-Aug-2020 168.20 4803.60 4397.01 2075.58 73.36 2.00
   06:15:30.400.25-Aug-2020 168.40 4802.70 4397.01 2075.58 73.36 2.00
   06:15:30.600.25-Aug-2020 168.60 4811.57 4397.01 2075.58 73.36 2.00
   06:15:30.800.25-Aug-2020 168.80 4803.83 4397.01 2075.58 73.36 2.00
   06:15:31.000.25-Aug-2020 169.00 4809.32 4397.01 2075.58 73.36 2.00
   06:15:31.200.25-Aug-2020 169.20 4809.32 4397.01 2075.58 73.36 2.00
   06:15:31.400.25-Aug-2020 169.40 4804.63 4397.01 2075.58 73.36 2.00
   06:15:31.600.25-Aug-2020 169.60 4803.24 4397.01 2075.58 73.36 2.00
   06:15:31.800.25-Aug-2020 169.80 4812.79 4397.01 2075.58 73.36 2.00
   06:15:32.000.25-Aug-2020 170.00 4804.57 4397.01 2075.58 73.36 2.00
   06:15:32.200.25-Aug-2020 170.20 4804.57 4397.01 2075.58 73.36 2.00
   06:15:32.400.25-Aug-2020 170.40 4805.84 4397.01 2075.58 73.36 2.00
   06:15:32.600.25-Aug-2020 170.60 4813.80 4397.01 2075.58 73.36 2.00
   06:15:32.800.25-Aug-2020 170.80 4803.22 4397.01 2075.58 73.36 2.00
   06:15:33.000.25-Aug-2020 171.00 4809.01 4397.01 2075.58 73.36 2.00
   06:15:33.200.25-Aug-2020 171.20 4806.69 4397.01 2075.58 73.36 2.00
   06:15:33.400.25-Aug-2020 171.40 4804.99 4397.01 2075.58 73.36 2.00
   06:15:33.600.25-Aug-2020 171.60 4803.11 4397.01 2075.58 73.36 2.00
   06:15:33.800.25-Aug-2020 171.80 4803.38 4397.01 2075.58 73.36 2.00
   06:15:34.000.25-Aug-2020 172.00 4802.95 4397.01 2075.58 73.36 2.00
   06:15:34.200.25-Aug-2020 172.20 4802.95 4397.01 2075.58 73.36 2.00
   06:15:34.400.25-Aug-2020 172.40 4803.77 4397.01 2075.58 73.36 2.00
   06:15:34.600.25-Aug-2020 172.60 4804.26 4397.01 2075.58 73.36 2.00
   06:15:34.800.25-Aug-2020 172.80 4804.11 4397.01 2075.58 73.36 2.00
   06:15:35.000.25-Aug-2020 173.00 4804.11 4397.01 2075.58 73.36 2.00
   06:15:35.200.25-Aug-2020 173.20 4804.11 4397.01 2075.58 73.36 2.00
   06:15:35.400.25-Aug-2020 173.40 4803.88 4397.01 2075.58 73.36 2.00
   06:15:35.600.25-Aug-2020 173.60 4803.72 4397.01 2075.58 73.36 2.00
   06:15:35.800.25-Aug-2020 173.80 4803.37 4397.01 2075.58 73.36 2.00
   06:15:36.000.25-Aug-2020 174.00 4803.30 4397.01 2075.58 73.36 2.00
   06:15:36.200.25-Aug-2020 174.20 4803.30 4397.01 2075.58 73.36 2.00
   06:15:36.400.25-Aug-2020 174.40 4807.29 4397.01 2075.58 73.36 2.00
   06:15:36.600.25-Aug-2020 174.60 4812.10 4397.01 2075.58 73.36 2.00
   06:15:36.800.25-Aug-2020 174.80 4805.01 4397.01 2075.58 73.36 2.00
   06:15:37.000.25-Aug-2020 175.00 4802.58 4397.01 2075.58 73.35 2.00
   06:15:37.200.25-Aug-2020 175.20 4801.97 4397.01 2075.58 73.35 2.00
   06:15:37.400.25-Aug-2020 175.40 4801.04 4397.01 2075.58 73.36 2.00
   06:15:37.600.25-Aug-2020 175.60 4801.79 4397.01 2075.58 73.35 2.00
   06:15:37.800.25-Aug-2020 175.80 4803.07 4397.01 2075.58 73.35 2.00
   06:15:38.000.25-Aug-2020 176.00 4803.69 4397.01 2075.58 73.35 2.00
   06:15:38.200.25-Aug-2020 176.20 4803.69 4397.01 2075.58 73.35 2.00
   06:15:38.400.25-Aug-2020 176.40 4802.95 4397.01 2075.58 73.35 2.00
   06:15:38.600.25-Aug-2020 176.60 4802.69 4397.01 2075.58 73.35 2.00
   06:15:38.800.25-Aug-2020 176.80 4801.74 4397.01 2075.58 73.35 2.00
   06:15:39.000.25-Aug-2020 177.00 4802.96 4397.01 2075.58 73.35 2.00
   06:15:39.200.25-Aug-2020 177.20 4802.96 4397.01 2075.58 73.35 2.00
   06:15:39.400.25-Aug-2020 177.40 4802.94 4397.01 2075.58 73.35 2.00
   06:15:39.600.25-Aug-2020 177.60 4804.14 4397.01 2075.58 73.35 2.00
   06:15:39.800.25-Aug-2020 177.80 4806.57 4397.01 2075.58 73.35 2.00
   06:15:40.000.25-Aug-2020 178.00 4809.49 4397.01 2075.58 73.35 2.00
   06:15:40.200.25-Aug-2020 178.20 4809.49 4397.01 2075.58 73.35 2.00
   06:15:40.400.25-Aug-2020 178.40 4802.18 4397.01 2075.58 73.35 2.00
   06:15:40.600.25-Aug-2020 178.60 4801.80 4397.01 2075.58 73.35 2.00
   06:15:40.800.25-Aug-2020 178.80 4809.30 4397.01 2075.58 73.35 2.00
   06:15:41.000.25-Aug-2020 179.00 4801.21 4397.01 2075.58 73.35 2.00
   06:15:41.200.25-Aug-2020 179.20 4806.46 4397.01 2075.58 73.35 2.00
   06:15:41.400.25-Aug-2020 179.40 4803.84 4397.01 2075.58 73.35 2.00
   06:15:41.600.25-Aug-2020 179.60 4801.97 4397.01 2075.58 73.35 2.00
   06:15:41.800.25-Aug-2020 179.80 4800.51 4397.01 2075.58 73.35 2.00
   06:15:42.000.25-Aug-2020 180.00 4810.36 4397.01 2075.58 73.35 2.00
   06:15:42.200.25-Aug-2020 180.20 4810.36 4397.01 2075.58 73.35 2.00
   06:15:42.400.25-Aug-2020 180.40 4807.94 4397.01 2075.58 73.35 2.00
   06:15:42.600.25-Aug-2020 180.60 4805.39 4397.01 2075.58 73.35 2.00
   06:15:42.800.25-Aug-2020 180.80 4804.23 4397.01 2075.58 73.35 2.00
   06:15:43.000.25-Aug-2020 181.00 4803.08 4397.01 2075.58 73.35 2.00
   06:15:43.200.25-Aug-2020 181.20 4803.08 4397.01 2075.58 73.35 2.00
   06:15:43.400.25-Aug-2020 181.40 4808.87 4397.01 2075.58 73.35 2.00
   06:15:43.600.25-Aug-2020 181.60 4813.28 4397.01 2075.58 73.35 2.00
   06:15:43.800.25-Aug-2020 181.80 4806.22 4397.01 2075.58 73.35 2.00
   06:15:44.000.25-Aug-2020 182.00 4804.25 4397.01 2075.58 73.35 2.00
   06:15:44.200.25-Aug-2020 182.20 4804.25 4397.01 2075.58 73.35 2.00
   06:15:44.400.25-Aug-2020 182.40 4803.00 4397.01 2075.58 73.35 2.00
   06:15:44.600.25-Aug-2020 182.60 4803.14 4397.01 2075.58 73.35 2.00
   06:15:44.800.25-Aug-2020 182.80 4817.02 4397.01 2075.58 73.35 2.00
   06:15:45.000.25-Aug-2020 183.00 4805.13 4397.01 2075.58 73.35 2.00
   06:15:45.200.25-Aug-2020 183.20 4804.47 4397.01 2075.58 73.35 2.00
   06:15:45.400.25-Aug-2020 183.40 4804.21 4397.01 2075.58 73.35 2.00
   06:15:45.600.25-Aug-2020 183.60 4802.89 4397.01 2075.58 73.35 2.00
   06:15:45.800.25-Aug-2020 183.80 4802.19 4397.01 2075.58 73.35 2.00
