~Version Information
 VERS.                  2.0:   CWLS log ASCII Standard -VERSION 2.0
 WRAP.                   NO:   One line per depth step
~Well Information Block
#MNEM.UNIT     VALUE/NAME     DESCRIPTION
#---------     -----------    ---------------------------
 STRT.S             11:11:27 25-Aug-20: START TIME 11:11:27 25-Aug-20
 STOP.S             11:18:24 25-Aug-20: STOP TIME  11:18:24 25-Aug-20
 STEP.S                   0.00: STEP TIME
 NULL.                 -999.25: NULL VALUE
 DFWT.                        :  DIST FWL TEXT
 DFST.                        :  DIST FSL TEXT
 DMF .             Drill Floor:  DRILL MEAS FROM
 STIM.      09.59.28 01-Jun-20:  START TIME
 DATE.      05.00.00 28-Aug-20:  END TIME
 SPUD.               01-Jun-20:  SPUD DATE
 NREF.                    Grid:  NORTH REFERENCE
 HPTY.       Minimum Curvature:  HOLE POS TYPE
 DMOD.             Drill Model:  DRILL MOD DESC
 SVYD.                  Survey:  SURVEY DESC
 ILTD.               Lithology:  INTERP LTH DESC
 FTOP.          Formation Tops:  FORM TOPS DESC
 SON .        AZ-XX-0905455768:  JOB NUMBER
 WTYP.                Deviated:  WELL TYPE
 COMP.     BP Exploration(Caspian Sea):  COMPANY
 BASE.              Azerbaijan:  LOGGING EQUIPMENT BASE LOCATION
 REGN.                   EESSA:  REGION
 CTRY.              Azerbaijan:  COUNTRY NAME
 FLD .                     ACG:  FIELD NAME
 SRVC.          Turan Drilling:  CONTRACTOR
 WELL.                     B41:  WELL NAME
 RIG .           Central Azeri:  RIG NAME
 DCON.         Sperry Drilling:  DIRECTNL CONTR
 PDAT.          Mean Sea Level:  PERMANENT DATUM
 MDS .        Operator Entered:  MAG DATA SOURCE
 API .                        :  API NUMBER
 CNTY.                        :  COUNTY
 PROV.                        :  PROVINCE
 STAT.                        :  STATE
 UWI .                        :  UNIQUE WELL IDENTIFIER
 LOC .                        :  LOCATION
 LMF .             Drill Floor:  LOG MEASURED FROM
 TVDS.m                  43.29:  TVDSS CORRECTN
 LATI.deg                40.03:  LATITUDE
 LONG.deg                51.35:  LONGITUDE
 WHNS.m                  12.98:  WELL HEAD N/S
 WHEW.m                  -6.62:  WELL HEAD E/W
 UTMX.m              530128.28:  UTM X
 UTMY.m             4433192.49:  UTM Y
 DFWL.m                   0.00:  DISTANCE FWL
 DFSL.m                   0.00:  DISTANCE FSL
 SDEP.m                 378.00:  START DEPTH
 TDD .m                4463.01:  TOTAL DEPTH (DRILLER)
 VSDR.deg               296.18:  VERT SEC DIRECT
 GVFD.g                   1.00:  GRAVITY FIELD
 MFLD.nT              50269.00:  MAGNETIC FIELD
 MDIP.deg                59.50:  MAGNETIC DIP
 MDEC.deg                 6.44:  MAGNETIC DECL
 GRDC.deg                 0.20:  GRID CORRECTION
 AZTC.deg                 6.24:  AZM TOTAL CORR
 EPD .m                   0.00:  ELEVATION
 EGL .m                   0.00:  GROUND ELEVATION
 WDMS.m                 128.20:  WD ELEV
 APD .m                  43.29:  DEPTH ABOVE PD
 AGAP.m                  43.29:  AIR GAP
 VSEW.m                  -6.62:  VERT SEC E/W
 VSNS.m                  12.98:  VERT SEC N/S
 EKB .m                  43.29:  KB ELEVATION
 EDF .m                  43.29:  DF ELEVATION
 TDL .m                 147.00:  TOTAL DEPTH (LOGGER)
 VSC .                       0:  VS TO CLOSURE
 MAGU.                 1849241:  MAGUTM CHECKSUM
~Parameter Information Block
#MNEM.UNIT       Value        Description
#---------     -----------    ---------------------------
 AV  .mps                 0.70:  Ann Velocity 
 AZIF.deg               269.43:  Azm, Final 
 BHAT.        Rotary Steerable:  BHA Type 
 BROT.°/30m              -0.03:  Build Rotating 
 BS  .in                  8.50:  Bit Size 
 BSZ .in                  8.50:  Bit Size 
 BTPL.psig              880.00:  Bit Press Loss 
 CABU.                      No:  Customer Abuse 
 CGEO.          Parviz Guliyev:  Customer Geo 
 COMM.                     ìra:  Run Comments 1 
 TCS .hr                 64.59:  Time Ciculation Ended 
 CV  .mps                 2.17:  Crit Velocity 
 DD1 .            Nonso Okafor:  Direct Drillr 1 
 DDSV.               Geo-Pilot:  DD Service 
 DEFF.%                  98.00:  % Det Eff 
 DLRX.°/30m               0.81:  Dogleg Rot Max 
 DLSO.°/30m               0.55:  Dogleg Oriented 
 DLSX.°/30m               0.81:  Dogleg Str Max 
 DRET.      23.50.00 24-Aug-20:  Drill End Time 
 DRST.      07.34.24 22-Aug-20:  Drill Start Tim 
 DTIM.hr                 15.29:  Time Drilling 
 EDEP.m                4461.01:  End Depth 
 ENG1.       Zam Abdullah Sani:  Engineer 1 
 ENG2.         Dair Mahammadov:  Engineer 2 
 ENG3.          Rustam Gadirov:  Engineer 3 
 ETIM.      07.34.24 26-Aug-20:  End Time 
 FLOI.gpm               550.00:  Flow In 
 FLON.gpm               400.00:  Flow In Min 
 FLOS.cptm                1.00:  Fluid Loss 
 FLOX.gpm               600.00:  Flow In Max 
 FTRO.       Formation Presure:  FTWD Run Obj 
 HFLO.                      No:  High Flow 
 HPRE.                      No:  High Pressure 
 HTEM.                      No:  High Temp 
 HYDO.m                   1.80:  Hydro Offset 
 IFIN.deg                66.72:  Inc, Final 
 IMAX.deg                67.42:  Inc Max 
 IMIN.deg                66.72:  Inc Min 
 IMND.m                4408.37:  Inc Min Depth 
 IMXD.m                4323.37:  Inc Max Depth 
 JARR.                      No:  Jarring 
 LETM.      23.50.00 24-Aug-20:  Log End Time 
 LOST.hr                     0:  Lost Rig Time 
 LSTM.      07.34.24 22-Aug-20:  Log Start Time 
 MDCL.ppm             38000.00:  Mud Chlorides 
 MDES.     Inversion Oil/Synthetic:  Mud Desc 
 DFD .sg                  1.40:  Mud Density 
 MDMN.sg                  1.38:  Dens Mud Min 
 MDMX.sg                  1.41:  Dens Mud Max 
 MOIL.                    70.5:  Run Mud Oil % 
 MOWR.                   68:32:  Run Mud OWR 
 MSND.                    0.01:  Run Mud Sand % 
 MSOL.                   17.68:  Run Mud Solids% 
 DFV .spqt               77.00:  Mud Viscosity 
 MWOD.in                  6.75:  MWD Tool OD 
 MWSI.                      No:  Serv Intrp, MWD 
 OTIM.hr                159.42:  Time Operating 
 PCON.           Look Like New:  Pad Condition 
 PMAX.psia             8730.94:  Press Op, Max 
 PV  .cP                 31.00:  Mud PV 
 RUN .                     900:  Run Number 
 ROPA.m/hr               12.00:  ROP Avg 
 ROPN.m/hr                7.00:  ROP Min 
 ROPX.m/hr               17.00:  ROP Max 
 RPMA.rpm               120.00:  RPM Surface Avg 
 RPMN.rpm                60.00:  RPM Surface Min 
 RPMX.rpm               140.00:  RPM Surface Max 
 RRUN.                    L604:  Rig Run Number 
 RTIM.hr                 10.00:  Time Reaming 
 SAZI.deg               270.56:  Azm, Start 
 SDEP.m                4314.01:  Start Depth 
 SIDD.                      No:  Serv Intrp, DD 
 SINC.deg                67.42:  Inc, Start 
 SPPA.psig             3300.00:  SPP Avg 
 SPPN.psig             1750.00:  SPP Min 
 SPPX.psig             4630.00:  SPP Max 
 STIM.      11.00.00 21-Aug-20:  Start Time 
 SVCS.                 DD, MWD:  Services 
 SVER.                    9.20:  Sperry Version 
 TDAT.m                4461.01:  Tot Depth Attmp 
 TDDF.                      No:  Trip for DD 
 TDLG.m                 147.00:  Tot Depth Loggd 
 TFF .                      No:  Trip for Fail 
 TQAA.f-kp               16.00:  Torque Abs Avg 
 TQAN.f-kp               14.00:  Torque Abs Min 
 TQAX.f-kp               20.00:  Torque Abs Max 
 TRRT.°/30m              -0.14:  Turn Rotating 
 MRT .                    HCIM:  Maximum Recorded Temperature 
 TTMX.degC               78.00:  Max Tool Temp 
 VS01.                90515425:  Virtual Str1 SN 
 VS02.                90545184:  Virtual Str2 SN 
 VS03.                90527809:  Virtual Str3 SN 
 VS04.                90515232:  Virtual Str4 SN 
 VS05.                90621207:  Virtual Str5 SN 
 VS06.                90619737:  Virtual Str6 SN 
 WBMN.klb                 2.00:  WOB Min 
 WITN.          Keith Dischler:  Customer Rep 
 WITN.           Faig Mammadov:  Customer Rep 2 
 WOBA.klb                 5.00:  WOB Avg 
 WOBX.klb                 8.00:  WOB Max 
 YP  .lhf2               32.00:  Yield Point 
~Curve Information Block
#MNEM.UNIT                 API CODE     Curve Description
#---------               -----------    ---------------------------
 TIME.HHMMSS            00 000 000 000:  GT Time & Date
 GTET.sec               00 000 000 000:  GT Elapsed Test Time
 GTPQH.psia             00 000 000 000:  GT HR Quartz Pressure
 GTDEPTH.m              00 000 000 000:  GT Depth
 GTTVD.m                00 000 000 000:  GT True Vertical Depth
 GTTQ.degC              00 000 000 000:  GT Quartz Temperature
 GTTN.NONE              00 000 000 000:  GT Test Number
#Other Information
#
#WARRANTY: Halliburton will use its best efforts to furnish customers with 
#accurate information and interpretations that are part of, and incident to, the services 
#provided.  However, Halliburton cannot and does not warrant the accuracy 
#or correctness of such information and interpretations.  Under no circumstances should any 
#such information or interpretation be relied upon as the sole basis for any drilling, 
#completion, production, or financial decision or any procedure involving any risk to the 
#safety of any drilling venture, drilling rig or its crew or any other third party.  The 
#Customer has full responsibility for all drilling, completion and production operation.  
#Halliburton makes no representations or warranties, either expressed or 
#implied, including, but not limited to, the implied warranties of merchantability or fitness 
#for a particular purpose, with respect to the services rendered.  In no event will 
#Halliburton be liable for failure to obtain any particular results or for 
#any damages, including, but not limited to, indirect, special or consequential damages, 
#resulting from the use of any information or interpretation provided by Halliburton.
#
~A           TIME            GTET   GTPQH  GTDEPTH  GTTVD  GTTQ  GTTN  
# ...
   11:14:05.200.25-Aug-2020 158.20 1638.75 4320.01 2045.42 71.50 10.00
   11:14:05.400.25-Aug-2020 158.40 1537.97 4320.01 2045.42 71.50 10.00
   11:14:05.600.25-Aug-2020 158.60 1482.43 4320.01 2045.42 71.50 10.00
   11:14:05.800.25-Aug-2020 158.80 1437.51 4320.01 2045.42 71.50 10.00
   11:14:06.000.25-Aug-2020 159.00 1394.50 4320.01 2045.42 71.50 10.00
   11:14:06.200.25-Aug-2020 159.20 1394.50 4320.01 2045.42 71.50 10.00
   11:14:06.400.25-Aug-2020 159.40 1311.01 4320.01 2045.42 71.50 10.00
   11:14:06.600.25-Aug-2020 159.60 1274.21 4320.01 2045.42 71.50 10.00
   11:14:06.800.25-Aug-2020 159.80 1239.56 4320.01 2045.42 71.49 10.00
   11:14:07.000.25-Aug-2020 160.00 1206.56 4320.01 2045.42 71.49 10.00
   11:14:07.200.25-Aug-2020 160.20 1206.56 4320.01 2045.42 71.49 10.00
   11:14:07.400.25-Aug-2020 160.40 1141.15 4320.01 2045.42 71.49 10.00
   11:14:07.600.25-Aug-2020 160.60 1102.64 4320.01 2045.42 71.49 10.00
   11:14:07.800.25-Aug-2020 160.80 1068.12 4320.01 2045.42 71.49 10.00
   11:14:08.000.25-Aug-2020 161.00 1038.60 4320.01 2045.42 71.49 10.00
   11:14:08.200.25-Aug-2020 161.20 1038.60 4320.01 2045.42 71.49 10.00
   11:14:08.400.25-Aug-2020 161.40 1078.19 4320.01 2045.42 71.49 10.00
   11:14:08.600.25-Aug-2020 161.60 1101.23 4320.01 2045.42 71.48 10.00
   11:14:08.800.25-Aug-2020 161.80 1122.20 4320.01 2045.42 71.48 10.00
   11:14:09.000.25-Aug-2020 162.00 1141.97 4320.01 2045.42 71.48 10.00
   11:14:09.200.25-Aug-2020 162.20 1160.29 4320.01 2045.42 71.48 10.00
   11:14:09.400.25-Aug-2020 162.40 1178.86 4320.01 2045.42 71.48 10.00
   11:14:09.600.25-Aug-2020 162.60 1197.02 4320.01 2045.42 71.48 10.00
   11:14:09.800.25-Aug-2020 162.80 1214.40 4320.01 2045.42 71.48 10.00
   11:14:10.000.25-Aug-2020 163.00 1230.79 4320.01 2045.42 71.48 10.00
   11:14:10.200.25-Aug-2020 163.20 1230.79 4320.01 2045.42 71.48 10.00
   11:14:10.400.25-Aug-2020 163.40 1259.79 4320.01 2045.42 71.47 10.00
   11:14:10.600.25-Aug-2020 163.60 1273.55 4320.01 2045.42 71.47 10.00
   11:14:10.800.25-Aug-2020 163.80 1286.79 4320.01 2045.42 71.47 10.00
   11:14:11.000.25-Aug-2020 164.00 1299.49 4320.01 2045.42 71.47 10.00
   11:14:11.200.25-Aug-2020 164.20 1311.84 4320.01 2045.42 71.47 10.00
   11:14:11.400.25-Aug-2020 164.40 1324.08 4320.01 2045.42 71.47 10.00
   11:14:11.600.25-Aug-2020 164.60 1336.15 4320.01 2045.42 71.47 10.00
   11:14:11.800.25-Aug-2020 164.80 1348.14 4320.01 2045.42 71.47 10.00
   11:14:12.000.25-Aug-2020 165.00 1360.39 4320.01 2045.42 71.47 10.00
   11:14:12.200.25-Aug-2020 165.20 1360.39 4320.01 2045.42 71.47 10.00
   11:14:12.400.25-Aug-2020 165.40 1384.98 4320.01 2045.42 71.47 10.00
   11:14:12.600.25-Aug-2020 165.60 1397.27 4320.01 2045.42 71.47 10.00
   11:14:12.800.25-Aug-2020 165.80 1409.16 4320.01 2045.42 71.47 10.00
   11:14:13.000.25-Aug-2020 166.00 1421.23 4320.01 2045.42 71.47 10.00
   11:14:13.200.25-Aug-2020 166.20 1432.33 4320.01 2045.42 71.47 10.00
   11:14:13.400.25-Aug-2020 166.40 1442.82 4320.01 2045.42 71.47 10.00
   11:14:13.600.25-Aug-2020 166.60 1453.12 4320.01 2045.42 71.47 10.00
   11:14:13.800.25-Aug-2020 166.80 1463.10 4320.01 2045.42 71.47 10.00
   11:14:14.000.25-Aug-2020 167.00 1473.46 4320.01 2045.42 71.47 10.00
   11:14:14.200.25-Aug-2020 167.20 1483.82 4320.01 2045.42 71.47 10.00
   11:14:14.400.25-Aug-2020 167.40 1493.88 4320.01 2045.42 71.47 10.00
   11:14:14.600.25-Aug-2020 167.60 1504.13 4320.01 2045.42 71.47 10.00
   11:14:14.800.25-Aug-2020 167.80 1514.13 4320.01 2045.42 71.47 10.00
   11:14:15.000.25-Aug-2020 168.00 1523.81 4320.01 2045.42 71.47 10.00
   11:14:15.200.25-Aug-2020 168.20 1533.45 4320.01 2045.42 71.47 10.00
   11:14:15.400.25-Aug-2020 168.40 1542.80 4320.01 2045.42 71.47 10.00
   11:14:15.600.25-Aug-2020 168.60 1552.14 4320.01 2045.42 71.47 10.00
   11:14:15.800.25-Aug-2020 168.80 1559.90 4320.01 2045.42 71.47 10.00
   11:14:16.000.25-Aug-2020 169.00 1566.61 4320.01 2045.42 71.47 10.00
   11:14:16.200.25-Aug-2020 169.20 1566.61 4320.01 2045.42 71.47 10.00
   11:14:16.400.25-Aug-2020 169.40 1578.53 4320.01 2045.42 71.47 10.00
   11:14:16.600.25-Aug-2020 169.60 1584.67 4320.01 2045.42 71.47 10.00
   11:14:16.800.25-Aug-2020 169.80 1590.23 4320.01 2045.42 71.47 10.00
   11:14:17.000.25-Aug-2020 170.00 1596.05 4320.01 2045.42 71.47 10.00
   11:14:17.200.25-Aug-2020 170.20 1596.05 4320.01 2045.42 71.47 10.00
   11:14:17.400.25-Aug-2020 170.40 1606.64 4320.01 2045.42 71.47 10.00
   11:14:17.600.25-Aug-2020 170.60 1611.32 4320.01 2045.42 71.47 10.00
   11:14:17.800.25-Aug-2020 170.80 1616.10 4320.01 2045.42 71.47 10.00
   11:14:18.000.25-Aug-2020 171.00 1620.77 4320.01 2045.42 71.47 10.00
   11:14:18.200.25-Aug-2020 171.20 1620.77 4320.01 2045.42 71.47 10.00
   11:14:18.400.25-Aug-2020 171.40 1630.14 4320.01 2045.42 71.47 10.00
   11:14:18.600.25-Aug-2020 171.60 1634.79 4320.01 2045.42 71.47 10.00
   11:14:18.800.25-Aug-2020 171.80 1639.23 4320.01 2045.42 71.47 10.00
   11:14:19.000.25-Aug-2020 172.00 1643.45 4320.01 2045.42 71.47 10.00
   11:14:19.200.25-Aug-2020 172.20 1647.77 4320.01 2045.42 71.47 10.00
   11:14:19.400.25-Aug-2020 172.40 1651.95 4320.01 2045.42 71.47 10.00
   11:14:19.600.25-Aug-2020 172.60 1655.71 4320.01 2045.42 71.47 10.00
   11:14:19.800.25-Aug-2020 172.80 1660.17 4320.01 2045.42 71.47 10.00
   11:14:20.000.25-Aug-2020 173.00 1664.44 4320.01 2045.42 71.47 10.00
   11:14:20.200.25-Aug-2020 173.20 1664.44 4320.01 2045.42 71.47 10.00
   11:14:20.400.25-Aug-2020 173.40 1672.78 4320.01 2045.42 71.47 10.00
   11:14:20.600.25-Aug-2020 173.60 1677.31 4320.01 2045.42 71.47 10.00
   11:14:20.800.25-Aug-2020 173.80 1681.53 4320.01 2045.42 71.47 10.00
   11:14:21.000.25-Aug-2020 174.00 1685.61 4320.01 2045.42 71.47 10.00
   11:14:21.200.25-Aug-2020 174.20 1685.61 4320.01 2045.42 71.48 10.00
   11:14:21.400.25-Aug-2020 174.40 1692.99 4320.01 2045.42 71.48 10.00
   11:14:21.600.25-Aug-2020 174.60 1696.47 4320.01 2045.42 71.48 10.00
   11:14:21.800.25-Aug-2020 174.80 1700.04 4320.01 2045.42 71.48 10.00
   11:14:22.000.25-Aug-2020 175.00 1703.70 4320.01 2045.42 71.48 10.00
   11:14:22.200.25-Aug-2020 175.20 1703.70 4320.01 2045.42 71.48 10.00
   11:14:22.400.25-Aug-2020 175.40 1710.31 4320.01 2045.42 71.48 10.00
   11:14:22.600.25-Aug-2020 175.60 1714.89 4320.01 2045.42 71.48 10.00
   11:14:22.800.25-Aug-2020 175.80 1720.54 4320.01 2045.42 71.48 10.00
   11:14:23.000.25-Aug-2020 176.00 1725.49 4320.01 2045.42 71.48 10.00
   11:14:23.200.25-Aug-2020 176.20 1730.09 4320.01 2045.42 71.48 10.00
   11:14:23.400.25-Aug-2020 176.40 1734.37 4320.01 2045.42 71.48 10.00
   11:14:23.600.25-Aug-2020 176.60 1738.21 4320.01 2045.42 71.48 10.00
   11:14:23.800.25-Aug-2020 176.80 1741.97 4320.01 2045.42 71.48 10.00
   11:14:24.000.25-Aug-2020 177.00 1745.76 4320.01 2045.42 71.48 10.00
   11:14:24.200.25-Aug-2020 177.20 1749.32 4320.01 2045.42 71.48 10.00
   11:14:24.400.25-Aug-2020 177.40 1752.72 4320.01 2045.42 71.48 10.00
   11:14:24.600.25-Aug-2020 177.60 1756.05 4320.01 2045.42 71.48 10.00
   11:14:24.800.25-Aug-2020 177.80 1759.13 4320.01 2045.42 71.48 10.00
   11:14:25.000.25-Aug-2020 178.00 1762.41 4320.01 2045.42 71.48 10.00
   11:14:25.200.25-Aug-2020 178.20 1762.41 4320.01 2045.42 71.48 10.00
   11:14:25.400.25-Aug-2020 178.40 1768.86 4320.01 2045.42 71.48 10.00
   11:14:25.600.25-Aug-2020 178.60 1771.96 4320.01 2045.42 71.48 10.00
   11:14:25.800.25-Aug-2020 178.80 1774.91 4320.01 2045.42 71.48 10.00
   11:14:26.000.25-Aug-2020 179.00 1777.67 4320.01 2045.42 71.48 10.00
   11:14:26.200.25-Aug-2020 179.20 1781.20 4320.01 2045.42 71.48 10.00
   11:14:26.400.25-Aug-2020 179.40 1785.31 4320.01 2045.42 71.48 10.00
   11:14:26.600.25-Aug-2020 179.60 1788.79 4320.01 2045.42 71.48 10.00
   11:14:26.800.25-Aug-2020 179.80 1792.00 4320.01 2045.42 71.48 10.00
   11:14:27.000.25-Aug-2020 180.00 1794.95 4320.01 2045.42 71.48 10.00
   11:14:27.200.25-Aug-2020 180.20 1794.95 4320.01 2045.42 71.48 10.00
   11:14:27.400.25-Aug-2020 180.40 1800.84 4320.01 2045.42 71.49 10.00
   11:14:27.600.25-Aug-2020 180.60 1803.77 4320.01 2045.42 71.49 10.00
