~Version Information
 VERS.                  2.0:   CWLS log ASCII Standard -VERSION 2.0
 WRAP.                   NO:   One line per depth step
~Well Information Block
#MNEM.UNIT     VALUE/NAME     DESCRIPTION
#---------     -----------    ---------------------------
 STRT.S             09:43:25 25-Aug-20: START TIME 09:43:25 25-Aug-20
 STOP.S             09:50:22 25-Aug-20: STOP TIME  09:50:22 25-Aug-20
 STEP.S                   0.00: STEP TIME
 NULL.                 -999.25: NULL VALUE
 DFWT.                        :  DIST FWL TEXT
 DFST.                        :  DIST FSL TEXT
 DMF .             Drill Floor:  DRILL MEAS FROM
 STIM.      09.59.28 01-Jun-20:  START TIME
 DATE.      05.00.00 28-Aug-20:  END TIME
 SPUD.               01-Jun-20:  SPUD DATE
 NREF.                    Grid:  NORTH REFERENCE
 HPTY.       Minimum Curvature:  HOLE POS TYPE
 DMOD.             Drill Model:  DRILL MOD DESC
 SVYD.                  Survey:  SURVEY DESC
 ILTD.               Lithology:  INTERP LTH DESC
 FTOP.          Formation Tops:  FORM TOPS DESC
 SON .        AZ-XX-0905455768:  JOB NUMBER
 WTYP.                Deviated:  WELL TYPE
 COMP.     BP Exploration(Caspian Sea):  COMPANY
 BASE.              Azerbaijan:  LOGGING EQUIPMENT BASE LOCATION
 REGN.                   EESSA:  REGION
 CTRY.              Azerbaijan:  COUNTRY NAME
 FLD .                     ACG:  FIELD NAME
 SRVC.          Turan Drilling:  CONTRACTOR
 WELL.                     B41:  WELL NAME
 RIG .           Central Azeri:  RIG NAME
 DCON.         Sperry Drilling:  DIRECTNL CONTR
 PDAT.          Mean Sea Level:  PERMANENT DATUM
 MDS .        Operator Entered:  MAG DATA SOURCE
 API .                        :  API NUMBER
 CNTY.                        :  COUNTY
 PROV.                        :  PROVINCE
 STAT.                        :  STATE
 UWI .                        :  UNIQUE WELL IDENTIFIER
 LOC .                        :  LOCATION
 LMF .             Drill Floor:  LOG MEASURED FROM
 TVDS.m                  43.29:  TVDSS CORRECTN
 LATI.deg                40.03:  LATITUDE
 LONG.deg                51.35:  LONGITUDE
 WHNS.m                  12.98:  WELL HEAD N/S
 WHEW.m                  -6.62:  WELL HEAD E/W
 UTMX.m              530128.28:  UTM X
 UTMY.m             4433192.49:  UTM Y
 DFWL.m                   0.00:  DISTANCE FWL
 DFSL.m                   0.00:  DISTANCE FSL
 SDEP.m                 378.00:  START DEPTH
 TDD .m                4463.01:  TOTAL DEPTH (DRILLER)
 VSDR.deg               296.18:  VERT SEC DIRECT
 GVFD.g                   1.00:  GRAVITY FIELD
 MFLD.nT              50269.00:  MAGNETIC FIELD
 MDIP.deg                59.50:  MAGNETIC DIP
 MDEC.deg                 6.44:  MAGNETIC DECL
 GRDC.deg                 0.20:  GRID CORRECTION
 AZTC.deg                 6.24:  AZM TOTAL CORR
 EPD .m                   0.00:  ELEVATION
 EGL .m                   0.00:  GROUND ELEVATION
 WDMS.m                 128.20:  WD ELEV
 APD .m                  43.29:  DEPTH ABOVE PD
 AGAP.m                  43.29:  AIR GAP
 VSEW.m                  -6.62:  VERT SEC E/W
 VSNS.m                  12.98:  VERT SEC N/S
 EKB .m                  43.29:  KB ELEVATION
 EDF .m                  43.29:  DF ELEVATION
 TDL .m                 147.00:  TOTAL DEPTH (LOGGER)
 VSC .                       0:  VS TO CLOSURE
 MAGU.                 1849241:  MAGUTM CHECKSUM
~Parameter Information Block
#MNEM.UNIT       Value        Description
#---------     -----------    ---------------------------
 AV  .mps                 0.70:  Ann Velocity 
 AZIF.deg               269.43:  Azm, Final 
 BHAT.        Rotary Steerable:  BHA Type 
 BROT.°/30m              -0.03:  Build Rotating 
 BS  .in                  8.50:  Bit Size 
 BSZ .in                  8.50:  Bit Size 
 BTPL.psig              880.00:  Bit Press Loss 
 CABU.                      No:  Customer Abuse 
 CGEO.          Parviz Guliyev:  Customer Geo 
 TCS .hr                 64.59:  Time Ciculation Ended 
 CV  .mps                 2.17:  Crit Velocity 
 DD1 .            Nonso Okafor:  Direct Drillr 1 
 DDSV.               Geo-Pilot:  DD Service 
 DEFF.%                  98.00:  % Det Eff 
 DLRX.°/30m               0.81:  Dogleg Rot Max 
 DLSO.°/30m               0.55:  Dogleg Oriented 
 DLSX.°/30m               0.81:  Dogleg Str Max 
 DRET.      23.50.00 24-Aug-20:  Drill End Time 
 DRST.      07.34.24 22-Aug-20:  Drill Start Tim 
 DTIM.hr                 15.29:  Time Drilling 
 EDEP.m                4461.01:  End Depth 
 ENG1.       Zam Abdullah Sani:  Engineer 1 
 ENG2.         Dair Mahammadov:  Engineer 2 
 ENG3.          Rustam Gadirov:  Engineer 3 
 ETIM.      07.34.24 26-Aug-20:  End Time 
 FLOI.gpm               550.00:  Flow In 
 FLON.gpm               400.00:  Flow In Min 
 FLOS.cptm                1.00:  Fluid Loss 
 FLOX.gpm               600.00:  Flow In Max 
 FTRO.       Formation Presure:  FTWD Run Obj 
 HFLO.                      No:  High Flow 
 HPRE.                      No:  High Pressure 
 HTEM.                      No:  High Temp 
 HYDO.m                   1.80:  Hydro Offset 
 IFIN.deg                66.72:  Inc, Final 
 IMAX.deg                67.42:  Inc Max 
 IMIN.deg                66.72:  Inc Min 
 IMND.m                4408.37:  Inc Min Depth 
 IMXD.m                4323.37:  Inc Max Depth 
 JARR.                      No:  Jarring 
 LETM.      23.50.00 24-Aug-20:  Log End Time 
 LOST.hr                     0:  Lost Rig Time 
 LSTM.      07.34.24 22-Aug-20:  Log Start Time 
 MDCL.ppm             38000.00:  Mud Chlorides 
 MDES.     Inversion Oil/Synthetic:  Mud Desc 
 DFD .sg                  1.40:  Mud Density 
 MDMN.sg                  1.38:  Dens Mud Min 
 MDMX.sg                  1.41:  Dens Mud Max 
 MOIL.                    70.5:  Run Mud Oil % 
 MOWR.                   68:32:  Run Mud OWR 
 MSND.                    0.01:  Run Mud Sand % 
 MSOL.                   17.68:  Run Mud Solids% 
 DFV .spqt               77.00:  Mud Viscosity 
 MWOD.in                  6.75:  MWD Tool OD 
 MWSI.                      No:  Serv Intrp, MWD 
 OTIM.hr                159.42:  Time Operating 
 PCON.           Look Like New:  Pad Condition 
 PMAX.psia             8730.94:  Press Op, Max 
 PV  .cP                 31.00:  Mud PV 
 RUN .                     900:  Run Number 
 ROPA.m/hr               12.00:  ROP Avg 
 ROPN.m/hr                7.00:  ROP Min 
 ROPX.m/hr               17.00:  ROP Max 
 RPMA.rpm               120.00:  RPM Surface Avg 
 RPMN.rpm                60.00:  RPM Surface Min 
 RPMX.rpm               140.00:  RPM Surface Max 
 RRUN.                    L604:  Rig Run Number 
 RTIM.hr                 10.00:  Time Reaming 
 SAZI.deg               270.56:  Azm, Start 
 SDEP.m                4314.01:  Start Depth 
 SIDD.                      No:  Serv Intrp, DD 
 SINC.deg                67.42:  Inc, Start 
 SPPA.psig             3300.00:  SPP Avg 
 SPPN.psig             1750.00:  SPP Min 
 SPPX.psig             4630.00:  SPP Max 
 STIM.      11.00.00 21-Aug-20:  Start Time 
 SVCS.                 DD, MWD:  Services 
 SVER.                    9.20:  Sperry Version 
 TDAT.m                4461.01:  Tot Depth Attmp 
 TDDF.                      No:  Trip for DD 
 TDLG.m                 147.00:  Tot Depth Loggd 
 TFF .                      No:  Trip for Fail 
 TQAA.f-kp               16.00:  Torque Abs Avg 
 TQAN.f-kp               14.00:  Torque Abs Min 
 TQAX.f-kp               20.00:  Torque Abs Max 
 TRRT.°/30m              -0.14:  Turn Rotating 
 MRT .                    HCIM:  Maximum Recorded Temperature 
 TTMX.degC               78.00:  Max Tool Temp 
 VS01.                90515425:  Virtual Str1 SN 
 VS02.                90545184:  Virtual Str2 SN 
 VS03.                90527809:  Virtual Str3 SN 
 VS04.                90515232:  Virtual Str4 SN 
 VS05.                90621207:  Virtual Str5 SN 
 VS06.                90619737:  Virtual Str6 SN 
 WBMN.klb                 2.00:  WOB Min 
 WITN.          Keith Dischler:  Customer Rep 
 WITN.           Faig Mammadov:  Customer Rep 2 
 WOBA.klb                 5.00:  WOB Avg 
 WOBX.klb                 8.00:  WOB Max 
 YP  .lhf2               32.00:  Yield Point 
~Curve Information Block
#MNEM.UNIT                 API CODE     Curve Description
#---------               -----------    ---------------------------
 TIME.HHMMSS            00 000 000 000:  GT Time & Date
 GTET.sec               00 000 000 000:  GT Elapsed Test Time
 GTPQH.psia             00 000 000 000:  GT HR Quartz Pressure
 GTDEPTH.m              00 000 000 000:  GT Depth
 GTTVD.m                00 000 000 000:  GT True Vertical Depth
 GTTQ.degC              00 000 000 000:  GT Quartz Temperature
 GTTN.NONE              00 000 000 000:  GT Test Number
#Other Information
#
#WARRANTY: Halliburton will use its best efforts to furnish customers with 
#accurate information and interpretations that are part of, and incident to, the services 
#provided.  However, Halliburton cannot and does not warrant the accuracy 
#or correctness of such information and interpretations.  Under no circumstances should any 
#such information or interpretation be relied upon as the sole basis for any drilling, 
#completion, production, or financial decision or any procedure involving any risk to the 
#safety of any drilling venture, drilling rig or its crew or any other third party.  The 
#Customer has full responsibility for all drilling, completion and production operation.  
#Halliburton makes no representations or warranties, either expressed or 
#implied, including, but not limited to, the implied warranties of merchantability or fitness 
#for a particular purpose, with respect to the services rendered.  In no event will 
#Halliburton be liable for failure to obtain any particular results or for 
#any damages, including, but not limited to, indirect, special or consequential damages, 
#resulting from the use of any information or interpretation provided by Halliburton.
#
~A           TIME            GTET   GTPQH  GTDEPTH  GTTVD  GTTQ  GTTN 
# ...
   09:47:15.000.25-Aug-2020 230.00 3351.92 4343.01 2054.32 71.78 8.00
   09:47:15.200.25-Aug-2020 230.20 3351.92 4343.01 2054.32 71.78 8.00
   09:47:15.400.25-Aug-2020 230.40 3351.86 4343.01 2054.32 71.78 8.00
   09:47:15.600.25-Aug-2020 230.60 3351.87 4343.01 2054.32 71.78 8.00
   09:47:15.800.25-Aug-2020 230.80 3351.85 4343.01 2054.32 71.78 8.00
   09:47:16.000.25-Aug-2020 231.00 3351.72 4343.01 2054.32 71.78 8.00
   09:47:16.200.25-Aug-2020 231.20 3351.72 4343.01 2054.32 71.78 8.00
   09:47:16.400.25-Aug-2020 231.40 3351.91 4343.01 2054.32 71.78 8.00
   09:47:16.600.25-Aug-2020 231.60 3351.87 4343.01 2054.32 71.78 8.00
   09:47:16.800.25-Aug-2020 231.80 3351.74 4343.01 2054.32 71.78 8.00
   09:47:17.000.25-Aug-2020 232.00 3351.94 4343.01 2054.32 71.78 8.00
   09:47:17.200.25-Aug-2020 232.20 3351.94 4343.01 2054.32 71.78 8.00
   09:47:17.400.25-Aug-2020 232.40 3351.86 4343.01 2054.32 71.78 8.00
   09:47:17.600.25-Aug-2020 232.60 3351.87 4343.01 2054.32 71.78 8.00
   09:47:17.800.25-Aug-2020 232.80 3351.87 4343.01 2054.32 71.78 8.00
   09:47:18.000.25-Aug-2020 233.00 3351.72 4343.01 2054.32 71.78 8.00
   09:47:18.200.25-Aug-2020 233.20 3351.72 4343.01 2054.32 71.78 8.00
   09:47:18.400.25-Aug-2020 233.40 3351.91 4343.01 2054.32 71.78 8.00
   09:47:18.600.25-Aug-2020 233.60 3351.88 4343.01 2054.32 71.78 8.00
   09:47:18.800.25-Aug-2020 233.80 3351.86 4343.01 2054.32 71.78 8.00
   09:47:19.000.25-Aug-2020 234.00 3351.73 4343.01 2054.32 71.78 8.00
   09:47:19.200.25-Aug-2020 234.20 3351.73 4343.01 2054.32 71.78 8.00
   09:47:19.400.25-Aug-2020 234.40 3351.89 4343.01 2054.32 71.78 8.00
   09:47:19.600.25-Aug-2020 234.60 3351.88 4343.01 2054.32 71.78 8.00
   09:47:19.800.25-Aug-2020 234.80 3351.86 4343.01 2054.32 71.78 8.00
   09:47:20.000.25-Aug-2020 235.00 3351.88 4343.01 2054.32 71.78 8.00
   09:47:20.200.25-Aug-2020 235.20 3351.88 4343.01 2054.32 71.78 8.00
   09:47:20.400.25-Aug-2020 235.40 3351.86 4343.01 2054.32 71.78 8.00
   09:47:20.600.25-Aug-2020 235.60 3351.86 4343.01 2054.32 71.78 8.00
   09:47:20.800.25-Aug-2020 235.80 3351.87 4343.01 2054.32 71.78 8.00
   09:47:21.000.25-Aug-2020 236.00 3351.86 4343.01 2054.32 71.78 8.00
   09:47:21.200.25-Aug-2020 236.20 3351.86 4343.01 2054.32 71.78 8.00
   09:47:21.400.25-Aug-2020 236.40 3351.86 4343.01 2054.32 71.78 8.00
   09:47:21.600.25-Aug-2020 236.60 3351.87 4343.01 2054.32 71.78 8.00
   09:47:21.800.25-Aug-2020 236.80 3351.86 4343.01 2054.32 71.78 8.00
   09:47:22.000.25-Aug-2020 237.00 3351.87 4343.01 2054.32 71.78 8.00
   09:47:22.200.25-Aug-2020 237.20 3351.87 4343.01 2054.32 71.78 8.00
   09:47:22.400.25-Aug-2020 237.40 3351.87 4343.01 2054.32 71.78 8.00
   09:47:22.600.25-Aug-2020 237.60 3351.84 4343.01 2054.32 71.78 8.00
   09:47:22.800.25-Aug-2020 237.80 3351.82 4343.01 2054.32 71.78 8.00
   09:47:23.000.25-Aug-2020 238.00 3351.88 4343.01 2054.32 71.78 8.00
   09:47:23.200.25-Aug-2020 238.20 3351.88 4343.01 2054.32 71.78 8.00
   09:47:23.400.25-Aug-2020 238.40 3351.88 4343.01 2054.32 71.78 8.00
   09:47:23.600.25-Aug-2020 238.60 3351.87 4343.01 2054.32 71.78 8.00
   09:47:23.800.25-Aug-2020 238.80 3351.86 4343.01 2054.32 71.78 8.00
   09:47:24.000.25-Aug-2020 239.00 3351.85 4343.01 2054.32 71.78 8.00
   09:47:24.200.25-Aug-2020 239.20 3351.85 4343.01 2054.32 71.78 8.00
   09:47:24.400.25-Aug-2020 239.40 3351.87 4343.01 2054.32 71.78 8.00
   09:47:24.600.25-Aug-2020 239.60 3351.87 4343.01 2054.32 71.78 8.00
   09:47:24.800.25-Aug-2020 239.80 3351.85 4343.01 2054.32 71.78 8.00
   09:47:25.000.25-Aug-2020 240.00 3351.87 4343.01 2054.32 71.78 8.00
   09:47:25.200.25-Aug-2020 240.20 3351.87 4343.01 2054.32 71.78 8.00
   09:47:25.400.25-Aug-2020 240.40 3351.87 4343.01 2054.32 71.78 8.00
   09:47:25.600.25-Aug-2020 240.60 3351.86 4343.01 2054.32 71.78 8.00
   09:47:25.800.25-Aug-2020 240.80 3351.86 4343.01 2054.32 71.78 8.00
   09:47:26.000.25-Aug-2020 241.00 3351.74 4343.01 2054.32 71.78 8.00
   09:47:26.200.25-Aug-2020 241.20 3351.74 4343.01 2054.32 71.78 8.00
   09:47:26.400.25-Aug-2020 241.40 3351.88 4343.01 2054.32 71.78 8.00
   09:47:26.600.25-Aug-2020 241.60 3351.86 4343.01 2054.32 71.78 8.00
   09:47:26.800.25-Aug-2020 241.80 3351.87 4343.01 2054.32 71.78 8.00
   09:47:27.000.25-Aug-2020 242.00 3351.86 4343.01 2054.32 71.78 8.00
   09:47:27.200.25-Aug-2020 242.20 3351.86 4343.01 2054.32 71.78 8.00
   09:47:27.400.25-Aug-2020 242.40 3351.92 4343.01 2054.32 71.78 8.00
   09:47:27.600.25-Aug-2020 242.60 3351.91 4343.01 2054.32 71.78 8.00
   09:47:27.800.25-Aug-2020 242.80 3351.88 4343.01 2054.32 71.78 8.00
   09:47:28.000.25-Aug-2020 243.00 3351.74 4343.01 2054.32 71.78 8.00
   09:47:28.200.25-Aug-2020 243.20 3351.74 4343.01 2054.32 71.78 8.00
   09:47:28.400.25-Aug-2020 243.40 3351.88 4343.01 2054.32 71.78 8.00
   09:47:28.600.25-Aug-2020 243.60 3351.85 4343.01 2054.32 71.78 8.00
   09:47:28.800.25-Aug-2020 243.80 3351.87 4343.01 2054.32 71.78 8.00
   09:47:29.000.25-Aug-2020 244.00 3351.88 4343.01 2054.32 71.78 8.00
   09:47:29.200.25-Aug-2020 244.20 3351.88 4343.01 2054.32 71.78 8.00
   09:47:29.400.25-Aug-2020 244.40 3351.91 4343.01 2054.32 71.78 8.00
   09:47:29.600.25-Aug-2020 244.60 3351.91 4343.01 2054.32 71.78 8.00
   09:47:29.800.25-Aug-2020 244.80 3351.88 4343.01 2054.32 71.78 8.00
   09:47:30.000.25-Aug-2020 245.00 3351.86 4343.01 2054.32 71.78 8.00
   09:47:30.200.25-Aug-2020 245.20 3351.86 4343.01 2054.32 71.78 8.00
   09:47:30.400.25-Aug-2020 245.40 3351.93 4343.01 2054.32 71.78 8.00
   09:47:30.600.25-Aug-2020 245.60 3351.89 4343.01 2054.32 71.78 8.00
   09:47:30.800.25-Aug-2020 245.80 3351.87 4343.01 2054.32 71.78 8.00
   09:47:31.000.25-Aug-2020 246.00 3351.87 4343.01 2054.32 71.78 8.00
   09:47:31.200.25-Aug-2020 246.20 3351.87 4343.01 2054.32 71.78 8.00
   09:47:31.400.25-Aug-2020 246.40 3351.86 4343.01 2054.32 71.78 8.00
   09:47:31.600.25-Aug-2020 246.60 3351.85 4343.01 2054.32 71.78 8.00
   09:47:31.800.25-Aug-2020 246.80 3351.85 4343.01 2054.32 71.78 8.00
   09:47:32.000.25-Aug-2020 247.00 3351.86 4343.01 2054.32 71.78 8.00
   09:47:32.200.25-Aug-2020 247.20 3351.86 4343.01 2054.32 71.78 8.00
   09:47:32.400.25-Aug-2020 247.40 3351.86 4343.01 2054.32 71.78 8.00
   09:47:32.600.25-Aug-2020 247.60 3351.86 4343.01 2054.32 71.78 8.00
   09:47:32.800.25-Aug-2020 247.80 3351.85 4343.01 2054.32 71.78 8.00
   09:47:33.000.25-Aug-2020 248.00 3351.86 4343.01 2054.32 71.78 8.00
   09:47:33.200.25-Aug-2020 248.20 3351.86 4343.01 2054.32 71.78 8.00
   09:47:33.400.25-Aug-2020 248.40 3351.86 4343.01 2054.32 71.78 8.00
   09:47:33.600.25-Aug-2020 248.60 3351.86 4343.01 2054.32 71.78 8.00
   09:47:33.800.25-Aug-2020 248.80 3351.82 4343.01 2054.32 71.78 8.00
   09:47:34.000.25-Aug-2020 249.00 3351.83 4343.01 2054.32 71.78 8.00
   09:47:34.200.25-Aug-2020 249.20 3351.83 4343.01 2054.32 71.78 8.00
   09:47:34.400.25-Aug-2020 249.40 3351.86 4343.01 2054.32 71.78 8.00
   09:47:34.600.25-Aug-2020 249.60 3351.89 4343.01 2054.32 71.78 8.00
   09:47:34.800.25-Aug-2020 249.80 3351.85 4343.01 2054.32 71.78 8.00
   09:47:35.000.25-Aug-2020 250.00 3351.86 4343.01 2054.32 71.78 8.00
   09:47:35.200.25-Aug-2020 250.20 3351.86 4343.01 2054.32 71.78 8.00
   09:47:35.400.25-Aug-2020 250.40 3351.87 4343.01 2054.32 71.78 8.00
   09:47:35.600.25-Aug-2020 250.60 3351.86 4343.01 2054.32 71.78 8.00
   09:47:35.800.25-Aug-2020 250.80 3351.85 4343.01 2054.32 71.78 8.00
   09:47:36.000.25-Aug-2020 251.00 3351.86 4343.01 2054.32 71.78 8.00
   09:47:36.200.25-Aug-2020 251.20 3351.86 4343.01 2054.32 71.78 8.00
   09:47:36.400.25-Aug-2020 251.40 3351.87 4343.01 2054.32 71.78 8.00
   09:47:36.600.25-Aug-2020 251.60 3351.87 4343.01 2054.32 71.78 8.00
   09:47:36.800.25-Aug-2020 251.80 3351.87 4343.01 2054.32 71.78 8.00
   09:47:37.000.25-Aug-2020 252.00 3351.86 4343.01 2054.32 71.78 8.00
   09:47:37.200.25-Aug-2020 252.20 3351.86 4343.01 2054.32 71.78 8.00
   09:47:37.400.25-Aug-2020 252.40 3351.92 4343.01 2054.32 71.78 8.00
   09:47:37.600.25-Aug-2020 252.60 3351.88 4343.01 2054.32 71.78 8.00
   09:47:37.800.25-Aug-2020 252.80 3351.86 4343.01 2054.32 71.78 8.00
