~Version Information
 VERS.                  2.0:   CWLS log ASCII Standard -VERSION 2.0
 WRAP.                   NO:   One line per depth step
~Well Information Block
#MNEM.UNIT     VALUE/NAME     DESCRIPTION
#---------     -----------    ---------------------------
 STRT.S             05:42:16 25-Aug-20: START TIME 05:42:16 25-Aug-20
 STOP.S             05:49:10 25-Aug-20: STOP TIME  05:49:10 25-Aug-20
 STEP.S                   0.00: STEP TIME
 NULL.                 -999.25: NULL VALUE
 DFWT.                        :  DIST FWL TEXT
 DFST.                        :  DIST FSL TEXT
 DMF .             Drill Floor:  DRILL MEAS FROM
 STIM.      09.59.28 01-Jun-20:  START TIME
 DATE.      05.00.00 28-Aug-20:  END TIME
 SPUD.               01-Jun-20:  SPUD DATE
 NREF.                    Grid:  NORTH REFERENCE
 HPTY.       Minimum Curvature:  HOLE POS TYPE
 DMOD.             Drill Model:  DRILL MOD DESC
 SVYD.                  Survey:  SURVEY DESC
 ILTD.               Lithology:  INTERP LTH DESC
 FTOP.          Formation Tops:  FORM TOPS DESC
 SON .        AZ-XX-0905455768:  JOB NUMBER
 WTYP.                Deviated:  WELL TYPE
 COMP.     BP Exploration(Caspian Sea):  COMPANY
 BASE.              Azerbaijan:  LOGGING EQUIPMENT BASE LOCATION
 REGN.                   EESSA:  REGION
 CTRY.              Azerbaijan:  COUNTRY NAME
 FLD .                     ACG:  FIELD NAME
 SRVC.          Turan Drilling:  CONTRACTOR
 WELL.                     B41:  WELL NAME
 RIG .           Central Azeri:  RIG NAME
 DCON.         Sperry Drilling:  DIRECTNL CONTR
 PDAT.          Mean Sea Level:  PERMANENT DATUM
 MDS .        Operator Entered:  MAG DATA SOURCE
 API .                        :  API NUMBER
 CNTY.                        :  COUNTY
 PROV.                        :  PROVINCE
 STAT.                        :  STATE
 UWI .                        :  UNIQUE WELL IDENTIFIER
 LOC .                        :  LOCATION
 LMF .             Drill Floor:  LOG MEASURED FROM
 TVDS.m                  43.29:  TVDSS CORRECTN
 LATI.deg                40.03:  LATITUDE
 LONG.deg                51.35:  LONGITUDE
 WHNS.m                  12.98:  WELL HEAD N/S
 WHEW.m                  -6.62:  WELL HEAD E/W
 UTMX.m              530128.28:  UTM X
 UTMY.m             4433192.49:  UTM Y
 DFWL.m                   0.00:  DISTANCE FWL
 DFSL.m                   0.00:  DISTANCE FSL
 SDEP.m                 378.00:  START DEPTH
 TDD .m                4463.01:  TOTAL DEPTH (DRILLER)
 VSDR.deg               296.18:  VERT SEC DIRECT
 GVFD.g                   1.00:  GRAVITY FIELD
 MFLD.nT              50269.00:  MAGNETIC FIELD
 MDIP.deg                59.50:  MAGNETIC DIP
 MDEC.deg                 6.44:  MAGNETIC DECL
 GRDC.deg                 0.20:  GRID CORRECTION
 AZTC.deg                 6.24:  AZM TOTAL CORR
 EPD .m                   0.00:  ELEVATION
 EGL .m                   0.00:  GROUND ELEVATION
 WDMS.m                 128.20:  WD ELEV
 APD .m                  43.29:  DEPTH ABOVE PD
 AGAP.m                  43.29:  AIR GAP
 VSEW.m                  -6.62:  VERT SEC E/W
 VSNS.m                  12.98:  VERT SEC N/S
 EKB .m                  43.29:  KB ELEVATION
 EDF .m                  43.29:  DF ELEVATION
 TDL .m                 147.00:  TOTAL DEPTH (LOGGER)
 VSC .                       0:  VS TO CLOSURE
 MAGU.                 1849241:  MAGUTM CHECKSUM
~Parameter Information Block
#MNEM.UNIT       Value        Description
#---------     -----------    ---------------------------
 AV  .mps                 0.70:  Ann Velocity 
 AZIF.deg               269.43:  Azm, Final 
 BHAT.        Rotary Steerable:  BHA Type 
 BROT.°/30m              -0.03:  Build Rotating 
 BS  .in                  8.50:  Bit Size 
 BSZ .in                  8.50:  Bit Size 
 BTPL.psig              880.00:  Bit Press Loss 
 CABU.                      No:  Customer Abuse 
 CGEO.          Parviz Guliyev:  Customer Geo 
 TCS .hr                 64.59:  Time Ciculation Ended 
 CV  .mps                 2.17:  Crit Velocity 
 DD1 .            Nonso Okafor:  Direct Drillr 1 
 DDSV.               Geo-Pilot:  DD Service 
 DEFF.%                  98.00:  % Det Eff 
 DLRX.°/30m               0.81:  Dogleg Rot Max 
 DLSO.°/30m               0.55:  Dogleg Oriented 
 DLSX.°/30m               0.81:  Dogleg Str Max 
 DRET.      23.50.00 24-Aug-20:  Drill End Time 
 DRST.      07.34.24 22-Aug-20:  Drill Start Tim 
 DTIM.hr                 15.29:  Time Drilling 
 EDEP.m                4461.01:  End Depth 
 ENG1.       Zam Abdullah Sani:  Engineer 1 
 ENG2.         Dair Mahammadov:  Engineer 2 
 ENG3.          Rustam Gadirov:  Engineer 3 
 ETIM.      07.34.24 26-Aug-20:  End Time 
 FLOI.gpm               550.00:  Flow In 
 FLON.gpm               400.00:  Flow In Min 
 FLOS.cptm                1.00:  Fluid Loss 
 FLOX.gpm               600.00:  Flow In Max 
 FTRO.       Formation Presure:  FTWD Run Obj 
 HFLO.                      No:  High Flow 
 HPRE.                      No:  High Pressure 
 HTEM.                      No:  High Temp 
 HYDO.m                   1.80:  Hydro Offset 
 IFIN.deg                66.72:  Inc, Final 
 IMAX.deg                67.42:  Inc Max 
 IMIN.deg                66.72:  Inc Min 
 IMND.m                4408.37:  Inc Min Depth 
 IMXD.m                4323.37:  Inc Max Depth 
 JARR.                      No:  Jarring 
 LETM.      23.50.00 24-Aug-20:  Log End Time 
 LOST.hr                     0:  Lost Rig Time 
 LSTM.      07.34.24 22-Aug-20:  Log Start Time 
 MDCL.ppm             38000.00:  Mud Chlorides 
 MDES.     Inversion Oil/Synthetic:  Mud Desc 
 DFD .sg                  1.40:  Mud Density 
 MDMN.sg                  1.38:  Dens Mud Min 
 MDMX.sg                  1.41:  Dens Mud Max 
 MOIL.                    70.5:  Run Mud Oil % 
 MOWR.                   68:32:  Run Mud OWR 
 MSND.                    0.01:  Run Mud Sand % 
 MSOL.                   17.68:  Run Mud Solids% 
 DFV .spqt               77.00:  Mud Viscosity 
 MWOD.in                  6.75:  MWD Tool OD 
 MWSI.                      No:  Serv Intrp, MWD 
 OTIM.hr                159.42:  Time Operating 
 PCON.           Look Like New:  Pad Condition 
 PMAX.psia             8730.94:  Press Op, Max 
 PV  .cP                 31.00:  Mud PV 
 RUN .                     900:  Run Number 
 ROPA.m/hr               12.00:  ROP Avg 
 ROPN.m/hr                7.00:  ROP Min 
 ROPX.m/hr               17.00:  ROP Max 
 RPMA.rpm               120.00:  RPM Surface Avg 
 RPMN.rpm                60.00:  RPM Surface Min 
 RPMX.rpm               140.00:  RPM Surface Max 
 RRUN.                    L604:  Rig Run Number 
 RTIM.hr                 10.00:  Time Reaming 
 SAZI.deg               270.56:  Azm, Start 
 SDEP.m                4314.01:  Start Depth 
 SIDD.                      No:  Serv Intrp, DD 
 SINC.deg                67.42:  Inc, Start 
 SPPA.psig             3300.00:  SPP Avg 
 SPPN.psig             1750.00:  SPP Min 
 SPPX.psig             4630.00:  SPP Max 
 STIM.      11.00.00 21-Aug-20:  Start Time 
 SVCS.                 DD, MWD:  Services 
 SVER.                    9.20:  Sperry Version 
 TDAT.m                4461.01:  Tot Depth Attmp 
 TDDF.                      No:  Trip for DD 
 TDLG.m                 147.00:  Tot Depth Loggd 
 TFF .                      No:  Trip for Fail 
 TQAA.f-kp               16.00:  Torque Abs Avg 
 TQAN.f-kp               14.00:  Torque Abs Min 
 TQAX.f-kp               20.00:  Torque Abs Max 
 TRRT.°/30m              -0.14:  Turn Rotating 
 MRT .                    HCIM:  Maximum Recorded Temperature 
 TTMX.degC               78.00:  Max Tool Temp 
 VS01.                90515425:  Virtual Str1 SN 
 VS02.                90545184:  Virtual Str2 SN 
 VS03.                90527809:  Virtual Str3 SN 
 VS04.                90515232:  Virtual Str4 SN 
 VS05.                90621207:  Virtual Str5 SN 
 VS06.                90619737:  Virtual Str6 SN 
 WBMN.klb                 2.00:  WOB Min 
 WITN.          Keith Dischler:  Customer Rep 
 WITN.           Faig Mammadov:  Customer Rep 2 
 WOBA.klb                 5.00:  WOB Avg 
 WOBX.klb                 8.00:  WOB Max 
 YP  .lhf2               32.00:  Yield Point 
~Curve Information Block
#MNEM.UNIT                 API CODE     Curve Description
#---------               -----------    ---------------------------
 TIME.HHMMSS            00 000 000 000:  GT Time & Date
 GTET.sec               00 000 000 000:  GT Elapsed Test Time
 GTPQH.psia             00 000 000 000:  GT HR Quartz Pressure
 GTDEPTH.m              00 000 000 000:  GT Depth
 GTTVD.m                00 000 000 000:  GT True Vertical Depth
 GTTQ.degC              00 000 000 000:  GT Quartz Temperature
 GTTN.NONE              00 000 000 000:  GT Test Number
#Other Information
#
#WARRANTY: Halliburton will use its best efforts to furnish customers with 
#accurate information and interpretations that are part of, and incident to, the services 
#provided.  However, Halliburton cannot and does not warrant the accuracy 
#or correctness of such information and interpretations.  Under no circumstances should any 
#such information or interpretation be relied upon as the sole basis for any drilling, 
#completion, production, or financial decision or any procedure involving any risk to the 
#safety of any drilling venture, drilling rig or its crew or any other third party.  The 
#Customer has full responsibility for all drilling, completion and production operation.  
#Halliburton makes no representations or warranties, either expressed or 
#implied, including, but not limited to, the implied warranties of merchantability or fitness 
#for a particular purpose, with respect to the services rendered.  In no event will 
#Halliburton be liable for failure to obtain any particular results or for 
#any damages, including, but not limited to, indirect, special or consequential damages, 
#resulting from the use of any information or interpretation provided by Halliburton.
#
~A           TIME            GTET   GTPQH  GTDEPTH  GTTVD  GTTQ  GTTN 
# ...
   05:42:39.000.25-Aug-2020  23.00 4818.89 4418.01 2083.88 73.78 1.00
   05:42:39.200.25-Aug-2020  23.20 4818.89 4418.01 2083.88 73.78 1.00
   05:42:39.400.25-Aug-2020  23.40 4819.68 4418.01 2083.88 73.78 1.00
   05:42:39.600.25-Aug-2020  23.60 4818.22 4418.01 2083.88 73.78 1.00
   05:42:39.800.25-Aug-2020  23.80 4816.64 4418.01 2083.88 73.78 1.00
   05:42:40.000.25-Aug-2020  24.00 4817.23 4418.01 2083.88 73.78 1.00
   05:42:40.200.25-Aug-2020  24.20 4817.23 4418.01 2083.88 73.78 1.00
   05:42:40.400.25-Aug-2020  24.40 4817.83 4418.01 2083.88 73.78 1.00
   05:42:40.600.25-Aug-2020  24.60 4817.34 4418.01 2083.88 73.78 1.00
   05:42:40.800.25-Aug-2020  24.80 4817.51 4418.01 2083.88 73.78 1.00
   05:42:41.000.25-Aug-2020  25.00 4818.08 4418.01 2083.88 73.78 1.00
   05:42:41.200.25-Aug-2020  25.20 4816.27 4418.01 2083.88 73.78 1.00
   05:42:41.400.25-Aug-2020  25.40 4817.41 4418.01 2083.88 73.78 1.00
   05:42:41.600.25-Aug-2020  25.60 4817.83 4418.01 2083.88 73.78 1.00
   05:42:41.800.25-Aug-2020  25.80 4817.87 4418.01 2083.88 73.78 1.00
   05:42:42.000.25-Aug-2020  26.00 4817.35 4418.01 2083.88 73.78 1.00
   05:42:42.200.25-Aug-2020  26.20 4817.42 4418.01 2083.88 73.78 1.00
   05:42:42.400.25-Aug-2020  26.40 4815.60 4418.01 2083.88 73.78 1.00
   05:42:42.600.25-Aug-2020  26.60 4823.87 4418.01 2083.88 73.78 1.00
   05:42:42.800.25-Aug-2020  26.80 4825.96 4418.01 2083.88 73.78 1.00
   05:42:43.000.25-Aug-2020  27.00 4820.64 4418.01 2083.88 73.78 1.00
   05:42:43.200.25-Aug-2020  27.20 4820.64 4418.01 2083.88 73.78 1.00
   05:42:43.400.25-Aug-2020  27.40 4817.14 4418.01 2083.88 73.78 1.00
   05:42:43.600.25-Aug-2020  27.60 4817.64 4418.01 2083.88 73.78 1.00
   05:42:43.800.25-Aug-2020  27.80 4817.09 4418.01 2083.88 73.78 1.00
   05:42:44.000.25-Aug-2020  28.00 4819.31 4418.01 2083.88 73.78 1.00
   05:42:44.200.25-Aug-2020  28.20 4819.80 4418.01 2083.88 73.78 1.00
   05:42:44.400.25-Aug-2020  28.40 4819.56 4418.01 2083.88 73.78 1.00
   05:42:44.600.25-Aug-2020  28.60 4818.76 4418.01 2083.88 73.78 1.00
   05:42:44.800.25-Aug-2020  28.80 4817.73 4418.01 2083.88 73.78 1.00
   05:42:45.000.25-Aug-2020  29.00 4817.44 4418.01 2083.88 73.78 1.00
   05:42:45.200.25-Aug-2020  29.20 4817.44 4418.01 2083.88 73.78 1.00
   05:42:45.400.25-Aug-2020  29.40 4819.17 4418.01 2083.88 73.78 1.00
   05:42:45.600.25-Aug-2020  29.60 4891.32 4418.01 2083.88 73.78 1.00
   05:42:45.800.25-Aug-2020  29.80 5148.79 4418.01 2083.88 73.78 1.00
   05:42:46.000.25-Aug-2020  30.00 5226.61 4418.01 2083.88 73.78 1.00
   05:42:46.200.25-Aug-2020  30.20 5226.61 4418.01 2083.88 73.78 1.00
   05:42:46.400.25-Aug-2020  30.40 5207.62 4418.01 2083.88 73.78 1.00
   05:42:46.600.25-Aug-2020  30.60 5211.50 4418.01 2083.88 73.78 1.00
   05:42:46.800.25-Aug-2020  30.80 5214.84 4418.01 2083.88 73.78 1.00
   05:42:47.000.25-Aug-2020  31.00 5221.66 4418.01 2083.88 73.78 1.00
   05:42:47.200.25-Aug-2020  31.20 5221.66 4418.01 2083.88 73.78 1.00
   05:42:47.400.25-Aug-2020  31.40 5235.92 4418.01 2083.88 73.78 1.00
   05:42:47.600.25-Aug-2020  31.60 5239.11 4418.01 2083.88 73.78 1.00
   05:42:47.800.25-Aug-2020  31.80 5242.60 4418.01 2083.88 73.78 1.00
   05:42:48.000.25-Aug-2020  32.00 5247.64 4418.01 2083.88 73.78 1.00
   05:42:48.200.25-Aug-2020  32.20 5258.44 4418.01 2083.88 73.78 1.00
   05:42:48.400.25-Aug-2020  32.40 5281.10 4418.01 2083.88 73.78 1.00
   05:42:48.600.25-Aug-2020  32.60 5306.05 4418.01 2083.88 73.78 1.00
   05:42:48.800.25-Aug-2020  32.80 5327.46 4418.01 2083.88 73.78 1.00
   05:42:49.000.25-Aug-2020  33.00 5344.93 4418.01 2083.88 73.78 1.00
   05:42:49.200.25-Aug-2020  33.20 5359.17 4418.01 2083.88 73.78 1.00
   05:42:49.400.25-Aug-2020  33.40 5371.48 4418.01 2083.88 73.78 1.00
   05:42:49.600.25-Aug-2020  33.60 5380.70 4418.01 2083.88 73.78 1.00
   05:42:49.800.25-Aug-2020  33.80 5386.56 4418.01 2083.88 73.78 1.00
   05:42:50.000.25-Aug-2020  34.00 5382.50 4418.01 2083.88 73.78 1.00
   05:42:50.200.25-Aug-2020  34.20 5369.00 4418.01 2083.88 73.78 1.00
   05:42:50.400.25-Aug-2020  34.40 5350.42 4418.01 2083.88 73.78 1.00
   05:42:50.600.25-Aug-2020  34.60 5326.80 4418.01 2083.88 73.78 1.00
   05:42:50.800.25-Aug-2020  34.80 5305.94 4418.01 2083.88 73.78 1.00
   05:42:51.000.25-Aug-2020  35.00 5283.25 4418.01 2083.88 73.78 1.00
   05:42:51.200.25-Aug-2020  35.20 5283.25 4418.01 2083.88 73.78 1.00
   05:42:51.400.25-Aug-2020  35.40 5211.29 4418.01 2083.88 73.78 1.00
   05:42:51.600.25-Aug-2020  35.60 5170.54 4418.01 2083.88 73.78 1.00
   05:42:51.800.25-Aug-2020  35.80 5128.15 4418.01 2083.88 73.78 1.00
   05:42:52.000.25-Aug-2020  36.00 5090.10 4418.01 2083.88 73.78 1.00
   05:42:52.200.25-Aug-2020  36.20 5090.10 4418.01 2083.88 73.78 1.00
   05:42:52.400.25-Aug-2020  36.40 5025.93 4418.01 2083.88 73.78 1.00
   05:42:52.600.25-Aug-2020  36.60 4997.74 4418.01 2083.88 73.78 1.00
   05:42:52.800.25-Aug-2020  36.80 4970.96 4418.01 2083.88 73.78 1.00
   05:42:53.000.25-Aug-2020  37.00 4944.23 4418.01 2083.88 73.78 1.00
   05:42:53.200.25-Aug-2020  37.20 4944.23 4418.01 2083.88 73.78 1.00
   05:42:53.400.25-Aug-2020  37.40 4896.93 4418.01 2083.88 73.78 1.00
   05:42:53.600.25-Aug-2020  37.60 4665.71 4418.01 2083.88 73.78 1.00
   05:42:53.800.25-Aug-2020  37.80 4187.85 4418.01 2083.88 73.78 1.00
   05:42:54.000.25-Aug-2020  38.00 3589.33 4418.01 2083.88 73.78 1.00
   05:42:54.200.25-Aug-2020  38.20 3589.33 4418.01 2083.88 73.78 1.00
   05:42:54.400.25-Aug-2020  38.40 3455.53 4418.01 2083.88 73.78 1.00
   05:42:54.600.25-Aug-2020  38.60 3444.07 4418.01 2083.88 73.78 1.00
   05:42:54.800.25-Aug-2020  38.80 3425.09 4418.01 2083.88 73.78 1.00
   05:42:55.000.25-Aug-2020  39.00 3413.14 4418.01 2083.88 73.78 1.00
   05:42:55.200.25-Aug-2020  39.20 3413.14 4418.01 2083.88 73.78 1.00
   05:42:55.400.25-Aug-2020  39.40 3449.44 4418.01 2083.88 73.77 1.00
   05:42:55.600.25-Aug-2020  39.60 3449.66 4418.01 2083.88 73.77 1.00
   05:42:55.800.25-Aug-2020  39.80 3449.86 4418.01 2083.88 73.77 1.00
   05:42:56.000.25-Aug-2020  40.00 3449.38 4418.01 2083.88 73.77 1.00
   05:42:56.200.25-Aug-2020  40.20 3433.96 4418.01 2083.88 73.77 1.00
   05:42:56.400.25-Aug-2020  40.40 3395.99 4418.01 2083.88 73.77 1.00
   05:42:56.600.25-Aug-2020  40.60 3378.82 4418.01 2083.88 73.77 1.00
   05:42:56.800.25-Aug-2020  40.80 3367.18 4418.01 2083.88 73.76 1.00
   05:42:57.000.25-Aug-2020  41.00 3357.71 4418.01 2083.88 73.76 1.00
   05:42:57.200.25-Aug-2020  41.20 3349.34 4418.01 2083.88 73.76 1.00
   05:42:57.400.25-Aug-2020  41.40 3343.85 4418.01 2083.88 73.76 1.00
   05:42:57.600.25-Aug-2020  41.60 3335.92 4418.01 2083.88 73.76 1.00
   05:42:57.800.25-Aug-2020  41.80 3330.94 4418.01 2083.88 73.76 1.00
   05:42:58.000.25-Aug-2020  42.00 3327.10 4418.01 2083.88 73.75 1.00
   05:42:58.200.25-Aug-2020  42.20 3327.10 4418.01 2083.88 73.75 1.00
   05:42:58.400.25-Aug-2020  42.40 3316.38 4418.01 2083.88 73.75 1.00
   05:42:58.600.25-Aug-2020  42.60 3317.90 4418.01 2083.88 73.75 1.00
   05:42:58.800.25-Aug-2020  42.80 3313.83 4418.01 2083.88 73.75 1.00
   05:42:59.000.25-Aug-2020  43.00 3307.41 4418.01 2083.88 73.75 1.00
   05:42:59.200.25-Aug-2020  43.20 3307.41 4418.01 2083.88 73.75 1.00
   05:42:59.400.25-Aug-2020  43.40 3286.23 4418.01 2083.88 73.74 1.00
   05:42:59.600.25-Aug-2020  43.60 3284.11 4418.01 2083.88 73.74 1.00
   05:42:59.800.25-Aug-2020  43.80 3283.89 4418.01 2083.88 73.74 1.00
   05:43:00.000.25-Aug-2020  44.00 3281.24 4418.01 2083.88 73.74 1.00
   05:43:00.200.25-Aug-2020  44.20 3281.24 4418.01 2083.88 73.74 1.00
   05:43:00.400.25-Aug-2020  44.40 3270.16 4418.01 2083.88 73.74 1.00
   05:43:00.600.25-Aug-2020  44.60 3258.37 4418.01 2083.88 73.74 1.00
   05:43:00.800.25-Aug-2020  44.80 3254.02 4418.01 2083.88 73.74 1.00
   05:43:01.000.25-Aug-2020  45.00 3250.26 4418.01 2083.88 73.73 1.00
   05:43:01.200.25-Aug-2020  45.20 3243.84 4418.01 2083.88 73.73 1.00
   05:43:01.400.25-Aug-2020  45.40 3237.97 4418.01 2083.88 73.73 1.00
   05:43:01.600.25-Aug-2020  45.60 3230.85 4418.01 2083.88 73.73 1.00
   05:43:01.800.25-Aug-2020  45.80 3220.02 4418.01 2083.88 73.73 1.00
