~Version Information
 VERS.                  2.0:   CWLS log ASCII Standard -VERSION 2.0
 WRAP.                   NO:   One line per depth step
~Well Information Block
#MNEM.UNIT     VALUE/NAME     DESCRIPTION
#---------     -----------    ---------------------------
 STRT.S             08:04:20 25-Aug-20: START TIME 08:04:20 25-Aug-20
 STOP.S             08:11:17 25-Aug-20: STOP TIME  08:11:17 25-Aug-20
 STEP.S                   0.00: STEP TIME
 NULL.                 -999.25: NULL VALUE
 DFWT.                        :  DIST FWL TEXT
 DFST.                        :  DIST FSL TEXT
 DMF .             Drill Floor:  DRILL MEAS FROM
 STIM.      09.59.28 01-Jun-20:  START TIME
 DATE.      05.00.00 28-Aug-20:  END TIME
 SPUD.               01-Jun-20:  SPUD DATE
 NREF.                    Grid:  NORTH REFERENCE
 HPTY.       Minimum Curvature:  HOLE POS TYPE
 DMOD.             Drill Model:  DRILL MOD DESC
 SVYD.                  Survey:  SURVEY DESC
 ILTD.               Lithology:  INTERP LTH DESC
 FTOP.          Formation Tops:  FORM TOPS DESC
 SON .        AZ-XX-0905455768:  JOB NUMBER
 WTYP.                Deviated:  WELL TYPE
 COMP.     BP Exploration(Caspian Sea):  COMPANY
 BASE.              Azerbaijan:  LOGGING EQUIPMENT BASE LOCATION
 REGN.                   EESSA:  REGION
 CTRY.              Azerbaijan:  COUNTRY NAME
 FLD .                     ACG:  FIELD NAME
 SRVC.          Turan Drilling:  CONTRACTOR
 WELL.                     B41:  WELL NAME
 RIG .           Central Azeri:  RIG NAME
 DCON.         Sperry Drilling:  DIRECTNL CONTR
 PDAT.          Mean Sea Level:  PERMANENT DATUM
 MDS .        Operator Entered:  MAG DATA SOURCE
 API .                        :  API NUMBER
 CNTY.                        :  COUNTY
 PROV.                        :  PROVINCE
 STAT.                        :  STATE
 UWI .                        :  UNIQUE WELL IDENTIFIER
 LOC .                        :  LOCATION
 LMF .             Drill Floor:  LOG MEASURED FROM
 TVDS.m                  43.29:  TVDSS CORRECTN
 LATI.deg                40.03:  LATITUDE
 LONG.deg                51.35:  LONGITUDE
 WHNS.m                  12.98:  WELL HEAD N/S
 WHEW.m                  -6.62:  WELL HEAD E/W
 UTMX.m              530128.28:  UTM X
 UTMY.m             4433192.49:  UTM Y
 DFWL.m                   0.00:  DISTANCE FWL
 DFSL.m                   0.00:  DISTANCE FSL
 SDEP.m                 378.00:  START DEPTH
 TDD .m                4463.01:  TOTAL DEPTH (DRILLER)
 VSDR.deg               296.18:  VERT SEC DIRECT
 GVFD.g                   1.00:  GRAVITY FIELD
 MFLD.nT              50269.00:  MAGNETIC FIELD
 MDIP.deg                59.50:  MAGNETIC DIP
 MDEC.deg                 6.44:  MAGNETIC DECL
 GRDC.deg                 0.20:  GRID CORRECTION
 AZTC.deg                 6.24:  AZM TOTAL CORR
 EPD .m                   0.00:  ELEVATION
 EGL .m                   0.00:  GROUND ELEVATION
 WDMS.m                 128.20:  WD ELEV
 APD .m                  43.29:  DEPTH ABOVE PD
 AGAP.m                  43.29:  AIR GAP
 VSEW.m                  -6.62:  VERT SEC E/W
 VSNS.m                  12.98:  VERT SEC N/S
 EKB .m                  43.29:  KB ELEVATION
 EDF .m                  43.29:  DF ELEVATION
 TDL .m                 147.00:  TOTAL DEPTH (LOGGER)
 VSC .                       0:  VS TO CLOSURE
 MAGU.                 1849241:  MAGUTM CHECKSUM
~Parameter Information Block
#MNEM.UNIT       Value        Description
#---------     -----------    ---------------------------
 AV  .mps                 0.70:  Ann Velocity 
 AZIF.deg               269.43:  Azm, Final 
 BHAT.        Rotary Steerable:  BHA Type 
 BROT.°/30m              -0.03:  Build Rotating 
 BS  .in                  8.50:  Bit Size 
 BSZ .in                  8.50:  Bit Size 
 BTPL.psig              880.00:  Bit Press Loss 
 CABU.                      No:  Customer Abuse 
 CGEO.          Parviz Guliyev:  Customer Geo 
 COMM.                     <oh:  Run Comments 1 
 TCS .hr                 64.59:  Time Ciculation Ended 
 CV  .mps                 2.17:  Crit Velocity 
 DD1 .            Nonso Okafor:  Direct Drillr 1 
 DDSV.               Geo-Pilot:  DD Service 
 DEFF.%                  98.00:  % Det Eff 
 DLRX.°/30m               0.81:  Dogleg Rot Max 
 DLSO.°/30m               0.55:  Dogleg Oriented 
 DLSX.°/30m               0.81:  Dogleg Str Max 
 DRET.      23.50.00 24-Aug-20:  Drill End Time 
 DRST.      07.34.24 22-Aug-20:  Drill Start Tim 
 DTIM.hr                 15.29:  Time Drilling 
 EDEP.m                4461.01:  End Depth 
 ENG1.       Zam Abdullah Sani:  Engineer 1 
 ENG2.         Dair Mahammadov:  Engineer 2 
 ENG3.          Rustam Gadirov:  Engineer 3 
 ETIM.      07.34.24 26-Aug-20:  End Time 
 FLOI.gpm               550.00:  Flow In 
 FLON.gpm               400.00:  Flow In Min 
 FLOS.cptm                1.00:  Fluid Loss 
 FLOX.gpm               600.00:  Flow In Max 
 FTRO.       Formation Presure:  FTWD Run Obj 
 HFLO.                      No:  High Flow 
 HPRE.                      No:  High Pressure 
 HTEM.                      No:  High Temp 
 HYDO.m                   1.80:  Hydro Offset 
 IFIN.deg                66.72:  Inc, Final 
 IMAX.deg                67.42:  Inc Max 
 IMIN.deg                66.72:  Inc Min 
 IMND.m                4408.37:  Inc Min Depth 
 IMXD.m                4323.37:  Inc Max Depth 
 JARR.                      No:  Jarring 
 LETM.      23.50.00 24-Aug-20:  Log End Time 
 LOST.hr                     0:  Lost Rig Time 
 LSTM.      07.34.24 22-Aug-20:  Log Start Time 
 MDCL.ppm             38000.00:  Mud Chlorides 
 MDES.     Inversion Oil/Synthetic:  Mud Desc 
 DFD .sg                  1.40:  Mud Density 
 MDMN.sg                  1.38:  Dens Mud Min 
 MDMX.sg                  1.41:  Dens Mud Max 
 MOIL.                    70.5:  Run Mud Oil % 
 MOWR.                   68:32:  Run Mud OWR 
 MSND.                    0.01:  Run Mud Sand % 
 MSOL.                   17.68:  Run Mud Solids% 
 DFV .spqt               77.00:  Mud Viscosity 
 MWOD.in                  6.75:  MWD Tool OD 
 MWSI.                      No:  Serv Intrp, MWD 
 OTIM.hr                159.42:  Time Operating 
 PCON.           Look Like New:  Pad Condition 
 PMAX.psia             8730.94:  Press Op, Max 
 PV  .cP                 31.00:  Mud PV 
 RUN .                     900:  Run Number 
 ROPA.m/hr               12.00:  ROP Avg 
 ROPN.m/hr                7.00:  ROP Min 
 ROPX.m/hr               17.00:  ROP Max 
 RPMA.rpm               120.00:  RPM Surface Avg 
 RPMN.rpm                60.00:  RPM Surface Min 
 RPMX.rpm               140.00:  RPM Surface Max 
 RRUN.                    L604:  Rig Run Number 
 RTIM.hr                 10.00:  Time Reaming 
 SAZI.deg               270.56:  Azm, Start 
 SDEP.m                4314.01:  Start Depth 
 SIDD.                      No:  Serv Intrp, DD 
 SINC.deg                67.42:  Inc, Start 
 SPPA.psig             3300.00:  SPP Avg 
 SPPN.psig             1750.00:  SPP Min 
 SPPX.psig             4630.00:  SPP Max 
 STIM.      11.00.00 21-Aug-20:  Start Time 
 SVCS.                 DD, MWD:  Services 
 SVER.                    9.20:  Sperry Version 
 TDAT.m                4461.01:  Tot Depth Attmp 
 TDDF.                      No:  Trip for DD 
 TDLG.m                 147.00:  Tot Depth Loggd 
 TFF .                      No:  Trip for Fail 
 TQAA.f-kp               16.00:  Torque Abs Avg 
 TQAN.f-kp               14.00:  Torque Abs Min 
 TQAX.f-kp               20.00:  Torque Abs Max 
 TRRT.°/30m              -0.14:  Turn Rotating 
 MRT .                    HCIM:  Maximum Recorded Temperature 
 TTMX.degC               78.00:  Max Tool Temp 
 VS01.                90515425:  Virtual Str1 SN 
 VS02.                90545184:  Virtual Str2 SN 
 VS03.                90527809:  Virtual Str3 SN 
 VS04.                90515232:  Virtual Str4 SN 
 VS05.                90621207:  Virtual Str5 SN 
 VS06.                90619737:  Virtual Str6 SN 
 WBMN.klb                 2.00:  WOB Min 
 WITN.          Keith Dischler:  Customer Rep 
 WITN.           Faig Mammadov:  Customer Rep 2 
 WOBA.klb                 5.00:  WOB Avg 
 WOBX.klb                 8.00:  WOB Max 
 YP  .lhf2               32.00:  Yield Point 
~Curve Information Block
#MNEM.UNIT                 API CODE     Curve Description
#---------               -----------    ---------------------------
 TIME.HHMMSS            00 000 000 000:  GT Time & Date
 GTET.sec               00 000 000 000:  GT Elapsed Test Time
 GTPQH.psia             00 000 000 000:  GT HR Quartz Pressure
 GTDEPTH.m              00 000 000 000:  GT Depth
 GTTVD.m                00 000 000 000:  GT True Vertical Depth
 GTTQ.degC              00 000 000 000:  GT Quartz Temperature
 GTTN.NONE              00 000 000 000:  GT Test Number
#Other Information
#
#WARRANTY: Halliburton will use its best efforts to furnish customers with 
#accurate information and interpretations that are part of, and incident to, the services 
#provided.  However, Halliburton cannot and does not warrant the accuracy 
#or correctness of such information and interpretations.  Under no circumstances should any 
#such information or interpretation be relied upon as the sole basis for any drilling, 
#completion, production, or financial decision or any procedure involving any risk to the 
#safety of any drilling venture, drilling rig or its crew or any other third party.  The 
#Customer has full responsibility for all drilling, completion and production operation.  
#Halliburton makes no representations or warranties, either expressed or 
#implied, including, but not limited to, the implied warranties of merchantability or fitness 
#for a particular purpose, with respect to the services rendered.  In no event will 
#Halliburton be liable for failure to obtain any particular results or for 
#any damages, including, but not limited to, indirect, special or consequential damages, 
#resulting from the use of any information or interpretation provided by Halliburton.
#
~A           TIME            GTET   GTPQH  GTDEPTH  GTTVD  GTTQ  GTTN 
# ...
   08:06:38.000.25-Aug-2020 138.00  171.75 4370.51 2065.14 72.24 5.00
   08:06:38.200.25-Aug-2020 138.20  171.77 4370.51 2065.14 72.24 5.00
   08:06:38.400.25-Aug-2020 138.40  171.78 4370.51 2065.14 72.24 5.00
   08:06:38.600.25-Aug-2020 138.60  171.80 4370.51 2065.14 72.24 5.00
   08:06:38.800.25-Aug-2020 138.80  171.82 4370.51 2065.14 72.24 5.00
   08:06:39.000.25-Aug-2020 139.00  171.77 4370.51 2065.14 72.24 5.00
   08:06:39.200.25-Aug-2020 139.20  171.79 4370.51 2065.14 72.25 5.00
   08:06:39.400.25-Aug-2020 139.40  171.81 4370.51 2065.14 72.24 5.00
   08:06:39.600.25-Aug-2020 139.60  171.83 4370.51 2065.14 72.25 5.00
   08:06:39.800.25-Aug-2020 139.80  171.86 4370.51 2065.14 72.25 5.00
   08:06:40.000.25-Aug-2020 140.00  171.86 4370.51 2065.14 72.25 5.00
   08:06:40.200.25-Aug-2020 140.20  171.86 4370.51 2065.14 72.25 5.00
   08:06:40.400.25-Aug-2020 140.40  171.86 4370.51 2065.14 72.25 5.00
   08:06:40.600.25-Aug-2020 140.60  171.88 4370.51 2065.14 72.25 5.00
   08:06:40.800.25-Aug-2020 140.80  171.91 4370.51 2065.14 72.25 5.00
   08:06:41.000.25-Aug-2020 141.00  171.92 4370.51 2065.14 72.25 5.00
   08:06:41.200.25-Aug-2020 141.20  171.92 4370.51 2065.14 72.25 5.00
   08:06:41.400.25-Aug-2020 141.40  171.96 4370.51 2065.14 72.25 5.00
   08:06:41.600.25-Aug-2020 141.60  171.93 4370.51 2065.14 72.25 5.00
   08:06:41.800.25-Aug-2020 141.80  171.98 4370.51 2065.14 72.25 5.00
   08:06:42.000.25-Aug-2020 142.00  171.98 4370.51 2065.14 72.25 5.00
   08:06:42.200.25-Aug-2020 142.20  171.98 4370.51 2065.14 72.25 5.00
   08:06:42.400.25-Aug-2020 142.40  171.97 4370.51 2065.14 72.25 5.00
   08:06:42.600.25-Aug-2020 142.60  172.03 4370.51 2065.14 72.25 5.00
   08:06:42.800.25-Aug-2020 142.80  172.03 4370.51 2065.14 72.25 5.00
   08:06:43.000.25-Aug-2020 143.00  172.04 4370.51 2065.14 72.25 5.00
   08:06:43.200.25-Aug-2020 143.20  172.06 4370.51 2065.14 72.25 5.00
   08:06:43.400.25-Aug-2020 143.40  172.09 4370.51 2065.14 72.25 5.00
   08:06:43.600.25-Aug-2020 143.60  172.06 4370.51 2065.14 72.25 5.00
   08:06:43.800.25-Aug-2020 143.80  172.08 4370.51 2065.14 72.25 5.00
   08:06:44.000.25-Aug-2020 144.00  172.12 4370.51 2065.14 72.25 5.00
   08:06:44.200.25-Aug-2020 144.20  172.13 4370.51 2065.14 72.25 5.00
   08:06:44.400.25-Aug-2020 144.40  172.15 4370.51 2065.14 72.25 5.00
   08:06:44.600.25-Aug-2020 144.60  172.17 4370.51 2065.14 72.25 5.00
   08:06:44.800.25-Aug-2020 144.80  172.19 4370.51 2065.14 72.25 5.00
   08:06:45.000.25-Aug-2020 145.00  172.20 4370.51 2065.14 72.25 5.00
   08:06:45.200.25-Aug-2020 145.20  172.20 4370.51 2065.14 72.25 5.00
   08:06:45.400.25-Aug-2020 145.40  172.24 4370.51 2065.14 72.25 5.00
   08:06:45.600.25-Aug-2020 145.60  172.24 4370.51 2065.14 72.25 5.00
   08:06:45.800.25-Aug-2020 145.80  172.26 4370.51 2065.14 72.25 5.00
   08:06:46.000.25-Aug-2020 146.00  172.28 4370.51 2065.14 72.25 5.00
   08:06:46.200.25-Aug-2020 146.20  172.28 4370.51 2065.14 72.25 5.00
   08:06:46.400.25-Aug-2020 146.40  172.30 4370.51 2065.14 72.25 5.00
   08:06:46.600.25-Aug-2020 146.60  172.31 4370.51 2065.14 72.25 5.00
   08:06:46.800.25-Aug-2020 146.80  172.33 4370.51 2065.14 72.25 5.00
   08:06:47.000.25-Aug-2020 147.00  172.34 4370.51 2065.14 72.25 5.00
   08:06:47.200.25-Aug-2020 147.20  172.31 4370.51 2065.14 72.25 5.00
   08:06:47.400.25-Aug-2020 147.40  172.32 4370.51 2065.14 72.25 5.00
   08:06:47.600.25-Aug-2020 147.60  172.35 4370.51 2065.14 72.25 5.00
   08:06:47.800.25-Aug-2020 147.80  172.36 4370.51 2065.14 72.25 5.00
   08:06:48.000.25-Aug-2020 148.00  172.37 4370.51 2065.14 72.25 5.00
   08:06:48.200.25-Aug-2020 148.20  172.40 4370.51 2065.14 72.25 5.00
   08:06:48.400.25-Aug-2020 148.40  172.41 4370.51 2065.14 72.25 5.00
   08:06:48.600.25-Aug-2020 148.60  172.42 4370.51 2065.14 72.25 5.00
   08:06:48.800.25-Aug-2020 148.80  172.44 4370.51 2065.14 72.25 5.00
   08:06:49.000.25-Aug-2020 149.00  172.44 4370.51 2065.14 72.25 5.00
   08:06:49.200.25-Aug-2020 149.20  172.44 4370.51 2065.14 72.25 5.00
   08:06:49.400.25-Aug-2020 149.40  167.01 4370.51 2065.14 72.25 5.00
   08:06:49.600.25-Aug-2020 149.60  162.97 4370.51 2065.14 72.25 5.00
   08:06:49.800.25-Aug-2020 149.80  159.31 4370.51 2065.14 72.25 5.00
   08:06:50.000.25-Aug-2020 150.00  155.89 4370.51 2065.14 72.25 5.00
   08:06:50.200.25-Aug-2020 150.20  155.89 4370.51 2065.14 72.25 5.00
   08:06:50.400.25-Aug-2020 150.40  149.63 4370.51 2065.14 72.25 5.00
   08:06:50.600.25-Aug-2020 150.60  146.83 4370.51 2065.14 72.25 5.00
   08:06:50.800.25-Aug-2020 150.80  144.18 4370.51 2065.14 72.25 5.00
   08:06:51.000.25-Aug-2020 151.00  141.59 4370.51 2065.14 72.25 5.00
   08:06:51.200.25-Aug-2020 151.20  139.09 4370.51 2065.14 72.25 5.00
   08:06:51.400.25-Aug-2020 151.40  136.63 4370.51 2065.14 72.25 5.00
   08:06:51.600.25-Aug-2020 151.60  134.28 4370.51 2065.14 72.25 5.00
   08:06:51.800.25-Aug-2020 151.80  132.10 4370.51 2065.14 72.25 5.00
   08:06:52.000.25-Aug-2020 152.00  129.99 4370.51 2065.14 72.25 5.00
   08:06:52.200.25-Aug-2020 152.20  127.96 4370.51 2065.14 72.25 5.00
   08:06:52.400.25-Aug-2020 152.40  125.98 4370.51 2065.14 72.25 5.00
   08:06:52.600.25-Aug-2020 152.60  124.04 4370.51 2065.14 72.25 5.00
   08:06:52.800.25-Aug-2020 152.80  122.19 4370.51 2065.14 72.25 5.00
   08:06:53.000.25-Aug-2020 153.00  120.38 4370.51 2065.14 72.25 5.00
   08:06:53.200.25-Aug-2020 153.20  120.38 4370.51 2065.14 72.25 5.00
   08:06:53.400.25-Aug-2020 153.40  117.04 4370.51 2065.14 72.25 5.00
   08:06:53.600.25-Aug-2020 153.60  115.46 4370.51 2065.14 72.25 5.00
   08:06:53.800.25-Aug-2020 153.80  113.90 4370.51 2065.14 72.25 5.00
   08:06:54.000.25-Aug-2020 154.00  112.36 4370.51 2065.14 72.25 5.00
   08:06:54.200.25-Aug-2020 154.20  112.36 4370.51 2065.14 72.25 5.00
   08:06:54.400.25-Aug-2020 154.40  109.56 4370.51 2065.14 72.25 5.00
   08:06:54.600.25-Aug-2020 154.60  108.22 4370.51 2065.14 72.25 5.00
   08:06:54.800.25-Aug-2020 154.80  106.88 4370.51 2065.14 72.25 5.00
   08:06:55.000.25-Aug-2020 155.00  105.54 4370.51 2065.14 72.25 5.00
   08:06:55.200.25-Aug-2020 155.20  104.35 4370.51 2065.14 72.25 5.00
   08:06:55.400.25-Aug-2020 155.40  103.17 4370.51 2065.14 72.25 5.00
   08:06:55.600.25-Aug-2020 155.60  102.01 4370.51 2065.14 72.25 5.00
   08:06:55.800.25-Aug-2020 155.80  100.89 4370.51 2065.14 72.25 5.00
   08:06:56.000.25-Aug-2020 156.00   99.78 4370.51 2065.14 72.25 5.00
   08:06:56.200.25-Aug-2020 156.20   98.71 4370.51 2065.14 72.25 5.00
   08:06:56.400.25-Aug-2020 156.40   97.66 4370.51 2065.14 72.25 5.00
   08:06:56.600.25-Aug-2020 156.60   96.64 4370.51 2065.14 72.25 5.00
   08:06:56.800.25-Aug-2020 156.80   95.66 4370.51 2065.14 72.25 5.00
   08:06:57.000.25-Aug-2020 157.00   94.70 4370.51 2065.14 72.25 5.00
   08:06:57.200.25-Aug-2020 157.20   94.70 4370.51 2065.14 72.25 5.00
   08:06:57.400.25-Aug-2020 157.40   92.85 4370.51 2065.14 72.25 5.00
   08:06:57.600.25-Aug-2020 157.60   91.97 4370.51 2065.14 72.25 5.00
   08:06:57.800.25-Aug-2020 157.80   91.09 4370.51 2065.14 72.25 5.00
   08:06:58.000.25-Aug-2020 158.00   90.25 4370.51 2065.14 72.25 5.00
   08:06:58.200.25-Aug-2020 158.20   90.25 4370.51 2065.14 72.25 5.00
   08:06:58.400.25-Aug-2020 158.40   88.59 4370.51 2065.14 72.25 5.00
   08:06:58.600.25-Aug-2020 158.60   87.73 4370.51 2065.14 72.25 5.00
   08:06:58.800.25-Aug-2020 158.80   87.00 4370.51 2065.14 72.25 5.00
   08:06:59.000.25-Aug-2020 159.00   86.27 4370.51 2065.14 72.25 5.00
   08:06:59.200.25-Aug-2020 159.20   85.60 4370.51 2065.14 72.25 5.00
   08:06:59.400.25-Aug-2020 159.40   85.57 4370.51 2065.14 72.25 5.00
   08:06:59.600.25-Aug-2020 159.60   85.75 4370.51 2065.14 72.25 5.00
   08:06:59.800.25-Aug-2020 159.80   85.91 4370.51 2065.14 72.25 5.00
   08:07:00.000.25-Aug-2020 160.00   86.06 4370.51 2065.14 72.25 5.00
   08:07:00.200.25-Aug-2020 160.20   86.19 4370.51 2065.14 72.25 5.00
   08:07:00.400.25-Aug-2020 160.40   86.31 4370.51 2065.14 72.25 5.00
   08:07:00.600.25-Aug-2020 160.60   86.43 4370.51 2065.14 72.25 5.00
   08:07:00.800.25-Aug-2020 160.80   86.53 4370.51 2065.14 72.25 5.00
