~Version Information
 VERS.                  2.0:   CWLS log ASCII Standard -VERSION 2.0
 WRAP.                   NO:   One line per depth step
~Well Information Block
#MNEM.UNIT     VALUE/NAME     DESCRIPTION
#---------     -----------    ---------------------------
 STRT.S             09:11:23 25-Aug-20: START TIME 09:11:23 25-Aug-20
 STOP.S             09:18:23 25-Aug-20: STOP TIME  09:18:23 25-Aug-20
 STEP.S                   0.00: STEP TIME
 NULL.                 -999.25: NULL VALUE
 DFWT.                        :  DIST FWL TEXT
 DFST.                        :  DIST FSL TEXT
 DMF .             Drill Floor:  DRILL MEAS FROM
 STIM.      09.59.28 01-Jun-20:  START TIME
 DATE.      05.00.00 28-Aug-20:  END TIME
 SPUD.               01-Jun-20:  SPUD DATE
 NREF.                    Grid:  NORTH REFERENCE
 HPTY.       Minimum Curvature:  HOLE POS TYPE
 DMOD.             Drill Model:  DRILL MOD DESC
 SVYD.                  Survey:  SURVEY DESC
 ILTD.               Lithology:  INTERP LTH DESC
 FTOP.          Formation Tops:  FORM TOPS DESC
 SON .        AZ-XX-0905455768:  JOB NUMBER
 WTYP.                Deviated:  WELL TYPE
 COMP.     BP Exploration(Caspian Sea):  COMPANY
 BASE.              Azerbaijan:  LOGGING EQUIPMENT BASE LOCATION
 REGN.                   EESSA:  REGION
 CTRY.              Azerbaijan:  COUNTRY NAME
 FLD .                     ACG:  FIELD NAME
 SRVC.          Turan Drilling:  CONTRACTOR
 WELL.                     B41:  WELL NAME
 RIG .           Central Azeri:  RIG NAME
 DCON.         Sperry Drilling:  DIRECTNL CONTR
 PDAT.          Mean Sea Level:  PERMANENT DATUM
 MDS .        Operator Entered:  MAG DATA SOURCE
 API .                        :  API NUMBER
 CNTY.                        :  COUNTY
 PROV.                        :  PROVINCE
 STAT.                        :  STATE
 UWI .                        :  UNIQUE WELL IDENTIFIER
 LOC .                        :  LOCATION
 LMF .             Drill Floor:  LOG MEASURED FROM
 TVDS.m                  43.29:  TVDSS CORRECTN
 LATI.deg                40.03:  LATITUDE
 LONG.deg                51.35:  LONGITUDE
 WHNS.m                  12.98:  WELL HEAD N/S
 WHEW.m                  -6.62:  WELL HEAD E/W
 UTMX.m              530128.28:  UTM X
 UTMY.m             4433192.49:  UTM Y
 DFWL.m                   0.00:  DISTANCE FWL
 DFSL.m                   0.00:  DISTANCE FSL
 SDEP.m                 378.00:  START DEPTH
 TDD .m                4463.01:  TOTAL DEPTH (DRILLER)
 VSDR.deg               296.18:  VERT SEC DIRECT
 GVFD.g                   1.00:  GRAVITY FIELD
 MFLD.nT              50269.00:  MAGNETIC FIELD
 MDIP.deg                59.50:  MAGNETIC DIP
 MDEC.deg                 6.44:  MAGNETIC DECL
 GRDC.deg                 0.20:  GRID CORRECTION
 AZTC.deg                 6.24:  AZM TOTAL CORR
 EPD .m                   0.00:  ELEVATION
 EGL .m                   0.00:  GROUND ELEVATION
 WDMS.m                 128.20:  WD ELEV
 APD .m                  43.29:  DEPTH ABOVE PD
 AGAP.m                  43.29:  AIR GAP
 VSEW.m                  -6.62:  VERT SEC E/W
 VSNS.m                  12.98:  VERT SEC N/S
 EKB .m                  43.29:  KB ELEVATION
 EDF .m                  43.29:  DF ELEVATION
 TDL .m                 147.00:  TOTAL DEPTH (LOGGER)
 VSC .                       0:  VS TO CLOSURE
 MAGU.                 1849241:  MAGUTM CHECKSUM
~Parameter Information Block
#MNEM.UNIT       Value        Description
#---------     -----------    ---------------------------
 AV  .mps                 0.70:  Ann Velocity 
 AZIF.deg               269.43:  Azm, Final 
 BHAT.        Rotary Steerable:  BHA Type 
 BROT.°/30m              -0.03:  Build Rotating 
 BS  .in                  8.50:  Bit Size 
 BSZ .in                  8.50:  Bit Size 
 BTPL.psig              880.00:  Bit Press Loss 
 CABU.                      No:  Customer Abuse 
 CGEO.          Parviz Guliyev:  Customer Geo 
 COMM.                     ìb:  Run Comments 1 
 TCS .hr                 64.59:  Time Ciculation Ended 
 CV  .mps                 2.17:  Crit Velocity 
 DD1 .            Nonso Okafor:  Direct Drillr 1 
 DDSV.               Geo-Pilot:  DD Service 
 DEFF.%                  98.00:  % Det Eff 
 DLRX.°/30m               0.81:  Dogleg Rot Max 
 DLSO.°/30m               0.55:  Dogleg Oriented 
 DLSX.°/30m               0.81:  Dogleg Str Max 
 DRET.      23.50.00 24-Aug-20:  Drill End Time 
 DRST.      07.34.24 22-Aug-20:  Drill Start Tim 
 DTIM.hr                 15.29:  Time Drilling 
 EDEP.m                4461.01:  End Depth 
 ENG1.       Zam Abdullah Sani:  Engineer 1 
 ENG2.         Dair Mahammadov:  Engineer 2 
 ENG3.          Rustam Gadirov:  Engineer 3 
 ETIM.      07.34.24 26-Aug-20:  End Time 
 FLOI.gpm               550.00:  Flow In 
 FLON.gpm               400.00:  Flow In Min 
 FLOS.cptm                1.00:  Fluid Loss 
 FLOX.gpm               600.00:  Flow In Max 
 FTRO.       Formation Presure:  FTWD Run Obj 
 HFLO.                      No:  High Flow 
 HPRE.                      No:  High Pressure 
 HTEM.                      No:  High Temp 
 HYDO.m                   1.80:  Hydro Offset 
 IFIN.deg                66.72:  Inc, Final 
 IMAX.deg                67.42:  Inc Max 
 IMIN.deg                66.72:  Inc Min 
 IMND.m                4408.37:  Inc Min Depth 
 IMXD.m                4323.37:  Inc Max Depth 
 JARR.                      No:  Jarring 
 LETM.      23.50.00 24-Aug-20:  Log End Time 
 LOST.hr                     0:  Lost Rig Time 
 LSTM.      07.34.24 22-Aug-20:  Log Start Time 
 MDCL.ppm             38000.00:  Mud Chlorides 
 MDES.     Inversion Oil/Synthetic:  Mud Desc 
 DFD .sg                  1.40:  Mud Density 
 MDMN.sg                  1.38:  Dens Mud Min 
 MDMX.sg                  1.41:  Dens Mud Max 
 MOIL.                    70.5:  Run Mud Oil % 
 MOWR.                   68:32:  Run Mud OWR 
 MSND.                    0.01:  Run Mud Sand % 
 MSOL.                   17.68:  Run Mud Solids% 
 DFV .spqt               77.00:  Mud Viscosity 
 MWOD.in                  6.75:  MWD Tool OD 
 MWSI.                      No:  Serv Intrp, MWD 
 OTIM.hr                159.42:  Time Operating 
 PCON.           Look Like New:  Pad Condition 
 PMAX.psia             8730.94:  Press Op, Max 
 PV  .cP                 31.00:  Mud PV 
 RUN .                     900:  Run Number 
 ROPA.m/hr               12.00:  ROP Avg 
 ROPN.m/hr                7.00:  ROP Min 
 ROPX.m/hr               17.00:  ROP Max 
 RPMA.rpm               120.00:  RPM Surface Avg 
 RPMN.rpm                60.00:  RPM Surface Min 
 RPMX.rpm               140.00:  RPM Surface Max 
 RRUN.                    L604:  Rig Run Number 
 RTIM.hr                 10.00:  Time Reaming 
 SAZI.deg               270.56:  Azm, Start 
 SDEP.m                4314.01:  Start Depth 
 SIDD.                      No:  Serv Intrp, DD 
 SINC.deg                67.42:  Inc, Start 
 SPPA.psig             3300.00:  SPP Avg 
 SPPN.psig             1750.00:  SPP Min 
 SPPX.psig             4630.00:  SPP Max 
 STIM.      11.00.00 21-Aug-20:  Start Time 
 SVCS.                 DD, MWD:  Services 
 SVER.                    9.20:  Sperry Version 
 TDAT.m                4461.01:  Tot Depth Attmp 
 TDDF.                      No:  Trip for DD 
 TDLG.m                 147.00:  Tot Depth Loggd 
 TFF .                      No:  Trip for Fail 
 TQAA.f-kp               16.00:  Torque Abs Avg 
 TQAN.f-kp               14.00:  Torque Abs Min 
 TQAX.f-kp               20.00:  Torque Abs Max 
 TRRT.°/30m              -0.14:  Turn Rotating 
 MRT .                    HCIM:  Maximum Recorded Temperature 
 TTMX.degC               78.00:  Max Tool Temp 
 VS01.                90515425:  Virtual Str1 SN 
 VS02.                90545184:  Virtual Str2 SN 
 VS03.                90527809:  Virtual Str3 SN 
 VS04.                90515232:  Virtual Str4 SN 
 VS05.                90621207:  Virtual Str5 SN 
 VS06.                90619737:  Virtual Str6 SN 
 WBMN.klb                 2.00:  WOB Min 
 WITN.          Keith Dischler:  Customer Rep 
 WITN.           Faig Mammadov:  Customer Rep 2 
 WOBA.klb                 5.00:  WOB Avg 
 WOBX.klb                 8.00:  WOB Max 
 YP  .lhf2               32.00:  Yield Point 
~Curve Information Block
#MNEM.UNIT                 API CODE     Curve Description
#---------               -----------    ---------------------------
 TIME.HHMMSS            00 000 000 000:  GT Time & Date
 GTET.sec               00 000 000 000:  GT Elapsed Test Time
 GTPQH.psia             00 000 000 000:  GT HR Quartz Pressure
 GTDEPTH.m              00 000 000 000:  GT Depth
 GTTVD.m                00 000 000 000:  GT True Vertical Depth
 GTTQ.degC              00 000 000 000:  GT Quartz Temperature
 GTTN.NONE              00 000 000 000:  GT Test Number
#Other Information
#
#WARRANTY: Halliburton will use its best efforts to furnish customers with 
#accurate information and interpretations that are part of, and incident to, the services 
#provided.  However, Halliburton cannot and does not warrant the accuracy 
#or correctness of such information and interpretations.  Under no circumstances should any 
#such information or interpretation be relied upon as the sole basis for any drilling, 
#completion, production, or financial decision or any procedure involving any risk to the 
#safety of any drilling venture, drilling rig or its crew or any other third party.  The 
#Customer has full responsibility for all drilling, completion and production operation.  
#Halliburton makes no representations or warranties, either expressed or 
#implied, including, but not limited to, the implied warranties of merchantability or fitness 
#for a particular purpose, with respect to the services rendered.  In no event will 
#Halliburton be liable for failure to obtain any particular results or for 
#any damages, including, but not limited to, indirect, special or consequential damages, 
#resulting from the use of any information or interpretation provided by Halliburton.
#
~A           TIME            GTET   GTPQH  GTDEPTH  GTTVD  GTTQ  GTTN 
   09:11:23.000.25-Aug-2020   0.00 4744.53 4360.51 2061.20 72.13 7.00
   09:11:23.200.25-Aug-2020   0.20 4744.53 4360.51 2061.20 72.13 7.00
   09:11:23.400.25-Aug-2020   0.40 4740.55 4360.51 2061.20 72.13 7.00
   09:11:23.600.25-Aug-2020   0.60 4740.92 4360.51 2061.20 72.13 7.00
   09:11:23.800.25-Aug-2020   0.80 4752.01 4360.51 2061.20 72.13 7.00
   09:11:24.000.25-Aug-2020   1.00 4738.38 4360.51 2061.20 72.13 7.00
   09:11:24.200.25-Aug-2020   1.20 4738.38 4360.51 2061.20 72.13 7.00
   09:11:24.400.25-Aug-2020   1.40 4745.43 4360.51 2061.20 72.13 7.00
   09:11:24.600.25-Aug-2020   1.60 4756.92 4360.51 2061.20 72.13 7.00
   09:11:24.800.25-Aug-2020   1.80 4743.91 4360.51 2061.20 72.13 7.00
   09:11:25.000.25-Aug-2020   2.00 4755.21 4360.51 2061.20 72.13 7.00
   09:11:25.200.25-Aug-2020   2.20 4755.21 4360.51 2061.20 72.13 7.00
   09:11:25.400.25-Aug-2020   2.40 4749.72 4360.51 2061.20 72.13 7.00
   09:11:25.600.25-Aug-2020   2.60 4756.80 4360.51 2061.20 72.13 7.00
   09:11:25.800.25-Aug-2020   2.80 4753.71 4360.51 2061.20 72.13 7.00
   09:11:26.000.25-Aug-2020   3.00 4752.05 4360.51 2061.20 72.13 7.00
   09:11:26.200.25-Aug-2020   3.20 4752.05 4360.51 2061.20 72.13 7.00
   09:11:26.400.25-Aug-2020   3.40 4751.16 4360.51 2061.20 72.13 7.00
   09:11:26.600.25-Aug-2020   3.60 4747.71 4360.51 2061.20 72.13 7.00
   09:11:26.800.25-Aug-2020   3.80 4747.02 4360.51 2061.20 72.13 7.00
   09:11:27.000.25-Aug-2020   4.00 4746.42 4360.51 2061.20 72.13 7.00
   09:11:27.200.25-Aug-2020   4.20 4746.42 4360.51 2061.20 72.13 7.00
   09:11:27.400.25-Aug-2020   4.40 4746.23 4360.51 2061.20 72.13 7.00
   09:11:27.600.25-Aug-2020   4.60 4746.77 4360.51 2061.20 72.13 7.00
   09:11:27.800.25-Aug-2020   4.80 4746.06 4360.51 2061.20 72.13 7.00
   09:11:28.000.25-Aug-2020   5.00 4746.26 4360.51 2061.20 72.13 7.00
   09:11:28.200.25-Aug-2020   5.20 4746.26 4360.51 2061.20 72.13 7.00
   09:11:28.400.25-Aug-2020   5.40 4749.06 4360.51 2061.20 72.13 7.00
   09:11:28.600.25-Aug-2020   5.60 4748.88 4360.51 2061.20 72.13 7.00
   09:11:28.800.25-Aug-2020   5.80 4748.61 4360.51 2061.20 72.13 7.00
   09:11:29.000.25-Aug-2020   6.00 4749.12 4360.51 2061.20 72.13 7.00
   09:11:29.200.25-Aug-2020   6.20 4749.12 4360.51 2061.20 72.13 7.00
   09:11:29.400.25-Aug-2020   6.40 4748.00 4360.51 2061.20 72.13 7.00
   09:11:29.600.25-Aug-2020   6.60 4757.40 4360.51 2061.20 72.13 7.00
   09:11:29.800.25-Aug-2020   6.80 4751.44 4360.51 2061.20 72.13 7.00
   09:11:30.000.25-Aug-2020   7.00 4750.74 4360.51 2061.20 72.13 7.00
   09:11:30.200.25-Aug-2020   7.20 4750.74 4360.51 2061.20 72.13 7.00
   09:11:30.400.25-Aug-2020   7.40 4752.25 4360.51 2061.20 72.13 7.00
   09:11:30.600.25-Aug-2020   7.60 4751.43 4360.51 2061.20 72.13 7.00
   09:11:30.800.25-Aug-2020   7.80 4750.88 4360.51 2061.20 72.13 7.00
   09:11:31.000.25-Aug-2020   8.00 4751.63 4360.51 2061.20 72.13 7.00
   09:11:31.200.25-Aug-2020   8.20 4751.63 4360.51 2061.20 72.13 7.00
   09:11:31.400.25-Aug-2020   8.40 4751.98 4360.51 2061.20 72.13 7.00
   09:11:31.600.25-Aug-2020   8.60 4752.20 4360.51 2061.20 72.13 7.00
   09:11:31.800.25-Aug-2020   8.80 4751.88 4360.51 2061.20 72.13 7.00
   09:11:32.000.25-Aug-2020   9.00 4751.66 4360.51 2061.20 72.13 7.00
   09:11:32.200.25-Aug-2020   9.20 4751.85 4360.51 2061.20 72.13 7.00
   09:11:32.400.25-Aug-2020   9.40 4753.10 4360.51 2061.20 72.13 7.00
   09:11:32.600.25-Aug-2020   9.60 4752.52 4360.51 2061.20 72.13 7.00
   09:11:32.800.25-Aug-2020   9.80 4763.66 4360.51 2061.20 72.13 7.00
   09:11:33.000.25-Aug-2020  10.00 4750.41 4360.51 2061.20 72.13 7.00
   09:11:33.200.25-Aug-2020  10.20 4750.41 4360.51 2061.20 72.13 7.00
   09:11:33.400.25-Aug-2020  10.40 4754.37 4360.51 2061.20 72.13 7.00
   09:11:33.600.25-Aug-2020  10.60 4753.35 4360.51 2061.20 72.13 7.00
   09:11:33.800.25-Aug-2020  10.80 4752.75 4360.51 2061.20 72.13 7.00
   09:11:34.000.25-Aug-2020  11.00 4765.99 4360.51 2061.20 72.13 7.00
   09:11:34.200.25-Aug-2020  11.20 4765.99 4360.51 2061.20 72.13 7.00
   09:11:34.400.25-Aug-2020  11.40 4761.42 4360.51 2061.20 72.13 7.00
   09:11:34.600.25-Aug-2020  11.60 4756.50 4360.51 2061.20 72.13 7.00
   09:11:34.800.25-Aug-2020  11.80 4756.00 4360.51 2061.20 72.12 7.00
   09:11:35.000.25-Aug-2020  12.00 4755.54 4360.51 2061.20 72.12 7.00
   09:11:35.200.25-Aug-2020  12.20 4755.54 4360.51 2061.20 72.12 7.00
   09:11:35.400.25-Aug-2020  12.40 4759.80 4360.51 2061.20 72.12 7.00
   09:11:35.600.25-Aug-2020  12.60 4763.26 4360.51 2061.20 72.12 7.00
   09:11:35.800.25-Aug-2020  12.80 4759.96 4360.51 2061.20 72.12 7.00
   09:11:36.000.25-Aug-2020  13.00 4758.84 4360.51 2061.20 72.12 7.00
   09:11:36.200.25-Aug-2020  13.20 4758.84 4360.51 2061.20 72.12 7.00
   09:11:36.400.25-Aug-2020  13.40 4758.84 4360.51 2061.20 72.12 7.00
   09:11:36.600.25-Aug-2020  13.60 4762.30 4360.51 2061.20 72.12 7.00
   09:11:36.800.25-Aug-2020  13.80 4765.39 4360.51 2061.20 72.12 7.00
   09:11:37.000.25-Aug-2020  14.00 4761.78 4360.51 2061.20 72.12 7.00
   09:11:37.200.25-Aug-2020  14.20 4760.10 4360.51 2061.20 72.12 7.00
   09:11:37.400.25-Aug-2020  14.40 4767.80 4360.51 2061.20 72.12 7.00
   09:11:37.600.25-Aug-2020  14.60 4764.35 4360.51 2061.20 72.12 7.00
   09:11:37.800.25-Aug-2020  14.80 4764.18 4360.51 2061.20 72.12 7.00
   09:11:38.000.25-Aug-2020  15.00 4762.10 4360.51 2061.20 72.12 7.00
   09:11:38.200.25-Aug-2020  15.20 4762.10 4360.51 2061.20 72.12 7.00
   09:11:38.400.25-Aug-2020  15.40 4760.13 4360.51 2061.20 72.12 7.00
   09:11:38.600.25-Aug-2020  15.60 4770.37 4360.51 2061.20 72.12 7.00
   09:11:38.800.25-Aug-2020  15.80 4763.07 4360.51 2061.20 72.12 7.00
   09:11:39.000.25-Aug-2020  16.00 4766.35 4360.51 2061.20 72.12 7.00
   09:11:39.200.25-Aug-2020  16.20 4766.35 4360.51 2061.20 72.12 7.00
   09:11:39.400.25-Aug-2020  16.40 4765.02 4360.51 2061.20 72.12 7.00
   09:11:39.600.25-Aug-2020  16.60 4763.06 4360.51 2061.20 72.12 7.00
   09:11:39.800.25-Aug-2020  16.80 4763.75 4360.51 2061.20 72.12 7.00
   09:11:40.000.25-Aug-2020  17.00 4763.82 4360.51 2061.20 72.12 7.00
   09:11:40.200.25-Aug-2020  17.20 4763.84 4360.51 2061.20 72.12 7.00
   09:11:40.400.25-Aug-2020  17.40 4764.12 4360.51 2061.20 72.12 7.00
   09:11:40.600.25-Aug-2020  17.60 4764.57 4360.51 2061.20 72.12 7.00
   09:11:40.800.25-Aug-2020  17.80 4763.37 4360.51 2061.20 72.12 7.00
   09:11:41.000.25-Aug-2020  18.00 4762.79 4360.51 2061.20 72.12 7.00
   09:11:41.200.25-Aug-2020  18.20 4763.87 4360.51 2061.20 72.12 7.00
   09:11:41.400.25-Aug-2020  18.40 4764.25 4360.51 2061.20 72.12 7.00
   09:11:41.600.25-Aug-2020  18.60 4763.52 4360.51 2061.20 72.12 7.00
   09:11:41.800.25-Aug-2020  18.80 4763.35 4360.51 2061.20 72.12 7.00
   09:11:42.000.25-Aug-2020  19.00 4763.11 4360.51 2061.20 72.12 7.00
   09:11:42.200.25-Aug-2020  19.20 4763.11 4360.51 2061.20 72.12 7.00
   09:11:42.400.25-Aug-2020  19.40 4760.48 4360.51 2061.20 72.12 7.00
   09:11:42.600.25-Aug-2020  19.60 4771.25 4360.51 2061.20 72.12 7.00
   09:11:42.800.25-Aug-2020  19.80 4766.33 4360.51 2061.20 72.12 7.00
   09:11:43.000.25-Aug-2020  20.00 4765.12 4360.51 2061.20 72.12 7.00
   09:11:43.200.25-Aug-2020  20.20 4765.12 4360.51 2061.20 72.12 7.00
   09:11:43.400.25-Aug-2020  20.40 4764.32 4360.51 2061.20 72.12 7.00
   09:11:43.600.25-Aug-2020  20.60 4764.20 4360.51 2061.20 72.12 7.00
   09:11:43.800.25-Aug-2020  20.80 4765.74 4360.51 2061.20 72.12 7.00
   09:11:44.000.25-Aug-2020  21.00 4766.09 4360.51 2061.20 72.12 7.00
   09:11:44.200.25-Aug-2020  21.20 4765.83 4360.51 2061.20 72.12 7.00
   09:11:44.400.25-Aug-2020  21.40 4764.91 4360.51 2061.20 72.12 7.00
   09:11:44.600.25-Aug-2020  21.60 4765.58 4360.51 2061.20 72.12 7.00
   09:11:44.800.25-Aug-2020  21.80 4765.27 4360.51 2061.20 72.12 7.00
   09:11:45.000.25-Aug-2020  22.00 4765.77 4360.51 2061.20 72.12 7.00
   09:11:45.200.25-Aug-2020  22.20 4765.78 4360.51 2061.20 72.12 7.00
   09:11:45.400.25-Aug-2020  22.40 4765.10 4360.51 2061.20 72.12 7.00
   09:11:45.600.25-Aug-2020  22.60 4776.12 4360.51 2061.20 72.12 7.00
   09:11:45.800.25-Aug-2020  22.80 4762.78 4360.51 2061.20 72.12 7.00
