~Version Information
 VERS.                  2.0:   CWLS log ASCII Standard -VERSION 2.0
 WRAP.                   NO:   One line per depth step
~Well Information Block
#MNEM.UNIT     VALUE/NAME     DESCRIPTION
#---------     -----------    ---------------------------
 STRT.S             12:03:19 25-Aug-20: START TIME 12:03:19 25-Aug-20
 STOP.S             12:10:17 25-Aug-20: STOP TIME  12:10:17 25-Aug-20
 STEP.S                   0.00: STEP TIME
 NULL.                 -999.25: NULL VALUE
 DFWT.                        :  DIST FWL TEXT
 DFST.                        :  DIST FSL TEXT
 DMF .             Drill Floor:  DRILL MEAS FROM
 STIM.      09.59.28 01-Jun-20:  START TIME
 DATE.      05.00.00 28-Aug-20:  END TIME
 SPUD.               01-Jun-20:  SPUD DATE
 NREF.                    Grid:  NORTH REFERENCE
 HPTY.       Minimum Curvature:  HOLE POS TYPE
 DMOD.             Drill Model:  DRILL MOD DESC
 SVYD.                  Survey:  SURVEY DESC
 ILTD.               Lithology:  INTERP LTH DESC
 FTOP.          Formation Tops:  FORM TOPS DESC
 SON .        AZ-XX-0905455768:  JOB NUMBER
 WTYP.                Deviated:  WELL TYPE
 COMP.     BP Exploration(Caspian Sea):  COMPANY
 BASE.              Azerbaijan:  LOGGING EQUIPMENT BASE LOCATION
 REGN.                   EESSA:  REGION
 CTRY.              Azerbaijan:  COUNTRY NAME
 FLD .                     ACG:  FIELD NAME
 SRVC.          Turan Drilling:  CONTRACTOR
 WELL.                     B41:  WELL NAME
 RIG .           Central Azeri:  RIG NAME
 DCON.         Sperry Drilling:  DIRECTNL CONTR
 PDAT.          Mean Sea Level:  PERMANENT DATUM
 MDS .        Operator Entered:  MAG DATA SOURCE
 API .                        :  API NUMBER
 CNTY.                        :  COUNTY
 PROV.                        :  PROVINCE
 STAT.                        :  STATE
 UWI .                        :  UNIQUE WELL IDENTIFIER
 LOC .                        :  LOCATION
 LMF .             Drill Floor:  LOG MEASURED FROM
 TVDS.m                  43.29:  TVDSS CORRECTN
 LATI.deg                40.03:  LATITUDE
 LONG.deg                51.35:  LONGITUDE
 WHNS.m                  12.98:  WELL HEAD N/S
 WHEW.m                  -6.62:  WELL HEAD E/W
 UTMX.m              530128.28:  UTM X
 UTMY.m             4433192.49:  UTM Y
 DFWL.m                   0.00:  DISTANCE FWL
 DFSL.m                   0.00:  DISTANCE FSL
 SDEP.m                 378.00:  START DEPTH
 TDD .m                4463.01:  TOTAL DEPTH (DRILLER)
 VSDR.deg               296.18:  VERT SEC DIRECT
 GVFD.g                   1.00:  GRAVITY FIELD
 MFLD.nT              50269.00:  MAGNETIC FIELD
 MDIP.deg                59.50:  MAGNETIC DIP
 MDEC.deg                 6.44:  MAGNETIC DECL
 GRDC.deg                 0.20:  GRID CORRECTION
 AZTC.deg                 6.24:  AZM TOTAL CORR
 EPD .m                   0.00:  ELEVATION
 EGL .m                   0.00:  GROUND ELEVATION
 WDMS.m                 128.20:  WD ELEV
 APD .m                  43.29:  DEPTH ABOVE PD
 AGAP.m                  43.29:  AIR GAP
 VSEW.m                  -6.62:  VERT SEC E/W
 VSNS.m                  12.98:  VERT SEC N/S
 EKB .m                  43.29:  KB ELEVATION
 EDF .m                  43.29:  DF ELEVATION
 TDL .m                 147.00:  TOTAL DEPTH (LOGGER)
 VSC .                       0:  VS TO CLOSURE
 MAGU.                 1849241:  MAGUTM CHECKSUM
~Parameter Information Block
#MNEM.UNIT       Value        Description
#---------     -----------    ---------------------------
 AV  .mps                 0.70:  Ann Velocity 
 AZIF.deg               269.43:  Azm, Final 
 BHAT.        Rotary Steerable:  BHA Type 
 BROT.°/30m              -0.03:  Build Rotating 
 BS  .in                  8.50:  Bit Size 
 BSZ .in                  8.50:  Bit Size 
 BTPL.psig              880.00:  Bit Press Loss 
 CABU.                      No:  Customer Abuse 
 CGEO.          Parviz Guliyev:  Customer Geo 
 COMM.                     DVX:  Run Comments 1 
 TCS .hr                 64.59:  Time Ciculation Ended 
 CV  .mps                 2.17:  Crit Velocity 
 DD1 .            Nonso Okafor:  Direct Drillr 1 
 DDSV.               Geo-Pilot:  DD Service 
 DEFF.%                  98.00:  % Det Eff 
 DLRX.°/30m               0.81:  Dogleg Rot Max 
 DLSO.°/30m               0.55:  Dogleg Oriented 
 DLSX.°/30m               0.81:  Dogleg Str Max 
 DRET.      23.50.00 24-Aug-20:  Drill End Time 
 DRST.      07.34.24 22-Aug-20:  Drill Start Tim 
 DTIM.hr                 15.29:  Time Drilling 
 EDEP.m                4461.01:  End Depth 
 ENG1.       Zam Abdullah Sani:  Engineer 1 
 ENG2.         Dair Mahammadov:  Engineer 2 
 ENG3.          Rustam Gadirov:  Engineer 3 
 ETIM.      07.34.24 26-Aug-20:  End Time 
 FLOI.gpm               550.00:  Flow In 
 FLON.gpm               400.00:  Flow In Min 
 FLOS.cptm                1.00:  Fluid Loss 
 FLOX.gpm               600.00:  Flow In Max 
 FTRO.       Formation Presure:  FTWD Run Obj 
 HFLO.                      No:  High Flow 
 HPRE.                      No:  High Pressure 
 HTEM.                      No:  High Temp 
 HYDO.m                   1.80:  Hydro Offset 
 IFIN.deg                66.72:  Inc, Final 
 IMAX.deg                67.42:  Inc Max 
 IMIN.deg                66.72:  Inc Min 
 IMND.m                4408.37:  Inc Min Depth 
 IMXD.m                4323.37:  Inc Max Depth 
 JARR.                      No:  Jarring 
 LETM.      23.50.00 24-Aug-20:  Log End Time 
 LOST.hr                     0:  Lost Rig Time 
 LSTM.      07.34.24 22-Aug-20:  Log Start Time 
 MDCL.ppm             38000.00:  Mud Chlorides 
 MDES.     Inversion Oil/Synthetic:  Mud Desc 
 DFD .sg                  1.40:  Mud Density 
 MDMN.sg                  1.38:  Dens Mud Min 
 MDMX.sg                  1.41:  Dens Mud Max 
 MOIL.                    70.5:  Run Mud Oil % 
 MOWR.                   68:32:  Run Mud OWR 
 MSND.                    0.01:  Run Mud Sand % 
 MSOL.                   17.68:  Run Mud Solids% 
 DFV .spqt               77.00:  Mud Viscosity 
 MWOD.in                  6.75:  MWD Tool OD 
 MWSI.                      No:  Serv Intrp, MWD 
 OTIM.hr                159.42:  Time Operating 
 PCON.           Look Like New:  Pad Condition 
 PMAX.psia             8730.94:  Press Op, Max 
 PV  .cP                 31.00:  Mud PV 
 RUN .                     900:  Run Number 
 ROPA.m/hr               12.00:  ROP Avg 
 ROPN.m/hr                7.00:  ROP Min 
 ROPX.m/hr               17.00:  ROP Max 
 RPMA.rpm               120.00:  RPM Surface Avg 
 RPMN.rpm                60.00:  RPM Surface Min 
 RPMX.rpm               140.00:  RPM Surface Max 
 RRUN.                    L604:  Rig Run Number 
 RTIM.hr                 10.00:  Time Reaming 
 SAZI.deg               270.56:  Azm, Start 
 SDEP.m                4314.01:  Start Depth 
 SIDD.                      No:  Serv Intrp, DD 
 SINC.deg                67.42:  Inc, Start 
 SPPA.psig             3300.00:  SPP Avg 
 SPPN.psig             1750.00:  SPP Min 
 SPPX.psig             4630.00:  SPP Max 
 STIM.      11.00.00 21-Aug-20:  Start Time 
 SVCS.                 DD, MWD:  Services 
 SVER.                    9.20:  Sperry Version 
 TDAT.m                4461.01:  Tot Depth Attmp 
 TDDF.                      No:  Trip for DD 
 TDLG.m                 147.00:  Tot Depth Loggd 
 TFF .                      No:  Trip for Fail 
 TQAA.f-kp               16.00:  Torque Abs Avg 
 TQAN.f-kp               14.00:  Torque Abs Min 
 TQAX.f-kp               20.00:  Torque Abs Max 
 TRRT.°/30m              -0.14:  Turn Rotating 
 MRT .                    HCIM:  Maximum Recorded Temperature 
 TTMX.degC               78.00:  Max Tool Temp 
 VS01.                90515425:  Virtual Str1 SN 
 VS02.                90545184:  Virtual Str2 SN 
 VS03.                90527809:  Virtual Str3 SN 
 VS04.                90515232:  Virtual Str4 SN 
 VS05.                90621207:  Virtual Str5 SN 
 VS06.                90619737:  Virtual Str6 SN 
 WBMN.klb                 2.00:  WOB Min 
 WITN.          Keith Dischler:  Customer Rep 
 WITN.           Faig Mammadov:  Customer Rep 2 
 WOBA.klb                 5.00:  WOB Avg 
 WOBX.klb                 8.00:  WOB Max 
 YP  .lhf2               32.00:  Yield Point 
~Curve Information Block
#MNEM.UNIT                 API CODE     Curve Description
#---------               -----------    ---------------------------
 TIME.HHMMSS            00 000 000 000:  GT Time & Date
 GTET.sec               00 000 000 000:  GT Elapsed Test Time
 GTPQH.psia             00 000 000 000:  GT HR Quartz Pressure
 GTDEPTH.m              00 000 000 000:  GT Depth
 GTTVD.m                00 000 000 000:  GT True Vertical Depth
 GTTQ.degC              00 000 000 000:  GT Quartz Temperature
 GTTN.NONE              00 000 000 000:  GT Test Number
#Other Information
#
#WARRANTY: Halliburton will use its best efforts to furnish customers with 
#accurate information and interpretations that are part of, and incident to, the services 
#provided.  However, Halliburton cannot and does not warrant the accuracy 
#or correctness of such information and interpretations.  Under no circumstances should any 
#such information or interpretation be relied upon as the sole basis for any drilling, 
#completion, production, or financial decision or any procedure involving any risk to the 
#safety of any drilling venture, drilling rig or its crew or any other third party.  The 
#Customer has full responsibility for all drilling, completion and production operation.  
#Halliburton makes no representations or warranties, either expressed or 
#implied, including, but not limited to, the implied warranties of merchantability or fitness 
#for a particular purpose, with respect to the services rendered.  In no event will 
#Halliburton be liable for failure to obtain any particular results or for 
#any damages, including, but not limited to, indirect, special or consequential damages, 
#resulting from the use of any information or interpretation provided by Halliburton.
#
~A           TIME            GTET   GTPQH  GTDEPTH  GTTVD  GTTQ  GTTN  
   12:03:19.000.25-Aug-2020   0.00 4712.90 4311.51 2042.13 71.67 11.00
   12:03:19.200.25-Aug-2020   0.20 4712.90 4311.51 2042.13 71.67 11.00
   12:03:19.400.25-Aug-2020   0.40 4712.90 4311.51 2042.13 71.67 11.00
   12:03:19.600.25-Aug-2020   0.60 4716.36 4311.51 2042.13 71.67 11.00
   12:03:19.800.25-Aug-2020   0.80 4716.60 4311.51 2042.13 71.67 11.00
   12:03:20.000.25-Aug-2020   1.00 4716.43 4311.51 2042.13 71.67 11.00
   12:03:20.200.25-Aug-2020   1.20 4717.57 4311.51 2042.13 71.67 11.00
   12:03:20.400.25-Aug-2020   1.40 4717.62 4311.51 2042.13 71.67 11.00
   12:03:20.600.25-Aug-2020   1.60 4717.95 4311.51 2042.13 71.67 11.00
   12:03:20.800.25-Aug-2020   1.80 4732.49 4311.51 2042.13 71.67 11.00
   12:03:21.000.25-Aug-2020   2.00 4712.44 4311.51 2042.13 71.67 11.00
   12:03:21.200.25-Aug-2020   2.20 4724.54 4311.51 2042.13 71.67 11.00
   12:03:21.400.25-Aug-2020   2.40 4719.36 4311.51 2042.13 71.67 11.00
   12:03:21.600.25-Aug-2020   2.60 4719.16 4311.51 2042.13 71.67 11.00
   12:03:21.800.25-Aug-2020   2.80 4731.44 4311.51 2042.13 71.67 11.00
   12:03:22.000.25-Aug-2020   3.00 4711.75 4311.51 2042.13 71.67 11.00
   12:03:22.200.25-Aug-2020   3.20 4711.75 4311.51 2042.13 71.67 11.00
   12:03:22.400.25-Aug-2020   3.40 4719.01 4311.51 2042.13 71.67 11.00
   12:03:22.600.25-Aug-2020   3.60 4717.77 4311.51 2042.13 71.67 11.00
   12:03:22.800.25-Aug-2020   3.80 4725.89 4311.51 2042.13 71.67 11.00
   12:03:23.000.25-Aug-2020   4.00 4720.50 4311.51 2042.13 71.67 11.00
   12:03:23.200.25-Aug-2020   4.20 4720.50 4311.51 2042.13 71.67 11.00
   12:03:23.400.25-Aug-2020   4.40 4721.81 4311.51 2042.13 71.67 11.00
   12:03:23.600.25-Aug-2020   4.60 4722.44 4311.51 2042.13 71.67 11.00
   12:03:23.800.25-Aug-2020   4.80 4721.47 4311.51 2042.13 71.67 11.00
   12:03:24.000.25-Aug-2020   5.00 4722.46 4311.51 2042.13 71.67 11.00
   12:03:24.200.25-Aug-2020   5.20 4729.98 4311.51 2042.13 71.67 11.00
   12:03:24.400.25-Aug-2020   5.40 4722.73 4311.51 2042.13 71.67 11.00
   12:03:24.600.25-Aug-2020   5.60 4731.05 4311.51 2042.13 71.67 11.00
   12:03:24.800.25-Aug-2020   5.80 4723.80 4311.51 2042.13 71.67 11.00
   12:03:25.000.25-Aug-2020   6.00 4727.38 4311.51 2042.13 71.67 11.00
   12:03:25.200.25-Aug-2020   6.20 4727.45 4311.51 2042.13 71.67 11.00
   12:03:25.400.25-Aug-2020   6.40 4725.57 4311.51 2042.13 71.67 11.00
   12:03:25.600.25-Aug-2020   6.60 4734.34 4311.51 2042.13 71.67 11.00
   12:03:25.800.25-Aug-2020   6.80 4727.58 4311.51 2042.13 71.67 11.00
   12:03:26.000.25-Aug-2020   7.00 4729.38 4311.51 2042.13 71.67 11.00
   12:03:26.200.25-Aug-2020   7.20 4729.38 4311.51 2042.13 71.67 11.00
   12:03:26.400.25-Aug-2020   7.40 4736.97 4311.51 2042.13 71.67 11.00
   12:03:26.600.25-Aug-2020   7.60 4727.94 4311.51 2042.13 71.67 11.00
   12:03:26.800.25-Aug-2020   7.80 4731.59 4311.51 2042.13 71.67 11.00
   12:03:27.000.25-Aug-2020   8.00 4730.38 4311.51 2042.13 71.67 11.00
   12:03:27.200.25-Aug-2020   8.20 4730.38 4311.51 2042.13 71.67 11.00
   12:03:27.400.25-Aug-2020   8.40 4733.87 4311.51 2042.13 71.67 11.00
   12:03:27.600.25-Aug-2020   8.60 4728.41 4311.51 2042.13 71.67 11.00
   12:03:27.800.25-Aug-2020   8.80 4736.32 4311.51 2042.13 71.67 11.00
   12:03:28.000.25-Aug-2020   9.00 4729.05 4311.51 2042.13 71.67 11.00
   12:03:28.200.25-Aug-2020   9.20 4729.05 4311.51 2042.13 71.67 11.00
   12:03:28.400.25-Aug-2020   9.40 4732.19 4311.51 2042.13 71.67 11.00
   12:03:28.600.25-Aug-2020   9.60 4729.34 4311.51 2042.13 71.67 11.00
   12:03:28.800.25-Aug-2020   9.80 4729.77 4311.51 2042.13 71.67 11.00
   12:03:29.000.25-Aug-2020  10.00 4744.15 4311.51 2042.13 71.67 11.00
   12:03:29.200.25-Aug-2020  10.20 4744.15 4311.51 2042.13 71.67 11.00
   12:03:29.400.25-Aug-2020  10.40 4736.90 4311.51 2042.13 71.67 11.00
   12:03:29.600.25-Aug-2020  10.60 4732.41 4311.51 2042.13 71.67 11.00
   12:03:29.800.25-Aug-2020  10.80 4747.44 4311.51 2042.13 71.67 11.00
   12:03:30.000.25-Aug-2020  11.00 4721.35 4311.51 2042.13 71.67 11.00
   12:03:30.200.25-Aug-2020  11.20 4721.35 4311.51 2042.13 71.67 11.00
   12:03:30.400.25-Aug-2020  11.40 4731.92 4311.51 2042.13 71.67 11.00
   12:03:30.600.25-Aug-2020  11.60 4733.56 4311.51 2042.13 71.67 11.00
   12:03:30.800.25-Aug-2020  11.80 4733.06 4311.51 2042.13 71.67 11.00
   12:03:31.000.25-Aug-2020  12.00 4732.80 4311.51 2042.13 71.67 11.00
   12:03:31.200.25-Aug-2020  12.20 4732.80 4311.51 2042.13 71.67 11.00
   12:03:31.400.25-Aug-2020  12.40 4733.53 4311.51 2042.13 71.67 11.00
   12:03:31.600.25-Aug-2020  12.60 4733.27 4311.51 2042.13 71.67 11.00
   12:03:31.800.25-Aug-2020  12.80 4733.83 4311.51 2042.13 71.67 11.00
   12:03:32.000.25-Aug-2020  13.00 4733.81 4311.51 2042.13 71.67 11.00
   12:03:32.200.25-Aug-2020  13.20 4733.14 4311.51 2042.13 71.67 11.00
   12:03:32.400.25-Aug-2020  13.40 4733.77 4311.51 2042.13 71.67 11.00
   12:03:32.600.25-Aug-2020  13.60 4734.02 4311.51 2042.13 71.67 11.00
   12:03:32.800.25-Aug-2020  13.80 4734.20 4311.51 2042.13 71.67 11.00
   12:03:33.000.25-Aug-2020  14.00 4734.32 4311.51 2042.13 71.67 11.00
   12:03:33.200.25-Aug-2020  14.20 4734.32 4311.51 2042.13 71.67 11.00
   12:03:33.400.25-Aug-2020  14.40 4733.40 4311.51 2042.13 71.67 11.00
   12:03:33.600.25-Aug-2020  14.60 4741.86 4311.51 2042.13 71.67 11.00
   12:03:33.800.25-Aug-2020  14.80 4735.08 4311.51 2042.13 71.67 11.00
   12:03:34.000.25-Aug-2020  15.00 4738.41 4311.51 2042.13 71.67 11.00
   12:03:34.200.25-Aug-2020  15.20 4738.41 4311.51 2042.13 71.67 11.00
   12:03:34.400.25-Aug-2020  15.40 4736.30 4311.51 2042.13 71.67 11.00
   12:03:34.600.25-Aug-2020  15.60 4734.20 4311.51 2042.13 71.67 11.00
   12:03:34.800.25-Aug-2020  15.80 4735.48 4311.51 2042.13 71.67 11.00
   12:03:35.000.25-Aug-2020  16.00 4735.18 4311.51 2042.13 71.67 11.00
   12:03:35.200.25-Aug-2020  16.20 4735.18 4311.51 2042.13 71.67 11.00
   12:03:35.400.25-Aug-2020  16.40 4735.32 4311.51 2042.13 71.67 11.00
   12:03:35.600.25-Aug-2020  16.60 4735.39 4311.51 2042.13 71.67 11.00
   12:03:35.800.25-Aug-2020  16.80 4735.81 4311.51 2042.13 71.67 11.00
   12:03:36.000.25-Aug-2020  17.00 4736.40 4311.51 2042.13 71.67 11.00
   12:03:36.200.25-Aug-2020  17.20 4736.40 4311.51 2042.13 71.67 11.00
   12:03:36.400.25-Aug-2020  17.40 4736.46 4311.51 2042.13 71.67 11.00
   12:03:36.600.25-Aug-2020  17.60 4737.01 4311.51 2042.13 71.67 11.00
   12:03:36.800.25-Aug-2020  17.80 4736.27 4311.51 2042.13 71.66 11.00
   12:03:37.000.25-Aug-2020  18.00 4736.27 4311.51 2042.13 71.66 11.00
   12:03:37.200.25-Aug-2020  18.20 4736.27 4311.51 2042.13 71.66 11.00
   12:03:37.400.25-Aug-2020  18.40 4739.13 4311.51 2042.13 71.66 11.00
   12:03:37.600.25-Aug-2020  18.60 4741.03 4311.51 2042.13 71.66 11.00
   12:03:37.800.25-Aug-2020  18.80 4740.15 4311.51 2042.13 71.66 11.00
   12:03:38.000.25-Aug-2020  19.00 4738.87 4311.51 2042.13 71.66 11.00
   12:03:38.200.25-Aug-2020  19.20 4738.87 4311.51 2042.13 71.66 11.00
   12:03:38.400.25-Aug-2020  19.40 4746.42 4311.51 2042.13 71.66 11.00
   12:03:38.600.25-Aug-2020  19.60 4739.94 4311.51 2042.13 71.66 11.00
   12:03:38.800.25-Aug-2020  19.80 4741.69 4311.51 2042.13 71.66 11.00
   12:03:39.000.25-Aug-2020  20.00 4740.97 4311.51 2042.13 71.66 11.00
   12:03:39.200.25-Aug-2020  20.20 4740.97 4311.51 2042.13 71.66 11.00
   12:03:39.400.25-Aug-2020  20.40 4739.01 4311.51 2042.13 71.66 11.00
   12:03:39.600.25-Aug-2020  20.60 4754.42 4311.51 2042.13 71.66 11.00
   12:03:39.800.25-Aug-2020  20.80 4733.34 4311.51 2042.13 71.66 11.00
   12:03:40.000.25-Aug-2020  21.00 4747.77 4311.51 2042.13 71.66 11.00
   12:03:40.200.25-Aug-2020  21.20 4747.77 4311.51 2042.13 71.66 11.00
   12:03:40.400.25-Aug-2020  21.40 4741.75 4311.51 2042.13 71.66 11.00
   12:03:40.600.25-Aug-2020  21.60 4741.38 4311.51 2042.13 71.66 11.00
   12:03:40.800.25-Aug-2020  21.80 4757.38 4311.51 2042.13 71.66 11.00
   12:03:41.000.25-Aug-2020  22.00 4734.69 4311.51 2042.13 71.66 11.00
   12:03:41.200.25-Aug-2020  22.20 4734.69 4311.51 2042.13 71.66 11.00
   12:03:41.400.25-Aug-2020  22.40 4744.32 4311.51 2042.13 71.66 11.00
