~Version Information
 VERS.                  2.0:   CWLS log ASCII Standard -VERSION 2.0
 WRAP.                   NO:   One line per depth step
~Well Information Block
#MNEM.UNIT     VALUE/NAME     DESCRIPTION
#---------     -----------    ---------------------------
 STRT.S             11:11:27 25-Aug-20: START TIME 11:11:27 25-Aug-20
 STOP.S             11:18:24 25-Aug-20: STOP TIME  11:18:24 25-Aug-20
 STEP.S                   0.00: STEP TIME
 NULL.                 -999.25: NULL VALUE
 DFWT.                        :  DIST FWL TEXT
 DFST.                        :  DIST FSL TEXT
 DMF .             Drill Floor:  DRILL MEAS FROM
 STIM.      09.59.28 01-Jun-20:  START TIME
 DATE.      05.00.00 28-Aug-20:  END TIME
 SPUD.               01-Jun-20:  SPUD DATE
 NREF.                    Grid:  NORTH REFERENCE
 HPTY.       Minimum Curvature:  HOLE POS TYPE
 DMOD.             Drill Model:  DRILL MOD DESC
 SVYD.                  Survey:  SURVEY DESC
 ILTD.               Lithology:  INTERP LTH DESC
 FTOP.          Formation Tops:  FORM TOPS DESC
 SON .        AZ-XX-0905455768:  JOB NUMBER
 WTYP.                Deviated:  WELL TYPE
 COMP.     BP Exploration(Caspian Sea):  COMPANY
 BASE.              Azerbaijan:  LOGGING EQUIPMENT BASE LOCATION
 REGN.                   EESSA:  REGION
 CTRY.              Azerbaijan:  COUNTRY NAME
 FLD .                     ACG:  FIELD NAME
 SRVC.          Turan Drilling:  CONTRACTOR
 WELL.                     B41:  WELL NAME
 RIG .           Central Azeri:  RIG NAME
 DCON.         Sperry Drilling:  DIRECTNL CONTR
 PDAT.          Mean Sea Level:  PERMANENT DATUM
 MDS .        Operator Entered:  MAG DATA SOURCE
 API .                        :  API NUMBER
 CNTY.                        :  COUNTY
 PROV.                        :  PROVINCE
 STAT.                        :  STATE
 UWI .                        :  UNIQUE WELL IDENTIFIER
 LOC .                        :  LOCATION
 LMF .             Drill Floor:  LOG MEASURED FROM
 TVDS.m                  43.29:  TVDSS CORRECTN
 LATI.deg                40.03:  LATITUDE
 LONG.deg                51.35:  LONGITUDE
 WHNS.m                  12.98:  WELL HEAD N/S
 WHEW.m                  -6.62:  WELL HEAD E/W
 UTMX.m              530128.28:  UTM X
 UTMY.m             4433192.49:  UTM Y
 DFWL.m                   0.00:  DISTANCE FWL
 DFSL.m                   0.00:  DISTANCE FSL
 SDEP.m                 378.00:  START DEPTH
 TDD .m                4463.01:  TOTAL DEPTH (DRILLER)
 VSDR.deg               296.18:  VERT SEC DIRECT
 GVFD.g                   1.00:  GRAVITY FIELD
 MFLD.nT              50269.00:  MAGNETIC FIELD
 MDIP.deg                59.50:  MAGNETIC DIP
 MDEC.deg                 6.44:  MAGNETIC DECL
 GRDC.deg                 0.20:  GRID CORRECTION
 AZTC.deg                 6.24:  AZM TOTAL CORR
 EPD .m                   0.00:  ELEVATION
 EGL .m                   0.00:  GROUND ELEVATION
 WDMS.m                 128.20:  WD ELEV
 APD .m                  43.29:  DEPTH ABOVE PD
 AGAP.m                  43.29:  AIR GAP
 VSEW.m                  -6.62:  VERT SEC E/W
 VSNS.m                  12.98:  VERT SEC N/S
 EKB .m                  43.29:  KB ELEVATION
 EDF .m                  43.29:  DF ELEVATION
 TDL .m                 147.00:  TOTAL DEPTH (LOGGER)
 VSC .                       0:  VS TO CLOSURE
 MAGU.                 1849241:  MAGUTM CHECKSUM
~Parameter Information Block
#MNEM.UNIT       Value        Description
#---------     -----------    ---------------------------
 AV  .mps                 0.70:  Ann Velocity 
 AZIF.deg               269.43:  Azm, Final 
 BHAT.        Rotary Steerable:  BHA Type 
 BROT.°/30m              -0.03:  Build Rotating 
 BS  .in                  8.50:  Bit Size 
 BSZ .in                  8.50:  Bit Size 
 BTPL.psig              880.00:  Bit Press Loss 
 CABU.                      No:  Customer Abuse 
 CGEO.          Parviz Guliyev:  Customer Geo 
 COMM.                     ìra:  Run Comments 1 
 TCS .hr                 64.59:  Time Ciculation Ended 
 CV  .mps                 2.17:  Crit Velocity 
 DD1 .            Nonso Okafor:  Direct Drillr 1 
 DDSV.               Geo-Pilot:  DD Service 
 DEFF.%                  98.00:  % Det Eff 
 DLRX.°/30m               0.81:  Dogleg Rot Max 
 DLSO.°/30m               0.55:  Dogleg Oriented 
 DLSX.°/30m               0.81:  Dogleg Str Max 
 DRET.      23.50.00 24-Aug-20:  Drill End Time 
 DRST.      07.34.24 22-Aug-20:  Drill Start Tim 
 DTIM.hr                 15.29:  Time Drilling 
 EDEP.m                4461.01:  End Depth 
 ENG1.       Zam Abdullah Sani:  Engineer 1 
 ENG2.         Dair Mahammadov:  Engineer 2 
 ENG3.          Rustam Gadirov:  Engineer 3 
 ETIM.      07.34.24 26-Aug-20:  End Time 
 FLOI.gpm               550.00:  Flow In 
 FLON.gpm               400.00:  Flow In Min 
 FLOS.cptm                1.00:  Fluid Loss 
 FLOX.gpm               600.00:  Flow In Max 
 FTRO.       Formation Presure:  FTWD Run Obj 
 HFLO.                      No:  High Flow 
 HPRE.                      No:  High Pressure 
 HTEM.                      No:  High Temp 
 HYDO.m                   1.80:  Hydro Offset 
 IFIN.deg                66.72:  Inc, Final 
 IMAX.deg                67.42:  Inc Max 
 IMIN.deg                66.72:  Inc Min 
 IMND.m                4408.37:  Inc Min Depth 
 IMXD.m                4323.37:  Inc Max Depth 
 JARR.                      No:  Jarring 
 LETM.      23.50.00 24-Aug-20:  Log End Time 
 LOST.hr                     0:  Lost Rig Time 
 LSTM.      07.34.24 22-Aug-20:  Log Start Time 
 MDCL.ppm             38000.00:  Mud Chlorides 
 MDES.     Inversion Oil/Synthetic:  Mud Desc 
 DFD .sg                  1.40:  Mud Density 
 MDMN.sg                  1.38:  Dens Mud Min 
 MDMX.sg                  1.41:  Dens Mud Max 
 MOIL.                    70.5:  Run Mud Oil % 
 MOWR.                   68:32:  Run Mud OWR 
 MSND.                    0.01:  Run Mud Sand % 
 MSOL.                   17.68:  Run Mud Solids% 
 DFV .spqt               77.00:  Mud Viscosity 
 MWOD.in                  6.75:  MWD Tool OD 
 MWSI.                      No:  Serv Intrp, MWD 
 OTIM.hr                159.42:  Time Operating 
 PCON.           Look Like New:  Pad Condition 
 PMAX.psia             8730.94:  Press Op, Max 
 PV  .cP                 31.00:  Mud PV 
 RUN .                     900:  Run Number 
 ROPA.m/hr               12.00:  ROP Avg 
 ROPN.m/hr                7.00:  ROP Min 
 ROPX.m/hr               17.00:  ROP Max 
 RPMA.rpm               120.00:  RPM Surface Avg 
 RPMN.rpm                60.00:  RPM Surface Min 
 RPMX.rpm               140.00:  RPM Surface Max 
 RRUN.                    L604:  Rig Run Number 
 RTIM.hr                 10.00:  Time Reaming 
 SAZI.deg               270.56:  Azm, Start 
 SDEP.m                4314.01:  Start Depth 
 SIDD.                      No:  Serv Intrp, DD 
 SINC.deg                67.42:  Inc, Start 
 SPPA.psig             3300.00:  SPP Avg 
 SPPN.psig             1750.00:  SPP Min 
 SPPX.psig             4630.00:  SPP Max 
 STIM.      11.00.00 21-Aug-20:  Start Time 
 SVCS.                 DD, MWD:  Services 
 SVER.                    9.20:  Sperry Version 
 TDAT.m                4461.01:  Tot Depth Attmp 
 TDDF.                      No:  Trip for DD 
 TDLG.m                 147.00:  Tot Depth Loggd 
 TFF .                      No:  Trip for Fail 
 TQAA.f-kp               16.00:  Torque Abs Avg 
 TQAN.f-kp               14.00:  Torque Abs Min 
 TQAX.f-kp               20.00:  Torque Abs Max 
 TRRT.°/30m              -0.14:  Turn Rotating 
 MRT .                    HCIM:  Maximum Recorded Temperature 
 TTMX.degC               78.00:  Max Tool Temp 
 VS01.                90515425:  Virtual Str1 SN 
 VS02.                90545184:  Virtual Str2 SN 
 VS03.                90527809:  Virtual Str3 SN 
 VS04.                90515232:  Virtual Str4 SN 
 VS05.                90621207:  Virtual Str5 SN 
 VS06.                90619737:  Virtual Str6 SN 
 WBMN.klb                 2.00:  WOB Min 
 WITN.          Keith Dischler:  Customer Rep 
 WITN.           Faig Mammadov:  Customer Rep 2 
 WOBA.klb                 5.00:  WOB Avg 
 WOBX.klb                 8.00:  WOB Max 
 YP  .lhf2               32.00:  Yield Point 
~Curve Information Block
#MNEM.UNIT                 API CODE     Curve Description
#---------               -----------    ---------------------------
 TIME.HHMMSS            00 000 000 000:  GT Time & Date
 GTET.sec               00 000 000 000:  GT Elapsed Test Time
 GTPQH.psia             00 000 000 000:  GT HR Quartz Pressure
 GTDEPTH.m              00 000 000 000:  GT Depth
 GTTVD.m                00 000 000 000:  GT True Vertical Depth
 GTTQ.degC              00 000 000 000:  GT Quartz Temperature
 GTTN.NONE              00 000 000 000:  GT Test Number
#Other Information
#
#WARRANTY: Halliburton will use its best efforts to furnish customers with 
#accurate information and interpretations that are part of, and incident to, the services 
#provided.  However, Halliburton cannot and does not warrant the accuracy 
#or correctness of such information and interpretations.  Under no circumstances should any 
#such information or interpretation be relied upon as the sole basis for any drilling, 
#completion, production, or financial decision or any procedure involving any risk to the 
#safety of any drilling venture, drilling rig or its crew or any other third party.  The 
#Customer has full responsibility for all drilling, completion and production operation.  
#Halliburton makes no representations or warranties, either expressed or 
#implied, including, but not limited to, the implied warranties of merchantability or fitness 
#for a particular purpose, with respect to the services rendered.  In no event will 
#Halliburton be liable for failure to obtain any particular results or for 
#any damages, including, but not limited to, indirect, special or consequential damages, 
#resulting from the use of any information or interpretation provided by Halliburton.
#
~A           TIME            GTET   GTPQH  GTDEPTH  GTTVD  GTTQ  GTTN  
# ...
   11:17:06.000.25-Aug-2020 339.00 3350.24 4320.01 2045.42 71.55 10.00
   11:17:06.200.25-Aug-2020 339.20 3350.24 4320.01 2045.42 71.55 10.00
   11:17:06.400.25-Aug-2020 339.40 3349.63 4320.01 2045.42 71.55 10.00
   11:17:06.600.25-Aug-2020 339.60 3349.64 4320.01 2045.42 71.55 10.00
   11:17:06.800.25-Aug-2020 339.80 3350.48 4320.01 2045.42 71.55 10.00
   11:17:07.000.25-Aug-2020 340.00 3350.00 4320.01 2045.42 71.55 10.00
   11:17:07.200.25-Aug-2020 340.20 3350.00 4320.01 2045.42 71.55 10.00
   11:17:07.400.25-Aug-2020 340.40 3350.44 4320.01 2045.42 71.55 10.00
   11:17:07.600.25-Aug-2020 340.60 3350.41 4320.01 2045.42 71.55 10.00
   11:17:07.800.25-Aug-2020 340.80 3349.56 4320.01 2045.42 71.55 10.00
   11:17:08.000.25-Aug-2020 341.00 3349.72 4320.01 2045.42 71.55 10.00
   11:17:08.200.25-Aug-2020 341.20 3349.72 4320.01 2045.42 71.55 10.00
   11:17:08.400.25-Aug-2020 341.40 3350.16 4320.01 2045.42 71.55 10.00
   11:17:08.600.25-Aug-2020 341.60 3349.45 4320.01 2045.42 71.55 10.00
   11:17:08.800.25-Aug-2020 341.80 3350.21 4320.01 2045.42 71.55 10.00
   11:17:09.000.25-Aug-2020 342.00 3350.28 4320.01 2045.42 71.55 10.00
   11:17:09.200.25-Aug-2020 342.20 3349.87 4320.01 2045.42 71.55 10.00
   11:17:09.400.25-Aug-2020 342.40 3349.91 4320.01 2045.42 71.55 10.00
   11:17:09.600.25-Aug-2020 342.60 3350.17 4320.01 2045.42 71.55 10.00
   11:17:09.800.25-Aug-2020 342.80 3350.08 4320.01 2045.42 71.55 10.00
   11:17:10.000.25-Aug-2020 343.00 3349.91 4320.01 2045.42 71.55 10.00
   11:17:10.200.25-Aug-2020 343.20 3349.91 4320.01 2045.42 71.55 10.00
   11:17:10.400.25-Aug-2020 343.40 3350.10 4320.01 2045.42 71.55 10.00
   11:17:10.600.25-Aug-2020 343.60 3350.01 4320.01 2045.42 71.55 10.00
   11:17:10.800.25-Aug-2020 343.80 3350.03 4320.01 2045.42 71.55 10.00
   11:17:11.000.25-Aug-2020 344.00 3350.06 4320.01 2045.42 71.55 10.00
   11:17:11.200.25-Aug-2020 344.20 3350.06 4320.01 2045.42 71.55 10.00
   11:17:11.400.25-Aug-2020 344.40 3350.02 4320.01 2045.42 71.55 10.00
   11:17:11.600.25-Aug-2020 344.60 3350.02 4320.01 2045.42 71.55 10.00
   11:17:11.800.25-Aug-2020 344.80 3350.30 4320.01 2045.42 71.55 10.00
   11:17:12.000.25-Aug-2020 345.00 3349.57 4320.01 2045.42 71.55 10.00
   11:17:12.200.25-Aug-2020 345.20 3350.15 4320.01 2045.42 71.55 10.00
   11:17:12.400.25-Aug-2020 345.40 3350.26 4320.01 2045.42 71.55 10.00
   11:17:12.600.25-Aug-2020 345.60 3349.82 4320.01 2045.42 71.55 10.00
   11:17:12.800.25-Aug-2020 345.80 3349.91 4320.01 2045.42 71.55 10.00
   11:17:13.000.25-Aug-2020 346.00 3350.15 4320.01 2045.42 71.55 10.00
   11:17:13.200.25-Aug-2020 346.20 3350.05 4320.01 2045.42 71.55 10.00
   11:17:13.400.25-Aug-2020 346.40 3349.92 4320.01 2045.42 71.55 10.00
   11:17:13.600.25-Aug-2020 346.60 3350.07 4320.01 2045.42 71.55 10.00
   11:17:13.800.25-Aug-2020 346.80 3350.08 4320.01 2045.42 71.55 10.00
   11:17:14.000.25-Aug-2020 347.00 3350.01 4320.01 2045.42 71.55 10.00
   11:17:14.200.25-Aug-2020 347.20 3350.01 4320.01 2045.42 71.55 10.00
   11:17:14.400.25-Aug-2020 347.40 3350.05 4320.01 2045.42 71.55 10.00
   11:17:14.600.25-Aug-2020 347.60 3350.03 4320.01 2045.42 71.55 10.00
   11:17:14.800.25-Aug-2020 347.80 3350.03 4320.01 2045.42 71.55 10.00
   11:17:15.000.25-Aug-2020 348.00 3349.86 4320.01 2045.42 71.55 10.00
   11:17:15.200.25-Aug-2020 348.20 3349.86 4320.01 2045.42 71.55 10.00
   11:17:15.400.25-Aug-2020 348.40 3349.91 4320.01 2045.42 71.55 10.00
   11:17:15.600.25-Aug-2020 348.60 3349.57 4320.01 2045.42 71.55 10.00
   11:17:15.800.25-Aug-2020 348.80 3350.24 4320.01 2045.42 71.55 10.00
   11:17:16.000.25-Aug-2020 349.00 3350.09 4320.01 2045.42 71.55 10.00
   11:17:16.200.25-Aug-2020 349.20 3350.09 4320.01 2045.42 71.55 10.00
   11:17:16.400.25-Aug-2020 349.40 3350.33 4320.01 2045.42 71.55 10.00
   11:17:16.600.25-Aug-2020 349.60 3350.38 4320.01 2045.42 71.55 10.00
   11:17:16.800.25-Aug-2020 349.80 3349.58 4320.01 2045.42 71.55 10.00
   11:17:17.000.25-Aug-2020 350.00 3349.74 4320.01 2045.42 71.55 10.00
   11:17:17.200.25-Aug-2020 350.20 3350.65 4320.01 2045.42 71.55 10.00
   11:17:17.400.25-Aug-2020 350.40 3350.19 4320.01 2045.42 71.55 10.00
   11:17:17.600.25-Aug-2020 350.60 3349.49 4320.01 2045.42 71.55 10.00
   11:17:17.800.25-Aug-2020 350.80 3350.18 4320.01 2045.42 71.55 10.00
   11:17:18.000.25-Aug-2020 351.00 3350.28 4320.01 2045.42 71.55 10.00
   11:17:18.200.25-Aug-2020 351.20 3350.28 4320.01 2045.42 71.55 10.00
   11:17:18.400.25-Aug-2020 351.40 3349.56 4320.01 2045.42 71.55 10.00
   11:17:18.600.25-Aug-2020 351.60 3350.73 4320.01 2045.42 71.55 10.00
   11:17:18.800.25-Aug-2020 351.80 3349.98 4320.01 2045.42 71.55 10.00
   11:17:19.000.25-Aug-2020 352.00 3349.58 4320.01 2045.42 71.55 10.00
   11:17:19.200.25-Aug-2020 352.20 3349.58 4320.01 2045.42 71.55 10.00
   11:17:19.400.25-Aug-2020 352.40 3350.71 4320.01 2045.42 71.55 10.00
   11:17:19.600.25-Aug-2020 352.60 3349.80 4320.01 2045.42 71.55 10.00
   11:17:19.800.25-Aug-2020 352.80 3349.76 4320.01 2045.42 71.55 10.00
   11:17:20.000.25-Aug-2020 353.00 3350.28 4320.01 2045.42 71.55 10.00
   11:17:20.200.25-Aug-2020 353.20 3350.25 4320.01 2045.42 71.55 10.00
   11:17:20.400.25-Aug-2020 353.40 3350.25 4320.01 2045.42 71.55 10.00
   11:17:20.600.25-Aug-2020 353.60 3350.25 4320.01 2045.42 71.55 10.00
   11:17:20.800.25-Aug-2020 353.80 3350.18 4320.01 2045.42 71.55 10.00
   11:17:21.000.25-Aug-2020 354.00 3350.02 4320.01 2045.42 71.55 10.00
   11:17:21.200.25-Aug-2020 354.20 3349.94 4320.01 2045.42 71.55 10.00
   11:17:21.400.25-Aug-2020 354.40 3350.06 4320.01 2045.42 71.55 10.00
   11:17:21.600.25-Aug-2020 354.60 3350.09 4320.01 2045.42 71.55 10.00
   11:17:21.800.25-Aug-2020 354.80 3350.01 4320.01 2045.42 71.55 10.00
   11:17:22.000.25-Aug-2020 355.00 3349.98 4320.01 2045.42 71.55 10.00
   11:17:22.200.25-Aug-2020 355.20 3349.98 4320.01 2045.42 71.55 10.00
   11:17:22.400.25-Aug-2020 355.40 3350.02 4320.01 2045.42 71.55 10.00
   11:17:22.600.25-Aug-2020 355.60 3349.88 4320.01 2045.42 71.55 10.00
   11:17:22.800.25-Aug-2020 355.80 3350.49 4320.01 2045.42 71.55 10.00
   11:17:23.000.25-Aug-2020 356.00 3349.92 4320.01 2045.42 71.55 10.00
   11:17:23.200.25-Aug-2020 356.20 3349.92 4320.01 2045.42 71.55 10.00
   11:17:23.400.25-Aug-2020 356.40 3350.25 4320.01 2045.42 71.55 10.00
   11:17:23.600.25-Aug-2020 356.60 3350.08 4320.01 2045.42 71.55 10.00
   11:17:23.800.25-Aug-2020 356.80 3349.87 4320.01 2045.42 71.55 10.00
   11:17:24.000.25-Aug-2020 357.00 3349.98 4320.01 2045.42 71.55 10.00
   11:17:24.200.25-Aug-2020 357.20 3349.98 4320.01 2045.42 71.55 10.00
   11:17:24.400.25-Aug-2020 357.40 3349.98 4320.01 2045.42 71.55 10.00
   11:17:24.600.25-Aug-2020 357.60 3350.00 4320.01 2045.42 71.55 10.00
   11:17:24.800.25-Aug-2020 357.80 3350.05 4320.01 2045.42 71.55 10.00
   11:17:25.000.25-Aug-2020 358.00 3350.05 4320.01 2045.42 71.55 10.00
   11:17:25.200.25-Aug-2020 358.20 3350.05 4320.01 2045.42 71.55 10.00
   11:17:25.400.25-Aug-2020 358.40 3350.03 4320.01 2045.42 71.55 10.00
   11:17:25.600.25-Aug-2020 358.60 3350.02 4320.01 2045.42 71.55 10.00
   11:17:25.800.25-Aug-2020 358.80 3350.02 4320.01 2045.42 71.55 10.00
   11:17:26.000.25-Aug-2020 359.00 3349.71 4320.01 2045.42 71.55 10.00
   11:17:26.200.25-Aug-2020 359.20 3350.31 4320.01 2045.42 71.55 10.00
   11:17:26.400.25-Aug-2020 359.40 3350.25 4320.01 2045.42 71.55 10.00
   11:17:26.600.25-Aug-2020 359.60 3349.68 4320.01 2045.42 71.55 10.00
   11:17:26.800.25-Aug-2020 359.80 3350.03 4320.01 2045.42 71.55 10.00
   11:17:27.000.25-Aug-2020 360.00 3350.21 4320.01 2045.42 71.55 10.00
   11:17:27.200.25-Aug-2020 360.20 3349.93 4320.01 2045.42 71.55 10.00
   11:17:27.400.25-Aug-2020 360.40 3349.52 4320.01 2045.42 71.55 10.00
   11:17:27.600.25-Aug-2020 360.60 3350.67 4320.01 2045.42 71.55 10.00
   11:17:27.800.25-Aug-2020 360.80 3350.07 4320.01 2045.42 71.55 10.00
   11:17:28.000.25-Aug-2020 361.00 3349.41 4320.01 2045.42 71.55 10.00
   11:17:28.200.25-Aug-2020 361.20 3349.41 4320.01 2045.42 71.55 10.00
   11:17:28.400.25-Aug-2020 361.40 3350.83 4320.01 2045.42 71.55 10.00
