~Version Information
 VERS.                  2.0:   CWLS log ASCII Standard -VERSION 2.0
 WRAP.                   NO:   One line per depth step
~Well Information Block
#MNEM.UNIT     VALUE/NAME     DESCRIPTION
#---------     -----------    ---------------------------
 STRT.S             22:05:00 17-May-20: START TIME 22:05:00 17-May-20
 STOP.S             22:12:03 17-May-20: STOP TIME  22:12:03 17-May-20
 STEP.S                   0.00: STEP TIME
 NULL.                 -999.25: NULL VALUE
 UNIT.                     N/A:  LOGGING EQUIPMENT ID
 DCON.         Sperry Drilling:  DIRECTNL CONTR
 DOE .                     N/A:  DOE NUMBER
 JOBN.        AZ-XX-0906252240:  JOB TICKET NUMB
 MWDS.                     N/A:  MWD SHOP
 PROV.                    Baku:  PROVINCE
 STAT.                    Baku:  STATE NAME
 REGN.                   EESSA:  REGION
 BASE.              Azerbaijan:  LOGGING EQUIPMENT BASE LOCATION
 UWI .                     N/A:  UNIQUE WELL IDENTIFIER
 API .                     N/A:  API NUMBER
 MDS .        Operator Entered:  MAG DATA SOURCE
 WTYP.                Deviated:  WELL TYPE
 COMP.     BP Exploration (Caspian Sea) Ltd.:  COMPANY
 SRVC.          Turan Drilling:  CONTRACTOR
 WELL.           J23 (Slot 07):  WELL NAME
 CTRY.              Azerbaijan:  COUNTRY NAME
 FLD .                     ACG:  FIELD NAME
 PDAT.          Mean Sea Level:  PERMANENT DATUM
 RIG .             West Chirag:  RIG NAME
 SON .        AZ-XX-0906252240:  JOB NUMBER
 FTOP.          Formation Tops:  FORM TOPS DESC
 ILTD.               Lithology:  INTERP LTH DESC
 SVYD.                  Survey:  SURVEY DESC
 DMOD.             Drill Model:  DRILL MOD DESC
 HPTY.       Minimum Curvature:  HOLE POS TYPE
 NREF.                    Grid:  NORTH REFERENCE
 SPUD.               27-Aug-20:  SPUD DATE
 DATE.      00.00.00 19-May-20:  END TIME
 STIM.      03.00.00 25-Mar-20:  START TIME
 DMF .             Drill Floor:  DRILL MEAS FROM
 DFST.                        :  DIST FSL TEXT
 DFWT.                        :  DIST FWL TEXT
 CNTY.                        :  COUNTY
 LOC .                        :  LOCATION
 LMF .             Drill Floor:  LOG MEASURED FROM
 VSNS.m                   9.43:  VERT SEC N/S
 VSEW.m                  -8.91:  VERT SEC E/W
 AGAP.m                  43.00:  AIR GAP
 DEP .m                 354.17:  DEPTH
 APD .m                  43.00:  DEPTH ABOVE PD
 WDMS.m                 169.80:  WD ELEV
 EGL .m                   0.00:  GROUND ELEVATION
 EPD .m                   0.00:  ELEVATION
 AZTC.deg                 6.31:  AZM TOTAL CORR
 GRDC.deg                 0.14:  GRID CORRECTION
 MDEC.deg                 6.45:  MAGNETIC DECL
 MDIP.deg                59.56:  MAGNETIC DIP
 MFLD.nT              50295.00:  MAGNETIC FIELD
 GVFD.g                   1.00:  GRAVITY FIELD
 VSDR.deg               179.88:  VERT SEC DIRECT
 TDD .m                5150.01:  TOTAL DEPTH (DRILLER)
 SDEP.m                 864.00:  START DEPTH
 DFSL.m                   0.00:  DISTANCE FSL
 DFWL.m                   0.00:  DISTANCE FWL
 UTMY.m             4443793.85:  UTM Y
 UTMX.m              519005.06:  UTM X
 WHEW.m                  -8.91:  WELL HEAD E/W
 WHNS.m                   9.43:  WELL HEAD N/S
 LONG.deg                51.22:  LONGITUDE
 LATI.deg                40.13:  LATITUDE
 TVDS.m                  43.00:  TVDSS CORRECTN
 EKB .m                   0.00:  KB ELEVATION
 EDF .m                  43.00:  DF ELEVATION
 TDL .m                 363.00:  TOTAL DEPTH (LOGGER)
 MAGU.                 1850802:  MAGUTM CHECKSUM
 VSC .                       0:  VS TO CLOSURE
~Parameter Information Block
#MNEM.UNIT       Value        Description
#---------     -----------    ---------------------------
 AV  .mps                 2.30:  Ann Velocity 
 AVMX.mps                 4.40:  Max Ann Veloc 
 AZIF.deg               110.24:  Azm, Final 
 BHAT.        Rotary Steerable:  BHA Type 
 BREV.rev               331.00:  Rev Bit Total 
 BROT.°/30m               0.00:  Build Rotating 
 BS  .in                  8.50:  Bit Size 
 BSZ .in                  8.50:  Bit Size 
 BTPL.psig              585.00:  Bit Press Loss 
 CABU.                     Yes:  Customer Abuse 
 COMM.                     íe:  Run Comments 1 
 TCS .hr                122.75:  Time Ciculation Ended 
 CV  .mps                 2.67:  Crit Velocity 
 CVMX.mps                 3.56:  Max Crit Veloc 
 DD1 .          Rashad Habibov:  Direct Drillr 1 
 DD2 .         Rasim Ibrahimov:  Direct Drillr 2 
 DDSV.               Geo-Pilot:  DD Service 
 DEFF.%                  98.00:  % Det Eff 
 DLRX.°/30m               0.75:  Dogleg Rot Max 
 DLSO.°/30m               1.25:  Dogleg Oriented 
 DLSX.°/30m               2.06:  Dogleg Str Max 
 DRET.      07.45.00 17-May-20:  Drill End Time 
 DRST.      22.50.00 15-May-20:  Drill Start Tim 
 DTIM.hr                 20.75:  Time Drilling 
 EDEP.m                5124.01:  End Depth 
 ENG1.           Eldar Hajiyev:  Engineer 1 
 ENG2.        Marcelo Sandoval:  Engineer 2 
 ENG3.        Davud huseynzada:  Engineer 3 
 ENG4.          Ruslan Safarov:  Engineer 4 
 ETIM.      04.33.00 23-May-20:  End Time 
 FLOI.gpm               450.00:  Flow In 
 FLON.gpm               400.00:  Flow In Min 
 FLOS.cptm                0.00:  Fluid Loss 
 FLOX.gpm               500.00:  Flow In Max 
 FTRO.       Formation Presure:  FTWD Run Obj 
 HFLO.                      No:  High Flow 
 HPRE.                     Yes:  High Pressure 
 HTEM.                      No:  High Temp 
 HYDO.m                   1.80:  Hydro Offset 
 IFIN.deg                75.06:  Inc, Final 
 IMAX.deg                75.38:  Inc Max 
 IMIN.deg                74.69:  Inc Min 
 IMND.m                5027.38:  Inc Min Depth 
 IMXD.m                4771.61:  Inc Max Depth 
 JARR.                      No:  Jarring 
 LETM.      07.45.00 17-May-20:  Log End Time 
 LOST.hr                     0:  Lost Rig Time 
 LSTM.      22.50.00 15-May-20:  Log Start Time 
 MDCL.ppm             42000.00:  Mud Chlorides 
 MDES.     Inversion Oil/Synthetic:  Mud Desc 
 DFD .sg                  1.34:  Mud Density 
 MDMN.sg                  1.34:  Dens Mud Min 
 MDMX.sg                  1.34:  Dens Mud Max 
 MOIL.                       0:  Run Mud Oil % 
 MOWR.                   67:33:  Run Mud OWR 
 MSND.                       0:  Run Mud Sand % 
 MSOL.                     1.8:  Run Mud Solids% 
 DFV .spqt               76.00:  Mud Viscosity 
 MWOD.in                  6.75:  MWD Tool OD 
 MWSI.                      No:  Serv Intrp, MWD 
 OTIM.hr                228.19:  Time Operating 
 PCON.           Look Like New:  Pad Condition 
 PMAX.psia             6164.70:  Press Op, Max 
 PV  .cP                 28.00:  Mud PV 
 RUN .                     900:  Run Number 
 ROPA.m/hr               19.00:  ROP Avg 
 ROPN.m/hr               11.00:  ROP Min 
 ROPX.m/hr               36.00:  ROP Max 
 RPMA.rpm               120.00:  RPM Surface Avg 
 RPMN.rpm               120.00:  RPM Surface Min 
 RPMX.rpm               120.00:  RPM Surface Max 
 RRUN.                    L604:  Rig Run Number 
 RTIM.hr                  7.00:  Time Reaming 
 SAZI.deg               109.27:  Azm, Start 
 SDEP.m                4761.01:  Start Depth 
 SIDD.                      No:  Serv Intrp, DD 
 SINC.deg                75.38:  Inc, Start 
 SPPA.psig             3574.00:  SPP Avg 
 SPPN.psig             3475.00:  SPP Min 
 SPPX.psig             3791.00:  SPP Max 
 STIM.      07.08.48 13-May-20:  Start Time 
 SVCS.                 DD, MWD:  Services 
 SVER.                    9.20:  Sperry Version 
 TDAT.m                 363.00:  Tot Depth Attmp 
 TDDF.                      No:  Trip for DD 
 TDLG.m                 363.00:  Tot Depth Loggd 
 TFF .                      No:  Trip for Fail 
 TQAA.f-kp               20.00:  Torque Abs Avg 
 TQAN.f-kp               18.00:  Torque Abs Min 
 TQAX.f-kp               22.00:  Torque Abs Max 
 TRRT.°/30m              -0.35:  Turn Rotating 
 MRT .                    HCIM:  Maximum Recorded Temperature 
 TTMX.degC               92.16:  Max Tool Temp 
 VS01.                90586518:  Virtual Str1 SN 
 VS02.        AZ90560654Z1W1C6:  Virtual Str2 SN 
 VS03.           AZ90610398F11:  Virtual Str3 SN 
 VS04.                90514975:  Virtual Str4 SN 
 VS05.                90514972:  Virtual Str5 SN 
 VS06.     AZ90603282F11V7D1A6:  Virtual Str6 SN 
 WBMN.klb                 7.00:  WOB Min 
 WOBA.klb                12.00:  WOB Avg 
 WOBX.klb                14.00:  WOB Max 
 YP  .lhf2               32.00:  Yield Point 
~Curve Information Block
#MNEM.UNIT                 API CODE     Curve Description
#---------               -----------    ---------------------------
 TIME.HHMMSS            00 000 000 000:  GT Time & Date
 GTDEPTH.m              00 000 000 000:  GT Depth
 GTPQH.psia             00 000 000 000:  GT HR Quartz Pressure
 GTTQ.degC              00 000 000 000:  GT Quartz Temperature
 GTTN.NONE              00 000 000 000:  GT Test Number
 GTET.sec               00 000 000 000:  GT Elapsed Test Time
 GTTVD.m                00 000 000 000:  GT True Vertical Depth
#Other Information
#
#WARRANTY: Halliburton will use its best efforts to furnish customers with 
#accurate information and interpretations that are part of, and incident to, the services 
#provided.  However, Halliburton cannot and does not warrant the accuracy 
#or correctness of such information and interpretations.  Under no circumstances should any 
#such information or interpretation be relied upon as the sole basis for any drilling, 
#completion, production, or financial decision or any procedure involving any risk to the 
#safety of any drilling venture, drilling rig or its crew or any other third party.  The 
#Customer has full responsibility for all drilling, completion and production operation.  
#Halliburton makes no representations or warranties, either expressed or 
#implied, including, but not limited to, the implied warranties of merchantability or fitness 
#for a particular purpose, with respect to the services rendered.  In no event will 
#Halliburton be liable for failure to obtain any particular results or for 
#any damages, including, but not limited to, indirect, special or consequential damages, 
#resulting from the use of any information or interpretation provided by Halliburton.
#
~A           TIME           GTDEPTH  GTPQH  GTTQ  GTTN  GTET   GTTVD  
# ...
   22:08:05.129.17-May-2020 4937.01 2932.01 67.66 7.00 184.34 2576.47
   22:08:05.330.17-May-2020 4937.01 2932.01 67.66 7.00 184.54 2576.47
   22:08:05.530.17-May-2020 4937.01 2932.01 67.66 7.00 184.74 2576.47
   22:08:05.730.17-May-2020 4937.01 2932.01 67.66 7.00 184.94 2576.47
   22:08:05.931.17-May-2020 4937.01 2932.04 67.66 7.00 185.14 2576.47
   22:08:06.131.17-May-2020 4937.01 2931.99 67.66 7.00 185.34 2576.47
   22:08:06.331.17-May-2020 4937.01 2931.99 67.66 7.00 185.54 2576.47
   22:08:06.532.17-May-2020 4937.01 2932.00 67.66 7.00 185.74 2576.47
   22:08:06.732.17-May-2020 4937.01 2932.06 67.66 7.00 185.94 2576.47
   22:08:06.933.17-May-2020 4937.01 2931.97 67.66 7.00 186.14 2576.47
   22:08:07.133.17-May-2020 4937.01 2932.03 67.66 7.00 186.34 2576.47
   22:08:07.333.17-May-2020 4937.01 2931.99 67.66 7.00 186.54 2576.47
   22:08:07.534.17-May-2020 4937.01 2932.05 67.66 7.00 186.74 2576.47
   22:08:07.734.17-May-2020 4937.01 2932.00 67.66 7.00 186.94 2576.47
   22:08:07.934.17-May-2020 4937.01 2932.01 67.66 7.00 187.14 2576.47
   22:08:08.135.17-May-2020 4937.01 2932.02 67.66 7.00 187.34 2576.47
   22:08:08.335.17-May-2020 4937.01 2932.02 67.66 7.00 187.54 2576.47
   22:08:08.535.17-May-2020 4937.01 2932.13 67.66 7.00 187.74 2576.47
   22:08:08.736.17-May-2020 4937.01 2931.90 67.66 7.00 187.94 2576.47
   22:08:08.936.17-May-2020 4937.01 2932.05 67.66 7.00 188.15 2576.47
   22:08:09.137.17-May-2020 4937.01 2931.99 67.66 7.00 188.35 2576.47
   22:08:09.337.17-May-2020 4937.01 2931.99 67.66 7.00 188.55 2576.47
   22:08:09.537.17-May-2020 4937.01 2932.00 67.66 7.00 188.75 2576.47
   22:08:09.738.17-May-2020 4937.01 2932.02 67.66 7.00 188.95 2576.47
   22:08:09.938.17-May-2020 4937.01 2932.01 67.66 7.00 189.15 2576.47
   22:08:10.138.17-May-2020 4937.01 2932.03 67.66 7.00 189.35 2576.47
   22:08:10.339.17-May-2020 4937.01 2932.03 67.66 7.00 189.55 2576.47
   22:08:10.539.17-May-2020 4937.01 2932.02 67.66 7.00 189.75 2576.47
   22:08:10.740.17-May-2020 4937.01 2932.14 67.66 7.00 189.95 2576.47
   22:08:10.940.17-May-2020 4937.01 2931.92 67.66 7.00 190.15 2576.47
   22:08:11.140.17-May-2020 4937.01 2932.09 67.66 7.00 190.35 2576.47
   22:08:11.341.17-May-2020 4937.01 2931.97 67.66 7.00 190.55 2576.47
   22:08:11.541.17-May-2020 4937.01 2932.03 67.66 7.00 190.75 2576.47
   22:08:11.741.17-May-2020 4937.01 2932.00 67.66 7.00 190.95 2576.47
   22:08:11.942.17-May-2020 4937.01 2932.02 67.66 7.00 191.15 2576.47
   22:08:12.142.17-May-2020 4937.01 2932.02 67.66 7.00 191.35 2576.47
   22:08:12.342.17-May-2020 4937.01 2932.02 67.66 7.00 191.55 2576.47
   22:08:12.543.17-May-2020 4937.01 2932.02 67.66 7.00 191.75 2576.47
   22:08:12.743.17-May-2020 4937.01 2932.15 67.66 7.00 191.95 2576.47
   22:08:12.944.17-May-2020 4937.01 2931.92 67.66 7.00 192.15 2576.47
   22:08:13.144.17-May-2020 4937.01 2932.06 67.66 7.00 192.35 2576.47
   22:08:13.344.17-May-2020 4937.01 2932.06 67.66 7.00 192.55 2576.47
   22:08:13.545.17-May-2020 4937.01 2932.13 67.66 7.00 192.75 2576.47
   22:08:13.745.17-May-2020 4937.01 2931.94 67.66 7.00 192.95 2576.47
   22:08:13.945.17-May-2020 4937.01 2932.10 67.66 7.00 193.15 2576.47
   22:08:14.146.17-May-2020 4937.01 2931.98 67.66 7.00 193.35 2576.47
   22:08:14.346.17-May-2020 4937.01 2931.98 67.66 7.00 193.56 2576.47
   22:08:14.547.17-May-2020 4937.01 2932.13 67.66 7.00 193.76 2576.47
   22:08:14.747.17-May-2020 4937.01 2931.93 67.66 7.00 193.96 2576.47
   22:08:14.947.17-May-2020 4937.01 2932.09 67.66 7.00 194.16 2576.47
   22:08:15.148.17-May-2020 4937.01 2931.98 67.66 7.00 194.36 2576.47
   22:08:15.348.17-May-2020 4937.01 2932.03 67.66 7.00 194.56 2576.47
   22:08:15.548.17-May-2020 4937.01 2932.11 67.66 7.00 194.76 2576.47
   22:08:15.749.17-May-2020 4937.01 2931.95 67.66 7.00 194.96 2576.47
   22:08:15.949.17-May-2020 4937.01 2932.09 67.66 7.00 195.16 2576.47
   22:08:16.149.17-May-2020 4937.01 2931.99 67.66 7.00 195.36 2576.47
   22:08:16.350.17-May-2020 4937.01 2931.99 67.66 7.00 195.56 2576.47
   22:08:16.550.17-May-2020 4937.01 2932.01 67.66 7.00 195.76 2576.47
   22:08:16.751.17-May-2020 4937.01 2932.02 67.66 7.00 195.96 2576.47
   22:08:16.951.17-May-2020 4937.01 2932.02 67.66 7.00 196.16 2576.47
   22:08:17.151.17-May-2020 4937.01 2932.03 67.66 7.00 196.36 2576.47
   22:08:17.352.17-May-2020 4937.01 2932.03 67.66 7.00 196.56 2576.47
   22:08:17.552.17-May-2020 4937.01 2932.02 67.66 7.00 196.76 2576.47
   22:08:17.752.17-May-2020 4937.01 2932.02 67.66 7.00 196.96 2576.47
   22:08:17.953.17-May-2020 4937.01 2932.04 67.66 7.00 197.16 2576.47
   22:08:18.153.17-May-2020 4937.01 2932.09 67.66 7.00 197.36 2576.47
   22:08:18.353.17-May-2020 4937.01 2932.09 67.66 7.00 197.56 2576.47
   22:08:18.554.17-May-2020 4937.01 2932.04 67.66 7.00 197.76 2576.47
   22:08:18.754.17-May-2020 4937.01 2932.02 67.66 7.00 197.96 2576.47
   22:08:18.955.17-May-2020 4937.01 2932.02 67.66 7.00 198.16 2576.47
   22:08:19.155.17-May-2020 4937.01 2932.02 67.66 7.00 198.36 2576.47
   22:08:19.355.17-May-2020 4937.01 2932.03 67.66 7.00 198.56 2576.47
   22:08:19.556.17-May-2020 4937.01 2932.03 67.66 7.00 198.76 2576.47
   22:08:19.756.17-May-2020 4937.01 2932.14 67.66 7.00 198.96 2576.47
   22:08:19.956.17-May-2020 4937.01 2931.95 67.66 7.00 199.17 2576.47
   22:08:20.157.17-May-2020 4937.01 2932.11 67.66 7.00 199.37 2576.47
   22:08:20.357.17-May-2020 4937.01 2932.11 67.66 7.00 199.57 2576.47
   22:08:20.558.17-May-2020 4937.01 2932.05 67.66 7.00 199.77 2576.47
   22:08:20.758.17-May-2020 4937.01 2932.04 67.66 7.00 199.97 2576.47
   22:08:20.958.17-May-2020 4937.01 2932.08 67.66 7.00 200.17 2576.47
   22:08:21.159.17-May-2020 4937.01 2931.99 67.66 7.00 200.37 2576.47
   22:08:21.359.17-May-2020 4937.01 2931.99 67.66 7.00 200.57 2576.47
   22:08:21.559.17-May-2020 4937.01 2932.04 67.66 7.00 200.77 2576.47
   22:08:21.760.17-May-2020 4937.01 2932.01 67.66 7.00 200.97 2576.47
   22:08:21.960.17-May-2020 4937.01 2932.10 67.66 7.00 201.17 2576.47
   22:08:22.160.17-May-2020 4937.01 2931.99 67.66 7.00 201.37 2576.47
   22:08:22.361.17-May-2020 4937.01 2931.99 67.66 7.00 201.57 2576.47
   22:08:22.561.17-May-2020 4937.01 2932.11 67.66 7.00 201.77 2576.47
   22:08:22.762.17-May-2020 4937.01 2931.95 67.66 7.00 201.97 2576.47
   22:08:22.962.17-May-2020 4937.01 2932.10 67.66 7.00 202.17 2576.47
   22:08:23.162.17-May-2020 4937.01 2931.99 67.66 7.00 202.37 2576.47
   22:08:23.363.17-May-2020 4937.01 2931.99 67.66 7.00 202.57 2576.47
   22:08:23.563.17-May-2020 4937.01 2932.01 67.66 7.00 202.77 2576.47
   22:08:23.763.17-May-2020 4937.01 2932.03 67.66 7.00 202.97 2576.47
   22:08:23.964.17-May-2020 4937.01 2932.02 67.66 7.00 203.17 2576.47
   22:08:24.164.17-May-2020 4937.01 2932.03 67.66 7.00 203.37 2576.47
   22:08:24.365.17-May-2020 4937.01 2932.03 67.66 7.00 203.57 2576.47
   22:08:24.565.17-May-2020 4937.01 2932.04 67.66 7.00 203.77 2576.47
   22:08:24.765.17-May-2020 4937.01 2932.06 67.66 7.00 203.97 2576.47
   22:08:24.966.17-May-2020 4937.01 2932.01 67.66 7.00 204.17 2576.47
   22:08:25.166.17-May-2020 4937.01 2932.05 67.66 7.00 204.37 2576.47
   22:08:25.366.17-May-2020 4937.01 2932.05 67.66 7.00 204.58 2576.47
   22:08:25.567.17-May-2020 4937.01 2932.03 67.66 7.00 204.78 2576.47
   22:08:25.767.17-May-2020 4937.01 2932.02 67.66 7.00 204.98 2576.47
   22:08:25.967.17-May-2020 4937.01 2932.03 67.66 7.00 205.18 2576.47
   22:08:26.168.17-May-2020 4937.01 2932.03 67.66 7.00 205.38 2576.47
   22:08:26.368.17-May-2020 4937.01 2932.03 67.66 7.00 205.58 2576.47
   22:08:26.569.17-May-2020 4937.01 2932.03 67.66 7.00 205.78 2576.47
   22:08:26.769.17-May-2020 4937.01 2932.13 67.66 7.00 205.98 2576.47
   22:08:26.969.17-May-2020 4937.01 2931.95 67.66 7.00 206.18 2576.47
   22:08:27.170.17-May-2020 4937.01 2932.11 67.66 7.00 206.38 2576.47
   22:08:27.370.17-May-2020 4937.01 2932.03 67.66 7.00 206.58 2576.47
   22:08:27.570.17-May-2020 4937.01 2932.08 67.66 7.00 206.78 2576.47
   22:08:27.771.17-May-2020 4937.01 2932.01 67.66 7.00 206.98 2576.47
   22:08:27.971.17-May-2020 4937.01 2932.04 67.66 7.00 207.18 2576.47
