~Version Information
 VERS.                  2.0:   CWLS log ASCII Standard -VERSION 2.0
 WRAP.                   NO:   One line per depth step
~Well Information Block
#MNEM.UNIT     VALUE/NAME     DESCRIPTION
#---------     -----------    ---------------------------
 STRT.S             12:13:26 20-May-20: START TIME 12:13:26 20-May-20
 STOP.S             12:20:31 20-May-20: STOP TIME  12:20:31 20-May-20
 STEP.S                   0.00: STEP TIME
 NULL.                 -999.25: NULL VALUE
 UNIT.                     N/A:  LOGGING EQUIPMENT ID
 DCON.         Sperry Drilling:  DIRECTNL CONTR
 DOE .                     N/A:  DOE NUMBER
 JOBN.        AZ-XX-0906252240:  JOB TICKET NUMB
 MWDS.                     N/A:  MWD SHOP
 PROV.                    Baku:  PROVINCE
 STAT.                    Baku:  STATE NAME
 REGN.                   EESSA:  REGION
 BASE.              Azerbaijan:  LOGGING EQUIPMENT BASE LOCATION
 UWI .                     N/A:  UNIQUE WELL IDENTIFIER
 API .                     N/A:  API NUMBER
 MDS .        Operator Entered:  MAG DATA SOURCE
 WTYP.                Deviated:  WELL TYPE
 COMP.     BP Exploration (Caspian Sea) Ltd.:  COMPANY
 SRVC.          Turan Drilling:  CONTRACTOR
 WELL.           J23 (Slot 07):  WELL NAME
 CTRY.              Azerbaijan:  COUNTRY NAME
 FLD .                     ACG:  FIELD NAME
 PDAT.          Mean Sea Level:  PERMANENT DATUM
 RIG .             West Chirag:  RIG NAME
 SON .        AZ-XX-0906252240:  JOB NUMBER
 FTOP.          Formation Tops:  FORM TOPS DESC
 ILTD.               Lithology:  INTERP LTH DESC
 SVYD.                  Survey:  SURVEY DESC
 DMOD.             Drill Model:  DRILL MOD DESC
 HPTY.       Minimum Curvature:  HOLE POS TYPE
 NREF.                    Grid:  NORTH REFERENCE
 SPUD.               27-Aug-20:  SPUD DATE
 DATE.      00.00.00 19-May-20:  END TIME
 STIM.      03.00.00 25-Mar-20:  START TIME
 DMF .             Drill Floor:  DRILL MEAS FROM
 DFST.                        :  DIST FSL TEXT
 DFWT.                        :  DIST FWL TEXT
 CNTY.                        :  COUNTY
 LOC .                        :  LOCATION
 LMF .             Drill Floor:  LOG MEASURED FROM
 VSNS.m                   9.43:  VERT SEC N/S
 VSEW.m                  -8.91:  VERT SEC E/W
 AGAP.m                  43.00:  AIR GAP
 DEP .m                 354.17:  DEPTH
 APD .m                  43.00:  DEPTH ABOVE PD
 WDMS.m                 169.80:  WD ELEV
 EGL .m                   0.00:  GROUND ELEVATION
 EPD .m                   0.00:  ELEVATION
 AZTC.deg                 6.31:  AZM TOTAL CORR
 GRDC.deg                 0.14:  GRID CORRECTION
 MDEC.deg                 6.45:  MAGNETIC DECL
 MDIP.deg                59.56:  MAGNETIC DIP
 MFLD.nT              50295.00:  MAGNETIC FIELD
 GVFD.g                   1.00:  GRAVITY FIELD
 VSDR.deg               179.88:  VERT SEC DIRECT
 TDD .m                5150.01:  TOTAL DEPTH (DRILLER)
 SDEP.m                 864.00:  START DEPTH
 DFSL.m                   0.00:  DISTANCE FSL
 DFWL.m                   0.00:  DISTANCE FWL
 UTMY.m             4443793.85:  UTM Y
 UTMX.m              519005.06:  UTM X
 WHEW.m                  -8.91:  WELL HEAD E/W
 WHNS.m                   9.43:  WELL HEAD N/S
 LONG.deg                51.22:  LONGITUDE
 LATI.deg                40.13:  LATITUDE
 TVDS.m                  43.00:  TVDSS CORRECTN
 EKB .m                   0.00:  KB ELEVATION
 EDF .m                  43.00:  DF ELEVATION
 TDL .m                 363.00:  TOTAL DEPTH (LOGGER)
 MAGU.                 1850802:  MAGUTM CHECKSUM
 VSC .                       0:  VS TO CLOSURE
~Parameter Information Block
#MNEM.UNIT       Value        Description
#---------     -----------    ---------------------------
 AV  .mps                 2.30:  Ann Velocity 
 AVMX.mps                 4.40:  Max Ann Veloc 
 AZIF.deg               110.24:  Azm, Final 
 BHAT.        Rotary Steerable:  BHA Type 
 BREV.rev               331.00:  Rev Bit Total 
 BROT.°/30m               0.00:  Build Rotating 
 BS  .in                  8.50:  Bit Size 
 BSZ .in                  8.50:  Bit Size 
 BTPL.psig              585.00:  Bit Press Loss 
 CABU.                     Yes:  Customer Abuse 
 COMM.                     моЊ:  Run Comments 1 
 TCS .hr                122.75:  Time Ciculation Ended 
 CV  .mps                 2.67:  Crit Velocity 
 CVMX.mps                 3.56:  Max Crit Veloc 
 DD1 .          Rashad Habibov:  Direct Drillr 1 
 DD2 .         Rasim Ibrahimov:  Direct Drillr 2 
 DDSV.               Geo-Pilot:  DD Service 
 DEFF.%                  98.00:  % Det Eff 
 DLRX.°/30m               0.75:  Dogleg Rot Max 
 DLSO.°/30m               1.25:  Dogleg Oriented 
 DLSX.°/30m               2.06:  Dogleg Str Max 
 DRET.      07.45.00 17-May-20:  Drill End Time 
 DRST.      22.50.00 15-May-20:  Drill Start Tim 
 DTIM.hr                 20.75:  Time Drilling 
 EDEP.m                5124.01:  End Depth 
 ENG1.           Eldar Hajiyev:  Engineer 1 
 ENG2.        Marcelo Sandoval:  Engineer 2 
 ENG3.        Davud huseynzada:  Engineer 3 
 ENG4.          Ruslan Safarov:  Engineer 4 
 ETIM.      04.33.00 23-May-20:  End Time 
 FLOI.gpm               450.00:  Flow In 
 FLON.gpm               400.00:  Flow In Min 
 FLOS.cptm                0.00:  Fluid Loss 
 FLOX.gpm               500.00:  Flow In Max 
 FTRO.       Formation Presure:  FTWD Run Obj 
 HFLO.                      No:  High Flow 
 HPRE.                     Yes:  High Pressure 
 HTEM.                      No:  High Temp 
 HYDO.m                   1.80:  Hydro Offset 
 IFIN.deg                75.06:  Inc, Final 
 IMAX.deg                75.38:  Inc Max 
 IMIN.deg                74.69:  Inc Min 
 IMND.m                5027.38:  Inc Min Depth 
 IMXD.m                4771.61:  Inc Max Depth 
 JARR.                      No:  Jarring 
 LETM.      07.45.00 17-May-20:  Log End Time 
 LOST.hr                     0:  Lost Rig Time 
 LSTM.      22.50.00 15-May-20:  Log Start Time 
 MDCL.ppm             42000.00:  Mud Chlorides 
 MDES.     Inversion Oil/Synthetic:  Mud Desc 
 DFD .sg                  1.34:  Mud Density 
 MDMN.sg                  1.34:  Dens Mud Min 
 MDMX.sg                  1.34:  Dens Mud Max 
 MOIL.                       0:  Run Mud Oil % 
 MOWR.                   67:33:  Run Mud OWR 
 MSND.                       0:  Run Mud Sand % 
 MSOL.                     1.8:  Run Mud Solids% 
 DFV .spqt               76.00:  Mud Viscosity 
 MWOD.in                  6.75:  MWD Tool OD 
 MWSI.                      No:  Serv Intrp, MWD 
 OTIM.hr                228.19:  Time Operating 
 PCON.           Look Like New:  Pad Condition 
 PMAX.psia             6164.70:  Press Op, Max 
 PV  .cP                 28.00:  Mud PV 
 RUN .                     900:  Run Number 
 ROPA.m/hr               19.00:  ROP Avg 
 ROPN.m/hr               11.00:  ROP Min 
 ROPX.m/hr               36.00:  ROP Max 
 RPMA.rpm               120.00:  RPM Surface Avg 
 RPMN.rpm               120.00:  RPM Surface Min 
 RPMX.rpm               120.00:  RPM Surface Max 
 RRUN.                    L604:  Rig Run Number 
 RTIM.hr                  7.00:  Time Reaming 
 SAZI.deg               109.27:  Azm, Start 
 SDEP.m                4761.01:  Start Depth 
 SIDD.                      No:  Serv Intrp, DD 
 SINC.deg                75.38:  Inc, Start 
 SPPA.psig             3574.00:  SPP Avg 
 SPPN.psig             3475.00:  SPP Min 
 SPPX.psig             3791.00:  SPP Max 
 STIM.      07.08.48 13-May-20:  Start Time 
 SVCS.                 DD, MWD:  Services 
 SVER.                    9.20:  Sperry Version 
 TDAT.m                 363.00:  Tot Depth Attmp 
 TDDF.                      No:  Trip for DD 
 TDLG.m                 363.00:  Tot Depth Loggd 
 TFF .                      No:  Trip for Fail 
 TQAA.f-kp               20.00:  Torque Abs Avg 
 TQAN.f-kp               18.00:  Torque Abs Min 
 TQAX.f-kp               22.00:  Torque Abs Max 
 TRRT.°/30m              -0.35:  Turn Rotating 
 MRT .                    HCIM:  Maximum Recorded Temperature 
 TTMX.degC               92.16:  Max Tool Temp 
 VS01.                90586518:  Virtual Str1 SN 
 VS02.        AZ90560654Z1W1C6:  Virtual Str2 SN 
 VS03.           AZ90610398F11:  Virtual Str3 SN 
 VS04.                90514975:  Virtual Str4 SN 
 VS05.                90514972:  Virtual Str5 SN 
 VS06.     AZ90603282F11V7D1A6:  Virtual Str6 SN 
 WBMN.klb                 7.00:  WOB Min 
 WOBA.klb                12.00:  WOB Avg 
 WOBX.klb                14.00:  WOB Max 
 YP  .lhf2               32.00:  Yield Point 
~Curve Information Block
#MNEM.UNIT                 API CODE     Curve Description
#---------               -----------    ---------------------------
 TIME.HHMMSS            00 000 000 000:  GT Time & Date
 GTDEPTH.m              00 000 000 000:  GT Depth
 GTPQH.psia             00 000 000 000:  GT HR Quartz Pressure
 GTTQ.degC              00 000 000 000:  GT Quartz Temperature
 GTTN.NONE              00 000 000 000:  GT Test Number
 GTET.sec               00 000 000 000:  GT Elapsed Test Time
 GTTVD.m                00 000 000 000:  GT True Vertical Depth
#Other Information
#
#WARRANTY: Halliburton will use its best efforts to furnish customers with 
#accurate information and interpretations that are part of, and incident to, the services 
#provided.  However, Halliburton cannot and does not warrant the accuracy 
#or correctness of such information and interpretations.  Under no circumstances should any 
#such information or interpretation be relied upon as the sole basis for any drilling, 
#completion, production, or financial decision or any procedure involving any risk to the 
#safety of any drilling venture, drilling rig or its crew or any other third party.  The 
#Customer has full responsibility for all drilling, completion and production operation.  
#Halliburton makes no representations or warranties, either expressed or 
#implied, including, but not limited to, the implied warranties of merchantability or fitness 
#for a particular purpose, with respect to the services rendered.  In no event will 
#Halliburton be liable for failure to obtain any particular results or for 
#any damages, including, but not limited to, indirect, special or consequential damages, 
#resulting from the use of any information or interpretation provided by Halliburton.
#
~A           TIME           GTDEPTH  GTPQH  GTTQ  GTTN   GTET   GTTVD  
# ...
   12:16:04.951.20-May-2020 4766.51 5481.02 69.39 15.00 158.25 2532.42
   12:16:05.151.20-May-2020 4766.51 5482.82 69.39 15.00 158.45 2532.42
   12:16:05.351.20-May-2020 4766.51 5496.13 69.39 15.00 158.65 2532.42
   12:16:05.552.20-May-2020 4766.51 5487.33 69.39 15.00 158.85 2532.42
   12:16:05.752.20-May-2020 4766.51 5484.07 69.39 15.00 159.05 2532.42
   12:16:05.952.20-May-2020 4766.51 5484.07 69.39 15.00 159.25 2532.42
   12:16:06.152.20-May-2020 4766.51 5483.99 69.39 15.00 159.45 2532.42
   12:16:06.352.20-May-2020 4766.51 5486.77 69.39 15.00 159.65 2532.42
   12:16:06.552.20-May-2020 4766.51 5483.56 69.39 15.00 159.85 2532.42
   12:16:06.752.20-May-2020 4766.51 5482.70 69.39 15.00 160.05 2532.42
   12:16:06.952.20-May-2020 4766.51 5482.70 69.39 15.00 160.25 2532.42
   12:16:07.152.20-May-2020 4766.51 5482.50 69.39 15.00 160.45 2532.42
   12:16:07.352.20-May-2020 4766.51 5488.04 69.39 15.00 160.65 2532.42
   12:16:07.552.20-May-2020 4766.51 5488.00 69.39 15.00 160.85 2532.42
   12:16:07.752.20-May-2020 4766.51 5482.51 69.39 15.00 161.05 2532.42
   12:16:07.952.20-May-2020 4766.51 5482.51 69.39 15.00 161.25 2532.42
   12:16:08.152.20-May-2020 4766.51 5481.68 69.39 15.00 161.45 2532.42
   12:16:08.352.20-May-2020 4766.51 5484.87 69.39 15.00 161.65 2532.42
   12:16:08.552.20-May-2020 4766.51 5482.95 69.39 15.00 161.85 2532.42
   12:16:08.753.20-May-2020 4766.51 5482.27 69.39 15.00 162.05 2532.42
   12:16:08.953.20-May-2020 4766.51 5482.27 69.38 15.00 162.25 2532.42
   12:16:09.153.20-May-2020 4766.51 5482.32 69.38 15.00 162.45 2532.42
   12:16:09.353.20-May-2020 4766.51 5481.44 69.38 15.00 162.65 2532.42
   12:16:09.553.20-May-2020 4766.51 5482.71 69.38 15.00 162.85 2532.42
   12:16:09.753.20-May-2020 4766.51 5492.31 69.38 15.00 163.05 2532.42
   12:16:09.953.20-May-2020 4766.51 5492.31 69.38 15.00 163.25 2532.42
   12:16:10.153.20-May-2020 4766.51 5485.57 69.38 15.00 163.45 2532.42
   12:16:10.353.20-May-2020 4766.51 5488.54 69.38 15.00 163.65 2532.42
   12:16:10.553.20-May-2020 4766.51 5496.91 69.38 15.00 163.85 2532.42
   12:16:10.753.20-May-2020 4766.51 5487.80 69.38 15.00 164.05 2532.42
   12:16:10.953.20-May-2020 4766.51 5487.80 69.38 15.00 164.25 2532.42
   12:16:11.153.20-May-2020 4766.51 5486.40 69.38 15.00 164.45 2532.42
   12:16:11.353.20-May-2020 4766.51 5501.59 69.38 15.00 164.65 2532.42
   12:16:11.553.20-May-2020 4766.51 5488.33 69.38 15.00 164.85 2532.42
   12:16:11.753.20-May-2020 4766.51 5487.07 69.38 15.00 165.05 2532.42
   12:16:11.954.20-May-2020 4766.51 5487.07 69.38 15.00 165.25 2532.42
   12:16:12.154.20-May-2020 4766.51 5498.51 69.38 15.00 165.45 2532.42
   12:16:12.354.20-May-2020 4766.51 5492.04 69.38 15.00 165.65 2532.42
   12:16:12.554.20-May-2020 4766.51 5487.55 69.38 15.00 165.85 2532.42
   12:16:12.754.20-May-2020 4766.51 5487.24 69.38 15.00 166.05 2532.42
   12:16:12.954.20-May-2020 4766.51 5487.24 69.38 15.00 166.25 2532.42
   12:16:13.154.20-May-2020 4766.51 5490.69 69.38 15.00 166.45 2532.42
   12:16:13.354.20-May-2020 4766.51 5487.31 69.38 15.00 166.65 2532.42
   12:16:13.554.20-May-2020 4766.51 5486.22 69.38 15.00 166.85 2532.42
   12:16:13.754.20-May-2020 4766.51 5486.50 69.38 15.00 167.05 2532.42
   12:16:13.954.20-May-2020 4766.51 5486.37 69.38 15.00 167.25 2532.42
   12:16:14.154.20-May-2020 4766.51 5490.96 69.38 15.00 167.45 2532.42
   12:16:14.354.20-May-2020 4766.51 5492.47 69.38 15.00 167.65 2532.42
   12:16:14.554.20-May-2020 4766.51 5486.12 69.38 15.00 167.85 2532.42
   12:16:14.754.20-May-2020 4766.51 5486.05 69.38 15.00 168.05 2532.42
   12:16:14.955.20-May-2020 4766.51 5486.05 69.38 15.00 168.25 2532.42
   12:16:15.155.20-May-2020 4766.51 5488.08 69.37 15.00 168.45 2532.42
   12:16:15.355.20-May-2020 4766.51 5486.44 69.37 15.00 168.65 2532.42
   12:16:15.555.20-May-2020 4766.51 5485.66 69.37 15.00 168.85 2532.42
   12:16:15.755.20-May-2020 4766.51 5486.23 69.37 15.00 169.05 2532.42
   12:16:15.955.20-May-2020 4766.51 5486.23 69.37 15.00 169.25 2532.42
   12:16:16.155.20-May-2020 4766.51 5485.80 69.37 15.00 169.45 2532.42
   12:16:16.355.20-May-2020 4766.51 5486.02 69.37 15.00 169.65 2532.42
   12:16:16.555.20-May-2020 4766.51 5496.69 69.37 15.00 169.85 2532.42
   12:16:16.755.20-May-2020 4766.51 5485.50 69.37 15.00 170.05 2532.42
   12:16:16.955.20-May-2020 4766.51 5485.50 69.37 15.00 170.25 2532.42
   12:16:17.155.20-May-2020 4766.51 5485.43 69.37 15.00 170.45 2532.42
   12:16:17.355.20-May-2020 4766.51 5499.73 69.37 15.00 170.65 2532.42
   12:16:17.555.20-May-2020 4766.51 5487.77 69.37 15.00 170.85 2532.42
   12:16:17.755.20-May-2020 4766.51 5486.70 69.37 15.00 171.05 2532.42
   12:16:17.955.20-May-2020 4766.51 5486.11 69.37 15.00 171.25 2532.42
   12:16:18.156.20-May-2020 4766.51 5500.98 69.37 15.00 171.45 2532.42
   12:16:18.356.20-May-2020 4766.51 5489.60 69.37 15.00 171.65 2532.42
   12:16:18.556.20-May-2020 4766.51 5487.29 69.37 15.00 171.85 2532.42
   12:16:18.756.20-May-2020 4766.51 5486.62 69.37 15.00 172.06 2532.42
   12:16:18.956.20-May-2020 4766.51 5486.62 69.37 15.00 172.26 2532.42
   12:16:19.156.20-May-2020 4766.51 5501.74 69.37 15.00 172.46 2532.42
   12:16:19.356.20-May-2020 4766.51 5488.07 69.37 15.00 172.66 2532.42
   12:16:19.556.20-May-2020 4766.51 5486.93 69.37 15.00 172.86 2532.42
   12:16:19.756.20-May-2020 4766.51 5487.15 69.37 15.00 173.06 2532.42
   12:16:19.956.20-May-2020 4766.51 5487.15 69.37 15.00 173.26 2532.42
   12:16:20.156.20-May-2020 4766.51 5488.83 69.37 15.00 173.46 2532.42
   12:16:20.356.20-May-2020 4766.51 5486.68 69.37 15.00 173.66 2532.42
   12:16:20.556.20-May-2020 4766.51 5485.99 69.37 15.00 173.86 2532.42
   12:16:20.756.20-May-2020 4766.51 5486.26 69.37 15.00 174.06 2532.42
   12:16:20.956.20-May-2020 4766.51 5486.26 69.36 15.00 174.26 2532.42
   12:16:21.157.20-May-2020 4766.51 5494.35 69.36 15.00 174.46 2532.42
   12:16:21.357.20-May-2020 4766.51 5488.29 69.36 15.00 174.66 2532.42
   12:16:21.557.20-May-2020 4766.51 5485.46 69.36 15.00 174.86 2532.42
   12:16:21.757.20-May-2020 4766.51 5485.34 69.36 15.00 175.06 2532.42
   12:16:21.957.20-May-2020 4766.51 5485.04 69.36 15.00 175.26 2532.42
   12:16:22.157.20-May-2020 4766.51 5488.16 69.36 15.00 175.46 2532.42
   12:16:22.357.20-May-2020 4766.51 5486.32 69.36 15.00 175.66 2532.42
   12:16:22.557.20-May-2020 4766.51 5485.83 69.36 15.00 175.86 2532.42
   12:16:22.757.20-May-2020 4766.51 5486.33 69.36 15.00 176.06 2532.42
   12:16:22.957.20-May-2020 4766.51 5486.33 69.36 15.00 176.26 2532.42
   12:16:23.157.20-May-2020 4766.51 5485.17 69.36 15.00 176.46 2532.42
   12:16:23.357.20-May-2020 4766.51 5489.18 69.36 15.00 176.66 2532.42
   12:16:23.557.20-May-2020 4766.51 5493.25 69.36 15.00 176.86 2532.42
   12:16:23.757.20-May-2020 4766.51 5485.42 69.36 15.00 177.06 2532.42
   12:16:23.957.20-May-2020 4766.51 5485.42 69.36 15.00 177.26 2532.42
   12:16:24.157.20-May-2020 4766.51 5496.93 69.36 15.00 177.46 2532.42
   12:16:24.358.20-May-2020 4766.51 5489.49 69.36 15.00 177.66 2532.42
   12:16:24.558.20-May-2020 4766.51 5487.12 69.36 15.00 177.86 2532.42
   12:16:24.758.20-May-2020 4766.51 5486.17 69.36 15.00 178.06 2532.42
   12:16:24.958.20-May-2020 4766.51 5486.17 69.36 15.00 178.26 2532.42
   12:16:25.158.20-May-2020 4766.51 5501.92 69.36 15.00 178.46 2532.42
   12:16:25.358.20-May-2020 4766.51 5487.47 69.36 15.00 178.66 2532.42
   12:16:25.558.20-May-2020 4766.51 5486.66 69.36 15.00 178.86 2532.42
   12:16:25.758.20-May-2020 4766.51 5486.82 69.36 15.00 179.06 2532.42
   12:16:25.958.20-May-2020 4766.51 5493.87 69.36 15.00 179.26 2532.42
   12:16:26.158.20-May-2020 4766.51 5495.25 69.36 15.00 179.46 2532.42
   12:16:26.358.20-May-2020 4766.51 5487.64 69.36 15.00 179.66 2532.42
   12:16:26.558.20-May-2020 4766.51 5486.91 69.36 15.00 179.86 2532.42
   12:16:26.758.20-May-2020 4766.51 5486.40 69.36 15.00 180.06 2532.42
   12:16:26.958.20-May-2020 4766.51 5486.40 69.36 15.00 180.26 2532.42
   12:16:27.158.20-May-2020 4766.51 5487.02 69.35 15.00 180.46 2532.42
   12:16:27.358.20-May-2020 4766.51 5485.96 69.35 15.00 180.66 2532.42
