~Version Information
 VERS.                  2.0:   CWLS log ASCII Standard -VERSION 2.0
 WRAP.                   NO:   One line per depth step
~Well Information Block
#MNEM.UNIT     VALUE/NAME     DESCRIPTION
#---------     -----------    ---------------------------
 STRT.S             16:14:41 17-May-20: START TIME 16:14:41 17-May-20
 STOP.S             16:21:36 17-May-20: STOP TIME  16:21:36 17-May-20
 STEP.S                   0.00: STEP TIME
 NULL.                 -999.25: NULL VALUE
 UNIT.                     N/A:  LOGGING EQUIPMENT ID
 DCON.         Sperry Drilling:  DIRECTNL CONTR
 DOE .                     N/A:  DOE NUMBER
 JOBN.        AZ-XX-0906252240:  JOB TICKET NUMB
 MWDS.                     N/A:  MWD SHOP
 PROV.                    Baku:  PROVINCE
 STAT.                    Baku:  STATE NAME
 REGN.                   EESSA:  REGION
 BASE.              Azerbaijan:  LOGGING EQUIPMENT BASE LOCATION
 UWI .                     N/A:  UNIQUE WELL IDENTIFIER
 API .                     N/A:  API NUMBER
 MDS .        Operator Entered:  MAG DATA SOURCE
 WTYP.                Deviated:  WELL TYPE
 COMP.     BP Exploration (Caspian Sea) Ltd.:  COMPANY
 SRVC.          Turan Drilling:  CONTRACTOR
 WELL.           J23 (Slot 07):  WELL NAME
 CTRY.              Azerbaijan:  COUNTRY NAME
 FLD .                     ACG:  FIELD NAME
 PDAT.          Mean Sea Level:  PERMANENT DATUM
 RIG .             West Chirag:  RIG NAME
 SON .        AZ-XX-0906252240:  JOB NUMBER
 FTOP.          Formation Tops:  FORM TOPS DESC
 ILTD.               Lithology:  INTERP LTH DESC
 SVYD.                  Survey:  SURVEY DESC
 DMOD.             Drill Model:  DRILL MOD DESC
 HPTY.       Minimum Curvature:  HOLE POS TYPE
 NREF.                    Grid:  NORTH REFERENCE
 SPUD.               27-Aug-20:  SPUD DATE
 DATE.      00.00.00 19-May-20:  END TIME
 STIM.      03.00.00 25-Mar-20:  START TIME
 DMF .             Drill Floor:  DRILL MEAS FROM
 DFST.                        :  DIST FSL TEXT
 DFWT.                        :  DIST FWL TEXT
 CNTY.                        :  COUNTY
 LOC .                        :  LOCATION
 LMF .             Drill Floor:  LOG MEASURED FROM
 VSNS.m                   9.43:  VERT SEC N/S
 VSEW.m                  -8.91:  VERT SEC E/W
 AGAP.m                  43.00:  AIR GAP
 DEP .m                 354.17:  DEPTH
 APD .m                  43.00:  DEPTH ABOVE PD
 WDMS.m                 169.80:  WD ELEV
 EGL .m                   0.00:  GROUND ELEVATION
 EPD .m                   0.00:  ELEVATION
 AZTC.deg                 6.31:  AZM TOTAL CORR
 GRDC.deg                 0.14:  GRID CORRECTION
 MDEC.deg                 6.45:  MAGNETIC DECL
 MDIP.deg                59.56:  MAGNETIC DIP
 MFLD.nT              50295.00:  MAGNETIC FIELD
 GVFD.g                   1.00:  GRAVITY FIELD
 VSDR.deg               179.88:  VERT SEC DIRECT
 TDD .m                5150.01:  TOTAL DEPTH (DRILLER)
 SDEP.m                 864.00:  START DEPTH
 DFSL.m                   0.00:  DISTANCE FSL
 DFWL.m                   0.00:  DISTANCE FWL
 UTMY.m             4443793.85:  UTM Y
 UTMX.m              519005.06:  UTM X
 WHEW.m                  -8.91:  WELL HEAD E/W
 WHNS.m                   9.43:  WELL HEAD N/S
 LONG.deg                51.22:  LONGITUDE
 LATI.deg                40.13:  LATITUDE
 TVDS.m                  43.00:  TVDSS CORRECTN
 EKB .m                   0.00:  KB ELEVATION
 EDF .m                  43.00:  DF ELEVATION
 TDL .m                 363.00:  TOTAL DEPTH (LOGGER)
 MAGU.                 1850802:  MAGUTM CHECKSUM
 VSC .                       0:  VS TO CLOSURE
~Parameter Information Block
#MNEM.UNIT       Value        Description
#---------     -----------    ---------------------------
 AV  .mps                 2.30:  Ann Velocity 
 AVMX.mps                 4.40:  Max Ann Veloc 
 AZIF.deg               110.24:  Azm, Final 
 BHAT.        Rotary Steerable:  BHA Type 
 BREV.rev               331.00:  Rev Bit Total 
 BROT.°/30m               0.00:  Build Rotating 
 BS  .in                  8.50:  Bit Size 
 BSZ .in                  8.50:  Bit Size 
 BTPL.psig              585.00:  Bit Press Loss 
 CABU.                     Yes:  Customer Abuse 
 COMM.                     ¿m:  Run Comments 1 
 TCS .hr                122.75:  Time Ciculation Ended 
 CV  .mps                 2.67:  Crit Velocity 
 CVMX.mps                 3.56:  Max Crit Veloc 
 DD1 .          Rashad Habibov:  Direct Drillr 1 
 DD2 .         Rasim Ibrahimov:  Direct Drillr 2 
 DDSV.               Geo-Pilot:  DD Service 
 DEFF.%                  98.00:  % Det Eff 
 DLRX.°/30m               0.75:  Dogleg Rot Max 
 DLSO.°/30m               1.25:  Dogleg Oriented 
 DLSX.°/30m               2.06:  Dogleg Str Max 
 DRET.      07.45.00 17-May-20:  Drill End Time 
 DRST.      22.50.00 15-May-20:  Drill Start Tim 
 DTIM.hr                 20.75:  Time Drilling 
 EDEP.m                5124.01:  End Depth 
 ENG1.           Eldar Hajiyev:  Engineer 1 
 ENG2.        Marcelo Sandoval:  Engineer 2 
 ENG3.        Davud huseynzada:  Engineer 3 
 ENG4.          Ruslan Safarov:  Engineer 4 
 ETIM.      04.33.00 23-May-20:  End Time 
 FLOI.gpm               450.00:  Flow In 
 FLON.gpm               400.00:  Flow In Min 
 FLOS.cptm                0.00:  Fluid Loss 
 FLOX.gpm               500.00:  Flow In Max 
 FTRO.       Formation Presure:  FTWD Run Obj 
 HFLO.                      No:  High Flow 
 HPRE.                     Yes:  High Pressure 
 HTEM.                      No:  High Temp 
 HYDO.m                   1.80:  Hydro Offset 
 IFIN.deg                75.06:  Inc, Final 
 IMAX.deg                75.38:  Inc Max 
 IMIN.deg                74.69:  Inc Min 
 IMND.m                5027.38:  Inc Min Depth 
 IMXD.m                4771.61:  Inc Max Depth 
 JARR.                      No:  Jarring 
 LETM.      07.45.00 17-May-20:  Log End Time 
 LOST.hr                     0:  Lost Rig Time 
 LSTM.      22.50.00 15-May-20:  Log Start Time 
 MDCL.ppm             42000.00:  Mud Chlorides 
 MDES.     Inversion Oil/Synthetic:  Mud Desc 
 DFD .sg                  1.34:  Mud Density 
 MDMN.sg                  1.34:  Dens Mud Min 
 MDMX.sg                  1.34:  Dens Mud Max 
 MOIL.                       0:  Run Mud Oil % 
 MOWR.                   67:33:  Run Mud OWR 
 MSND.                       0:  Run Mud Sand % 
 MSOL.                     1.8:  Run Mud Solids% 
 DFV .spqt               76.00:  Mud Viscosity 
 MWOD.in                  6.75:  MWD Tool OD 
 MWSI.                      No:  Serv Intrp, MWD 
 OTIM.hr                228.19:  Time Operating 
 PCON.           Look Like New:  Pad Condition 
 PMAX.psia             6164.70:  Press Op, Max 
 PV  .cP                 28.00:  Mud PV 
 RUN .                     900:  Run Number 
 ROPA.m/hr               19.00:  ROP Avg 
 ROPN.m/hr               11.00:  ROP Min 
 ROPX.m/hr               36.00:  ROP Max 
 RPMA.rpm               120.00:  RPM Surface Avg 
 RPMN.rpm               120.00:  RPM Surface Min 
 RPMX.rpm               120.00:  RPM Surface Max 
 RRUN.                    L604:  Rig Run Number 
 RTIM.hr                  7.00:  Time Reaming 
 SAZI.deg               109.27:  Azm, Start 
 SDEP.m                4761.01:  Start Depth 
 SIDD.                      No:  Serv Intrp, DD 
 SINC.deg                75.38:  Inc, Start 
 SPPA.psig             3574.00:  SPP Avg 
 SPPN.psig             3475.00:  SPP Min 
 SPPX.psig             3791.00:  SPP Max 
 STIM.      07.08.48 13-May-20:  Start Time 
 SVCS.                 DD, MWD:  Services 
 SVER.                    9.20:  Sperry Version 
 TDAT.m                 363.00:  Tot Depth Attmp 
 TDDF.                      No:  Trip for DD 
 TDLG.m                 363.00:  Tot Depth Loggd 
 TFF .                      No:  Trip for Fail 
 TQAA.f-kp               20.00:  Torque Abs Avg 
 TQAN.f-kp               18.00:  Torque Abs Min 
 TQAX.f-kp               22.00:  Torque Abs Max 
 TRRT.°/30m              -0.35:  Turn Rotating 
 MRT .                    HCIM:  Maximum Recorded Temperature 
 TTMX.degC               92.16:  Max Tool Temp 
 VS01.                90586518:  Virtual Str1 SN 
 VS02.        AZ90560654Z1W1C6:  Virtual Str2 SN 
 VS03.           AZ90610398F11:  Virtual Str3 SN 
 VS04.                90514975:  Virtual Str4 SN 
 VS05.                90514972:  Virtual Str5 SN 
 VS06.     AZ90603282F11V7D1A6:  Virtual Str6 SN 
 WBMN.klb                 7.00:  WOB Min 
 WOBA.klb                12.00:  WOB Avg 
 WOBX.klb                14.00:  WOB Max 
 YP  .lhf2               32.00:  Yield Point 
~Curve Information Block
#MNEM.UNIT                 API CODE     Curve Description
#---------               -----------    ---------------------------
 TIME.HHMMSS            00 000 000 000:  GT Time & Date
 GTDEPTH.m              00 000 000 000:  GT Depth
 GTPQH.psia             00 000 000 000:  GT HR Quartz Pressure
 GTTQ.degC              00 000 000 000:  GT Quartz Temperature
 GTTN.NONE              00 000 000 000:  GT Test Number
 GTET.sec               00 000 000 000:  GT Elapsed Test Time
 GTTVD.m                00 000 000 000:  GT True Vertical Depth
#Other Information
#
#WARRANTY: Halliburton will use its best efforts to furnish customers with 
#accurate information and interpretations that are part of, and incident to, the services 
#provided.  However, Halliburton cannot and does not warrant the accuracy 
#or correctness of such information and interpretations.  Under no circumstances should any 
#such information or interpretation be relied upon as the sole basis for any drilling, 
#completion, production, or financial decision or any procedure involving any risk to the 
#safety of any drilling venture, drilling rig or its crew or any other third party.  The 
#Customer has full responsibility for all drilling, completion and production operation.  
#Halliburton makes no representations or warranties, either expressed or 
#implied, including, but not limited to, the implied warranties of merchantability or fitness 
#for a particular purpose, with respect to the services rendered.  In no event will 
#Halliburton be liable for failure to obtain any particular results or for 
#any damages, including, but not limited to, indirect, special or consequential damages, 
#resulting from the use of any information or interpretation provided by Halliburton.
#
~A           TIME           GTDEPTH  GTPQH  GTTQ  GTTN  GTET   GTTVD  
# ...
   16:20:03.000.17-May-2020 5073.51 2646.14 71.24 2.00 322.00 2611.87
   16:20:03.200.17-May-2020 5073.51 2646.14 71.24 2.00 322.20 2611.87
   16:20:03.400.17-May-2020 5073.51 2645.71 71.24 2.00 322.40 2611.87
   16:20:03.600.17-May-2020 5073.51 2646.22 71.24 2.00 322.60 2611.87
   16:20:03.800.17-May-2020 5073.51 2645.97 71.24 2.00 322.80 2611.87
   16:20:04.000.17-May-2020 5073.51 2645.86 71.24 2.00 323.00 2611.87
   16:20:04.200.17-May-2020 5073.51 2645.86 71.24 2.00 323.20 2611.87
   16:20:04.400.17-May-2020 5073.51 2645.97 71.24 2.00 323.40 2611.87
   16:20:04.600.17-May-2020 5073.51 2646.05 71.24 2.00 323.60 2611.87
   16:20:04.800.17-May-2020 5073.51 2645.88 71.24 2.00 323.80 2611.87
   16:20:05.000.17-May-2020 5073.51 2645.90 71.23 2.00 324.00 2611.87
   16:20:05.200.17-May-2020 5073.51 2645.90 71.23 2.00 324.20 2611.87
   16:20:05.400.17-May-2020 5073.51 2646.17 71.23 2.00 324.40 2611.87
   16:20:05.600.17-May-2020 5073.51 2645.91 71.23 2.00 324.60 2611.87
   16:20:05.800.17-May-2020 5073.51 2645.85 71.23 2.00 324.80 2611.87
   16:20:06.000.17-May-2020 5073.51 2645.97 71.23 2.00 325.00 2611.87
   16:20:06.200.17-May-2020 5073.51 2645.97 71.23 2.00 325.20 2611.87
   16:20:06.400.17-May-2020 5073.51 2645.93 71.23 2.00 325.40 2611.87
   16:20:06.600.17-May-2020 5073.51 2645.94 71.23 2.00 325.60 2611.87
   16:20:06.800.17-May-2020 5073.51 2645.90 71.23 2.00 325.80 2611.87
   16:20:07.000.17-May-2020 5073.51 2645.92 71.23 2.00 326.00 2611.87
   16:20:07.200.17-May-2020 5073.51 2645.92 71.23 2.00 326.20 2611.87
   16:20:07.400.17-May-2020 5073.51 2646.05 71.23 2.00 326.40 2611.87
   16:20:07.600.17-May-2020 5073.51 2645.95 71.23 2.00 326.60 2611.87
   16:20:07.800.17-May-2020 5073.51 2645.84 71.23 2.00 326.80 2611.87
   16:20:08.000.17-May-2020 5073.51 2645.89 71.23 2.00 327.00 2611.87
   16:20:08.200.17-May-2020 5073.51 2646.00 71.23 2.00 327.20 2611.87
   16:20:08.400.17-May-2020 5073.51 2645.94 71.23 2.00 327.40 2611.87
   16:20:08.600.17-May-2020 5073.51 2645.93 71.23 2.00 327.60 2611.87
   16:20:08.800.17-May-2020 5073.51 2645.92 71.23 2.00 327.80 2611.87
   16:20:09.000.17-May-2020 5073.51 2645.91 71.23 2.00 328.00 2611.87
   16:20:09.200.17-May-2020 5073.51 2645.91 71.23 2.00 328.20 2611.87
   16:20:09.400.17-May-2020 5073.51 2645.91 71.23 2.00 328.40 2611.87
   16:20:09.600.17-May-2020 5073.51 2646.17 71.23 2.00 328.60 2611.87
   16:20:09.800.17-May-2020 5073.51 2645.75 71.23 2.00 328.80 2611.87
   16:20:10.000.17-May-2020 5073.51 2645.87 71.23 2.00 329.00 2611.87
   16:20:10.200.17-May-2020 5073.51 2645.87 71.23 2.00 329.20 2611.87
   16:20:10.400.17-May-2020 5073.51 2645.78 71.23 2.00 329.40 2611.87
   16:20:10.600.17-May-2020 5073.51 2645.93 71.23 2.00 329.60 2611.87
   16:20:10.800.17-May-2020 5073.51 2645.96 71.23 2.00 329.80 2611.87
   16:20:11.000.17-May-2020 5073.51 2645.94 71.23 2.00 330.00 2611.87
   16:20:11.200.17-May-2020 5073.51 2645.94 71.23 2.00 330.20 2611.87
   16:20:11.400.17-May-2020 5073.51 2645.94 71.23 2.00 330.40 2611.87
   16:20:11.600.17-May-2020 5073.51 2645.90 71.23 2.00 330.60 2611.87
   16:20:11.800.17-May-2020 5073.51 2645.89 71.23 2.00 330.80 2611.87
   16:20:12.000.17-May-2020 5073.51 2646.22 71.23 2.00 331.00 2611.87
   16:20:12.200.17-May-2020 5073.51 2645.77 71.23 2.00 331.20 2611.87
   16:20:12.400.17-May-2020 5073.51 2645.87 71.23 2.00 331.40 2611.87
   16:20:12.600.17-May-2020 5073.51 2645.97 71.23 2.00 331.60 2611.87
   16:20:12.800.17-May-2020 5073.51 2645.97 71.23 2.00 331.80 2611.87
   16:20:13.000.17-May-2020 5073.51 2645.92 71.23 2.00 332.00 2611.87
   16:20:13.200.17-May-2020 5073.51 2645.92 71.23 2.00 332.20 2611.87
   16:20:13.400.17-May-2020 5073.51 2645.90 71.23 2.00 332.40 2611.87
   16:20:13.600.17-May-2020 5073.51 2645.90 71.23 2.00 332.60 2611.87
   16:20:13.800.17-May-2020 5073.51 2645.95 71.23 2.00 332.80 2611.87
   16:20:14.000.17-May-2020 5073.51 2645.96 71.23 2.00 333.00 2611.87
   16:20:14.200.17-May-2020 5073.51 2645.96 71.23 2.00 333.20 2611.87
   16:20:14.400.17-May-2020 5073.51 2645.82 71.23 2.00 333.40 2611.87
   16:20:14.600.17-May-2020 5073.51 2645.91 71.23 2.00 333.60 2611.87
   16:20:14.800.17-May-2020 5073.51 2646.00 71.23 2.00 333.80 2611.87
   16:20:15.000.17-May-2020 5073.51 2645.93 71.23 2.00 334.00 2611.87
   16:20:15.200.17-May-2020 5073.51 2645.93 71.23 2.00 334.20 2611.87
   16:20:15.400.17-May-2020 5073.51 2645.91 71.23 2.00 334.40 2611.87
   16:20:15.600.17-May-2020 5073.51 2645.91 71.23 2.00 334.60 2611.87
   16:20:15.800.17-May-2020 5073.51 2645.94 71.23 2.00 334.80 2611.87
   16:20:16.000.17-May-2020 5073.51 2646.02 71.23 2.00 335.00 2611.87
   16:20:16.200.17-May-2020 5073.51 2645.99 71.23 2.00 335.20 2611.87
   16:20:16.400.17-May-2020 5073.51 2645.81 71.23 2.00 335.40 2611.87
   16:20:16.600.17-May-2020 5073.51 2645.97 71.23 2.00 335.60 2611.87
   16:20:16.800.17-May-2020 5073.51 2646.09 71.23 2.00 335.80 2611.87
   16:20:17.000.17-May-2020 5073.51 2645.83 71.22 2.00 336.00 2611.87
   16:20:17.200.17-May-2020 5073.51 2645.83 71.22 2.00 336.20 2611.87
   16:20:17.400.17-May-2020 5073.51 2645.98 71.22 2.00 336.40 2611.87
   16:20:17.600.17-May-2020 5073.51 2645.80 71.22 2.00 336.60 2611.87
   16:20:17.800.17-May-2020 5073.51 2646.18 71.22 2.00 336.80 2611.87
   16:20:18.000.17-May-2020 5073.51 2645.85 71.22 2.00 337.00 2611.87
   16:20:18.200.17-May-2020 5073.51 2645.85 71.22 2.00 337.20 2611.87
   16:20:18.400.17-May-2020 5073.51 2646.11 71.22 2.00 337.40 2611.87
   16:20:18.600.17-May-2020 5073.51 2646.03 71.22 2.00 337.60 2611.87
   16:20:18.800.17-May-2020 5073.51 2645.83 71.22 2.00 337.80 2611.87
   16:20:19.000.17-May-2020 5073.51 2645.86 71.22 2.00 338.00 2611.87
   16:20:19.200.17-May-2020 5073.51 2645.86 71.22 2.00 338.20 2611.87
   16:20:19.400.17-May-2020 5073.51 2645.96 71.22 2.00 338.40 2611.87
   16:20:19.600.17-May-2020 5073.51 2645.95 71.22 2.00 338.60 2611.87
   16:20:19.800.17-May-2020 5073.51 2645.91 71.22 2.00 338.80 2611.87
   16:20:20.000.17-May-2020 5073.51 2645.91 71.22 2.00 339.00 2611.87
   16:20:20.200.17-May-2020 5073.51 2645.92 71.22 2.00 339.20 2611.87
   16:20:20.400.17-May-2020 5073.51 2645.93 71.22 2.00 339.40 2611.87
   16:20:20.600.17-May-2020 5073.51 2646.13 71.22 2.00 339.60 2611.87
   16:20:20.800.17-May-2020 5073.51 2645.82 71.22 2.00 339.80 2611.87
   16:20:21.000.17-May-2020 5073.51 2645.87 71.22 2.00 340.00 2611.87
   16:20:21.200.17-May-2020 5073.51 2645.87 71.22 2.00 340.20 2611.87
   16:20:21.400.17-May-2020 5073.51 2645.97 71.22 2.00 340.40 2611.87
   16:20:21.600.17-May-2020 5073.51 2645.95 71.22 2.00 340.60 2611.87
   16:20:21.800.17-May-2020 5073.51 2645.90 71.22 2.00 340.80 2611.87
   16:20:22.000.17-May-2020 5073.51 2645.90 71.22 2.00 341.00 2611.87
   16:20:22.200.17-May-2020 5073.51 2645.90 71.22 2.00 341.20 2611.87
   16:20:22.400.17-May-2020 5073.51 2645.92 71.22 2.00 341.40 2611.87
   16:20:22.600.17-May-2020 5073.51 2646.00 71.22 2.00 341.60 2611.87
   16:20:22.800.17-May-2020 5073.51 2646.01 71.22 2.00 341.80 2611.87
   16:20:23.000.17-May-2020 5073.51 2645.80 71.22 2.00 342.00 2611.87
   16:20:23.200.17-May-2020 5073.51 2645.80 71.22 2.00 342.20 2611.87
   16:20:23.400.17-May-2020 5073.51 2646.14 71.22 2.00 342.40 2611.87
   16:20:23.600.17-May-2020 5073.51 2645.84 71.22 2.00 342.60 2611.87
   16:20:23.800.17-May-2020 5073.51 2645.88 71.22 2.00 342.80 2611.87
   16:20:24.000.17-May-2020 5073.51 2645.98 71.22 2.00 343.00 2611.87
   16:20:24.200.17-May-2020 5073.51 2645.98 71.22 2.00 343.20 2611.87
   16:20:24.400.17-May-2020 5073.51 2646.14 71.22 2.00 343.40 2611.87
   16:20:24.600.17-May-2020 5073.51 2645.74 71.22 2.00 343.60 2611.87
   16:20:24.800.17-May-2020 5073.51 2645.87 71.22 2.00 343.80 2611.87
   16:20:25.000.17-May-2020 5073.51 2646.05 71.22 2.00 344.00 2611.87
   16:20:25.200.17-May-2020 5073.51 2646.05 71.22 2.00 344.20 2611.87
   16:20:25.400.17-May-2020 5073.51 2645.85 71.22 2.00 344.40 2611.87
   16:20:25.600.17-May-2020 5073.51 2645.83 71.22 2.00 344.60 2611.87
   16:20:25.800.17-May-2020 5073.51 2645.99 71.22 2.00 344.80 2611.87
