~Version Information
 VERS.                  2.0:   CWLS log ASCII Standard -VERSION 2.0
 WRAP.                   NO:   One line per depth step
~Well Information Block
#MNEM.UNIT     VALUE/NAME     DESCRIPTION
#---------     -----------    ---------------------------
 STRT.S             19:37:06 17-May-20: START TIME 19:37:06 17-May-20
 STOP.S             19:44:11 17-May-20: STOP TIME  19:44:11 17-May-20
 STEP.S                   0.00: STEP TIME
 NULL.                 -999.25: NULL VALUE
 UNIT.                     N/A:  LOGGING EQUIPMENT ID
 DCON.         Sperry Drilling:  DIRECTNL CONTR
 DOE .                     N/A:  DOE NUMBER
 JOBN.        AZ-XX-0906252240:  JOB TICKET NUMB
 MWDS.                     N/A:  MWD SHOP
 PROV.                    Baku:  PROVINCE
 STAT.                    Baku:  STATE NAME
 REGN.                   EESSA:  REGION
 BASE.              Azerbaijan:  LOGGING EQUIPMENT BASE LOCATION
 UWI .                     N/A:  UNIQUE WELL IDENTIFIER
 API .                     N/A:  API NUMBER
 MDS .        Operator Entered:  MAG DATA SOURCE
 WTYP.                Deviated:  WELL TYPE
 COMP.     BP Exploration (Caspian Sea) Ltd.:  COMPANY
 SRVC.          Turan Drilling:  CONTRACTOR
 WELL.           J23 (Slot 07):  WELL NAME
 CTRY.              Azerbaijan:  COUNTRY NAME
 FLD .                     ACG:  FIELD NAME
 PDAT.          Mean Sea Level:  PERMANENT DATUM
 RIG .             West Chirag:  RIG NAME
 SON .        AZ-XX-0906252240:  JOB NUMBER
 FTOP.          Formation Tops:  FORM TOPS DESC
 ILTD.               Lithology:  INTERP LTH DESC
 SVYD.                  Survey:  SURVEY DESC
 DMOD.             Drill Model:  DRILL MOD DESC
 HPTY.       Minimum Curvature:  HOLE POS TYPE
 NREF.                    Grid:  NORTH REFERENCE
 SPUD.               27-Aug-20:  SPUD DATE
 DATE.      00.00.00 19-May-20:  END TIME
 STIM.      03.00.00 25-Mar-20:  START TIME
 DMF .             Drill Floor:  DRILL MEAS FROM
 DFST.                        :  DIST FSL TEXT
 DFWT.                        :  DIST FWL TEXT
 CNTY.                        :  COUNTY
 LOC .                        :  LOCATION
 LMF .             Drill Floor:  LOG MEASURED FROM
 VSNS.m                   9.43:  VERT SEC N/S
 VSEW.m                  -8.91:  VERT SEC E/W
 AGAP.m                  43.00:  AIR GAP
 DEP .m                 354.17:  DEPTH
 APD .m                  43.00:  DEPTH ABOVE PD
 WDMS.m                 169.80:  WD ELEV
 EGL .m                   0.00:  GROUND ELEVATION
 EPD .m                   0.00:  ELEVATION
 AZTC.deg                 6.31:  AZM TOTAL CORR
 GRDC.deg                 0.14:  GRID CORRECTION
 MDEC.deg                 6.45:  MAGNETIC DECL
 MDIP.deg                59.56:  MAGNETIC DIP
 MFLD.nT              50295.00:  MAGNETIC FIELD
 GVFD.g                   1.00:  GRAVITY FIELD
 VSDR.deg               179.88:  VERT SEC DIRECT
 TDD .m                5150.01:  TOTAL DEPTH (DRILLER)
 SDEP.m                 864.00:  START DEPTH
 DFSL.m                   0.00:  DISTANCE FSL
 DFWL.m                   0.00:  DISTANCE FWL
 UTMY.m             4443793.85:  UTM Y
 UTMX.m              519005.06:  UTM X
 WHEW.m                  -8.91:  WELL HEAD E/W
 WHNS.m                   9.43:  WELL HEAD N/S
 LONG.deg                51.22:  LONGITUDE
 LATI.deg                40.13:  LATITUDE
 TVDS.m                  43.00:  TVDSS CORRECTN
 EKB .m                   0.00:  KB ELEVATION
 EDF .m                  43.00:  DF ELEVATION
 TDL .m                 363.00:  TOTAL DEPTH (LOGGER)
 MAGU.                 1850802:  MAGUTM CHECKSUM
 VSC .                       0:  VS TO CLOSURE
~Parameter Information Block
#MNEM.UNIT       Value        Description
#---------     -----------    ---------------------------
 AV  .mps                 2.30:  Ann Velocity 
 AVMX.mps                 4.40:  Max Ann Veloc 
 AZIF.deg               110.24:  Azm, Final 
 BHAT.        Rotary Steerable:  BHA Type 
 BREV.rev               331.00:  Rev Bit Total 
 BROT.°/30m               0.00:  Build Rotating 
 BS  .in                  8.50:  Bit Size 
 BSZ .in                  8.50:  Bit Size 
 BTPL.psig              585.00:  Bit Press Loss 
 CABU.                     Yes:  Customer Abuse 
 TCS .hr                122.75:  Time Ciculation Ended 
 CV  .mps                 2.67:  Crit Velocity 
 CVMX.mps                 3.56:  Max Crit Veloc 
 DD1 .          Rashad Habibov:  Direct Drillr 1 
 DD2 .         Rasim Ibrahimov:  Direct Drillr 2 
 DDSV.               Geo-Pilot:  DD Service 
 DEFF.%                  98.00:  % Det Eff 
 DLRX.°/30m               0.75:  Dogleg Rot Max 
 DLSO.°/30m               1.25:  Dogleg Oriented 
 DLSX.°/30m               2.06:  Dogleg Str Max 
 DRET.      07.45.00 17-May-20:  Drill End Time 
 DRST.      22.50.00 15-May-20:  Drill Start Tim 
 DTIM.hr                 20.75:  Time Drilling 
 EDEP.m                5124.01:  End Depth 
 ENG1.           Eldar Hajiyev:  Engineer 1 
 ENG2.        Marcelo Sandoval:  Engineer 2 
 ENG3.        Davud huseynzada:  Engineer 3 
 ENG4.          Ruslan Safarov:  Engineer 4 
 ETIM.      04.33.00 23-May-20:  End Time 
 FLOI.gpm               450.00:  Flow In 
 FLON.gpm               400.00:  Flow In Min 
 FLOS.cptm                0.00:  Fluid Loss 
 FLOX.gpm               500.00:  Flow In Max 
 FTRO.       Formation Presure:  FTWD Run Obj 
 HFLO.                      No:  High Flow 
 HPRE.                     Yes:  High Pressure 
 HTEM.                      No:  High Temp 
 HYDO.m                   1.80:  Hydro Offset 
 IFIN.deg                75.06:  Inc, Final 
 IMAX.deg                75.38:  Inc Max 
 IMIN.deg                74.69:  Inc Min 
 IMND.m                5027.38:  Inc Min Depth 
 IMXD.m                4771.61:  Inc Max Depth 
 JARR.                      No:  Jarring 
 LETM.      07.45.00 17-May-20:  Log End Time 
 LOST.hr                     0:  Lost Rig Time 
 LSTM.      22.50.00 15-May-20:  Log Start Time 
 MDCL.ppm             42000.00:  Mud Chlorides 
 MDES.     Inversion Oil/Synthetic:  Mud Desc 
 DFD .sg                  1.34:  Mud Density 
 MDMN.sg                  1.34:  Dens Mud Min 
 MDMX.sg                  1.34:  Dens Mud Max 
 MOIL.                       0:  Run Mud Oil % 
 MOWR.                   67:33:  Run Mud OWR 
 MSND.                       0:  Run Mud Sand % 
 MSOL.                     1.8:  Run Mud Solids% 
 DFV .spqt               76.00:  Mud Viscosity 
 MWOD.in                  6.75:  MWD Tool OD 
 MWSI.                      No:  Serv Intrp, MWD 
 OTIM.hr                228.19:  Time Operating 
 PCON.           Look Like New:  Pad Condition 
 PMAX.psia             6164.70:  Press Op, Max 
 PV  .cP                 28.00:  Mud PV 
 RUN .                     900:  Run Number 
 ROPA.m/hr               19.00:  ROP Avg 
 ROPN.m/hr               11.00:  ROP Min 
 ROPX.m/hr               36.00:  ROP Max 
 RPMA.rpm               120.00:  RPM Surface Avg 
 RPMN.rpm               120.00:  RPM Surface Min 
 RPMX.rpm               120.00:  RPM Surface Max 
 RRUN.                    L604:  Rig Run Number 
 RTIM.hr                  7.00:  Time Reaming 
 SAZI.deg               109.27:  Azm, Start 
 SDEP.m                4761.01:  Start Depth 
 SIDD.                      No:  Serv Intrp, DD 
 SINC.deg                75.38:  Inc, Start 
 SPPA.psig             3574.00:  SPP Avg 
 SPPN.psig             3475.00:  SPP Min 
 SPPX.psig             3791.00:  SPP Max 
 STIM.      07.08.48 13-May-20:  Start Time 
 SVCS.                 DD, MWD:  Services 
 SVER.                    9.20:  Sperry Version 
 TDAT.m                 363.00:  Tot Depth Attmp 
 TDDF.                      No:  Trip for DD 
 TDLG.m                 363.00:  Tot Depth Loggd 
 TFF .                      No:  Trip for Fail 
 TQAA.f-kp               20.00:  Torque Abs Avg 
 TQAN.f-kp               18.00:  Torque Abs Min 
 TQAX.f-kp               22.00:  Torque Abs Max 
 TRRT.°/30m              -0.35:  Turn Rotating 
 MRT .                    HCIM:  Maximum Recorded Temperature 
 TTMX.degC               92.16:  Max Tool Temp 
 VS01.                90586518:  Virtual Str1 SN 
 VS02.        AZ90560654Z1W1C6:  Virtual Str2 SN 
 VS03.           AZ90610398F11:  Virtual Str3 SN 
 VS04.                90514975:  Virtual Str4 SN 
 VS05.                90514972:  Virtual Str5 SN 
 VS06.     AZ90603282F11V7D1A6:  Virtual Str6 SN 
 WBMN.klb                 7.00:  WOB Min 
 WOBA.klb                12.00:  WOB Avg 
 WOBX.klb                14.00:  WOB Max 
 YP  .lhf2               32.00:  Yield Point 
~Curve Information Block
#MNEM.UNIT                 API CODE     Curve Description
#---------               -----------    ---------------------------
 TIME.HHMMSS            00 000 000 000:  GT Time & Date
 GTDEPTH.m              00 000 000 000:  GT Depth
 GTPQH.psia             00 000 000 000:  GT HR Quartz Pressure
 GTTQ.degC              00 000 000 000:  GT Quartz Temperature
 GTTN.NONE              00 000 000 000:  GT Test Number
 GTET.sec               00 000 000 000:  GT Elapsed Test Time
 GTTVD.m                00 000 000 000:  GT True Vertical Depth
#Other Information
#
#WARRANTY: Halliburton will use its best efforts to furnish customers with 
#accurate information and interpretations that are part of, and incident to, the services 
#provided.  However, Halliburton cannot and does not warrant the accuracy 
#or correctness of such information and interpretations.  Under no circumstances should any 
#such information or interpretation be relied upon as the sole basis for any drilling, 
#completion, production, or financial decision or any procedure involving any risk to the 
#safety of any drilling venture, drilling rig or its crew or any other third party.  The 
#Customer has full responsibility for all drilling, completion and production operation.  
#Halliburton makes no representations or warranties, either expressed or 
#implied, including, but not limited to, the implied warranties of merchantability or fitness 
#for a particular purpose, with respect to the services rendered.  In no event will 
#Halliburton be liable for failure to obtain any particular results or for 
#any damages, including, but not limited to, indirect, special or consequential damages, 
#resulting from the use of any information or interpretation provided by Halliburton.
#
~A           TIME           GTDEPTH  GTPQH  GTTQ  GTTN  GTET   GTTVD  
# ...
   19:42:51.583.17-May-2020 4994.01 2917.20 69.63 4.00 344.97 2591.05
   19:42:51.783.17-May-2020 4994.01 2917.20 69.63 4.00 345.17 2591.05
   19:42:51.983.17-May-2020 4994.01 2917.27 69.63 4.00 345.37 2591.05
   19:42:52.183.17-May-2020 4994.01 2917.29 69.63 4.00 345.57 2591.05
   19:42:52.383.17-May-2020 4994.01 2917.22 69.63 4.00 345.77 2591.05
   19:42:52.583.17-May-2020 4994.01 2917.23 69.63 4.00 345.97 2591.05
   19:42:52.783.17-May-2020 4994.01 2917.23 69.63 4.00 346.17 2591.05
   19:42:52.983.17-May-2020 4994.01 2917.24 69.63 4.00 346.37 2591.05
   19:42:53.183.17-May-2020 4994.01 2917.23 69.63 4.00 346.57 2591.05
   19:42:53.383.17-May-2020 4994.01 2917.22 69.63 4.00 346.77 2591.05
   19:42:53.583.17-May-2020 4994.01 2917.23 69.63 4.00 346.97 2591.05
   19:42:53.783.17-May-2020 4994.01 2917.23 69.63 4.00 347.17 2591.05
   19:42:53.983.17-May-2020 4994.01 2917.22 69.63 4.00 347.37 2591.05
   19:42:54.183.17-May-2020 4994.01 2917.22 69.63 4.00 347.57 2591.05
   19:42:54.383.17-May-2020 4994.01 2917.23 69.63 4.00 347.77 2591.05
   19:42:54.583.17-May-2020 4994.01 2917.31 69.63 4.00 347.97 2591.05
   19:42:54.783.17-May-2020 4994.01 2917.31 69.63 4.00 348.17 2591.05
   19:42:54.983.17-May-2020 4994.01 2917.22 69.63 4.00 348.37 2591.05
   19:42:55.183.17-May-2020 4994.01 2917.24 69.63 4.00 348.57 2591.05
   19:42:55.383.17-May-2020 4994.01 2917.23 69.63 4.00 348.77 2591.05
   19:42:55.583.17-May-2020 4994.01 2917.21 69.63 4.00 348.97 2591.05
   19:42:55.783.17-May-2020 4994.01 2917.21 69.63 4.00 349.17 2591.05
   19:42:55.983.17-May-2020 4994.01 2917.21 69.63 4.00 349.37 2591.05
   19:42:56.183.17-May-2020 4994.01 2917.20 69.63 4.00 349.57 2591.05
   19:42:56.383.17-May-2020 4994.01 2917.33 69.63 4.00 349.77 2591.05
   19:42:56.583.17-May-2020 4994.01 2917.18 69.63 4.00 349.97 2591.05
   19:42:56.783.17-May-2020 4994.01 2917.18 69.63 4.00 350.17 2591.05
   19:42:56.983.17-May-2020 4994.01 2917.22 69.63 4.00 350.37 2591.05
   19:42:57.183.17-May-2020 4994.01 2917.25 69.63 4.00 350.57 2591.05
   19:42:57.383.17-May-2020 4994.01 2917.32 69.63 4.00 350.77 2591.05
   19:42:57.583.17-May-2020 4994.01 2917.20 69.63 4.00 350.97 2591.05
   19:42:57.783.17-May-2020 4994.01 2917.20 69.63 4.00 351.17 2591.05
   19:42:57.983.17-May-2020 4994.01 2917.34 69.63 4.00 351.37 2591.05
   19:42:58.183.17-May-2020 4994.01 2917.15 69.63 4.00 351.57 2591.05
   19:42:58.383.17-May-2020 4994.01 2917.26 69.63 4.00 351.77 2591.05
   19:42:58.583.17-May-2020 4994.01 2917.25 69.63 4.00 351.97 2591.05
   19:42:58.783.17-May-2020 4994.01 2917.25 69.63 4.00 352.17 2591.05
   19:42:58.983.17-May-2020 4994.01 2917.27 69.63 4.00 352.37 2591.05
   19:42:59.183.17-May-2020 4994.01 2917.21 69.63 4.00 352.57 2591.05
   19:42:59.383.17-May-2020 4994.01 2917.24 69.63 4.00 352.77 2591.05
   19:42:59.582.17-May-2020 4994.01 2917.25 69.63 4.00 352.97 2591.05
   19:42:59.782.17-May-2020 4994.01 2917.25 69.63 4.00 353.17 2591.05
   19:42:59.982.17-May-2020 4994.01 2917.21 69.63 4.00 353.37 2591.05
   19:43:00.182.17-May-2020 4994.01 2917.22 69.63 4.00 353.57 2591.05
   19:43:00.382.17-May-2020 4994.01 2917.21 69.63 4.00 353.77 2591.05
   19:43:00.582.17-May-2020 4994.01 2917.22 69.63 4.00 353.97 2591.05
   19:43:00.782.17-May-2020 4994.01 2917.22 69.63 4.00 354.17 2591.05
   19:43:00.982.17-May-2020 4994.01 2917.22 69.63 4.00 354.37 2591.05
   19:43:01.182.17-May-2020 4994.01 2917.26 69.62 4.00 354.57 2591.05
   19:43:01.382.17-May-2020 4994.01 2917.23 69.62 4.00 354.77 2591.05
   19:43:01.582.17-May-2020 4994.01 2917.20 69.62 4.00 354.97 2591.05
   19:43:01.782.17-May-2020 4994.01 2917.20 69.62 4.00 355.17 2591.05
   19:43:01.982.17-May-2020 4994.01 2917.22 69.62 4.00 355.37 2591.05
   19:43:02.182.17-May-2020 4994.01 2917.22 69.62 4.00 355.57 2591.05
   19:43:02.382.17-May-2020 4994.01 2917.21 69.62 4.00 355.77 2591.05
   19:43:02.582.17-May-2020 4994.01 2917.21 69.62 4.00 355.97 2591.05
   19:43:02.782.17-May-2020 4994.01 2917.21 69.62 4.00 356.17 2591.05
   19:43:02.982.17-May-2020 4994.01 2917.27 69.62 4.00 356.37 2591.05
   19:43:03.182.17-May-2020 4994.01 2917.26 69.62 4.00 356.57 2591.05
   19:43:03.382.17-May-2020 4994.01 2917.19 69.62 4.00 356.77 2591.05
   19:43:03.582.17-May-2020 4994.01 2917.28 69.62 4.00 356.97 2591.05
   19:43:03.782.17-May-2020 4994.01 2917.28 69.62 4.00 357.17 2591.05
   19:43:03.982.17-May-2020 4994.01 2917.26 69.62 4.00 357.37 2591.05
   19:43:04.182.17-May-2020 4994.01 2917.25 69.62 4.00 357.57 2591.05
   19:43:04.382.17-May-2020 4994.01 2917.19 69.62 4.00 357.77 2591.05
   19:43:04.582.17-May-2020 4994.01 2917.32 69.62 4.00 357.97 2591.05
   19:43:04.782.17-May-2020 4994.01 2917.32 69.62 4.00 358.17 2591.05
   19:43:04.982.17-May-2020 4994.01 2917.23 69.62 4.00 358.37 2591.05
   19:43:05.182.17-May-2020 4994.01 2917.24 69.62 4.00 358.57 2591.05
   19:43:05.382.17-May-2020 4994.01 2917.24 69.62 4.00 358.77 2591.05
   19:43:05.582.17-May-2020 4994.01 2917.32 69.62 4.00 358.97 2591.05
   19:43:05.782.17-May-2020 4994.01 2917.32 69.62 4.00 359.17 2591.05
   19:43:05.982.17-May-2020 4994.01 2917.22 69.62 4.00 359.37 2591.05
   19:43:06.182.17-May-2020 4994.01 2917.24 69.62 4.00 359.57 2591.05
   19:43:06.382.17-May-2020 4994.01 2917.23 69.62 4.00 359.77 2591.05
   19:43:06.582.17-May-2020 4994.01 2917.22 69.62 4.00 359.97 2591.05
   19:43:06.782.17-May-2020 4994.01 2917.22 69.62 4.00 360.17 2591.05
   19:43:06.982.17-May-2020 4994.01 2917.20 69.62 4.00 360.37 2591.05
   19:43:07.182.17-May-2020 4994.01 2917.21 69.62 4.00 360.57 2591.05
   19:43:07.382.17-May-2020 4994.01 2917.29 69.62 4.00 360.77 2591.05
   19:43:07.582.17-May-2020 4994.01 2917.16 69.62 4.00 360.97 2591.05
   19:43:07.782.17-May-2020 4994.01 2917.16 69.62 4.00 361.17 2591.05
   19:43:07.982.17-May-2020 4994.01 2917.26 69.62 4.00 361.37 2591.05
   19:43:08.182.17-May-2020 4994.01 2917.19 69.62 4.00 361.57 2591.05
   19:43:08.382.17-May-2020 4994.01 2917.23 69.62 4.00 361.77 2591.05
   19:43:08.582.17-May-2020 4994.01 2917.22 69.62 4.00 361.97 2591.05
   19:43:08.782.17-May-2020 4994.01 2917.22 69.62 4.00 362.17 2591.05
   19:43:08.982.17-May-2020 4994.01 2917.21 69.62 4.00 362.37 2591.05
   19:43:09.182.17-May-2020 4994.01 2917.21 69.62 4.00 362.57 2591.05
   19:43:09.382.17-May-2020 4994.01 2917.20 69.62 4.00 362.77 2591.05
   19:43:09.582.17-May-2020 4994.01 2917.24 69.62 4.00 362.97 2591.05
   19:43:09.782.17-May-2020 4994.01 2917.30 69.62 4.00 363.17 2591.05
   19:43:09.982.17-May-2020 4994.01 2917.19 69.62 4.00 363.37 2591.05
   19:43:10.182.17-May-2020 4994.01 2917.30 69.62 4.00 363.57 2591.05
   19:43:10.382.17-May-2020 4994.01 2917.17 69.62 4.00 363.77 2591.05
   19:43:10.582.17-May-2020 4994.01 2917.26 69.62 4.00 363.97 2591.05
   19:43:10.782.17-May-2020 4994.01 2917.26 69.62 4.00 364.17 2591.05
   19:43:10.982.17-May-2020 4994.01 2917.19 69.62 4.00 364.37 2591.05
   19:43:11.182.17-May-2020 4994.01 2917.31 69.62 4.00 364.57 2591.05
   19:43:11.382.17-May-2020 4994.01 2917.21 69.62 4.00 364.77 2591.05
   19:43:11.582.17-May-2020 4994.01 2917.20 69.62 4.00 364.97 2591.05
   19:43:11.782.17-May-2020 4994.01 2917.20 69.62 4.00 365.17 2591.05
   19:43:11.982.17-May-2020 4994.01 2917.24 69.62 4.00 365.37 2591.05
   19:43:12.182.17-May-2020 4994.01 2917.30 69.61 4.00 365.57 2591.05
   19:43:12.381.17-May-2020 4994.01 2917.21 69.61 4.00 365.77 2591.05
   19:43:12.581.17-May-2020 4994.01 2917.21 69.61 4.00 365.97 2591.05
   19:43:12.781.17-May-2020 4994.01 2917.21 69.61 4.00 366.17 2591.05
   19:43:12.981.17-May-2020 4994.01 2917.22 69.61 4.00 366.37 2591.05
   19:43:13.181.17-May-2020 4994.01 2917.21 69.61 4.00 366.57 2591.05
   19:43:13.381.17-May-2020 4994.01 2917.20 69.61 4.00 366.77 2591.05
   19:43:13.581.17-May-2020 4994.01 2917.20 69.61 4.00 366.97 2591.05
   19:43:13.781.17-May-2020 4994.01 2917.20 69.61 4.00 367.17 2591.05
   19:43:13.981.17-May-2020 4994.01 2917.31 69.61 4.00 367.37 2591.05
   19:43:14.181.17-May-2020 4994.01 2917.14 69.61 4.00 367.57 2591.05
   19:43:14.381.17-May-2020 4994.01 2917.38 69.61 4.00 367.77 2591.05
