~Version Information
 VERS.                  2.0:   CWLS log ASCII Standard -VERSION 2.0
 WRAP.                   NO:   One line per depth step
~Well Information Block
#MNEM.UNIT     VALUE/NAME     DESCRIPTION
#---------     -----------    ---------------------------
 STRT.S             22:05:00 17-May-20: START TIME 22:05:00 17-May-20
 STOP.S             22:12:03 17-May-20: STOP TIME  22:12:03 17-May-20
 STEP.S                   0.00: STEP TIME
 NULL.                 -999.25: NULL VALUE
 UNIT.                     N/A:  LOGGING EQUIPMENT ID
 DCON.         Sperry Drilling:  DIRECTNL CONTR
 DOE .                     N/A:  DOE NUMBER
 JOBN.        AZ-XX-0906252240:  JOB TICKET NUMB
 MWDS.                     N/A:  MWD SHOP
 PROV.                    Baku:  PROVINCE
 STAT.                    Baku:  STATE NAME
 REGN.                   EESSA:  REGION
 BASE.              Azerbaijan:  LOGGING EQUIPMENT BASE LOCATION
 UWI .                     N/A:  UNIQUE WELL IDENTIFIER
 API .                     N/A:  API NUMBER
 MDS .        Operator Entered:  MAG DATA SOURCE
 WTYP.                Deviated:  WELL TYPE
 COMP.     BP Exploration (Caspian Sea) Ltd.:  COMPANY
 SRVC.          Turan Drilling:  CONTRACTOR
 WELL.           J23 (Slot 07):  WELL NAME
 CTRY.              Azerbaijan:  COUNTRY NAME
 FLD .                     ACG:  FIELD NAME
 PDAT.          Mean Sea Level:  PERMANENT DATUM
 RIG .             West Chirag:  RIG NAME
 SON .        AZ-XX-0906252240:  JOB NUMBER
 FTOP.          Formation Tops:  FORM TOPS DESC
 ILTD.               Lithology:  INTERP LTH DESC
 SVYD.                  Survey:  SURVEY DESC
 DMOD.             Drill Model:  DRILL MOD DESC
 HPTY.       Minimum Curvature:  HOLE POS TYPE
 NREF.                    Grid:  NORTH REFERENCE
 SPUD.               27-Aug-20:  SPUD DATE
 DATE.      00.00.00 19-May-20:  END TIME
 STIM.      03.00.00 25-Mar-20:  START TIME
 DMF .             Drill Floor:  DRILL MEAS FROM
 DFST.                        :  DIST FSL TEXT
 DFWT.                        :  DIST FWL TEXT
 CNTY.                        :  COUNTY
 LOC .                        :  LOCATION
 LMF .             Drill Floor:  LOG MEASURED FROM
 VSNS.m                   9.43:  VERT SEC N/S
 VSEW.m                  -8.91:  VERT SEC E/W
 AGAP.m                  43.00:  AIR GAP
 DEP .m                 354.17:  DEPTH
 APD .m                  43.00:  DEPTH ABOVE PD
 WDMS.m                 169.80:  WD ELEV
 EGL .m                   0.00:  GROUND ELEVATION
 EPD .m                   0.00:  ELEVATION
 AZTC.deg                 6.31:  AZM TOTAL CORR
 GRDC.deg                 0.14:  GRID CORRECTION
 MDEC.deg                 6.45:  MAGNETIC DECL
 MDIP.deg                59.56:  MAGNETIC DIP
 MFLD.nT              50295.00:  MAGNETIC FIELD
 GVFD.g                   1.00:  GRAVITY FIELD
 VSDR.deg               179.88:  VERT SEC DIRECT
 TDD .m                5150.01:  TOTAL DEPTH (DRILLER)
 SDEP.m                 864.00:  START DEPTH
 DFSL.m                   0.00:  DISTANCE FSL
 DFWL.m                   0.00:  DISTANCE FWL
 UTMY.m             4443793.85:  UTM Y
 UTMX.m              519005.06:  UTM X
 WHEW.m                  -8.91:  WELL HEAD E/W
 WHNS.m                   9.43:  WELL HEAD N/S
 LONG.deg                51.22:  LONGITUDE
 LATI.deg                40.13:  LATITUDE
 TVDS.m                  43.00:  TVDSS CORRECTN
 EKB .m                   0.00:  KB ELEVATION
 EDF .m                  43.00:  DF ELEVATION
 TDL .m                 363.00:  TOTAL DEPTH (LOGGER)
 MAGU.                 1850802:  MAGUTM CHECKSUM
 VSC .                       0:  VS TO CLOSURE
~Parameter Information Block
#MNEM.UNIT       Value        Description
#---------     -----------    ---------------------------
 AV  .mps                 2.30:  Ann Velocity 
 AVMX.mps                 4.40:  Max Ann Veloc 
 AZIF.deg               110.24:  Azm, Final 
 BHAT.        Rotary Steerable:  BHA Type 
 BREV.rev               331.00:  Rev Bit Total 
 BROT.°/30m               0.00:  Build Rotating 
 BS  .in                  8.50:  Bit Size 
 BSZ .in                  8.50:  Bit Size 
 BTPL.psig              585.00:  Bit Press Loss 
 CABU.                     Yes:  Customer Abuse 
 COMM.                     íe:  Run Comments 1 
 TCS .hr                122.75:  Time Ciculation Ended 
 CV  .mps                 2.67:  Crit Velocity 
 CVMX.mps                 3.56:  Max Crit Veloc 
 DD1 .          Rashad Habibov:  Direct Drillr 1 
 DD2 .         Rasim Ibrahimov:  Direct Drillr 2 
 DDSV.               Geo-Pilot:  DD Service 
 DEFF.%                  98.00:  % Det Eff 
 DLRX.°/30m               0.75:  Dogleg Rot Max 
 DLSO.°/30m               1.25:  Dogleg Oriented 
 DLSX.°/30m               2.06:  Dogleg Str Max 
 DRET.      07.45.00 17-May-20:  Drill End Time 
 DRST.      22.50.00 15-May-20:  Drill Start Tim 
 DTIM.hr                 20.75:  Time Drilling 
 EDEP.m                5124.01:  End Depth 
 ENG1.           Eldar Hajiyev:  Engineer 1 
 ENG2.        Marcelo Sandoval:  Engineer 2 
 ENG3.        Davud huseynzada:  Engineer 3 
 ENG4.          Ruslan Safarov:  Engineer 4 
 ETIM.      04.33.00 23-May-20:  End Time 
 FLOI.gpm               450.00:  Flow In 
 FLON.gpm               400.00:  Flow In Min 
 FLOS.cptm                0.00:  Fluid Loss 
 FLOX.gpm               500.00:  Flow In Max 
 FTRO.       Formation Presure:  FTWD Run Obj 
 HFLO.                      No:  High Flow 
 HPRE.                     Yes:  High Pressure 
 HTEM.                      No:  High Temp 
 HYDO.m                   1.80:  Hydro Offset 
 IFIN.deg                75.06:  Inc, Final 
 IMAX.deg                75.38:  Inc Max 
 IMIN.deg                74.69:  Inc Min 
 IMND.m                5027.38:  Inc Min Depth 
 IMXD.m                4771.61:  Inc Max Depth 
 JARR.                      No:  Jarring 
 LETM.      07.45.00 17-May-20:  Log End Time 
 LOST.hr                     0:  Lost Rig Time 
 LSTM.      22.50.00 15-May-20:  Log Start Time 
 MDCL.ppm             42000.00:  Mud Chlorides 
 MDES.     Inversion Oil/Synthetic:  Mud Desc 
 DFD .sg                  1.34:  Mud Density 
 MDMN.sg                  1.34:  Dens Mud Min 
 MDMX.sg                  1.34:  Dens Mud Max 
 MOIL.                       0:  Run Mud Oil % 
 MOWR.                   67:33:  Run Mud OWR 
 MSND.                       0:  Run Mud Sand % 
 MSOL.                     1.8:  Run Mud Solids% 
 DFV .spqt               76.00:  Mud Viscosity 
 MWOD.in                  6.75:  MWD Tool OD 
 MWSI.                      No:  Serv Intrp, MWD 
 OTIM.hr                228.19:  Time Operating 
 PCON.           Look Like New:  Pad Condition 
 PMAX.psia             6164.70:  Press Op, Max 
 PV  .cP                 28.00:  Mud PV 
 RUN .                     900:  Run Number 
 ROPA.m/hr               19.00:  ROP Avg 
 ROPN.m/hr               11.00:  ROP Min 
 ROPX.m/hr               36.00:  ROP Max 
 RPMA.rpm               120.00:  RPM Surface Avg 
 RPMN.rpm               120.00:  RPM Surface Min 
 RPMX.rpm               120.00:  RPM Surface Max 
 RRUN.                    L604:  Rig Run Number 
 RTIM.hr                  7.00:  Time Reaming 
 SAZI.deg               109.27:  Azm, Start 
 SDEP.m                4761.01:  Start Depth 
 SIDD.                      No:  Serv Intrp, DD 
 SINC.deg                75.38:  Inc, Start 
 SPPA.psig             3574.00:  SPP Avg 
 SPPN.psig             3475.00:  SPP Min 
 SPPX.psig             3791.00:  SPP Max 
 STIM.      07.08.48 13-May-20:  Start Time 
 SVCS.                 DD, MWD:  Services 
 SVER.                    9.20:  Sperry Version 
 TDAT.m                 363.00:  Tot Depth Attmp 
 TDDF.                      No:  Trip for DD 
 TDLG.m                 363.00:  Tot Depth Loggd 
 TFF .                      No:  Trip for Fail 
 TQAA.f-kp               20.00:  Torque Abs Avg 
 TQAN.f-kp               18.00:  Torque Abs Min 
 TQAX.f-kp               22.00:  Torque Abs Max 
 TRRT.°/30m              -0.35:  Turn Rotating 
 MRT .                    HCIM:  Maximum Recorded Temperature 
 TTMX.degC               92.16:  Max Tool Temp 
 VS01.                90586518:  Virtual Str1 SN 
 VS02.        AZ90560654Z1W1C6:  Virtual Str2 SN 
 VS03.           AZ90610398F11:  Virtual Str3 SN 
 VS04.                90514975:  Virtual Str4 SN 
 VS05.                90514972:  Virtual Str5 SN 
 VS06.     AZ90603282F11V7D1A6:  Virtual Str6 SN 
 WBMN.klb                 7.00:  WOB Min 
 WOBA.klb                12.00:  WOB Avg 
 WOBX.klb                14.00:  WOB Max 
 YP  .lhf2               32.00:  Yield Point 
~Curve Information Block
#MNEM.UNIT                 API CODE     Curve Description
#---------               -----------    ---------------------------
 TIME.HHMMSS            00 000 000 000:  GT Time & Date
 GTDEPTH.m              00 000 000 000:  GT Depth
 GTPQH.psia             00 000 000 000:  GT HR Quartz Pressure
 GTTQ.degC              00 000 000 000:  GT Quartz Temperature
 GTTN.NONE              00 000 000 000:  GT Test Number
 GTET.sec               00 000 000 000:  GT Elapsed Test Time
 GTTVD.m                00 000 000 000:  GT True Vertical Depth
#Other Information
#
#WARRANTY: Halliburton will use its best efforts to furnish customers with 
#accurate information and interpretations that are part of, and incident to, the services 
#provided.  However, Halliburton cannot and does not warrant the accuracy 
#or correctness of such information and interpretations.  Under no circumstances should any 
#such information or interpretation be relied upon as the sole basis for any drilling, 
#completion, production, or financial decision or any procedure involving any risk to the 
#safety of any drilling venture, drilling rig or its crew or any other third party.  The 
#Customer has full responsibility for all drilling, completion and production operation.  
#Halliburton makes no representations or warranties, either expressed or 
#implied, including, but not limited to, the implied warranties of merchantability or fitness 
#for a particular purpose, with respect to the services rendered.  In no event will 
#Halliburton be liable for failure to obtain any particular results or for 
#any damages, including, but not limited to, indirect, special or consequential damages, 
#resulting from the use of any information or interpretation provided by Halliburton.
#
~A           TIME           GTDEPTH  GTPQH  GTTQ  GTTN  GTET   GTTVD  
# ...
   22:05:23.833.17-May-2020 4937.01 5525.45 67.75 7.00  23.04 2576.47
   22:05:24.034.17-May-2020 4937.01 5525.45 67.75 7.00  23.24 2576.47
   22:05:24.234.17-May-2020 4937.01 5522.98 67.75 7.00  23.44 2576.47
   22:05:24.434.17-May-2020 4937.01 5536.05 67.75 7.00  23.64 2576.47
   22:05:24.635.17-May-2020 4937.01 5523.28 67.75 7.00  23.84 2576.47
   22:05:24.835.17-May-2020 4937.01 5528.74 67.75 7.00  24.04 2576.47
   22:05:25.036.17-May-2020 4937.01 5528.74 67.75 7.00  24.24 2576.47
   22:05:25.236.17-May-2020 4937.01 5526.05 67.75 7.00  24.44 2576.47
   22:05:25.436.17-May-2020 4937.01 5525.23 67.75 7.00  24.65 2576.47
   22:05:25.637.17-May-2020 4937.01 5525.84 67.75 7.00  24.85 2576.47
   22:05:25.837.17-May-2020 4937.01 5525.83 67.75 7.00  25.05 2576.47
   22:05:26.037.17-May-2020 4937.01 5525.83 67.75 7.00  25.25 2576.47
   22:05:26.238.17-May-2020 4937.01 5539.71 67.75 7.00  25.45 2576.47
   22:05:26.438.17-May-2020 4937.01 5520.23 67.75 7.00  25.65 2576.47
   22:05:26.639.17-May-2020 4937.01 5535.07 67.75 7.00  25.85 2576.47
   22:05:26.839.17-May-2020 4937.01 5525.65 67.75 7.00  26.05 2576.47
   22:05:27.039.17-May-2020 4937.01 5540.35 67.75 7.00  26.25 2576.47
   22:05:27.240.17-May-2020 4937.01 5527.56 67.75 7.00  26.45 2576.47
   22:05:27.440.17-May-2020 4937.01 5530.51 67.75 7.00  26.65 2576.47
   22:05:27.640.17-May-2020 4937.01 5534.52 67.75 7.00  26.85 2576.47
   22:05:27.841.17-May-2020 4937.01 5544.54 67.75 7.00  27.05 2576.47
   22:05:28.041.17-May-2020 4937.01 5544.54 67.75 7.00  27.25 2576.47
   22:05:28.241.17-May-2020 4937.01 5537.38 67.75 7.00  27.45 2576.47
   22:05:28.442.17-May-2020 4937.01 5530.28 67.75 7.00  27.65 2576.47
   22:05:28.642.17-May-2020 4937.01 5531.42 67.75 7.00  27.85 2576.47
   22:05:28.843.17-May-2020 4937.01 5543.79 67.75 7.00  28.05 2576.47
   22:05:29.043.17-May-2020 4937.01 5543.79 67.75 7.00  28.25 2576.47
   22:05:29.243.17-May-2020 4937.01 5536.40 67.75 7.00  28.45 2576.47
   22:05:29.444.17-May-2020 4937.01 5533.20 67.75 7.00  28.65 2576.47
   22:05:29.644.17-May-2020 4937.01 5532.71 67.75 7.00  28.85 2576.47
   22:05:29.844.17-May-2020 4937.01 5531.52 67.75 7.00  29.05 2576.47
   22:05:30.045.17-May-2020 4937.01 5531.08 67.75 7.00  29.25 2576.47
   22:05:30.245.17-May-2020 4937.01 5530.24 67.75 7.00  29.45 2576.47
   22:05:30.446.17-May-2020 4937.01 5529.98 67.75 7.00  29.65 2576.47
   22:05:30.646.17-May-2020 4937.01 5529.48 67.75 7.00  29.85 2576.47
   22:05:30.846.17-May-2020 4937.01 5537.28 67.75 7.00  30.06 2576.47
   22:05:31.047.17-May-2020 4937.01 5530.63 67.75 7.00  30.26 2576.47
   22:05:31.247.17-May-2020 4937.01 5529.39 67.75 7.00  30.46 2576.47
   22:05:31.447.17-May-2020 4937.01 5536.55 67.75 7.00  30.66 2576.47
   22:05:31.648.17-May-2020 4937.01 5529.49 67.75 7.00  30.86 2576.47
   22:05:31.848.17-May-2020 4937.01 5531.13 67.75 7.00  31.06 2576.47
   22:05:32.048.17-May-2020 4937.01 5531.13 67.75 7.00  31.26 2576.47
   22:05:32.249.17-May-2020 4937.01 5529.63 67.75 7.00  31.46 2576.47
   22:05:32.449.17-May-2020 4937.01 5528.58 67.75 7.00  31.66 2576.47
   22:05:32.650.17-May-2020 4937.01 5529.10 67.75 7.00  31.86 2576.47
   22:05:32.850.17-May-2020 4937.01 5528.33 67.75 7.00  32.06 2576.47
   22:05:33.050.17-May-2020 4937.01 5528.33 67.75 7.00  32.26 2576.47
   22:05:33.251.17-May-2020 4937.01 5538.04 67.75 7.00  32.46 2576.47
   22:05:33.451.17-May-2020 4937.01 5527.84 67.75 7.00  32.66 2576.47
   22:05:33.651.17-May-2020 4937.01 5540.29 67.75 7.00  32.86 2576.47
   22:05:33.852.17-May-2020 4937.01 5528.59 67.75 7.00  33.06 2576.47
   22:05:34.052.17-May-2020 4937.01 5528.59 67.75 7.00  33.26 2576.47
   22:05:34.252.17-May-2020 4937.01 5524.04 67.75 7.00  33.46 2576.47
   22:05:34.453.17-May-2020 4937.01 5540.49 67.75 7.00  33.66 2576.47
   22:05:34.653.17-May-2020 4937.01 5544.62 67.75 7.00  33.86 2576.47
   22:05:34.854.17-May-2020 4937.01 5612.55 67.75 7.00  34.06 2576.47
   22:05:35.054.17-May-2020 4937.01 5630.09 67.75 7.00  34.26 2576.47
   22:05:35.254.17-May-2020 4937.01 5687.75 67.75 7.00  34.46 2576.47
   22:05:35.455.17-May-2020 4937.01 5676.03 67.75 7.00  34.66 2576.47
   22:05:35.655.17-May-2020 4937.01 5685.29 67.75 7.00  34.86 2576.47
   22:05:35.855.17-May-2020 4937.01 5669.08 67.75 7.00  35.06 2576.47
   22:05:36.056.17-May-2020 4937.01 5669.08 67.75 7.00  35.26 2576.47
   22:05:36.256.17-May-2020 4937.01 5675.52 67.75 7.00  35.47 2576.47
   22:05:36.457.17-May-2020 4937.01 5673.72 67.75 7.00  35.67 2576.47
   22:05:36.657.17-May-2020 4937.01 5670.99 67.75 7.00  35.87 2576.47
   22:05:36.857.17-May-2020 4937.01 5667.88 67.75 7.00  36.07 2576.47
   22:05:37.058.17-May-2020 4937.01 5667.88 67.75 7.00  36.27 2576.47
   22:05:37.258.17-May-2020 4937.01 5665.96 67.75 7.00  36.47 2576.47
   22:05:37.458.17-May-2020 4937.01 5666.52 67.75 7.00  36.67 2576.47
   22:05:37.659.17-May-2020 4937.01 5666.00 67.75 7.00  36.87 2576.47
   22:05:37.859.17-May-2020 4937.01 5665.55 67.75 7.00  37.07 2576.47
   22:05:38.059.17-May-2020 4937.01 5665.55 67.75 7.00  37.27 2576.47
   22:05:38.260.17-May-2020 4937.01 5664.13 67.75 7.00  37.47 2576.47
   22:05:38.460.17-May-2020 4937.01 5671.72 67.75 7.00  37.67 2576.47
   22:05:38.661.17-May-2020 4937.01 5665.12 67.75 7.00  37.87 2576.47
   22:05:38.861.17-May-2020 4937.01 5667.20 67.75 7.00  38.07 2576.47
   22:05:39.061.17-May-2020 4937.01 5666.05 67.75 7.00  38.27 2576.47
   22:05:39.262.17-May-2020 4937.01 5674.43 67.75 7.00  38.47 2576.47
   22:05:39.462.17-May-2020 4937.01 5675.30 67.75 7.00  38.67 2576.47
   22:05:39.662.17-May-2020 4937.01 5676.60 67.75 7.00  38.87 2576.47
   22:05:39.863.17-May-2020 4937.01 5676.83 67.75 7.00  39.07 2576.47
   22:05:40.063.17-May-2020 4937.01 5676.83 67.75 7.00  39.27 2576.47
   22:05:40.264.17-May-2020 4937.01 5686.53 67.75 7.00  39.47 2576.47
   22:05:40.464.17-May-2020 4937.01 5678.21 67.75 7.00  39.67 2576.47
   22:05:40.664.17-May-2020 4937.01 5685.30 67.75 7.00  39.87 2576.47
   22:05:40.865.17-May-2020 4937.01 5683.47 67.75 7.00  40.07 2576.47
   22:05:41.065.17-May-2020 4937.01 5683.47 67.75 7.00  40.27 2576.47
   22:05:41.265.17-May-2020 4937.01 5683.37 67.75 7.00  40.47 2576.47
   22:05:41.466.17-May-2020 4937.01 5683.96 67.75 7.00  40.67 2576.47
   22:05:41.666.17-May-2020 4937.01 5685.70 67.75 7.00  40.87 2576.47
   22:05:41.866.17-May-2020 4937.01 5681.43 67.75 7.00  41.08 2576.47
   22:05:42.067.17-May-2020 4937.01 5681.43 67.75 7.00  41.28 2576.47
   22:05:42.267.17-May-2020 4937.01 5677.32 67.75 7.00  41.48 2576.47
   22:05:42.468.17-May-2020 4937.01 5682.31 67.75 7.00  41.68 2576.47
   22:05:42.668.17-May-2020 4937.01 5675.19 67.75 7.00  41.88 2576.47
   22:05:42.868.17-May-2020 4937.01 5679.23 67.75 7.00  42.08 2576.47
   22:05:43.069.17-May-2020 4937.01 5679.23 67.75 7.00  42.28 2576.47
   22:05:43.269.17-May-2020 4937.01 5674.35 67.75 7.00  42.48 2576.47
   22:05:43.469.17-May-2020 4937.01 5672.30 67.75 7.00  42.68 2576.47
   22:05:43.670.17-May-2020 4937.01 5665.29 67.75 7.00  42.88 2576.47
   22:05:43.870.17-May-2020 4937.01 5669.66 67.75 7.00  43.08 2576.47
   22:05:44.071.17-May-2020 4937.01 5669.66 67.75 7.00  43.28 2576.47
   22:05:44.271.17-May-2020 4937.01 5668.60 67.75 7.00  43.48 2576.47
   22:05:44.471.17-May-2020 4937.01 5662.52 67.75 7.00  43.68 2576.47
   22:05:44.672.17-May-2020 4937.01 5668.77 67.75 7.00  43.88 2576.47
   22:05:44.872.17-May-2020 4937.01 5664.99 67.75 7.00  44.08 2576.47
   22:05:45.072.17-May-2020 4937.01 5664.99 67.75 7.00  44.28 2576.47
   22:05:45.273.17-May-2020 4937.01 5663.53 67.75 7.00  44.48 2576.47
   22:05:45.473.17-May-2020 4937.01 5566.29 67.75 7.00  44.68 2576.47
   22:05:45.673.17-May-2020 4937.01 5126.36 67.75 7.00  44.88 2576.47
   22:05:45.874.17-May-2020 4937.01 4387.99 67.75 7.00  45.08 2576.47
   22:05:46.074.17-May-2020 4937.01 4387.99 67.75 7.00  45.28 2576.47
   22:05:46.275.17-May-2020 4937.01 2869.70 67.75 7.00  45.48 2576.47
   22:05:46.475.17-May-2020 4937.01 2894.60 67.75 7.00  45.68 2576.47
   22:05:46.675.17-May-2020 4937.01 2911.60 67.74 7.00  45.88 2576.47
