~Version Information
 VERS.                  2.0:   CWLS log ASCII Standard -VERSION 2.0
 WRAP.                   NO:   One line per depth step
~Well Information Block
#MNEM.UNIT     VALUE/NAME     DESCRIPTION
#---------     -----------    ---------------------------
 STRT.S             00:24:31 18-May-20: START TIME 00:24:31 18-May-20
 STOP.S             00:32:03 18-May-20: STOP TIME  00:32:03 18-May-20
 STEP.S                   0.00: STEP TIME
 NULL.                 -999.25: NULL VALUE
 UNIT.                     N/A:  LOGGING EQUIPMENT ID
 DCON.         Sperry Drilling:  DIRECTNL CONTR
 DOE .                     N/A:  DOE NUMBER
 JOBN.        AZ-XX-0906252240:  JOB TICKET NUMB
 MWDS.                     N/A:  MWD SHOP
 PROV.                    Baku:  PROVINCE
 STAT.                    Baku:  STATE NAME
 REGN.                   EESSA:  REGION
 BASE.              Azerbaijan:  LOGGING EQUIPMENT BASE LOCATION
 UWI .                     N/A:  UNIQUE WELL IDENTIFIER
 API .                     N/A:  API NUMBER
 MDS .        Operator Entered:  MAG DATA SOURCE
 WTYP.                Deviated:  WELL TYPE
 COMP.     BP Exploration (Caspian Sea) Ltd.:  COMPANY
 SRVC.          Turan Drilling:  CONTRACTOR
 WELL.           J23 (Slot 07):  WELL NAME
 CTRY.              Azerbaijan:  COUNTRY NAME
 FLD .                     ACG:  FIELD NAME
 PDAT.          Mean Sea Level:  PERMANENT DATUM
 RIG .             West Chirag:  RIG NAME
 SON .        AZ-XX-0906252240:  JOB NUMBER
 FTOP.          Formation Tops:  FORM TOPS DESC
 ILTD.               Lithology:  INTERP LTH DESC
 SVYD.                  Survey:  SURVEY DESC
 DMOD.             Drill Model:  DRILL MOD DESC
 HPTY.       Minimum Curvature:  HOLE POS TYPE
 NREF.                    Grid:  NORTH REFERENCE
 SPUD.               27-Aug-20:  SPUD DATE
 DATE.      00.00.00 19-May-20:  END TIME
 STIM.      03.00.00 25-Mar-20:  START TIME
 DMF .             Drill Floor:  DRILL MEAS FROM
 DFST.                        :  DIST FSL TEXT
 DFWT.                        :  DIST FWL TEXT
 CNTY.                        :  COUNTY
 LOC .                        :  LOCATION
 LMF .             Drill Floor:  LOG MEASURED FROM
 VSNS.m                   9.43:  VERT SEC N/S
 VSEW.m                  -8.91:  VERT SEC E/W
 AGAP.m                  43.00:  AIR GAP
 DEP .m                 354.17:  DEPTH
 APD .m                  43.00:  DEPTH ABOVE PD
 WDMS.m                 169.80:  WD ELEV
 EGL .m                   0.00:  GROUND ELEVATION
 EPD .m                   0.00:  ELEVATION
 AZTC.deg                 6.31:  AZM TOTAL CORR
 GRDC.deg                 0.14:  GRID CORRECTION
 MDEC.deg                 6.45:  MAGNETIC DECL
 MDIP.deg                59.56:  MAGNETIC DIP
 MFLD.nT              50295.00:  MAGNETIC FIELD
 GVFD.g                   1.00:  GRAVITY FIELD
 VSDR.deg               179.88:  VERT SEC DIRECT
 TDD .m                5150.01:  TOTAL DEPTH (DRILLER)
 SDEP.m                 864.00:  START DEPTH
 DFSL.m                   0.00:  DISTANCE FSL
 DFWL.m                   0.00:  DISTANCE FWL
 UTMY.m             4443793.85:  UTM Y
 UTMX.m              519005.06:  UTM X
 WHEW.m                  -8.91:  WELL HEAD E/W
 WHNS.m                   9.43:  WELL HEAD N/S
 LONG.deg                51.22:  LONGITUDE
 LATI.deg                40.13:  LATITUDE
 TVDS.m                  43.00:  TVDSS CORRECTN
 EKB .m                   0.00:  KB ELEVATION
 EDF .m                  43.00:  DF ELEVATION
 TDL .m                 363.00:  TOTAL DEPTH (LOGGER)
 MAGU.                 1850802:  MAGUTM CHECKSUM
 VSC .                       0:  VS TO CLOSURE
~Parameter Information Block
#MNEM.UNIT       Value        Description
#---------     -----------    ---------------------------
 AV  .mps                 2.30:  Ann Velocity 
 AVMX.mps                 4.40:  Max Ann Veloc 
 AZIF.deg               110.24:  Azm, Final 
 BHAT.        Rotary Steerable:  BHA Type 
 BREV.rev               331.00:  Rev Bit Total 
 BROT.°/30m               0.00:  Build Rotating 
 BS  .in                  8.50:  Bit Size 
 BSZ .in                  8.50:  Bit Size 
 BTPL.psig              585.00:  Bit Press Loss 
 CABU.                     Yes:  Customer Abuse 
 COMM.                     ô®q:  Run Comments 1 
 TCS .hr                122.75:  Time Ciculation Ended 
 CV  .mps                 2.67:  Crit Velocity 
 CVMX.mps                 3.56:  Max Crit Veloc 
 DD1 .          Rashad Habibov:  Direct Drillr 1 
 DD2 .         Rasim Ibrahimov:  Direct Drillr 2 
 DDSV.               Geo-Pilot:  DD Service 
 DEFF.%                  98.00:  % Det Eff 
 DLRX.°/30m               0.75:  Dogleg Rot Max 
 DLSO.°/30m               1.25:  Dogleg Oriented 
 DLSX.°/30m               2.06:  Dogleg Str Max 
 DRET.      07.45.00 17-May-20:  Drill End Time 
 DRST.      22.50.00 15-May-20:  Drill Start Tim 
 DTIM.hr                 20.75:  Time Drilling 
 EDEP.m                5124.01:  End Depth 
 ENG1.           Eldar Hajiyev:  Engineer 1 
 ENG2.        Marcelo Sandoval:  Engineer 2 
 ENG3.        Davud huseynzada:  Engineer 3 
 ENG4.          Ruslan Safarov:  Engineer 4 
 ETIM.      04.33.00 23-May-20:  End Time 
 FLOI.gpm               450.00:  Flow In 
 FLON.gpm               400.00:  Flow In Min 
 FLOS.cptm                0.00:  Fluid Loss 
 FLOX.gpm               500.00:  Flow In Max 
 FTRO.       Formation Presure:  FTWD Run Obj 
 HFLO.                      No:  High Flow 
 HPRE.                     Yes:  High Pressure 
 HTEM.                      No:  High Temp 
 HYDO.m                   1.80:  Hydro Offset 
 IFIN.deg                75.06:  Inc, Final 
 IMAX.deg                75.38:  Inc Max 
 IMIN.deg                74.69:  Inc Min 
 IMND.m                5027.38:  Inc Min Depth 
 IMXD.m                4771.61:  Inc Max Depth 
 JARR.                      No:  Jarring 
 LETM.      07.45.00 17-May-20:  Log End Time 
 LOST.hr                     0:  Lost Rig Time 
 LSTM.      22.50.00 15-May-20:  Log Start Time 
 MDCL.ppm             42000.00:  Mud Chlorides 
 MDES.     Inversion Oil/Synthetic:  Mud Desc 
 DFD .sg                  1.34:  Mud Density 
 MDMN.sg                  1.34:  Dens Mud Min 
 MDMX.sg                  1.34:  Dens Mud Max 
 MOIL.                       0:  Run Mud Oil % 
 MOWR.                   67:33:  Run Mud OWR 
 MSND.                       0:  Run Mud Sand % 
 MSOL.                     1.8:  Run Mud Solids% 
 DFV .spqt               76.00:  Mud Viscosity 
 MWOD.in                  6.75:  MWD Tool OD 
 MWSI.                      No:  Serv Intrp, MWD 
 OTIM.hr                228.19:  Time Operating 
 PCON.           Look Like New:  Pad Condition 
 PMAX.psia             6164.70:  Press Op, Max 
 PV  .cP                 28.00:  Mud PV 
 RUN .                     900:  Run Number 
 ROPA.m/hr               19.00:  ROP Avg 
 ROPN.m/hr               11.00:  ROP Min 
 ROPX.m/hr               36.00:  ROP Max 
 RPMA.rpm               120.00:  RPM Surface Avg 
 RPMN.rpm               120.00:  RPM Surface Min 
 RPMX.rpm               120.00:  RPM Surface Max 
 RRUN.                    L604:  Rig Run Number 
 RTIM.hr                  7.00:  Time Reaming 
 SAZI.deg               109.27:  Azm, Start 
 SDEP.m                4761.01:  Start Depth 
 SIDD.                      No:  Serv Intrp, DD 
 SINC.deg                75.38:  Inc, Start 
 SPPA.psig             3574.00:  SPP Avg 
 SPPN.psig             3475.00:  SPP Min 
 SPPX.psig             3791.00:  SPP Max 
 STIM.      07.08.48 13-May-20:  Start Time 
 SVCS.                 DD, MWD:  Services 
 SVER.                    9.20:  Sperry Version 
 TDAT.m                 363.00:  Tot Depth Attmp 
 TDDF.                      No:  Trip for DD 
 TDLG.m                 363.00:  Tot Depth Loggd 
 TFF .                      No:  Trip for Fail 
 TQAA.f-kp               20.00:  Torque Abs Avg 
 TQAN.f-kp               18.00:  Torque Abs Min 
 TQAX.f-kp               22.00:  Torque Abs Max 
 TRRT.°/30m              -0.35:  Turn Rotating 
 MRT .                    HCIM:  Maximum Recorded Temperature 
 TTMX.degC               92.16:  Max Tool Temp 
 VS01.                90586518:  Virtual Str1 SN 
 VS02.        AZ90560654Z1W1C6:  Virtual Str2 SN 
 VS03.           AZ90610398F11:  Virtual Str3 SN 
 VS04.                90514975:  Virtual Str4 SN 
 VS05.                90514972:  Virtual Str5 SN 
 VS06.     AZ90603282F11V7D1A6:  Virtual Str6 SN 
 WBMN.klb                 7.00:  WOB Min 
 WOBA.klb                12.00:  WOB Avg 
 WOBX.klb                14.00:  WOB Max 
 YP  .lhf2               32.00:  Yield Point 
~Curve Information Block
#MNEM.UNIT                 API CODE     Curve Description
#---------               -----------    ---------------------------
 TIME.HHMMSS            00 000 000 000:  GT Time & Date
 GTDEPTH.m              00 000 000 000:  GT Depth
 GTPQH.psia             00 000 000 000:  GT HR Quartz Pressure
 GTTQ.degC              00 000 000 000:  GT Quartz Temperature
 GTTN.NONE              00 000 000 000:  GT Test Number
 GTET.sec               00 000 000 000:  GT Elapsed Test Time
 GTTVD.m                00 000 000 000:  GT True Vertical Depth
#Other Information
#
#WARRANTY: Halliburton will use its best efforts to furnish customers with 
#accurate information and interpretations that are part of, and incident to, the services 
#provided.  However, Halliburton cannot and does not warrant the accuracy 
#or correctness of such information and interpretations.  Under no circumstances should any 
#such information or interpretation be relied upon as the sole basis for any drilling, 
#completion, production, or financial decision or any procedure involving any risk to the 
#safety of any drilling venture, drilling rig or its crew or any other third party.  The 
#Customer has full responsibility for all drilling, completion and production operation.  
#Halliburton makes no representations or warranties, either expressed or 
#implied, including, but not limited to, the implied warranties of merchantability or fitness 
#for a particular purpose, with respect to the services rendered.  In no event will 
#Halliburton be liable for failure to obtain any particular results or for 
#any damages, including, but not limited to, indirect, special or consequential damages, 
#resulting from the use of any information or interpretation provided by Halliburton.
#
~A           TIME           GTDEPTH  GTPQH  GTTQ  GTTN   GTET   GTTVD  
# ...
   00:24:53.921.18-May-2020 4886.01 5500.08 66.45 10.00  22.61 2563.39
   00:24:54.121.18-May-2020 4886.01 5492.37 66.45 10.00  22.81 2563.39
   00:24:54.321.18-May-2020 4886.01 5497.01 66.45 10.00  23.01 2563.39
   00:24:54.522.18-May-2020 4886.01 5497.01 66.45 10.00  23.21 2563.39
   00:24:54.722.18-May-2020 4886.01 5493.90 66.45 10.00  23.41 2563.39
   00:24:54.922.18-May-2020 4886.01 5499.29 66.45 10.00  23.61 2563.39
   00:24:55.122.18-May-2020 4886.01 5492.99 66.45 10.00  23.81 2563.39
   00:24:55.322.18-May-2020 4886.01 5510.02 66.45 10.00  24.01 2563.39
   00:24:55.522.18-May-2020 4886.01 5510.02 66.45 10.00  24.21 2563.39
   00:24:55.722.18-May-2020 4886.01 5500.78 66.45 10.00  24.41 2563.39
   00:24:55.922.18-May-2020 4886.01 5494.17 66.45 10.00  24.61 2563.39
   00:24:56.122.18-May-2020 4886.01 5498.34 66.45 10.00  24.81 2563.39
   00:24:56.322.18-May-2020 4886.01 5491.30 66.45 10.00  25.01 2563.39
   00:24:56.522.18-May-2020 4886.01 5491.30 66.45 10.00  25.21 2563.39
   00:24:56.722.18-May-2020 4886.01 5491.88 66.45 10.00  25.41 2563.39
   00:24:56.922.18-May-2020 4886.01 5493.10 66.44 10.00  25.61 2563.39
   00:24:57.123.18-May-2020 4886.01 5492.60 66.45 10.00  25.81 2563.39
   00:24:57.323.18-May-2020 4886.01 5507.36 66.44 10.00  26.01 2563.39
   00:24:57.523.18-May-2020 4886.01 5507.36 66.44 10.00  26.21 2563.39
   00:24:57.723.18-May-2020 4886.01 5496.91 66.45 10.00  26.41 2563.39
   00:24:57.923.18-May-2020 4886.01 5495.92 66.44 10.00  26.61 2563.39
   00:24:58.123.18-May-2020 4886.01 5494.68 66.45 10.00  26.81 2563.39
   00:24:58.323.18-May-2020 4886.01 5493.11 66.44 10.00  27.01 2563.39
   00:24:58.523.18-May-2020 4886.01 5493.11 66.44 10.00  27.21 2563.39
   00:24:58.723.18-May-2020 4886.01 5492.78 66.44 10.00  27.41 2563.39
   00:24:58.923.18-May-2020 4886.01 5493.04 66.44 10.00  27.61 2563.39
   00:24:59.123.18-May-2020 4886.01 5493.11 66.44 10.00  27.81 2563.39
   00:24:59.323.18-May-2020 4886.01 5492.06 66.44 10.00  28.01 2563.39
   00:24:59.524.18-May-2020 4886.01 5492.06 66.44 10.00  28.21 2563.39
   00:24:59.724.18-May-2020 4886.01 5491.98 66.44 10.00  28.41 2563.39
   00:24:59.924.18-May-2020 4886.01 5497.61 66.44 10.00  28.61 2563.39
   00:25:00.124.18-May-2020 4886.01 5498.63 66.44 10.00  28.81 2563.39
   00:25:00.324.18-May-2020 4886.01 5508.00 66.44 10.00  29.01 2563.39
   00:25:00.524.18-May-2020 4886.01 5508.00 66.44 10.00  29.21 2563.39
   00:25:00.724.18-May-2020 4886.01 5501.03 66.44 10.00  29.41 2563.39
   00:25:00.924.18-May-2020 4886.01 5497.94 66.44 10.00  29.61 2563.39
   00:25:01.124.18-May-2020 4886.01 5499.29 66.44 10.00  29.81 2563.39
   00:25:01.324.18-May-2020 4886.01 5508.70 66.44 10.00  30.01 2563.39
   00:25:01.524.18-May-2020 4886.01 5508.70 66.44 10.00  30.21 2563.39
   00:25:01.724.18-May-2020 4886.01 5502.14 66.44 10.00  30.41 2563.39
   00:25:01.925.18-May-2020 4886.01 5497.83 66.44 10.00  30.61 2563.39
   00:25:02.125.18-May-2020 4886.01 5516.32 66.44 10.00  30.81 2563.39
   00:25:02.325.18-May-2020 4886.01 5487.98 66.44 10.00  31.01 2563.39
   00:25:02.525.18-May-2020 4886.01 5487.98 66.44 10.00  31.21 2563.39
   00:25:02.725.18-May-2020 4886.01 5499.55 66.44 10.00  31.41 2563.39
   00:25:02.925.18-May-2020 4886.01 5499.57 66.44 10.00  31.61 2563.39
   00:25:03.125.18-May-2020 4886.01 5497.10 66.44 10.00  31.81 2563.39
   00:25:03.325.18-May-2020 4886.01 5497.72 66.44 10.00  32.01 2563.39
   00:25:03.525.18-May-2020 4886.01 5497.72 66.44 10.00  32.21 2563.39
   00:25:03.725.18-May-2020 4886.01 5495.77 66.44 10.00  32.41 2563.39
   00:25:03.925.18-May-2020 4886.01 5496.48 66.44 10.00  32.61 2563.39
   00:25:04.125.18-May-2020 4886.01 5495.01 66.44 10.00  32.81 2563.39
   00:25:04.325.18-May-2020 4886.01 5496.75 66.44 10.00  33.01 2563.39
   00:25:04.526.18-May-2020 4886.01 5496.75 66.44 10.00  33.21 2563.39
   00:25:04.726.18-May-2020 4886.01 5496.26 66.44 10.00  33.41 2563.39
   00:25:04.926.18-May-2020 4886.01 5502.68 66.44 10.00  33.61 2563.39
   00:25:05.126.18-May-2020 4886.01 5494.82 66.44 10.00  33.81 2563.39
   00:25:05.326.18-May-2020 4886.01 5500.09 66.44 10.00  34.01 2563.39
   00:25:05.526.18-May-2020 4886.01 5500.09 66.44 10.00  34.21 2563.39
   00:25:05.726.18-May-2020 4886.01 5497.44 66.44 10.00  34.41 2563.39
   00:25:05.926.18-May-2020 4886.01 5495.53 66.44 10.00  34.61 2563.39
   00:25:06.126.18-May-2020 4886.01 5495.77 66.44 10.00  34.81 2563.39
   00:25:06.326.18-May-2020 4886.01 5495.35 66.44 10.00  35.01 2563.39
   00:25:06.526.18-May-2020 4886.01 5495.35 66.44 10.00  35.21 2563.39
   00:25:06.726.18-May-2020 4886.01 5510.87 66.44 10.00  35.41 2563.39
   00:25:06.927.18-May-2020 4886.01 5489.63 66.44 10.00  35.61 2563.39
   00:25:07.127.18-May-2020 4886.01 5501.71 66.44 10.00  35.81 2563.39
   00:25:07.327.18-May-2020 4886.01 5499.92 66.44 10.00  36.01 2563.39
   00:25:07.527.18-May-2020 4886.01 5499.92 66.44 10.00  36.21 2563.39
   00:25:07.727.18-May-2020 4886.01 5494.31 66.44 10.00  36.41 2563.39
   00:25:07.927.18-May-2020 4886.01 5504.14 66.44 10.00  36.61 2563.39
   00:25:08.127.18-May-2020 4886.01 5502.61 66.44 10.00  36.81 2563.39
   00:25:08.327.18-May-2020 4886.01 5500.38 66.44 10.00  37.01 2563.39
   00:25:08.527.18-May-2020 4886.01 5500.38 66.44 10.00  37.22 2563.39
   00:25:08.727.18-May-2020 4886.01 5501.34 66.44 10.00  37.42 2563.39
   00:25:08.927.18-May-2020 4886.01 5506.68 66.44 10.00  37.62 2563.39
   00:25:09.127.18-May-2020 4886.01 5497.50 66.44 10.00  37.82 2563.39
   00:25:09.327.18-May-2020 4886.01 5515.91 66.44 10.00  38.02 2563.39
   00:25:09.528.18-May-2020 4886.01 5515.91 66.44 10.00  38.22 2563.39
   00:25:09.728.18-May-2020 4886.01 5508.56 66.44 10.00  38.42 2563.39
   00:25:09.928.18-May-2020 4886.01 5514.45 66.44 10.00  38.62 2563.39
   00:25:10.128.18-May-2020 4886.01 5499.38 66.44 10.00  38.82 2563.39
   00:25:10.328.18-May-2020 4886.01 5504.06 66.44 10.00  39.02 2563.39
   00:25:10.528.18-May-2020 4886.01 5504.06 66.44 10.00  39.22 2563.39
   00:25:10.728.18-May-2020 4886.01 5513.67 66.44 10.00  39.42 2563.39
   00:25:10.928.18-May-2020 4886.01 5499.51 66.44 10.00  39.62 2563.39
   00:25:11.128.18-May-2020 4886.01 5509.22 66.44 10.00  39.82 2563.39
   00:25:11.328.18-May-2020 4886.01 5499.44 66.44 10.00  40.02 2563.39
   00:25:11.528.18-May-2020 4886.01 5504.76 66.44 10.00  40.22 2563.39
   00:25:11.728.18-May-2020 4886.01 5498.65 66.44 10.00  40.42 2563.39
   00:25:11.929.18-May-2020 4886.01 5501.25 66.44 10.00  40.62 2563.39
   00:25:12.129.18-May-2020 4886.01 5498.98 66.44 10.00  40.82 2563.39
   00:25:12.329.18-May-2020 4886.01 5499.60 66.44 10.00  41.02 2563.39
   00:25:12.529.18-May-2020 4886.01 5499.60 66.44 10.00  41.22 2563.39
   00:25:12.729.18-May-2020 4886.01 5512.84 66.44 10.00  41.42 2563.39
   00:25:12.929.18-May-2020 4886.01 5494.20 66.44 10.00  41.62 2563.39
   00:25:13.129.18-May-2020 4886.01 5505.50 66.44 10.00  41.82 2563.39
   00:25:13.329.18-May-2020 4886.01 5501.34 66.44 10.00  42.02 2563.39
   00:25:13.529.18-May-2020 4886.01 5501.34 66.44 10.00  42.22 2563.39
   00:25:13.729.18-May-2020 4886.01 5498.88 66.44 10.00  42.42 2563.39
   00:25:13.929.18-May-2020 4886.01 5502.07 66.44 10.00  42.62 2563.39
   00:25:14.129.18-May-2020 4886.01 5499.84 66.44 10.00  42.82 2563.39
   00:25:14.330.18-May-2020 4886.01 5500.40 66.44 10.00  43.02 2563.39
   00:25:14.530.18-May-2020 4886.01 5500.40 66.44 10.00  43.22 2563.39
   00:25:14.730.18-May-2020 4886.01 5499.62 66.44 10.00  43.42 2563.39
   00:25:14.930.18-May-2020 4886.01 5514.34 66.44 10.00  43.62 2563.39
   00:25:15.130.18-May-2020 4886.01 5494.18 66.44 10.00  43.82 2563.39
   00:25:15.330.18-May-2020 4886.01 5504.96 66.44 10.00  44.02 2563.39
   00:25:15.530.18-May-2020 4886.01 5503.69 66.44 10.00  44.22 2563.39
   00:25:15.730.18-May-2020 4886.01 5511.51 66.44 10.00  44.42 2563.39
   00:25:15.930.18-May-2020 4886.01 5501.53 66.44 10.00  44.62 2563.39
   00:25:16.130.18-May-2020 4886.01 5506.66 66.44 10.00  44.82 2563.39
   00:25:16.330.18-May-2020 4886.01 5515.75 66.44 10.00  45.02 2563.39
