~Version Information
 VERS.                  2.0:   CWLS log ASCII Standard -VERSION 2.0
 WRAP.                   NO:   One line per depth step
~Well Information Block
#MNEM.UNIT     VALUE/NAME     DESCRIPTION
#---------     -----------    ---------------------------
 STRT.S             00:24:31 18-May-20: START TIME 00:24:31 18-May-20
 STOP.S             00:32:03 18-May-20: STOP TIME  00:32:03 18-May-20
 STEP.S                   0.00: STEP TIME
 NULL.                 -999.25: NULL VALUE
 UNIT.                     N/A:  LOGGING EQUIPMENT ID
 DCON.         Sperry Drilling:  DIRECTNL CONTR
 DOE .                     N/A:  DOE NUMBER
 JOBN.        AZ-XX-0906252240:  JOB TICKET NUMB
 MWDS.                     N/A:  MWD SHOP
 PROV.                    Baku:  PROVINCE
 STAT.                    Baku:  STATE NAME
 REGN.                   EESSA:  REGION
 BASE.              Azerbaijan:  LOGGING EQUIPMENT BASE LOCATION
 UWI .                     N/A:  UNIQUE WELL IDENTIFIER
 API .                     N/A:  API NUMBER
 MDS .        Operator Entered:  MAG DATA SOURCE
 WTYP.                Deviated:  WELL TYPE
 COMP.     BP Exploration (Caspian Sea) Ltd.:  COMPANY
 SRVC.          Turan Drilling:  CONTRACTOR
 WELL.           J23 (Slot 07):  WELL NAME
 CTRY.              Azerbaijan:  COUNTRY NAME
 FLD .                     ACG:  FIELD NAME
 PDAT.          Mean Sea Level:  PERMANENT DATUM
 RIG .             West Chirag:  RIG NAME
 SON .        AZ-XX-0906252240:  JOB NUMBER
 FTOP.          Formation Tops:  FORM TOPS DESC
 ILTD.               Lithology:  INTERP LTH DESC
 SVYD.                  Survey:  SURVEY DESC
 DMOD.             Drill Model:  DRILL MOD DESC
 HPTY.       Minimum Curvature:  HOLE POS TYPE
 NREF.                    Grid:  NORTH REFERENCE
 SPUD.               27-Aug-20:  SPUD DATE
 DATE.      00.00.00 19-May-20:  END TIME
 STIM.      03.00.00 25-Mar-20:  START TIME
 DMF .             Drill Floor:  DRILL MEAS FROM
 DFST.                        :  DIST FSL TEXT
 DFWT.                        :  DIST FWL TEXT
 CNTY.                        :  COUNTY
 LOC .                        :  LOCATION
 LMF .             Drill Floor:  LOG MEASURED FROM
 VSNS.m                   9.43:  VERT SEC N/S
 VSEW.m                  -8.91:  VERT SEC E/W
 AGAP.m                  43.00:  AIR GAP
 DEP .m                 354.17:  DEPTH
 APD .m                  43.00:  DEPTH ABOVE PD
 WDMS.m                 169.80:  WD ELEV
 EGL .m                   0.00:  GROUND ELEVATION
 EPD .m                   0.00:  ELEVATION
 AZTC.deg                 6.31:  AZM TOTAL CORR
 GRDC.deg                 0.14:  GRID CORRECTION
 MDEC.deg                 6.45:  MAGNETIC DECL
 MDIP.deg                59.56:  MAGNETIC DIP
 MFLD.nT              50295.00:  MAGNETIC FIELD
 GVFD.g                   1.00:  GRAVITY FIELD
 VSDR.deg               179.88:  VERT SEC DIRECT
 TDD .m                5150.01:  TOTAL DEPTH (DRILLER)
 SDEP.m                 864.00:  START DEPTH
 DFSL.m                   0.00:  DISTANCE FSL
 DFWL.m                   0.00:  DISTANCE FWL
 UTMY.m             4443793.85:  UTM Y
 UTMX.m              519005.06:  UTM X
 WHEW.m                  -8.91:  WELL HEAD E/W
 WHNS.m                   9.43:  WELL HEAD N/S
 LONG.deg                51.22:  LONGITUDE
 LATI.deg                40.13:  LATITUDE
 TVDS.m                  43.00:  TVDSS CORRECTN
 EKB .m                   0.00:  KB ELEVATION
 EDF .m                  43.00:  DF ELEVATION
 TDL .m                 363.00:  TOTAL DEPTH (LOGGER)
 MAGU.                 1850802:  MAGUTM CHECKSUM
 VSC .                       0:  VS TO CLOSURE
~Parameter Information Block
#MNEM.UNIT       Value        Description
#---------     -----------    ---------------------------
 AV  .mps                 2.30:  Ann Velocity 
 AVMX.mps                 4.40:  Max Ann Veloc 
 AZIF.deg               110.24:  Azm, Final 
 BHAT.        Rotary Steerable:  BHA Type 
 BREV.rev               331.00:  Rev Bit Total 
 BROT.°/30m               0.00:  Build Rotating 
 BS  .in                  8.50:  Bit Size 
 BSZ .in                  8.50:  Bit Size 
 BTPL.psig              585.00:  Bit Press Loss 
 CABU.                     Yes:  Customer Abuse 
 COMM.                     ô®q:  Run Comments 1 
 TCS .hr                122.75:  Time Ciculation Ended 
 CV  .mps                 2.67:  Crit Velocity 
 CVMX.mps                 3.56:  Max Crit Veloc 
 DD1 .          Rashad Habibov:  Direct Drillr 1 
 DD2 .         Rasim Ibrahimov:  Direct Drillr 2 
 DDSV.               Geo-Pilot:  DD Service 
 DEFF.%                  98.00:  % Det Eff 
 DLRX.°/30m               0.75:  Dogleg Rot Max 
 DLSO.°/30m               1.25:  Dogleg Oriented 
 DLSX.°/30m               2.06:  Dogleg Str Max 
 DRET.      07.45.00 17-May-20:  Drill End Time 
 DRST.      22.50.00 15-May-20:  Drill Start Tim 
 DTIM.hr                 20.75:  Time Drilling 
 EDEP.m                5124.01:  End Depth 
 ENG1.           Eldar Hajiyev:  Engineer 1 
 ENG2.        Marcelo Sandoval:  Engineer 2 
 ENG3.        Davud huseynzada:  Engineer 3 
 ENG4.          Ruslan Safarov:  Engineer 4 
 ETIM.      04.33.00 23-May-20:  End Time 
 FLOI.gpm               450.00:  Flow In 
 FLON.gpm               400.00:  Flow In Min 
 FLOS.cptm                0.00:  Fluid Loss 
 FLOX.gpm               500.00:  Flow In Max 
 FTRO.       Formation Presure:  FTWD Run Obj 
 HFLO.                      No:  High Flow 
 HPRE.                     Yes:  High Pressure 
 HTEM.                      No:  High Temp 
 HYDO.m                   1.80:  Hydro Offset 
 IFIN.deg                75.06:  Inc, Final 
 IMAX.deg                75.38:  Inc Max 
 IMIN.deg                74.69:  Inc Min 
 IMND.m                5027.38:  Inc Min Depth 
 IMXD.m                4771.61:  Inc Max Depth 
 JARR.                      No:  Jarring 
 LETM.      07.45.00 17-May-20:  Log End Time 
 LOST.hr                     0:  Lost Rig Time 
 LSTM.      22.50.00 15-May-20:  Log Start Time 
 MDCL.ppm             42000.00:  Mud Chlorides 
 MDES.     Inversion Oil/Synthetic:  Mud Desc 
 DFD .sg                  1.34:  Mud Density 
 MDMN.sg                  1.34:  Dens Mud Min 
 MDMX.sg                  1.34:  Dens Mud Max 
 MOIL.                       0:  Run Mud Oil % 
 MOWR.                   67:33:  Run Mud OWR 
 MSND.                       0:  Run Mud Sand % 
 MSOL.                     1.8:  Run Mud Solids% 
 DFV .spqt               76.00:  Mud Viscosity 
 MWOD.in                  6.75:  MWD Tool OD 
 MWSI.                      No:  Serv Intrp, MWD 
 OTIM.hr                228.19:  Time Operating 
 PCON.           Look Like New:  Pad Condition 
 PMAX.psia             6164.70:  Press Op, Max 
 PV  .cP                 28.00:  Mud PV 
 RUN .                     900:  Run Number 
 ROPA.m/hr               19.00:  ROP Avg 
 ROPN.m/hr               11.00:  ROP Min 
 ROPX.m/hr               36.00:  ROP Max 
 RPMA.rpm               120.00:  RPM Surface Avg 
 RPMN.rpm               120.00:  RPM Surface Min 
 RPMX.rpm               120.00:  RPM Surface Max 
 RRUN.                    L604:  Rig Run Number 
 RTIM.hr                  7.00:  Time Reaming 
 SAZI.deg               109.27:  Azm, Start 
 SDEP.m                4761.01:  Start Depth 
 SIDD.                      No:  Serv Intrp, DD 
 SINC.deg                75.38:  Inc, Start 
 SPPA.psig             3574.00:  SPP Avg 
 SPPN.psig             3475.00:  SPP Min 
 SPPX.psig             3791.00:  SPP Max 
 STIM.      07.08.48 13-May-20:  Start Time 
 SVCS.                 DD, MWD:  Services 
 SVER.                    9.20:  Sperry Version 
 TDAT.m                 363.00:  Tot Depth Attmp 
 TDDF.                      No:  Trip for DD 
 TDLG.m                 363.00:  Tot Depth Loggd 
 TFF .                      No:  Trip for Fail 
 TQAA.f-kp               20.00:  Torque Abs Avg 
 TQAN.f-kp               18.00:  Torque Abs Min 
 TQAX.f-kp               22.00:  Torque Abs Max 
 TRRT.°/30m              -0.35:  Turn Rotating 
 MRT .                    HCIM:  Maximum Recorded Temperature 
 TTMX.degC               92.16:  Max Tool Temp 
 VS01.                90586518:  Virtual Str1 SN 
 VS02.        AZ90560654Z1W1C6:  Virtual Str2 SN 
 VS03.           AZ90610398F11:  Virtual Str3 SN 
 VS04.                90514975:  Virtual Str4 SN 
 VS05.                90514972:  Virtual Str5 SN 
 VS06.     AZ90603282F11V7D1A6:  Virtual Str6 SN 
 WBMN.klb                 7.00:  WOB Min 
 WOBA.klb                12.00:  WOB Avg 
 WOBX.klb                14.00:  WOB Max 
 YP  .lhf2               32.00:  Yield Point 
~Curve Information Block
#MNEM.UNIT                 API CODE     Curve Description
#---------               -----------    ---------------------------
 TIME.HHMMSS            00 000 000 000:  GT Time & Date
 GTDEPTH.m              00 000 000 000:  GT Depth
 GTPQH.psia             00 000 000 000:  GT HR Quartz Pressure
 GTTQ.degC              00 000 000 000:  GT Quartz Temperature
 GTTN.NONE              00 000 000 000:  GT Test Number
 GTET.sec               00 000 000 000:  GT Elapsed Test Time
 GTTVD.m                00 000 000 000:  GT True Vertical Depth
#Other Information
#
#WARRANTY: Halliburton will use its best efforts to furnish customers with 
#accurate information and interpretations that are part of, and incident to, the services 
#provided.  However, Halliburton cannot and does not warrant the accuracy 
#or correctness of such information and interpretations.  Under no circumstances should any 
#such information or interpretation be relied upon as the sole basis for any drilling, 
#completion, production, or financial decision or any procedure involving any risk to the 
#safety of any drilling venture, drilling rig or its crew or any other third party.  The 
#Customer has full responsibility for all drilling, completion and production operation.  
#Halliburton makes no representations or warranties, either expressed or 
#implied, including, but not limited to, the implied warranties of merchantability or fitness 
#for a particular purpose, with respect to the services rendered.  In no event will 
#Halliburton be liable for failure to obtain any particular results or for 
#any damages, including, but not limited to, indirect, special or consequential damages, 
#resulting from the use of any information or interpretation provided by Halliburton.
#
~A           TIME           GTDEPTH  GTPQH  GTTQ  GTTN   GTET   GTTVD  
   00:24:31.312.18-May-2020 4886.01 5474.28 66.45 10.00   0.00 2563.39
   00:24:31.512.18-May-2020 4886.01 5474.28 66.45 10.00   0.20 2563.39
   00:24:31.712.18-May-2020 4886.01 5476.28 66.45 10.00   0.40 2563.39
   00:24:31.912.18-May-2020 4886.01 5473.98 66.45 10.00   0.60 2563.39
   00:24:32.112.18-May-2020 4886.01 5480.40 66.45 10.00   0.80 2563.39
   00:24:32.313.18-May-2020 4886.01 5473.73 66.45 10.00   1.00 2563.39
   00:24:32.513.18-May-2020 4886.01 5473.73 66.45 10.00   1.20 2563.39
   00:24:32.713.18-May-2020 4886.01 5475.83 66.45 10.00   1.40 2563.39
   00:24:32.913.18-May-2020 4886.01 5486.28 66.45 10.00   1.60 2563.39
   00:24:33.113.18-May-2020 4886.01 5469.18 66.45 10.00   1.80 2563.39
   00:24:33.313.18-May-2020 4886.01 5477.81 66.45 10.00   2.00 2563.39
   00:24:33.513.18-May-2020 4886.01 5477.81 66.45 10.00   2.20 2563.39
   00:24:33.713.18-May-2020 4886.01 5476.33 66.45 10.00   2.40 2563.39
   00:24:33.913.18-May-2020 4886.01 5477.33 66.45 10.00   2.60 2563.39
   00:24:34.113.18-May-2020 4886.01 5477.20 66.45 10.00   2.80 2563.39
   00:24:34.313.18-May-2020 4886.01 5477.53 66.45 10.00   3.00 2563.39
   00:24:34.513.18-May-2020 4886.01 5477.53 66.45 10.00   3.20 2563.39
   00:24:34.714.18-May-2020 4886.01 5478.67 66.45 10.00   3.40 2563.39
   00:24:34.914.18-May-2020 4886.01 5478.83 66.45 10.00   3.60 2563.39
   00:24:35.114.18-May-2020 4886.01 5480.01 66.45 10.00   3.80 2563.39
   00:24:35.314.18-May-2020 4886.01 5488.00 66.45 10.00   4.00 2563.39
   00:24:35.514.18-May-2020 4886.01 5488.00 66.45 10.00   4.20 2563.39
   00:24:35.714.18-May-2020 4886.01 5486.93 66.45 10.00   4.40 2563.39
   00:24:35.914.18-May-2020 4886.01 5479.72 66.45 10.00   4.60 2563.39
   00:24:36.114.18-May-2020 4886.01 5485.02 66.45 10.00   4.80 2563.39
   00:24:36.314.18-May-2020 4886.01 5479.29 66.45 10.00   5.00 2563.39
   00:24:36.514.18-May-2020 4886.01 5482.91 66.45 10.00   5.20 2563.39
   00:24:36.714.18-May-2020 4886.01 5480.22 66.45 10.00   5.40 2563.39
   00:24:36.914.18-May-2020 4886.01 5481.08 66.45 10.00   5.60 2563.39
   00:24:37.115.18-May-2020 4886.01 5480.04 66.45 10.00   5.80 2563.39
   00:24:37.315.18-May-2020 4886.01 5480.67 66.45 10.00   6.00 2563.39
   00:24:37.515.18-May-2020 4886.01 5480.67 66.45 10.00   6.20 2563.39
   00:24:37.715.18-May-2020 4886.01 5474.06 66.45 10.00   6.40 2563.39
   00:24:37.915.18-May-2020 4886.01 5485.01 66.45 10.00   6.60 2563.39
   00:24:38.115.18-May-2020 4886.01 5484.58 66.45 10.00   6.80 2563.39
   00:24:38.315.18-May-2020 4886.01 5493.89 66.45 10.00   7.00 2563.39
   00:24:38.515.18-May-2020 4886.01 5493.89 66.45 10.00   7.20 2563.39
   00:24:38.715.18-May-2020 4886.01 5486.86 66.45 10.00   7.40 2563.39
   00:24:38.915.18-May-2020 4886.01 5485.71 66.45 10.00   7.60 2563.39
   00:24:39.115.18-May-2020 4886.01 5483.29 66.45 10.00   7.80 2563.39
   00:24:39.315.18-May-2020 4886.01 5492.06 66.45 10.00   8.00 2563.39
   00:24:39.515.18-May-2020 4886.01 5492.06 66.45 10.00   8.20 2563.39
   00:24:39.716.18-May-2020 4886.01 5489.59 66.45 10.00   8.40 2563.39
   00:24:39.916.18-May-2020 4886.01 5481.68 66.45 10.00   8.60 2563.39
   00:24:40.116.18-May-2020 4886.01 5498.97 66.45 10.00   8.80 2563.39
   00:24:40.316.18-May-2020 4886.01 5478.16 66.45 10.00   9.00 2563.39
   00:24:40.516.18-May-2020 4886.01 5478.16 66.45 10.00   9.20 2563.39
   00:24:40.716.18-May-2020 4886.01 5498.70 66.45 10.00   9.40 2563.39
   00:24:40.916.18-May-2020 4886.01 5483.14 66.45 10.00   9.60 2563.39
   00:24:41.116.18-May-2020 4886.01 5487.84 66.45 10.00   9.80 2563.39
   00:24:41.316.18-May-2020 4886.01 5489.78 66.45 10.00  10.00 2563.39
   00:24:41.516.18-May-2020 4886.01 5489.78 66.45 10.00  10.20 2563.39
   00:24:41.716.18-May-2020 4886.01 5484.23 66.45 10.00  10.40 2563.39
   00:24:41.916.18-May-2020 4886.01 5493.38 66.45 10.00  10.60 2563.39
   00:24:42.117.18-May-2020 4886.01 5485.18 66.45 10.00  10.80 2563.39
   00:24:42.317.18-May-2020 4886.01 5489.54 66.45 10.00  11.00 2563.39
   00:24:42.517.18-May-2020 4886.01 5489.54 66.45 10.00  11.20 2563.39
   00:24:42.717.18-May-2020 4886.01 5486.64 66.45 10.00  11.40 2563.39
   00:24:42.917.18-May-2020 4886.01 5484.87 66.45 10.00  11.60 2563.39
   00:24:43.117.18-May-2020 4886.01 5485.60 66.45 10.00  11.80 2563.39
   00:24:43.317.18-May-2020 4886.01 5485.15 66.45 10.00  12.00 2563.39
   00:24:43.517.18-May-2020 4886.01 5485.15 66.45 10.00  12.20 2563.39
   00:24:43.717.18-May-2020 4886.01 5480.11 66.45 10.00  12.41 2563.39
   00:24:43.917.18-May-2020 4886.01 5491.68 66.45 10.00  12.61 2563.39
   00:24:44.117.18-May-2020 4886.01 5487.95 66.45 10.00  12.81 2563.39
   00:24:44.317.18-May-2020 4886.01 5490.79 66.45 10.00  13.01 2563.39
   00:24:44.517.18-May-2020 4886.01 5490.79 66.45 10.00  13.21 2563.39
   00:24:44.718.18-May-2020 4886.01 5490.79 66.45 10.00  13.41 2563.39
   00:24:44.918.18-May-2020 4886.01 5486.83 66.45 10.00  13.61 2563.39
   00:24:45.118.18-May-2020 4886.01 5487.49 66.45 10.00  13.81 2563.39
   00:24:45.318.18-May-2020 4886.01 5487.10 66.45 10.00  14.01 2563.39
   00:24:45.518.18-May-2020 4886.01 5487.10 66.45 10.00  14.21 2563.39
   00:24:45.718.18-May-2020 4886.01 5500.36 66.45 10.00  14.41 2563.39
   00:24:45.918.18-May-2020 4886.01 5482.58 66.45 10.00  14.61 2563.39
   00:24:46.118.18-May-2020 4886.01 5492.28 66.45 10.00  14.81 2563.39
   00:24:46.318.18-May-2020 4886.01 5491.18 66.45 10.00  15.01 2563.39
   00:24:46.518.18-May-2020 4886.01 5504.04 66.45 10.00  15.21 2563.39
   00:24:46.718.18-May-2020 4886.01 5482.82 66.45 10.00  15.41 2563.39
   00:24:46.918.18-May-2020 4886.01 5494.73 66.45 10.00  15.61 2563.39
   00:24:47.119.18-May-2020 4886.01 5492.52 66.45 10.00  15.81 2563.39
   00:24:47.319.18-May-2020 4886.01 5493.61 66.45 10.00  16.01 2563.39
   00:24:47.519.18-May-2020 4886.01 5493.61 66.45 10.00  16.21 2563.39
   00:24:47.719.18-May-2020 4886.01 5492.13 66.45 10.00  16.41 2563.39
   00:24:47.919.18-May-2020 4886.01 5496.34 66.45 10.00  16.61 2563.39
   00:24:48.119.18-May-2020 4886.01 5487.27 66.45 10.00  16.81 2563.39
   00:24:48.319.18-May-2020 4886.01 5494.71 66.45 10.00  17.01 2563.39
   00:24:48.519.18-May-2020 4886.01 5494.71 66.45 10.00  17.21 2563.39
   00:24:48.719.18-May-2020 4886.01 5491.27 66.45 10.00  17.41 2563.39
   00:24:48.919.18-May-2020 4886.01 5495.30 66.45 10.00  17.61 2563.39
   00:24:49.119.18-May-2020 4886.01 5490.67 66.45 10.00  17.81 2563.39
   00:24:49.319.18-May-2020 4886.01 5493.31 66.45 10.00  18.01 2563.39
   00:24:49.520.18-May-2020 4886.01 5493.31 66.45 10.00  18.21 2563.39
   00:24:49.720.18-May-2020 4886.01 5490.81 66.45 10.00  18.41 2563.39
   00:24:49.920.18-May-2020 4886.01 5488.78 66.45 10.00  18.61 2563.39
   00:24:50.120.18-May-2020 4886.01 5489.52 66.45 10.00  18.81 2563.39
   00:24:50.320.18-May-2020 4886.01 5488.43 66.45 10.00  19.01 2563.39
   00:24:50.520.18-May-2020 4886.01 5488.43 66.45 10.00  19.21 2563.39
   00:24:50.720.18-May-2020 4886.01 5483.76 66.45 10.00  19.41 2563.39
   00:24:50.920.18-May-2020 4886.01 5494.74 66.45 10.00  19.61 2563.39
   00:24:51.120.18-May-2020 4886.01 5490.70 66.45 10.00  19.81 2563.39
   00:24:51.320.18-May-2020 4886.01 5493.10 66.45 10.00  20.01 2563.39
   00:24:51.520.18-May-2020 4886.01 5493.10 66.45 10.00  20.21 2563.39
   00:24:51.720.18-May-2020 4886.01 5491.15 66.45 10.00  20.41 2563.39
   00:24:51.920.18-May-2020 4886.01 5489.07 66.45 10.00  20.61 2563.39
   00:24:52.121.18-May-2020 4886.01 5489.79 66.45 10.00  20.81 2563.39
   00:24:52.321.18-May-2020 4886.01 5488.84 66.45 10.00  21.01 2563.39
   00:24:52.521.18-May-2020 4886.01 5488.84 66.45 10.00  21.21 2563.39
   00:24:52.721.18-May-2020 4886.01 5503.70 66.45 10.00  21.41 2563.39
   00:24:52.921.18-May-2020 4886.01 5483.71 66.45 10.00  21.61 2563.39
   00:24:53.121.18-May-2020 4886.01 5494.98 66.45 10.00  21.81 2563.39
   00:24:53.321.18-May-2020 4886.01 5494.26 66.45 10.00  22.01 2563.39
   00:24:53.521.18-May-2020 4886.01 5494.26 66.45 10.00  22.21 2563.39
   00:24:53.721.18-May-2020 4886.01 5490.85 66.45 10.00  22.41 2563.39
