~Version Information
 VERS.                  2.0:   CWLS log ASCII Standard -VERSION 2.0
 WRAP.                   NO:   One line per depth step
~Well Information Block
#MNEM.UNIT     VALUE/NAME     DESCRIPTION
#---------     -----------    ---------------------------
 STRT.S             20:30:46 17-May-20: START TIME 20:30:46 17-May-20
 STOP.S             20:37:50 17-May-20: STOP TIME  20:37:50 17-May-20
 STEP.S                   0.00: STEP TIME
 NULL.                 -999.25: NULL VALUE
 UNIT.                     N/A:  LOGGING EQUIPMENT ID
 DCON.         Sperry Drilling:  DIRECTNL CONTR
 DOE .                     N/A:  DOE NUMBER
 JOBN.        AZ-XX-0906252240:  JOB TICKET NUMB
 MWDS.                     N/A:  MWD SHOP
 PROV.                    Baku:  PROVINCE
 STAT.                    Baku:  STATE NAME
 REGN.                   EESSA:  REGION
 BASE.              Azerbaijan:  LOGGING EQUIPMENT BASE LOCATION
 UWI .                     N/A:  UNIQUE WELL IDENTIFIER
 API .                     N/A:  API NUMBER
 MDS .        Operator Entered:  MAG DATA SOURCE
 WTYP.                Deviated:  WELL TYPE
 COMP.     BP Exploration (Caspian Sea) Ltd.:  COMPANY
 SRVC.          Turan Drilling:  CONTRACTOR
 WELL.           J23 (Slot 07):  WELL NAME
 CTRY.              Azerbaijan:  COUNTRY NAME
 FLD .                     ACG:  FIELD NAME
 PDAT.          Mean Sea Level:  PERMANENT DATUM
 RIG .             West Chirag:  RIG NAME
 SON .        AZ-XX-0906252240:  JOB NUMBER
 FTOP.          Formation Tops:  FORM TOPS DESC
 ILTD.               Lithology:  INTERP LTH DESC
 SVYD.                  Survey:  SURVEY DESC
 DMOD.             Drill Model:  DRILL MOD DESC
 HPTY.       Minimum Curvature:  HOLE POS TYPE
 NREF.                    Grid:  NORTH REFERENCE
 SPUD.               27-Aug-20:  SPUD DATE
 DATE.      00.00.00 19-May-20:  END TIME
 STIM.      03.00.00 25-Mar-20:  START TIME
 DMF .             Drill Floor:  DRILL MEAS FROM
 DFST.                        :  DIST FSL TEXT
 DFWT.                        :  DIST FWL TEXT
 CNTY.                        :  COUNTY
 LOC .                        :  LOCATION
 LMF .             Drill Floor:  LOG MEASURED FROM
 VSNS.m                   9.43:  VERT SEC N/S
 VSEW.m                  -8.91:  VERT SEC E/W
 AGAP.m                  43.00:  AIR GAP
 DEP .m                 354.17:  DEPTH
 APD .m                  43.00:  DEPTH ABOVE PD
 WDMS.m                 169.80:  WD ELEV
 EGL .m                   0.00:  GROUND ELEVATION
 EPD .m                   0.00:  ELEVATION
 AZTC.deg                 6.31:  AZM TOTAL CORR
 GRDC.deg                 0.14:  GRID CORRECTION
 MDEC.deg                 6.45:  MAGNETIC DECL
 MDIP.deg                59.56:  MAGNETIC DIP
 MFLD.nT              50295.00:  MAGNETIC FIELD
 GVFD.g                   1.00:  GRAVITY FIELD
 VSDR.deg               179.88:  VERT SEC DIRECT
 TDD .m                5150.01:  TOTAL DEPTH (DRILLER)
 SDEP.m                 864.00:  START DEPTH
 DFSL.m                   0.00:  DISTANCE FSL
 DFWL.m                   0.00:  DISTANCE FWL
 UTMY.m             4443793.85:  UTM Y
 UTMX.m              519005.06:  UTM X
 WHEW.m                  -8.91:  WELL HEAD E/W
 WHNS.m                   9.43:  WELL HEAD N/S
 LONG.deg                51.22:  LONGITUDE
 LATI.deg                40.13:  LATITUDE
 TVDS.m                  43.00:  TVDSS CORRECTN
 EKB .m                   0.00:  KB ELEVATION
 EDF .m                  43.00:  DF ELEVATION
 TDL .m                 363.00:  TOTAL DEPTH (LOGGER)
 MAGU.                 1850802:  MAGUTM CHECKSUM
 VSC .                       0:  VS TO CLOSURE
~Parameter Information Block
#MNEM.UNIT       Value        Description
#---------     -----------    ---------------------------
 AV  .mps                 2.30:  Ann Velocity 
 AVMX.mps                 4.40:  Max Ann Veloc 
 AZIF.deg               110.24:  Azm, Final 
 BHAT.        Rotary Steerable:  BHA Type 
 BREV.rev               331.00:  Rev Bit Total 
 BROT.°/30m               0.00:  Build Rotating 
 BS  .in                  8.50:  Bit Size 
 BSZ .in                  8.50:  Bit Size 
 BTPL.psig              585.00:  Bit Press Loss 
 CABU.                     Yes:  Customer Abuse 
 TCS .hr                122.75:  Time Ciculation Ended 
 CV  .mps                 2.67:  Crit Velocity 
 CVMX.mps                 3.56:  Max Crit Veloc 
 DD1 .          Rashad Habibov:  Direct Drillr 1 
 DD2 .         Rasim Ibrahimov:  Direct Drillr 2 
 DDSV.               Geo-Pilot:  DD Service 
 DEFF.%                  98.00:  % Det Eff 
 DLRX.°/30m               0.75:  Dogleg Rot Max 
 DLSO.°/30m               1.25:  Dogleg Oriented 
 DLSX.°/30m               2.06:  Dogleg Str Max 
 DRET.      07.45.00 17-May-20:  Drill End Time 
 DRST.      22.50.00 15-May-20:  Drill Start Tim 
 DTIM.hr                 20.75:  Time Drilling 
 EDEP.m                5124.01:  End Depth 
 ENG1.           Eldar Hajiyev:  Engineer 1 
 ENG2.        Marcelo Sandoval:  Engineer 2 
 ENG3.        Davud huseynzada:  Engineer 3 
 ENG4.          Ruslan Safarov:  Engineer 4 
 ETIM.      04.33.00 23-May-20:  End Time 
 FLOI.gpm               450.00:  Flow In 
 FLON.gpm               400.00:  Flow In Min 
 FLOS.cptm                0.00:  Fluid Loss 
 FLOX.gpm               500.00:  Flow In Max 
 FTRO.       Formation Presure:  FTWD Run Obj 
 HFLO.                      No:  High Flow 
 HPRE.                     Yes:  High Pressure 
 HTEM.                      No:  High Temp 
 HYDO.m                   1.80:  Hydro Offset 
 IFIN.deg                75.06:  Inc, Final 
 IMAX.deg                75.38:  Inc Max 
 IMIN.deg                74.69:  Inc Min 
 IMND.m                5027.38:  Inc Min Depth 
 IMXD.m                4771.61:  Inc Max Depth 
 JARR.                      No:  Jarring 
 LETM.      07.45.00 17-May-20:  Log End Time 
 LOST.hr                     0:  Lost Rig Time 
 LSTM.      22.50.00 15-May-20:  Log Start Time 
 MDCL.ppm             42000.00:  Mud Chlorides 
 MDES.     Inversion Oil/Synthetic:  Mud Desc 
 DFD .sg                  1.34:  Mud Density 
 MDMN.sg                  1.34:  Dens Mud Min 
 MDMX.sg                  1.34:  Dens Mud Max 
 MOIL.                       0:  Run Mud Oil % 
 MOWR.                   67:33:  Run Mud OWR 
 MSND.                       0:  Run Mud Sand % 
 MSOL.                     1.8:  Run Mud Solids% 
 DFV .spqt               76.00:  Mud Viscosity 
 MWOD.in                  6.75:  MWD Tool OD 
 MWSI.                      No:  Serv Intrp, MWD 
 OTIM.hr                228.19:  Time Operating 
 PCON.           Look Like New:  Pad Condition 
 PMAX.psia             6164.70:  Press Op, Max 
 PV  .cP                 28.00:  Mud PV 
 RUN .                     900:  Run Number 
 ROPA.m/hr               19.00:  ROP Avg 
 ROPN.m/hr               11.00:  ROP Min 
 ROPX.m/hr               36.00:  ROP Max 
 RPMA.rpm               120.00:  RPM Surface Avg 
 RPMN.rpm               120.00:  RPM Surface Min 
 RPMX.rpm               120.00:  RPM Surface Max 
 RRUN.                    L604:  Rig Run Number 
 RTIM.hr                  7.00:  Time Reaming 
 SAZI.deg               109.27:  Azm, Start 
 SDEP.m                4761.01:  Start Depth 
 SIDD.                      No:  Serv Intrp, DD 
 SINC.deg                75.38:  Inc, Start 
 SPPA.psig             3574.00:  SPP Avg 
 SPPN.psig             3475.00:  SPP Min 
 SPPX.psig             3791.00:  SPP Max 
 STIM.      07.08.48 13-May-20:  Start Time 
 SVCS.                 DD, MWD:  Services 
 SVER.                    9.20:  Sperry Version 
 TDAT.m                 363.00:  Tot Depth Attmp 
 TDDF.                      No:  Trip for DD 
 TDLG.m                 363.00:  Tot Depth Loggd 
 TFF .                      No:  Trip for Fail 
 TQAA.f-kp               20.00:  Torque Abs Avg 
 TQAN.f-kp               18.00:  Torque Abs Min 
 TQAX.f-kp               22.00:  Torque Abs Max 
 TRRT.°/30m              -0.35:  Turn Rotating 
 MRT .                    HCIM:  Maximum Recorded Temperature 
 TTMX.degC               92.16:  Max Tool Temp 
 VS01.                90586518:  Virtual Str1 SN 
 VS02.        AZ90560654Z1W1C6:  Virtual Str2 SN 
 VS03.           AZ90610398F11:  Virtual Str3 SN 
 VS04.                90514975:  Virtual Str4 SN 
 VS05.                90514972:  Virtual Str5 SN 
 VS06.     AZ90603282F11V7D1A6:  Virtual Str6 SN 
 WBMN.klb                 7.00:  WOB Min 
 WOBA.klb                12.00:  WOB Avg 
 WOBX.klb                14.00:  WOB Max 
 YP  .lhf2               32.00:  Yield Point 
~Curve Information Block
#MNEM.UNIT                 API CODE     Curve Description
#---------               -----------    ---------------------------
 TIME.HHMMSS            00 000 000 000:  GT Time & Date
 GTDEPTH.m              00 000 000 000:  GT Depth
 GTPQH.psia             00 000 000 000:  GT HR Quartz Pressure
 GTTQ.degC              00 000 000 000:  GT Quartz Temperature
 GTTN.NONE              00 000 000 000:  GT Test Number
 GTET.sec               00 000 000 000:  GT Elapsed Test Time
 GTTVD.m                00 000 000 000:  GT True Vertical Depth
#Other Information
#
#WARRANTY: Halliburton will use its best efforts to furnish customers with 
#accurate information and interpretations that are part of, and incident to, the services 
#provided.  However, Halliburton cannot and does not warrant the accuracy 
#or correctness of such information and interpretations.  Under no circumstances should any 
#such information or interpretation be relied upon as the sole basis for any drilling, 
#completion, production, or financial decision or any procedure involving any risk to the 
#safety of any drilling venture, drilling rig or its crew or any other third party.  The 
#Customer has full responsibility for all drilling, completion and production operation.  
#Halliburton makes no representations or warranties, either expressed or 
#implied, including, but not limited to, the implied warranties of merchantability or fitness 
#for a particular purpose, with respect to the services rendered.  In no event will 
#Halliburton be liable for failure to obtain any particular results or for 
#any damages, including, but not limited to, indirect, special or consequential damages, 
#resulting from the use of any information or interpretation provided by Halliburton.
#
~A           TIME           GTDEPTH  GTPQH  GTTQ  GTTN  GTET   GTTVD  
# ...
   20:31:09.359.17-May-2020 4971.01 5541.59 68.83 5.00  23.00 2585.16
   20:31:09.559.17-May-2020 4971.01 5541.59 68.83 5.00  23.20 2585.16
   20:31:09.759.17-May-2020 4971.01 5550.54 68.83 5.00  23.40 2585.16
   20:31:09.959.17-May-2020 4971.01 5539.51 68.83 5.00  23.60 2585.16
   20:31:10.159.17-May-2020 4971.01 5540.26 68.83 5.00  23.80 2585.16
   20:31:10.359.17-May-2020 4971.01 5540.99 68.83 5.00  24.00 2585.16
   20:31:10.559.17-May-2020 4971.01 5540.99 68.83 5.00  24.20 2585.16
   20:31:10.759.17-May-2020 4971.01 5542.18 68.83 5.00  24.40 2585.16
   20:31:10.959.17-May-2020 4971.01 5542.39 68.83 5.00  24.60 2585.16
   20:31:11.159.17-May-2020 4971.01 5541.68 68.83 5.00  24.80 2585.16
   20:31:11.359.17-May-2020 4971.01 5541.40 68.83 5.00  25.00 2585.16
   20:31:11.559.17-May-2020 4971.01 5541.40 68.83 5.00  25.20 2585.16
   20:31:11.759.17-May-2020 4971.01 5537.91 68.83 5.00  25.40 2585.16
   20:31:11.959.17-May-2020 4971.01 5539.36 68.83 5.00  25.60 2585.16
   20:31:12.159.17-May-2020 4971.01 5538.44 68.83 5.00  25.80 2585.16
   20:31:12.359.17-May-2020 4971.01 5538.34 68.83 5.00  26.00 2585.16
   20:31:12.559.17-May-2020 4971.01 5538.34 68.83 5.00  26.20 2585.16
   20:31:12.759.17-May-2020 4971.01 5535.26 68.83 5.00  26.40 2585.16
   20:31:12.959.17-May-2020 4971.01 5540.98 68.83 5.00  26.60 2585.16
   20:31:13.159.17-May-2020 4971.01 5541.10 68.83 5.00  26.80 2585.16
   20:31:13.359.17-May-2020 4971.01 5539.59 68.83 5.00  27.00 2585.16
   20:31:13.559.17-May-2020 4971.01 5539.59 68.83 5.00  27.20 2585.16
   20:31:13.759.17-May-2020 4971.01 5536.75 68.83 5.00  27.40 2585.16
   20:31:13.959.17-May-2020 4971.01 5537.79 68.83 5.00  27.60 2585.16
   20:31:14.159.17-May-2020 4971.01 5537.28 68.83 5.00  27.80 2585.16
   20:31:14.359.17-May-2020 4971.01 5537.20 68.83 5.00  28.00 2585.16
   20:31:14.559.17-May-2020 4971.01 5537.20 68.83 5.00  28.20 2585.16
   20:31:14.759.17-May-2020 4971.01 5552.06 68.83 5.00  28.40 2585.16
   20:31:14.959.17-May-2020 4971.01 5533.38 68.83 5.00  28.60 2585.16
   20:31:15.159.17-May-2020 4971.01 5541.44 68.83 5.00  28.80 2585.16
   20:31:15.359.17-May-2020 4971.01 5544.02 68.83 5.00  29.00 2585.16
   20:31:15.559.17-May-2020 4971.01 5538.30 68.83 5.00  29.20 2585.16
   20:31:15.759.17-May-2020 4971.01 5553.07 68.83 5.00  29.40 2585.16
   20:31:15.959.17-May-2020 4971.01 5540.05 68.83 5.00  29.60 2585.16
   20:31:16.159.17-May-2020 4971.01 5543.78 68.83 5.00  29.80 2585.16
   20:31:16.359.17-May-2020 4971.01 5542.21 68.83 5.00  30.00 2585.16
   20:31:16.559.17-May-2020 4971.01 5542.21 68.83 5.00  30.20 2585.16
   20:31:16.759.17-May-2020 4971.01 5545.03 68.83 5.00  30.40 2585.16
   20:31:16.959.17-May-2020 4971.01 5543.94 68.83 5.00  30.60 2585.16
   20:31:17.159.17-May-2020 4971.01 5552.56 68.83 5.00  30.80 2585.16
   20:31:17.359.17-May-2020 4971.01 5545.95 68.83 5.00  31.00 2585.16
   20:31:17.559.17-May-2020 4971.01 5545.95 68.83 5.00  31.20 2585.16
   20:31:17.759.17-May-2020 4971.01 5542.90 68.82 5.00  31.40 2585.16
   20:31:17.959.17-May-2020 4971.01 5544.97 68.82 5.00  31.60 2585.16
   20:31:18.159.17-May-2020 4971.01 5544.00 68.82 5.00  31.80 2585.16
   20:31:18.358.17-May-2020 4971.01 5541.36 68.82 5.00  32.00 2585.16
   20:31:18.558.17-May-2020 4971.01 5541.36 68.82 5.00  32.20 2585.16
   20:31:18.758.17-May-2020 4971.01 5541.52 68.82 5.00  32.40 2585.16
   20:31:18.958.17-May-2020 4971.01 5541.74 68.82 5.00  32.60 2585.16
   20:31:19.158.17-May-2020 4971.01 5541.58 68.82 5.00  32.80 2585.16
   20:31:19.358.17-May-2020 4971.01 5554.64 68.82 5.00  33.00 2585.16
   20:31:19.558.17-May-2020 4971.01 5554.64 68.82 5.00  33.20 2585.16
   20:31:19.758.17-May-2020 4971.01 5546.08 68.82 5.00  33.40 2585.16
   20:31:19.958.17-May-2020 4971.01 5546.86 68.82 5.00  33.60 2585.16
   20:31:20.158.17-May-2020 4971.01 5539.74 68.82 5.00  33.80 2585.16
   20:31:20.358.17-May-2020 4971.01 5543.18 68.82 5.00  34.00 2585.16
   20:31:20.558.17-May-2020 4971.01 5542.18 68.82 5.00  34.20 2585.16
   20:31:20.758.17-May-2020 4971.01 5541.53 68.82 5.00  34.40 2585.16
   20:31:20.958.17-May-2020 4971.01 5541.17 68.82 5.00  34.60 2585.16
   20:31:21.158.17-May-2020 4971.01 5541.21 68.82 5.00  34.80 2585.16
   20:31:21.358.17-May-2020 4971.01 5541.69 68.82 5.00  35.00 2585.16
   20:31:21.558.17-May-2020 4971.01 5541.69 68.82 5.00  35.20 2585.16
   20:31:21.758.17-May-2020 4971.01 5550.57 68.82 5.00  35.40 2585.16
   20:31:21.958.17-May-2020 4971.01 5544.53 68.82 5.00  35.60 2585.16
   20:31:22.158.17-May-2020 4971.01 5547.00 68.82 5.00  35.80 2585.16
   20:31:22.358.17-May-2020 4971.01 5543.07 68.82 5.00  36.00 2585.16
   20:31:22.558.17-May-2020 4971.01 5543.07 68.82 5.00  36.20 2585.16
   20:31:22.758.17-May-2020 4971.01 5543.03 68.82 5.00  36.40 2585.16
   20:31:22.958.17-May-2020 4971.01 5544.89 68.82 5.00  36.60 2585.16
   20:31:23.158.17-May-2020 4971.01 5546.26 68.82 5.00  36.80 2585.16
   20:31:23.358.17-May-2020 4971.01 5559.19 68.82 5.00  37.00 2585.16
   20:31:23.558.17-May-2020 4971.01 5542.27 68.82 5.00  37.20 2585.16
   20:31:23.758.17-May-2020 4971.01 5546.47 68.82 5.00  37.40 2585.16
   20:31:23.958.17-May-2020 4971.01 5549.47 68.82 5.00  37.60 2585.16
   20:31:24.158.17-May-2020 4971.01 5550.63 68.82 5.00  37.80 2585.16
   20:31:24.358.17-May-2020 4971.01 5548.70 68.82 5.00  38.00 2585.16
   20:31:24.558.17-May-2020 4971.01 5550.66 68.82 5.00  38.20 2585.16
   20:31:24.758.17-May-2020 4971.01 5553.52 68.82 5.00  38.40 2585.16
   20:31:24.958.17-May-2020 4971.01 5549.57 68.82 5.00  38.60 2585.16
   20:31:25.158.17-May-2020 4971.01 5550.36 68.82 5.00  38.80 2585.16
   20:31:25.358.17-May-2020 4971.01 5553.52 68.82 5.00  39.00 2585.16
   20:31:25.558.17-May-2020 4971.01 5553.52 68.82 5.00  39.20 2585.16
   20:31:25.758.17-May-2020 4971.01 5546.46 68.82 5.00  39.40 2585.16
   20:31:25.958.17-May-2020 4971.01 5551.70 68.82 5.00  39.60 2585.16
   20:31:26.158.17-May-2020 4971.01 5550.54 68.82 5.00  39.80 2585.16
   20:31:26.358.17-May-2020 4971.01 5542.79 68.82 5.00  40.00 2585.16
   20:31:26.558.17-May-2020 4971.01 5542.79 68.82 5.00  40.20 2585.16
   20:31:26.758.17-May-2020 4971.01 5990.14 68.82 5.00  40.40 2585.16
   20:31:26.958.17-May-2020 4971.01 6050.82 68.82 5.00  40.60 2585.16
   20:31:27.158.17-May-2020 4971.01 6023.45 68.82 5.00  40.80 2585.16
   20:31:27.358.17-May-2020 4971.01 6006.83 68.82 5.00  41.00 2585.16
   20:31:27.558.17-May-2020 4971.01 5981.87 68.82 5.00  41.20 2585.16
   20:31:27.758.17-May-2020 4971.01 5963.43 68.82 5.00  41.40 2585.16
   20:31:27.958.17-May-2020 4971.01 5950.40 68.82 5.00  41.60 2585.16
   20:31:28.158.17-May-2020 4971.01 5945.51 68.82 5.00  41.80 2585.16
   20:31:28.358.17-May-2020 4971.01 5937.16 68.82 5.00  42.00 2585.16
   20:31:28.558.17-May-2020 4971.01 5934.04 68.82 5.00  42.20 2585.16
   20:31:28.758.17-May-2020 4971.01 5930.48 68.82 5.00  42.40 2585.16
   20:31:28.958.17-May-2020 4971.01 5926.02 68.82 5.00  42.60 2585.16
   20:31:29.158.17-May-2020 4971.01 5923.69 68.82 5.00  42.80 2585.16
   20:31:29.358.17-May-2020 4971.01 5920.88 68.82 5.00  43.00 2585.16
   20:31:29.558.17-May-2020 4971.01 5920.88 68.82 5.00  43.20 2585.16
   20:31:29.758.17-May-2020 4971.01 5915.91 68.82 5.00  43.40 2585.16
   20:31:29.958.17-May-2020 4971.01 5917.72 68.82 5.00  43.60 2585.16
   20:31:30.158.17-May-2020 4971.01 5907.79 68.82 5.00  43.80 2585.16
   20:31:30.358.17-May-2020 4971.01 5907.99 68.82 5.00  44.00 2585.16
   20:31:30.558.17-May-2020 4971.01 5907.99 68.82 5.00  44.20 2585.16
   20:31:30.758.17-May-2020 4971.01 5903.78 68.82 5.00  44.40 2585.16
   20:31:30.958.17-May-2020 4971.01 5906.71 68.82 5.00  44.60 2585.16
   20:31:31.157.17-May-2020 4971.01 5897.99 68.82 5.00  44.80 2585.16
   20:31:31.357.17-May-2020 4971.01 5899.00 68.82 5.00  45.00 2585.16
   20:31:31.557.17-May-2020 4971.01 5902.51 68.82 5.00  45.20 2585.16
   20:31:31.757.17-May-2020 4971.01 5892.05 68.82 5.00  45.40 2585.16
   20:31:31.957.17-May-2020 4971.01 5893.43 68.82 5.00  45.60 2585.16
   20:31:32.157.17-May-2020 4971.01 5836.66 68.82 5.00  45.80 2585.16
