~Version Information
 VERS.                  2.0:   CWLS log ASCII Standard -VERSION 2.0
 WRAP.                   NO:   One line per depth step
~Well Information Block
#MNEM.UNIT     VALUE/NAME     DESCRIPTION
#---------     -----------    ---------------------------
 STRT.S             21:11:08 17-May-20: START TIME 21:11:08 17-May-20
 STOP.S             21:18:11 17-May-20: STOP TIME  21:18:11 17-May-20
 STEP.S                   0.00: STEP TIME
 NULL.                 -999.25: NULL VALUE
 UNIT.                     N/A:  LOGGING EQUIPMENT ID
 DCON.         Sperry Drilling:  DIRECTNL CONTR
 DOE .                     N/A:  DOE NUMBER
 JOBN.        AZ-XX-0906252240:  JOB TICKET NUMB
 MWDS.                     N/A:  MWD SHOP
 PROV.                    Baku:  PROVINCE
 STAT.                    Baku:  STATE NAME
 REGN.                   EESSA:  REGION
 BASE.              Azerbaijan:  LOGGING EQUIPMENT BASE LOCATION
 UWI .                     N/A:  UNIQUE WELL IDENTIFIER
 API .                     N/A:  API NUMBER
 MDS .        Operator Entered:  MAG DATA SOURCE
 WTYP.                Deviated:  WELL TYPE
 COMP.     BP Exploration (Caspian Sea) Ltd.:  COMPANY
 SRVC.          Turan Drilling:  CONTRACTOR
 WELL.           J23 (Slot 07):  WELL NAME
 CTRY.              Azerbaijan:  COUNTRY NAME
 FLD .                     ACG:  FIELD NAME
 PDAT.          Mean Sea Level:  PERMANENT DATUM
 RIG .             West Chirag:  RIG NAME
 SON .        AZ-XX-0906252240:  JOB NUMBER
 FTOP.          Formation Tops:  FORM TOPS DESC
 ILTD.               Lithology:  INTERP LTH DESC
 SVYD.                  Survey:  SURVEY DESC
 DMOD.             Drill Model:  DRILL MOD DESC
 HPTY.       Minimum Curvature:  HOLE POS TYPE
 NREF.                    Grid:  NORTH REFERENCE
 SPUD.               27-Aug-20:  SPUD DATE
 DATE.      00.00.00 19-May-20:  END TIME
 STIM.      03.00.00 25-Mar-20:  START TIME
 DMF .             Drill Floor:  DRILL MEAS FROM
 DFST.                        :  DIST FSL TEXT
 DFWT.                        :  DIST FWL TEXT
 CNTY.                        :  COUNTY
 LOC .                        :  LOCATION
 LMF .             Drill Floor:  LOG MEASURED FROM
 VSNS.m                   9.43:  VERT SEC N/S
 VSEW.m                  -8.91:  VERT SEC E/W
 AGAP.m                  43.00:  AIR GAP
 DEP .m                 354.17:  DEPTH
 APD .m                  43.00:  DEPTH ABOVE PD
 WDMS.m                 169.80:  WD ELEV
 EGL .m                   0.00:  GROUND ELEVATION
 EPD .m                   0.00:  ELEVATION
 AZTC.deg                 6.31:  AZM TOTAL CORR
 GRDC.deg                 0.14:  GRID CORRECTION
 MDEC.deg                 6.45:  MAGNETIC DECL
 MDIP.deg                59.56:  MAGNETIC DIP
 MFLD.nT              50295.00:  MAGNETIC FIELD
 GVFD.g                   1.00:  GRAVITY FIELD
 VSDR.deg               179.88:  VERT SEC DIRECT
 TDD .m                5150.01:  TOTAL DEPTH (DRILLER)
 SDEP.m                 864.00:  START DEPTH
 DFSL.m                   0.00:  DISTANCE FSL
 DFWL.m                   0.00:  DISTANCE FWL
 UTMY.m             4443793.85:  UTM Y
 UTMX.m              519005.06:  UTM X
 WHEW.m                  -8.91:  WELL HEAD E/W
 WHNS.m                   9.43:  WELL HEAD N/S
 LONG.deg                51.22:  LONGITUDE
 LATI.deg                40.13:  LATITUDE
 TVDS.m                  43.00:  TVDSS CORRECTN
 EKB .m                   0.00:  KB ELEVATION
 EDF .m                  43.00:  DF ELEVATION
 TDL .m                 363.00:  TOTAL DEPTH (LOGGER)
 MAGU.                 1850802:  MAGUTM CHECKSUM
 VSC .                       0:  VS TO CLOSURE
~Parameter Information Block
#MNEM.UNIT       Value        Description
#---------     -----------    ---------------------------
 AV  .mps                 2.30:  Ann Velocity 
 AVMX.mps                 4.40:  Max Ann Veloc 
 AZIF.deg               110.24:  Azm, Final 
 BHAT.        Rotary Steerable:  BHA Type 
 BREV.rev               331.00:  Rev Bit Total 
 BROT.°/30m               0.00:  Build Rotating 
 BS  .in                  8.50:  Bit Size 
 BSZ .in                  8.50:  Bit Size 
 BTPL.psig              585.00:  Bit Press Loss 
 CABU.                     Yes:  Customer Abuse 
 COMM.                     Ô‹p:  Run Comments 1 
 TCS .hr                122.75:  Time Ciculation Ended 
 CV  .mps                 2.67:  Crit Velocity 
 CVMX.mps                 3.56:  Max Crit Veloc 
 DD1 .          Rashad Habibov:  Direct Drillr 1 
 DD2 .         Rasim Ibrahimov:  Direct Drillr 2 
 DDSV.               Geo-Pilot:  DD Service 
 DEFF.%                  98.00:  % Det Eff 
 DLRX.°/30m               0.75:  Dogleg Rot Max 
 DLSO.°/30m               1.25:  Dogleg Oriented 
 DLSX.°/30m               2.06:  Dogleg Str Max 
 DRET.      07.45.00 17-May-20:  Drill End Time 
 DRST.      22.50.00 15-May-20:  Drill Start Tim 
 DTIM.hr                 20.75:  Time Drilling 
 EDEP.m                5124.01:  End Depth 
 ENG1.           Eldar Hajiyev:  Engineer 1 
 ENG2.        Marcelo Sandoval:  Engineer 2 
 ENG3.        Davud huseynzada:  Engineer 3 
 ENG4.          Ruslan Safarov:  Engineer 4 
 ETIM.      04.33.00 23-May-20:  End Time 
 FLOI.gpm               450.00:  Flow In 
 FLON.gpm               400.00:  Flow In Min 
 FLOS.cptm                0.00:  Fluid Loss 
 FLOX.gpm               500.00:  Flow In Max 
 FTRO.       Formation Presure:  FTWD Run Obj 
 HFLO.                      No:  High Flow 
 HPRE.                     Yes:  High Pressure 
 HTEM.                      No:  High Temp 
 HYDO.m                   1.80:  Hydro Offset 
 IFIN.deg                75.06:  Inc, Final 
 IMAX.deg                75.38:  Inc Max 
 IMIN.deg                74.69:  Inc Min 
 IMND.m                5027.38:  Inc Min Depth 
 IMXD.m                4771.61:  Inc Max Depth 
 JARR.                      No:  Jarring 
 LETM.      07.45.00 17-May-20:  Log End Time 
 LOST.hr                     0:  Lost Rig Time 
 LSTM.      22.50.00 15-May-20:  Log Start Time 
 MDCL.ppm             42000.00:  Mud Chlorides 
 MDES.     Inversion Oil/Synthetic:  Mud Desc 
 DFD .sg                  1.34:  Mud Density 
 MDMN.sg                  1.34:  Dens Mud Min 
 MDMX.sg                  1.34:  Dens Mud Max 
 MOIL.                       0:  Run Mud Oil % 
 MOWR.                   67:33:  Run Mud OWR 
 MSND.                       0:  Run Mud Sand % 
 MSOL.                     1.8:  Run Mud Solids% 
 DFV .spqt               76.00:  Mud Viscosity 
 MWOD.in                  6.75:  MWD Tool OD 
 MWSI.                      No:  Serv Intrp, MWD 
 OTIM.hr                228.19:  Time Operating 
 PCON.           Look Like New:  Pad Condition 
 PMAX.psia             6164.70:  Press Op, Max 
 PV  .cP                 28.00:  Mud PV 
 RUN .                     900:  Run Number 
 ROPA.m/hr               19.00:  ROP Avg 
 ROPN.m/hr               11.00:  ROP Min 
 ROPX.m/hr               36.00:  ROP Max 
 RPMA.rpm               120.00:  RPM Surface Avg 
 RPMN.rpm               120.00:  RPM Surface Min 
 RPMX.rpm               120.00:  RPM Surface Max 
 RRUN.                    L604:  Rig Run Number 
 RTIM.hr                  7.00:  Time Reaming 
 SAZI.deg               109.27:  Azm, Start 
 SDEP.m                4761.01:  Start Depth 
 SIDD.                      No:  Serv Intrp, DD 
 SINC.deg                75.38:  Inc, Start 
 SPPA.psig             3574.00:  SPP Avg 
 SPPN.psig             3475.00:  SPP Min 
 SPPX.psig             3791.00:  SPP Max 
 STIM.      07.08.48 13-May-20:  Start Time 
 SVCS.                 DD, MWD:  Services 
 SVER.                    9.20:  Sperry Version 
 TDAT.m                 363.00:  Tot Depth Attmp 
 TDDF.                      No:  Trip for DD 
 TDLG.m                 363.00:  Tot Depth Loggd 
 TFF .                      No:  Trip for Fail 
 TQAA.f-kp               20.00:  Torque Abs Avg 
 TQAN.f-kp               18.00:  Torque Abs Min 
 TQAX.f-kp               22.00:  Torque Abs Max 
 TRRT.°/30m              -0.35:  Turn Rotating 
 MRT .                    HCIM:  Maximum Recorded Temperature 
 TTMX.degC               92.16:  Max Tool Temp 
 VS01.                90586518:  Virtual Str1 SN 
 VS02.        AZ90560654Z1W1C6:  Virtual Str2 SN 
 VS03.           AZ90610398F11:  Virtual Str3 SN 
 VS04.                90514975:  Virtual Str4 SN 
 VS05.                90514972:  Virtual Str5 SN 
 VS06.     AZ90603282F11V7D1A6:  Virtual Str6 SN 
 WBMN.klb                 7.00:  WOB Min 
 WOBA.klb                12.00:  WOB Avg 
 WOBX.klb                14.00:  WOB Max 
 YP  .lhf2               32.00:  Yield Point 
~Curve Information Block
#MNEM.UNIT                 API CODE     Curve Description
#---------               -----------    ---------------------------
 TIME.HHMMSS            00 000 000 000:  GT Time & Date
 GTDEPTH.m              00 000 000 000:  GT Depth
 GTPQH.psia             00 000 000 000:  GT HR Quartz Pressure
 GTTQ.degC              00 000 000 000:  GT Quartz Temperature
 GTTN.NONE              00 000 000 000:  GT Test Number
 GTET.sec               00 000 000 000:  GT Elapsed Test Time
 GTTVD.m                00 000 000 000:  GT True Vertical Depth
#Other Information
#
#WARRANTY: Halliburton will use its best efforts to furnish customers with 
#accurate information and interpretations that are part of, and incident to, the services 
#provided.  However, Halliburton cannot and does not warrant the accuracy 
#or correctness of such information and interpretations.  Under no circumstances should any 
#such information or interpretation be relied upon as the sole basis for any drilling, 
#completion, production, or financial decision or any procedure involving any risk to the 
#safety of any drilling venture, drilling rig or its crew or any other third party.  The 
#Customer has full responsibility for all drilling, completion and production operation.  
#Halliburton makes no representations or warranties, either expressed or 
#implied, including, but not limited to, the implied warranties of merchantability or fitness 
#for a particular purpose, with respect to the services rendered.  In no event will 
#Halliburton be liable for failure to obtain any particular results or for 
#any damages, including, but not limited to, indirect, special or consequential damages, 
#resulting from the use of any information or interpretation provided by Halliburton.
#
~A           TIME           GTDEPTH  GTPQH  GTTQ  GTTN  GTET   GTTVD  
# ...
   21:13:49.161.17-May-2020 4958.01 2914.12 68.08 6.00 160.99 2581.85
   21:13:49.361.17-May-2020 4958.01 2914.12 68.08 6.00 161.19 2581.85
   21:13:49.561.17-May-2020 4958.01 2914.13 68.08 6.00 161.39 2581.85
   21:13:49.761.17-May-2020 4958.01 2914.26 68.08 6.00 161.59 2581.85
   21:13:49.961.17-May-2020 4958.01 2913.85 68.08 6.00 161.79 2581.85
   21:13:50.161.17-May-2020 4958.01 2914.29 68.08 6.00 161.99 2581.85
   21:13:50.361.17-May-2020 4958.01 2914.29 68.08 6.00 162.19 2581.85
   21:13:50.561.17-May-2020 4958.01 2914.08 68.08 6.00 162.39 2581.85
   21:13:50.761.17-May-2020 4958.01 2914.11 68.08 6.00 162.59 2581.85
   21:13:50.961.17-May-2020 4958.01 2914.19 68.08 6.00 162.79 2581.85
   21:13:51.161.17-May-2020 4958.01 2914.17 68.08 6.00 162.99 2581.85
   21:13:51.361.17-May-2020 4958.01 2914.17 68.08 6.00 163.19 2581.85
   21:13:51.561.17-May-2020 4958.01 2922.21 68.08 6.00 163.39 2581.85
   21:13:51.761.17-May-2020 4958.01 2923.36 68.08 6.00 163.59 2581.85
   21:13:51.961.17-May-2020 4958.01 2923.56 68.08 6.00 163.79 2581.85
   21:13:52.161.17-May-2020 4958.01 2923.72 68.08 6.00 163.99 2581.85
   21:13:52.361.17-May-2020 4958.01 2923.72 68.08 6.00 164.19 2581.85
   21:13:52.561.17-May-2020 4958.01 2923.81 68.08 6.00 164.39 2581.85
   21:13:52.761.17-May-2020 4958.01 2923.64 68.08 6.00 164.59 2581.85
   21:13:52.961.17-May-2020 4958.01 2923.78 68.07 6.00 164.79 2581.85
   21:13:53.161.17-May-2020 4958.01 2923.76 68.07 6.00 164.99 2581.85
   21:13:53.361.17-May-2020 4958.01 2923.76 68.07 6.00 165.19 2581.85
   21:13:53.561.17-May-2020 4958.01 2923.81 68.07 6.00 165.39 2581.85
   21:13:53.761.17-May-2020 4958.01 2923.85 68.07 6.00 165.59 2581.85
   21:13:53.961.17-May-2020 4958.01 2923.82 68.07 6.00 165.79 2581.85
   21:13:54.161.17-May-2020 4958.01 2923.78 68.07 6.00 165.99 2581.85
   21:13:54.361.17-May-2020 4958.01 2923.78 68.07 6.00 166.19 2581.85
   21:13:54.561.17-May-2020 4958.01 2923.87 68.07 6.00 166.39 2581.85
   21:13:54.761.17-May-2020 4958.01 2923.79 68.07 6.00 166.59 2581.85
   21:13:54.961.17-May-2020 4958.01 2923.84 68.07 6.00 166.79 2581.85
   21:13:55.161.17-May-2020 4958.01 2923.84 68.07 6.00 166.99 2581.85
   21:13:55.361.17-May-2020 4958.01 2923.84 68.07 6.00 167.19 2581.85
   21:13:55.561.17-May-2020 4958.01 2923.84 68.07 6.00 167.39 2581.85
   21:13:55.761.17-May-2020 4958.01 2923.85 68.07 6.00 167.59 2581.85
   21:13:55.961.17-May-2020 4958.01 2923.86 68.07 6.00 167.79 2581.85
   21:13:56.161.17-May-2020 4958.01 2923.98 68.07 6.00 167.99 2581.85
   21:13:56.361.17-May-2020 4958.01 2923.98 68.07 6.00 168.19 2581.85
   21:13:56.561.17-May-2020 4958.01 2923.90 68.07 6.00 168.39 2581.85
   21:13:56.761.17-May-2020 4958.01 2923.87 68.07 6.00 168.59 2581.85
   21:13:56.961.17-May-2020 4958.01 2923.85 68.07 6.00 168.79 2581.85
   21:13:57.161.17-May-2020 4958.01 2923.87 68.07 6.00 168.99 2581.85
   21:13:57.361.17-May-2020 4958.01 2923.87 68.07 6.00 169.19 2581.85
   21:13:57.561.17-May-2020 4958.01 2923.89 68.07 6.00 169.39 2581.85
   21:13:57.761.17-May-2020 4958.01 2923.87 68.07 6.00 169.59 2581.85
   21:13:57.961.17-May-2020 4958.01 2923.88 68.07 6.00 169.79 2581.85
   21:13:58.161.17-May-2020 4958.01 2923.86 68.07 6.00 169.99 2581.85
   21:13:58.361.17-May-2020 4958.01 2923.86 68.07 6.00 170.19 2581.85
   21:13:58.561.17-May-2020 4958.01 2923.93 68.07 6.00 170.39 2581.85
   21:13:58.761.17-May-2020 4958.01 2923.93 68.07 6.00 170.59 2581.85
   21:13:58.961.17-May-2020 4958.01 2923.91 68.07 6.00 170.79 2581.85
   21:13:59.161.17-May-2020 4958.01 2923.87 68.07 6.00 170.99 2581.85
   21:13:59.361.17-May-2020 4958.01 2923.87 68.07 6.00 171.19 2581.85
   21:13:59.561.17-May-2020 4958.01 2923.89 68.07 6.00 171.39 2581.85
   21:13:59.761.17-May-2020 4958.01 2923.87 68.07 6.00 171.59 2581.85
   21:13:59.961.17-May-2020 4958.01 2923.88 68.07 6.00 171.79 2581.85
   21:14:00.161.17-May-2020 4958.01 2923.94 68.07 6.00 171.99 2581.85
   21:14:00.361.17-May-2020 4958.01 2923.94 68.07 6.00 172.19 2581.85
   21:14:00.560.17-May-2020 4958.01 2923.87 68.07 6.00 172.39 2581.85
   21:14:00.760.17-May-2020 4958.01 2923.93 68.07 6.00 172.59 2581.85
   21:14:00.960.17-May-2020 4958.01 2923.90 68.07 6.00 172.79 2581.85
   21:14:01.160.17-May-2020 4958.01 2923.91 68.07 6.00 172.99 2581.85
   21:14:01.360.17-May-2020 4958.01 2923.91 68.07 6.00 173.19 2581.85
   21:14:01.560.17-May-2020 4958.01 2923.90 68.07 6.00 173.39 2581.85
   21:14:01.760.17-May-2020 4958.01 2923.90 68.07 6.00 173.59 2581.85
   21:14:01.960.17-May-2020 4958.01 2923.90 68.07 6.00 173.79 2581.85
   21:14:02.160.17-May-2020 4958.01 2923.91 68.07 6.00 173.99 2581.85
   21:14:02.360.17-May-2020 4958.01 2923.91 68.07 6.00 174.19 2581.85
   21:14:02.560.17-May-2020 4958.01 2923.91 68.07 6.00 174.39 2581.85
   21:14:02.760.17-May-2020 4958.01 2923.99 68.07 6.00 174.59 2581.85
   21:14:02.960.17-May-2020 4958.01 2923.84 68.07 6.00 174.79 2581.85
   21:14:03.160.17-May-2020 4958.01 2923.91 68.07 6.00 174.99 2581.85
   21:14:03.360.17-May-2020 4958.01 2923.90 68.07 6.00 175.19 2581.85
   21:14:03.560.17-May-2020 4958.01 2923.91 68.07 6.00 175.39 2581.85
   21:14:03.760.17-May-2020 4958.01 2923.90 68.07 6.00 175.59 2581.85
   21:14:03.960.17-May-2020 4958.01 2923.90 68.07 6.00 175.79 2581.85
   21:14:04.160.17-May-2020 4958.01 2923.91 68.07 6.00 175.99 2581.85
   21:14:04.360.17-May-2020 4958.01 2923.91 68.07 6.00 176.19 2581.85
   21:14:04.560.17-May-2020 4958.01 2923.91 68.07 6.00 176.39 2581.85
   21:14:04.760.17-May-2020 4958.01 2923.94 68.07 6.00 176.59 2581.85
   21:14:04.960.17-May-2020 4958.01 2923.94 68.07 6.00 176.79 2581.85
   21:14:05.160.17-May-2020 4958.01 2923.91 68.07 6.00 176.99 2581.85
   21:14:05.360.17-May-2020 4958.01 2923.91 68.07 6.00 177.19 2581.85
   21:14:05.560.17-May-2020 4958.01 2923.88 68.07 6.00 177.39 2581.85
   21:14:05.760.17-May-2020 4958.01 2923.93 68.07 6.00 177.59 2581.85
   21:14:05.960.17-May-2020 4958.01 2923.94 68.07 6.00 177.79 2581.85
   21:14:06.160.17-May-2020 4958.01 2923.94 68.07 6.00 177.99 2581.85
   21:14:06.360.17-May-2020 4958.01 2923.94 68.07 6.00 178.19 2581.85
   21:14:06.560.17-May-2020 4958.01 2924.00 68.07 6.00 178.39 2581.85
   21:14:06.760.17-May-2020 4958.01 2923.84 68.07 6.00 178.59 2581.85
   21:14:06.960.17-May-2020 4958.01 2923.95 68.07 6.00 178.79 2581.85
   21:14:07.160.17-May-2020 4958.01 2923.89 68.07 6.00 178.99 2581.85
   21:14:07.360.17-May-2020 4958.01 2923.93 68.07 6.00 179.19 2581.85
   21:14:07.560.17-May-2020 4958.01 2923.88 68.07 6.00 179.39 2581.85
   21:14:07.760.17-May-2020 4958.01 2923.96 68.07 6.00 179.59 2581.85
   21:14:07.960.17-May-2020 4958.01 2923.95 68.07 6.00 179.79 2581.85
   21:14:08.160.17-May-2020 4958.01 2923.88 68.07 6.00 179.99 2581.85
   21:14:08.360.17-May-2020 4958.01 2923.88 68.07 6.00 180.19 2581.85
   21:14:08.560.17-May-2020 4958.01 2923.92 68.07 6.00 180.39 2581.85
   21:14:08.760.17-May-2020 4958.01 2923.91 68.07 6.00 180.59 2581.85
   21:14:08.960.17-May-2020 4958.01 2923.92 68.07 6.00 180.79 2581.85
   21:14:09.160.17-May-2020 4958.01 2923.92 68.07 6.00 180.99 2581.85
   21:14:09.360.17-May-2020 4958.01 2923.92 68.07 6.00 181.19 2581.85
   21:14:09.560.17-May-2020 4958.01 2923.99 68.07 6.00 181.39 2581.85
   21:14:09.760.17-May-2020 4958.01 2923.85 68.07 6.00 181.59 2581.85
   21:14:09.960.17-May-2020 4958.01 2923.94 68.07 6.00 181.79 2581.85
   21:14:10.160.17-May-2020 4958.01 2923.92 68.07 6.00 181.99 2581.85
   21:14:10.360.17-May-2020 4958.01 2923.92 68.07 6.00 182.19 2581.85
   21:14:10.560.17-May-2020 4958.01 2923.92 68.07 6.00 182.39 2581.85
   21:14:10.760.17-May-2020 4958.01 2923.91 68.07 6.00 182.59 2581.85
   21:14:10.960.17-May-2020 4958.01 2923.92 68.07 6.00 182.79 2581.85
   21:14:11.160.17-May-2020 4958.01 2923.92 68.07 6.00 182.99 2581.85
   21:14:11.360.17-May-2020 4958.01 2923.92 68.07 6.00 183.19 2581.85
   21:14:11.560.17-May-2020 4958.01 2923.93 68.07 6.00 183.39 2581.85
   21:14:11.760.17-May-2020 4958.01 2923.89 68.07 6.00 183.59 2581.85
   21:14:11.960.17-May-2020 4958.01 2923.98 68.07 6.00 183.79 2581.85
