~Version Information
 VERS.                  2.0:   CWLS log ASCII Standard -VERSION 2.0
 WRAP.                   NO:   One line per depth step
~Well Information Block
#MNEM.UNIT     VALUE/NAME     DESCRIPTION
#---------     -----------    ---------------------------
 STRT.S             22:49:31 17-May-20: START TIME 22:49:31 17-May-20
 STOP.S             22:56:24 17-May-20: STOP TIME  22:56:24 17-May-20
 STEP.S                   0.00: STEP TIME
 NULL.                 -999.25: NULL VALUE
 UNIT.                     N/A:  LOGGING EQUIPMENT ID
 DCON.         Sperry Drilling:  DIRECTNL CONTR
 DOE .                     N/A:  DOE NUMBER
 JOBN.        AZ-XX-0906252240:  JOB TICKET NUMB
 MWDS.                     N/A:  MWD SHOP
 PROV.                    Baku:  PROVINCE
 STAT.                    Baku:  STATE NAME
 REGN.                   EESSA:  REGION
 BASE.              Azerbaijan:  LOGGING EQUIPMENT BASE LOCATION
 UWI .                     N/A:  UNIQUE WELL IDENTIFIER
 API .                     N/A:  API NUMBER
 MDS .        Operator Entered:  MAG DATA SOURCE
 WTYP.                Deviated:  WELL TYPE
 COMP.     BP Exploration (Caspian Sea) Ltd.:  COMPANY
 SRVC.          Turan Drilling:  CONTRACTOR
 WELL.           J23 (Slot 07):  WELL NAME
 CTRY.              Azerbaijan:  COUNTRY NAME
 FLD .                     ACG:  FIELD NAME
 PDAT.          Mean Sea Level:  PERMANENT DATUM
 RIG .             West Chirag:  RIG NAME
 SON .        AZ-XX-0906252240:  JOB NUMBER
 FTOP.          Formation Tops:  FORM TOPS DESC
 ILTD.               Lithology:  INTERP LTH DESC
 SVYD.                  Survey:  SURVEY DESC
 DMOD.             Drill Model:  DRILL MOD DESC
 HPTY.       Minimum Curvature:  HOLE POS TYPE
 NREF.                    Grid:  NORTH REFERENCE
 SPUD.               27-Aug-20:  SPUD DATE
 DATE.      00.00.00 19-May-20:  END TIME
 STIM.      03.00.00 25-Mar-20:  START TIME
 DMF .             Drill Floor:  DRILL MEAS FROM
 DFST.                        :  DIST FSL TEXT
 DFWT.                        :  DIST FWL TEXT
 CNTY.                        :  COUNTY
 LOC .                        :  LOCATION
 LMF .             Drill Floor:  LOG MEASURED FROM
 VSNS.m                   9.43:  VERT SEC N/S
 VSEW.m                  -8.91:  VERT SEC E/W
 AGAP.m                  43.00:  AIR GAP
 DEP .m                 354.17:  DEPTH
 APD .m                  43.00:  DEPTH ABOVE PD
 WDMS.m                 169.80:  WD ELEV
 EGL .m                   0.00:  GROUND ELEVATION
 EPD .m                   0.00:  ELEVATION
 AZTC.deg                 6.31:  AZM TOTAL CORR
 GRDC.deg                 0.14:  GRID CORRECTION
 MDEC.deg                 6.45:  MAGNETIC DECL
 MDIP.deg                59.56:  MAGNETIC DIP
 MFLD.nT              50295.00:  MAGNETIC FIELD
 GVFD.g                   1.00:  GRAVITY FIELD
 VSDR.deg               179.88:  VERT SEC DIRECT
 TDD .m                5150.01:  TOTAL DEPTH (DRILLER)
 SDEP.m                 864.00:  START DEPTH
 DFSL.m                   0.00:  DISTANCE FSL
 DFWL.m                   0.00:  DISTANCE FWL
 UTMY.m             4443793.85:  UTM Y
 UTMX.m              519005.06:  UTM X
 WHEW.m                  -8.91:  WELL HEAD E/W
 WHNS.m                   9.43:  WELL HEAD N/S
 LONG.deg                51.22:  LONGITUDE
 LATI.deg                40.13:  LATITUDE
 TVDS.m                  43.00:  TVDSS CORRECTN
 EKB .m                   0.00:  KB ELEVATION
 EDF .m                  43.00:  DF ELEVATION
 TDL .m                 363.00:  TOTAL DEPTH (LOGGER)
 MAGU.                 1850802:  MAGUTM CHECKSUM
 VSC .                       0:  VS TO CLOSURE
~Parameter Information Block
#MNEM.UNIT       Value        Description
#---------     -----------    ---------------------------
 AV  .mps                 2.30:  Ann Velocity 
 AVMX.mps                 4.40:  Max Ann Veloc 
 AZIF.deg               110.24:  Azm, Final 
 BHAT.        Rotary Steerable:  BHA Type 
 BREV.rev               331.00:  Rev Bit Total 
 BROT.°/30m               0.00:  Build Rotating 
 BS  .in                  8.50:  Bit Size 
 BSZ .in                  8.50:  Bit Size 
 BTPL.psig              585.00:  Bit Press Loss 
 CABU.                     Yes:  Customer Abuse 
 COMM.                     ¼´€:  Run Comments 1 
 TCS .hr                122.75:  Time Ciculation Ended 
 CV  .mps                 2.67:  Crit Velocity 
 CVMX.mps                 3.56:  Max Crit Veloc 
 DD1 .          Rashad Habibov:  Direct Drillr 1 
 DD2 .         Rasim Ibrahimov:  Direct Drillr 2 
 DDSV.               Geo-Pilot:  DD Service 
 DEFF.%                  98.00:  % Det Eff 
 DLRX.°/30m               0.75:  Dogleg Rot Max 
 DLSO.°/30m               1.25:  Dogleg Oriented 
 DLSX.°/30m               2.06:  Dogleg Str Max 
 DRET.      07.45.00 17-May-20:  Drill End Time 
 DRST.      22.50.00 15-May-20:  Drill Start Tim 
 DTIM.hr                 20.75:  Time Drilling 
 EDEP.m                5124.01:  End Depth 
 ENG1.           Eldar Hajiyev:  Engineer 1 
 ENG2.        Marcelo Sandoval:  Engineer 2 
 ENG3.        Davud huseynzada:  Engineer 3 
 ENG4.          Ruslan Safarov:  Engineer 4 
 ETIM.      04.33.00 23-May-20:  End Time 
 FLOI.gpm               450.00:  Flow In 
 FLON.gpm               400.00:  Flow In Min 
 FLOS.cptm                0.00:  Fluid Loss 
 FLOX.gpm               500.00:  Flow In Max 
 FTRO.       Formation Presure:  FTWD Run Obj 
 HFLO.                      No:  High Flow 
 HPRE.                     Yes:  High Pressure 
 HTEM.                      No:  High Temp 
 HYDO.m                   1.80:  Hydro Offset 
 IFIN.deg                75.06:  Inc, Final 
 IMAX.deg                75.38:  Inc Max 
 IMIN.deg                74.69:  Inc Min 
 IMND.m                5027.38:  Inc Min Depth 
 IMXD.m                4771.61:  Inc Max Depth 
 JARR.                      No:  Jarring 
 LETM.      07.45.00 17-May-20:  Log End Time 
 LOST.hr                     0:  Lost Rig Time 
 LSTM.      22.50.00 15-May-20:  Log Start Time 
 MDCL.ppm             42000.00:  Mud Chlorides 
 MDES.     Inversion Oil/Synthetic:  Mud Desc 
 DFD .sg                  1.34:  Mud Density 
 MDMN.sg                  1.34:  Dens Mud Min 
 MDMX.sg                  1.34:  Dens Mud Max 
 MOIL.                       0:  Run Mud Oil % 
 MOWR.                   67:33:  Run Mud OWR 
 MSND.                       0:  Run Mud Sand % 
 MSOL.                     1.8:  Run Mud Solids% 
 DFV .spqt               76.00:  Mud Viscosity 
 MWOD.in                  6.75:  MWD Tool OD 
 MWSI.                      No:  Serv Intrp, MWD 
 OTIM.hr                228.19:  Time Operating 
 PCON.           Look Like New:  Pad Condition 
 PMAX.psia             6164.70:  Press Op, Max 
 PV  .cP                 28.00:  Mud PV 
 RUN .                     900:  Run Number 
 ROPA.m/hr               19.00:  ROP Avg 
 ROPN.m/hr               11.00:  ROP Min 
 ROPX.m/hr               36.00:  ROP Max 
 RPMA.rpm               120.00:  RPM Surface Avg 
 RPMN.rpm               120.00:  RPM Surface Min 
 RPMX.rpm               120.00:  RPM Surface Max 
 RRUN.                    L604:  Rig Run Number 
 RTIM.hr                  7.00:  Time Reaming 
 SAZI.deg               109.27:  Azm, Start 
 SDEP.m                4761.01:  Start Depth 
 SIDD.                      No:  Serv Intrp, DD 
 SINC.deg                75.38:  Inc, Start 
 SPPA.psig             3574.00:  SPP Avg 
 SPPN.psig             3475.00:  SPP Min 
 SPPX.psig             3791.00:  SPP Max 
 STIM.      07.08.48 13-May-20:  Start Time 
 SVCS.                 DD, MWD:  Services 
 SVER.                    9.20:  Sperry Version 
 TDAT.m                 363.00:  Tot Depth Attmp 
 TDDF.                      No:  Trip for DD 
 TDLG.m                 363.00:  Tot Depth Loggd 
 TFF .                      No:  Trip for Fail 
 TQAA.f-kp               20.00:  Torque Abs Avg 
 TQAN.f-kp               18.00:  Torque Abs Min 
 TQAX.f-kp               22.00:  Torque Abs Max 
 TRRT.°/30m              -0.35:  Turn Rotating 
 MRT .                    HCIM:  Maximum Recorded Temperature 
 TTMX.degC               92.16:  Max Tool Temp 
 VS01.                90586518:  Virtual Str1 SN 
 VS02.        AZ90560654Z1W1C6:  Virtual Str2 SN 
 VS03.           AZ90610398F11:  Virtual Str3 SN 
 VS04.                90514975:  Virtual Str4 SN 
 VS05.                90514972:  Virtual Str5 SN 
 VS06.     AZ90603282F11V7D1A6:  Virtual Str6 SN 
 WBMN.klb                 7.00:  WOB Min 
 WOBA.klb                12.00:  WOB Avg 
 WOBX.klb                14.00:  WOB Max 
 YP  .lhf2               32.00:  Yield Point 
~Curve Information Block
#MNEM.UNIT                 API CODE     Curve Description
#---------               -----------    ---------------------------
 TIME.HHMMSS            00 000 000 000:  GT Time & Date
 GTDEPTH.m              00 000 000 000:  GT Depth
 GTPQH.psia             00 000 000 000:  GT HR Quartz Pressure
 GTTQ.degC              00 000 000 000:  GT Quartz Temperature
 GTTN.NONE              00 000 000 000:  GT Test Number
 GTET.sec               00 000 000 000:  GT Elapsed Test Time
 GTTVD.m                00 000 000 000:  GT True Vertical Depth
#Other Information
#
#WARRANTY: Halliburton will use its best efforts to furnish customers with 
#accurate information and interpretations that are part of, and incident to, the services 
#provided.  However, Halliburton cannot and does not warrant the accuracy 
#or correctness of such information and interpretations.  Under no circumstances should any 
#such information or interpretation be relied upon as the sole basis for any drilling, 
#completion, production, or financial decision or any procedure involving any risk to the 
#safety of any drilling venture, drilling rig or its crew or any other third party.  The 
#Customer has full responsibility for all drilling, completion and production operation.  
#Halliburton makes no representations or warranties, either expressed or 
#implied, including, but not limited to, the implied warranties of merchantability or fitness 
#for a particular purpose, with respect to the services rendered.  In no event will 
#Halliburton be liable for failure to obtain any particular results or for 
#any damages, including, but not limited to, indirect, special or consequential damages, 
#resulting from the use of any information or interpretation provided by Halliburton.
#
~A           TIME           GTDEPTH  GTPQH  GTTQ  GTTN  GTET   GTTVD  
# ...
   22:52:12.444.17-May-2020 4908.51   49.67 67.18 8.00 160.92 2569.17
   22:52:12.644.17-May-2020 4908.51   49.82 67.18 8.00 161.12 2569.17
   22:52:12.844.17-May-2020 4908.51   49.98 67.18 8.00 161.32 2569.17
   22:52:13.044.17-May-2020 4908.51   50.14 67.18 8.00 161.52 2569.17
   22:52:13.244.17-May-2020 4908.51   50.31 67.18 8.00 161.72 2569.17
   22:52:13.444.17-May-2020 4908.51   50.47 67.18 8.00 161.92 2569.17
   22:52:13.643.17-May-2020 4908.51   50.47 67.18 8.00 162.12 2569.17
   22:52:13.843.17-May-2020 4908.51   50.80 67.18 8.00 162.32 2569.17
   22:52:14.043.17-May-2020 4908.51   50.95 67.18 8.00 162.52 2569.17
   22:52:14.243.17-May-2020 4908.51   51.17 67.18 8.00 162.72 2569.17
   22:52:14.443.17-May-2020 4908.51   51.31 67.18 8.00 162.92 2569.17
   22:52:14.643.17-May-2020 4908.51   51.31 67.18 8.00 163.12 2569.17
   22:52:14.843.17-May-2020 4908.51   51.59 67.18 8.00 163.32 2569.17
   22:52:15.043.17-May-2020 4908.51   51.75 67.18 8.00 163.52 2569.17
   22:52:15.243.17-May-2020 4908.51   51.91 67.18 8.00 163.72 2569.17
   22:52:15.442.17-May-2020 4908.51   52.06 67.18 8.00 163.92 2569.17
   22:52:15.642.17-May-2020 4908.51   52.23 67.18 8.00 164.12 2569.17
   22:52:15.842.17-May-2020 4908.51   52.38 67.18 8.00 164.32 2569.17
   22:52:16.042.17-May-2020 4908.51   52.54 67.18 8.00 164.52 2569.17
   22:52:16.242.17-May-2020 4908.51   52.74 67.18 8.00 164.72 2569.17
   22:52:16.442.17-May-2020 4908.51   52.89 67.18 8.00 164.92 2569.17
   22:52:16.642.17-May-2020 4908.51   53.02 67.18 8.00 165.12 2569.17
   22:52:16.842.17-May-2020 4908.51   53.17 67.18 8.00 165.32 2569.17
   22:52:17.042.17-May-2020 4908.51   53.37 67.18 8.00 165.52 2569.17
   22:52:17.242.17-May-2020 4908.51   53.52 67.18 8.00 165.71 2569.17
   22:52:17.441.17-May-2020 4908.51   53.65 67.18 8.00 165.91 2569.17
   22:52:17.641.17-May-2020 4908.51   53.65 67.18 8.00 166.11 2569.17
   22:52:17.841.17-May-2020 4908.51   54.00 67.18 8.00 166.31 2569.17
   22:52:18.041.17-May-2020 4908.51   54.11 67.18 8.00 166.51 2569.17
   22:52:18.241.17-May-2020 4908.51   54.25 67.18 8.00 166.71 2569.17
   22:52:18.441.17-May-2020 4908.51   54.46 67.18 8.00 166.91 2569.17
   22:52:18.641.17-May-2020 4908.51   54.46 67.18 8.00 167.11 2569.17
   22:52:18.841.17-May-2020 4908.51   54.72 67.18 8.00 167.31 2569.17
   22:52:19.041.17-May-2020 4908.51   54.87 67.18 8.00 167.51 2569.17
   22:52:19.241.17-May-2020 4908.51   55.02 67.18 8.00 167.71 2569.17
   22:52:19.440.17-May-2020 4908.51   55.17 67.18 8.00 167.91 2569.17
   22:52:19.640.17-May-2020 4908.51   55.32 67.18 8.00 168.11 2569.17
   22:52:19.840.17-May-2020 4908.51   55.48 67.18 8.00 168.31 2569.17
   22:52:20.040.17-May-2020 4908.51   55.63 67.18 8.00 168.51 2569.17
   22:52:20.240.17-May-2020 4908.51   55.79 67.18 8.00 168.71 2569.17
   22:52:20.440.17-May-2020 4908.51   55.99 67.18 8.00 168.91 2569.17
   22:52:20.640.17-May-2020 4908.51   56.13 67.18 8.00 169.11 2569.17
   22:52:20.840.17-May-2020 4908.51   56.26 67.18 8.00 169.31 2569.17
   22:52:21.040.17-May-2020 4908.51   56.40 67.18 8.00 169.51 2569.17
   22:52:21.240.17-May-2020 4908.51   56.55 67.18 8.00 169.71 2569.17
   22:52:21.439.17-May-2020 4908.51   56.71 67.18 8.00 169.91 2569.17
   22:52:21.639.17-May-2020 4908.51   56.71 67.18 8.00 170.11 2569.17
   22:52:21.839.17-May-2020 4908.51   57.01 67.18 8.00 170.31 2569.17
   22:52:22.039.17-May-2020 4908.51   57.16 67.18 8.00 170.51 2569.17
   22:52:22.239.17-May-2020 4908.51   57.32 67.18 8.00 170.71 2569.17
   22:52:22.439.17-May-2020 4908.51   57.51 67.18 8.00 170.91 2569.17
   22:52:22.639.17-May-2020 4908.51   57.51 67.18 8.00 171.11 2569.17
   22:52:22.839.17-May-2020 4908.51   57.79 67.18 8.00 171.31 2569.17
   22:52:23.039.17-May-2020 4908.51   57.93 67.18 8.00 171.51 2569.17
   22:52:23.238.17-May-2020 4908.51   58.14 67.18 8.00 171.71 2569.17
   22:52:23.438.17-May-2020 4908.51   58.26 67.18 8.00 171.91 2569.17
   22:52:23.638.17-May-2020 4908.51   58.39 67.18 8.00 172.11 2569.17
   22:52:23.838.17-May-2020 4908.51   58.56 67.18 8.00 172.31 2569.17
   22:52:24.038.17-May-2020 4908.51   58.76 67.18 8.00 172.51 2569.17
   22:52:24.238.17-May-2020 4908.51   58.87 67.18 8.00 172.71 2569.17
   22:52:24.438.17-May-2020 4908.51   59.01 67.18 8.00 172.91 2569.17
   22:52:24.638.17-May-2020 4908.51   59.18 67.18 8.00 173.11 2569.17
   22:52:24.838.17-May-2020 4908.51   59.35 67.18 8.00 173.31 2569.17
   22:52:25.038.17-May-2020 4908.51   59.47 67.18 8.00 173.51 2569.17
   22:52:25.237.17-May-2020 4908.51   59.62 67.18 8.00 173.71 2569.17
   22:52:25.437.17-May-2020 4908.51   59.77 67.18 8.00 173.91 2569.17
   22:52:25.637.17-May-2020 4908.51   59.77 67.18 8.00 174.11 2569.17
   22:52:25.837.17-May-2020 4908.51   60.08 67.18 8.00 174.31 2569.17
   22:52:26.037.17-May-2020 4908.51   60.23 67.18 8.00 174.51 2569.17
   22:52:26.237.17-May-2020 4908.51   60.39 67.18 8.00 174.71 2569.17
   22:52:26.437.17-May-2020 4908.51   60.55 67.18 8.00 174.91 2569.17
   22:52:26.637.17-May-2020 4908.51   60.55 67.18 8.00 175.11 2569.17
   22:52:26.837.17-May-2020 4908.51   60.93 67.18 8.00 175.31 2569.17
   22:52:27.037.17-May-2020 4908.51   61.04 67.18 8.00 175.51 2569.17
   22:52:27.236.17-May-2020 4908.51   61.17 67.18 8.00 175.71 2569.17
   22:52:27.436.17-May-2020 4908.51   61.33 67.18 8.00 175.91 2569.17
   22:52:27.636.17-May-2020 4908.51   61.49 67.18 8.00 176.11 2569.17
   22:52:27.836.17-May-2020 4908.51   61.64 67.18 8.00 176.31 2569.17
   22:52:28.036.17-May-2020 4908.51   61.80 67.18 8.00 176.51 2569.17
   22:52:28.236.17-May-2020 4908.51   61.95 67.18 8.00 176.71 2569.17
   22:52:28.436.17-May-2020 4908.51   62.11 67.18 8.00 176.91 2569.17
   22:52:28.636.17-May-2020 4908.51   62.27 67.18 8.00 177.11 2569.17
   22:52:28.836.17-May-2020 4908.51   62.49 67.18 8.00 177.31 2569.17
   22:52:29.036.17-May-2020 4908.51   62.60 67.18 8.00 177.51 2569.17
   22:52:29.235.17-May-2020 4908.51   62.74 67.18 8.00 177.71 2569.17
   22:52:29.435.17-May-2020 4908.51   62.90 67.18 8.00 177.91 2569.17
   22:52:29.635.17-May-2020 4908.51   62.90 67.18 8.00 178.11 2569.17
   22:52:29.835.17-May-2020 4908.51   63.23 67.18 8.00 178.31 2569.17
   22:52:30.035.17-May-2020 4908.51   63.37 67.18 8.00 178.51 2569.17
   22:52:30.235.17-May-2020 4908.51   63.57 67.18 8.00 178.71 2569.17
   22:52:30.435.17-May-2020 4908.51   63.72 67.18 8.00 178.91 2569.17
   22:52:30.635.17-May-2020 4908.51   63.72 67.18 8.00 179.11 2569.17
   22:52:30.835.17-May-2020 4908.51   64.01 67.18 8.00 179.31 2569.17
   22:52:31.034.17-May-2020 4908.51   64.19 67.18 8.00 179.51 2569.17
   22:52:31.234.17-May-2020 4908.51   64.38 67.18 8.00 179.71 2569.17
   22:52:31.434.17-May-2020 4908.51   64.49 67.18 8.00 179.91 2569.17
   22:52:31.634.17-May-2020 4908.51   64.64 67.18 8.00 180.11 2569.17
   22:52:31.834.17-May-2020 4908.51   64.80 67.18 8.00 180.31 2569.17
   22:52:32.034.17-May-2020 4908.51   64.96 67.18 8.00 180.51 2569.17
   22:52:32.234.17-May-2020 4908.51   65.12 67.18 8.00 180.71 2569.17
   22:52:32.434.17-May-2020 4908.51   65.29 67.18 8.00 180.91 2569.17
   22:52:32.634.17-May-2020 4908.51   65.45 67.18 8.00 181.11 2569.17
   22:52:32.834.17-May-2020 4908.51   65.61 67.18 8.00 181.31 2569.17
   22:52:33.033.17-May-2020 4908.51   65.78 67.18 8.00 181.51 2569.17
   22:52:33.233.17-May-2020 4908.51   66.00 67.18 8.00 181.71 2569.17
   22:52:33.433.17-May-2020 4908.51   66.12 67.18 8.00 181.91 2569.17
   22:52:33.633.17-May-2020 4908.51   66.12 67.18 8.00 182.11 2569.17
   22:52:33.833.17-May-2020 4908.51   66.43 67.18 8.00 182.31 2569.17
   22:52:34.033.17-May-2020 4908.51   66.59 67.18 8.00 182.51 2569.17
   22:52:34.233.17-May-2020 4908.51   66.76 67.18 8.00 182.71 2569.17
   22:52:34.433.17-May-2020 4908.51   66.93 67.18 8.00 182.91 2569.17
   22:52:34.633.17-May-2020 4908.51   66.93 67.18 8.00 183.11 2569.17
   22:52:34.833.17-May-2020 4908.51   67.25 67.18 8.00 183.31 2569.17
   22:52:35.032.17-May-2020 4908.51   67.42 67.18 8.00 183.51 2569.17
   22:52:35.232.17-May-2020 4908.51   67.66 67.18 8.00 183.71 2569.17
