~Version Information
 VERS.                  2.0:   CWLS log ASCII Standard -VERSION 2.0
 WRAP.                   NO:   One line per depth step
~Well Information Block
#MNEM.UNIT     VALUE/NAME     DESCRIPTION
#---------     -----------    ---------------------------
 STRT.S             02:13:59 18-May-20: START TIME 02:13:59 18-May-20
 STOP.S             02:21:38 18-May-20: STOP TIME  02:21:38 18-May-20
 STEP.S                   0.00: STEP TIME
 NULL.                 -999.25: NULL VALUE
 UNIT.                     N/A:  LOGGING EQUIPMENT ID
 DCON.         Sperry Drilling:  DIRECTNL CONTR
 DOE .                     N/A:  DOE NUMBER
 JOBN.        AZ-XX-0906252240:  JOB TICKET NUMB
 MWDS.                     N/A:  MWD SHOP
 PROV.                    Baku:  PROVINCE
 STAT.                    Baku:  STATE NAME
 REGN.                   EESSA:  REGION
 BASE.              Azerbaijan:  LOGGING EQUIPMENT BASE LOCATION
 UWI .                     N/A:  UNIQUE WELL IDENTIFIER
 API .                     N/A:  API NUMBER
 MDS .        Operator Entered:  MAG DATA SOURCE
 WTYP.                Deviated:  WELL TYPE
 COMP.     BP Exploration (Caspian Sea) Ltd.:  COMPANY
 SRVC.          Turan Drilling:  CONTRACTOR
 WELL.           J23 (Slot 07):  WELL NAME
 CTRY.              Azerbaijan:  COUNTRY NAME
 FLD .                     ACG:  FIELD NAME
 PDAT.          Mean Sea Level:  PERMANENT DATUM
 RIG .             West Chirag:  RIG NAME
 SON .        AZ-XX-0906252240:  JOB NUMBER
 FTOP.          Formation Tops:  FORM TOPS DESC
 ILTD.               Lithology:  INTERP LTH DESC
 SVYD.                  Survey:  SURVEY DESC
 DMOD.             Drill Model:  DRILL MOD DESC
 HPTY.       Minimum Curvature:  HOLE POS TYPE
 NREF.                    Grid:  NORTH REFERENCE
 SPUD.               27-Aug-20:  SPUD DATE
 DATE.      00.00.00 19-May-20:  END TIME
 STIM.      03.00.00 25-Mar-20:  START TIME
 DMF .             Drill Floor:  DRILL MEAS FROM
 DFST.                        :  DIST FSL TEXT
 DFWT.                        :  DIST FWL TEXT
 CNTY.                        :  COUNTY
 LOC .                        :  LOCATION
 LMF .             Drill Floor:  LOG MEASURED FROM
 VSNS.m                   9.43:  VERT SEC N/S
 VSEW.m                  -8.91:  VERT SEC E/W
 AGAP.m                  43.00:  AIR GAP
 DEP .m                 354.17:  DEPTH
 APD .m                  43.00:  DEPTH ABOVE PD
 WDMS.m                 169.80:  WD ELEV
 EGL .m                   0.00:  GROUND ELEVATION
 EPD .m                   0.00:  ELEVATION
 AZTC.deg                 6.31:  AZM TOTAL CORR
 GRDC.deg                 0.14:  GRID CORRECTION
 MDEC.deg                 6.45:  MAGNETIC DECL
 MDIP.deg                59.56:  MAGNETIC DIP
 MFLD.nT              50295.00:  MAGNETIC FIELD
 GVFD.g                   1.00:  GRAVITY FIELD
 VSDR.deg               179.88:  VERT SEC DIRECT
 TDD .m                5150.01:  TOTAL DEPTH (DRILLER)
 SDEP.m                 864.00:  START DEPTH
 DFSL.m                   0.00:  DISTANCE FSL
 DFWL.m                   0.00:  DISTANCE FWL
 UTMY.m             4443793.85:  UTM Y
 UTMX.m              519005.06:  UTM X
 WHEW.m                  -8.91:  WELL HEAD E/W
 WHNS.m                   9.43:  WELL HEAD N/S
 LONG.deg                51.22:  LONGITUDE
 LATI.deg                40.13:  LATITUDE
 TVDS.m                  43.00:  TVDSS CORRECTN
 EKB .m                   0.00:  KB ELEVATION
 EDF .m                  43.00:  DF ELEVATION
 TDL .m                 363.00:  TOTAL DEPTH (LOGGER)
 MAGU.                 1850802:  MAGUTM CHECKSUM
 VSC .                       0:  VS TO CLOSURE
~Parameter Information Block
#MNEM.UNIT       Value        Description
#---------     -----------    ---------------------------
 AV  .mps                 2.30:  Ann Velocity 
 AVMX.mps                 4.40:  Max Ann Veloc 
 AZIF.deg               110.24:  Azm, Final 
 BHAT.        Rotary Steerable:  BHA Type 
 BREV.rev               331.00:  Rev Bit Total 
 BROT.°/30m               0.00:  Build Rotating 
 BS  .in                  8.50:  Bit Size 
 BSZ .in                  8.50:  Bit Size 
 BTPL.psig              585.00:  Bit Press Loss 
 CABU.                     Yes:  Customer Abuse 
 COMM.                     ü9U:  Run Comments 1 
 TCS .hr                122.75:  Time Ciculation Ended 
 CV  .mps                 2.67:  Crit Velocity 
 CVMX.mps                 3.56:  Max Crit Veloc 
 DD1 .          Rashad Habibov:  Direct Drillr 1 
 DD2 .         Rasim Ibrahimov:  Direct Drillr 2 
 DDSV.               Geo-Pilot:  DD Service 
 DEFF.%                  98.00:  % Det Eff 
 DLRX.°/30m               0.75:  Dogleg Rot Max 
 DLSO.°/30m               1.25:  Dogleg Oriented 
 DLSX.°/30m               2.06:  Dogleg Str Max 
 DRET.      07.45.00 17-May-20:  Drill End Time 
 DRST.      22.50.00 15-May-20:  Drill Start Tim 
 DTIM.hr                 20.75:  Time Drilling 
 EDEP.m                5124.01:  End Depth 
 ENG1.           Eldar Hajiyev:  Engineer 1 
 ENG2.        Marcelo Sandoval:  Engineer 2 
 ENG3.        Davud huseynzada:  Engineer 3 
 ENG4.          Ruslan Safarov:  Engineer 4 
 ETIM.      04.33.00 23-May-20:  End Time 
 FLOI.gpm               450.00:  Flow In 
 FLON.gpm               400.00:  Flow In Min 
 FLOS.cptm                0.00:  Fluid Loss 
 FLOX.gpm               500.00:  Flow In Max 
 FTRO.       Formation Presure:  FTWD Run Obj 
 HFLO.                      No:  High Flow 
 HPRE.                     Yes:  High Pressure 
 HTEM.                      No:  High Temp 
 HYDO.m                   1.80:  Hydro Offset 
 IFIN.deg                75.06:  Inc, Final 
 IMAX.deg                75.38:  Inc Max 
 IMIN.deg                74.69:  Inc Min 
 IMND.m                5027.38:  Inc Min Depth 
 IMXD.m                4771.61:  Inc Max Depth 
 JARR.                      No:  Jarring 
 LETM.      07.45.00 17-May-20:  Log End Time 
 LOST.hr                     0:  Lost Rig Time 
 LSTM.      22.50.00 15-May-20:  Log Start Time 
 MDCL.ppm             42000.00:  Mud Chlorides 
 MDES.     Inversion Oil/Synthetic:  Mud Desc 
 DFD .sg                  1.34:  Mud Density 
 MDMN.sg                  1.34:  Dens Mud Min 
 MDMX.sg                  1.34:  Dens Mud Max 
 MOIL.                       0:  Run Mud Oil % 
 MOWR.                   67:33:  Run Mud OWR 
 MSND.                       0:  Run Mud Sand % 
 MSOL.                     1.8:  Run Mud Solids% 
 DFV .spqt               76.00:  Mud Viscosity 
 MWOD.in                  6.75:  MWD Tool OD 
 MWSI.                      No:  Serv Intrp, MWD 
 OTIM.hr                228.19:  Time Operating 
 PCON.           Look Like New:  Pad Condition 
 PMAX.psia             6164.70:  Press Op, Max 
 PV  .cP                 28.00:  Mud PV 
 RUN .                     900:  Run Number 
 ROPA.m/hr               19.00:  ROP Avg 
 ROPN.m/hr               11.00:  ROP Min 
 ROPX.m/hr               36.00:  ROP Max 
 RPMA.rpm               120.00:  RPM Surface Avg 
 RPMN.rpm               120.00:  RPM Surface Min 
 RPMX.rpm               120.00:  RPM Surface Max 
 RRUN.                    L604:  Rig Run Number 
 RTIM.hr                  7.00:  Time Reaming 
 SAZI.deg               109.27:  Azm, Start 
 SDEP.m                4761.01:  Start Depth 
 SIDD.                      No:  Serv Intrp, DD 
 SINC.deg                75.38:  Inc, Start 
 SPPA.psig             3574.00:  SPP Avg 
 SPPN.psig             3475.00:  SPP Min 
 SPPX.psig             3791.00:  SPP Max 
 STIM.      07.08.48 13-May-20:  Start Time 
 SVCS.                 DD, MWD:  Services 
 SVER.                    9.20:  Sperry Version 
 TDAT.m                 363.00:  Tot Depth Attmp 
 TDDF.                      No:  Trip for DD 
 TDLG.m                 363.00:  Tot Depth Loggd 
 TFF .                      No:  Trip for Fail 
 TQAA.f-kp               20.00:  Torque Abs Avg 
 TQAN.f-kp               18.00:  Torque Abs Min 
 TQAX.f-kp               22.00:  Torque Abs Max 
 TRRT.°/30m              -0.35:  Turn Rotating 
 MRT .                    HCIM:  Maximum Recorded Temperature 
 TTMX.degC               92.16:  Max Tool Temp 
 VS01.                90586518:  Virtual Str1 SN 
 VS02.        AZ90560654Z1W1C6:  Virtual Str2 SN 
 VS03.           AZ90610398F11:  Virtual Str3 SN 
 VS04.                90514975:  Virtual Str4 SN 
 VS05.                90514972:  Virtual Str5 SN 
 VS06.     AZ90603282F11V7D1A6:  Virtual Str6 SN 
 WBMN.klb                 7.00:  WOB Min 
 WOBA.klb                12.00:  WOB Avg 
 WOBX.klb                14.00:  WOB Max 
 YP  .lhf2               32.00:  Yield Point 
~Curve Information Block
#MNEM.UNIT                 API CODE     Curve Description
#---------               -----------    ---------------------------
 TIME.HHMMSS            00 000 000 000:  GT Time & Date
 GTDEPTH.m              00 000 000 000:  GT Depth
 GTPQH.psia             00 000 000 000:  GT HR Quartz Pressure
 GTTQ.degC              00 000 000 000:  GT Quartz Temperature
 GTTN.NONE              00 000 000 000:  GT Test Number
 GTET.sec               00 000 000 000:  GT Elapsed Test Time
 GTTVD.m                00 000 000 000:  GT True Vertical Depth
#Other Information
#
#WARRANTY: Halliburton will use its best efforts to furnish customers with 
#accurate information and interpretations that are part of, and incident to, the services 
#provided.  However, Halliburton cannot and does not warrant the accuracy 
#or correctness of such information and interpretations.  Under no circumstances should any 
#such information or interpretation be relied upon as the sole basis for any drilling, 
#completion, production, or financial decision or any procedure involving any risk to the 
#safety of any drilling venture, drilling rig or its crew or any other third party.  The 
#Customer has full responsibility for all drilling, completion and production operation.  
#Halliburton makes no representations or warranties, either expressed or 
#implied, including, but not limited to, the implied warranties of merchantability or fitness 
#for a particular purpose, with respect to the services rendered.  In no event will 
#Halliburton be liable for failure to obtain any particular results or for 
#any damages, including, but not limited to, indirect, special or consequential damages, 
#resulting from the use of any information or interpretation provided by Halliburton.
#
~A           TIME           GTDEPTH  GTPQH  GTTQ  GTTN   GTET   GTTVD  
# ...
   02:14:22.570.18-May-2020 4832.01 5454.08 66.13 12.00  22.61 2549.35
   02:14:22.770.18-May-2020 4832.01 5458.36 66.13 12.00  22.81 2549.35
   02:14:22.970.18-May-2020 4832.01 5459.38 66.13 12.00  23.01 2549.35
   02:14:23.171.18-May-2020 4832.01 5456.87 66.13 12.00  23.21 2549.35
   02:14:23.371.18-May-2020 4832.01 5456.67 66.13 12.00  23.41 2549.35
   02:14:23.571.18-May-2020 4832.01 5456.79 66.13 12.00  23.61 2549.35
   02:14:23.771.18-May-2020 4832.01 5456.78 66.13 12.00  23.81 2549.35
   02:14:23.971.18-May-2020 4832.01 5456.71 66.13 12.00  24.01 2549.35
   02:14:24.171.18-May-2020 4832.01 5456.71 66.13 12.00  24.21 2549.35
   02:14:24.371.18-May-2020 4832.01 5466.66 66.13 12.00  24.41 2549.35
   02:14:24.571.18-May-2020 4832.01 5457.49 66.13 12.00  24.61 2549.35
   02:14:24.771.18-May-2020 4832.01 5458.00 66.13 12.00  24.81 2549.35
   02:14:24.971.18-May-2020 4832.01 5458.80 66.13 12.00  25.01 2549.35
   02:14:25.171.18-May-2020 4832.01 5458.80 66.13 12.00  25.21 2549.35
   02:14:25.371.18-May-2020 4832.01 5463.42 66.13 12.00  25.41 2549.35
   02:14:25.572.18-May-2020 4832.01 5458.15 66.13 12.00  25.61 2549.35
   02:14:25.772.18-May-2020 4832.01 5463.41 66.13 12.00  25.81 2549.35
   02:14:25.972.18-May-2020 4832.01 5473.26 66.13 12.00  26.01 2549.35
   02:14:26.172.18-May-2020 4832.01 5473.26 66.13 12.00  26.21 2549.35
   02:14:26.372.18-May-2020 4832.01 5460.53 66.13 12.00  26.41 2549.35
   02:14:26.572.18-May-2020 4832.01 5461.86 66.13 12.00  26.61 2549.35
   02:14:26.772.18-May-2020 4832.01 5465.28 66.13 12.00  26.81 2549.35
   02:14:26.972.18-May-2020 4832.01 5474.80 66.13 12.00  27.01 2549.35
   02:14:27.172.18-May-2020 4832.01 5474.80 66.13 12.00  27.21 2549.35
   02:14:27.372.18-May-2020 4832.01 5460.33 66.13 12.00  27.41 2549.35
   02:14:27.572.18-May-2020 4832.01 5463.75 66.13 12.00  27.61 2549.35
   02:14:27.772.18-May-2020 4832.01 5464.02 66.13 12.00  27.81 2549.35
   02:14:27.972.18-May-2020 4832.01 5461.22 66.13 12.00  28.01 2549.35
   02:14:28.173.18-May-2020 4832.01 5461.22 66.13 12.00  28.21 2549.35
   02:14:28.373.18-May-2020 4832.01 5460.62 66.13 12.00  28.41 2549.35
   02:14:28.573.18-May-2020 4832.01 5460.34 66.13 12.00  28.61 2549.35
   02:14:28.773.18-May-2020 4832.01 5459.80 66.13 12.00  28.81 2549.35
   02:14:28.973.18-May-2020 4832.01 5473.67 66.13 12.00  29.01 2549.35
   02:14:29.173.18-May-2020 4832.01 5473.67 66.13 12.00  29.21 2549.35
   02:14:29.373.18-May-2020 4832.01 5458.16 66.13 12.00  29.41 2549.35
   02:14:29.573.18-May-2020 4832.01 5461.97 66.13 12.00  29.61 2549.35
   02:14:29.773.18-May-2020 4832.01 5463.48 66.13 12.00  29.81 2549.35
   02:14:29.973.18-May-2020 4832.01 5460.95 66.13 12.00  30.01 2549.35
   02:14:30.173.18-May-2020 4832.01 5460.95 66.13 12.00  30.21 2549.35
   02:14:30.373.18-May-2020 4832.01 5460.68 66.13 12.00  30.41 2549.35
   02:14:30.574.18-May-2020 4832.01 5460.18 66.13 12.00  30.61 2549.35
   02:14:30.774.18-May-2020 4832.01 5460.07 66.13 12.00  30.81 2549.35
   02:14:30.974.18-May-2020 4832.01 5459.53 66.13 12.00  31.01 2549.35
   02:14:31.174.18-May-2020 4832.01 5459.53 66.13 12.00  31.21 2549.35
   02:14:31.374.18-May-2020 4832.01 5461.11 66.13 12.00  31.41 2549.35
   02:14:31.574.18-May-2020 4832.01 5461.82 66.13 12.00  31.61 2549.35
   02:14:31.774.18-May-2020 4832.01 5470.52 66.13 12.00  31.81 2549.35
   02:14:31.974.18-May-2020 4832.01 5466.47 66.13 12.00  32.01 2549.35
   02:14:32.174.18-May-2020 4832.01 5466.47 66.13 12.00  32.21 2549.35
   02:14:32.374.18-May-2020 4832.01 5463.21 66.13 12.00  32.41 2549.35
   02:14:32.574.18-May-2020 4832.01 5466.73 66.13 12.00  32.61 2549.35
   02:14:32.774.18-May-2020 4832.01 5476.74 66.13 12.00  32.81 2549.35
   02:14:32.974.18-May-2020 4832.01 5462.65 66.13 12.00  33.01 2549.35
   02:14:33.175.18-May-2020 4832.01 5462.65 66.13 12.00  33.21 2549.35
   02:14:33.375.18-May-2020 4832.01 5464.93 66.13 12.00  33.41 2549.35
   02:14:33.575.18-May-2020 4832.01 5467.09 66.13 12.00  33.61 2549.35
   02:14:33.775.18-May-2020 4832.01 5475.13 66.13 12.00  33.81 2549.35
   02:14:33.975.18-May-2020 4832.01 5466.86 66.13 12.00  34.01 2549.35
   02:14:34.175.18-May-2020 4832.01 5466.86 66.13 12.00  34.21 2549.35
   02:14:34.375.18-May-2020 4832.01 5466.71 66.12 12.00  34.41 2549.35
   02:14:34.575.18-May-2020 4832.01 5466.52 66.12 12.00  34.61 2549.35
   02:14:34.775.18-May-2020 4832.01 5463.58 66.12 12.00  34.81 2549.35
   02:14:34.975.18-May-2020 4832.01 5463.69 66.12 12.00  35.01 2549.35
   02:14:35.175.18-May-2020 4832.01 5463.69 66.12 12.00  35.21 2549.35
   02:14:35.375.18-May-2020 4832.01 5462.85 66.12 12.00  35.41 2549.35
   02:14:35.576.18-May-2020 4832.01 5462.48 66.12 12.00  35.61 2549.35
   02:14:35.776.18-May-2020 4832.01 5461.91 66.12 12.00  35.81 2549.35
   02:14:35.976.18-May-2020 4832.01 5470.94 66.12 12.00  36.01 2549.35
   02:14:36.176.18-May-2020 4832.01 5470.94 66.12 12.00  36.21 2549.35
   02:14:36.376.18-May-2020 4832.01 5463.93 66.12 12.00  36.41 2549.35
   02:14:36.576.18-May-2020 4832.01 5463.31 66.12 12.00  36.61 2549.35
   02:14:36.776.18-May-2020 4832.01 5466.67 66.12 12.00  36.81 2549.35
   02:14:36.976.18-May-2020 4832.01 5463.91 66.12 12.00  37.01 2549.35
   02:14:37.176.18-May-2020 4832.01 5463.91 66.12 12.00  37.22 2549.35
   02:14:37.376.18-May-2020 4832.01 5463.16 66.12 12.00  37.42 2549.35
   02:14:37.576.18-May-2020 4832.01 5462.11 66.12 12.00  37.62 2549.35
   02:14:37.776.18-May-2020 4832.01 5461.99 66.12 12.00  37.82 2549.35
   02:14:37.977.18-May-2020 4832.01 5462.46 66.12 12.00  38.02 2549.35
   02:14:38.177.18-May-2020 4832.01 5462.46 66.12 12.00  38.22 2549.35
   02:14:38.377.18-May-2020 4832.01 5473.09 66.12 12.00  38.42 2549.35
   02:14:38.577.18-May-2020 4832.01 5466.82 66.12 12.00  38.62 2549.35
   02:14:38.777.18-May-2020 4832.01 5461.81 66.12 12.00  38.82 2549.35
   02:14:38.977.18-May-2020 4832.01 5467.17 66.12 12.00  39.02 2549.35
   02:14:39.177.18-May-2020 4832.01 5467.17 66.12 12.00  39.22 2549.35
   02:14:39.377.18-May-2020 4832.01 5465.63 66.12 12.00  39.42 2549.35
   02:14:39.577.18-May-2020 4832.01 5463.08 66.12 12.00  39.62 2549.35
   02:14:39.777.18-May-2020 4832.01 5467.34 66.12 12.00  39.82 2549.35
   02:14:39.977.18-May-2020 4832.01 5478.13 66.12 12.00  40.02 2549.35
   02:14:40.177.18-May-2020 4832.01 5478.13 66.12 12.00  40.22 2549.35
   02:14:40.377.18-May-2020 4832.01 5470.05 66.12 12.00  40.42 2549.35
   02:14:40.578.18-May-2020 4832.01 5621.09 66.12 12.00  40.62 2549.35
   02:14:40.778.18-May-2020 4832.01 5672.40 66.12 12.00  40.82 2549.35
   02:14:40.978.18-May-2020 4832.01 5617.18 66.12 12.00  41.02 2549.35
   02:14:41.178.18-May-2020 4832.01 5617.18 66.12 12.00  41.22 2549.35
   02:14:41.378.18-May-2020 4832.01 5412.36 66.12 12.00  41.42 2549.35
   02:14:41.578.18-May-2020 4832.01 5388.33 66.12 12.00  41.62 2549.35
   02:14:41.778.18-May-2020 4832.01 5365.56 66.12 12.00  41.82 2549.35
   02:14:41.978.18-May-2020 4832.01 5352.95 66.12 12.00  42.02 2549.35
   02:14:42.178.18-May-2020 4832.01 5352.95 66.12 12.00  42.22 2549.35
   02:14:42.378.18-May-2020 4832.01 5338.95 66.12 12.00  42.42 2549.35
   02:14:42.578.18-May-2020 4832.01 5333.54 66.12 12.00  42.62 2549.35
   02:14:42.778.18-May-2020 4832.01 5329.90 66.12 12.00  42.82 2549.35
   02:14:42.979.18-May-2020 4832.01 5329.61 66.12 12.00  43.02 2549.35
   02:14:43.179.18-May-2020 4832.01 5329.61 66.12 12.00  43.22 2549.35
   02:14:43.379.18-May-2020 4832.01 5326.71 66.12 12.00  43.42 2549.35
   02:14:43.579.18-May-2020 4832.01 5326.27 66.12 12.00  43.62 2549.35
   02:14:43.779.18-May-2020 4832.01 5326.17 66.12 12.00  43.82 2549.35
   02:14:43.979.18-May-2020 4832.01 5326.41 66.12 12.00  44.02 2549.35
   02:14:44.179.18-May-2020 4832.01 5326.41 66.12 12.00  44.22 2549.35
   02:14:44.379.18-May-2020 4832.01 5326.17 66.12 12.00  44.42 2549.35
   02:14:44.579.18-May-2020 4832.01 5322.00 66.12 12.00  44.62 2549.35
   02:14:44.779.18-May-2020 4832.01 5319.85 66.12 12.00  44.82 2549.35
   02:14:44.979.18-May-2020 4832.01 5320.21 66.12 12.00  45.02 2549.35
