~Version Information
 VERS.                  2.0:   CWLS log ASCII Standard -VERSION 2.0
 WRAP.                   NO:   One line per depth step
~Well Information Block
#MNEM.UNIT     VALUE/NAME     DESCRIPTION
#---------     -----------    ---------------------------
 STRT.S             23:36:46 17-May-20: START TIME 23:36:46 17-May-20
 STOP.S             23:44:24 17-May-20: STOP TIME  23:44:24 17-May-20
 STEP.S                   0.00: STEP TIME
 NULL.                 -999.25: NULL VALUE
 UNIT.                     N/A:  LOGGING EQUIPMENT ID
 DCON.         Sperry Drilling:  DIRECTNL CONTR
 DOE .                     N/A:  DOE NUMBER
 JOBN.        AZ-XX-0906252240:  JOB TICKET NUMB
 MWDS.                     N/A:  MWD SHOP
 PROV.                    Baku:  PROVINCE
 STAT.                    Baku:  STATE NAME
 REGN.                   EESSA:  REGION
 BASE.              Azerbaijan:  LOGGING EQUIPMENT BASE LOCATION
 UWI .                     N/A:  UNIQUE WELL IDENTIFIER
 API .                     N/A:  API NUMBER
 MDS .        Operator Entered:  MAG DATA SOURCE
 WTYP.                Deviated:  WELL TYPE
 COMP.     BP Exploration (Caspian Sea) Ltd.:  COMPANY
 SRVC.          Turan Drilling:  CONTRACTOR
 WELL.           J23 (Slot 07):  WELL NAME
 CTRY.              Azerbaijan:  COUNTRY NAME
 FLD .                     ACG:  FIELD NAME
 PDAT.          Mean Sea Level:  PERMANENT DATUM
 RIG .             West Chirag:  RIG NAME
 SON .        AZ-XX-0906252240:  JOB NUMBER
 FTOP.          Formation Tops:  FORM TOPS DESC
 ILTD.               Lithology:  INTERP LTH DESC
 SVYD.                  Survey:  SURVEY DESC
 DMOD.             Drill Model:  DRILL MOD DESC
 HPTY.       Minimum Curvature:  HOLE POS TYPE
 NREF.                    Grid:  NORTH REFERENCE
 SPUD.               27-Aug-20:  SPUD DATE
 DATE.      00.00.00 19-May-20:  END TIME
 STIM.      03.00.00 25-Mar-20:  START TIME
 DMF .             Drill Floor:  DRILL MEAS FROM
 DFST.                        :  DIST FSL TEXT
 DFWT.                        :  DIST FWL TEXT
 CNTY.                        :  COUNTY
 LOC .                        :  LOCATION
 LMF .             Drill Floor:  LOG MEASURED FROM
 VSNS.m                   9.43:  VERT SEC N/S
 VSEW.m                  -8.91:  VERT SEC E/W
 AGAP.m                  43.00:  AIR GAP
 DEP .m                 354.17:  DEPTH
 APD .m                  43.00:  DEPTH ABOVE PD
 WDMS.m                 169.80:  WD ELEV
 EGL .m                   0.00:  GROUND ELEVATION
 EPD .m                   0.00:  ELEVATION
 AZTC.deg                 6.31:  AZM TOTAL CORR
 GRDC.deg                 0.14:  GRID CORRECTION
 MDEC.deg                 6.45:  MAGNETIC DECL
 MDIP.deg                59.56:  MAGNETIC DIP
 MFLD.nT              50295.00:  MAGNETIC FIELD
 GVFD.g                   1.00:  GRAVITY FIELD
 VSDR.deg               179.88:  VERT SEC DIRECT
 TDD .m                5150.01:  TOTAL DEPTH (DRILLER)
 SDEP.m                 864.00:  START DEPTH
 DFSL.m                   0.00:  DISTANCE FSL
 DFWL.m                   0.00:  DISTANCE FWL
 UTMY.m             4443793.85:  UTM Y
 UTMX.m              519005.06:  UTM X
 WHEW.m                  -8.91:  WELL HEAD E/W
 WHNS.m                   9.43:  WELL HEAD N/S
 LONG.deg                51.22:  LONGITUDE
 LATI.deg                40.13:  LATITUDE
 TVDS.m                  43.00:  TVDSS CORRECTN
 EKB .m                   0.00:  KB ELEVATION
 EDF .m                  43.00:  DF ELEVATION
 TDL .m                 363.00:  TOTAL DEPTH (LOGGER)
 MAGU.                 1850802:  MAGUTM CHECKSUM
 VSC .                       0:  VS TO CLOSURE
~Parameter Information Block
#MNEM.UNIT       Value        Description
#---------     -----------    ---------------------------
 AV  .mps                 2.30:  Ann Velocity 
 AVMX.mps                 4.40:  Max Ann Veloc 
 AZIF.deg               110.24:  Azm, Final 
 BHAT.        Rotary Steerable:  BHA Type 
 BREV.rev               331.00:  Rev Bit Total 
 BROT.°/30m               0.00:  Build Rotating 
 BS  .in                  8.50:  Bit Size 
 BSZ .in                  8.50:  Bit Size 
 BTPL.psig              585.00:  Bit Press Loss 
 CABU.                     Yes:  Customer Abuse 
 TCS .hr                122.75:  Time Ciculation Ended 
 CV  .mps                 2.67:  Crit Velocity 
 CVMX.mps                 3.56:  Max Crit Veloc 
 DD1 .          Rashad Habibov:  Direct Drillr 1 
 DD2 .         Rasim Ibrahimov:  Direct Drillr 2 
 DDSV.               Geo-Pilot:  DD Service 
 DEFF.%                  98.00:  % Det Eff 
 DLRX.°/30m               0.75:  Dogleg Rot Max 
 DLSO.°/30m               1.25:  Dogleg Oriented 
 DLSX.°/30m               2.06:  Dogleg Str Max 
 DRET.      07.45.00 17-May-20:  Drill End Time 
 DRST.      22.50.00 15-May-20:  Drill Start Tim 
 DTIM.hr                 20.75:  Time Drilling 
 EDEP.m                5124.01:  End Depth 
 ENG1.           Eldar Hajiyev:  Engineer 1 
 ENG2.        Marcelo Sandoval:  Engineer 2 
 ENG3.        Davud huseynzada:  Engineer 3 
 ENG4.          Ruslan Safarov:  Engineer 4 
 ETIM.      04.33.00 23-May-20:  End Time 
 FLOI.gpm               450.00:  Flow In 
 FLON.gpm               400.00:  Flow In Min 
 FLOS.cptm                0.00:  Fluid Loss 
 FLOX.gpm               500.00:  Flow In Max 
 FTRO.       Formation Presure:  FTWD Run Obj 
 HFLO.                      No:  High Flow 
 HPRE.                     Yes:  High Pressure 
 HTEM.                      No:  High Temp 
 HYDO.m                   1.80:  Hydro Offset 
 IFIN.deg                75.06:  Inc, Final 
 IMAX.deg                75.38:  Inc Max 
 IMIN.deg                74.69:  Inc Min 
 IMND.m                5027.38:  Inc Min Depth 
 IMXD.m                4771.61:  Inc Max Depth 
 JARR.                      No:  Jarring 
 LETM.      07.45.00 17-May-20:  Log End Time 
 LOST.hr                     0:  Lost Rig Time 
 LSTM.      22.50.00 15-May-20:  Log Start Time 
 MDCL.ppm             42000.00:  Mud Chlorides 
 MDES.     Inversion Oil/Synthetic:  Mud Desc 
 DFD .sg                  1.34:  Mud Density 
 MDMN.sg                  1.34:  Dens Mud Min 
 MDMX.sg                  1.34:  Dens Mud Max 
 MOIL.                       0:  Run Mud Oil % 
 MOWR.                   67:33:  Run Mud OWR 
 MSND.                       0:  Run Mud Sand % 
 MSOL.                     1.8:  Run Mud Solids% 
 DFV .spqt               76.00:  Mud Viscosity 
 MWOD.in                  6.75:  MWD Tool OD 
 MWSI.                      No:  Serv Intrp, MWD 
 OTIM.hr                228.19:  Time Operating 
 PCON.           Look Like New:  Pad Condition 
 PMAX.psia             6164.70:  Press Op, Max 
 PV  .cP                 28.00:  Mud PV 
 RUN .                     900:  Run Number 
 ROPA.m/hr               19.00:  ROP Avg 
 ROPN.m/hr               11.00:  ROP Min 
 ROPX.m/hr               36.00:  ROP Max 
 RPMA.rpm               120.00:  RPM Surface Avg 
 RPMN.rpm               120.00:  RPM Surface Min 
 RPMX.rpm               120.00:  RPM Surface Max 
 RRUN.                    L604:  Rig Run Number 
 RTIM.hr                  7.00:  Time Reaming 
 SAZI.deg               109.27:  Azm, Start 
 SDEP.m                4761.01:  Start Depth 
 SIDD.                      No:  Serv Intrp, DD 
 SINC.deg                75.38:  Inc, Start 
 SPPA.psig             3574.00:  SPP Avg 
 SPPN.psig             3475.00:  SPP Min 
 SPPX.psig             3791.00:  SPP Max 
 STIM.      07.08.48 13-May-20:  Start Time 
 SVCS.                 DD, MWD:  Services 
 SVER.                    9.20:  Sperry Version 
 TDAT.m                 363.00:  Tot Depth Attmp 
 TDDF.                      No:  Trip for DD 
 TDLG.m                 363.00:  Tot Depth Loggd 
 TFF .                      No:  Trip for Fail 
 TQAA.f-kp               20.00:  Torque Abs Avg 
 TQAN.f-kp               18.00:  Torque Abs Min 
 TQAX.f-kp               22.00:  Torque Abs Max 
 TRRT.°/30m              -0.35:  Turn Rotating 
 MRT .                    HCIM:  Maximum Recorded Temperature 
 TTMX.degC               92.16:  Max Tool Temp 
 VS01.                90586518:  Virtual Str1 SN 
 VS02.        AZ90560654Z1W1C6:  Virtual Str2 SN 
 VS03.           AZ90610398F11:  Virtual Str3 SN 
 VS04.                90514975:  Virtual Str4 SN 
 VS05.                90514972:  Virtual Str5 SN 
 VS06.     AZ90603282F11V7D1A6:  Virtual Str6 SN 
 WBMN.klb                 7.00:  WOB Min 
 WOBA.klb                12.00:  WOB Avg 
 WOBX.klb                14.00:  WOB Max 
 YP  .lhf2               32.00:  Yield Point 
~Curve Information Block
#MNEM.UNIT                 API CODE     Curve Description
#---------               -----------    ---------------------------
 TIME.HHMMSS            00 000 000 000:  GT Time & Date
 GTDEPTH.m              00 000 000 000:  GT Depth
 GTPQH.psia             00 000 000 000:  GT HR Quartz Pressure
 GTTQ.degC              00 000 000 000:  GT Quartz Temperature
 GTTN.NONE              00 000 000 000:  GT Test Number
 GTET.sec               00 000 000 000:  GT Elapsed Test Time
 GTTVD.m                00 000 000 000:  GT True Vertical Depth
#Other Information
#
#WARRANTY: Halliburton will use its best efforts to furnish customers with 
#accurate information and interpretations that are part of, and incident to, the services 
#provided.  However, Halliburton cannot and does not warrant the accuracy 
#or correctness of such information and interpretations.  Under no circumstances should any 
#such information or interpretation be relied upon as the sole basis for any drilling, 
#completion, production, or financial decision or any procedure involving any risk to the 
#safety of any drilling venture, drilling rig or its crew or any other third party.  The 
#Customer has full responsibility for all drilling, completion and production operation.  
#Halliburton makes no representations or warranties, either expressed or 
#implied, including, but not limited to, the implied warranties of merchantability or fitness 
#for a particular purpose, with respect to the services rendered.  In no event will 
#Halliburton be liable for failure to obtain any particular results or for 
#any damages, including, but not limited to, indirect, special or consequential damages, 
#resulting from the use of any information or interpretation provided by Halliburton.
#
~A           TIME           GTDEPTH  GTPQH  GTTQ  GTTN  GTET   GTTVD  
# ...
   23:42:07.907.17-May-2020 4902.01 3369.40 66.30 9.00 321.83 2567.50
   23:42:08.107.17-May-2020 4902.01 3369.40 66.30 9.00 322.03 2567.50
   23:42:08.307.17-May-2020 4902.01 3371.23 66.30 9.00 322.23 2567.50
   23:42:08.507.17-May-2020 4902.01 3372.30 66.30 9.00 322.43 2567.50
   23:42:08.706.17-May-2020 4902.01 3373.67 66.30 9.00 322.63 2567.50
   23:42:08.906.17-May-2020 4902.01 3373.30 66.30 9.00 322.83 2567.50
   23:42:09.106.17-May-2020 4902.01 3373.30 66.30 9.00 323.03 2567.50
   23:42:09.306.17-May-2020 4902.01 3375.47 66.30 9.00 323.23 2567.50
   23:42:09.506.17-May-2020 4902.01 3375.27 66.30 9.00 323.43 2567.50
   23:42:09.706.17-May-2020 4902.01 3375.12 66.30 9.00 323.63 2567.50
   23:42:09.906.17-May-2020 4902.01 3376.52 66.30 9.00 323.83 2567.50
   23:42:10.106.17-May-2020 4902.01 3376.52 66.30 9.00 324.03 2567.50
   23:42:10.306.17-May-2020 4902.01 3379.02 66.30 9.00 324.23 2567.50
   23:42:10.506.17-May-2020 4902.01 3380.31 66.30 9.00 324.43 2567.50
   23:42:10.705.17-May-2020 4902.01 3381.89 66.30 9.00 324.63 2567.50
   23:42:10.905.17-May-2020 4902.01 3382.92 66.30 9.00 324.83 2567.50
   23:42:11.105.17-May-2020 4902.01 3382.92 66.30 9.00 325.03 2567.50
   23:42:11.305.17-May-2020 4902.01 3385.74 66.30 9.00 325.23 2567.50
   23:42:11.505.17-May-2020 4902.01 3386.26 66.30 9.00 325.43 2567.50
   23:42:11.705.17-May-2020 4902.01 3386.45 66.30 9.00 325.63 2567.50
   23:42:11.905.17-May-2020 4902.01 3386.88 66.30 9.00 325.83 2567.50
   23:42:12.105.17-May-2020 4902.01 3386.88 66.30 9.00 326.03 2567.50
   23:42:12.305.17-May-2020 4902.01 3389.42 66.30 9.00 326.23 2567.50
   23:42:12.504.17-May-2020 4902.01 3391.03 66.30 9.00 326.43 2567.50
   23:42:12.704.17-May-2020 4902.01 3392.05 66.30 9.00 326.63 2567.50
   23:42:12.904.17-May-2020 4902.01 3393.49 66.30 9.00 326.83 2567.50
   23:42:13.104.17-May-2020 4902.01 3393.49 66.30 9.00 327.03 2567.50
   23:42:13.304.17-May-2020 4902.01 3395.93 66.30 9.00 327.23 2567.50
   23:42:13.504.17-May-2020 4902.01 3397.18 66.30 9.00 327.43 2567.50
   23:42:13.704.17-May-2020 4902.01 3397.34 66.30 9.00 327.63 2567.50
   23:42:13.904.17-May-2020 4902.01 3398.05 66.30 9.00 327.83 2567.50
   23:42:14.104.17-May-2020 4902.01 3398.05 66.30 9.00 328.03 2567.50
   23:42:14.304.17-May-2020 4902.01 3399.97 66.30 9.00 328.23 2567.50
   23:42:14.503.17-May-2020 4902.01 3399.75 66.29 9.00 328.43 2567.50
   23:42:14.703.17-May-2020 4902.01 3398.96 66.29 9.00 328.63 2567.50
   23:42:14.903.17-May-2020 4902.01 3400.76 66.29 9.00 328.83 2567.50
   23:42:15.103.17-May-2020 4902.01 3400.76 66.29 9.00 329.03 2567.50
   23:42:15.303.17-May-2020 4902.01 3400.05 66.29 9.00 329.23 2567.50
   23:42:15.503.17-May-2020 4902.01 3401.17 66.29 9.00 329.43 2567.50
   23:42:15.703.17-May-2020 4902.01 3402.14 66.29 9.00 329.63 2567.50
   23:42:15.903.17-May-2020 4902.01 3401.78 66.29 9.00 329.83 2567.50
   23:42:16.103.17-May-2020 4902.01 3401.78 66.29 9.00 330.03 2567.50
   23:42:16.303.17-May-2020 4902.01 3403.27 66.29 9.00 330.23 2567.50
   23:42:16.502.17-May-2020 4902.01 3403.94 66.29 9.00 330.43 2567.50
   23:42:16.702.17-May-2020 4902.01 3405.49 66.29 9.00 330.63 2567.50
   23:42:16.902.17-May-2020 4902.01 3406.74 66.29 9.00 330.83 2567.50
   23:42:17.102.17-May-2020 4902.01 3406.74 66.29 9.00 331.03 2567.50
   23:42:17.302.17-May-2020 4902.01 3409.44 66.29 9.00 331.23 2567.50
   23:42:17.502.17-May-2020 4902.01 3410.73 66.29 9.00 331.43 2567.50
   23:42:17.702.17-May-2020 4902.01 3411.90 66.29 9.00 331.63 2567.50
   23:42:17.902.17-May-2020 4902.01 3412.25 66.29 9.00 331.83 2567.50
   23:42:18.102.17-May-2020 4902.01 3412.25 66.29 9.00 332.03 2567.50
   23:42:18.302.17-May-2020 4902.01 3413.15 66.29 9.00 332.23 2567.50
   23:42:18.501.17-May-2020 4902.01 3414.42 66.29 9.00 332.43 2567.50
   23:42:18.701.17-May-2020 4902.01 3415.56 66.29 9.00 332.63 2567.50
   23:42:18.901.17-May-2020 4902.01 3416.87 66.29 9.00 332.83 2567.50
   23:42:19.101.17-May-2020 4902.01 3416.87 66.29 9.00 333.03 2567.50
   23:42:19.301.17-May-2020 4902.01 3418.77 66.29 9.00 333.23 2567.50
   23:42:19.501.17-May-2020 4902.01 3419.88 66.29 9.00 333.43 2567.50
   23:42:19.701.17-May-2020 4902.01 3420.93 66.29 9.00 333.63 2567.50
   23:42:19.901.17-May-2020 4902.01 3421.86 66.29 9.00 333.83 2567.50
   23:42:20.101.17-May-2020 4902.01 3421.86 66.29 9.00 334.03 2567.50
   23:42:20.300.17-May-2020 4902.01 3421.15 66.29 9.00 334.23 2567.50
   23:42:20.500.17-May-2020 4902.01 3422.76 66.29 9.00 334.43 2567.50
   23:42:20.700.17-May-2020 4902.01 3422.51 66.29 9.00 334.63 2567.50
   23:42:20.900.17-May-2020 4902.01 3422.15 66.29 9.00 334.83 2567.50
   23:42:21.100.17-May-2020 4902.01 3422.15 66.29 9.00 335.03 2567.50
   23:42:21.300.17-May-2020 4902.01 3424.24 66.29 9.00 335.23 2567.50
   23:42:21.500.17-May-2020 4902.01 3423.98 66.29 9.00 335.43 2567.50
   23:42:21.700.17-May-2020 4902.01 3424.17 66.29 9.00 335.63 2567.50
   23:42:21.900.17-May-2020 4902.01 3425.43 66.29 9.00 335.83 2567.50
   23:42:22.100.17-May-2020 4902.01 3425.43 66.29 9.00 336.03 2567.50
   23:42:22.299.17-May-2020 4902.01 3425.33 66.29 9.00 336.23 2567.50
   23:42:22.499.17-May-2020 4902.01 3424.92 66.29 9.00 336.43 2567.50
   23:42:22.699.17-May-2020 4902.01 3426.56 66.29 9.00 336.63 2567.50
   23:42:22.899.17-May-2020 4902.01 3427.30 66.29 9.00 336.83 2567.50
   23:42:23.099.17-May-2020 4902.01 3427.30 66.29 9.00 337.03 2567.50
   23:42:23.299.17-May-2020 4902.01 3429.52 66.29 9.00 337.23 2567.50
   23:42:23.499.17-May-2020 4902.01 3431.02 66.29 9.00 337.43 2567.50
   23:42:23.699.17-May-2020 4902.01 3432.06 66.29 9.00 337.63 2567.50
   23:42:23.899.17-May-2020 4902.01 3433.19 66.29 9.00 337.83 2567.50
   23:42:24.099.17-May-2020 4902.01 3433.19 66.29 9.00 338.03 2567.50
   23:42:24.298.17-May-2020 4902.01 3433.98 66.29 9.00 338.23 2567.50
   23:42:24.498.17-May-2020 4902.01 3434.21 66.29 9.00 338.43 2567.50
   23:42:24.698.17-May-2020 4902.01 3435.56 66.29 9.00 338.63 2567.50
   23:42:24.898.17-May-2020 4902.01 3437.11 66.29 9.00 338.83 2567.50
   23:42:25.098.17-May-2020 4902.01 3437.11 66.29 9.00 339.03 2567.50
   23:42:25.298.17-May-2020 4902.01 3439.93 66.29 9.00 339.23 2567.50
   23:42:25.498.17-May-2020 4902.01 3440.93 66.29 9.00 339.43 2567.50
   23:42:25.698.17-May-2020 4902.01 3441.91 66.29 9.00 339.63 2567.50
   23:42:25.898.17-May-2020 4902.01 3442.89 66.29 9.00 339.83 2567.50
   23:42:26.098.17-May-2020 4902.01 3442.89 66.29 9.00 340.03 2567.50
   23:42:26.297.17-May-2020 4902.01 3444.67 66.29 9.00 340.23 2567.50
   23:42:26.497.17-May-2020 4902.01 3444.23 66.29 9.00 340.43 2567.50
   23:42:26.697.17-May-2020 4902.01 3443.94 66.29 9.00 340.63 2567.50
   23:42:26.897.17-May-2020 4902.01 3445.80 66.29 9.00 340.83 2567.50
   23:42:27.097.17-May-2020 4902.01 3445.80 66.29 9.00 341.02 2567.50
   23:42:27.297.17-May-2020 4902.01 3445.24 66.29 9.00 341.22 2567.50
   23:42:27.497.17-May-2020 4902.01 3445.87 66.29 9.00 341.42 2567.50
   23:42:27.697.17-May-2020 4902.01 3446.57 66.29 9.00 341.62 2567.50
   23:42:27.897.17-May-2020 4902.01 3447.30 66.29 9.00 341.82 2567.50
   23:42:28.096.17-May-2020 4902.01 3447.30 66.29 9.00 342.02 2567.50
   23:42:28.296.17-May-2020 4902.01 3447.18 66.29 9.00 342.22 2567.50
   23:42:28.496.17-May-2020 4902.01 3448.50 66.29 9.00 342.42 2567.50
   23:42:28.696.17-May-2020 4902.01 3448.92 66.29 9.00 342.62 2567.50
   23:42:28.896.17-May-2020 4902.01 3448.72 66.29 9.00 342.82 2567.50
   23:42:29.096.17-May-2020 4902.01 3448.72 66.29 9.00 343.02 2567.50
   23:42:29.296.17-May-2020 4902.01 3450.21 66.29 9.00 343.22 2567.50
   23:42:29.496.17-May-2020 4902.01 3450.49 66.29 9.00 343.42 2567.50
   23:42:29.696.17-May-2020 4902.01 3451.91 66.29 9.00 343.62 2567.50
   23:42:29.896.17-May-2020 4902.01 3452.68 66.29 9.00 343.82 2567.50
   23:42:30.095.17-May-2020 4902.01 3452.68 66.29 9.00 344.02 2567.50
   23:42:30.295.17-May-2020 4902.01 3454.31 66.29 9.00 344.22 2567.50
   23:42:30.495.17-May-2020 4902.01 3455.33 66.29 9.00 344.42 2567.50
   23:42:30.695.17-May-2020 4902.01 3456.22 66.29 9.00 344.62 2567.50
