~Version Information
 VERS.                  2.0:   CWLS log ASCII Standard -VERSION 2.0
 WRAP.                   NO:   One line per depth step
~Well Information Block
#MNEM.UNIT     VALUE/NAME     DESCRIPTION
#---------     -----------    ---------------------------
 STRT.S             23:36:46 17-May-20: START TIME 23:36:46 17-May-20
 STOP.S             23:44:24 17-May-20: STOP TIME  23:44:24 17-May-20
 STEP.S                   0.00: STEP TIME
 NULL.                 -999.25: NULL VALUE
 UNIT.                     N/A:  LOGGING EQUIPMENT ID
 DCON.         Sperry Drilling:  DIRECTNL CONTR
 DOE .                     N/A:  DOE NUMBER
 JOBN.        AZ-XX-0906252240:  JOB TICKET NUMB
 MWDS.                     N/A:  MWD SHOP
 PROV.                    Baku:  PROVINCE
 STAT.                    Baku:  STATE NAME
 REGN.                   EESSA:  REGION
 BASE.              Azerbaijan:  LOGGING EQUIPMENT BASE LOCATION
 UWI .                     N/A:  UNIQUE WELL IDENTIFIER
 API .                     N/A:  API NUMBER
 MDS .        Operator Entered:  MAG DATA SOURCE
 WTYP.                Deviated:  WELL TYPE
 COMP.     BP Exploration (Caspian Sea) Ltd.:  COMPANY
 SRVC.          Turan Drilling:  CONTRACTOR
 WELL.           J23 (Slot 07):  WELL NAME
 CTRY.              Azerbaijan:  COUNTRY NAME
 FLD .                     ACG:  FIELD NAME
 PDAT.          Mean Sea Level:  PERMANENT DATUM
 RIG .             West Chirag:  RIG NAME
 SON .        AZ-XX-0906252240:  JOB NUMBER
 FTOP.          Formation Tops:  FORM TOPS DESC
 ILTD.               Lithology:  INTERP LTH DESC
 SVYD.                  Survey:  SURVEY DESC
 DMOD.             Drill Model:  DRILL MOD DESC
 HPTY.       Minimum Curvature:  HOLE POS TYPE
 NREF.                    Grid:  NORTH REFERENCE
 SPUD.               27-Aug-20:  SPUD DATE
 DATE.      00.00.00 19-May-20:  END TIME
 STIM.      03.00.00 25-Mar-20:  START TIME
 DMF .             Drill Floor:  DRILL MEAS FROM
 DFST.                        :  DIST FSL TEXT
 DFWT.                        :  DIST FWL TEXT
 CNTY.                        :  COUNTY
 LOC .                        :  LOCATION
 LMF .             Drill Floor:  LOG MEASURED FROM
 VSNS.m                   9.43:  VERT SEC N/S
 VSEW.m                  -8.91:  VERT SEC E/W
 AGAP.m                  43.00:  AIR GAP
 DEP .m                 354.17:  DEPTH
 APD .m                  43.00:  DEPTH ABOVE PD
 WDMS.m                 169.80:  WD ELEV
 EGL .m                   0.00:  GROUND ELEVATION
 EPD .m                   0.00:  ELEVATION
 AZTC.deg                 6.31:  AZM TOTAL CORR
 GRDC.deg                 0.14:  GRID CORRECTION
 MDEC.deg                 6.45:  MAGNETIC DECL
 MDIP.deg                59.56:  MAGNETIC DIP
 MFLD.nT              50295.00:  MAGNETIC FIELD
 GVFD.g                   1.00:  GRAVITY FIELD
 VSDR.deg               179.88:  VERT SEC DIRECT
 TDD .m                5150.01:  TOTAL DEPTH (DRILLER)
 SDEP.m                 864.00:  START DEPTH
 DFSL.m                   0.00:  DISTANCE FSL
 DFWL.m                   0.00:  DISTANCE FWL
 UTMY.m             4443793.85:  UTM Y
 UTMX.m              519005.06:  UTM X
 WHEW.m                  -8.91:  WELL HEAD E/W
 WHNS.m                   9.43:  WELL HEAD N/S
 LONG.deg                51.22:  LONGITUDE
 LATI.deg                40.13:  LATITUDE
 TVDS.m                  43.00:  TVDSS CORRECTN
 EKB .m                   0.00:  KB ELEVATION
 EDF .m                  43.00:  DF ELEVATION
 TDL .m                 363.00:  TOTAL DEPTH (LOGGER)
 MAGU.                 1850802:  MAGUTM CHECKSUM
 VSC .                       0:  VS TO CLOSURE
~Parameter Information Block
#MNEM.UNIT       Value        Description
#---------     -----------    ---------------------------
 AV  .mps                 2.30:  Ann Velocity 
 AVMX.mps                 4.40:  Max Ann Veloc 
 AZIF.deg               110.24:  Azm, Final 
 BHAT.        Rotary Steerable:  BHA Type 
 BREV.rev               331.00:  Rev Bit Total 
 BROT.°/30m               0.00:  Build Rotating 
 BS  .in                  8.50:  Bit Size 
 BSZ .in                  8.50:  Bit Size 
 BTPL.psig              585.00:  Bit Press Loss 
 CABU.                     Yes:  Customer Abuse 
 TCS .hr                122.75:  Time Ciculation Ended 
 CV  .mps                 2.67:  Crit Velocity 
 CVMX.mps                 3.56:  Max Crit Veloc 
 DD1 .          Rashad Habibov:  Direct Drillr 1 
 DD2 .         Rasim Ibrahimov:  Direct Drillr 2 
 DDSV.               Geo-Pilot:  DD Service 
 DEFF.%                  98.00:  % Det Eff 
 DLRX.°/30m               0.75:  Dogleg Rot Max 
 DLSO.°/30m               1.25:  Dogleg Oriented 
 DLSX.°/30m               2.06:  Dogleg Str Max 
 DRET.      07.45.00 17-May-20:  Drill End Time 
 DRST.      22.50.00 15-May-20:  Drill Start Tim 
 DTIM.hr                 20.75:  Time Drilling 
 EDEP.m                5124.01:  End Depth 
 ENG1.           Eldar Hajiyev:  Engineer 1 
 ENG2.        Marcelo Sandoval:  Engineer 2 
 ENG3.        Davud huseynzada:  Engineer 3 
 ENG4.          Ruslan Safarov:  Engineer 4 
 ETIM.      04.33.00 23-May-20:  End Time 
 FLOI.gpm               450.00:  Flow In 
 FLON.gpm               400.00:  Flow In Min 
 FLOS.cptm                0.00:  Fluid Loss 
 FLOX.gpm               500.00:  Flow In Max 
 FTRO.       Formation Presure:  FTWD Run Obj 
 HFLO.                      No:  High Flow 
 HPRE.                     Yes:  High Pressure 
 HTEM.                      No:  High Temp 
 HYDO.m                   1.80:  Hydro Offset 
 IFIN.deg                75.06:  Inc, Final 
 IMAX.deg                75.38:  Inc Max 
 IMIN.deg                74.69:  Inc Min 
 IMND.m                5027.38:  Inc Min Depth 
 IMXD.m                4771.61:  Inc Max Depth 
 JARR.                      No:  Jarring 
 LETM.      07.45.00 17-May-20:  Log End Time 
 LOST.hr                     0:  Lost Rig Time 
 LSTM.      22.50.00 15-May-20:  Log Start Time 
 MDCL.ppm             42000.00:  Mud Chlorides 
 MDES.     Inversion Oil/Synthetic:  Mud Desc 
 DFD .sg                  1.34:  Mud Density 
 MDMN.sg                  1.34:  Dens Mud Min 
 MDMX.sg                  1.34:  Dens Mud Max 
 MOIL.                       0:  Run Mud Oil % 
 MOWR.                   67:33:  Run Mud OWR 
 MSND.                       0:  Run Mud Sand % 
 MSOL.                     1.8:  Run Mud Solids% 
 DFV .spqt               76.00:  Mud Viscosity 
 MWOD.in                  6.75:  MWD Tool OD 
 MWSI.                      No:  Serv Intrp, MWD 
 OTIM.hr                228.19:  Time Operating 
 PCON.           Look Like New:  Pad Condition 
 PMAX.psia             6164.70:  Press Op, Max 
 PV  .cP                 28.00:  Mud PV 
 RUN .                     900:  Run Number 
 ROPA.m/hr               19.00:  ROP Avg 
 ROPN.m/hr               11.00:  ROP Min 
 ROPX.m/hr               36.00:  ROP Max 
 RPMA.rpm               120.00:  RPM Surface Avg 
 RPMN.rpm               120.00:  RPM Surface Min 
 RPMX.rpm               120.00:  RPM Surface Max 
 RRUN.                    L604:  Rig Run Number 
 RTIM.hr                  7.00:  Time Reaming 
 SAZI.deg               109.27:  Azm, Start 
 SDEP.m                4761.01:  Start Depth 
 SIDD.                      No:  Serv Intrp, DD 
 SINC.deg                75.38:  Inc, Start 
 SPPA.psig             3574.00:  SPP Avg 
 SPPN.psig             3475.00:  SPP Min 
 SPPX.psig             3791.00:  SPP Max 
 STIM.      07.08.48 13-May-20:  Start Time 
 SVCS.                 DD, MWD:  Services 
 SVER.                    9.20:  Sperry Version 
 TDAT.m                 363.00:  Tot Depth Attmp 
 TDDF.                      No:  Trip for DD 
 TDLG.m                 363.00:  Tot Depth Loggd 
 TFF .                      No:  Trip for Fail 
 TQAA.f-kp               20.00:  Torque Abs Avg 
 TQAN.f-kp               18.00:  Torque Abs Min 
 TQAX.f-kp               22.00:  Torque Abs Max 
 TRRT.°/30m              -0.35:  Turn Rotating 
 MRT .                    HCIM:  Maximum Recorded Temperature 
 TTMX.degC               92.16:  Max Tool Temp 
 VS01.                90586518:  Virtual Str1 SN 
 VS02.        AZ90560654Z1W1C6:  Virtual Str2 SN 
 VS03.           AZ90610398F11:  Virtual Str3 SN 
 VS04.                90514975:  Virtual Str4 SN 
 VS05.                90514972:  Virtual Str5 SN 
 VS06.     AZ90603282F11V7D1A6:  Virtual Str6 SN 
 WBMN.klb                 7.00:  WOB Min 
 WOBA.klb                12.00:  WOB Avg 
 WOBX.klb                14.00:  WOB Max 
 YP  .lhf2               32.00:  Yield Point 
~Curve Information Block
#MNEM.UNIT                 API CODE     Curve Description
#---------               -----------    ---------------------------
 TIME.HHMMSS            00 000 000 000:  GT Time & Date
 GTDEPTH.m              00 000 000 000:  GT Depth
 GTPQH.psia             00 000 000 000:  GT HR Quartz Pressure
 GTTQ.degC              00 000 000 000:  GT Quartz Temperature
 GTTN.NONE              00 000 000 000:  GT Test Number
 GTET.sec               00 000 000 000:  GT Elapsed Test Time
 GTTVD.m                00 000 000 000:  GT True Vertical Depth
#Other Information
#
#WARRANTY: Halliburton will use its best efforts to furnish customers with 
#accurate information and interpretations that are part of, and incident to, the services 
#provided.  However, Halliburton cannot and does not warrant the accuracy 
#or correctness of such information and interpretations.  Under no circumstances should any 
#such information or interpretation be relied upon as the sole basis for any drilling, 
#completion, production, or financial decision or any procedure involving any risk to the 
#safety of any drilling venture, drilling rig or its crew or any other third party.  The 
#Customer has full responsibility for all drilling, completion and production operation.  
#Halliburton makes no representations or warranties, either expressed or 
#implied, including, but not limited to, the implied warranties of merchantability or fitness 
#for a particular purpose, with respect to the services rendered.  In no event will 
#Halliburton be liable for failure to obtain any particular results or for 
#any damages, including, but not limited to, indirect, special or consequential damages, 
#resulting from the use of any information or interpretation provided by Halliburton.
#
~A           TIME           GTDEPTH  GTPQH  GTTQ  GTTN  GTET   GTTVD  
# ...
   23:40:12.966.17-May-2020 4902.01 3402.07 66.32 9.00 206.89 2567.50
   23:40:13.166.17-May-2020 4902.01 3402.07 66.32 9.00 207.09 2567.50
   23:40:13.366.17-May-2020 4902.01 3405.51 66.32 9.00 207.29 2567.50
   23:40:13.566.17-May-2020 4902.01 3405.81 66.32 9.00 207.49 2567.50
   23:40:13.765.17-May-2020 4902.01 3406.84 66.32 9.00 207.69 2567.50
   23:40:13.965.17-May-2020 4902.01 3408.19 66.32 9.00 207.89 2567.50
   23:40:14.165.17-May-2020 4902.01 3408.19 66.32 9.00 208.09 2567.50
   23:40:14.365.17-May-2020 4902.01 3408.86 66.32 9.00 208.29 2567.50
   23:40:14.565.17-May-2020 4902.01 3409.93 66.32 9.00 208.49 2567.50
   23:40:14.765.17-May-2020 4902.01 3411.87 66.32 9.00 208.69 2567.50
   23:40:14.965.17-May-2020 4902.01 3412.00 66.32 9.00 208.89 2567.50
   23:40:15.165.17-May-2020 4902.01 3412.00 66.32 9.00 209.09 2567.50
   23:40:15.365.17-May-2020 4902.01 3414.86 66.32 9.00 209.29 2567.50
   23:40:15.564.17-May-2020 4902.01 3416.92 66.32 9.00 209.49 2567.50
   23:40:15.764.17-May-2020 4902.01 3417.12 66.32 9.00 209.69 2567.50
   23:40:15.964.17-May-2020 4902.01 3418.32 66.32 9.00 209.89 2567.50
   23:40:16.164.17-May-2020 4902.01 3418.32 66.32 9.00 210.09 2567.50
   23:40:16.364.17-May-2020 4902.01 3421.88 66.32 9.00 210.29 2567.50
   23:40:16.564.17-May-2020 4902.01 3423.83 66.32 9.00 210.49 2567.50
   23:40:16.764.17-May-2020 4902.01 3425.12 66.32 9.00 210.69 2567.50
   23:40:16.964.17-May-2020 4902.01 3426.71 66.32 9.00 210.89 2567.50
   23:40:17.164.17-May-2020 4902.01 3426.71 66.32 9.00 211.09 2567.50
   23:40:17.364.17-May-2020 4902.01 3429.47 66.31 9.00 211.29 2567.50
   23:40:17.563.17-May-2020 4902.01 3430.81 66.32 9.00 211.49 2567.50
   23:40:17.763.17-May-2020 4902.01 3431.31 66.31 9.00 211.69 2567.50
   23:40:17.963.17-May-2020 4902.01 3431.88 66.31 9.00 211.89 2567.50
   23:40:18.163.17-May-2020 4902.01 3431.88 66.31 9.00 212.09 2567.50
   23:40:18.363.17-May-2020 4902.01 3434.30 66.31 9.00 212.29 2567.50
   23:40:18.563.17-May-2020 4902.01 3435.88 66.31 9.00 212.49 2567.50
   23:40:18.763.17-May-2020 4902.01 3437.62 66.31 9.00 212.69 2567.50
   23:40:18.963.17-May-2020 4902.01 3438.83 66.31 9.00 212.89 2567.50
   23:40:19.163.17-May-2020 4902.01 3438.83 66.31 9.00 213.09 2567.50
   23:40:19.363.17-May-2020 4902.01 3441.71 66.31 9.00 213.29 2567.50
   23:40:19.562.17-May-2020 4902.01 3443.04 66.31 9.00 213.49 2567.50
   23:40:19.762.17-May-2020 4902.01 3444.29 66.31 9.00 213.69 2567.50
   23:40:19.962.17-May-2020 4902.01 3443.71 66.31 9.00 213.89 2567.50
   23:40:20.162.17-May-2020 4902.01 3443.71 66.31 9.00 214.09 2567.50
   23:40:20.362.17-May-2020 4902.01 3445.94 66.31 9.00 214.29 2567.50
   23:40:20.562.17-May-2020 4902.01 3445.96 66.31 9.00 214.49 2567.50
   23:40:20.762.17-May-2020 4902.01 3446.46 66.31 9.00 214.69 2567.50
   23:40:20.962.17-May-2020 4902.01 3447.11 66.31 9.00 214.89 2567.50
   23:40:21.162.17-May-2020 4902.01 3447.11 66.31 9.00 215.09 2567.50
   23:40:21.362.17-May-2020 4902.01 3449.49 66.31 9.00 215.29 2567.50
   23:40:21.561.17-May-2020 4902.01 3449.79 66.31 9.00 215.49 2567.50
   23:40:21.761.17-May-2020 4902.01 3450.77 66.31 9.00 215.69 2567.50
   23:40:21.961.17-May-2020 4902.01 3452.72 66.31 9.00 215.89 2567.50
   23:40:22.161.17-May-2020 4902.01 3452.72 66.31 9.00 216.09 2567.50
   23:40:22.361.17-May-2020 4902.01 3453.95 66.31 9.00 216.29 2567.50
   23:40:22.561.17-May-2020 4902.01 3454.39 66.31 9.00 216.49 2567.50
   23:40:22.761.17-May-2020 4902.01 3455.84 66.31 9.00 216.69 2567.50
   23:40:22.961.17-May-2020 4902.01 3456.72 66.31 9.00 216.89 2567.50
   23:40:23.161.17-May-2020 4902.01 3456.72 66.31 9.00 217.09 2567.50
   23:40:23.360.17-May-2020 4902.01 3459.64 66.31 9.00 217.29 2567.50
   23:40:23.560.17-May-2020 4902.01 3460.78 66.31 9.00 217.49 2567.50
   23:40:23.760.17-May-2020 4902.01 3462.05 66.31 9.00 217.69 2567.50
   23:40:23.960.17-May-2020 4902.01 3463.27 66.31 9.00 217.89 2567.50
   23:40:24.160.17-May-2020 4902.01 3463.27 66.31 9.00 218.09 2567.50
   23:40:24.360.17-May-2020 4902.01 3465.65 66.31 9.00 218.29 2567.50
   23:40:24.560.17-May-2020 4902.01 3464.50 66.31 9.00 218.49 2567.50
   23:40:24.760.17-May-2020 4902.01 3464.61 66.31 9.00 218.69 2567.50
   23:40:24.960.17-May-2020 4902.01 3466.43 66.31 9.00 218.89 2567.50
   23:40:25.160.17-May-2020 4902.01 3466.43 66.31 9.00 219.09 2567.50
   23:40:25.359.17-May-2020 4902.01 3468.97 66.31 9.00 219.29 2567.50
   23:40:25.559.17-May-2020 4902.01 3469.91 66.31 9.00 219.49 2567.50
   23:40:25.759.17-May-2020 4902.01 3471.38 66.31 9.00 219.69 2567.50
   23:40:25.959.17-May-2020 4902.01 3472.41 66.31 9.00 219.89 2567.50
   23:40:26.159.17-May-2020 4902.01 3472.41 66.31 9.00 220.09 2567.50
   23:40:26.359.17-May-2020 4902.01 3474.63 66.31 9.00 220.29 2567.50
   23:40:26.559.17-May-2020 4902.01 3474.38 66.31 9.00 220.49 2567.50
   23:40:26.759.17-May-2020 4902.01 3474.71 66.31 9.00 220.69 2567.50
   23:40:26.959.17-May-2020 4902.01 3475.36 66.31 9.00 220.89 2567.50
   23:40:27.159.17-May-2020 4902.01 3475.36 66.31 9.00 221.09 2567.50
   23:40:27.358.17-May-2020 4902.01 3476.08 66.31 9.00 221.29 2567.50
   23:40:27.558.17-May-2020 4902.01 3476.52 66.31 9.00 221.49 2567.50
   23:40:27.758.17-May-2020 4902.01 3477.56 66.31 9.00 221.69 2567.50
   23:40:27.958.17-May-2020 4902.01 3478.52 66.31 9.00 221.89 2567.50
   23:40:28.158.17-May-2020 4902.01 3478.52 66.31 9.00 222.09 2567.50
   23:40:28.358.17-May-2020 4902.01 3479.53 66.31 9.00 222.29 2567.50
   23:40:28.558.17-May-2020 4902.01 3480.12 66.31 9.00 222.49 2567.50
   23:40:28.758.17-May-2020 4902.01 3481.50 66.31 9.00 222.69 2567.50
   23:40:28.958.17-May-2020 4902.01 3482.71 66.31 9.00 222.89 2567.50
   23:40:29.158.17-May-2020 4902.01 3482.71 66.31 9.00 223.09 2567.50
   23:40:29.357.17-May-2020 4902.01 3483.38 66.31 9.00 223.29 2567.50
   23:40:29.557.17-May-2020 4902.01 3484.87 66.31 9.00 223.49 2567.50
   23:40:29.757.17-May-2020 4902.01 3485.82 66.31 9.00 223.69 2567.50
   23:40:29.957.17-May-2020 4902.01 3487.02 66.31 9.00 223.89 2567.50
   23:40:30.157.17-May-2020 4902.01 3487.02 66.31 9.00 224.09 2567.50
   23:40:30.357.17-May-2020 4902.01 3489.26 66.31 9.00 224.28 2567.50
   23:40:30.557.17-May-2020 4902.01 3490.47 66.31 9.00 224.48 2567.50
   23:40:30.757.17-May-2020 4902.01 3491.46 66.31 9.00 224.68 2567.50
   23:40:30.957.17-May-2020 4902.01 3492.46 66.31 9.00 224.88 2567.50
   23:40:31.156.17-May-2020 4902.01 3492.46 66.31 9.00 225.08 2567.50
   23:40:31.356.17-May-2020 4902.01 3492.20 66.31 9.00 225.28 2567.50
   23:40:31.556.17-May-2020 4902.01 3492.78 66.31 9.00 225.48 2567.50
   23:40:31.756.17-May-2020 4902.01 3494.19 66.31 9.00 225.68 2567.50
   23:40:31.956.17-May-2020 4902.01 3495.15 66.31 9.00 225.88 2567.50
   23:40:32.156.17-May-2020 4902.01 3495.15 66.31 9.00 226.08 2567.50
   23:40:32.356.17-May-2020 4902.01 3496.66 66.31 9.00 226.28 2567.50
   23:40:32.556.17-May-2020 4902.01 3497.95 66.31 9.00 226.48 2567.50
   23:40:32.756.17-May-2020 4902.01 3498.88 66.31 9.00 226.68 2567.50
   23:40:32.956.17-May-2020 4902.01 3499.78 66.31 9.00 226.88 2567.50
   23:40:33.155.17-May-2020 4902.01 3499.78 66.31 9.00 227.08 2567.50
   23:40:33.355.17-May-2020 4902.01 3500.19 66.31 9.00 227.28 2567.50
   23:40:33.555.17-May-2020 4902.01 3500.52 66.31 9.00 227.48 2567.50
   23:40:33.755.17-May-2020 4902.01 3501.06 66.31 9.00 227.68 2567.50
   23:40:33.955.17-May-2020 4902.01 3502.07 66.31 9.00 227.88 2567.50
   23:40:34.155.17-May-2020 4902.01 3502.07 66.31 9.00 228.08 2567.50
   23:40:34.355.17-May-2020 4902.01 3502.36 66.31 9.00 228.28 2567.50
   23:40:34.555.17-May-2020 4902.01 3501.59 66.31 9.00 228.48 2567.50
   23:40:34.755.17-May-2020 4902.01 3503.38 66.31 9.00 228.68 2567.50
   23:40:34.955.17-May-2020 4902.01 3502.23 66.31 9.00 228.88 2567.50
   23:40:35.154.17-May-2020 4902.01 3502.23 66.31 9.00 229.08 2567.50
   23:40:35.354.17-May-2020 4902.01 3502.73 66.31 9.00 229.28 2567.50
   23:40:35.554.17-May-2020 4902.01 3504.06 66.31 9.00 229.48 2567.50
   23:40:35.754.17-May-2020 4902.01 3505.21 66.31 9.00 229.68 2567.50
