~Version Information
 VERS.                  2.0:   CWLS log ASCII Standard -VERSION 2.0
 WRAP.                   NO:   One line per depth step
~Well Information Block
#MNEM.UNIT     VALUE/NAME     DESCRIPTION
#---------     -----------    ---------------------------
 STRT.S             22:05:00 17-May-20: START TIME 22:05:00 17-May-20
 STOP.S             22:12:03 17-May-20: STOP TIME  22:12:03 17-May-20
 STEP.S                   0.00: STEP TIME
 NULL.                 -999.25: NULL VALUE
 UNIT.                     N/A:  LOGGING EQUIPMENT ID
 DCON.         Sperry Drilling:  DIRECTNL CONTR
 DOE .                     N/A:  DOE NUMBER
 JOBN.        AZ-XX-0906252240:  JOB TICKET NUMB
 MWDS.                     N/A:  MWD SHOP
 PROV.                    Baku:  PROVINCE
 STAT.                    Baku:  STATE NAME
 REGN.                   EESSA:  REGION
 BASE.              Azerbaijan:  LOGGING EQUIPMENT BASE LOCATION
 UWI .                     N/A:  UNIQUE WELL IDENTIFIER
 API .                     N/A:  API NUMBER
 MDS .        Operator Entered:  MAG DATA SOURCE
 WTYP.                Deviated:  WELL TYPE
 COMP.     BP Exploration (Caspian Sea) Ltd.:  COMPANY
 SRVC.          Turan Drilling:  CONTRACTOR
 WELL.           J23 (Slot 07):  WELL NAME
 CTRY.              Azerbaijan:  COUNTRY NAME
 FLD .                     ACG:  FIELD NAME
 PDAT.          Mean Sea Level:  PERMANENT DATUM
 RIG .             West Chirag:  RIG NAME
 SON .        AZ-XX-0906252240:  JOB NUMBER
 FTOP.          Formation Tops:  FORM TOPS DESC
 ILTD.               Lithology:  INTERP LTH DESC
 SVYD.                  Survey:  SURVEY DESC
 DMOD.             Drill Model:  DRILL MOD DESC
 HPTY.       Minimum Curvature:  HOLE POS TYPE
 NREF.                    Grid:  NORTH REFERENCE
 SPUD.               27-Aug-20:  SPUD DATE
 DATE.      00.00.00 19-May-20:  END TIME
 STIM.      03.00.00 25-Mar-20:  START TIME
 DMF .             Drill Floor:  DRILL MEAS FROM
 DFST.                        :  DIST FSL TEXT
 DFWT.                        :  DIST FWL TEXT
 CNTY.                        :  COUNTY
 LOC .                        :  LOCATION
 LMF .             Drill Floor:  LOG MEASURED FROM
 VSNS.m                   9.43:  VERT SEC N/S
 VSEW.m                  -8.91:  VERT SEC E/W
 AGAP.m                  43.00:  AIR GAP
 DEP .m                 354.17:  DEPTH
 APD .m                  43.00:  DEPTH ABOVE PD
 WDMS.m                 169.80:  WD ELEV
 EGL .m                   0.00:  GROUND ELEVATION
 EPD .m                   0.00:  ELEVATION
 AZTC.deg                 6.31:  AZM TOTAL CORR
 GRDC.deg                 0.14:  GRID CORRECTION
 MDEC.deg                 6.45:  MAGNETIC DECL
 MDIP.deg                59.56:  MAGNETIC DIP
 MFLD.nT              50295.00:  MAGNETIC FIELD
 GVFD.g                   1.00:  GRAVITY FIELD
 VSDR.deg               179.88:  VERT SEC DIRECT
 TDD .m                5150.01:  TOTAL DEPTH (DRILLER)
 SDEP.m                 864.00:  START DEPTH
 DFSL.m                   0.00:  DISTANCE FSL
 DFWL.m                   0.00:  DISTANCE FWL
 UTMY.m             4443793.85:  UTM Y
 UTMX.m              519005.06:  UTM X
 WHEW.m                  -8.91:  WELL HEAD E/W
 WHNS.m                   9.43:  WELL HEAD N/S
 LONG.deg                51.22:  LONGITUDE
 LATI.deg                40.13:  LATITUDE
 TVDS.m                  43.00:  TVDSS CORRECTN
 EKB .m                   0.00:  KB ELEVATION
 EDF .m                  43.00:  DF ELEVATION
 TDL .m                 363.00:  TOTAL DEPTH (LOGGER)
 MAGU.                 1850802:  MAGUTM CHECKSUM
 VSC .                       0:  VS TO CLOSURE
~Parameter Information Block
#MNEM.UNIT       Value        Description
#---------     -----------    ---------------------------
 AV  .mps                 2.30:  Ann Velocity 
 AVMX.mps                 4.40:  Max Ann Veloc 
 AZIF.deg               110.24:  Azm, Final 
 BHAT.        Rotary Steerable:  BHA Type 
 BREV.rev               331.00:  Rev Bit Total 
 BROT.°/30m               0.00:  Build Rotating 
 BS  .in                  8.50:  Bit Size 
 BSZ .in                  8.50:  Bit Size 
 BTPL.psig              585.00:  Bit Press Loss 
 CABU.                     Yes:  Customer Abuse 
 COMM.                     íe:  Run Comments 1 
 TCS .hr                122.75:  Time Ciculation Ended 
 CV  .mps                 2.67:  Crit Velocity 
 CVMX.mps                 3.56:  Max Crit Veloc 
 DD1 .          Rashad Habibov:  Direct Drillr 1 
 DD2 .         Rasim Ibrahimov:  Direct Drillr 2 
 DDSV.               Geo-Pilot:  DD Service 
 DEFF.%                  98.00:  % Det Eff 
 DLRX.°/30m               0.75:  Dogleg Rot Max 
 DLSO.°/30m               1.25:  Dogleg Oriented 
 DLSX.°/30m               2.06:  Dogleg Str Max 
 DRET.      07.45.00 17-May-20:  Drill End Time 
 DRST.      22.50.00 15-May-20:  Drill Start Tim 
 DTIM.hr                 20.75:  Time Drilling 
 EDEP.m                5124.01:  End Depth 
 ENG1.           Eldar Hajiyev:  Engineer 1 
 ENG2.        Marcelo Sandoval:  Engineer 2 
 ENG3.        Davud huseynzada:  Engineer 3 
 ENG4.          Ruslan Safarov:  Engineer 4 
 ETIM.      04.33.00 23-May-20:  End Time 
 FLOI.gpm               450.00:  Flow In 
 FLON.gpm               400.00:  Flow In Min 
 FLOS.cptm                0.00:  Fluid Loss 
 FLOX.gpm               500.00:  Flow In Max 
 FTRO.       Formation Presure:  FTWD Run Obj 
 HFLO.                      No:  High Flow 
 HPRE.                     Yes:  High Pressure 
 HTEM.                      No:  High Temp 
 HYDO.m                   1.80:  Hydro Offset 
 IFIN.deg                75.06:  Inc, Final 
 IMAX.deg                75.38:  Inc Max 
 IMIN.deg                74.69:  Inc Min 
 IMND.m                5027.38:  Inc Min Depth 
 IMXD.m                4771.61:  Inc Max Depth 
 JARR.                      No:  Jarring 
 LETM.      07.45.00 17-May-20:  Log End Time 
 LOST.hr                     0:  Lost Rig Time 
 LSTM.      22.50.00 15-May-20:  Log Start Time 
 MDCL.ppm             42000.00:  Mud Chlorides 
 MDES.     Inversion Oil/Synthetic:  Mud Desc 
 DFD .sg                  1.34:  Mud Density 
 MDMN.sg                  1.34:  Dens Mud Min 
 MDMX.sg                  1.34:  Dens Mud Max 
 MOIL.                       0:  Run Mud Oil % 
 MOWR.                   67:33:  Run Mud OWR 
 MSND.                       0:  Run Mud Sand % 
 MSOL.                     1.8:  Run Mud Solids% 
 DFV .spqt               76.00:  Mud Viscosity 
 MWOD.in                  6.75:  MWD Tool OD 
 MWSI.                      No:  Serv Intrp, MWD 
 OTIM.hr                228.19:  Time Operating 
 PCON.           Look Like New:  Pad Condition 
 PMAX.psia             6164.70:  Press Op, Max 
 PV  .cP                 28.00:  Mud PV 
 RUN .                     900:  Run Number 
 ROPA.m/hr               19.00:  ROP Avg 
 ROPN.m/hr               11.00:  ROP Min 
 ROPX.m/hr               36.00:  ROP Max 
 RPMA.rpm               120.00:  RPM Surface Avg 
 RPMN.rpm               120.00:  RPM Surface Min 
 RPMX.rpm               120.00:  RPM Surface Max 
 RRUN.                    L604:  Rig Run Number 
 RTIM.hr                  7.00:  Time Reaming 
 SAZI.deg               109.27:  Azm, Start 
 SDEP.m                4761.01:  Start Depth 
 SIDD.                      No:  Serv Intrp, DD 
 SINC.deg                75.38:  Inc, Start 
 SPPA.psig             3574.00:  SPP Avg 
 SPPN.psig             3475.00:  SPP Min 
 SPPX.psig             3791.00:  SPP Max 
 STIM.      07.08.48 13-May-20:  Start Time 
 SVCS.                 DD, MWD:  Services 
 SVER.                    9.20:  Sperry Version 
 TDAT.m                 363.00:  Tot Depth Attmp 
 TDDF.                      No:  Trip for DD 
 TDLG.m                 363.00:  Tot Depth Loggd 
 TFF .                      No:  Trip for Fail 
 TQAA.f-kp               20.00:  Torque Abs Avg 
 TQAN.f-kp               18.00:  Torque Abs Min 
 TQAX.f-kp               22.00:  Torque Abs Max 
 TRRT.°/30m              -0.35:  Turn Rotating 
 MRT .                    HCIM:  Maximum Recorded Temperature 
 TTMX.degC               92.16:  Max Tool Temp 
 VS01.                90586518:  Virtual Str1 SN 
 VS02.        AZ90560654Z1W1C6:  Virtual Str2 SN 
 VS03.           AZ90610398F11:  Virtual Str3 SN 
 VS04.                90514975:  Virtual Str4 SN 
 VS05.                90514972:  Virtual Str5 SN 
 VS06.     AZ90603282F11V7D1A6:  Virtual Str6 SN 
 WBMN.klb                 7.00:  WOB Min 
 WOBA.klb                12.00:  WOB Avg 
 WOBX.klb                14.00:  WOB Max 
 YP  .lhf2               32.00:  Yield Point 
~Curve Information Block
#MNEM.UNIT                 API CODE     Curve Description
#---------               -----------    ---------------------------
 TIME.HHMMSS            00 000 000 000:  GT Time & Date
 GTDEPTH.m              00 000 000 000:  GT Depth
 GTPQH.psia             00 000 000 000:  GT HR Quartz Pressure
 GTTQ.degC              00 000 000 000:  GT Quartz Temperature
 GTTN.NONE              00 000 000 000:  GT Test Number
 GTET.sec               00 000 000 000:  GT Elapsed Test Time
 GTTVD.m                00 000 000 000:  GT True Vertical Depth
#Other Information
#
#WARRANTY: Halliburton will use its best efforts to furnish customers with 
#accurate information and interpretations that are part of, and incident to, the services 
#provided.  However, Halliburton cannot and does not warrant the accuracy 
#or correctness of such information and interpretations.  Under no circumstances should any 
#such information or interpretation be relied upon as the sole basis for any drilling, 
#completion, production, or financial decision or any procedure involving any risk to the 
#safety of any drilling venture, drilling rig or its crew or any other third party.  The 
#Customer has full responsibility for all drilling, completion and production operation.  
#Halliburton makes no representations or warranties, either expressed or 
#implied, including, but not limited to, the implied warranties of merchantability or fitness 
#for a particular purpose, with respect to the services rendered.  In no event will 
#Halliburton be liable for failure to obtain any particular results or for 
#any damages, including, but not limited to, indirect, special or consequential damages, 
#resulting from the use of any information or interpretation provided by Halliburton.
#
~A           TIME           GTDEPTH  GTPQH  GTTQ  GTTN  GTET   GTTVD  
# ...
   22:08:51.214.17-May-2020 4937.01 2932.05 67.65 7.00 230.42 2576.47
   22:08:51.414.17-May-2020 4937.01 2932.03 67.65 7.00 230.62 2576.47
   22:08:51.614.17-May-2020 4937.01 2932.03 67.65 7.00 230.82 2576.47
   22:08:51.815.17-May-2020 4937.01 2932.03 67.65 7.00 231.02 2576.47
   22:08:52.015.17-May-2020 4937.01 2932.04 67.65 7.00 231.22 2576.47
   22:08:52.216.17-May-2020 4937.01 2932.03 67.65 7.00 231.42 2576.47
   22:08:52.416.17-May-2020 4937.01 2932.03 67.65 7.00 231.62 2576.47
   22:08:52.616.17-May-2020 4937.01 2932.06 67.65 7.00 231.83 2576.47
   22:08:52.817.17-May-2020 4937.01 2932.04 67.65 7.00 232.03 2576.47
   22:08:53.017.17-May-2020 4937.01 2932.11 67.65 7.00 232.23 2576.47
   22:08:53.217.17-May-2020 4937.01 2932.00 67.65 7.00 232.43 2576.47
   22:08:53.418.17-May-2020 4937.01 2932.00 67.65 7.00 232.63 2576.47
   22:08:53.618.17-May-2020 4937.01 2932.03 67.65 7.00 232.83 2576.47
   22:08:53.819.17-May-2020 4937.01 2932.04 67.65 7.00 233.03 2576.47
   22:08:54.019.17-May-2020 4937.01 2932.03 67.65 7.00 233.23 2576.47
   22:08:54.219.17-May-2020 4937.01 2932.04 67.65 7.00 233.43 2576.47
   22:08:54.420.17-May-2020 4937.01 2932.04 67.65 7.00 233.63 2576.47
   22:08:54.620.17-May-2020 4937.01 2932.13 67.65 7.00 233.83 2576.47
   22:08:54.820.17-May-2020 4937.01 2931.98 67.65 7.00 234.03 2576.47
   22:08:55.021.17-May-2020 4937.01 2932.11 67.65 7.00 234.23 2576.47
   22:08:55.221.17-May-2020 4937.01 2932.00 67.65 7.00 234.43 2576.47
   22:08:55.421.17-May-2020 4937.01 2932.05 67.65 7.00 234.63 2576.47
   22:08:55.622.17-May-2020 4937.01 2932.06 67.65 7.00 234.83 2576.47
   22:08:55.822.17-May-2020 4937.01 2932.11 67.65 7.00 235.03 2576.47
   22:08:56.023.17-May-2020 4937.01 2932.00 67.65 7.00 235.23 2576.47
   22:08:56.223.17-May-2020 4937.01 2932.05 67.65 7.00 235.43 2576.47
   22:08:56.423.17-May-2020 4937.01 2932.05 67.65 7.00 235.63 2576.47
   22:08:56.624.17-May-2020 4937.01 2932.00 67.65 7.00 235.83 2576.47
   22:08:56.824.17-May-2020 4937.01 2932.11 67.65 7.00 236.03 2576.47
   22:08:57.024.17-May-2020 4937.01 2932.01 67.65 7.00 236.23 2576.47
   22:08:57.225.17-May-2020 4937.01 2932.05 67.65 7.00 236.43 2576.47
   22:08:57.425.17-May-2020 4937.01 2932.05 67.65 7.00 236.63 2576.47
   22:08:57.626.17-May-2020 4937.01 2931.94 67.65 7.00 236.83 2576.47
   22:08:57.826.17-May-2020 4937.01 2932.11 67.65 7.00 237.03 2576.47
   22:08:58.026.17-May-2020 4937.01 2932.00 67.65 7.00 237.24 2576.47
   22:08:58.227.17-May-2020 4937.01 2932.04 67.65 7.00 237.44 2576.47
   22:08:58.427.17-May-2020 4937.01 2932.04 67.65 7.00 237.64 2576.47
   22:08:58.627.17-May-2020 4937.01 2932.03 67.65 7.00 237.84 2576.47
   22:08:58.828.17-May-2020 4937.01 2932.03 67.65 7.00 238.04 2576.47
   22:08:59.028.17-May-2020 4937.01 2932.04 67.65 7.00 238.24 2576.47
   22:08:59.228.17-May-2020 4937.01 2932.03 67.65 7.00 238.44 2576.47
   22:08:59.429.17-May-2020 4937.01 2932.04 67.65 7.00 238.64 2576.47
   22:08:59.629.17-May-2020 4937.01 2932.08 67.65 7.00 238.84 2576.47
   22:08:59.830.17-May-2020 4937.01 2932.03 67.65 7.00 239.04 2576.47
   22:09:00.030.17-May-2020 4937.01 2932.06 67.65 7.00 239.24 2576.47
   22:09:00.230.17-May-2020 4937.01 2932.02 67.65 7.00 239.44 2576.47
   22:09:00.431.17-May-2020 4937.01 2932.02 67.65 7.00 239.64 2576.47
   22:09:00.631.17-May-2020 4937.01 2932.03 67.65 7.00 239.84 2576.47
   22:09:00.831.17-May-2020 4937.01 2932.03 67.65 7.00 240.04 2576.47
   22:09:01.032.17-May-2020 4937.01 2932.03 67.65 7.00 240.24 2576.47
   22:09:01.232.17-May-2020 4937.01 2932.04 67.65 7.00 240.44 2576.47
   22:09:01.433.17-May-2020 4937.01 2932.04 67.65 7.00 240.64 2576.47
   22:09:01.633.17-May-2020 4937.01 2932.16 67.65 7.00 240.84 2576.47
   22:09:01.833.17-May-2020 4937.01 2931.95 67.65 7.00 241.04 2576.47
   22:09:02.034.17-May-2020 4937.01 2932.11 67.65 7.00 241.24 2576.47
   22:09:02.234.17-May-2020 4937.01 2932.02 67.65 7.00 241.44 2576.47
   22:09:02.434.17-May-2020 4937.01 2932.02 67.65 7.00 241.64 2576.47
   22:09:02.635.17-May-2020 4937.01 2932.01 67.65 7.00 241.84 2576.47
   22:09:02.835.17-May-2020 4937.01 2932.06 67.65 7.00 242.04 2576.47
   22:09:03.035.17-May-2020 4937.01 2932.02 67.65 7.00 242.24 2576.47
   22:09:03.236.17-May-2020 4937.01 2932.03 67.65 7.00 242.44 2576.47
   22:09:03.436.17-May-2020 4937.01 2932.03 67.65 7.00 242.65 2576.47
   22:09:03.637.17-May-2020 4937.01 2932.07 67.65 7.00 242.85 2576.47
   22:09:03.837.17-May-2020 4937.01 2932.06 67.65 7.00 243.05 2576.47
   22:09:04.037.17-May-2020 4937.01 2932.03 67.65 7.00 243.25 2576.47
   22:09:04.238.17-May-2020 4937.01 2932.04 67.65 7.00 243.45 2576.47
   22:09:04.438.17-May-2020 4937.01 2932.04 67.65 7.00 243.65 2576.47
   22:09:04.638.17-May-2020 4937.01 2932.08 67.65 7.00 243.85 2576.47
   22:09:04.839.17-May-2020 4937.01 2932.10 67.65 7.00 244.05 2576.47
   22:09:05.039.17-May-2020 4937.01 2932.00 67.65 7.00 244.25 2576.47
   22:09:05.239.17-May-2020 4937.01 2932.04 67.64 7.00 244.45 2576.47
   22:09:05.440.17-May-2020 4937.01 2932.04 67.64 7.00 244.65 2576.47
   22:09:05.640.17-May-2020 4937.01 2932.03 67.64 7.00 244.85 2576.47
   22:09:05.841.17-May-2020 4937.01 2932.04 67.64 7.00 245.05 2576.47
   22:09:06.041.17-May-2020 4937.01 2932.04 67.64 7.00 245.25 2576.47
   22:09:06.241.17-May-2020 4937.01 2932.04 67.64 7.00 245.45 2576.47
   22:09:06.442.17-May-2020 4937.01 2932.04 67.64 7.00 245.65 2576.47
   22:09:06.642.17-May-2020 4937.01 2931.97 67.64 7.00 245.85 2576.47
   22:09:06.842.17-May-2020 4937.01 2932.06 67.64 7.00 246.05 2576.47
   22:09:07.043.17-May-2020 4937.01 2932.04 67.64 7.00 246.25 2576.47
   22:09:07.243.17-May-2020 4937.01 2932.04 67.64 7.00 246.45 2576.47
   22:09:07.444.17-May-2020 4937.01 2932.03 67.64 7.00 246.65 2576.47
   22:09:07.644.17-May-2020 4937.01 2932.03 67.64 7.00 246.85 2576.47
   22:09:07.844.17-May-2020 4937.01 2932.04 67.64 7.00 247.05 2576.47
   22:09:08.045.17-May-2020 4937.01 2932.03 67.64 7.00 247.25 2576.47
   22:09:08.245.17-May-2020 4937.01 2932.03 67.64 7.00 247.45 2576.47
   22:09:08.445.17-May-2020 4937.01 2932.03 67.64 7.00 247.65 2576.47
   22:09:08.646.17-May-2020 4937.01 2932.03 67.64 7.00 247.85 2576.47
   22:09:08.846.17-May-2020 4937.01 2932.07 67.64 7.00 248.05 2576.47
   22:09:09.046.17-May-2020 4937.01 2932.10 67.64 7.00 248.26 2576.47
   22:09:09.247.17-May-2020 4937.01 2932.14 67.64 7.00 248.46 2576.47
   22:09:09.447.17-May-2020 4937.01 2932.14 67.64 7.00 248.66 2576.47
   22:09:09.648.17-May-2020 4937.01 2932.07 67.64 7.00 248.86 2576.47
   22:09:09.848.17-May-2020 4937.01 2932.02 67.64 7.00 249.06 2576.47
   22:09:10.048.17-May-2020 4937.01 2932.04 67.64 7.00 249.26 2576.47
   22:09:10.249.17-May-2020 4937.01 2932.08 67.64 7.00 249.46 2576.47
   22:09:10.449.17-May-2020 4937.01 2932.08 67.64 7.00 249.66 2576.47
   22:09:10.649.17-May-2020 4937.01 2932.05 67.64 7.00 249.86 2576.47
   22:09:10.850.17-May-2020 4937.01 2932.04 67.64 7.00 250.06 2576.47
   22:09:11.050.17-May-2020 4937.01 2932.04 67.64 7.00 250.26 2576.47
   22:09:11.251.17-May-2020 4937.01 2932.06 67.64 7.00 250.46 2576.47
   22:09:11.451.17-May-2020 4937.01 2932.08 67.64 7.00 250.66 2576.47
   22:09:11.651.17-May-2020 4937.01 2932.03 67.64 7.00 250.86 2576.47
   22:09:11.852.17-May-2020 4937.01 2932.07 67.64 7.00 251.06 2576.47
   22:09:12.052.17-May-2020 4937.01 2932.02 67.64 7.00 251.26 2576.47
   22:09:12.252.17-May-2020 4937.01 2932.04 67.64 7.00 251.46 2576.47
   22:09:12.453.17-May-2020 4937.01 2932.04 67.64 7.00 251.66 2576.47
   22:09:12.653.17-May-2020 4937.01 2932.03 67.64 7.00 251.86 2576.47
   22:09:12.853.17-May-2020 4937.01 2932.04 67.64 7.00 252.06 2576.47
   22:09:13.054.17-May-2020 4937.01 2932.03 67.64 7.00 252.26 2576.47
   22:09:13.254.17-May-2020 4937.01 2932.03 67.64 7.00 252.46 2576.47
   22:09:13.455.17-May-2020 4937.01 2932.03 67.64 7.00 252.66 2576.47
   22:09:13.655.17-May-2020 4937.01 2931.96 67.64 7.00 252.86 2576.47
   22:09:13.855.17-May-2020 4937.01 2932.11 67.64 7.00 253.06 2576.47
   22:09:14.056.17-May-2020 4937.01 2931.99 67.64 7.00 253.26 2576.47
