~Version Information
 VERS.                  2.0:   CWLS log ASCII Standard -VERSION 2.0
 WRAP.                   NO:   One line per depth step
~Well Information Block
#MNEM.UNIT     VALUE/NAME     DESCRIPTION
#---------     -----------    ---------------------------
 STRT.S             16:14:41 17-May-20: START TIME 16:14:41 17-May-20
 STOP.S             16:21:36 17-May-20: STOP TIME  16:21:36 17-May-20
 STEP.S                   0.00: STEP TIME
 NULL.                 -999.25: NULL VALUE
 UNIT.                     N/A:  LOGGING EQUIPMENT ID
 DCON.         Sperry Drilling:  DIRECTNL CONTR
 DOE .                     N/A:  DOE NUMBER
 JOBN.        AZ-XX-0906252240:  JOB TICKET NUMB
 MWDS.                     N/A:  MWD SHOP
 PROV.                    Baku:  PROVINCE
 STAT.                    Baku:  STATE NAME
 REGN.                   EESSA:  REGION
 BASE.              Azerbaijan:  LOGGING EQUIPMENT BASE LOCATION
 UWI .                     N/A:  UNIQUE WELL IDENTIFIER
 API .                     N/A:  API NUMBER
 MDS .        Operator Entered:  MAG DATA SOURCE
 WTYP.                Deviated:  WELL TYPE
 COMP.     BP Exploration (Caspian Sea) Ltd.:  COMPANY
 SRVC.          Turan Drilling:  CONTRACTOR
 WELL.           J23 (Slot 07):  WELL NAME
 CTRY.              Azerbaijan:  COUNTRY NAME
 FLD .                     ACG:  FIELD NAME
 PDAT.          Mean Sea Level:  PERMANENT DATUM
 RIG .             West Chirag:  RIG NAME
 SON .        AZ-XX-0906252240:  JOB NUMBER
 FTOP.          Formation Tops:  FORM TOPS DESC
 ILTD.               Lithology:  INTERP LTH DESC
 SVYD.                  Survey:  SURVEY DESC
 DMOD.             Drill Model:  DRILL MOD DESC
 HPTY.       Minimum Curvature:  HOLE POS TYPE
 NREF.                    Grid:  NORTH REFERENCE
 SPUD.               27-Aug-20:  SPUD DATE
 DATE.      00.00.00 19-May-20:  END TIME
 STIM.      03.00.00 25-Mar-20:  START TIME
 DMF .             Drill Floor:  DRILL MEAS FROM
 DFST.                        :  DIST FSL TEXT
 DFWT.                        :  DIST FWL TEXT
 CNTY.                        :  COUNTY
 LOC .                        :  LOCATION
 LMF .             Drill Floor:  LOG MEASURED FROM
 VSNS.m                   9.43:  VERT SEC N/S
 VSEW.m                  -8.91:  VERT SEC E/W
 AGAP.m                  43.00:  AIR GAP
 DEP .m                 354.17:  DEPTH
 APD .m                  43.00:  DEPTH ABOVE PD
 WDMS.m                 169.80:  WD ELEV
 EGL .m                   0.00:  GROUND ELEVATION
 EPD .m                   0.00:  ELEVATION
 AZTC.deg                 6.31:  AZM TOTAL CORR
 GRDC.deg                 0.14:  GRID CORRECTION
 MDEC.deg                 6.45:  MAGNETIC DECL
 MDIP.deg                59.56:  MAGNETIC DIP
 MFLD.nT              50295.00:  MAGNETIC FIELD
 GVFD.g                   1.00:  GRAVITY FIELD
 VSDR.deg               179.88:  VERT SEC DIRECT
 TDD .m                5150.01:  TOTAL DEPTH (DRILLER)
 SDEP.m                 864.00:  START DEPTH
 DFSL.m                   0.00:  DISTANCE FSL
 DFWL.m                   0.00:  DISTANCE FWL
 UTMY.m             4443793.85:  UTM Y
 UTMX.m              519005.06:  UTM X
 WHEW.m                  -8.91:  WELL HEAD E/W
 WHNS.m                   9.43:  WELL HEAD N/S
 LONG.deg                51.22:  LONGITUDE
 LATI.deg                40.13:  LATITUDE
 TVDS.m                  43.00:  TVDSS CORRECTN
 EKB .m                   0.00:  KB ELEVATION
 EDF .m                  43.00:  DF ELEVATION
 TDL .m                 363.00:  TOTAL DEPTH (LOGGER)
 MAGU.                 1850802:  MAGUTM CHECKSUM
 VSC .                       0:  VS TO CLOSURE
~Parameter Information Block
#MNEM.UNIT       Value        Description
#---------     -----------    ---------------------------
 AV  .mps                 2.30:  Ann Velocity 
 AVMX.mps                 4.40:  Max Ann Veloc 
 AZIF.deg               110.24:  Azm, Final 
 BHAT.        Rotary Steerable:  BHA Type 
 BREV.rev               331.00:  Rev Bit Total 
 BROT.°/30m               0.00:  Build Rotating 
 BS  .in                  8.50:  Bit Size 
 BSZ .in                  8.50:  Bit Size 
 BTPL.psig              585.00:  Bit Press Loss 
 CABU.                     Yes:  Customer Abuse 
 COMM.                     ¿m:  Run Comments 1 
 TCS .hr                122.75:  Time Ciculation Ended 
 CV  .mps                 2.67:  Crit Velocity 
 CVMX.mps                 3.56:  Max Crit Veloc 
 DD1 .          Rashad Habibov:  Direct Drillr 1 
 DD2 .         Rasim Ibrahimov:  Direct Drillr 2 
 DDSV.               Geo-Pilot:  DD Service 
 DEFF.%                  98.00:  % Det Eff 
 DLRX.°/30m               0.75:  Dogleg Rot Max 
 DLSO.°/30m               1.25:  Dogleg Oriented 
 DLSX.°/30m               2.06:  Dogleg Str Max 
 DRET.      07.45.00 17-May-20:  Drill End Time 
 DRST.      22.50.00 15-May-20:  Drill Start Tim 
 DTIM.hr                 20.75:  Time Drilling 
 EDEP.m                5124.01:  End Depth 
 ENG1.           Eldar Hajiyev:  Engineer 1 
 ENG2.        Marcelo Sandoval:  Engineer 2 
 ENG3.        Davud huseynzada:  Engineer 3 
 ENG4.          Ruslan Safarov:  Engineer 4 
 ETIM.      04.33.00 23-May-20:  End Time 
 FLOI.gpm               450.00:  Flow In 
 FLON.gpm               400.00:  Flow In Min 
 FLOS.cptm                0.00:  Fluid Loss 
 FLOX.gpm               500.00:  Flow In Max 
 FTRO.       Formation Presure:  FTWD Run Obj 
 HFLO.                      No:  High Flow 
 HPRE.                     Yes:  High Pressure 
 HTEM.                      No:  High Temp 
 HYDO.m                   1.80:  Hydro Offset 
 IFIN.deg                75.06:  Inc, Final 
 IMAX.deg                75.38:  Inc Max 
 IMIN.deg                74.69:  Inc Min 
 IMND.m                5027.38:  Inc Min Depth 
 IMXD.m                4771.61:  Inc Max Depth 
 JARR.                      No:  Jarring 
 LETM.      07.45.00 17-May-20:  Log End Time 
 LOST.hr                     0:  Lost Rig Time 
 LSTM.      22.50.00 15-May-20:  Log Start Time 
 MDCL.ppm             42000.00:  Mud Chlorides 
 MDES.     Inversion Oil/Synthetic:  Mud Desc 
 DFD .sg                  1.34:  Mud Density 
 MDMN.sg                  1.34:  Dens Mud Min 
 MDMX.sg                  1.34:  Dens Mud Max 
 MOIL.                       0:  Run Mud Oil % 
 MOWR.                   67:33:  Run Mud OWR 
 MSND.                       0:  Run Mud Sand % 
 MSOL.                     1.8:  Run Mud Solids% 
 DFV .spqt               76.00:  Mud Viscosity 
 MWOD.in                  6.75:  MWD Tool OD 
 MWSI.                      No:  Serv Intrp, MWD 
 OTIM.hr                228.19:  Time Operating 
 PCON.           Look Like New:  Pad Condition 
 PMAX.psia             6164.70:  Press Op, Max 
 PV  .cP                 28.00:  Mud PV 
 RUN .                     900:  Run Number 
 ROPA.m/hr               19.00:  ROP Avg 
 ROPN.m/hr               11.00:  ROP Min 
 ROPX.m/hr               36.00:  ROP Max 
 RPMA.rpm               120.00:  RPM Surface Avg 
 RPMN.rpm               120.00:  RPM Surface Min 
 RPMX.rpm               120.00:  RPM Surface Max 
 RRUN.                    L604:  Rig Run Number 
 RTIM.hr                  7.00:  Time Reaming 
 SAZI.deg               109.27:  Azm, Start 
 SDEP.m                4761.01:  Start Depth 
 SIDD.                      No:  Serv Intrp, DD 
 SINC.deg                75.38:  Inc, Start 
 SPPA.psig             3574.00:  SPP Avg 
 SPPN.psig             3475.00:  SPP Min 
 SPPX.psig             3791.00:  SPP Max 
 STIM.      07.08.48 13-May-20:  Start Time 
 SVCS.                 DD, MWD:  Services 
 SVER.                    9.20:  Sperry Version 
 TDAT.m                 363.00:  Tot Depth Attmp 
 TDDF.                      No:  Trip for DD 
 TDLG.m                 363.00:  Tot Depth Loggd 
 TFF .                      No:  Trip for Fail 
 TQAA.f-kp               20.00:  Torque Abs Avg 
 TQAN.f-kp               18.00:  Torque Abs Min 
 TQAX.f-kp               22.00:  Torque Abs Max 
 TRRT.°/30m              -0.35:  Turn Rotating 
 MRT .                    HCIM:  Maximum Recorded Temperature 
 TTMX.degC               92.16:  Max Tool Temp 
 VS01.                90586518:  Virtual Str1 SN 
 VS02.        AZ90560654Z1W1C6:  Virtual Str2 SN 
 VS03.           AZ90610398F11:  Virtual Str3 SN 
 VS04.                90514975:  Virtual Str4 SN 
 VS05.                90514972:  Virtual Str5 SN 
 VS06.     AZ90603282F11V7D1A6:  Virtual Str6 SN 
 WBMN.klb                 7.00:  WOB Min 
 WOBA.klb                12.00:  WOB Avg 
 WOBX.klb                14.00:  WOB Max 
 YP  .lhf2               32.00:  Yield Point 
~Curve Information Block
#MNEM.UNIT                 API CODE     Curve Description
#---------               -----------    ---------------------------
 TIME.HHMMSS            00 000 000 000:  GT Time & Date
 GTDEPTH.m              00 000 000 000:  GT Depth
 GTPQH.psia             00 000 000 000:  GT HR Quartz Pressure
 GTTQ.degC              00 000 000 000:  GT Quartz Temperature
 GTTN.NONE              00 000 000 000:  GT Test Number
 GTET.sec               00 000 000 000:  GT Elapsed Test Time
 GTTVD.m                00 000 000 000:  GT True Vertical Depth
#Other Information
#
#WARRANTY: Halliburton will use its best efforts to furnish customers with 
#accurate information and interpretations that are part of, and incident to, the services 
#provided.  However, Halliburton cannot and does not warrant the accuracy 
#or correctness of such information and interpretations.  Under no circumstances should any 
#such information or interpretation be relied upon as the sole basis for any drilling, 
#completion, production, or financial decision or any procedure involving any risk to the 
#safety of any drilling venture, drilling rig or its crew or any other third party.  The 
#Customer has full responsibility for all drilling, completion and production operation.  
#Halliburton makes no representations or warranties, either expressed or 
#implied, including, but not limited to, the implied warranties of merchantability or fitness 
#for a particular purpose, with respect to the services rendered.  In no event will 
#Halliburton be liable for failure to obtain any particular results or for 
#any damages, including, but not limited to, indirect, special or consequential damages, 
#resulting from the use of any information or interpretation provided by Halliburton.
#
~A           TIME           GTDEPTH  GTPQH  GTTQ  GTTN  GTET   GTTVD  
# ...
   16:19:17.000.17-May-2020 5073.51 2645.96 71.27 2.00 276.00 2611.87
   16:19:17.200.17-May-2020 5073.51 2645.96 71.27 2.00 276.20 2611.87
   16:19:17.400.17-May-2020 5073.51 2645.55 71.27 2.00 276.40 2611.87
   16:19:17.600.17-May-2020 5073.51 2646.03 71.27 2.00 276.60 2611.87
   16:19:17.800.17-May-2020 5073.51 2645.85 71.27 2.00 276.80 2611.87
   16:19:18.000.17-May-2020 5073.51 2645.70 71.27 2.00 277.00 2611.87
   16:19:18.200.17-May-2020 5073.51 2645.70 71.27 2.00 277.20 2611.87
   16:19:18.400.17-May-2020 5073.51 2645.83 71.27 2.00 277.40 2611.87
   16:19:18.600.17-May-2020 5073.51 2645.92 71.27 2.00 277.60 2611.87
   16:19:18.800.17-May-2020 5073.51 2645.74 71.27 2.00 277.80 2611.87
   16:19:19.000.17-May-2020 5073.51 2645.75 71.27 2.00 278.00 2611.87
   16:19:19.200.17-May-2020 5073.51 2645.75 71.27 2.00 278.20 2611.87
   16:19:19.400.17-May-2020 5073.51 2646.02 71.27 2.00 278.40 2611.87
   16:19:19.600.17-May-2020 5073.51 2645.83 71.27 2.00 278.60 2611.87
   16:19:19.800.17-May-2020 5073.51 2645.74 71.27 2.00 278.80 2611.87
   16:19:20.000.17-May-2020 5073.51 2645.84 71.27 2.00 279.00 2611.87
   16:19:20.200.17-May-2020 5073.51 2645.86 71.27 2.00 279.20 2611.87
   16:19:20.400.17-May-2020 5073.51 2645.84 71.27 2.00 279.40 2611.87
   16:19:20.600.17-May-2020 5073.51 2645.80 71.27 2.00 279.60 2611.87
   16:19:20.800.17-May-2020 5073.51 2645.79 71.27 2.00 279.80 2611.87
   16:19:21.000.17-May-2020 5073.51 2645.82 71.27 2.00 280.00 2611.87
   16:19:21.200.17-May-2020 5073.51 2645.82 71.27 2.00 280.20 2611.87
   16:19:21.400.17-May-2020 5073.51 2645.92 71.27 2.00 280.40 2611.87
   16:19:21.600.17-May-2020 5073.51 2645.85 71.27 2.00 280.60 2611.87
   16:19:21.800.17-May-2020 5073.51 2645.73 71.27 2.00 280.80 2611.87
   16:19:22.000.17-May-2020 5073.51 2645.80 71.27 2.00 281.00 2611.87
   16:19:22.200.17-May-2020 5073.51 2645.80 71.27 2.00 281.20 2611.87
   16:19:22.400.17-May-2020 5073.51 2645.87 71.27 2.00 281.40 2611.87
   16:19:22.600.17-May-2020 5073.51 2645.83 71.27 2.00 281.60 2611.87
   16:19:22.800.17-May-2020 5073.51 2645.82 71.27 2.00 281.80 2611.87
   16:19:23.000.17-May-2020 5073.51 2645.83 71.27 2.00 282.00 2611.87
   16:19:23.200.17-May-2020 5073.51 2645.83 71.27 2.00 282.20 2611.87
   16:19:23.400.17-May-2020 5073.51 2645.83 71.27 2.00 282.40 2611.87
   16:19:23.600.17-May-2020 5073.51 2646.08 71.27 2.00 282.60 2611.87
   16:19:23.800.17-May-2020 5073.51 2645.69 71.27 2.00 282.80 2611.87
   16:19:24.000.17-May-2020 5073.51 2645.79 71.27 2.00 283.00 2611.87
   16:19:24.200.17-May-2020 5073.51 2645.79 71.27 2.00 283.20 2611.87
   16:19:24.400.17-May-2020 5073.51 2645.73 71.27 2.00 283.40 2611.87
   16:19:24.600.17-May-2020 5073.51 2645.85 71.27 2.00 283.60 2611.87
   16:19:24.800.17-May-2020 5073.51 2645.89 71.27 2.00 283.80 2611.87
   16:19:25.000.17-May-2020 5073.51 2645.85 71.27 2.00 284.00 2611.87
   16:19:25.200.17-May-2020 5073.51 2645.85 71.27 2.00 284.20 2611.87
   16:19:25.400.17-May-2020 5073.51 2645.87 71.27 2.00 284.40 2611.87
   16:19:25.600.17-May-2020 5073.51 2645.82 71.27 2.00 284.60 2611.87
   16:19:25.800.17-May-2020 5073.51 2645.82 71.27 2.00 284.80 2611.87
   16:19:26.000.17-May-2020 5073.51 2646.13 71.27 2.00 285.00 2611.87
   16:19:26.200.17-May-2020 5073.51 2646.13 71.27 2.00 285.20 2611.87
   16:19:26.400.17-May-2020 5073.51 2645.81 71.27 2.00 285.40 2611.87
   16:19:26.600.17-May-2020 5073.51 2645.88 71.27 2.00 285.60 2611.87
   16:19:26.800.17-May-2020 5073.51 2645.88 71.27 2.00 285.80 2611.87
   16:19:27.000.17-May-2020 5073.51 2645.88 71.27 2.00 286.00 2611.87
   16:19:27.200.17-May-2020 5073.51 2645.88 71.27 2.00 286.20 2611.87
   16:19:27.400.17-May-2020 5073.51 2645.83 71.27 2.00 286.40 2611.87
   16:19:27.600.17-May-2020 5073.51 2645.85 71.27 2.00 286.60 2611.87
   16:19:27.800.17-May-2020 5073.51 2645.86 71.27 2.00 286.80 2611.87
   16:19:28.000.17-May-2020 5073.51 2645.90 71.27 2.00 287.00 2611.87
   16:19:28.200.17-May-2020 5073.51 2645.96 71.27 2.00 287.20 2611.87
   16:19:28.400.17-May-2020 5073.51 2645.73 71.27 2.00 287.40 2611.87
   16:19:28.600.17-May-2020 5073.51 2645.86 71.27 2.00 287.60 2611.87
   16:19:28.800.17-May-2020 5073.51 2645.96 71.27 2.00 287.80 2611.87
   16:19:29.000.17-May-2020 5073.51 2645.88 71.27 2.00 288.00 2611.87
   16:19:29.200.17-May-2020 5073.51 2645.88 71.27 2.00 288.20 2611.87
   16:19:29.400.17-May-2020 5073.51 2645.84 71.26 2.00 288.40 2611.87
   16:19:29.600.17-May-2020 5073.51 2645.87 71.26 2.00 288.60 2611.87
   16:19:29.800.17-May-2020 5073.51 2645.89 71.26 2.00 288.80 2611.87
   16:19:30.000.17-May-2020 5073.51 2645.99 71.26 2.00 289.00 2611.87
   16:19:30.200.17-May-2020 5073.51 2645.99 71.26 2.00 289.20 2611.87
   16:19:30.400.17-May-2020 5073.51 2645.76 71.26 2.00 289.40 2611.87
   16:19:30.600.17-May-2020 5073.51 2645.93 71.26 2.00 289.60 2611.87
   16:19:30.800.17-May-2020 5073.51 2646.04 71.26 2.00 289.80 2611.87
   16:19:31.000.17-May-2020 5073.51 2645.82 71.26 2.00 290.00 2611.87
   16:19:31.200.17-May-2020 5073.51 2645.82 71.26 2.00 290.20 2611.87
   16:19:31.400.17-May-2020 5073.51 2645.93 71.26 2.00 290.40 2611.87
   16:19:31.600.17-May-2020 5073.51 2645.75 71.26 2.00 290.60 2611.87
   16:19:31.800.17-May-2020 5073.51 2646.14 71.26 2.00 290.80 2611.87
   16:19:32.000.17-May-2020 5073.51 2645.82 71.26 2.00 291.00 2611.87
   16:19:32.200.17-May-2020 5073.51 2645.83 71.26 2.00 291.20 2611.87
   16:19:32.400.17-May-2020 5073.51 2646.06 71.26 2.00 291.40 2611.87
   16:19:32.600.17-May-2020 5073.51 2646.01 71.26 2.00 291.60 2611.87
   16:19:32.800.17-May-2020 5073.51 2645.78 71.26 2.00 291.80 2611.87
   16:19:33.000.17-May-2020 5073.51 2645.83 71.26 2.00 292.00 2611.87
   16:19:33.200.17-May-2020 5073.51 2645.83 71.26 2.00 292.20 2611.87
   16:19:33.400.17-May-2020 5073.51 2645.94 71.26 2.00 292.40 2611.87
   16:19:33.600.17-May-2020 5073.51 2645.91 71.26 2.00 292.60 2611.87
   16:19:33.800.17-May-2020 5073.51 2645.87 71.26 2.00 292.80 2611.87
   16:19:34.000.17-May-2020 5073.51 2645.87 71.26 2.00 293.00 2611.87
   16:19:34.200.17-May-2020 5073.51 2645.87 71.26 2.00 293.20 2611.87
   16:19:34.400.17-May-2020 5073.51 2645.90 71.26 2.00 293.40 2611.87
   16:19:34.600.17-May-2020 5073.51 2646.06 71.26 2.00 293.60 2611.87
   16:19:34.800.17-May-2020 5073.51 2645.82 71.26 2.00 293.80 2611.87
   16:19:35.000.17-May-2020 5073.51 2645.85 71.26 2.00 294.00 2611.87
   16:19:35.200.17-May-2020 5073.51 2645.85 71.26 2.00 294.20 2611.87
   16:19:35.400.17-May-2020 5073.51 2645.95 71.26 2.00 294.40 2611.87
   16:19:35.600.17-May-2020 5073.51 2645.90 71.26 2.00 294.60 2611.87
   16:19:35.800.17-May-2020 5073.51 2645.91 71.26 2.00 294.80 2611.87
   16:19:36.000.17-May-2020 5073.51 2645.88 71.26 2.00 295.00 2611.87
   16:19:36.200.17-May-2020 5073.51 2645.90 71.26 2.00 295.20 2611.87
   16:19:36.400.17-May-2020 5073.51 2645.93 71.26 2.00 295.40 2611.87
   16:19:36.600.17-May-2020 5073.51 2645.98 71.26 2.00 295.60 2611.87
   16:19:36.800.17-May-2020 5073.51 2645.98 71.26 2.00 295.80 2611.87
   16:19:37.000.17-May-2020 5073.51 2645.79 71.26 2.00 296.00 2611.87
   16:19:37.200.17-May-2020 5073.51 2645.79 71.26 2.00 296.20 2611.87
   16:19:37.400.17-May-2020 5073.51 2646.09 71.26 2.00 296.40 2611.87
   16:19:37.600.17-May-2020 5073.51 2645.84 71.26 2.00 296.60 2611.87
   16:19:37.800.17-May-2020 5073.51 2645.86 71.26 2.00 296.80 2611.87
   16:19:38.000.17-May-2020 5073.51 2645.97 71.26 2.00 297.00 2611.87
   16:19:38.200.17-May-2020 5073.51 2645.97 71.26 2.00 297.20 2611.87
   16:19:38.400.17-May-2020 5073.51 2646.12 71.26 2.00 297.40 2611.87
   16:19:38.600.17-May-2020 5073.51 2645.75 71.26 2.00 297.60 2611.87
   16:19:38.800.17-May-2020 5073.51 2645.89 71.26 2.00 297.80 2611.87
   16:19:39.000.17-May-2020 5073.51 2646.06 71.26 2.00 298.00 2611.87
   16:19:39.200.17-May-2020 5073.51 2646.06 71.26 2.00 298.20 2611.87
   16:19:39.400.17-May-2020 5073.51 2645.85 71.26 2.00 298.40 2611.87
   16:19:39.600.17-May-2020 5073.51 2645.85 71.26 2.00 298.60 2611.87
   16:19:39.800.17-May-2020 5073.51 2645.96 71.26 2.00 298.80 2611.87
