~Version Information
 VERS.                  2.0:   CWLS log ASCII Standard -VERSION 2.0
 WRAP.                   NO:   One line per depth step
~Well Information Block
#MNEM.UNIT     VALUE/NAME     DESCRIPTION
#---------     -----------    ---------------------------
 STRT.S             03:21:16 18-May-20: START TIME 03:21:16 18-May-20
 STOP.S             03:28:29 18-May-20: STOP TIME  03:28:29 18-May-20
 STEP.S                   0.00: STEP TIME
 NULL.                 -999.25: NULL VALUE
 UNIT.                     N/A:  LOGGING EQUIPMENT ID
 DCON.         Sperry Drilling:  DIRECTNL CONTR
 DOE .                     N/A:  DOE NUMBER
 JOBN.        AZ-XX-0906252240:  JOB TICKET NUMB
 MWDS.                     N/A:  MWD SHOP
 PROV.                    Baku:  PROVINCE
 STAT.                    Baku:  STATE NAME
 REGN.                   EESSA:  REGION
 BASE.              Azerbaijan:  LOGGING EQUIPMENT BASE LOCATION
 UWI .                     N/A:  UNIQUE WELL IDENTIFIER
 API .                     N/A:  API NUMBER
 MDS .        Operator Entered:  MAG DATA SOURCE
 WTYP.                Deviated:  WELL TYPE
 COMP.     BP Exploration (Caspian Sea) Ltd.:  COMPANY
 SRVC.          Turan Drilling:  CONTRACTOR
 WELL.           J23 (Slot 07):  WELL NAME
 CTRY.              Azerbaijan:  COUNTRY NAME
 FLD .                     ACG:  FIELD NAME
 PDAT.          Mean Sea Level:  PERMANENT DATUM
 RIG .             West Chirag:  RIG NAME
 SON .        AZ-XX-0906252240:  JOB NUMBER
 FTOP.          Formation Tops:  FORM TOPS DESC
 ILTD.               Lithology:  INTERP LTH DESC
 SVYD.                  Survey:  SURVEY DESC
 DMOD.             Drill Model:  DRILL MOD DESC
 HPTY.       Minimum Curvature:  HOLE POS TYPE
 NREF.                    Grid:  NORTH REFERENCE
 SPUD.               27-Aug-20:  SPUD DATE
 DATE.      00.00.00 19-May-20:  END TIME
 STIM.      03.00.00 25-Mar-20:  START TIME
 DMF .             Drill Floor:  DRILL MEAS FROM
 DFST.                        :  DIST FSL TEXT
 DFWT.                        :  DIST FWL TEXT
 CNTY.                        :  COUNTY
 LOC .                        :  LOCATION
 LMF .             Drill Floor:  LOG MEASURED FROM
 VSNS.m                   9.43:  VERT SEC N/S
 VSEW.m                  -8.91:  VERT SEC E/W
 AGAP.m                  43.00:  AIR GAP
 DEP .m                 354.17:  DEPTH
 APD .m                  43.00:  DEPTH ABOVE PD
 WDMS.m                 169.80:  WD ELEV
 EGL .m                   0.00:  GROUND ELEVATION
 EPD .m                   0.00:  ELEVATION
 AZTC.deg                 6.31:  AZM TOTAL CORR
 GRDC.deg                 0.14:  GRID CORRECTION
 MDEC.deg                 6.45:  MAGNETIC DECL
 MDIP.deg                59.56:  MAGNETIC DIP
 MFLD.nT              50295.00:  MAGNETIC FIELD
 GVFD.g                   1.00:  GRAVITY FIELD
 VSDR.deg               179.88:  VERT SEC DIRECT
 TDD .m                5150.01:  TOTAL DEPTH (DRILLER)
 SDEP.m                 864.00:  START DEPTH
 DFSL.m                   0.00:  DISTANCE FSL
 DFWL.m                   0.00:  DISTANCE FWL
 UTMY.m             4443793.85:  UTM Y
 UTMX.m              519005.06:  UTM X
 WHEW.m                  -8.91:  WELL HEAD E/W
 WHNS.m                   9.43:  WELL HEAD N/S
 LONG.deg                51.22:  LONGITUDE
 LATI.deg                40.13:  LATITUDE
 TVDS.m                  43.00:  TVDSS CORRECTN
 EKB .m                   0.00:  KB ELEVATION
 EDF .m                  43.00:  DF ELEVATION
 TDL .m                 363.00:  TOTAL DEPTH (LOGGER)
 MAGU.                 1850802:  MAGUTM CHECKSUM
 VSC .                       0:  VS TO CLOSURE
~Parameter Information Block
#MNEM.UNIT       Value        Description
#---------     -----------    ---------------------------
 AV  .mps                 2.30:  Ann Velocity 
 AVMX.mps                 4.40:  Max Ann Veloc 
 AZIF.deg               110.24:  Azm, Final 
 BHAT.        Rotary Steerable:  BHA Type 
 BREV.rev               331.00:  Rev Bit Total 
 BROT.°/30m               0.00:  Build Rotating 
 BS  .in                  8.50:  Bit Size 
 BSZ .in                  8.50:  Bit Size 
 BTPL.psig              585.00:  Bit Press Loss 
 CABU.                     Yes:  Customer Abuse 
 TCS .hr                122.75:  Time Ciculation Ended 
 CV  .mps                 2.67:  Crit Velocity 
 CVMX.mps                 3.56:  Max Crit Veloc 
 DD1 .          Rashad Habibov:  Direct Drillr 1 
 DD2 .         Rasim Ibrahimov:  Direct Drillr 2 
 DDSV.               Geo-Pilot:  DD Service 
 DEFF.%                  98.00:  % Det Eff 
 DLRX.°/30m               0.75:  Dogleg Rot Max 
 DLSO.°/30m               1.25:  Dogleg Oriented 
 DLSX.°/30m               2.06:  Dogleg Str Max 
 DRET.      07.45.00 17-May-20:  Drill End Time 
 DRST.      22.50.00 15-May-20:  Drill Start Tim 
 DTIM.hr                 20.75:  Time Drilling 
 EDEP.m                5124.01:  End Depth 
 ENG1.           Eldar Hajiyev:  Engineer 1 
 ENG2.        Marcelo Sandoval:  Engineer 2 
 ENG3.        Davud huseynzada:  Engineer 3 
 ENG4.          Ruslan Safarov:  Engineer 4 
 ETIM.      04.33.00 23-May-20:  End Time 
 FLOI.gpm               450.00:  Flow In 
 FLON.gpm               400.00:  Flow In Min 
 FLOS.cptm                0.00:  Fluid Loss 
 FLOX.gpm               500.00:  Flow In Max 
 FTRO.       Formation Presure:  FTWD Run Obj 
 HFLO.                      No:  High Flow 
 HPRE.                     Yes:  High Pressure 
 HTEM.                      No:  High Temp 
 HYDO.m                   1.80:  Hydro Offset 
 IFIN.deg                75.06:  Inc, Final 
 IMAX.deg                75.38:  Inc Max 
 IMIN.deg                74.69:  Inc Min 
 IMND.m                5027.38:  Inc Min Depth 
 IMXD.m                4771.61:  Inc Max Depth 
 JARR.                      No:  Jarring 
 LETM.      07.45.00 17-May-20:  Log End Time 
 LOST.hr                     0:  Lost Rig Time 
 LSTM.      22.50.00 15-May-20:  Log Start Time 
 MDCL.ppm             42000.00:  Mud Chlorides 
 MDES.     Inversion Oil/Synthetic:  Mud Desc 
 DFD .sg                  1.34:  Mud Density 
 MDMN.sg                  1.34:  Dens Mud Min 
 MDMX.sg                  1.34:  Dens Mud Max 
 MOIL.                       0:  Run Mud Oil % 
 MOWR.                   67:33:  Run Mud OWR 
 MSND.                       0:  Run Mud Sand % 
 MSOL.                     1.8:  Run Mud Solids% 
 DFV .spqt               76.00:  Mud Viscosity 
 MWOD.in                  6.75:  MWD Tool OD 
 MWSI.                      No:  Serv Intrp, MWD 
 OTIM.hr                228.19:  Time Operating 
 PCON.           Look Like New:  Pad Condition 
 PMAX.psia             6164.70:  Press Op, Max 
 PV  .cP                 28.00:  Mud PV 
 RUN .                     900:  Run Number 
 ROPA.m/hr               19.00:  ROP Avg 
 ROPN.m/hr               11.00:  ROP Min 
 ROPX.m/hr               36.00:  ROP Max 
 RPMA.rpm               120.00:  RPM Surface Avg 
 RPMN.rpm               120.00:  RPM Surface Min 
 RPMX.rpm               120.00:  RPM Surface Max 
 RRUN.                    L604:  Rig Run Number 
 RTIM.hr                  7.00:  Time Reaming 
 SAZI.deg               109.27:  Azm, Start 
 SDEP.m                4761.01:  Start Depth 
 SIDD.                      No:  Serv Intrp, DD 
 SINC.deg                75.38:  Inc, Start 
 SPPA.psig             3574.00:  SPP Avg 
 SPPN.psig             3475.00:  SPP Min 
 SPPX.psig             3791.00:  SPP Max 
 STIM.      07.08.48 13-May-20:  Start Time 
 SVCS.                 DD, MWD:  Services 
 SVER.                    9.20:  Sperry Version 
 TDAT.m                 363.00:  Tot Depth Attmp 
 TDDF.                      No:  Trip for DD 
 TDLG.m                 363.00:  Tot Depth Loggd 
 TFF .                      No:  Trip for Fail 
 TQAA.f-kp               20.00:  Torque Abs Avg 
 TQAN.f-kp               18.00:  Torque Abs Min 
 TQAX.f-kp               22.00:  Torque Abs Max 
 TRRT.°/30m              -0.35:  Turn Rotating 
 MRT .                    HCIM:  Maximum Recorded Temperature 
 TTMX.degC               92.16:  Max Tool Temp 
 VS01.                90586518:  Virtual Str1 SN 
 VS02.        AZ90560654Z1W1C6:  Virtual Str2 SN 
 VS03.           AZ90610398F11:  Virtual Str3 SN 
 VS04.                90514975:  Virtual Str4 SN 
 VS05.                90514972:  Virtual Str5 SN 
 VS06.     AZ90603282F11V7D1A6:  Virtual Str6 SN 
 WBMN.klb                 7.00:  WOB Min 
 WOBA.klb                12.00:  WOB Avg 
 WOBX.klb                14.00:  WOB Max 
 YP  .lhf2               32.00:  Yield Point 
~Curve Information Block
#MNEM.UNIT                 API CODE     Curve Description
#---------               -----------    ---------------------------
 TIME.HHMMSS            00 000 000 000:  GT Time & Date
 GTDEPTH.m              00 000 000 000:  GT Depth
 GTPQH.psia             00 000 000 000:  GT HR Quartz Pressure
 GTTQ.degC              00 000 000 000:  GT Quartz Temperature
 GTTN.NONE              00 000 000 000:  GT Test Number
 GTET.sec               00 000 000 000:  GT Elapsed Test Time
 GTTVD.m                00 000 000 000:  GT True Vertical Depth
#Other Information
#
#WARRANTY: Halliburton will use its best efforts to furnish customers with 
#accurate information and interpretations that are part of, and incident to, the services 
#provided.  However, Halliburton cannot and does not warrant the accuracy 
#or correctness of such information and interpretations.  Under no circumstances should any 
#such information or interpretation be relied upon as the sole basis for any drilling, 
#completion, production, or financial decision or any procedure involving any risk to the 
#safety of any drilling venture, drilling rig or its crew or any other third party.  The 
#Customer has full responsibility for all drilling, completion and production operation.  
#Halliburton makes no representations or warranties, either expressed or 
#implied, including, but not limited to, the implied warranties of merchantability or fitness 
#for a particular purpose, with respect to the services rendered.  In no event will 
#Halliburton be liable for failure to obtain any particular results or for 
#any damages, including, but not limited to, indirect, special or consequential damages, 
#resulting from the use of any information or interpretation provided by Halliburton.
#
~A           TIME           GTDEPTH  GTPQH  GTTQ  GTTN   GTET   GTTVD  
# ...
   03:22:01.807.18-May-2020 4797.01 5448.04 66.03 13.00  45.22 2540.22
   03:22:02.007.18-May-2020 4797.01 5447.28 66.03 13.00  45.42 2540.22
   03:22:02.207.18-May-2020 4797.01 5447.19 66.03 13.00  45.62 2540.22
   03:22:02.408.18-May-2020 4797.01 5459.83 66.03 13.00  45.82 2540.22
   03:22:02.608.18-May-2020 4797.01 5447.31 66.03 13.00  46.02 2540.22
   03:22:02.808.18-May-2020 4797.01 5447.48 66.03 13.00  46.22 2540.22
   03:22:03.008.18-May-2020 4797.01 5463.79 66.03 13.00  46.42 2540.22
   03:22:03.208.18-May-2020 4797.01 5452.45 66.03 13.00  46.62 2540.22
   03:22:03.408.18-May-2020 4797.01 5449.17 66.03 13.00  46.82 2540.22
   03:22:03.608.18-May-2020 4797.01 5450.83 66.03 13.00  47.02 2540.22
   03:22:03.808.18-May-2020 4797.01 5460.68 66.03 13.00  47.22 2540.22
   03:22:04.008.18-May-2020 4797.01 5457.28 66.03 13.00  47.42 2540.22
   03:22:04.208.18-May-2020 4797.01 5448.08 66.03 13.00  47.62 2540.22
   03:22:04.408.18-May-2020 4797.01 5449.18 66.03 13.00  47.82 2540.22
   03:22:04.608.18-May-2020 4797.01 5465.83 66.03 13.00  48.02 2540.22
   03:22:04.809.18-May-2020 4797.01 5465.83 66.03 13.00  48.22 2540.22
   03:22:05.009.18-May-2020 4797.01 5449.24 66.03 13.00  48.42 2540.22
   03:22:05.209.18-May-2020 4797.01 5449.64 66.03 13.00  48.62 2540.22
   03:22:05.409.18-May-2020 4797.01 5455.60 66.03 13.00  48.82 2540.22
   03:22:05.609.18-May-2020 4797.01 5451.49 66.03 13.00  49.02 2540.22
   03:22:05.809.18-May-2020 4797.01 5448.79 66.03 13.00  49.22 2540.22
   03:22:06.009.18-May-2020 4797.01 5448.09 66.03 13.00  49.42 2540.22
   03:22:06.209.18-May-2020 4797.01 5449.25 66.03 13.00  49.62 2540.22
   03:22:06.409.18-May-2020 4797.01 5485.38 66.03 13.00  49.82 2540.22
   03:22:06.609.18-May-2020 4797.01 5508.99 66.03 13.00  50.02 2540.22
   03:22:06.809.18-May-2020 4797.01 5508.99 66.03 13.00  50.22 2540.22
   03:22:07.009.18-May-2020 4797.01 5514.67 66.03 13.00  50.42 2540.22
   03:22:07.209.18-May-2020 4797.01 5513.61 66.03 13.00  50.62 2540.22
   03:22:07.410.18-May-2020 4797.01 5513.43 66.03 13.00  50.82 2540.22
   03:22:07.610.18-May-2020 4797.01 5512.77 66.03 13.00  51.02 2540.22
   03:22:07.810.18-May-2020 4797.01 5512.77 66.03 13.00  51.22 2540.22
   03:22:08.010.18-May-2020 4797.01 5511.85 66.03 13.00  51.42 2540.22
   03:22:08.210.18-May-2020 4797.01 5511.68 66.03 13.00  51.62 2540.22
   03:22:08.410.18-May-2020 4797.01 5511.43 66.03 13.00  51.82 2540.22
   03:22:08.610.18-May-2020 4797.01 5511.16 66.03 13.00  52.02 2540.22
   03:22:08.810.18-May-2020 4797.01 5511.16 66.03 13.00  52.22 2540.22
   03:22:09.010.18-May-2020 4797.01 5509.53 66.03 13.00  52.42 2540.22
   03:22:09.210.18-May-2020 4797.01 5509.91 66.03 13.00  52.62 2540.22
   03:22:09.410.18-May-2020 4797.01 5508.91 66.03 13.00  52.82 2540.22
   03:22:09.610.18-May-2020 4797.01 5505.38 66.03 13.00  53.02 2540.22
   03:22:09.811.18-May-2020 4797.01 5505.49 66.03 13.00  53.22 2540.22
   03:22:10.011.18-May-2020 4797.01 5504.06 66.03 13.00  53.42 2540.22
   03:22:10.211.18-May-2020 4797.01 5503.44 66.03 13.00  53.62 2540.22
   03:22:10.411.18-May-2020 4797.01 5499.28 66.03 13.00  53.82 2540.22
   03:22:10.611.18-May-2020 4797.01 5500.55 66.03 13.00  54.02 2540.22
   03:22:10.811.18-May-2020 4797.01 5500.55 66.03 13.00  54.22 2540.22
   03:22:11.011.18-May-2020 4797.01 5511.01 66.03 13.00  54.42 2540.22
   03:22:11.211.18-May-2020 4797.01 5215.01 66.03 13.00  54.62 2540.22
   03:22:11.411.18-May-2020 4797.01 4598.44 66.03 13.00  54.82 2540.22
   03:22:11.611.18-May-2020 4797.01 3706.03 66.03 13.00  55.02 2540.22
   03:22:11.811.18-May-2020 4797.01 3706.03 66.03 13.00  55.22 2540.22
   03:22:12.011.18-May-2020 4797.01 2580.39 66.03 13.00  55.42 2540.22
   03:22:12.211.18-May-2020 4797.01 1865.27 66.03 13.00  55.62 2540.22
   03:22:12.412.18-May-2020 4797.01 1274.08 66.03 13.00  55.82 2540.22
   03:22:12.612.18-May-2020 4797.01 1005.43 66.02 13.00  56.02 2540.22
   03:22:12.812.18-May-2020 4797.01 1005.43 66.02 13.00  56.22 2540.22
   03:22:13.012.18-May-2020 4797.01 1008.87 66.02 13.00  56.42 2540.22
   03:22:13.212.18-May-2020 4797.01 1270.21 66.02 13.00  56.62 2540.22
   03:22:13.412.18-May-2020 4797.01 2164.51 66.02 13.00  56.82 2540.22
   03:22:13.612.18-May-2020 4797.01 2878.40 66.01 13.00  57.02 2540.22
   03:22:13.812.18-May-2020 4797.01 3119.06 66.01 13.00  57.22 2540.22
   03:22:14.012.18-May-2020 4797.01 3250.30 66.01 13.00  57.42 2540.22
   03:22:14.212.18-May-2020 4797.01 3312.63 66.01 13.00  57.62 2540.22
   03:22:14.412.18-May-2020 4797.01 3338.60 66.00 13.00  57.82 2540.22
   03:22:14.612.18-May-2020 4797.01 3351.44 66.00 13.00  58.02 2540.22
   03:22:14.813.18-May-2020 4797.01 3351.44 66.00 13.00  58.22 2540.22
   03:22:15.013.18-May-2020 4797.01 3362.38 66.00 13.00  58.42 2540.22
   03:22:15.213.18-May-2020 4797.01 3362.19 65.99 13.00  58.62 2540.22
   03:22:15.413.18-May-2020 4797.01 3357.54 65.99 13.00  58.82 2540.22
   03:22:15.613.18-May-2020 4797.01 3360.56 65.99 13.00  59.02 2540.22
   03:22:15.813.18-May-2020 4797.01 3360.56 65.99 13.00  59.22 2540.22
   03:22:16.013.18-May-2020 4797.01 3368.51 65.99 13.00  59.42 2540.22
   03:22:16.213.18-May-2020 4797.01 3368.66 65.98 13.00  59.62 2540.22
   03:22:16.413.18-May-2020 4797.01 3369.54 65.98 13.00  59.82 2540.22
   03:22:16.613.18-May-2020 4797.01 3362.68 65.98 13.00  60.02 2540.22
   03:22:16.813.18-May-2020 4797.01 3362.68 65.98 13.00  60.22 2540.22
   03:22:17.013.18-May-2020 4797.01 3362.93 65.98 13.00  60.42 2540.22
   03:22:17.214.18-May-2020 4797.01 3364.78 65.98 13.00  60.62 2540.22
   03:22:17.414.18-May-2020 4797.01 3366.31 65.98 13.00  60.82 2540.22
   03:22:17.614.18-May-2020 4797.01 3367.23 65.97 13.00  61.02 2540.22
   03:22:17.814.18-May-2020 4797.01 3367.23 65.97 13.00  61.22 2540.22
   03:22:18.014.18-May-2020 4797.01 3366.35 65.97 13.00  61.42 2540.22
   03:22:18.214.18-May-2020 4797.01 3361.29 65.97 13.00  61.62 2540.22
   03:22:18.414.18-May-2020 4797.01 3360.04 65.97 13.00  61.82 2540.22
   03:22:18.614.18-May-2020 4797.01 3322.27 65.97 13.00  62.03 2540.22
   03:22:18.814.18-May-2020 4797.01 3322.27 65.97 13.00  62.23 2540.22
   03:22:19.014.18-May-2020 4797.01 3333.32 65.97 13.00  62.43 2540.22
   03:22:19.214.18-May-2020 4797.01 3368.27 65.97 13.00  62.63 2540.22
   03:22:19.414.18-May-2020 4797.01 3375.45 65.97 13.00  62.83 2540.22
   03:22:19.614.18-May-2020 4797.01 3377.97 65.97 13.00  63.03 2540.22
   03:22:19.815.18-May-2020 4797.01 3377.97 65.97 13.00  63.23 2540.22
   03:22:20.015.18-May-2020 4797.01 3376.55 65.97 13.00  63.43 2540.22
   03:22:20.215.18-May-2020 4797.01 3387.18 65.97 13.00  63.63 2540.22
   03:22:20.415.18-May-2020 4797.01 3384.72 65.97 13.00  63.83 2540.22
   03:22:20.615.18-May-2020 4797.01 3387.06 65.96 13.00  64.03 2540.22
   03:22:20.815.18-May-2020 4797.01 3387.06 65.96 13.00  64.23 2540.22
   03:22:21.015.18-May-2020 4797.01 3472.81 65.96 13.00  64.43 2540.22
   03:22:21.215.18-May-2020 4797.01 3713.08 65.96 13.00  64.63 2540.22
   03:22:21.415.18-May-2020 4797.01 3783.63 65.96 13.00  64.83 2540.22
   03:22:21.615.18-May-2020 4797.01 3801.24 65.96 13.00  65.03 2540.22
   03:22:21.815.18-May-2020 4797.01 3801.24 65.96 13.00  65.23 2540.22
   03:22:22.015.18-May-2020 4797.01 3808.52 65.96 13.00  65.43 2540.22
   03:22:22.216.18-May-2020 4797.01 3809.14 65.96 13.00  65.63 2540.22
   03:22:22.416.18-May-2020 4797.01 3812.24 65.96 13.00  65.83 2540.22
   03:22:22.616.18-May-2020 4797.01 3811.47 65.96 13.00  66.03 2540.22
   03:22:22.816.18-May-2020 4797.01 3811.47 65.96 13.00  66.23 2540.22
   03:22:23.016.18-May-2020 4797.01 3813.75 65.96 13.00  66.43 2540.22
   03:22:23.216.18-May-2020 4797.01 3812.88 65.96 13.00  66.63 2540.22
   03:22:23.416.18-May-2020 4797.01 3812.23 65.96 13.00  66.83 2540.22
   03:22:23.616.18-May-2020 4797.01 3814.38 65.96 13.00  67.03 2540.22
   03:22:23.816.18-May-2020 4797.01 3814.38 65.96 13.00  67.23 2540.22
   03:22:24.016.18-May-2020 4797.01 3813.68 65.96 13.00  67.43 2540.22
   03:22:24.216.18-May-2020 4797.01 3814.17 65.96 13.00  67.63 2540.22
