~Version Information
 VERS.                  2.0:   CWLS log ASCII Standard -VERSION 2.0
 WRAP.                   NO:   One line per depth step
~Well Information Block
#MNEM.UNIT     VALUE/NAME     DESCRIPTION
#---------     -----------    ---------------------------
 STRT.S             03:21:16 18-May-20: START TIME 03:21:16 18-May-20
 STOP.S             03:28:29 18-May-20: STOP TIME  03:28:29 18-May-20
 STEP.S                   0.00: STEP TIME
 NULL.                 -999.25: NULL VALUE
 UNIT.                     N/A:  LOGGING EQUIPMENT ID
 DCON.         Sperry Drilling:  DIRECTNL CONTR
 DOE .                     N/A:  DOE NUMBER
 JOBN.        AZ-XX-0906252240:  JOB TICKET NUMB
 MWDS.                     N/A:  MWD SHOP
 PROV.                    Baku:  PROVINCE
 STAT.                    Baku:  STATE NAME
 REGN.                   EESSA:  REGION
 BASE.              Azerbaijan:  LOGGING EQUIPMENT BASE LOCATION
 UWI .                     N/A:  UNIQUE WELL IDENTIFIER
 API .                     N/A:  API NUMBER
 MDS .        Operator Entered:  MAG DATA SOURCE
 WTYP.                Deviated:  WELL TYPE
 COMP.     BP Exploration (Caspian Sea) Ltd.:  COMPANY
 SRVC.          Turan Drilling:  CONTRACTOR
 WELL.           J23 (Slot 07):  WELL NAME
 CTRY.              Azerbaijan:  COUNTRY NAME
 FLD .                     ACG:  FIELD NAME
 PDAT.          Mean Sea Level:  PERMANENT DATUM
 RIG .             West Chirag:  RIG NAME
 SON .        AZ-XX-0906252240:  JOB NUMBER
 FTOP.          Formation Tops:  FORM TOPS DESC
 ILTD.               Lithology:  INTERP LTH DESC
 SVYD.                  Survey:  SURVEY DESC
 DMOD.             Drill Model:  DRILL MOD DESC
 HPTY.       Minimum Curvature:  HOLE POS TYPE
 NREF.                    Grid:  NORTH REFERENCE
 SPUD.               27-Aug-20:  SPUD DATE
 DATE.      00.00.00 19-May-20:  END TIME
 STIM.      03.00.00 25-Mar-20:  START TIME
 DMF .             Drill Floor:  DRILL MEAS FROM
 DFST.                        :  DIST FSL TEXT
 DFWT.                        :  DIST FWL TEXT
 CNTY.                        :  COUNTY
 LOC .                        :  LOCATION
 LMF .             Drill Floor:  LOG MEASURED FROM
 VSNS.m                   9.43:  VERT SEC N/S
 VSEW.m                  -8.91:  VERT SEC E/W
 AGAP.m                  43.00:  AIR GAP
 DEP .m                 354.17:  DEPTH
 APD .m                  43.00:  DEPTH ABOVE PD
 WDMS.m                 169.80:  WD ELEV
 EGL .m                   0.00:  GROUND ELEVATION
 EPD .m                   0.00:  ELEVATION
 AZTC.deg                 6.31:  AZM TOTAL CORR
 GRDC.deg                 0.14:  GRID CORRECTION
 MDEC.deg                 6.45:  MAGNETIC DECL
 MDIP.deg                59.56:  MAGNETIC DIP
 MFLD.nT              50295.00:  MAGNETIC FIELD
 GVFD.g                   1.00:  GRAVITY FIELD
 VSDR.deg               179.88:  VERT SEC DIRECT
 TDD .m                5150.01:  TOTAL DEPTH (DRILLER)
 SDEP.m                 864.00:  START DEPTH
 DFSL.m                   0.00:  DISTANCE FSL
 DFWL.m                   0.00:  DISTANCE FWL
 UTMY.m             4443793.85:  UTM Y
 UTMX.m              519005.06:  UTM X
 WHEW.m                  -8.91:  WELL HEAD E/W
 WHNS.m                   9.43:  WELL HEAD N/S
 LONG.deg                51.22:  LONGITUDE
 LATI.deg                40.13:  LATITUDE
 TVDS.m                  43.00:  TVDSS CORRECTN
 EKB .m                   0.00:  KB ELEVATION
 EDF .m                  43.00:  DF ELEVATION
 TDL .m                 363.00:  TOTAL DEPTH (LOGGER)
 MAGU.                 1850802:  MAGUTM CHECKSUM
 VSC .                       0:  VS TO CLOSURE
~Parameter Information Block
#MNEM.UNIT       Value        Description
#---------     -----------    ---------------------------
 AV  .mps                 2.30:  Ann Velocity 
 AVMX.mps                 4.40:  Max Ann Veloc 
 AZIF.deg               110.24:  Azm, Final 
 BHAT.        Rotary Steerable:  BHA Type 
 BREV.rev               331.00:  Rev Bit Total 
 BROT.°/30m               0.00:  Build Rotating 
 BS  .in                  8.50:  Bit Size 
 BSZ .in                  8.50:  Bit Size 
 BTPL.psig              585.00:  Bit Press Loss 
 CABU.                     Yes:  Customer Abuse 
 TCS .hr                122.75:  Time Ciculation Ended 
 CV  .mps                 2.67:  Crit Velocity 
 CVMX.mps                 3.56:  Max Crit Veloc 
 DD1 .          Rashad Habibov:  Direct Drillr 1 
 DD2 .         Rasim Ibrahimov:  Direct Drillr 2 
 DDSV.               Geo-Pilot:  DD Service 
 DEFF.%                  98.00:  % Det Eff 
 DLRX.°/30m               0.75:  Dogleg Rot Max 
 DLSO.°/30m               1.25:  Dogleg Oriented 
 DLSX.°/30m               2.06:  Dogleg Str Max 
 DRET.      07.45.00 17-May-20:  Drill End Time 
 DRST.      22.50.00 15-May-20:  Drill Start Tim 
 DTIM.hr                 20.75:  Time Drilling 
 EDEP.m                5124.01:  End Depth 
 ENG1.           Eldar Hajiyev:  Engineer 1 
 ENG2.        Marcelo Sandoval:  Engineer 2 
 ENG3.        Davud huseynzada:  Engineer 3 
 ENG4.          Ruslan Safarov:  Engineer 4 
 ETIM.      04.33.00 23-May-20:  End Time 
 FLOI.gpm               450.00:  Flow In 
 FLON.gpm               400.00:  Flow In Min 
 FLOS.cptm                0.00:  Fluid Loss 
 FLOX.gpm               500.00:  Flow In Max 
 FTRO.       Formation Presure:  FTWD Run Obj 
 HFLO.                      No:  High Flow 
 HPRE.                     Yes:  High Pressure 
 HTEM.                      No:  High Temp 
 HYDO.m                   1.80:  Hydro Offset 
 IFIN.deg                75.06:  Inc, Final 
 IMAX.deg                75.38:  Inc Max 
 IMIN.deg                74.69:  Inc Min 
 IMND.m                5027.38:  Inc Min Depth 
 IMXD.m                4771.61:  Inc Max Depth 
 JARR.                      No:  Jarring 
 LETM.      07.45.00 17-May-20:  Log End Time 
 LOST.hr                     0:  Lost Rig Time 
 LSTM.      22.50.00 15-May-20:  Log Start Time 
 MDCL.ppm             42000.00:  Mud Chlorides 
 MDES.     Inversion Oil/Synthetic:  Mud Desc 
 DFD .sg                  1.34:  Mud Density 
 MDMN.sg                  1.34:  Dens Mud Min 
 MDMX.sg                  1.34:  Dens Mud Max 
 MOIL.                       0:  Run Mud Oil % 
 MOWR.                   67:33:  Run Mud OWR 
 MSND.                       0:  Run Mud Sand % 
 MSOL.                     1.8:  Run Mud Solids% 
 DFV .spqt               76.00:  Mud Viscosity 
 MWOD.in                  6.75:  MWD Tool OD 
 MWSI.                      No:  Serv Intrp, MWD 
 OTIM.hr                228.19:  Time Operating 
 PCON.           Look Like New:  Pad Condition 
 PMAX.psia             6164.70:  Press Op, Max 
 PV  .cP                 28.00:  Mud PV 
 RUN .                     900:  Run Number 
 ROPA.m/hr               19.00:  ROP Avg 
 ROPN.m/hr               11.00:  ROP Min 
 ROPX.m/hr               36.00:  ROP Max 
 RPMA.rpm               120.00:  RPM Surface Avg 
 RPMN.rpm               120.00:  RPM Surface Min 
 RPMX.rpm               120.00:  RPM Surface Max 
 RRUN.                    L604:  Rig Run Number 
 RTIM.hr                  7.00:  Time Reaming 
 SAZI.deg               109.27:  Azm, Start 
 SDEP.m                4761.01:  Start Depth 
 SIDD.                      No:  Serv Intrp, DD 
 SINC.deg                75.38:  Inc, Start 
 SPPA.psig             3574.00:  SPP Avg 
 SPPN.psig             3475.00:  SPP Min 
 SPPX.psig             3791.00:  SPP Max 
 STIM.      07.08.48 13-May-20:  Start Time 
 SVCS.                 DD, MWD:  Services 
 SVER.                    9.20:  Sperry Version 
 TDAT.m                 363.00:  Tot Depth Attmp 
 TDDF.                      No:  Trip for DD 
 TDLG.m                 363.00:  Tot Depth Loggd 
 TFF .                      No:  Trip for Fail 
 TQAA.f-kp               20.00:  Torque Abs Avg 
 TQAN.f-kp               18.00:  Torque Abs Min 
 TQAX.f-kp               22.00:  Torque Abs Max 
 TRRT.°/30m              -0.35:  Turn Rotating 
 MRT .                    HCIM:  Maximum Recorded Temperature 
 TTMX.degC               92.16:  Max Tool Temp 
 VS01.                90586518:  Virtual Str1 SN 
 VS02.        AZ90560654Z1W1C6:  Virtual Str2 SN 
 VS03.           AZ90610398F11:  Virtual Str3 SN 
 VS04.                90514975:  Virtual Str4 SN 
 VS05.                90514972:  Virtual Str5 SN 
 VS06.     AZ90603282F11V7D1A6:  Virtual Str6 SN 
 WBMN.klb                 7.00:  WOB Min 
 WOBA.klb                12.00:  WOB Avg 
 WOBX.klb                14.00:  WOB Max 
 YP  .lhf2               32.00:  Yield Point 
~Curve Information Block
#MNEM.UNIT                 API CODE     Curve Description
#---------               -----------    ---------------------------
 TIME.HHMMSS            00 000 000 000:  GT Time & Date
 GTDEPTH.m              00 000 000 000:  GT Depth
 GTPQH.psia             00 000 000 000:  GT HR Quartz Pressure
 GTTQ.degC              00 000 000 000:  GT Quartz Temperature
 GTTN.NONE              00 000 000 000:  GT Test Number
 GTET.sec               00 000 000 000:  GT Elapsed Test Time
 GTTVD.m                00 000 000 000:  GT True Vertical Depth
#Other Information
#
#WARRANTY: Halliburton will use its best efforts to furnish customers with 
#accurate information and interpretations that are part of, and incident to, the services 
#provided.  However, Halliburton cannot and does not warrant the accuracy 
#or correctness of such information and interpretations.  Under no circumstances should any 
#such information or interpretation be relied upon as the sole basis for any drilling, 
#completion, production, or financial decision or any procedure involving any risk to the 
#safety of any drilling venture, drilling rig or its crew or any other third party.  The 
#Customer has full responsibility for all drilling, completion and production operation.  
#Halliburton makes no representations or warranties, either expressed or 
#implied, including, but not limited to, the implied warranties of merchantability or fitness 
#for a particular purpose, with respect to the services rendered.  In no event will 
#Halliburton be liable for failure to obtain any particular results or for 
#any damages, including, but not limited to, indirect, special or consequential damages, 
#resulting from the use of any information or interpretation provided by Halliburton.
#
~A           TIME           GTDEPTH  GTPQH  GTTQ  GTTN   GTET   GTTVD  
# ...
   03:23:54.853.18-May-2020 4797.01 3817.71 65.96 13.00 158.26 2540.22
   03:23:55.053.18-May-2020 4797.01 3817.75 65.96 13.00 158.46 2540.22
   03:23:55.253.18-May-2020 4797.01 3817.65 65.96 13.00 158.66 2540.22
   03:23:55.453.18-May-2020 4797.01 3817.71 65.96 13.00 158.86 2540.22
   03:23:55.653.18-May-2020 4797.01 3817.20 65.96 13.00 159.06 2540.22
   03:23:55.853.18-May-2020 4797.01 3817.20 65.96 13.00 159.26 2540.22
   03:23:56.053.18-May-2020 4797.01 3817.60 65.96 13.00 159.46 2540.22
   03:23:56.253.18-May-2020 4797.01 3817.80 65.96 13.00 159.66 2540.22
   03:23:56.454.18-May-2020 4797.01 3817.97 65.95 13.00 159.86 2540.22
   03:23:56.654.18-May-2020 4797.01 3817.77 65.95 13.00 160.06 2540.22
   03:23:56.854.18-May-2020 4797.01 3817.77 65.95 13.00 160.26 2540.22
   03:23:57.054.18-May-2020 4797.01 3817.69 65.95 13.00 160.46 2540.22
   03:23:57.254.18-May-2020 4797.01 3817.70 65.95 13.00 160.66 2540.22
   03:23:57.454.18-May-2020 4797.01 3817.68 65.95 13.00 160.86 2540.22
   03:23:57.654.18-May-2020 4797.01 3816.71 65.95 13.00 161.06 2540.22
   03:23:57.854.18-May-2020 4797.01 3816.71 65.95 13.00 161.27 2540.22
   03:23:58.054.18-May-2020 4797.01 3501.94 65.95 13.00 161.47 2540.22
   03:23:58.254.18-May-2020 4797.01 3401.58 65.95 13.00 161.67 2540.22
   03:23:58.454.18-May-2020 4797.01 3408.01 65.95 13.00 161.87 2540.22
   03:23:58.654.18-May-2020 4797.01 3409.49 65.95 13.00 162.07 2540.22
   03:23:58.855.18-May-2020 4797.01 3409.49 65.95 13.00 162.27 2540.22
   03:23:59.055.18-May-2020 4797.01 3404.63 65.95 13.00 162.47 2540.22
   03:23:59.255.18-May-2020 4797.01 3405.63 65.95 13.00 162.67 2540.22
   03:23:59.455.18-May-2020 4797.01 3403.28 65.95 13.00 162.87 2540.22
   03:23:59.655.18-May-2020 4797.01 3404.01 65.95 13.00 163.07 2540.22
   03:23:59.855.18-May-2020 4797.01 3404.01 65.95 13.00 163.27 2540.22
   03:24:00.055.18-May-2020 4797.01 3402.89 65.95 13.00 163.47 2540.22
   03:24:00.255.18-May-2020 4797.01 3403.00 65.95 13.00 163.67 2540.22
   03:24:00.455.18-May-2020 4797.01 3406.12 65.95 13.00 163.87 2540.22
   03:24:00.655.18-May-2020 4797.01 3407.22 65.95 13.00 164.07 2540.22
   03:24:00.855.18-May-2020 4797.01 3407.22 65.95 13.00 164.27 2540.22
   03:24:01.055.18-May-2020 4797.01 3406.38 65.95 13.00 164.47 2540.22
   03:24:01.255.18-May-2020 4797.01 3405.18 65.95 13.00 164.67 2540.22
   03:24:01.456.18-May-2020 4797.01 3404.84 65.95 13.00 164.87 2540.22
   03:24:01.656.18-May-2020 4797.01 3406.85 65.95 13.00 165.07 2540.22
   03:24:01.856.18-May-2020 4797.01 3406.85 65.95 13.00 165.27 2540.22
   03:24:02.056.18-May-2020 4797.01 3404.47 65.95 13.00 165.47 2540.22
   03:24:02.256.18-May-2020 4797.01 3403.29 65.95 13.00 165.67 2540.22
   03:24:02.456.18-May-2020 4797.01 3399.19 65.95 13.00 165.87 2540.22
   03:24:02.656.18-May-2020 4797.01 3405.56 65.95 13.00 166.07 2540.22
   03:24:02.856.18-May-2020 4797.01 3405.56 65.95 13.00 166.27 2540.22
   03:24:03.056.18-May-2020 4797.01 3407.93 65.95 13.00 166.47 2540.22
   03:24:03.256.18-May-2020 4797.01 3407.36 65.95 13.00 166.67 2540.22
   03:24:03.456.18-May-2020 4797.01 3408.35 65.95 13.00 166.87 2540.22
   03:24:03.656.18-May-2020 4797.01 3411.57 65.95 13.00 167.07 2540.22
   03:24:03.857.18-May-2020 4797.01 3411.57 65.95 13.00 167.27 2540.22
   03:24:04.057.18-May-2020 4797.01 3409.77 65.94 13.00 167.47 2540.22
   03:24:04.257.18-May-2020 4797.01 3403.97 65.94 13.00 167.67 2540.22
   03:24:04.457.18-May-2020 4797.01 3405.10 65.94 13.00 167.87 2540.22
   03:24:04.657.18-May-2020 4797.01 3409.32 65.94 13.00 168.07 2540.22
   03:24:04.857.18-May-2020 4797.01 3409.32 65.94 13.00 168.27 2540.22
   03:24:05.057.18-May-2020 4797.01 3410.73 65.94 13.00 168.47 2540.22
   03:24:05.257.18-May-2020 4797.01 3414.87 65.94 13.00 168.67 2540.22
   03:24:05.457.18-May-2020 4797.01 3412.57 65.94 13.00 168.87 2540.22
   03:24:05.657.18-May-2020 4797.01 3414.13 65.94 13.00 169.07 2540.22
   03:24:05.857.18-May-2020 4797.01 3414.13 65.94 13.00 169.27 2540.22
   03:24:06.057.18-May-2020 4797.01 3415.39 65.94 13.00 169.47 2540.22
   03:24:06.257.18-May-2020 4797.01 3410.61 65.94 13.00 169.67 2540.22
   03:24:06.458.18-May-2020 4797.01 3414.65 65.94 13.00 169.87 2540.22
   03:24:06.658.18-May-2020 4797.01 3412.14 65.94 13.00 170.07 2540.22
   03:24:06.858.18-May-2020 4797.01 3412.14 65.94 13.00 170.27 2540.22
   03:24:07.058.18-May-2020 4797.01 3415.08 65.94 13.00 170.47 2540.22
   03:24:07.258.18-May-2020 4797.01 3419.56 65.94 13.00 170.67 2540.22
   03:24:07.458.18-May-2020 4797.01 3418.14 65.94 13.00 170.87 2540.22
   03:24:07.658.18-May-2020 4797.01 3416.99 65.94 13.00 171.07 2540.22
   03:24:07.858.18-May-2020 4797.01 3416.99 65.94 13.00 171.27 2540.22
   03:24:08.058.18-May-2020 4797.01 3560.80 65.94 13.00 171.47 2540.22
   03:24:08.258.18-May-2020 4797.01 3734.75 65.94 13.00 171.67 2540.22
   03:24:08.458.18-May-2020 4797.01 3786.18 65.94 13.00 171.87 2540.22
   03:24:08.658.18-May-2020 4797.01 3801.59 65.94 13.00 172.07 2540.22
   03:24:08.859.18-May-2020 4797.01 3801.59 65.94 13.00 172.27 2540.22
   03:24:09.059.18-May-2020 4797.01 3808.67 65.94 13.00 172.47 2540.22
   03:24:09.259.18-May-2020 4797.01 3809.62 65.94 13.00 172.67 2540.22
   03:24:09.459.18-May-2020 4797.01 3811.23 65.94 13.00 172.87 2540.22
   03:24:09.659.18-May-2020 4797.01 3811.44 65.94 13.00 173.07 2540.22
   03:24:09.859.18-May-2020 4797.01 3811.44 65.94 13.00 173.27 2540.22
   03:24:10.059.18-May-2020 4797.01 3812.76 65.94 13.00 173.47 2540.22
   03:24:10.259.18-May-2020 4797.01 3812.86 65.94 13.00 173.67 2540.22
   03:24:10.459.18-May-2020 4797.01 3813.05 65.94 13.00 173.87 2540.22
   03:24:10.659.18-May-2020 4797.01 3813.28 65.94 13.00 174.07 2540.22
   03:24:10.859.18-May-2020 4797.01 3813.28 65.94 13.00 174.27 2540.22
   03:24:11.059.18-May-2020 4797.01 3813.65 65.94 13.00 174.47 2540.22
   03:24:11.260.18-May-2020 4797.01 3813.34 65.94 13.00 174.67 2540.22
   03:24:11.460.18-May-2020 4797.01 3814.62 65.94 13.00 174.87 2540.22
   03:24:11.660.18-May-2020 4797.01 3814.46 65.94 13.00 175.07 2540.22
   03:24:11.860.18-May-2020 4797.01 3814.46 65.94 13.00 175.27 2540.22
   03:24:12.060.18-May-2020 4797.01 3815.21 65.94 13.00 175.47 2540.22
   03:24:12.260.18-May-2020 4797.01 3815.02 65.94 13.00 175.67 2540.22
   03:24:12.460.18-May-2020 4797.01 3814.85 65.94 13.00 175.87 2540.22
   03:24:12.660.18-May-2020 4797.01 3815.21 65.94 13.00 176.07 2540.22
   03:24:12.860.18-May-2020 4797.01 3815.21 65.94 13.00 176.27 2540.22
   03:24:13.060.18-May-2020 4797.01 3816.00 65.94 13.00 176.47 2540.22
   03:24:13.260.18-May-2020 4797.01 3815.13 65.94 13.00 176.67 2540.22
   03:24:13.460.18-May-2020 4797.01 3815.30 65.94 13.00 176.87 2540.22
   03:24:13.660.18-May-2020 4797.01 3815.77 65.94 13.00 177.07 2540.22
   03:24:13.861.18-May-2020 4797.01 3815.77 65.94 13.00 177.27 2540.22
   03:24:14.061.18-May-2020 4797.01 3815.99 65.94 13.00 177.47 2540.22
   03:24:14.261.18-May-2020 4797.01 3815.43 65.94 13.00 177.67 2540.22
   03:24:14.461.18-May-2020 4797.01 3815.77 65.94 13.00 177.87 2540.22
   03:24:14.661.18-May-2020 4797.01 3816.04 65.94 13.00 178.07 2540.22
   03:24:14.861.18-May-2020 4797.01 3816.04 65.94 13.00 178.27 2540.22
   03:24:15.061.18-May-2020 4797.01 3815.72 65.94 13.00 178.47 2540.22
   03:24:15.261.18-May-2020 4797.01 3815.78 65.94 13.00 178.67 2540.22
   03:24:15.461.18-May-2020 4797.01 3815.81 65.94 13.00 178.87 2540.22
   03:24:15.661.18-May-2020 4797.01 3815.76 65.95 13.00 179.07 2540.22
   03:24:15.861.18-May-2020 4797.01 3815.76 65.95 13.00 179.27 2540.22
   03:24:16.061.18-May-2020 4797.01 3815.97 65.95 13.00 179.47 2540.22
   03:24:16.262.18-May-2020 4797.01 3816.01 65.95 13.00 179.67 2540.22
   03:24:16.462.18-May-2020 4797.01 3815.89 65.95 13.00 179.87 2540.22
   03:24:16.662.18-May-2020 4797.01 3816.23 65.95 13.00 180.07 2540.22
   03:24:16.862.18-May-2020 4797.01 3816.23 65.95 13.00 180.27 2540.22
   03:24:17.062.18-May-2020 4797.01 3816.10 65.95 13.00 180.47 2540.22
   03:24:17.262.18-May-2020 4797.01 3816.08 65.95 13.00 180.67 2540.22
