~Version Information
 VERS.                  2.0:   CWLS log ASCII Standard -VERSION 2.0
 WRAP.                   NO:   One line per depth step
~Well Information Block
#MNEM.UNIT     VALUE/NAME     DESCRIPTION
#---------     -----------    ---------------------------
 STRT.S             21:13:20 18-May-20: START TIME 21:13:20 18-May-20
 STOP.S             21:20:25 18-May-20: STOP TIME  21:20:25 18-May-20
 STEP.S                   0.00: STEP TIME
 NULL.                 -999.25: NULL VALUE
 UNIT.                     N/A:  LOGGING EQUIPMENT ID
 DCON.         Sperry Drilling:  DIRECTNL CONTR
 DOE .                     N/A:  DOE NUMBER
 JOBN.        AZ-XX-0906252240:  JOB TICKET NUMB
 MWDS.                     N/A:  MWD SHOP
 PROV.                    Baku:  PROVINCE
 STAT.                    Baku:  STATE NAME
 REGN.                   EESSA:  REGION
 BASE.              Azerbaijan:  LOGGING EQUIPMENT BASE LOCATION
 UWI .                     N/A:  UNIQUE WELL IDENTIFIER
 API .                     N/A:  API NUMBER
 MDS .        Operator Entered:  MAG DATA SOURCE
 WTYP.                Deviated:  WELL TYPE
 COMP.     BP Exploration (Caspian Sea) Ltd.:  COMPANY
 SRVC.          Turan Drilling:  CONTRACTOR
 WELL.           J23 (Slot 07):  WELL NAME
 CTRY.              Azerbaijan:  COUNTRY NAME
 FLD .                     ACG:  FIELD NAME
 PDAT.          Mean Sea Level:  PERMANENT DATUM
 RIG .             West Chirag:  RIG NAME
 SON .        AZ-XX-0906252240:  JOB NUMBER
 FTOP.          Formation Tops:  FORM TOPS DESC
 ILTD.               Lithology:  INTERP LTH DESC
 SVYD.                  Survey:  SURVEY DESC
 DMOD.             Drill Model:  DRILL MOD DESC
 HPTY.       Minimum Curvature:  HOLE POS TYPE
 NREF.                    Grid:  NORTH REFERENCE
 SPUD.               27-Aug-20:  SPUD DATE
 DATE.      00.00.00 19-May-20:  END TIME
 STIM.      03.00.00 25-Mar-20:  START TIME
 DMF .             Drill Floor:  DRILL MEAS FROM
 DFST.                        :  DIST FSL TEXT
 DFWT.                        :  DIST FWL TEXT
 CNTY.                        :  COUNTY
 LOC .                        :  LOCATION
 LMF .             Drill Floor:  LOG MEASURED FROM
 VSNS.m                   9.43:  VERT SEC N/S
 VSEW.m                  -8.91:  VERT SEC E/W
 AGAP.m                  43.00:  AIR GAP
 DEP .m                 354.17:  DEPTH
 APD .m                  43.00:  DEPTH ABOVE PD
 WDMS.m                 169.80:  WD ELEV
 EGL .m                   0.00:  GROUND ELEVATION
 EPD .m                   0.00:  ELEVATION
 AZTC.deg                 6.31:  AZM TOTAL CORR
 GRDC.deg                 0.14:  GRID CORRECTION
 MDEC.deg                 6.45:  MAGNETIC DECL
 MDIP.deg                59.56:  MAGNETIC DIP
 MFLD.nT              50295.00:  MAGNETIC FIELD
 GVFD.g                   1.00:  GRAVITY FIELD
 VSDR.deg               179.88:  VERT SEC DIRECT
 TDD .m                5150.01:  TOTAL DEPTH (DRILLER)
 SDEP.m                 864.00:  START DEPTH
 DFSL.m                   0.00:  DISTANCE FSL
 DFWL.m                   0.00:  DISTANCE FWL
 UTMY.m             4443793.85:  UTM Y
 UTMX.m              519005.06:  UTM X
 WHEW.m                  -8.91:  WELL HEAD E/W
 WHNS.m                   9.43:  WELL HEAD N/S
 LONG.deg                51.22:  LONGITUDE
 LATI.deg                40.13:  LATITUDE
 TVDS.m                  43.00:  TVDSS CORRECTN
 EKB .m                   0.00:  KB ELEVATION
 EDF .m                  43.00:  DF ELEVATION
 TDL .m                 363.00:  TOTAL DEPTH (LOGGER)
 MAGU.                 1850802:  MAGUTM CHECKSUM
 VSC .                       0:  VS TO CLOSURE
~Parameter Information Block
#MNEM.UNIT       Value        Description
#---------     -----------    ---------------------------
 AV  .mps                 2.30:  Ann Velocity 
 AVMX.mps                 4.40:  Max Ann Veloc 
 AZIF.deg               110.24:  Azm, Final 
 BHAT.        Rotary Steerable:  BHA Type 
 BREV.rev               331.00:  Rev Bit Total 
 BROT.°/30m               0.00:  Build Rotating 
 BS  .in                  8.50:  Bit Size 
 BSZ .in                  8.50:  Bit Size 
 BTPL.psig              585.00:  Bit Press Loss 
 CABU.                     Yes:  Customer Abuse 
 TCS .hr                122.75:  Time Ciculation Ended 
 CV  .mps                 2.67:  Crit Velocity 
 CVMX.mps                 3.56:  Max Crit Veloc 
 DD1 .          Rashad Habibov:  Direct Drillr 1 
 DD2 .         Rasim Ibrahimov:  Direct Drillr 2 
 DDSV.               Geo-Pilot:  DD Service 
 DEFF.%                  98.00:  % Det Eff 
 DLRX.°/30m               0.75:  Dogleg Rot Max 
 DLSO.°/30m               1.25:  Dogleg Oriented 
 DLSX.°/30m               2.06:  Dogleg Str Max 
 DRET.      07.45.00 17-May-20:  Drill End Time 
 DRST.      22.50.00 15-May-20:  Drill Start Tim 
 DTIM.hr                 20.75:  Time Drilling 
 EDEP.m                5124.01:  End Depth 
 ENG1.           Eldar Hajiyev:  Engineer 1 
 ENG2.        Marcelo Sandoval:  Engineer 2 
 ENG3.        Davud huseynzada:  Engineer 3 
 ENG4.          Ruslan Safarov:  Engineer 4 
 ETIM.      04.33.00 23-May-20:  End Time 
 FLOI.gpm               450.00:  Flow In 
 FLON.gpm               400.00:  Flow In Min 
 FLOS.cptm                0.00:  Fluid Loss 
 FLOX.gpm               500.00:  Flow In Max 
 FTRO.       Formation Presure:  FTWD Run Obj 
 HFLO.                      No:  High Flow 
 HPRE.                     Yes:  High Pressure 
 HTEM.                      No:  High Temp 
 HYDO.m                   1.80:  Hydro Offset 
 IFIN.deg                75.06:  Inc, Final 
 IMAX.deg                75.38:  Inc Max 
 IMIN.deg                74.69:  Inc Min 
 IMND.m                5027.38:  Inc Min Depth 
 IMXD.m                4771.61:  Inc Max Depth 
 JARR.                      No:  Jarring 
 LETM.      07.45.00 17-May-20:  Log End Time 
 LOST.hr                     0:  Lost Rig Time 
 LSTM.      22.50.00 15-May-20:  Log Start Time 
 MDCL.ppm             42000.00:  Mud Chlorides 
 MDES.     Inversion Oil/Synthetic:  Mud Desc 
 DFD .sg                  1.34:  Mud Density 
 MDMN.sg                  1.34:  Dens Mud Min 
 MDMX.sg                  1.34:  Dens Mud Max 
 MOIL.                       0:  Run Mud Oil % 
 MOWR.                   67:33:  Run Mud OWR 
 MSND.                       0:  Run Mud Sand % 
 MSOL.                     1.8:  Run Mud Solids% 
 DFV .spqt               76.00:  Mud Viscosity 
 MWOD.in                  6.75:  MWD Tool OD 
 MWSI.                      No:  Serv Intrp, MWD 
 OTIM.hr                228.19:  Time Operating 
 PCON.           Look Like New:  Pad Condition 
 PMAX.psia             6164.70:  Press Op, Max 
 PV  .cP                 28.00:  Mud PV 
 RUN .                     900:  Run Number 
 ROPA.m/hr               19.00:  ROP Avg 
 ROPN.m/hr               11.00:  ROP Min 
 ROPX.m/hr               36.00:  ROP Max 
 RPMA.rpm               120.00:  RPM Surface Avg 
 RPMN.rpm               120.00:  RPM Surface Min 
 RPMX.rpm               120.00:  RPM Surface Max 
 RRUN.                    L604:  Rig Run Number 
 RTIM.hr                  7.00:  Time Reaming 
 SAZI.deg               109.27:  Azm, Start 
 SDEP.m                4761.01:  Start Depth 
 SIDD.                      No:  Serv Intrp, DD 
 SINC.deg                75.38:  Inc, Start 
 SPPA.psig             3574.00:  SPP Avg 
 SPPN.psig             3475.00:  SPP Min 
 SPPX.psig             3791.00:  SPP Max 
 STIM.      07.08.48 13-May-20:  Start Time 
 SVCS.                 DD, MWD:  Services 
 SVER.                    9.20:  Sperry Version 
 TDAT.m                 363.00:  Tot Depth Attmp 
 TDDF.                      No:  Trip for DD 
 TDLG.m                 363.00:  Tot Depth Loggd 
 TFF .                      No:  Trip for Fail 
 TQAA.f-kp               20.00:  Torque Abs Avg 
 TQAN.f-kp               18.00:  Torque Abs Min 
 TQAX.f-kp               22.00:  Torque Abs Max 
 TRRT.°/30m              -0.35:  Turn Rotating 
 MRT .                    HCIM:  Maximum Recorded Temperature 
 TTMX.degC               92.16:  Max Tool Temp 
 VS01.                90586518:  Virtual Str1 SN 
 VS02.        AZ90560654Z1W1C6:  Virtual Str2 SN 
 VS03.           AZ90610398F11:  Virtual Str3 SN 
 VS04.                90514975:  Virtual Str4 SN 
 VS05.                90514972:  Virtual Str5 SN 
 VS06.     AZ90603282F11V7D1A6:  Virtual Str6 SN 
 WBMN.klb                 7.00:  WOB Min 
 WOBA.klb                12.00:  WOB Avg 
 WOBX.klb                14.00:  WOB Max 
 YP  .lhf2               32.00:  Yield Point 
~Curve Information Block
#MNEM.UNIT                 API CODE     Curve Description
#---------               -----------    ---------------------------
 TIME.HHMMSS            00 000 000 000:  GT Time & Date
 GTDEPTH.m              00 000 000 000:  GT Depth
 GTPQH.psia             00 000 000 000:  GT HR Quartz Pressure
 GTTQ.degC              00 000 000 000:  GT Quartz Temperature
 GTTN.NONE              00 000 000 000:  GT Test Number
 GTET.sec               00 000 000 000:  GT Elapsed Test Time
 GTTVD.m                00 000 000 000:  GT True Vertical Depth
#Other Information
#
#WARRANTY: Halliburton will use its best efforts to furnish customers with 
#accurate information and interpretations that are part of, and incident to, the services 
#provided.  However, Halliburton cannot and does not warrant the accuracy 
#or correctness of such information and interpretations.  Under no circumstances should any 
#such information or interpretation be relied upon as the sole basis for any drilling, 
#completion, production, or financial decision or any procedure involving any risk to the 
#safety of any drilling venture, drilling rig or its crew or any other third party.  The 
#Customer has full responsibility for all drilling, completion and production operation.  
#Halliburton makes no representations or warranties, either expressed or 
#implied, including, but not limited to, the implied warranties of merchantability or fitness 
#for a particular purpose, with respect to the services rendered.  In no event will 
#Halliburton be liable for failure to obtain any particular results or for 
#any damages, including, but not limited to, indirect, special or consequential damages, 
#resulting from the use of any information or interpretation provided by Halliburton.
#
~A           TIME           GTDEPTH  GTPQH  GTTQ  GTTN   GTET   GTTVD  
# ...
   21:19:44.767.18-May-2020 4766.01 5528.23 60.62 14.00 384.30 2532.29
   21:19:44.968.18-May-2020 4766.01 5536.29 60.62 14.00 384.50 2532.29
   21:19:45.168.18-May-2020 4766.01 5527.94 60.62 14.00 384.70 2532.29
   21:19:45.368.18-May-2020 4766.01 5527.07 60.62 14.00 384.90 2532.29
   21:19:45.568.18-May-2020 4766.01 5540.65 60.62 14.00 385.10 2532.29
   21:19:45.768.18-May-2020 4766.01 5534.78 60.62 14.00 385.30 2532.29
   21:19:45.968.18-May-2020 4766.01 5526.20 60.62 14.00 385.50 2532.29
   21:19:46.168.18-May-2020 4766.01 5523.51 60.62 14.00 385.70 2532.29
   21:19:46.368.18-May-2020 4766.01 5531.64 60.62 14.00 385.90 2532.29
   21:19:46.568.18-May-2020 4766.01 5538.67 60.62 14.00 386.10 2532.29
   21:19:46.768.18-May-2020 4766.01 5538.67 60.62 14.00 386.30 2532.29
   21:19:46.968.18-May-2020 4766.01 5523.16 60.62 14.00 386.50 2532.29
   21:19:47.168.18-May-2020 4766.01 5524.33 60.62 14.00 386.70 2532.29
   21:19:47.368.18-May-2020 4766.01 5529.20 60.62 14.00 386.90 2532.29
   21:19:47.568.18-May-2020 4766.01 5528.00 60.62 14.00 387.10 2532.29
   21:19:47.768.18-May-2020 4766.01 5528.00 60.62 14.00 387.30 2532.29
   21:19:47.968.18-May-2020 4766.01 5522.36 60.62 14.00 387.50 2532.29
   21:19:48.168.18-May-2020 4766.01 5522.72 60.62 14.00 387.70 2532.29
   21:19:48.368.18-May-2020 4766.01 5522.05 60.62 14.00 387.90 2532.29
   21:19:48.568.18-May-2020 4766.01 5523.40 60.62 14.00 388.10 2532.29
   21:19:48.769.18-May-2020 4766.01 5523.40 60.62 14.00 388.30 2532.29
   21:19:48.969.18-May-2020 4766.01 5519.47 60.62 14.00 388.50 2532.29
   21:19:49.169.18-May-2020 4766.01 5521.06 60.62 14.00 388.70 2532.29
   21:19:49.369.18-May-2020 4766.01 5520.82 60.62 14.00 388.90 2532.29
   21:19:49.569.18-May-2020 4766.01 5527.27 60.62 14.00 389.10 2532.29
   21:19:49.769.18-May-2020 4766.01 5519.18 60.62 14.00 389.30 2532.29
   21:19:49.969.18-May-2020 4766.01 5518.85 60.62 14.00 389.50 2532.29
   21:19:50.169.18-May-2020 4766.01 5518.43 60.62 14.00 389.70 2532.29
   21:19:50.369.18-May-2020 4766.01 5518.60 60.62 14.00 389.90 2532.29
   21:19:50.569.18-May-2020 4766.01 5516.57 60.62 14.00 390.10 2532.29
   21:19:50.769.18-May-2020 4766.01 5516.57 60.62 14.00 390.30 2532.29
   21:19:50.969.18-May-2020 4766.01 5529.09 60.62 14.00 390.50 2532.29
   21:19:51.169.18-May-2020 4766.01 5513.88 60.62 14.00 390.70 2532.29
   21:19:51.369.18-May-2020 4766.01 5517.52 60.62 14.00 390.90 2532.29
   21:19:51.569.18-May-2020 4766.01 5516.46 60.62 14.00 391.10 2532.29
   21:19:51.769.18-May-2020 4766.01 5516.46 60.62 14.00 391.30 2532.29
   21:19:51.969.18-May-2020 4766.01 5514.69 60.62 14.00 391.50 2532.29
   21:19:52.169.18-May-2020 4766.01 5518.65 60.62 14.00 391.70 2532.29
   21:19:52.369.18-May-2020 4766.01 5519.09 60.62 14.00 391.90 2532.29
   21:19:52.570.18-May-2020 4766.01 5544.58 60.62 14.00 392.10 2532.29
   21:19:52.770.18-May-2020 4766.01 5544.58 60.62 14.00 392.30 2532.29
   21:19:52.970.18-May-2020 4766.01 5523.92 60.62 14.00 392.50 2532.29
   21:19:53.170.18-May-2020 4766.01 5523.18 60.62 14.00 392.70 2532.29
   21:19:53.370.18-May-2020 4766.01 5537.83 60.62 14.00 392.90 2532.29
   21:19:53.570.18-May-2020 4766.01 5542.70 60.62 14.00 393.10 2532.29
   21:19:53.770.18-May-2020 4766.01 5524.67 60.62 14.00 393.30 2532.29
   21:19:53.970.18-May-2020 4766.01 5529.28 60.62 14.00 393.50 2532.29
   21:19:54.170.18-May-2020 4766.01 5530.82 60.62 14.00 393.70 2532.29
   21:19:54.370.18-May-2020 4766.01 5540.11 60.62 14.00 393.90 2532.29
   21:19:54.570.18-May-2020 4766.01 5532.07 60.62 14.00 394.10 2532.29
   21:19:54.770.18-May-2020 4766.01 5532.07 60.62 14.00 394.30 2532.29
   21:19:54.970.18-May-2020 4766.01 5529.79 60.62 14.00 394.50 2532.29
   21:19:55.170.18-May-2020 4766.01 5531.49 60.62 14.00 394.70 2532.29
   21:19:55.370.18-May-2020 4766.01 5530.02 60.62 14.00 394.90 2532.29
   21:19:55.570.18-May-2020 4766.01 5539.93 60.62 14.00 395.10 2532.29
   21:19:55.770.18-May-2020 4766.01 5539.93 60.62 14.00 395.30 2532.29
   21:19:55.970.18-May-2020 4766.01 5526.90 60.62 14.00 395.51 2532.29
   21:19:56.170.18-May-2020 4766.01 5526.01 60.62 14.00 395.71 2532.29
   21:19:56.371.18-May-2020 4766.01 5534.13 60.62 14.00 395.91 2532.29
   21:19:56.571.18-May-2020 4766.01 5529.59 60.62 14.00 396.11 2532.29
   21:19:56.771.18-May-2020 4766.01 5529.59 60.62 14.00 396.31 2532.29
   21:19:56.971.18-May-2020 4766.01 5526.96 60.62 14.00 396.51 2532.29
   21:19:57.171.18-May-2020 4766.01 5528.79 60.62 14.00 396.71 2532.29
   21:19:57.371.18-May-2020 4766.01 5528.32 60.62 14.00 396.91 2532.29
   21:19:57.571.18-May-2020 4766.01 5527.08 60.62 14.00 397.11 2532.29
   21:19:57.771.18-May-2020 4766.01 5527.08 60.62 14.00 397.31 2532.29
   21:19:57.971.18-May-2020 4766.01 5533.20 60.62 14.00 397.51 2532.29
   21:19:58.171.18-May-2020 4766.01 5526.74 60.62 14.00 397.71 2532.29
   21:19:58.371.18-May-2020 4766.01 5527.11 60.62 14.00 397.91 2532.29
   21:19:58.571.18-May-2020 4766.01 5529.96 60.62 14.00 398.11 2532.29
   21:19:58.771.18-May-2020 4766.01 5529.96 60.62 14.00 398.31 2532.29
   21:19:58.971.18-May-2020 4766.01 5525.06 60.62 14.00 398.51 2532.29
   21:19:59.171.18-May-2020 4766.01 5529.86 60.62 14.00 398.71 2532.29
   21:19:59.371.18-May-2020 4766.01 5535.13 60.62 14.00 398.91 2532.29
   21:19:59.571.18-May-2020 4766.01 5544.04 60.62 14.00 399.11 2532.29
   21:19:59.771.18-May-2020 4766.01 5544.04 60.62 14.00 399.31 2532.29
   21:19:59.971.18-May-2020 4766.01 5528.41 60.62 14.00 399.51 2532.29
   21:20:00.172.18-May-2020 4766.01 5534.43 60.62 14.00 399.71 2532.29
   21:20:00.372.18-May-2020 4766.01 5547.42 60.62 14.00 399.91 2532.29
   21:20:00.572.18-May-2020 4766.01 5528.83 60.62 14.00 400.11 2532.29
   21:20:00.772.18-May-2020 4766.01 5528.83 60.62 14.00 400.31 2532.29
   21:20:00.972.18-May-2020 4766.01 5530.53 60.62 14.00 400.51 2532.29
   21:20:01.172.18-May-2020 4766.01 5540.79 60.62 14.00 400.71 2532.29
   21:20:01.372.18-May-2020 4766.01 5529.60 60.62 14.00 400.91 2532.29
   21:20:01.572.18-May-2020 4766.01 5528.63 60.62 14.00 401.11 2532.29
   21:20:01.772.18-May-2020 4766.01 5529.49 60.62 14.00 401.31 2532.29
   21:20:01.972.18-May-2020 4766.01 5532.23 60.62 14.00 401.51 2532.29
   21:20:02.172.18-May-2020 4766.01 5528.74 60.62 14.00 401.71 2532.29
   21:20:02.372.18-May-2020 4766.01 5541.96 60.62 14.00 401.91 2532.29
   21:20:02.572.18-May-2020 4766.01 5526.67 60.62 14.00 402.11 2532.29
   21:20:02.772.18-May-2020 4766.01 5526.67 60.62 14.00 402.31 2532.29
   21:20:02.972.18-May-2020 4766.01 5527.75 60.62 14.00 402.51 2532.29
   21:20:03.172.18-May-2020 4766.01 5538.96 60.62 14.00 402.71 2532.29
   21:20:03.372.18-May-2020 4766.01 5529.14 60.62 14.00 402.91 2532.29
   21:20:03.572.18-May-2020 4766.01 5528.99 60.62 14.00 403.11 2532.29
   21:20:03.773.18-May-2020 4766.01 5528.99 60.62 14.00 403.31 2532.29
   21:20:03.973.18-May-2020 4766.01 5532.25 60.62 14.00 403.51 2532.29
   21:20:04.173.18-May-2020 4766.01 5529.48 60.62 14.00 403.71 2532.29
   21:20:04.373.18-May-2020 4766.01 5529.16 60.62 14.00 403.91 2532.29
   21:20:04.573.18-May-2020 4766.01 5543.97 60.62 14.00 404.11 2532.29
   21:20:04.773.18-May-2020 4766.01 5543.97 60.62 14.00 404.31 2532.29
   21:20:04.973.18-May-2020 4766.01 5529.94 60.62 14.00 404.51 2532.29
   21:20:05.173.18-May-2020 4766.01 5528.49 60.62 14.00 404.71 2532.29
   21:20:05.373.18-May-2020 4766.01 5541.71 60.62 14.00 404.91 2532.29
   21:20:05.573.18-May-2020 4766.01 5540.13 60.62 14.00 405.11 2532.29
   21:20:05.773.18-May-2020 4766.01 5529.17 60.62 14.00 405.31 2532.29
   21:20:05.973.18-May-2020 4766.01 5530.98 60.62 14.00 405.51 2532.29
   21:20:06.173.18-May-2020 4766.01 5547.70 60.62 14.00 405.71 2532.29
   21:20:06.373.18-May-2020 4766.01 5537.12 60.62 14.00 405.91 2532.29
   21:20:06.573.18-May-2020 4766.01 5529.93 60.62 14.00 406.11 2532.29
   21:20:06.773.18-May-2020 4766.01 5529.93 60.62 14.00 406.31 2532.29
   21:20:06.973.18-May-2020 4766.01 5538.62 60.62 14.00 406.51 2532.29
   21:20:07.173.18-May-2020 4766.01 5535.79 60.62 14.00 406.71 2532.29
