~Version Information
 VERS.                  2.0:   CWLS log ASCII Standard -VERSION 2.0
 WRAP.                   NO:   One line per depth step
~Well Information Block
#MNEM.UNIT     VALUE/NAME     DESCRIPTION
#---------     -----------    ---------------------------
 STRT.S             12:13:26 20-May-20: START TIME 12:13:26 20-May-20
 STOP.S             12:20:31 20-May-20: STOP TIME  12:20:31 20-May-20
 STEP.S                   0.00: STEP TIME
 NULL.                 -999.25: NULL VALUE
 UNIT.                     N/A:  LOGGING EQUIPMENT ID
 DCON.         Sperry Drilling:  DIRECTNL CONTR
 DOE .                     N/A:  DOE NUMBER
 JOBN.        AZ-XX-0906252240:  JOB TICKET NUMB
 MWDS.                     N/A:  MWD SHOP
 PROV.                    Baku:  PROVINCE
 STAT.                    Baku:  STATE NAME
 REGN.                   EESSA:  REGION
 BASE.              Azerbaijan:  LOGGING EQUIPMENT BASE LOCATION
 UWI .                     N/A:  UNIQUE WELL IDENTIFIER
 API .                     N/A:  API NUMBER
 MDS .        Operator Entered:  MAG DATA SOURCE
 WTYP.                Deviated:  WELL TYPE
 COMP.     BP Exploration (Caspian Sea) Ltd.:  COMPANY
 SRVC.          Turan Drilling:  CONTRACTOR
 WELL.           J23 (Slot 07):  WELL NAME
 CTRY.              Azerbaijan:  COUNTRY NAME
 FLD .                     ACG:  FIELD NAME
 PDAT.          Mean Sea Level:  PERMANENT DATUM
 RIG .             West Chirag:  RIG NAME
 SON .        AZ-XX-0906252240:  JOB NUMBER
 FTOP.          Formation Tops:  FORM TOPS DESC
 ILTD.               Lithology:  INTERP LTH DESC
 SVYD.                  Survey:  SURVEY DESC
 DMOD.             Drill Model:  DRILL MOD DESC
 HPTY.       Minimum Curvature:  HOLE POS TYPE
 NREF.                    Grid:  NORTH REFERENCE
 SPUD.               27-Aug-20:  SPUD DATE
 DATE.      00.00.00 19-May-20:  END TIME
 STIM.      03.00.00 25-Mar-20:  START TIME
 DMF .             Drill Floor:  DRILL MEAS FROM
 DFST.                        :  DIST FSL TEXT
 DFWT.                        :  DIST FWL TEXT
 CNTY.                        :  COUNTY
 LOC .                        :  LOCATION
 LMF .             Drill Floor:  LOG MEASURED FROM
 VSNS.m                   9.43:  VERT SEC N/S
 VSEW.m                  -8.91:  VERT SEC E/W
 AGAP.m                  43.00:  AIR GAP
 DEP .m                 354.17:  DEPTH
 APD .m                  43.00:  DEPTH ABOVE PD
 WDMS.m                 169.80:  WD ELEV
 EGL .m                   0.00:  GROUND ELEVATION
 EPD .m                   0.00:  ELEVATION
 AZTC.deg                 6.31:  AZM TOTAL CORR
 GRDC.deg                 0.14:  GRID CORRECTION
 MDEC.deg                 6.45:  MAGNETIC DECL
 MDIP.deg                59.56:  MAGNETIC DIP
 MFLD.nT              50295.00:  MAGNETIC FIELD
 GVFD.g                   1.00:  GRAVITY FIELD
 VSDR.deg               179.88:  VERT SEC DIRECT
 TDD .m                5150.01:  TOTAL DEPTH (DRILLER)
 SDEP.m                 864.00:  START DEPTH
 DFSL.m                   0.00:  DISTANCE FSL
 DFWL.m                   0.00:  DISTANCE FWL
 UTMY.m             4443793.85:  UTM Y
 UTMX.m              519005.06:  UTM X
 WHEW.m                  -8.91:  WELL HEAD E/W
 WHNS.m                   9.43:  WELL HEAD N/S
 LONG.deg                51.22:  LONGITUDE
 LATI.deg                40.13:  LATITUDE
 TVDS.m                  43.00:  TVDSS CORRECTN
 EKB .m                   0.00:  KB ELEVATION
 EDF .m                  43.00:  DF ELEVATION
 TDL .m                 363.00:  TOTAL DEPTH (LOGGER)
 MAGU.                 1850802:  MAGUTM CHECKSUM
 VSC .                       0:  VS TO CLOSURE
~Parameter Information Block
#MNEM.UNIT       Value        Description
#---------     -----------    ---------------------------
 AV  .mps                 2.30:  Ann Velocity 
 AVMX.mps                 4.40:  Max Ann Veloc 
 AZIF.deg               110.24:  Azm, Final 
 BHAT.        Rotary Steerable:  BHA Type 
 BREV.rev               331.00:  Rev Bit Total 
 BROT.°/30m               0.00:  Build Rotating 
 BS  .in                  8.50:  Bit Size 
 BSZ .in                  8.50:  Bit Size 
 BTPL.psig              585.00:  Bit Press Loss 
 CABU.                     Yes:  Customer Abuse 
 COMM.                     моЊ:  Run Comments 1 
 TCS .hr                122.75:  Time Ciculation Ended 
 CV  .mps                 2.67:  Crit Velocity 
 CVMX.mps                 3.56:  Max Crit Veloc 
 DD1 .          Rashad Habibov:  Direct Drillr 1 
 DD2 .         Rasim Ibrahimov:  Direct Drillr 2 
 DDSV.               Geo-Pilot:  DD Service 
 DEFF.%                  98.00:  % Det Eff 
 DLRX.°/30m               0.75:  Dogleg Rot Max 
 DLSO.°/30m               1.25:  Dogleg Oriented 
 DLSX.°/30m               2.06:  Dogleg Str Max 
 DRET.      07.45.00 17-May-20:  Drill End Time 
 DRST.      22.50.00 15-May-20:  Drill Start Tim 
 DTIM.hr                 20.75:  Time Drilling 
 EDEP.m                5124.01:  End Depth 
 ENG1.           Eldar Hajiyev:  Engineer 1 
 ENG2.        Marcelo Sandoval:  Engineer 2 
 ENG3.        Davud huseynzada:  Engineer 3 
 ENG4.          Ruslan Safarov:  Engineer 4 
 ETIM.      04.33.00 23-May-20:  End Time 
 FLOI.gpm               450.00:  Flow In 
 FLON.gpm               400.00:  Flow In Min 
 FLOS.cptm                0.00:  Fluid Loss 
 FLOX.gpm               500.00:  Flow In Max 
 FTRO.       Formation Presure:  FTWD Run Obj 
 HFLO.                      No:  High Flow 
 HPRE.                     Yes:  High Pressure 
 HTEM.                      No:  High Temp 
 HYDO.m                   1.80:  Hydro Offset 
 IFIN.deg                75.06:  Inc, Final 
 IMAX.deg                75.38:  Inc Max 
 IMIN.deg                74.69:  Inc Min 
 IMND.m                5027.38:  Inc Min Depth 
 IMXD.m                4771.61:  Inc Max Depth 
 JARR.                      No:  Jarring 
 LETM.      07.45.00 17-May-20:  Log End Time 
 LOST.hr                     0:  Lost Rig Time 
 LSTM.      22.50.00 15-May-20:  Log Start Time 
 MDCL.ppm             42000.00:  Mud Chlorides 
 MDES.     Inversion Oil/Synthetic:  Mud Desc 
 DFD .sg                  1.34:  Mud Density 
 MDMN.sg                  1.34:  Dens Mud Min 
 MDMX.sg                  1.34:  Dens Mud Max 
 MOIL.                       0:  Run Mud Oil % 
 MOWR.                   67:33:  Run Mud OWR 
 MSND.                       0:  Run Mud Sand % 
 MSOL.                     1.8:  Run Mud Solids% 
 DFV .spqt               76.00:  Mud Viscosity 
 MWOD.in                  6.75:  MWD Tool OD 
 MWSI.                      No:  Serv Intrp, MWD 
 OTIM.hr                228.19:  Time Operating 
 PCON.           Look Like New:  Pad Condition 
 PMAX.psia             6164.70:  Press Op, Max 
 PV  .cP                 28.00:  Mud PV 
 RUN .                     900:  Run Number 
 ROPA.m/hr               19.00:  ROP Avg 
 ROPN.m/hr               11.00:  ROP Min 
 ROPX.m/hr               36.00:  ROP Max 
 RPMA.rpm               120.00:  RPM Surface Avg 
 RPMN.rpm               120.00:  RPM Surface Min 
 RPMX.rpm               120.00:  RPM Surface Max 
 RRUN.                    L604:  Rig Run Number 
 RTIM.hr                  7.00:  Time Reaming 
 SAZI.deg               109.27:  Azm, Start 
 SDEP.m                4761.01:  Start Depth 
 SIDD.                      No:  Serv Intrp, DD 
 SINC.deg                75.38:  Inc, Start 
 SPPA.psig             3574.00:  SPP Avg 
 SPPN.psig             3475.00:  SPP Min 
 SPPX.psig             3791.00:  SPP Max 
 STIM.      07.08.48 13-May-20:  Start Time 
 SVCS.                 DD, MWD:  Services 
 SVER.                    9.20:  Sperry Version 
 TDAT.m                 363.00:  Tot Depth Attmp 
 TDDF.                      No:  Trip for DD 
 TDLG.m                 363.00:  Tot Depth Loggd 
 TFF .                      No:  Trip for Fail 
 TQAA.f-kp               20.00:  Torque Abs Avg 
 TQAN.f-kp               18.00:  Torque Abs Min 
 TQAX.f-kp               22.00:  Torque Abs Max 
 TRRT.°/30m              -0.35:  Turn Rotating 
 MRT .                    HCIM:  Maximum Recorded Temperature 
 TTMX.degC               92.16:  Max Tool Temp 
 VS01.                90586518:  Virtual Str1 SN 
 VS02.        AZ90560654Z1W1C6:  Virtual Str2 SN 
 VS03.           AZ90610398F11:  Virtual Str3 SN 
 VS04.                90514975:  Virtual Str4 SN 
 VS05.                90514972:  Virtual Str5 SN 
 VS06.     AZ90603282F11V7D1A6:  Virtual Str6 SN 
 WBMN.klb                 7.00:  WOB Min 
 WOBA.klb                12.00:  WOB Avg 
 WOBX.klb                14.00:  WOB Max 
 YP  .lhf2               32.00:  Yield Point 
~Curve Information Block
#MNEM.UNIT                 API CODE     Curve Description
#---------               -----------    ---------------------------
 TIME.HHMMSS            00 000 000 000:  GT Time & Date
 GTDEPTH.m              00 000 000 000:  GT Depth
 GTPQH.psia             00 000 000 000:  GT HR Quartz Pressure
 GTTQ.degC              00 000 000 000:  GT Quartz Temperature
 GTTN.NONE              00 000 000 000:  GT Test Number
 GTET.sec               00 000 000 000:  GT Elapsed Test Time
 GTTVD.m                00 000 000 000:  GT True Vertical Depth
#Other Information
#
#WARRANTY: Halliburton will use its best efforts to furnish customers with 
#accurate information and interpretations that are part of, and incident to, the services 
#provided.  However, Halliburton cannot and does not warrant the accuracy 
#or correctness of such information and interpretations.  Under no circumstances should any 
#such information or interpretation be relied upon as the sole basis for any drilling, 
#completion, production, or financial decision or any procedure involving any risk to the 
#safety of any drilling venture, drilling rig or its crew or any other third party.  The 
#Customer has full responsibility for all drilling, completion and production operation.  
#Halliburton makes no representations or warranties, either expressed or 
#implied, including, but not limited to, the implied warranties of merchantability or fitness 
#for a particular purpose, with respect to the services rendered.  In no event will 
#Halliburton be liable for failure to obtain any particular results or for 
#any damages, including, but not limited to, indirect, special or consequential damages, 
#resulting from the use of any information or interpretation provided by Halliburton.
#
~A           TIME           GTDEPTH  GTPQH  GTTQ  GTTN   GTET   GTTVD  
# ...
   12:13:49.308.20-May-2020 4766.51 5486.98 69.64 15.00  22.61 2532.42
   12:13:49.508.20-May-2020 4766.51 5486.68 69.64 15.00  22.81 2532.42
   12:13:49.708.20-May-2020 4766.51 5481.77 69.64 15.00  23.01 2532.42
   12:13:49.908.20-May-2020 4766.51 5481.77 69.64 15.00  23.21 2532.42
   12:13:50.108.20-May-2020 4766.51 5481.07 69.64 15.00  23.41 2532.42
   12:13:50.308.20-May-2020 4766.51 5484.93 69.64 15.00  23.61 2532.42
   12:13:50.508.20-May-2020 4766.51 5482.81 69.64 15.00  23.81 2532.42
   12:13:50.708.20-May-2020 4766.51 5482.19 69.64 15.00  24.01 2532.42
   12:13:50.908.20-May-2020 4766.51 5482.19 69.64 15.00  24.21 2532.42
   12:13:51.109.20-May-2020 4766.51 5482.79 69.64 15.00  24.41 2532.42
   12:13:51.309.20-May-2020 4766.51 5482.38 69.64 15.00  24.61 2532.42
   12:13:51.509.20-May-2020 4766.51 5482.98 69.64 15.00  24.81 2532.42
   12:13:51.709.20-May-2020 4766.51 5492.11 69.64 15.00  25.01 2532.42
   12:13:51.909.20-May-2020 4766.51 5492.11 69.64 15.00  25.21 2532.42
   12:13:52.109.20-May-2020 4766.51 5482.72 69.64 15.00  25.41 2532.42
   12:13:52.309.20-May-2020 4766.51 5484.73 69.64 15.00  25.61 2532.42
   12:13:52.509.20-May-2020 4766.51 5493.85 69.64 15.00  25.81 2532.42
   12:13:52.709.20-May-2020 4766.51 5484.93 69.64 15.00  26.01 2532.42
   12:13:52.909.20-May-2020 4766.51 5484.34 69.64 15.00  26.21 2532.42
   12:13:53.109.20-May-2020 4766.51 5483.59 69.64 15.00  26.41 2532.42
   12:13:53.309.20-May-2020 4766.51 5498.86 69.64 15.00  26.61 2532.42
   12:13:53.509.20-May-2020 4766.51 5485.78 69.64 15.00  26.81 2532.42
   12:13:53.709.20-May-2020 4766.51 5484.79 69.64 15.00  27.01 2532.42
   12:13:53.909.20-May-2020 4766.51 5483.99 69.64 15.00  27.21 2532.42
   12:13:54.109.20-May-2020 4766.51 5494.63 69.64 15.00  27.41 2532.42
   12:13:54.310.20-May-2020 4766.51 5489.39 69.63 15.00  27.61 2532.42
   12:13:54.510.20-May-2020 4766.51 5485.08 69.63 15.00  27.81 2532.42
   12:13:54.710.20-May-2020 4766.51 5484.67 69.63 15.00  28.01 2532.42
   12:13:54.910.20-May-2020 4766.51 5484.67 69.63 15.00  28.21 2532.42
   12:13:55.110.20-May-2020 4766.51 5488.90 69.63 15.00  28.41 2532.42
   12:13:55.310.20-May-2020 4766.51 5485.26 69.63 15.00  28.61 2532.42
   12:13:55.510.20-May-2020 4766.51 5484.31 69.63 15.00  28.81 2532.42
   12:13:55.710.20-May-2020 4766.51 5484.77 69.63 15.00  29.01 2532.42
   12:13:55.910.20-May-2020 4766.51 5484.77 69.63 15.00  29.21 2532.42
   12:13:56.110.20-May-2020 4766.51 5488.44 69.63 15.00  29.41 2532.42
   12:13:56.310.20-May-2020 4766.51 5490.10 69.63 15.00  29.61 2532.42
   12:13:56.510.20-May-2020 4766.51 5490.10 69.63 15.00  29.81 2532.42
   12:13:56.710.20-May-2020 4766.51 5483.71 69.63 15.00  30.01 2532.42
   12:13:56.910.20-May-2020 4766.51 5484.11 69.63 15.00  30.21 2532.42
   12:13:57.110.20-May-2020 4766.51 5487.14 69.63 15.00  30.41 2532.42
   12:13:57.311.20-May-2020 4766.51 5485.04 69.63 15.00  30.61 2532.42
   12:13:57.511.20-May-2020 4766.51 5484.16 69.63 15.00  30.81 2532.42
   12:13:57.711.20-May-2020 4766.51 5484.65 69.63 15.00  31.01 2532.42
   12:13:57.911.20-May-2020 4766.51 5484.82 69.63 15.00  31.21 2532.42
   12:13:58.111.20-May-2020 4766.51 5484.71 69.63 15.00  31.41 2532.42
   12:13:58.311.20-May-2020 4766.51 5484.12 69.63 15.00  31.61 2532.42
   12:13:58.511.20-May-2020 4766.51 5494.72 69.63 15.00  31.81 2532.42
   12:13:58.711.20-May-2020 4766.51 5483.61 69.63 15.00  32.01 2532.42
   12:13:58.911.20-May-2020 4766.51 5483.61 69.63 15.00  32.21 2532.42
   12:13:59.111.20-May-2020 4766.51 5483.99 69.63 15.00  32.41 2532.42
   12:13:59.311.20-May-2020 4766.51 5498.13 69.62 15.00  32.61 2532.42
   12:13:59.511.20-May-2020 4766.51 5486.41 69.62 15.00  32.81 2532.42
   12:13:59.711.20-May-2020 4766.51 5485.85 69.62 15.00  33.01 2532.42
   12:13:59.911.20-May-2020 4766.51 5485.85 69.62 15.00  33.21 2532.42
   12:14:00.111.20-May-2020 4766.51 5499.32 69.62 15.00  33.41 2532.42
   12:14:00.311.20-May-2020 4766.51 5488.09 69.62 15.00  33.61 2532.42
   12:14:00.512.20-May-2020 4766.51 5486.44 69.62 15.00  33.81 2532.42
   12:14:00.712.20-May-2020 4766.51 5485.58 69.62 15.00  34.01 2532.42
   12:14:00.912.20-May-2020 4766.51 5486.84 69.62 15.00  34.21 2532.42
   12:14:01.112.20-May-2020 4766.51 5500.57 69.62 15.00  34.41 2532.42
   12:14:01.312.20-May-2020 4766.51 5486.35 69.62 15.00  34.61 2532.42
   12:14:01.512.20-May-2020 4766.51 5485.90 69.62 15.00  34.81 2532.42
   12:14:01.712.20-May-2020 4766.51 5486.23 69.62 15.00  35.01 2532.42
   12:14:01.912.20-May-2020 4766.51 5486.69 69.62 15.00  35.21 2532.42
   12:14:02.112.20-May-2020 4766.51 5489.14 69.62 15.00  35.41 2532.42
   12:14:02.312.20-May-2020 4766.51 5486.39 69.62 15.00  35.61 2532.42
   12:14:02.512.20-May-2020 4766.51 5485.72 69.62 15.00  35.81 2532.42
   12:14:02.712.20-May-2020 4766.51 5485.96 69.62 15.00  36.01 2532.42
   12:14:02.912.20-May-2020 4766.51 5485.96 69.62 15.00  36.21 2532.42
   12:14:03.112.20-May-2020 4766.51 5484.76 69.62 15.00  36.41 2532.42
   12:14:03.312.20-May-2020 4766.51 5486.33 69.62 15.00  36.61 2532.42
   12:14:03.512.20-May-2020 4766.51 5494.25 69.62 15.00  36.81 2532.42
   12:14:03.713.20-May-2020 4766.51 5484.76 69.62 15.00  37.01 2532.42
   12:14:03.913.20-May-2020 4766.51 5484.76 69.62 15.00  37.21 2532.42
   12:14:04.113.20-May-2020 4766.51 5484.58 69.62 15.00  37.41 2532.42
   12:14:04.313.20-May-2020 4766.51 5487.79 69.62 15.00  37.61 2532.42
   12:14:04.513.20-May-2020 4766.51 5487.32 69.61 15.00  37.81 2532.42
   12:14:04.713.20-May-2020 4766.51 5486.30 69.61 15.00  38.01 2532.42
   12:14:04.913.20-May-2020 4766.51 5486.30 69.61 15.00  38.21 2532.42
   12:14:05.113.20-May-2020 4766.51 5485.26 69.61 15.00  38.41 2532.42
   12:14:05.313.20-May-2020 4766.51 5485.26 69.61 15.00  38.61 2532.42
   12:14:05.513.20-May-2020 4766.51 5484.99 69.61 15.00  38.81 2532.42
   12:14:05.713.20-May-2020 4766.51 5496.37 69.61 15.00  39.01 2532.42
   12:14:05.913.20-May-2020 4766.51 5484.78 69.61 15.00  39.21 2532.42
   12:14:06.113.20-May-2020 4766.51 5485.33 69.61 15.00  39.41 2532.42
   12:14:06.313.20-May-2020 4766.51 5485.08 69.61 15.00  39.61 2532.42
   12:14:06.513.20-May-2020 4766.51 5495.43 69.61 15.00  39.81 2532.42
   12:14:06.714.20-May-2020 4766.51 5491.73 69.61 15.00  40.01 2532.42
   12:14:06.914.20-May-2020 4766.51 5491.73 69.61 15.00  40.21 2532.42
   12:14:07.114.20-May-2020 4766.51 5486.49 69.61 15.00  40.41 2532.42
   12:14:07.314.20-May-2020 4766.51 5488.53 69.61 15.00  40.61 2532.42
   12:14:07.514.20-May-2020 4766.51 5500.01 69.61 15.00  40.81 2532.42
   12:14:07.714.20-May-2020 4766.51 5489.38 69.61 15.00  41.01 2532.42
   12:14:07.914.20-May-2020 4766.51 5489.38 69.61 15.00  41.21 2532.42
   12:14:08.114.20-May-2020 4766.51 5491.05 69.61 15.00  41.41 2532.42
   12:14:08.314.20-May-2020 4766.51 5493.26 69.61 15.00  41.61 2532.42
   12:14:08.514.20-May-2020 4766.51 5487.96 69.61 15.00  41.81 2532.42
   12:14:08.714.20-May-2020 4766.51 5484.23 69.61 15.00  42.01 2532.42
   12:14:08.914.20-May-2020 4766.51 5462.01 69.61 15.00  42.21 2532.42
   12:14:09.114.20-May-2020 4766.51 5433.09 69.61 15.00  42.41 2532.42
   12:14:09.314.20-May-2020 4766.51 5416.90 69.61 15.00  42.61 2532.42
   12:14:09.514.20-May-2020 4766.51 5407.74 69.60 15.00  42.81 2532.42
   12:14:09.714.20-May-2020 4766.51 5394.40 69.60 15.00  43.01 2532.42
   12:14:09.915.20-May-2020 4766.51 5394.40 69.60 15.00  43.21 2532.42
   12:14:10.115.20-May-2020 4766.51 5377.56 69.60 15.00  43.41 2532.42
   12:14:10.315.20-May-2020 4766.51 5379.29 69.60 15.00  43.61 2532.42
   12:14:10.515.20-May-2020 4766.51 5382.32 69.60 15.00  43.81 2532.42
   12:14:10.715.20-May-2020 4766.51 5384.48 69.60 15.00  44.01 2532.42
   12:14:10.915.20-May-2020 4766.51 5384.48 69.60 15.00  44.21 2532.42
   12:14:11.115.20-May-2020 4766.51 5388.18 69.60 15.00  44.41 2532.42
   12:14:11.315.20-May-2020 4766.51 5389.83 69.60 15.00  44.61 2532.42
   12:14:11.515.20-May-2020 4766.51 5391.29 69.60 15.00  44.81 2532.42
   12:14:11.715.20-May-2020 4766.51 5393.76 69.60 15.00  45.01 2532.42
