~Version Information
 VERS.                  2.0:   CWLS log ASCII Standard -VERSION 2.0
 WRAP.                   NO:   One line per depth step
~Well Information Block
#MNEM.UNIT     VALUE/NAME     DESCRIPTION
#---------     -----------    ---------------------------
 STRT.S             21:13:20 18-May-20: START TIME 21:13:20 18-May-20
 STOP.S             21:20:25 18-May-20: STOP TIME  21:20:25 18-May-20
 STEP.S                   0.00: STEP TIME
 NULL.                 -999.25: NULL VALUE
 UNIT.                     N/A:  LOGGING EQUIPMENT ID
 DCON.         Sperry Drilling:  DIRECTNL CONTR
 DOE .                     N/A:  DOE NUMBER
 JOBN.        AZ-XX-0906252240:  JOB TICKET NUMB
 MWDS.                     N/A:  MWD SHOP
 PROV.                    Baku:  PROVINCE
 STAT.                    Baku:  STATE NAME
 REGN.                   EESSA:  REGION
 BASE.              Azerbaijan:  LOGGING EQUIPMENT BASE LOCATION
 UWI .                     N/A:  UNIQUE WELL IDENTIFIER
 API .                     N/A:  API NUMBER
 MDS .        Operator Entered:  MAG DATA SOURCE
 WTYP.                Deviated:  WELL TYPE
 COMP.     BP Exploration (Caspian Sea) Ltd.:  COMPANY
 SRVC.          Turan Drilling:  CONTRACTOR
 WELL.           J23 (Slot 07):  WELL NAME
 CTRY.              Azerbaijan:  COUNTRY NAME
 FLD .                     ACG:  FIELD NAME
 PDAT.          Mean Sea Level:  PERMANENT DATUM
 RIG .             West Chirag:  RIG NAME
 SON .        AZ-XX-0906252240:  JOB NUMBER
 FTOP.          Formation Tops:  FORM TOPS DESC
 ILTD.               Lithology:  INTERP LTH DESC
 SVYD.                  Survey:  SURVEY DESC
 DMOD.             Drill Model:  DRILL MOD DESC
 HPTY.       Minimum Curvature:  HOLE POS TYPE
 NREF.                    Grid:  NORTH REFERENCE
 SPUD.               27-Aug-20:  SPUD DATE
 DATE.      00.00.00 19-May-20:  END TIME
 STIM.      03.00.00 25-Mar-20:  START TIME
 DMF .             Drill Floor:  DRILL MEAS FROM
 DFST.                        :  DIST FSL TEXT
 DFWT.                        :  DIST FWL TEXT
 CNTY.                        :  COUNTY
 LOC .                        :  LOCATION
 LMF .             Drill Floor:  LOG MEASURED FROM
 VSNS.m                   9.43:  VERT SEC N/S
 VSEW.m                  -8.91:  VERT SEC E/W
 AGAP.m                  43.00:  AIR GAP
 DEP .m                 354.17:  DEPTH
 APD .m                  43.00:  DEPTH ABOVE PD
 WDMS.m                 169.80:  WD ELEV
 EGL .m                   0.00:  GROUND ELEVATION
 EPD .m                   0.00:  ELEVATION
 AZTC.deg                 6.31:  AZM TOTAL CORR
 GRDC.deg                 0.14:  GRID CORRECTION
 MDEC.deg                 6.45:  MAGNETIC DECL
 MDIP.deg                59.56:  MAGNETIC DIP
 MFLD.nT              50295.00:  MAGNETIC FIELD
 GVFD.g                   1.00:  GRAVITY FIELD
 VSDR.deg               179.88:  VERT SEC DIRECT
 TDD .m                5150.01:  TOTAL DEPTH (DRILLER)
 SDEP.m                 864.00:  START DEPTH
 DFSL.m                   0.00:  DISTANCE FSL
 DFWL.m                   0.00:  DISTANCE FWL
 UTMY.m             4443793.85:  UTM Y
 UTMX.m              519005.06:  UTM X
 WHEW.m                  -8.91:  WELL HEAD E/W
 WHNS.m                   9.43:  WELL HEAD N/S
 LONG.deg                51.22:  LONGITUDE
 LATI.deg                40.13:  LATITUDE
 TVDS.m                  43.00:  TVDSS CORRECTN
 EKB .m                   0.00:  KB ELEVATION
 EDF .m                  43.00:  DF ELEVATION
 TDL .m                 363.00:  TOTAL DEPTH (LOGGER)
 MAGU.                 1850802:  MAGUTM CHECKSUM
 VSC .                       0:  VS TO CLOSURE
~Parameter Information Block
#MNEM.UNIT       Value        Description
#---------     -----------    ---------------------------
 AV  .mps                 2.30:  Ann Velocity 
 AVMX.mps                 4.40:  Max Ann Veloc 
 AZIF.deg               110.24:  Azm, Final 
 BHAT.        Rotary Steerable:  BHA Type 
 BREV.rev               331.00:  Rev Bit Total 
 BROT.°/30m               0.00:  Build Rotating 
 BS  .in                  8.50:  Bit Size 
 BSZ .in                  8.50:  Bit Size 
 BTPL.psig              585.00:  Bit Press Loss 
 CABU.                     Yes:  Customer Abuse 
 TCS .hr                122.75:  Time Ciculation Ended 
 CV  .mps                 2.67:  Crit Velocity 
 CVMX.mps                 3.56:  Max Crit Veloc 
 DD1 .          Rashad Habibov:  Direct Drillr 1 
 DD2 .         Rasim Ibrahimov:  Direct Drillr 2 
 DDSV.               Geo-Pilot:  DD Service 
 DEFF.%                  98.00:  % Det Eff 
 DLRX.°/30m               0.75:  Dogleg Rot Max 
 DLSO.°/30m               1.25:  Dogleg Oriented 
 DLSX.°/30m               2.06:  Dogleg Str Max 
 DRET.      07.45.00 17-May-20:  Drill End Time 
 DRST.      22.50.00 15-May-20:  Drill Start Tim 
 DTIM.hr                 20.75:  Time Drilling 
 EDEP.m                5124.01:  End Depth 
 ENG1.           Eldar Hajiyev:  Engineer 1 
 ENG2.        Marcelo Sandoval:  Engineer 2 
 ENG3.        Davud huseynzada:  Engineer 3 
 ENG4.          Ruslan Safarov:  Engineer 4 
 ETIM.      04.33.00 23-May-20:  End Time 
 FLOI.gpm               450.00:  Flow In 
 FLON.gpm               400.00:  Flow In Min 
 FLOS.cptm                0.00:  Fluid Loss 
 FLOX.gpm               500.00:  Flow In Max 
 FTRO.       Formation Presure:  FTWD Run Obj 
 HFLO.                      No:  High Flow 
 HPRE.                     Yes:  High Pressure 
 HTEM.                      No:  High Temp 
 HYDO.m                   1.80:  Hydro Offset 
 IFIN.deg                75.06:  Inc, Final 
 IMAX.deg                75.38:  Inc Max 
 IMIN.deg                74.69:  Inc Min 
 IMND.m                5027.38:  Inc Min Depth 
 IMXD.m                4771.61:  Inc Max Depth 
 JARR.                      No:  Jarring 
 LETM.      07.45.00 17-May-20:  Log End Time 
 LOST.hr                     0:  Lost Rig Time 
 LSTM.      22.50.00 15-May-20:  Log Start Time 
 MDCL.ppm             42000.00:  Mud Chlorides 
 MDES.     Inversion Oil/Synthetic:  Mud Desc 
 DFD .sg                  1.34:  Mud Density 
 MDMN.sg                  1.34:  Dens Mud Min 
 MDMX.sg                  1.34:  Dens Mud Max 
 MOIL.                       0:  Run Mud Oil % 
 MOWR.                   67:33:  Run Mud OWR 
 MSND.                       0:  Run Mud Sand % 
 MSOL.                     1.8:  Run Mud Solids% 
 DFV .spqt               76.00:  Mud Viscosity 
 MWOD.in                  6.75:  MWD Tool OD 
 MWSI.                      No:  Serv Intrp, MWD 
 OTIM.hr                228.19:  Time Operating 
 PCON.           Look Like New:  Pad Condition 
 PMAX.psia             6164.70:  Press Op, Max 
 PV  .cP                 28.00:  Mud PV 
 RUN .                     900:  Run Number 
 ROPA.m/hr               19.00:  ROP Avg 
 ROPN.m/hr               11.00:  ROP Min 
 ROPX.m/hr               36.00:  ROP Max 
 RPMA.rpm               120.00:  RPM Surface Avg 
 RPMN.rpm               120.00:  RPM Surface Min 
 RPMX.rpm               120.00:  RPM Surface Max 
 RRUN.                    L604:  Rig Run Number 
 RTIM.hr                  7.00:  Time Reaming 
 SAZI.deg               109.27:  Azm, Start 
 SDEP.m                4761.01:  Start Depth 
 SIDD.                      No:  Serv Intrp, DD 
 SINC.deg                75.38:  Inc, Start 
 SPPA.psig             3574.00:  SPP Avg 
 SPPN.psig             3475.00:  SPP Min 
 SPPX.psig             3791.00:  SPP Max 
 STIM.      07.08.48 13-May-20:  Start Time 
 SVCS.                 DD, MWD:  Services 
 SVER.                    9.20:  Sperry Version 
 TDAT.m                 363.00:  Tot Depth Attmp 
 TDDF.                      No:  Trip for DD 
 TDLG.m                 363.00:  Tot Depth Loggd 
 TFF .                      No:  Trip for Fail 
 TQAA.f-kp               20.00:  Torque Abs Avg 
 TQAN.f-kp               18.00:  Torque Abs Min 
 TQAX.f-kp               22.00:  Torque Abs Max 
 TRRT.°/30m              -0.35:  Turn Rotating 
 MRT .                    HCIM:  Maximum Recorded Temperature 
 TTMX.degC               92.16:  Max Tool Temp 
 VS01.                90586518:  Virtual Str1 SN 
 VS02.        AZ90560654Z1W1C6:  Virtual Str2 SN 
 VS03.           AZ90610398F11:  Virtual Str3 SN 
 VS04.                90514975:  Virtual Str4 SN 
 VS05.                90514972:  Virtual Str5 SN 
 VS06.     AZ90603282F11V7D1A6:  Virtual Str6 SN 
 WBMN.klb                 7.00:  WOB Min 
 WOBA.klb                12.00:  WOB Avg 
 WOBX.klb                14.00:  WOB Max 
 YP  .lhf2               32.00:  Yield Point 
~Curve Information Block
#MNEM.UNIT                 API CODE     Curve Description
#---------               -----------    ---------------------------
 TIME.HHMMSS            00 000 000 000:  GT Time & Date
 GTDEPTH.m              00 000 000 000:  GT Depth
 GTPQH.psia             00 000 000 000:  GT HR Quartz Pressure
 GTTQ.degC              00 000 000 000:  GT Quartz Temperature
 GTTN.NONE              00 000 000 000:  GT Test Number
 GTET.sec               00 000 000 000:  GT Elapsed Test Time
 GTTVD.m                00 000 000 000:  GT True Vertical Depth
#Other Information
#
#WARRANTY: Halliburton will use its best efforts to furnish customers with 
#accurate information and interpretations that are part of, and incident to, the services 
#provided.  However, Halliburton cannot and does not warrant the accuracy 
#or correctness of such information and interpretations.  Under no circumstances should any 
#such information or interpretation be relied upon as the sole basis for any drilling, 
#completion, production, or financial decision or any procedure involving any risk to the 
#safety of any drilling venture, drilling rig or its crew or any other third party.  The 
#Customer has full responsibility for all drilling, completion and production operation.  
#Halliburton makes no representations or warranties, either expressed or 
#implied, including, but not limited to, the implied warranties of merchantability or fitness 
#for a particular purpose, with respect to the services rendered.  In no event will 
#Halliburton be liable for failure to obtain any particular results or for 
#any damages, including, but not limited to, indirect, special or consequential damages, 
#resulting from the use of any information or interpretation provided by Halliburton.
#
~A           TIME           GTDEPTH  GTPQH  GTTQ  GTTN   GTET   GTTVD  
# ...
   21:18:14.343.18-May-2020 4766.01 5524.80 60.62 14.00 293.88 2532.29
   21:18:14.543.18-May-2020 4766.01 5513.46 60.62 14.00 294.08 2532.29
   21:18:14.744.18-May-2020 4766.01 5509.44 60.62 14.00 294.28 2532.29
   21:18:14.944.18-May-2020 4766.01 5516.80 60.62 14.00 294.48 2532.29
   21:18:15.144.18-May-2020 4766.01 5519.92 60.62 14.00 294.68 2532.29
   21:18:15.344.18-May-2020 4766.01 5512.66 60.62 14.00 294.88 2532.29
   21:18:15.544.18-May-2020 4766.01 5511.02 60.62 14.00 295.08 2532.29
   21:18:15.744.18-May-2020 4766.01 5511.02 60.62 14.00 295.28 2532.29
   21:18:15.944.18-May-2020 4766.01 5514.73 60.62 14.00 295.48 2532.29
   21:18:16.144.18-May-2020 4766.01 5515.09 60.62 14.00 295.68 2532.29
   21:18:16.344.18-May-2020 4766.01 5517.84 60.62 14.00 295.88 2532.29
   21:18:16.544.18-May-2020 4766.01 5510.68 60.62 14.00 296.08 2532.29
   21:18:16.744.18-May-2020 4766.01 5510.68 60.62 14.00 296.28 2532.29
   21:18:16.944.18-May-2020 4766.01 5512.64 60.62 14.00 296.48 2532.29
   21:18:17.144.18-May-2020 4766.01 5517.99 60.62 14.00 296.68 2532.29
   21:18:17.344.18-May-2020 4766.01 5511.14 60.62 14.00 296.88 2532.29
   21:18:17.544.18-May-2020 4766.01 5510.80 60.62 14.00 297.08 2532.29
   21:18:17.744.18-May-2020 4766.01 5510.80 60.62 14.00 297.28 2532.29
   21:18:17.944.18-May-2020 4766.01 5513.31 60.62 14.00 297.48 2532.29
   21:18:18.144.18-May-2020 4766.01 5511.01 60.62 14.00 297.68 2532.29
   21:18:18.345.18-May-2020 4766.01 5509.99 60.62 14.00 297.88 2532.29
   21:18:18.545.18-May-2020 4766.01 5523.63 60.62 14.00 298.08 2532.29
   21:18:18.745.18-May-2020 4766.01 5523.63 60.62 14.00 298.28 2532.29
   21:18:18.945.18-May-2020 4766.01 5510.60 60.62 14.00 298.48 2532.29
   21:18:19.145.18-May-2020 4766.01 5509.32 60.62 14.00 298.68 2532.29
   21:18:19.345.18-May-2020 4766.01 5534.16 60.62 14.00 298.88 2532.29
   21:18:19.545.18-May-2020 4766.01 5507.35 60.62 14.00 299.08 2532.29
   21:18:19.745.18-May-2020 4766.01 5507.35 60.62 14.00 299.28 2532.29
   21:18:19.945.18-May-2020 4766.01 5516.09 60.62 14.00 299.48 2532.29
   21:18:20.145.18-May-2020 4766.01 5530.01 60.62 14.00 299.68 2532.29
   21:18:20.345.18-May-2020 4766.01 5513.57 60.62 14.00 299.88 2532.29
   21:18:20.545.18-May-2020 4766.01 5511.69 60.62 14.00 300.08 2532.29
   21:18:20.745.18-May-2020 4766.01 5511.69 60.62 14.00 300.28 2532.29
   21:18:20.945.18-May-2020 4766.01 5527.11 60.62 14.00 300.48 2532.29
   21:18:21.145.18-May-2020 4766.01 5515.27 60.62 14.00 300.68 2532.29
   21:18:21.345.18-May-2020 4766.01 5512.85 60.62 14.00 300.88 2532.29
   21:18:21.545.18-May-2020 4766.01 5521.22 60.62 14.00 301.08 2532.29
   21:18:21.745.18-May-2020 4766.01 5521.22 60.62 14.00 301.28 2532.29
   21:18:21.945.18-May-2020 4766.01 5517.13 60.62 14.00 301.48 2532.29
   21:18:22.146.18-May-2020 4766.01 5515.00 60.62 14.00 301.68 2532.29
   21:18:22.346.18-May-2020 4766.01 5518.05 60.62 14.00 301.88 2532.29
   21:18:22.546.18-May-2020 4766.01 5520.74 60.62 14.00 302.08 2532.29
   21:18:22.746.18-May-2020 4766.01 5520.39 60.62 14.00 302.28 2532.29
   21:18:22.946.18-May-2020 4766.01 5524.22 60.62 14.00 302.48 2532.29
   21:18:23.146.18-May-2020 4766.01 5516.92 60.62 14.00 302.68 2532.29
   21:18:23.346.18-May-2020 4766.01 5518.68 60.62 14.00 302.88 2532.29
   21:18:23.546.18-May-2020 4766.01 5518.83 60.62 14.00 303.08 2532.29
   21:18:23.746.18-May-2020 4766.01 5518.83 60.62 14.00 303.28 2532.29
   21:18:23.946.18-May-2020 4766.01 5518.30 60.62 14.00 303.48 2532.29
   21:18:24.146.18-May-2020 4766.01 5518.30 60.62 14.00 303.68 2532.29
   21:18:24.346.18-May-2020 4766.01 5519.20 60.62 14.00 303.88 2532.29
   21:18:24.546.18-May-2020 4766.01 5520.81 60.62 14.00 304.08 2532.29
   21:18:24.746.18-May-2020 4766.01 5520.81 60.62 14.00 304.28 2532.29
   21:18:24.946.18-May-2020 4766.01 5517.74 60.62 14.00 304.48 2532.29
   21:18:25.146.18-May-2020 4766.01 5531.45 60.62 14.00 304.68 2532.29
   21:18:25.346.18-May-2020 4766.01 5516.16 60.62 14.00 304.88 2532.29
   21:18:25.546.18-May-2020 4766.01 5515.42 60.62 14.00 305.08 2532.29
   21:18:25.746.18-May-2020 4766.01 5515.42 60.62 14.00 305.28 2532.29
   21:18:25.947.18-May-2020 4766.01 5534.86 60.62 14.00 305.48 2532.29
   21:18:26.147.18-May-2020 4766.01 5509.86 60.62 14.00 305.68 2532.29
   21:18:26.347.18-May-2020 4766.01 5509.65 60.62 14.00 305.88 2532.29
   21:18:26.547.18-May-2020 4766.01 5509.91 60.62 14.00 306.08 2532.29
   21:18:26.747.18-May-2020 4766.01 5528.43 60.62 14.00 306.28 2532.29
   21:18:26.947.18-May-2020 4766.01 5509.78 60.62 14.00 306.48 2532.29
   21:18:27.147.18-May-2020 4766.01 5507.10 60.62 14.00 306.68 2532.29
   21:18:27.347.18-May-2020 4766.01 5522.51 60.62 14.00 306.88 2532.29
   21:18:27.547.18-May-2020 4766.01 5516.37 60.62 14.00 307.08 2532.29
   21:18:27.747.18-May-2020 4766.01 5516.37 60.62 14.00 307.28 2532.29
   21:18:27.947.18-May-2020 4766.01 5504.56 60.62 14.00 307.48 2532.29
   21:18:28.147.18-May-2020 4766.01 5517.86 60.62 14.00 307.68 2532.29
   21:18:28.347.18-May-2020 4766.01 5510.01 60.62 14.00 307.88 2532.29
   21:18:28.547.18-May-2020 4766.01 5506.57 60.62 14.00 308.08 2532.29
   21:18:28.747.18-May-2020 4766.01 5506.57 60.62 14.00 308.28 2532.29
   21:18:28.947.18-May-2020 4766.01 5509.16 60.62 14.00 308.48 2532.29
   21:18:29.147.18-May-2020 4766.01 5507.52 60.62 14.00 308.68 2532.29
   21:18:29.347.18-May-2020 4766.01 5520.11 60.62 14.00 308.88 2532.29
   21:18:29.547.18-May-2020 4766.01 5504.32 60.62 14.00 309.08 2532.29
   21:18:29.748.18-May-2020 4766.01 5504.32 60.62 14.00 309.28 2532.29
   21:18:29.948.18-May-2020 4766.01 5506.67 60.62 14.00 309.48 2532.29
   21:18:30.148.18-May-2020 4766.01 5515.63 60.62 14.00 309.68 2532.29
   21:18:30.348.18-May-2020 4766.01 5509.65 60.62 14.00 309.88 2532.29
   21:18:30.548.18-May-2020 4766.01 5508.04 60.62 14.00 310.08 2532.29
   21:18:30.748.18-May-2020 4766.01 5508.69 60.62 14.00 310.28 2532.29
   21:18:30.948.18-May-2020 4766.01 5510.87 60.62 14.00 310.48 2532.29
   21:18:31.148.18-May-2020 4766.01 5510.46 60.62 14.00 310.68 2532.29
   21:18:31.348.18-May-2020 4766.01 5509.16 60.62 14.00 310.88 2532.29
   21:18:31.548.18-May-2020 4766.01 5517.78 60.62 14.00 311.08 2532.29
   21:18:31.748.18-May-2020 4766.01 5517.78 60.62 14.00 311.28 2532.29
   21:18:31.948.18-May-2020 4766.01 5510.35 60.62 14.00 311.48 2532.29
   21:18:32.148.18-May-2020 4766.01 5509.43 60.62 14.00 311.68 2532.29
   21:18:32.348.18-May-2020 4766.01 5518.71 60.62 14.00 311.88 2532.29
   21:18:32.548.18-May-2020 4766.01 5524.62 60.62 14.00 312.08 2532.29
   21:18:32.748.18-May-2020 4766.01 5524.62 60.62 14.00 312.28 2532.29
   21:18:32.948.18-May-2020 4766.01 5511.88 60.62 14.00 312.48 2532.29
   21:18:33.148.18-May-2020 4766.01 5517.59 60.62 14.00 312.68 2532.29
   21:18:33.348.18-May-2020 4766.01 5532.92 60.62 14.00 312.88 2532.29
   21:18:33.549.18-May-2020 4766.01 5512.42 60.62 14.00 313.08 2532.29
   21:18:33.749.18-May-2020 4766.01 5512.42 60.62 14.00 313.28 2532.29
   21:18:33.949.18-May-2020 4766.01 5515.06 60.62 14.00 313.48 2532.29
   21:18:34.149.18-May-2020 4766.01 5527.49 60.62 14.00 313.68 2532.29
   21:18:34.349.18-May-2020 4766.01 5526.48 60.62 14.00 313.88 2532.29
   21:18:34.549.18-May-2020 4766.01 5510.62 60.62 14.00 314.08 2532.29
   21:18:34.749.18-May-2020 4766.01 5515.92 60.62 14.00 314.28 2532.29
   21:18:34.949.18-May-2020 4766.01 5518.45 60.62 14.00 314.48 2532.29
   21:18:35.149.18-May-2020 4766.01 5523.64 60.62 14.00 314.68 2532.29
   21:18:35.349.18-May-2020 4766.01 5513.04 60.62 14.00 314.88 2532.29
   21:18:35.549.18-May-2020 4766.01 5513.73 60.62 14.00 315.08 2532.29
   21:18:35.749.18-May-2020 4766.01 5513.73 60.62 14.00 315.28 2532.29
   21:18:35.949.18-May-2020 4766.01 5514.39 60.62 14.00 315.48 2532.29
   21:18:36.149.18-May-2020 4766.01 5511.84 60.62 14.00 315.68 2532.29
   21:18:36.349.18-May-2020 4766.01 5525.61 60.62 14.00 315.88 2532.29
   21:18:36.549.18-May-2020 4766.01 5509.33 60.62 14.00 316.08 2532.29
   21:18:36.749.18-May-2020 4766.01 5509.33 60.62 14.00 316.28 2532.29
