~Version Information
 VERS.                  2.0:   CWLS log ASCII Standard -VERSION 2.0
 WRAP.                   NO:   One line per depth step
~Well Information Block
#MNEM.UNIT     VALUE/NAME     DESCRIPTION
#---------     -----------    ---------------------------
 STRT.S             22:05:00 17-May-20: START TIME 22:05:00 17-May-20
 STOP.S             22:12:03 17-May-20: STOP TIME  22:12:03 17-May-20
 STEP.S                   0.00: STEP TIME
 NULL.                 -999.25: NULL VALUE
 UNIT.                     N/A:  LOGGING EQUIPMENT ID
 DCON.         Sperry Drilling:  DIRECTNL CONTR
 DOE .                     N/A:  DOE NUMBER
 JOBN.        AZ-XX-0906252240:  JOB TICKET NUMB
 MWDS.                     N/A:  MWD SHOP
 PROV.                    Baku:  PROVINCE
 STAT.                    Baku:  STATE NAME
 REGN.                   EESSA:  REGION
 BASE.              Azerbaijan:  LOGGING EQUIPMENT BASE LOCATION
 UWI .                     N/A:  UNIQUE WELL IDENTIFIER
 API .                     N/A:  API NUMBER
 MDS .        Operator Entered:  MAG DATA SOURCE
 WTYP.                Deviated:  WELL TYPE
 COMP.     BP Exploration (Caspian Sea) Ltd.:  COMPANY
 SRVC.          Turan Drilling:  CONTRACTOR
 WELL.           J23 (Slot 07):  WELL NAME
 CTRY.              Azerbaijan:  COUNTRY NAME
 FLD .                     ACG:  FIELD NAME
 PDAT.          Mean Sea Level:  PERMANENT DATUM
 RIG .             West Chirag:  RIG NAME
 SON .        AZ-XX-0906252240:  JOB NUMBER
 FTOP.          Formation Tops:  FORM TOPS DESC
 ILTD.               Lithology:  INTERP LTH DESC
 SVYD.                  Survey:  SURVEY DESC
 DMOD.             Drill Model:  DRILL MOD DESC
 HPTY.       Minimum Curvature:  HOLE POS TYPE
 NREF.                    Grid:  NORTH REFERENCE
 SPUD.               27-Aug-20:  SPUD DATE
 DATE.      00.00.00 19-May-20:  END TIME
 STIM.      03.00.00 25-Mar-20:  START TIME
 DMF .             Drill Floor:  DRILL MEAS FROM
 DFST.                        :  DIST FSL TEXT
 DFWT.                        :  DIST FWL TEXT
 CNTY.                        :  COUNTY
 LOC .                        :  LOCATION
 LMF .             Drill Floor:  LOG MEASURED FROM
 VSNS.m                   9.43:  VERT SEC N/S
 VSEW.m                  -8.91:  VERT SEC E/W
 AGAP.m                  43.00:  AIR GAP
 DEP .m                 354.17:  DEPTH
 APD .m                  43.00:  DEPTH ABOVE PD
 WDMS.m                 169.80:  WD ELEV
 EGL .m                   0.00:  GROUND ELEVATION
 EPD .m                   0.00:  ELEVATION
 AZTC.deg                 6.31:  AZM TOTAL CORR
 GRDC.deg                 0.14:  GRID CORRECTION
 MDEC.deg                 6.45:  MAGNETIC DECL
 MDIP.deg                59.56:  MAGNETIC DIP
 MFLD.nT              50295.00:  MAGNETIC FIELD
 GVFD.g                   1.00:  GRAVITY FIELD
 VSDR.deg               179.88:  VERT SEC DIRECT
 TDD .m                5150.01:  TOTAL DEPTH (DRILLER)
 SDEP.m                 864.00:  START DEPTH
 DFSL.m                   0.00:  DISTANCE FSL
 DFWL.m                   0.00:  DISTANCE FWL
 UTMY.m             4443793.85:  UTM Y
 UTMX.m              519005.06:  UTM X
 WHEW.m                  -8.91:  WELL HEAD E/W
 WHNS.m                   9.43:  WELL HEAD N/S
 LONG.deg                51.22:  LONGITUDE
 LATI.deg                40.13:  LATITUDE
 TVDS.m                  43.00:  TVDSS CORRECTN
 EKB .m                   0.00:  KB ELEVATION
 EDF .m                  43.00:  DF ELEVATION
 TDL .m                 363.00:  TOTAL DEPTH (LOGGER)
 MAGU.                 1850802:  MAGUTM CHECKSUM
 VSC .                       0:  VS TO CLOSURE
~Parameter Information Block
#MNEM.UNIT       Value        Description
#---------     -----------    ---------------------------
 AV  .mps                 2.30:  Ann Velocity 
 AVMX.mps                 4.40:  Max Ann Veloc 
 AZIF.deg               110.24:  Azm, Final 
 BHAT.        Rotary Steerable:  BHA Type 
 BREV.rev               331.00:  Rev Bit Total 
 BROT.°/30m               0.00:  Build Rotating 
 BS  .in                  8.50:  Bit Size 
 BSZ .in                  8.50:  Bit Size 
 BTPL.psig              585.00:  Bit Press Loss 
 CABU.                     Yes:  Customer Abuse 
 COMM.                     íe:  Run Comments 1 
 TCS .hr                122.75:  Time Ciculation Ended 
 CV  .mps                 2.67:  Crit Velocity 
 CVMX.mps                 3.56:  Max Crit Veloc 
 DD1 .          Rashad Habibov:  Direct Drillr 1 
 DD2 .         Rasim Ibrahimov:  Direct Drillr 2 
 DDSV.               Geo-Pilot:  DD Service 
 DEFF.%                  98.00:  % Det Eff 
 DLRX.°/30m               0.75:  Dogleg Rot Max 
 DLSO.°/30m               1.25:  Dogleg Oriented 
 DLSX.°/30m               2.06:  Dogleg Str Max 
 DRET.      07.45.00 17-May-20:  Drill End Time 
 DRST.      22.50.00 15-May-20:  Drill Start Tim 
 DTIM.hr                 20.75:  Time Drilling 
 EDEP.m                5124.01:  End Depth 
 ENG1.           Eldar Hajiyev:  Engineer 1 
 ENG2.        Marcelo Sandoval:  Engineer 2 
 ENG3.        Davud huseynzada:  Engineer 3 
 ENG4.          Ruslan Safarov:  Engineer 4 
 ETIM.      04.33.00 23-May-20:  End Time 
 FLOI.gpm               450.00:  Flow In 
 FLON.gpm               400.00:  Flow In Min 
 FLOS.cptm                0.00:  Fluid Loss 
 FLOX.gpm               500.00:  Flow In Max 
 FTRO.       Formation Presure:  FTWD Run Obj 
 HFLO.                      No:  High Flow 
 HPRE.                     Yes:  High Pressure 
 HTEM.                      No:  High Temp 
 HYDO.m                   1.80:  Hydro Offset 
 IFIN.deg                75.06:  Inc, Final 
 IMAX.deg                75.38:  Inc Max 
 IMIN.deg                74.69:  Inc Min 
 IMND.m                5027.38:  Inc Min Depth 
 IMXD.m                4771.61:  Inc Max Depth 
 JARR.                      No:  Jarring 
 LETM.      07.45.00 17-May-20:  Log End Time 
 LOST.hr                     0:  Lost Rig Time 
 LSTM.      22.50.00 15-May-20:  Log Start Time 
 MDCL.ppm             42000.00:  Mud Chlorides 
 MDES.     Inversion Oil/Synthetic:  Mud Desc 
 DFD .sg                  1.34:  Mud Density 
 MDMN.sg                  1.34:  Dens Mud Min 
 MDMX.sg                  1.34:  Dens Mud Max 
 MOIL.                       0:  Run Mud Oil % 
 MOWR.                   67:33:  Run Mud OWR 
 MSND.                       0:  Run Mud Sand % 
 MSOL.                     1.8:  Run Mud Solids% 
 DFV .spqt               76.00:  Mud Viscosity 
 MWOD.in                  6.75:  MWD Tool OD 
 MWSI.                      No:  Serv Intrp, MWD 
 OTIM.hr                228.19:  Time Operating 
 PCON.           Look Like New:  Pad Condition 
 PMAX.psia             6164.70:  Press Op, Max 
 PV  .cP                 28.00:  Mud PV 
 RUN .                     900:  Run Number 
 ROPA.m/hr               19.00:  ROP Avg 
 ROPN.m/hr               11.00:  ROP Min 
 ROPX.m/hr               36.00:  ROP Max 
 RPMA.rpm               120.00:  RPM Surface Avg 
 RPMN.rpm               120.00:  RPM Surface Min 
 RPMX.rpm               120.00:  RPM Surface Max 
 RRUN.                    L604:  Rig Run Number 
 RTIM.hr                  7.00:  Time Reaming 
 SAZI.deg               109.27:  Azm, Start 
 SDEP.m                4761.01:  Start Depth 
 SIDD.                      No:  Serv Intrp, DD 
 SINC.deg                75.38:  Inc, Start 
 SPPA.psig             3574.00:  SPP Avg 
 SPPN.psig             3475.00:  SPP Min 
 SPPX.psig             3791.00:  SPP Max 
 STIM.      07.08.48 13-May-20:  Start Time 
 SVCS.                 DD, MWD:  Services 
 SVER.                    9.20:  Sperry Version 
 TDAT.m                 363.00:  Tot Depth Attmp 
 TDDF.                      No:  Trip for DD 
 TDLG.m                 363.00:  Tot Depth Loggd 
 TFF .                      No:  Trip for Fail 
 TQAA.f-kp               20.00:  Torque Abs Avg 
 TQAN.f-kp               18.00:  Torque Abs Min 
 TQAX.f-kp               22.00:  Torque Abs Max 
 TRRT.°/30m              -0.35:  Turn Rotating 
 MRT .                    HCIM:  Maximum Recorded Temperature 
 TTMX.degC               92.16:  Max Tool Temp 
 VS01.                90586518:  Virtual Str1 SN 
 VS02.        AZ90560654Z1W1C6:  Virtual Str2 SN 
 VS03.           AZ90610398F11:  Virtual Str3 SN 
 VS04.                90514975:  Virtual Str4 SN 
 VS05.                90514972:  Virtual Str5 SN 
 VS06.     AZ90603282F11V7D1A6:  Virtual Str6 SN 
 WBMN.klb                 7.00:  WOB Min 
 WOBA.klb                12.00:  WOB Avg 
 WOBX.klb                14.00:  WOB Max 
 YP  .lhf2               32.00:  Yield Point 
~Curve Information Block
#MNEM.UNIT                 API CODE     Curve Description
#---------               -----------    ---------------------------
 TIME.HHMMSS            00 000 000 000:  GT Time & Date
 GTDEPTH.m              00 000 000 000:  GT Depth
 GTPQH.psia             00 000 000 000:  GT HR Quartz Pressure
 GTTQ.degC              00 000 000 000:  GT Quartz Temperature
 GTTN.NONE              00 000 000 000:  GT Test Number
 GTET.sec               00 000 000 000:  GT Elapsed Test Time
 GTTVD.m                00 000 000 000:  GT True Vertical Depth
#Other Information
#
#WARRANTY: Halliburton will use its best efforts to furnish customers with 
#accurate information and interpretations that are part of, and incident to, the services 
#provided.  However, Halliburton cannot and does not warrant the accuracy 
#or correctness of such information and interpretations.  Under no circumstances should any 
#such information or interpretation be relied upon as the sole basis for any drilling, 
#completion, production, or financial decision or any procedure involving any risk to the 
#safety of any drilling venture, drilling rig or its crew or any other third party.  The 
#Customer has full responsibility for all drilling, completion and production operation.  
#Halliburton makes no representations or warranties, either expressed or 
#implied, including, but not limited to, the implied warranties of merchantability or fitness 
#for a particular purpose, with respect to the services rendered.  In no event will 
#Halliburton be liable for failure to obtain any particular results or for 
#any damages, including, but not limited to, indirect, special or consequential damages, 
#resulting from the use of any information or interpretation provided by Halliburton.
#
~A           TIME           GTDEPTH  GTPQH  GTTQ  GTTN  GTET   GTTVD  
# ...
   22:10:46.425.17-May-2020 4937.01 2932.00 67.61 7.00 345.63 2576.47
   22:10:46.625.17-May-2020 4937.01 2932.00 67.61 7.00 345.83 2576.47
   22:10:46.826.17-May-2020 4937.01 2931.96 67.61 7.00 346.03 2576.47
   22:10:47.026.17-May-2020 4937.01 2932.07 67.61 7.00 346.24 2576.47
   22:10:47.227.17-May-2020 4937.01 2931.96 67.61 7.00 346.44 2576.47
   22:10:47.427.17-May-2020 4937.01 2931.99 67.61 7.00 346.64 2576.47
   22:10:47.627.17-May-2020 4937.01 2932.02 67.61 7.00 346.84 2576.47
   22:10:47.828.17-May-2020 4937.01 2932.00 67.61 7.00 347.04 2576.47
   22:10:48.028.17-May-2020 4937.01 2932.02 67.61 7.00 347.24 2576.47
   22:10:48.228.17-May-2020 4937.01 2931.98 67.61 7.00 347.44 2576.47
   22:10:48.429.17-May-2020 4937.01 2931.99 67.61 7.00 347.64 2576.47
   22:10:48.629.17-May-2020 4937.01 2931.99 67.61 7.00 347.84 2576.47
   22:10:48.829.17-May-2020 4937.01 2931.99 67.61 7.00 348.04 2576.47
   22:10:49.030.17-May-2020 4937.01 2931.98 67.61 7.00 348.24 2576.47
   22:10:49.230.17-May-2020 4937.01 2931.99 67.61 7.00 348.44 2576.47
   22:10:49.431.17-May-2020 4937.01 2931.98 67.61 7.00 348.64 2576.47
   22:10:49.631.17-May-2020 4937.01 2931.98 67.61 7.00 348.84 2576.47
   22:10:49.831.17-May-2020 4937.01 2931.89 67.61 7.00 349.04 2576.47
   22:10:50.032.17-May-2020 4937.01 2932.04 67.61 7.00 349.24 2576.47
   22:10:50.232.17-May-2020 4937.01 2931.97 67.61 7.00 349.44 2576.47
   22:10:50.432.17-May-2020 4937.01 2932.01 67.61 7.00 349.64 2576.47
   22:10:50.633.17-May-2020 4937.01 2932.01 67.61 7.00 349.84 2576.47
   22:10:50.833.17-May-2020 4937.01 2931.99 67.61 7.00 350.04 2576.47
   22:10:51.034.17-May-2020 4937.01 2931.99 67.61 7.00 350.24 2576.47
   22:10:51.234.17-May-2020 4937.01 2931.99 67.61 7.00 350.44 2576.47
   22:10:51.434.17-May-2020 4937.01 2931.98 67.61 7.00 350.64 2576.47
   22:10:51.635.17-May-2020 4937.01 2931.97 67.61 7.00 350.84 2576.47
   22:10:51.835.17-May-2020 4937.01 2932.04 67.61 7.00 351.04 2576.47
   22:10:52.035.17-May-2020 4937.01 2932.00 67.61 7.00 351.24 2576.47
   22:10:52.236.17-May-2020 4937.01 2932.03 67.61 7.00 351.44 2576.47
   22:10:52.436.17-May-2020 4937.01 2932.09 67.61 7.00 351.64 2576.47
   22:10:52.636.17-May-2020 4937.01 2932.09 67.61 7.00 351.85 2576.47
   22:10:52.837.17-May-2020 4937.01 2932.02 67.61 7.00 352.05 2576.47
   22:10:53.037.17-May-2020 4937.01 2931.98 67.61 7.00 352.25 2576.47
   22:10:53.238.17-May-2020 4937.01 2931.99 67.61 7.00 352.45 2576.47
   22:10:53.438.17-May-2020 4937.01 2932.11 67.61 7.00 352.65 2576.47
   22:10:53.638.17-May-2020 4937.01 2932.11 67.61 7.00 352.85 2576.47
   22:10:53.839.17-May-2020 4937.01 2932.03 67.61 7.00 353.05 2576.47
   22:10:54.039.17-May-2020 4937.01 2931.97 67.61 7.00 353.25 2576.47
   22:10:54.239.17-May-2020 4937.01 2932.00 67.61 7.00 353.45 2576.47
   22:10:54.440.17-May-2020 4937.01 2932.07 67.61 7.00 353.65 2576.47
   22:10:54.640.17-May-2020 4937.01 2932.07 67.61 7.00 353.85 2576.47
   22:10:54.841.17-May-2020 4937.01 2932.07 67.61 7.00 354.05 2576.47
   22:10:55.041.17-May-2020 4937.01 2931.95 67.61 7.00 354.25 2576.47
   22:10:55.241.17-May-2020 4937.01 2932.00 67.61 7.00 354.45 2576.47
   22:10:55.442.17-May-2020 4937.01 2931.98 67.61 7.00 354.65 2576.47
   22:10:55.642.17-May-2020 4937.01 2931.98 67.61 7.00 354.85 2576.47
   22:10:55.842.17-May-2020 4937.01 2931.99 67.61 7.00 355.05 2576.47
   22:10:56.043.17-May-2020 4937.01 2931.99 67.61 7.00 355.25 2576.47
   22:10:56.243.17-May-2020 4937.01 2931.99 67.61 7.00 355.45 2576.47
   22:10:56.443.17-May-2020 4937.01 2931.98 67.61 7.00 355.65 2576.47
   22:10:56.644.17-May-2020 4937.01 2931.98 67.61 7.00 355.85 2576.47
   22:10:56.844.17-May-2020 4937.01 2932.00 67.61 7.00 356.05 2576.47
   22:10:57.045.17-May-2020 4937.01 2932.06 67.61 7.00 356.25 2576.47
   22:10:57.245.17-May-2020 4937.01 2931.96 67.61 7.00 356.45 2576.47
   22:10:57.445.17-May-2020 4937.01 2932.00 67.61 7.00 356.65 2576.47
   22:10:57.646.17-May-2020 4937.01 2932.00 67.61 7.00 356.85 2576.47
   22:10:57.846.17-May-2020 4937.01 2931.99 67.61 7.00 357.05 2576.47
   22:10:58.046.17-May-2020 4937.01 2931.98 67.61 7.00 357.26 2576.47
   22:10:58.247.17-May-2020 4937.01 2931.99 67.61 7.00 357.46 2576.47
   22:10:58.447.17-May-2020 4937.01 2931.99 67.61 7.00 357.66 2576.47
   22:10:58.647.17-May-2020 4937.01 2931.99 67.61 7.00 357.86 2576.47
   22:10:58.848.17-May-2020 4937.01 2931.93 67.61 7.00 358.06 2576.47
   22:10:59.048.17-May-2020 4937.01 2932.07 67.61 7.00 358.26 2576.47
   22:10:59.249.17-May-2020 4937.01 2931.95 67.61 7.00 358.46 2576.47
   22:10:59.449.17-May-2020 4937.01 2932.10 67.61 7.00 358.66 2576.47
   22:10:59.649.17-May-2020 4937.01 2931.92 67.61 7.00 358.86 2576.47
   22:10:59.850.17-May-2020 4937.01 2932.07 67.61 7.00 359.06 2576.47
   22:11:00.050.17-May-2020 4937.01 2931.95 67.61 7.00 359.26 2576.47
   22:11:00.250.17-May-2020 4937.01 2932.00 67.61 7.00 359.46 2576.47
   22:11:00.451.17-May-2020 4937.01 2932.03 67.61 7.00 359.66 2576.47
   22:11:00.651.17-May-2020 4937.01 2931.94 67.61 7.00 359.86 2576.47
   22:11:00.852.17-May-2020 4937.01 2932.08 67.61 7.00 360.06 2576.47
   22:11:01.052.17-May-2020 4937.01 2931.96 67.61 7.00 360.26 2576.47
   22:11:01.252.17-May-2020 4937.01 2931.99 67.61 7.00 360.46 2576.47
   22:11:01.453.17-May-2020 4937.01 2932.01 67.61 7.00 360.66 2576.47
   22:11:01.653.17-May-2020 4937.01 2932.01 67.61 7.00 360.86 2576.47
   22:11:01.853.17-May-2020 4937.01 2932.02 67.61 7.00 361.06 2576.47
   22:11:02.054.17-May-2020 4937.01 2931.98 67.61 7.00 361.26 2576.47
   22:11:02.254.17-May-2020 4937.01 2931.99 67.61 7.00 361.46 2576.47
   22:11:02.454.17-May-2020 4937.01 2931.97 67.61 7.00 361.66 2576.47
   22:11:02.655.17-May-2020 4937.01 2931.99 67.61 7.00 361.86 2576.47
   22:11:02.855.17-May-2020 4937.01 2931.98 67.61 7.00 362.06 2576.47
   22:11:03.056.17-May-2020 4937.01 2931.99 67.61 7.00 362.26 2576.47
   22:11:03.256.17-May-2020 4937.01 2931.98 67.61 7.00 362.46 2576.47
   22:11:03.456.17-May-2020 4937.01 2932.11 67.61 7.00 362.67 2576.47
   22:11:03.657.17-May-2020 4937.01 2932.11 67.61 7.00 362.87 2576.47
   22:11:03.857.17-May-2020 4937.01 2932.04 67.61 7.00 363.07 2576.47
   22:11:04.057.17-May-2020 4937.01 2931.97 67.61 7.00 363.27 2576.47
   22:11:04.258.17-May-2020 4937.01 2932.00 67.61 7.00 363.47 2576.47
   22:11:04.458.17-May-2020 4937.01 2931.98 67.61 7.00 363.67 2576.47
   22:11:04.659.17-May-2020 4937.01 2931.98 67.61 7.00 363.87 2576.47
   22:11:04.859.17-May-2020 4937.01 2931.98 67.61 7.00 364.07 2576.47
   22:11:05.059.17-May-2020 4937.01 2931.99 67.61 7.00 364.27 2576.47
   22:11:05.260.17-May-2020 4937.01 2931.98 67.61 7.00 364.47 2576.47
   22:11:05.460.17-May-2020 4937.01 2931.97 67.61 7.00 364.67 2576.47
   22:11:05.660.17-May-2020 4937.01 2931.97 67.61 7.00 364.87 2576.47
   22:11:05.861.17-May-2020 4937.01 2932.00 67.61 7.00 365.07 2576.47
   22:11:06.061.17-May-2020 4937.01 2932.03 67.61 7.00 365.27 2576.47
   22:11:06.261.17-May-2020 4937.01 2932.08 67.61 7.00 365.47 2576.47
   22:11:06.462.17-May-2020 4937.01 2931.92 67.61 7.00 365.67 2576.47
   22:11:06.662.17-May-2020 4937.01 2931.92 67.61 7.00 365.87 2576.47
   22:11:06.863.17-May-2020 4937.01 2936.36 67.61 7.00 366.07 2576.47
   22:11:07.063.17-May-2020 4937.01 3001.77 67.61 7.00 366.27 2576.47
   22:11:07.263.17-May-2020 4937.01 5058.90 67.61 7.00 366.47 2576.47
   22:11:07.464.17-May-2020 4937.01 5532.26 67.61 7.00 366.67 2576.47
   22:11:07.664.17-May-2020 4937.01 5536.22 67.61 7.00 366.87 2576.47
   22:11:07.864.17-May-2020 4937.01 5538.73 67.61 7.00 367.07 2576.47
   22:11:08.065.17-May-2020 4937.01 5534.97 67.61 7.00 367.27 2576.47
   22:11:08.265.17-May-2020 4937.01 5551.44 67.61 7.00 367.47 2576.47
   22:11:08.466.17-May-2020 4937.01 5530.26 67.61 7.00 367.67 2576.47
   22:11:08.666.17-May-2020 4937.01 5530.26 67.61 7.00 367.87 2576.47
   22:11:08.866.17-May-2020 4937.01 5538.04 67.61 7.00 368.08 2576.47
   22:11:09.067.17-May-2020 4937.01 5540.05 67.61 7.00 368.28 2576.47
   22:11:09.267.17-May-2020 4937.01 5538.42 67.61 7.00 368.48 2576.47
