~Version Information
 VERS.                  2.0:   CWLS log ASCII Standard -VERSION 2.0
 WRAP.                   NO:   One line per depth step
~Well Information Block
#MNEM.UNIT     VALUE/NAME     DESCRIPTION
#---------     -----------    ---------------------------
 STRT.S             22:49:31 17-May-20: START TIME 22:49:31 17-May-20
 STOP.S             22:56:24 17-May-20: STOP TIME  22:56:24 17-May-20
 STEP.S                   0.00: STEP TIME
 NULL.                 -999.25: NULL VALUE
 UNIT.                     N/A:  LOGGING EQUIPMENT ID
 DCON.         Sperry Drilling:  DIRECTNL CONTR
 DOE .                     N/A:  DOE NUMBER
 JOBN.        AZ-XX-0906252240:  JOB TICKET NUMB
 MWDS.                     N/A:  MWD SHOP
 PROV.                    Baku:  PROVINCE
 STAT.                    Baku:  STATE NAME
 REGN.                   EESSA:  REGION
 BASE.              Azerbaijan:  LOGGING EQUIPMENT BASE LOCATION
 UWI .                     N/A:  UNIQUE WELL IDENTIFIER
 API .                     N/A:  API NUMBER
 MDS .        Operator Entered:  MAG DATA SOURCE
 WTYP.                Deviated:  WELL TYPE
 COMP.     BP Exploration (Caspian Sea) Ltd.:  COMPANY
 SRVC.          Turan Drilling:  CONTRACTOR
 WELL.           J23 (Slot 07):  WELL NAME
 CTRY.              Azerbaijan:  COUNTRY NAME
 FLD .                     ACG:  FIELD NAME
 PDAT.          Mean Sea Level:  PERMANENT DATUM
 RIG .             West Chirag:  RIG NAME
 SON .        AZ-XX-0906252240:  JOB NUMBER
 FTOP.          Formation Tops:  FORM TOPS DESC
 ILTD.               Lithology:  INTERP LTH DESC
 SVYD.                  Survey:  SURVEY DESC
 DMOD.             Drill Model:  DRILL MOD DESC
 HPTY.       Minimum Curvature:  HOLE POS TYPE
 NREF.                    Grid:  NORTH REFERENCE
 SPUD.               27-Aug-20:  SPUD DATE
 DATE.      00.00.00 19-May-20:  END TIME
 STIM.      03.00.00 25-Mar-20:  START TIME
 DMF .             Drill Floor:  DRILL MEAS FROM
 DFST.                        :  DIST FSL TEXT
 DFWT.                        :  DIST FWL TEXT
 CNTY.                        :  COUNTY
 LOC .                        :  LOCATION
 LMF .             Drill Floor:  LOG MEASURED FROM
 VSNS.m                   9.43:  VERT SEC N/S
 VSEW.m                  -8.91:  VERT SEC E/W
 AGAP.m                  43.00:  AIR GAP
 DEP .m                 354.17:  DEPTH
 APD .m                  43.00:  DEPTH ABOVE PD
 WDMS.m                 169.80:  WD ELEV
 EGL .m                   0.00:  GROUND ELEVATION
 EPD .m                   0.00:  ELEVATION
 AZTC.deg                 6.31:  AZM TOTAL CORR
 GRDC.deg                 0.14:  GRID CORRECTION
 MDEC.deg                 6.45:  MAGNETIC DECL
 MDIP.deg                59.56:  MAGNETIC DIP
 MFLD.nT              50295.00:  MAGNETIC FIELD
 GVFD.g                   1.00:  GRAVITY FIELD
 VSDR.deg               179.88:  VERT SEC DIRECT
 TDD .m                5150.01:  TOTAL DEPTH (DRILLER)
 SDEP.m                 864.00:  START DEPTH
 DFSL.m                   0.00:  DISTANCE FSL
 DFWL.m                   0.00:  DISTANCE FWL
 UTMY.m             4443793.85:  UTM Y
 UTMX.m              519005.06:  UTM X
 WHEW.m                  -8.91:  WELL HEAD E/W
 WHNS.m                   9.43:  WELL HEAD N/S
 LONG.deg                51.22:  LONGITUDE
 LATI.deg                40.13:  LATITUDE
 TVDS.m                  43.00:  TVDSS CORRECTN
 EKB .m                   0.00:  KB ELEVATION
 EDF .m                  43.00:  DF ELEVATION
 TDL .m                 363.00:  TOTAL DEPTH (LOGGER)
 MAGU.                 1850802:  MAGUTM CHECKSUM
 VSC .                       0:  VS TO CLOSURE
~Parameter Information Block
#MNEM.UNIT       Value        Description
#---------     -----------    ---------------------------
 AV  .mps                 2.30:  Ann Velocity 
 AVMX.mps                 4.40:  Max Ann Veloc 
 AZIF.deg               110.24:  Azm, Final 
 BHAT.        Rotary Steerable:  BHA Type 
 BREV.rev               331.00:  Rev Bit Total 
 BROT.°/30m               0.00:  Build Rotating 
 BS  .in                  8.50:  Bit Size 
 BSZ .in                  8.50:  Bit Size 
 BTPL.psig              585.00:  Bit Press Loss 
 CABU.                     Yes:  Customer Abuse 
 COMM.                     ¼´€:  Run Comments 1 
 TCS .hr                122.75:  Time Ciculation Ended 
 CV  .mps                 2.67:  Crit Velocity 
 CVMX.mps                 3.56:  Max Crit Veloc 
 DD1 .          Rashad Habibov:  Direct Drillr 1 
 DD2 .         Rasim Ibrahimov:  Direct Drillr 2 
 DDSV.               Geo-Pilot:  DD Service 
 DEFF.%                  98.00:  % Det Eff 
 DLRX.°/30m               0.75:  Dogleg Rot Max 
 DLSO.°/30m               1.25:  Dogleg Oriented 
 DLSX.°/30m               2.06:  Dogleg Str Max 
 DRET.      07.45.00 17-May-20:  Drill End Time 
 DRST.      22.50.00 15-May-20:  Drill Start Tim 
 DTIM.hr                 20.75:  Time Drilling 
 EDEP.m                5124.01:  End Depth 
 ENG1.           Eldar Hajiyev:  Engineer 1 
 ENG2.        Marcelo Sandoval:  Engineer 2 
 ENG3.        Davud huseynzada:  Engineer 3 
 ENG4.          Ruslan Safarov:  Engineer 4 
 ETIM.      04.33.00 23-May-20:  End Time 
 FLOI.gpm               450.00:  Flow In 
 FLON.gpm               400.00:  Flow In Min 
 FLOS.cptm                0.00:  Fluid Loss 
 FLOX.gpm               500.00:  Flow In Max 
 FTRO.       Formation Presure:  FTWD Run Obj 
 HFLO.                      No:  High Flow 
 HPRE.                     Yes:  High Pressure 
 HTEM.                      No:  High Temp 
 HYDO.m                   1.80:  Hydro Offset 
 IFIN.deg                75.06:  Inc, Final 
 IMAX.deg                75.38:  Inc Max 
 IMIN.deg                74.69:  Inc Min 
 IMND.m                5027.38:  Inc Min Depth 
 IMXD.m                4771.61:  Inc Max Depth 
 JARR.                      No:  Jarring 
 LETM.      07.45.00 17-May-20:  Log End Time 
 LOST.hr                     0:  Lost Rig Time 
 LSTM.      22.50.00 15-May-20:  Log Start Time 
 MDCL.ppm             42000.00:  Mud Chlorides 
 MDES.     Inversion Oil/Synthetic:  Mud Desc 
 DFD .sg                  1.34:  Mud Density 
 MDMN.sg                  1.34:  Dens Mud Min 
 MDMX.sg                  1.34:  Dens Mud Max 
 MOIL.                       0:  Run Mud Oil % 
 MOWR.                   67:33:  Run Mud OWR 
 MSND.                       0:  Run Mud Sand % 
 MSOL.                     1.8:  Run Mud Solids% 
 DFV .spqt               76.00:  Mud Viscosity 
 MWOD.in                  6.75:  MWD Tool OD 
 MWSI.                      No:  Serv Intrp, MWD 
 OTIM.hr                228.19:  Time Operating 
 PCON.           Look Like New:  Pad Condition 
 PMAX.psia             6164.70:  Press Op, Max 
 PV  .cP                 28.00:  Mud PV 
 RUN .                     900:  Run Number 
 ROPA.m/hr               19.00:  ROP Avg 
 ROPN.m/hr               11.00:  ROP Min 
 ROPX.m/hr               36.00:  ROP Max 
 RPMA.rpm               120.00:  RPM Surface Avg 
 RPMN.rpm               120.00:  RPM Surface Min 
 RPMX.rpm               120.00:  RPM Surface Max 
 RRUN.                    L604:  Rig Run Number 
 RTIM.hr                  7.00:  Time Reaming 
 SAZI.deg               109.27:  Azm, Start 
 SDEP.m                4761.01:  Start Depth 
 SIDD.                      No:  Serv Intrp, DD 
 SINC.deg                75.38:  Inc, Start 
 SPPA.psig             3574.00:  SPP Avg 
 SPPN.psig             3475.00:  SPP Min 
 SPPX.psig             3791.00:  SPP Max 
 STIM.      07.08.48 13-May-20:  Start Time 
 SVCS.                 DD, MWD:  Services 
 SVER.                    9.20:  Sperry Version 
 TDAT.m                 363.00:  Tot Depth Attmp 
 TDDF.                      No:  Trip for DD 
 TDLG.m                 363.00:  Tot Depth Loggd 
 TFF .                      No:  Trip for Fail 
 TQAA.f-kp               20.00:  Torque Abs Avg 
 TQAN.f-kp               18.00:  Torque Abs Min 
 TQAX.f-kp               22.00:  Torque Abs Max 
 TRRT.°/30m              -0.35:  Turn Rotating 
 MRT .                    HCIM:  Maximum Recorded Temperature 
 TTMX.degC               92.16:  Max Tool Temp 
 VS01.                90586518:  Virtual Str1 SN 
 VS02.        AZ90560654Z1W1C6:  Virtual Str2 SN 
 VS03.           AZ90610398F11:  Virtual Str3 SN 
 VS04.                90514975:  Virtual Str4 SN 
 VS05.                90514972:  Virtual Str5 SN 
 VS06.     AZ90603282F11V7D1A6:  Virtual Str6 SN 
 WBMN.klb                 7.00:  WOB Min 
 WOBA.klb                12.00:  WOB Avg 
 WOBX.klb                14.00:  WOB Max 
 YP  .lhf2               32.00:  Yield Point 
~Curve Information Block
#MNEM.UNIT                 API CODE     Curve Description
#---------               -----------    ---------------------------
 TIME.HHMMSS            00 000 000 000:  GT Time & Date
 GTDEPTH.m              00 000 000 000:  GT Depth
 GTPQH.psia             00 000 000 000:  GT HR Quartz Pressure
 GTTQ.degC              00 000 000 000:  GT Quartz Temperature
 GTTN.NONE              00 000 000 000:  GT Test Number
 GTET.sec               00 000 000 000:  GT Elapsed Test Time
 GTTVD.m                00 000 000 000:  GT True Vertical Depth
#Other Information
#
#WARRANTY: Halliburton will use its best efforts to furnish customers with 
#accurate information and interpretations that are part of, and incident to, the services 
#provided.  However, Halliburton cannot and does not warrant the accuracy 
#or correctness of such information and interpretations.  Under no circumstances should any 
#such information or interpretation be relied upon as the sole basis for any drilling, 
#completion, production, or financial decision or any procedure involving any risk to the 
#safety of any drilling venture, drilling rig or its crew or any other third party.  The 
#Customer has full responsibility for all drilling, completion and production operation.  
#Halliburton makes no representations or warranties, either expressed or 
#implied, including, but not limited to, the implied warranties of merchantability or fitness 
#for a particular purpose, with respect to the services rendered.  In no event will 
#Halliburton be liable for failure to obtain any particular results or for 
#any damages, including, but not limited to, indirect, special or consequential damages, 
#resulting from the use of any information or interpretation provided by Halliburton.
#
~A           TIME           GTDEPTH  GTPQH  GTTQ  GTTN  GTET   GTTVD  
# ...
   22:55:39.338.17-May-2020 4908.51 5525.86 67.24 8.00 367.81 2569.17
   22:55:39.538.17-May-2020 4908.51 5525.86 67.24 8.00 368.01 2569.17
   22:55:39.738.17-May-2020 4908.51 5534.01 67.25 8.00 368.21 2569.17
   22:55:39.938.17-May-2020 4908.51 5537.86 67.25 8.00 368.41 2569.17
   22:55:40.137.17-May-2020 4908.51 5526.29 67.26 8.00 368.61 2569.17
   22:55:40.337.17-May-2020 4908.51 5537.92 67.26 8.00 368.81 2569.17
   22:55:40.537.17-May-2020 4908.51 5541.63 67.26 8.00 369.01 2569.17
   22:55:40.737.17-May-2020 4908.51 5525.65 67.26 8.00 369.21 2569.17
   22:55:40.937.17-May-2020 4908.51 5538.51 67.27 8.00 369.41 2569.17
   22:55:41.137.17-May-2020 4908.51 5527.60 67.27 8.00 369.61 2569.17
   22:55:41.337.17-May-2020 4908.51 5533.15 67.27 8.00 369.81 2569.17
   22:55:41.537.17-May-2020 4908.51 5533.15 67.27 8.00 370.01 2569.17
   22:55:41.737.17-May-2020 4908.51 5529.48 67.27 8.00 370.21 2569.17
   22:55:41.937.17-May-2020 4908.51 5526.87 67.28 8.00 370.41 2569.17
   22:55:42.136.17-May-2020 4908.51 5527.43 67.28 8.00 370.61 2569.17
   22:55:42.336.17-May-2020 4908.51 5526.66 67.28 8.00 370.81 2569.17
   22:55:42.536.17-May-2020 4908.51 5526.66 67.28 8.00 371.01 2569.17
   22:55:42.736.17-May-2020 4908.51 5519.39 67.28 8.00 371.21 2569.17
   22:55:42.936.17-May-2020 4908.51 5534.58 67.28 8.00 371.41 2569.17
   22:55:43.136.17-May-2020 4908.51 5526.82 67.29 8.00 371.61 2569.17
   22:55:43.336.17-May-2020 4908.51 5529.06 67.29 8.00 371.81 2569.17
   22:55:43.536.17-May-2020 4908.51 5529.06 67.29 8.00 372.01 2569.17
   22:55:43.736.17-May-2020 4908.51 5527.31 67.29 8.00 372.21 2569.17
   22:55:43.935.17-May-2020 4908.51 5525.29 67.29 8.00 372.41 2569.17
   22:55:44.135.17-May-2020 4908.51 5525.70 67.29 8.00 372.61 2569.17
   22:55:44.335.17-May-2020 4908.51 5525.26 67.29 8.00 372.81 2569.17
   22:55:44.535.17-May-2020 4908.51 5525.26 67.29 8.00 373.01 2569.17
   22:55:44.735.17-May-2020 4908.51 5535.31 67.29 8.00 373.21 2569.17
   22:55:44.935.17-May-2020 4908.51 5524.23 67.29 8.00 373.41 2569.17
   22:55:45.135.17-May-2020 4908.51 5528.32 67.29 8.00 373.61 2569.17
   22:55:45.335.17-May-2020 4908.51 5531.43 67.29 8.00 373.81 2569.17
   22:55:45.535.17-May-2020 4908.51 5531.43 67.29 8.00 374.01 2569.17
   22:55:45.735.17-May-2020 4908.51 5536.62 67.29 8.00 374.21 2569.17
   22:55:45.934.17-May-2020 4908.51 5524.75 67.30 8.00 374.41 2569.17
   22:55:46.134.17-May-2020 4908.51 5537.28 67.30 8.00 374.61 2569.17
   22:55:46.334.17-May-2020 4908.51 5526.85 67.30 8.00 374.81 2569.17
   22:55:46.534.17-May-2020 4908.51 5526.85 67.30 8.00 375.01 2569.17
   22:55:46.734.17-May-2020 4908.51 5522.63 67.30 8.00 375.21 2569.17
   22:55:46.934.17-May-2020 4908.51 5538.34 67.30 8.00 375.41 2569.17
   22:55:47.134.17-May-2020 4908.51 5524.32 67.30 8.00 375.61 2569.17
   22:55:47.334.17-May-2020 4908.51 5531.87 67.30 8.00 375.81 2569.17
   22:55:47.534.17-May-2020 4908.51 5531.87 67.30 8.00 376.01 2569.17
   22:55:47.734.17-May-2020 4908.51 5526.33 67.30 8.00 376.21 2569.17
   22:55:47.933.17-May-2020 4908.51 5537.18 67.30 8.00 376.41 2569.17
   22:55:48.133.17-May-2020 4908.51 5526.36 67.30 8.00 376.61 2569.17
   22:55:48.333.17-May-2020 4908.51 5530.96 67.30 8.00 376.81 2569.17
   22:55:48.533.17-May-2020 4908.51 5525.32 67.30 8.00 377.01 2569.17
   22:55:48.733.17-May-2020 4908.51 5528.08 67.30 8.00 377.21 2569.17
   22:55:48.933.17-May-2020 4908.51 5525.71 67.30 8.00 377.41 2569.17
   22:55:49.133.17-May-2020 4908.51 5526.27 67.30 8.00 377.61 2569.17
   22:55:49.333.17-May-2020 4908.51 5524.80 67.30 8.00 377.81 2569.17
   22:55:49.533.17-May-2020 4908.51 5524.80 67.30 8.00 378.01 2569.17
   22:55:49.733.17-May-2020 4908.51 5518.58 67.30 8.00 378.21 2569.17
   22:55:49.932.17-May-2020 4908.51 5536.20 67.30 8.00 378.41 2569.17
   22:55:50.132.17-May-2020 4908.51 5522.90 67.29 8.00 378.61 2569.17
   22:55:50.332.17-May-2020 4908.51 5529.83 67.29 8.00 378.81 2569.17
   22:55:50.532.17-May-2020 4908.51 5529.83 67.29 8.00 379.01 2569.17
   22:55:50.732.17-May-2020 4908.51 5526.71 67.29 8.00 379.21 2569.17
   22:55:50.932.17-May-2020 4908.51 5523.91 67.29 8.00 379.41 2569.17
   22:55:51.132.17-May-2020 4908.51 5525.30 67.29 8.00 379.61 2569.17
   22:55:51.332.17-May-2020 4908.51 5523.76 67.29 8.00 379.81 2569.17
   22:55:51.532.17-May-2020 4908.51 5524.18 67.29 8.00 380.00 2569.17
   22:55:51.731.17-May-2020 4908.51 5538.75 67.29 8.00 380.20 2569.17
   22:55:51.931.17-May-2020 4908.51 5518.76 67.29 8.00 380.40 2569.17
   22:55:52.131.17-May-2020 4908.51 5532.51 67.29 8.00 380.60 2569.17
   22:55:52.331.17-May-2020 4908.51 5526.57 67.29 8.00 380.80 2569.17
   22:55:52.531.17-May-2020 4908.51 5533.06 67.29 8.00 381.00 2569.17
   22:55:52.731.17-May-2020 4908.51 5531.54 67.29 8.00 381.20 2569.17
   22:55:52.931.17-May-2020 4908.51 5526.00 67.29 8.00 381.40 2569.17
   22:55:53.131.17-May-2020 4908.51 5535.24 67.29 8.00 381.60 2569.17
   22:55:53.331.17-May-2020 4908.51 5528.13 67.29 8.00 381.80 2569.17
   22:55:53.531.17-May-2020 4908.51 5528.13 67.29 8.00 382.00 2569.17
   22:55:53.730.17-May-2020 4908.51 5523.51 67.29 8.00 382.20 2569.17
   22:55:53.930.17-May-2020 4908.51 5538.29 67.29 8.00 382.40 2569.17
   22:55:54.130.17-May-2020 4908.51 5524.72 67.29 8.00 382.60 2569.17
   22:55:54.330.17-May-2020 4908.51 5548.31 67.29 8.00 382.80 2569.17
   22:55:54.530.17-May-2020 4908.51 5548.31 67.29 8.00 383.00 2569.17
   22:55:54.730.17-May-2020 4908.51 5538.68 67.29 8.00 383.20 2569.17
   22:55:54.930.17-May-2020 4908.51 5525.71 67.29 8.00 383.40 2569.17
   22:55:55.130.17-May-2020 4908.51 5532.69 67.28 8.00 383.60 2569.17
   22:55:55.330.17-May-2020 4908.51 5525.13 67.28 8.00 383.80 2569.17
   22:55:55.530.17-May-2020 4908.51 5525.13 67.28 8.00 384.00 2569.17
   22:55:55.729.17-May-2020 4908.51 5525.61 67.28 8.00 384.20 2569.17
   22:55:55.929.17-May-2020 4908.51 5527.40 67.28 8.00 384.40 2569.17
   22:55:56.129.17-May-2020 4908.51 5526.27 67.28 8.00 384.60 2569.17
   22:55:56.329.17-May-2020 4908.51 5538.00 67.28 8.00 384.80 2569.17
   22:55:56.529.17-May-2020 4908.51 5522.45 67.28 8.00 385.00 2569.17
   22:55:56.729.17-May-2020 4908.51 5530.63 67.28 8.00 385.20 2569.17
   22:55:56.929.17-May-2020 4908.51 5529.95 67.28 8.00 385.40 2569.17
   22:55:57.129.17-May-2020 4908.51 5527.57 67.28 8.00 385.60 2569.17
   22:55:57.329.17-May-2020 4908.51 5527.86 67.28 8.00 385.80 2569.17
   22:55:57.529.17-May-2020 4908.51 5527.86 67.28 8.00 386.00 2569.17
   22:55:57.728.17-May-2020 4908.51 5526.49 67.28 8.00 386.20 2569.17
   22:55:57.928.17-May-2020 4908.51 5526.09 67.28 8.00 386.40 2569.17
   22:55:58.128.17-May-2020 4908.51 5526.10 67.28 8.00 386.60 2569.17
   22:55:58.328.17-May-2020 4908.51 5524.76 67.28 8.00 386.80 2569.17
   22:55:58.528.17-May-2020 4908.51 5524.76 67.28 8.00 387.00 2569.17
   22:55:58.728.17-May-2020 4908.51 5531.51 67.28 8.00 387.20 2569.17
   22:55:58.928.17-May-2020 4908.51 5524.56 67.28 8.00 387.40 2569.17
   22:55:59.128.17-May-2020 4908.51 5535.72 67.28 8.00 387.60 2569.17
   22:55:59.328.17-May-2020 4908.51 5524.84 67.28 8.00 387.80 2569.17
   22:55:59.527.17-May-2020 4908.51 5524.84 67.28 8.00 388.00 2569.17
   22:55:59.727.17-May-2020 4908.51 5519.43 67.27 8.00 388.20 2569.17
   22:55:59.927.17-May-2020 4908.51 5538.31 67.27 8.00 388.40 2569.17
   22:56:00.127.17-May-2020 4908.51 5525.25 67.27 8.00 388.60 2569.17
   22:56:00.327.17-May-2020 4908.51 5542.67 67.27 8.00 388.80 2569.17
   22:56:00.527.17-May-2020 4908.51 5520.99 67.27 8.00 389.00 2569.17
   22:56:00.727.17-May-2020 4908.51 5540.50 67.27 8.00 389.20 2569.17
   22:56:00.927.17-May-2020 4908.51 5524.08 67.27 8.00 389.40 2569.17
   22:56:01.127.17-May-2020 4908.51 5532.96 67.27 8.00 389.60 2569.17
   22:56:01.327.17-May-2020 4908.51 5537.50 67.27 8.00 389.80 2569.17
   22:56:01.526.17-May-2020 4908.51 5537.50 67.27 8.00 390.00 2569.17
   22:56:01.726.17-May-2020 4908.51 5537.75 67.27 8.00 390.20 2569.17
   22:56:01.926.17-May-2020 4908.51 5525.77 67.27 8.00 390.40 2569.17
   22:56:02.126.17-May-2020 4908.51 5531.69 67.27 8.00 390.60 2569.17
