~Version Information
 VERS.                  2.0:   CWLS log ASCII Standard -VERSION 2.0
 WRAP.                   NO:   One line per depth step
~Well Information Block
#MNEM.UNIT     VALUE/NAME     DESCRIPTION
#---------     -----------    ---------------------------
 STRT.S             12:13:26 20-May-20: START TIME 12:13:26 20-May-20
 STOP.S             12:20:31 20-May-20: STOP TIME  12:20:31 20-May-20
 STEP.S                   0.00: STEP TIME
 NULL.                 -999.25: NULL VALUE
 UNIT.                     N/A:  LOGGING EQUIPMENT ID
 DCON.         Sperry Drilling:  DIRECTNL CONTR
 DOE .                     N/A:  DOE NUMBER
 JOBN.        AZ-XX-0906252240:  JOB TICKET NUMB
 MWDS.                     N/A:  MWD SHOP
 PROV.                    Baku:  PROVINCE
 STAT.                    Baku:  STATE NAME
 REGN.                   EESSA:  REGION
 BASE.              Azerbaijan:  LOGGING EQUIPMENT BASE LOCATION
 UWI .                     N/A:  UNIQUE WELL IDENTIFIER
 API .                     N/A:  API NUMBER
 MDS .        Operator Entered:  MAG DATA SOURCE
 WTYP.                Deviated:  WELL TYPE
 COMP.     BP Exploration (Caspian Sea) Ltd.:  COMPANY
 SRVC.          Turan Drilling:  CONTRACTOR
 WELL.           J23 (Slot 07):  WELL NAME
 CTRY.              Azerbaijan:  COUNTRY NAME
 FLD .                     ACG:  FIELD NAME
 PDAT.          Mean Sea Level:  PERMANENT DATUM
 RIG .             West Chirag:  RIG NAME
 SON .        AZ-XX-0906252240:  JOB NUMBER
 FTOP.          Formation Tops:  FORM TOPS DESC
 ILTD.               Lithology:  INTERP LTH DESC
 SVYD.                  Survey:  SURVEY DESC
 DMOD.             Drill Model:  DRILL MOD DESC
 HPTY.       Minimum Curvature:  HOLE POS TYPE
 NREF.                    Grid:  NORTH REFERENCE
 SPUD.               27-Aug-20:  SPUD DATE
 DATE.      00.00.00 19-May-20:  END TIME
 STIM.      03.00.00 25-Mar-20:  START TIME
 DMF .             Drill Floor:  DRILL MEAS FROM
 DFST.                        :  DIST FSL TEXT
 DFWT.                        :  DIST FWL TEXT
 CNTY.                        :  COUNTY
 LOC .                        :  LOCATION
 LMF .             Drill Floor:  LOG MEASURED FROM
 VSNS.m                   9.43:  VERT SEC N/S
 VSEW.m                  -8.91:  VERT SEC E/W
 AGAP.m                  43.00:  AIR GAP
 DEP .m                 354.17:  DEPTH
 APD .m                  43.00:  DEPTH ABOVE PD
 WDMS.m                 169.80:  WD ELEV
 EGL .m                   0.00:  GROUND ELEVATION
 EPD .m                   0.00:  ELEVATION
 AZTC.deg                 6.31:  AZM TOTAL CORR
 GRDC.deg                 0.14:  GRID CORRECTION
 MDEC.deg                 6.45:  MAGNETIC DECL
 MDIP.deg                59.56:  MAGNETIC DIP
 MFLD.nT              50295.00:  MAGNETIC FIELD
 GVFD.g                   1.00:  GRAVITY FIELD
 VSDR.deg               179.88:  VERT SEC DIRECT
 TDD .m                5150.01:  TOTAL DEPTH (DRILLER)
 SDEP.m                 864.00:  START DEPTH
 DFSL.m                   0.00:  DISTANCE FSL
 DFWL.m                   0.00:  DISTANCE FWL
 UTMY.m             4443793.85:  UTM Y
 UTMX.m              519005.06:  UTM X
 WHEW.m                  -8.91:  WELL HEAD E/W
 WHNS.m                   9.43:  WELL HEAD N/S
 LONG.deg                51.22:  LONGITUDE
 LATI.deg                40.13:  LATITUDE
 TVDS.m                  43.00:  TVDSS CORRECTN
 EKB .m                   0.00:  KB ELEVATION
 EDF .m                  43.00:  DF ELEVATION
 TDL .m                 363.00:  TOTAL DEPTH (LOGGER)
 MAGU.                 1850802:  MAGUTM CHECKSUM
 VSC .                       0:  VS TO CLOSURE
~Parameter Information Block
#MNEM.UNIT       Value        Description
#---------     -----------    ---------------------------
 AV  .mps                 2.30:  Ann Velocity 
 AVMX.mps                 4.40:  Max Ann Veloc 
 AZIF.deg               110.24:  Azm, Final 
 BHAT.        Rotary Steerable:  BHA Type 
 BREV.rev               331.00:  Rev Bit Total 
 BROT.°/30m               0.00:  Build Rotating 
 BS  .in                  8.50:  Bit Size 
 BSZ .in                  8.50:  Bit Size 
 BTPL.psig              585.00:  Bit Press Loss 
 CABU.                     Yes:  Customer Abuse 
 COMM.                     моЊ:  Run Comments 1 
 TCS .hr                122.75:  Time Ciculation Ended 
 CV  .mps                 2.67:  Crit Velocity 
 CVMX.mps                 3.56:  Max Crit Veloc 
 DD1 .          Rashad Habibov:  Direct Drillr 1 
 DD2 .         Rasim Ibrahimov:  Direct Drillr 2 
 DDSV.               Geo-Pilot:  DD Service 
 DEFF.%                  98.00:  % Det Eff 
 DLRX.°/30m               0.75:  Dogleg Rot Max 
 DLSO.°/30m               1.25:  Dogleg Oriented 
 DLSX.°/30m               2.06:  Dogleg Str Max 
 DRET.      07.45.00 17-May-20:  Drill End Time 
 DRST.      22.50.00 15-May-20:  Drill Start Tim 
 DTIM.hr                 20.75:  Time Drilling 
 EDEP.m                5124.01:  End Depth 
 ENG1.           Eldar Hajiyev:  Engineer 1 
 ENG2.        Marcelo Sandoval:  Engineer 2 
 ENG3.        Davud huseynzada:  Engineer 3 
 ENG4.          Ruslan Safarov:  Engineer 4 
 ETIM.      04.33.00 23-May-20:  End Time 
 FLOI.gpm               450.00:  Flow In 
 FLON.gpm               400.00:  Flow In Min 
 FLOS.cptm                0.00:  Fluid Loss 
 FLOX.gpm               500.00:  Flow In Max 
 FTRO.       Formation Presure:  FTWD Run Obj 
 HFLO.                      No:  High Flow 
 HPRE.                     Yes:  High Pressure 
 HTEM.                      No:  High Temp 
 HYDO.m                   1.80:  Hydro Offset 
 IFIN.deg                75.06:  Inc, Final 
 IMAX.deg                75.38:  Inc Max 
 IMIN.deg                74.69:  Inc Min 
 IMND.m                5027.38:  Inc Min Depth 
 IMXD.m                4771.61:  Inc Max Depth 
 JARR.                      No:  Jarring 
 LETM.      07.45.00 17-May-20:  Log End Time 
 LOST.hr                     0:  Lost Rig Time 
 LSTM.      22.50.00 15-May-20:  Log Start Time 
 MDCL.ppm             42000.00:  Mud Chlorides 
 MDES.     Inversion Oil/Synthetic:  Mud Desc 
 DFD .sg                  1.34:  Mud Density 
 MDMN.sg                  1.34:  Dens Mud Min 
 MDMX.sg                  1.34:  Dens Mud Max 
 MOIL.                       0:  Run Mud Oil % 
 MOWR.                   67:33:  Run Mud OWR 
 MSND.                       0:  Run Mud Sand % 
 MSOL.                     1.8:  Run Mud Solids% 
 DFV .spqt               76.00:  Mud Viscosity 
 MWOD.in                  6.75:  MWD Tool OD 
 MWSI.                      No:  Serv Intrp, MWD 
 OTIM.hr                228.19:  Time Operating 
 PCON.           Look Like New:  Pad Condition 
 PMAX.psia             6164.70:  Press Op, Max 
 PV  .cP                 28.00:  Mud PV 
 RUN .                     900:  Run Number 
 ROPA.m/hr               19.00:  ROP Avg 
 ROPN.m/hr               11.00:  ROP Min 
 ROPX.m/hr               36.00:  ROP Max 
 RPMA.rpm               120.00:  RPM Surface Avg 
 RPMN.rpm               120.00:  RPM Surface Min 
 RPMX.rpm               120.00:  RPM Surface Max 
 RRUN.                    L604:  Rig Run Number 
 RTIM.hr                  7.00:  Time Reaming 
 SAZI.deg               109.27:  Azm, Start 
 SDEP.m                4761.01:  Start Depth 
 SIDD.                      No:  Serv Intrp, DD 
 SINC.deg                75.38:  Inc, Start 
 SPPA.psig             3574.00:  SPP Avg 
 SPPN.psig             3475.00:  SPP Min 
 SPPX.psig             3791.00:  SPP Max 
 STIM.      07.08.48 13-May-20:  Start Time 
 SVCS.                 DD, MWD:  Services 
 SVER.                    9.20:  Sperry Version 
 TDAT.m                 363.00:  Tot Depth Attmp 
 TDDF.                      No:  Trip for DD 
 TDLG.m                 363.00:  Tot Depth Loggd 
 TFF .                      No:  Trip for Fail 
 TQAA.f-kp               20.00:  Torque Abs Avg 
 TQAN.f-kp               18.00:  Torque Abs Min 
 TQAX.f-kp               22.00:  Torque Abs Max 
 TRRT.°/30m              -0.35:  Turn Rotating 
 MRT .                    HCIM:  Maximum Recorded Temperature 
 TTMX.degC               92.16:  Max Tool Temp 
 VS01.                90586518:  Virtual Str1 SN 
 VS02.        AZ90560654Z1W1C6:  Virtual Str2 SN 
 VS03.           AZ90610398F11:  Virtual Str3 SN 
 VS04.                90514975:  Virtual Str4 SN 
 VS05.                90514972:  Virtual Str5 SN 
 VS06.     AZ90603282F11V7D1A6:  Virtual Str6 SN 
 WBMN.klb                 7.00:  WOB Min 
 WOBA.klb                12.00:  WOB Avg 
 WOBX.klb                14.00:  WOB Max 
 YP  .lhf2               32.00:  Yield Point 
~Curve Information Block
#MNEM.UNIT                 API CODE     Curve Description
#---------               -----------    ---------------------------
 TIME.HHMMSS            00 000 000 000:  GT Time & Date
 GTDEPTH.m              00 000 000 000:  GT Depth
 GTPQH.psia             00 000 000 000:  GT HR Quartz Pressure
 GTTQ.degC              00 000 000 000:  GT Quartz Temperature
 GTTN.NONE              00 000 000 000:  GT Test Number
 GTET.sec               00 000 000 000:  GT Elapsed Test Time
 GTTVD.m                00 000 000 000:  GT True Vertical Depth
#Other Information
#
#WARRANTY: Halliburton will use its best efforts to furnish customers with 
#accurate information and interpretations that are part of, and incident to, the services 
#provided.  However, Halliburton cannot and does not warrant the accuracy 
#or correctness of such information and interpretations.  Under no circumstances should any 
#such information or interpretation be relied upon as the sole basis for any drilling, 
#completion, production, or financial decision or any procedure involving any risk to the 
#safety of any drilling venture, drilling rig or its crew or any other third party.  The 
#Customer has full responsibility for all drilling, completion and production operation.  
#Halliburton makes no representations or warranties, either expressed or 
#implied, including, but not limited to, the implied warranties of merchantability or fitness 
#for a particular purpose, with respect to the services rendered.  In no event will 
#Halliburton be liable for failure to obtain any particular results or for 
#any damages, including, but not limited to, indirect, special or consequential damages, 
#resulting from the use of any information or interpretation provided by Halliburton.
#
~A           TIME           GTDEPTH  GTPQH  GTTQ  GTTN   GTET   GTTVD  
# ...
   12:20:13.631.20-May-2020 4766.51 5483.63 69.02 15.00 406.93 2532.42
   12:20:13.831.20-May-2020 4766.51 5481.62 69.02 15.00 407.13 2532.42
   12:20:14.031.20-May-2020 4766.51 5482.41 69.02 15.00 407.33 2532.42
   12:20:14.231.20-May-2020 4766.51 5498.21 69.02 15.00 407.53 2532.42
   12:20:14.431.20-May-2020 4766.51 5484.57 69.02 15.00 407.73 2532.42
   12:20:14.631.20-May-2020 4766.51 5482.13 69.02 15.00 407.93 2532.42
   12:20:14.831.20-May-2020 4766.51 5481.53 69.02 15.00 408.13 2532.42
   12:20:15.031.20-May-2020 4766.51 5481.53 69.02 15.00 408.33 2532.42
   12:20:15.231.20-May-2020 4766.51 5484.33 69.02 15.00 408.53 2532.42
   12:20:15.431.20-May-2020 4766.51 5482.46 69.02 15.00 408.73 2532.42
   12:20:15.631.20-May-2020 4766.51 5481.29 69.02 15.00 408.93 2532.42
   12:20:15.832.20-May-2020 4766.51 5481.45 69.02 15.00 409.13 2532.42
   12:20:16.032.20-May-2020 4766.51 5481.45 69.02 15.00 409.33 2532.42
   12:20:16.232.20-May-2020 4766.51 5493.17 69.01 15.00 409.53 2532.42
   12:20:16.432.20-May-2020 4766.51 5481.35 69.01 15.00 409.73 2532.42
   12:20:16.632.20-May-2020 4766.51 5480.82 69.01 15.00 409.93 2532.42
   12:20:16.832.20-May-2020 4766.51 5480.40 69.01 15.00 410.13 2532.42
   12:20:17.032.20-May-2020 4766.51 5480.40 69.01 15.00 410.33 2532.42
   12:20:17.232.20-May-2020 4766.51 5482.23 69.01 15.00 410.53 2532.42
   12:20:17.432.20-May-2020 4766.51 5480.88 69.01 15.00 410.73 2532.42
   12:20:17.632.20-May-2020 4766.51 5480.58 69.01 15.00 410.93 2532.42
   12:20:17.832.20-May-2020 4766.51 5481.14 69.01 15.00 411.13 2532.42
   12:20:18.032.20-May-2020 4766.51 5480.72 69.01 15.00 411.33 2532.42
   12:20:18.232.20-May-2020 4766.51 5480.00 69.01 15.00 411.53 2532.42
   12:20:18.432.20-May-2020 4766.51 5490.91 69.01 15.00 411.73 2532.42
   12:20:18.632.20-May-2020 4766.51 5482.78 69.01 15.00 411.93 2532.42
   12:20:18.833.20-May-2020 4766.51 5480.41 69.01 15.00 412.13 2532.42
   12:20:19.033.20-May-2020 4766.51 5480.41 69.01 15.00 412.33 2532.42
   12:20:19.233.20-May-2020 4766.51 5492.52 69.01 15.00 412.53 2532.42
   12:20:19.433.20-May-2020 4766.51 5484.88 69.01 15.00 412.73 2532.42
   12:20:19.633.20-May-2020 4766.51 5481.40 69.01 15.00 412.93 2532.42
   12:20:19.833.20-May-2020 4766.51 5480.46 69.01 15.00 413.13 2532.42
   12:20:20.033.20-May-2020 4766.51 5480.46 69.01 15.00 413.33 2532.42
   12:20:20.233.20-May-2020 4766.51 5492.02 69.01 15.00 413.53 2532.42
   12:20:20.433.20-May-2020 4766.51 5482.51 69.01 15.00 413.73 2532.42
   12:20:20.633.20-May-2020 4766.51 5481.27 69.01 15.00 413.93 2532.42
   12:20:20.833.20-May-2020 4766.51 5483.40 69.01 15.00 414.13 2532.42
   12:20:21.033.20-May-2020 4766.51 5483.40 69.01 15.00 414.33 2532.42
   12:20:21.233.20-May-2020 4766.51 5483.41 69.01 15.00 414.53 2532.42
   12:20:21.433.20-May-2020 4766.51 5481.73 69.01 15.00 414.73 2532.42
   12:20:21.633.20-May-2020 4766.51 5481.49 69.01 15.00 414.93 2532.42
   12:20:21.833.20-May-2020 4766.51 5483.66 69.01 15.00 415.13 2532.42
   12:20:22.034.20-May-2020 4766.51 5482.77 69.01 15.00 415.33 2532.42
   12:20:22.234.20-May-2020 4766.51 5480.75 69.01 15.00 415.53 2532.42
   12:20:22.434.20-May-2020 4766.51 5480.88 69.01 15.00 415.73 2532.42
   12:20:22.634.20-May-2020 4766.51 5480.79 69.01 15.00 415.93 2532.42
   12:20:22.834.20-May-2020 4766.51 5480.35 69.01 15.00 416.13 2532.42
   12:20:23.034.20-May-2020 4766.51 5480.35 69.01 15.00 416.33 2532.42
   12:20:23.234.20-May-2020 4766.51 5480.67 69.01 15.00 416.53 2532.42
   12:20:23.434.20-May-2020 4766.51 5480.23 69.01 15.00 416.73 2532.42
   12:20:23.634.20-May-2020 4766.51 5479.60 69.00 15.00 416.93 2532.42
   12:20:23.834.20-May-2020 4766.51 5480.42 69.00 15.00 417.13 2532.42
   12:20:24.034.20-May-2020 4766.51 5480.42 69.00 15.00 417.33 2532.42
   12:20:24.234.20-May-2020 4766.51 5479.84 69.00 15.00 417.53 2532.42
   12:20:24.434.20-May-2020 4766.51 5479.92 69.00 15.00 417.73 2532.42
   12:20:24.634.20-May-2020 4766.51 5480.61 69.00 15.00 417.93 2532.42
   12:20:24.834.20-May-2020 4766.51 5480.48 69.00 15.00 418.13 2532.42
   12:20:25.034.20-May-2020 4766.51 5480.48 69.00 15.00 418.33 2532.42
   12:20:25.235.20-May-2020 4766.51 5491.66 69.00 15.00 418.53 2532.42
   12:20:25.435.20-May-2020 4766.51 5481.49 69.00 15.00 418.73 2532.42
   12:20:25.635.20-May-2020 4766.51 5479.92 69.00 15.00 418.93 2532.42
   12:20:25.835.20-May-2020 4766.51 5479.70 69.00 15.00 419.13 2532.42
   12:20:26.035.20-May-2020 4766.51 5491.74 69.00 15.00 419.33 2532.42
   12:20:26.235.20-May-2020 4766.51 5485.06 69.00 15.00 419.53 2532.42
   12:20:26.435.20-May-2020 4766.51 5481.12 69.00 15.00 419.73 2532.42
   12:20:26.635.20-May-2020 4766.51 5480.32 69.00 15.00 419.93 2532.42
   12:20:26.835.20-May-2020 4766.51 5488.72 69.00 15.00 420.13 2532.42
   12:20:27.035.20-May-2020 4766.51 5488.72 69.00 15.00 420.33 2532.42
   12:20:27.235.20-May-2020 4766.51 5482.11 69.00 15.00 420.53 2532.42
   12:20:27.435.20-May-2020 4766.51 5480.64 69.00 15.00 420.73 2532.42
   12:20:27.635.20-May-2020 4766.51 5480.90 69.00 15.00 420.93 2532.42
   12:20:27.835.20-May-2020 4766.51 5489.66 69.00 15.00 421.13 2532.42
   12:20:28.035.20-May-2020 4766.51 5489.66 69.00 15.00 421.33 2532.42
   12:20:28.236.20-May-2020 4766.51 5481.18 69.00 15.00 421.53 2532.42
   12:20:28.436.20-May-2020 4766.51 5481.68 69.00 15.00 421.73 2532.42
   12:20:28.636.20-May-2020 4766.51 5480.83 69.00 15.00 421.93 2532.42
   12:20:28.836.20-May-2020 4766.51 5482.81 69.00 15.00 422.13 2532.42
   12:20:29.036.20-May-2020 4766.51 5482.81 69.00 15.00 422.34 2532.42
   12:20:29.236.20-May-2020 4766.51 5479.27 69.00 15.00 422.54 2532.42
   12:20:29.436.20-May-2020 4766.51 5479.27 69.00 15.00 422.74 2532.42
   12:20:29.636.20-May-2020 4766.51 5478.89 69.00 15.00 422.94 2532.42
   12:20:29.836.20-May-2020 4766.51 5479.76 69.00 15.00 423.14 2532.42
   12:20:30.036.20-May-2020 4766.51 5479.76 69.00 15.00 423.34 2532.42
   12:20:30.236.20-May-2020 4766.51 5479.01 69.00 15.00 423.54 2532.42
   12:20:30.436.20-May-2020 4766.51 5479.06 69.00 15.00 423.74 2532.42
   12:20:30.636.20-May-2020 4766.51 5478.28 69.00 15.00 423.94 2532.42
   12:20:30.836.20-May-2020 4766.51 5479.96 69.00 15.00 424.14 2532.42
   12:20:31.036.20-May-2020 4766.51 5479.96 69.00 15.00 424.34 2532.42
   12:20:31.236.20-May-2020 4766.51 5479.10 68.99 15.00 424.54 2532.42
   12:20:31.437.20-May-2020 4766.51 5479.03 68.99 15.00 424.74 2532.42
   12:20:31.637.20-May-2020 4766.51 5479.08 68.99 15.00 424.94 2532.42
