~Version Information
 VERS.                  2.0:   CWLS log ASCII Standard -VERSION 2.0
 WRAP.                   NO:   One line per depth step
~Well Information Block
#MNEM.UNIT     VALUE/NAME     DESCRIPTION
#---------     -----------    ---------------------------
 STRT.S             16:14:41 17-May-20: START TIME 16:14:41 17-May-20
 STOP.S             16:21:36 17-May-20: STOP TIME  16:21:36 17-May-20
 STEP.S                   0.00: STEP TIME
 NULL.                 -999.25: NULL VALUE
 UNIT.                     N/A:  LOGGING EQUIPMENT ID
 DCON.         Sperry Drilling:  DIRECTNL CONTR
 DOE .                     N/A:  DOE NUMBER
 JOBN.        AZ-XX-0906252240:  JOB TICKET NUMB
 MWDS.                     N/A:  MWD SHOP
 PROV.                    Baku:  PROVINCE
 STAT.                    Baku:  STATE NAME
 REGN.                   EESSA:  REGION
 BASE.              Azerbaijan:  LOGGING EQUIPMENT BASE LOCATION
 UWI .                     N/A:  UNIQUE WELL IDENTIFIER
 API .                     N/A:  API NUMBER
 MDS .        Operator Entered:  MAG DATA SOURCE
 WTYP.                Deviated:  WELL TYPE
 COMP.     BP Exploration (Caspian Sea) Ltd.:  COMPANY
 SRVC.          Turan Drilling:  CONTRACTOR
 WELL.           J23 (Slot 07):  WELL NAME
 CTRY.              Azerbaijan:  COUNTRY NAME
 FLD .                     ACG:  FIELD NAME
 PDAT.          Mean Sea Level:  PERMANENT DATUM
 RIG .             West Chirag:  RIG NAME
 SON .        AZ-XX-0906252240:  JOB NUMBER
 FTOP.          Formation Tops:  FORM TOPS DESC
 ILTD.               Lithology:  INTERP LTH DESC
 SVYD.                  Survey:  SURVEY DESC
 DMOD.             Drill Model:  DRILL MOD DESC
 HPTY.       Minimum Curvature:  HOLE POS TYPE
 NREF.                    Grid:  NORTH REFERENCE
 SPUD.               27-Aug-20:  SPUD DATE
 DATE.      00.00.00 19-May-20:  END TIME
 STIM.      03.00.00 25-Mar-20:  START TIME
 DMF .             Drill Floor:  DRILL MEAS FROM
 DFST.                        :  DIST FSL TEXT
 DFWT.                        :  DIST FWL TEXT
 CNTY.                        :  COUNTY
 LOC .                        :  LOCATION
 LMF .             Drill Floor:  LOG MEASURED FROM
 VSNS.m                   9.43:  VERT SEC N/S
 VSEW.m                  -8.91:  VERT SEC E/W
 AGAP.m                  43.00:  AIR GAP
 DEP .m                 354.17:  DEPTH
 APD .m                  43.00:  DEPTH ABOVE PD
 WDMS.m                 169.80:  WD ELEV
 EGL .m                   0.00:  GROUND ELEVATION
 EPD .m                   0.00:  ELEVATION
 AZTC.deg                 6.31:  AZM TOTAL CORR
 GRDC.deg                 0.14:  GRID CORRECTION
 MDEC.deg                 6.45:  MAGNETIC DECL
 MDIP.deg                59.56:  MAGNETIC DIP
 MFLD.nT              50295.00:  MAGNETIC FIELD
 GVFD.g                   1.00:  GRAVITY FIELD
 VSDR.deg               179.88:  VERT SEC DIRECT
 TDD .m                5150.01:  TOTAL DEPTH (DRILLER)
 SDEP.m                 864.00:  START DEPTH
 DFSL.m                   0.00:  DISTANCE FSL
 DFWL.m                   0.00:  DISTANCE FWL
 UTMY.m             4443793.85:  UTM Y
 UTMX.m              519005.06:  UTM X
 WHEW.m                  -8.91:  WELL HEAD E/W
 WHNS.m                   9.43:  WELL HEAD N/S
 LONG.deg                51.22:  LONGITUDE
 LATI.deg                40.13:  LATITUDE
 TVDS.m                  43.00:  TVDSS CORRECTN
 EKB .m                   0.00:  KB ELEVATION
 EDF .m                  43.00:  DF ELEVATION
 TDL .m                 363.00:  TOTAL DEPTH (LOGGER)
 MAGU.                 1850802:  MAGUTM CHECKSUM
 VSC .                       0:  VS TO CLOSURE
~Parameter Information Block
#MNEM.UNIT       Value        Description
#---------     -----------    ---------------------------
 AV  .mps                 2.30:  Ann Velocity 
 AVMX.mps                 4.40:  Max Ann Veloc 
 AZIF.deg               110.24:  Azm, Final 
 BHAT.        Rotary Steerable:  BHA Type 
 BREV.rev               331.00:  Rev Bit Total 
 BROT.°/30m               0.00:  Build Rotating 
 BS  .in                  8.50:  Bit Size 
 BSZ .in                  8.50:  Bit Size 
 BTPL.psig              585.00:  Bit Press Loss 
 CABU.                     Yes:  Customer Abuse 
 COMM.                     ¿m:  Run Comments 1 
 TCS .hr                122.75:  Time Ciculation Ended 
 CV  .mps                 2.67:  Crit Velocity 
 CVMX.mps                 3.56:  Max Crit Veloc 
 DD1 .          Rashad Habibov:  Direct Drillr 1 
 DD2 .         Rasim Ibrahimov:  Direct Drillr 2 
 DDSV.               Geo-Pilot:  DD Service 
 DEFF.%                  98.00:  % Det Eff 
 DLRX.°/30m               0.75:  Dogleg Rot Max 
 DLSO.°/30m               1.25:  Dogleg Oriented 
 DLSX.°/30m               2.06:  Dogleg Str Max 
 DRET.      07.45.00 17-May-20:  Drill End Time 
 DRST.      22.50.00 15-May-20:  Drill Start Tim 
 DTIM.hr                 20.75:  Time Drilling 
 EDEP.m                5124.01:  End Depth 
 ENG1.           Eldar Hajiyev:  Engineer 1 
 ENG2.        Marcelo Sandoval:  Engineer 2 
 ENG3.        Davud huseynzada:  Engineer 3 
 ENG4.          Ruslan Safarov:  Engineer 4 
 ETIM.      04.33.00 23-May-20:  End Time 
 FLOI.gpm               450.00:  Flow In 
 FLON.gpm               400.00:  Flow In Min 
 FLOS.cptm                0.00:  Fluid Loss 
 FLOX.gpm               500.00:  Flow In Max 
 FTRO.       Formation Presure:  FTWD Run Obj 
 HFLO.                      No:  High Flow 
 HPRE.                     Yes:  High Pressure 
 HTEM.                      No:  High Temp 
 HYDO.m                   1.80:  Hydro Offset 
 IFIN.deg                75.06:  Inc, Final 
 IMAX.deg                75.38:  Inc Max 
 IMIN.deg                74.69:  Inc Min 
 IMND.m                5027.38:  Inc Min Depth 
 IMXD.m                4771.61:  Inc Max Depth 
 JARR.                      No:  Jarring 
 LETM.      07.45.00 17-May-20:  Log End Time 
 LOST.hr                     0:  Lost Rig Time 
 LSTM.      22.50.00 15-May-20:  Log Start Time 
 MDCL.ppm             42000.00:  Mud Chlorides 
 MDES.     Inversion Oil/Synthetic:  Mud Desc 
 DFD .sg                  1.34:  Mud Density 
 MDMN.sg                  1.34:  Dens Mud Min 
 MDMX.sg                  1.34:  Dens Mud Max 
 MOIL.                       0:  Run Mud Oil % 
 MOWR.                   67:33:  Run Mud OWR 
 MSND.                       0:  Run Mud Sand % 
 MSOL.                     1.8:  Run Mud Solids% 
 DFV .spqt               76.00:  Mud Viscosity 
 MWOD.in                  6.75:  MWD Tool OD 
 MWSI.                      No:  Serv Intrp, MWD 
 OTIM.hr                228.19:  Time Operating 
 PCON.           Look Like New:  Pad Condition 
 PMAX.psia             6164.70:  Press Op, Max 
 PV  .cP                 28.00:  Mud PV 
 RUN .                     900:  Run Number 
 ROPA.m/hr               19.00:  ROP Avg 
 ROPN.m/hr               11.00:  ROP Min 
 ROPX.m/hr               36.00:  ROP Max 
 RPMA.rpm               120.00:  RPM Surface Avg 
 RPMN.rpm               120.00:  RPM Surface Min 
 RPMX.rpm               120.00:  RPM Surface Max 
 RRUN.                    L604:  Rig Run Number 
 RTIM.hr                  7.00:  Time Reaming 
 SAZI.deg               109.27:  Azm, Start 
 SDEP.m                4761.01:  Start Depth 
 SIDD.                      No:  Serv Intrp, DD 
 SINC.deg                75.38:  Inc, Start 
 SPPA.psig             3574.00:  SPP Avg 
 SPPN.psig             3475.00:  SPP Min 
 SPPX.psig             3791.00:  SPP Max 
 STIM.      07.08.48 13-May-20:  Start Time 
 SVCS.                 DD, MWD:  Services 
 SVER.                    9.20:  Sperry Version 
 TDAT.m                 363.00:  Tot Depth Attmp 
 TDDF.                      No:  Trip for DD 
 TDLG.m                 363.00:  Tot Depth Loggd 
 TFF .                      No:  Trip for Fail 
 TQAA.f-kp               20.00:  Torque Abs Avg 
 TQAN.f-kp               18.00:  Torque Abs Min 
 TQAX.f-kp               22.00:  Torque Abs Max 
 TRRT.°/30m              -0.35:  Turn Rotating 
 MRT .                    HCIM:  Maximum Recorded Temperature 
 TTMX.degC               92.16:  Max Tool Temp 
 VS01.                90586518:  Virtual Str1 SN 
 VS02.        AZ90560654Z1W1C6:  Virtual Str2 SN 
 VS03.           AZ90610398F11:  Virtual Str3 SN 
 VS04.                90514975:  Virtual Str4 SN 
 VS05.                90514972:  Virtual Str5 SN 
 VS06.     AZ90603282F11V7D1A6:  Virtual Str6 SN 
 WBMN.klb                 7.00:  WOB Min 
 WOBA.klb                12.00:  WOB Avg 
 WOBX.klb                14.00:  WOB Max 
 YP  .lhf2               32.00:  Yield Point 
~Curve Information Block
#MNEM.UNIT                 API CODE     Curve Description
#---------               -----------    ---------------------------
 TIME.HHMMSS            00 000 000 000:  GT Time & Date
 GTDEPTH.m              00 000 000 000:  GT Depth
 GTPQH.psia             00 000 000 000:  GT HR Quartz Pressure
 GTTQ.degC              00 000 000 000:  GT Quartz Temperature
 GTTN.NONE              00 000 000 000:  GT Test Number
 GTET.sec               00 000 000 000:  GT Elapsed Test Time
 GTTVD.m                00 000 000 000:  GT True Vertical Depth
#Other Information
#
#WARRANTY: Halliburton will use its best efforts to furnish customers with 
#accurate information and interpretations that are part of, and incident to, the services 
#provided.  However, Halliburton cannot and does not warrant the accuracy 
#or correctness of such information and interpretations.  Under no circumstances should any 
#such information or interpretation be relied upon as the sole basis for any drilling, 
#completion, production, or financial decision or any procedure involving any risk to the 
#safety of any drilling venture, drilling rig or its crew or any other third party.  The 
#Customer has full responsibility for all drilling, completion and production operation.  
#Halliburton makes no representations or warranties, either expressed or 
#implied, including, but not limited to, the implied warranties of merchantability or fitness 
#for a particular purpose, with respect to the services rendered.  In no event will 
#Halliburton be liable for failure to obtain any particular results or for 
#any damages, including, but not limited to, indirect, special or consequential damages, 
#resulting from the use of any information or interpretation provided by Halliburton.
#
~A           TIME           GTDEPTH  GTPQH  GTTQ  GTTN  GTET   GTTVD  
   16:14:41.000.17-May-2020 5073.51 5584.84 71.54 2.00   0.00 2611.87
   16:14:41.200.17-May-2020 5073.51 5584.84 71.54 2.00   0.20 2611.87
   16:14:41.400.17-May-2020 5073.51 5584.19 71.54 2.00   0.40 2611.87
   16:14:41.600.17-May-2020 5073.51 5584.20 71.54 2.00   0.60 2611.87
   16:14:41.800.17-May-2020 5073.51 5591.68 71.54 2.00   0.80 2611.87
   16:14:42.000.17-May-2020 5073.51 5597.41 71.54 2.00   1.00 2611.87
   16:14:42.200.17-May-2020 5073.51 5597.41 71.54 2.00   1.20 2611.87
   16:14:42.400.17-May-2020 5073.51 5581.97 71.54 2.00   1.40 2611.87
   16:14:42.600.17-May-2020 5073.51 5584.08 71.54 2.00   1.60 2611.87
   16:14:42.800.17-May-2020 5073.51 5604.04 71.54 2.00   1.80 2611.87
   16:14:43.000.17-May-2020 5073.51 5592.33 71.54 2.00   2.00 2611.87
   16:14:43.200.17-May-2020 5073.51 5592.33 71.54 2.00   2.20 2611.87
   16:14:43.400.17-May-2020 5073.51 5580.40 71.54 2.00   2.40 2611.87
   16:14:43.600.17-May-2020 5073.51 5588.47 71.54 2.00   2.60 2611.87
   16:14:43.800.17-May-2020 5073.51 5603.89 71.54 2.00   2.80 2611.87
   16:14:44.000.17-May-2020 5073.51 5593.92 71.54 2.00   3.00 2611.87
   16:14:44.200.17-May-2020 5073.51 5593.92 71.54 2.00   3.20 2611.87
   16:14:44.400.17-May-2020 5073.51 5595.94 71.54 2.00   3.40 2611.87
   16:14:44.600.17-May-2020 5073.51 5602.13 71.54 2.00   3.60 2611.87
   16:14:44.800.17-May-2020 5073.51 5591.54 71.54 2.00   3.80 2611.87
   16:14:45.000.17-May-2020 5073.51 5586.57 71.54 2.00   4.00 2611.87
   16:14:45.200.17-May-2020 5073.51 5586.57 71.54 2.00   4.20 2611.87
   16:14:45.400.17-May-2020 5073.51 5601.65 71.54 2.00   4.40 2611.87
   16:14:45.600.17-May-2020 5073.51 5593.37 71.54 2.00   4.60 2611.87
   16:14:45.800.17-May-2020 5073.51 5603.89 71.54 2.00   4.80 2611.87
   16:14:46.000.17-May-2020 5073.51 5604.45 71.54 2.00   5.00 2611.87
   16:14:46.200.17-May-2020 5073.51 5604.45 71.54 2.00   5.20 2611.87
   16:14:46.400.17-May-2020 5073.51 5604.45 71.54 2.00   5.40 2611.87
   16:14:46.600.17-May-2020 5073.51 5605.62 71.54 2.00   5.60 2611.87
   16:14:46.800.17-May-2020 5073.51 5599.42 71.54 2.00   5.80 2611.87
   16:14:47.000.17-May-2020 5073.51 5599.42 71.54 2.00   6.00 2611.87
   16:14:47.200.17-May-2020 5073.51 5594.86 71.54 2.00   6.20 2611.87
   16:14:47.400.17-May-2020 5073.51 5600.57 71.54 2.00   6.40 2611.87
   16:14:47.600.17-May-2020 5073.51 5597.37 71.54 2.00   6.60 2611.87
   16:14:47.800.17-May-2020 5073.51 5596.15 71.54 2.00   6.80 2611.87
   16:14:48.000.17-May-2020 5073.51 5596.13 71.54 2.00   7.00 2611.87
   16:14:48.200.17-May-2020 5073.51 5597.35 71.54 2.00   7.20 2611.87
   16:14:48.400.17-May-2020 5073.51 5596.97 71.54 2.00   7.40 2611.87
   16:14:48.600.17-May-2020 5073.51 5596.74 71.54 2.00   7.60 2611.87
   16:14:48.800.17-May-2020 5073.51 5609.42 71.53 2.00   7.80 2611.87
   16:14:49.000.17-May-2020 5073.51 5603.21 71.53 2.00   8.00 2611.87
   16:14:49.200.17-May-2020 5073.51 5603.21 71.53 2.00   8.20 2611.87
   16:14:49.400.17-May-2020 5073.51 5594.41 71.53 2.00   8.40 2611.87
   16:14:49.600.17-May-2020 5073.51 5603.42 71.53 2.00   8.60 2611.87
   16:14:49.800.17-May-2020 5073.51 5600.28 71.53 2.00   8.80 2611.87
   16:14:50.000.17-May-2020 5073.51 5599.95 71.53 2.00   9.00 2611.87
   16:14:50.200.17-May-2020 5073.51 5599.95 71.53 2.00   9.20 2611.87
   16:14:50.400.17-May-2020 5073.51 5600.18 71.53 2.00   9.40 2611.87
   16:14:50.600.17-May-2020 5073.51 5602.17 71.53 2.00   9.60 2611.87
   16:14:50.800.17-May-2020 5073.51 5601.76 71.53 2.00   9.80 2611.87
   16:14:51.000.17-May-2020 5073.51 5615.14 71.53 2.00  10.00 2611.87
   16:14:51.200.17-May-2020 5073.51 5615.14 71.53 2.00  10.20 2611.87
   16:14:51.400.17-May-2020 5073.51 5602.17 71.53 2.00  10.40 2611.87
   16:14:51.600.17-May-2020 5073.51 5600.11 71.53 2.00  10.60 2611.87
   16:14:51.800.17-May-2020 5073.51 5616.98 71.53 2.00  10.80 2611.87
   16:14:52.000.17-May-2020 5073.51 5612.80 71.53 2.00  11.00 2611.87
   16:14:52.200.17-May-2020 5073.51 5603.39 71.53 2.00  11.20 2611.87
   16:14:52.400.17-May-2020 5073.51 5600.88 71.53 2.00  11.40 2611.87
   16:14:52.600.17-May-2020 5073.51 5604.32 71.53 2.00  11.60 2611.87
   16:14:52.800.17-May-2020 5073.51 5619.77 71.53 2.00  11.80 2611.87
   16:14:53.000.17-May-2020 5073.51 5609.26 71.53 2.00  12.00 2611.87
   16:14:53.200.17-May-2020 5073.51 5609.26 71.53 2.00  12.20 2611.87
   16:14:53.400.17-May-2020 5073.51 5598.87 71.53 2.00  12.40 2611.87
   16:14:53.600.17-May-2020 5073.51 5620.72 71.53 2.00  12.60 2611.87
   16:14:53.800.17-May-2020 5073.51 5612.95 71.53 2.00  12.80 2611.87
   16:14:54.000.17-May-2020 5073.51 5603.49 71.53 2.00  13.00 2611.87
   16:14:54.200.17-May-2020 5073.51 5603.49 71.53 2.00  13.20 2611.87
   16:14:54.400.17-May-2020 5073.51 5613.42 71.53 2.00  13.40 2611.87
   16:14:54.600.17-May-2020 5073.51 5606.84 71.53 2.00  13.60 2611.87
   16:14:54.800.17-May-2020 5073.51 5600.43 71.53 2.00  13.80 2611.87
   16:14:55.000.17-May-2020 5073.51 5619.08 71.53 2.00  14.00 2611.87
   16:14:55.200.17-May-2020 5073.51 5619.08 71.53 2.00  14.20 2611.87
   16:14:55.400.17-May-2020 5073.51 5604.04 71.53 2.00  14.40 2611.87
   16:14:55.600.17-May-2020 5073.51 5598.61 71.53 2.00  14.60 2611.87
   16:14:55.800.17-May-2020 5073.51 5607.94 71.53 2.00  14.80 2611.87
   16:14:56.000.17-May-2020 5073.51 5605.94 71.53 2.00  15.00 2611.87
   16:14:56.200.17-May-2020 5073.51 5604.18 71.53 2.00  15.20 2611.87
   16:14:56.400.17-May-2020 5073.51 5602.92 71.53 2.00  15.40 2611.87
   16:14:56.600.17-May-2020 5073.51 5602.24 71.53 2.00  15.60 2611.87
   16:14:56.800.17-May-2020 5073.51 5603.33 71.53 2.00  15.80 2611.87
   16:14:57.000.17-May-2020 5073.51 5616.20 71.53 2.00  16.00 2611.87
   16:14:57.200.17-May-2020 5073.51 5616.20 71.53 2.00  16.20 2611.87
   16:14:57.400.17-May-2020 5073.51 5602.65 71.53 2.00  16.40 2611.87
   16:14:57.600.17-May-2020 5073.51 5599.79 71.53 2.00  16.60 2611.87
   16:14:57.800.17-May-2020 5073.51 5608.03 71.53 2.00  16.80 2611.87
   16:14:58.000.17-May-2020 5073.51 5606.31 71.53 2.00  17.00 2611.87
   16:14:58.200.17-May-2020 5073.51 5606.31 71.53 2.00  17.20 2611.87
   16:14:58.400.17-May-2020 5073.51 5604.35 71.53 2.00  17.40 2611.87
   16:14:58.600.17-May-2020 5073.51 5604.73 71.53 2.00  17.60 2611.87
   16:14:58.800.17-May-2020 5073.51 5606.13 71.53 2.00  17.80 2611.87
   16:14:59.000.17-May-2020 5073.51 5605.51 71.53 2.00  18.00 2611.87
   16:14:59.200.17-May-2020 5073.51 5605.51 71.53 2.00  18.20 2611.87
   16:14:59.400.17-May-2020 5073.51 5610.07 71.53 2.00  18.40 2611.87
   16:14:59.600.17-May-2020 5073.51 5605.37 71.52 2.00  18.60 2611.87
   16:14:59.800.17-May-2020 5073.51 5603.75 71.52 2.00  18.80 2611.87
   16:15:00.000.17-May-2020 5073.51 5607.58 71.52 2.00  19.00 2611.87
   16:15:00.200.17-May-2020 5073.51 5622.58 71.52 2.00  19.20 2611.87
   16:15:00.400.17-May-2020 5073.51 5613.40 71.52 2.00  19.40 2611.87
   16:15:00.600.17-May-2020 5073.51 5607.33 71.52 2.00  19.60 2611.87
   16:15:00.800.17-May-2020 5073.51 5602.44 71.52 2.00  19.80 2611.87
   16:15:01.000.17-May-2020 5073.51 5624.46 71.52 2.00  20.00 2611.87
   16:15:01.200.17-May-2020 5073.51 5624.46 71.52 2.00  20.20 2611.87
   16:15:01.400.17-May-2020 5073.51 5608.87 71.52 2.00  20.40 2611.87
   16:15:01.600.17-May-2020 5073.51 5617.54 71.52 2.00  20.60 2611.87
   16:15:01.800.17-May-2020 5073.51 5612.90 71.52 2.00  20.80 2611.87
   16:15:02.000.17-May-2020 5073.51 5609.97 71.52 2.00  21.00 2611.87
   16:15:02.200.17-May-2020 5073.51 5609.97 71.52 2.00  21.20 2611.87
   16:15:02.400.17-May-2020 5073.51 5608.68 71.52 2.00  21.40 2611.87
   16:15:02.600.17-May-2020 5073.51 5608.80 71.52 2.00  21.60 2611.87
   16:15:02.800.17-May-2020 5073.51 5607.36 71.52 2.00  21.80 2611.87
   16:15:03.000.17-May-2020 5073.51 5607.19 71.52 2.00  22.00 2611.87
   16:15:03.200.17-May-2020 5073.51 5607.19 71.52 2.00  22.20 2611.87
   16:15:03.400.17-May-2020 5073.51 5605.56 71.52 2.00  22.40 2611.87
   16:15:03.600.17-May-2020 5073.51 5615.29 71.52 2.00  22.60 2611.87
   16:15:03.800.17-May-2020 5073.51 5618.13 71.52 2.00  22.80 2611.87
