~Version Information
 VERS.                  2.0:   CWLS log ASCII Standard -VERSION 2.0
 WRAP.                   NO:   One line per depth step
~Well Information Block
#MNEM.UNIT     VALUE/NAME     DESCRIPTION
#---------     -----------    ---------------------------
 STRT.S             21:11:08 17-May-20: START TIME 21:11:08 17-May-20
 STOP.S             21:18:11 17-May-20: STOP TIME  21:18:11 17-May-20
 STEP.S                   0.00: STEP TIME
 NULL.                 -999.25: NULL VALUE
 UNIT.                     N/A:  LOGGING EQUIPMENT ID
 DCON.         Sperry Drilling:  DIRECTNL CONTR
 DOE .                     N/A:  DOE NUMBER
 JOBN.        AZ-XX-0906252240:  JOB TICKET NUMB
 MWDS.                     N/A:  MWD SHOP
 PROV.                    Baku:  PROVINCE
 STAT.                    Baku:  STATE NAME
 REGN.                   EESSA:  REGION
 BASE.              Azerbaijan:  LOGGING EQUIPMENT BASE LOCATION
 UWI .                     N/A:  UNIQUE WELL IDENTIFIER
 API .                     N/A:  API NUMBER
 MDS .        Operator Entered:  MAG DATA SOURCE
 WTYP.                Deviated:  WELL TYPE
 COMP.     BP Exploration (Caspian Sea) Ltd.:  COMPANY
 SRVC.          Turan Drilling:  CONTRACTOR
 WELL.           J23 (Slot 07):  WELL NAME
 CTRY.              Azerbaijan:  COUNTRY NAME
 FLD .                     ACG:  FIELD NAME
 PDAT.          Mean Sea Level:  PERMANENT DATUM
 RIG .             West Chirag:  RIG NAME
 SON .        AZ-XX-0906252240:  JOB NUMBER
 FTOP.          Formation Tops:  FORM TOPS DESC
 ILTD.               Lithology:  INTERP LTH DESC
 SVYD.                  Survey:  SURVEY DESC
 DMOD.             Drill Model:  DRILL MOD DESC
 HPTY.       Minimum Curvature:  HOLE POS TYPE
 NREF.                    Grid:  NORTH REFERENCE
 SPUD.               27-Aug-20:  SPUD DATE
 DATE.      00.00.00 19-May-20:  END TIME
 STIM.      03.00.00 25-Mar-20:  START TIME
 DMF .             Drill Floor:  DRILL MEAS FROM
 DFST.                        :  DIST FSL TEXT
 DFWT.                        :  DIST FWL TEXT
 CNTY.                        :  COUNTY
 LOC .                        :  LOCATION
 LMF .             Drill Floor:  LOG MEASURED FROM
 VSNS.m                   9.43:  VERT SEC N/S
 VSEW.m                  -8.91:  VERT SEC E/W
 AGAP.m                  43.00:  AIR GAP
 DEP .m                 354.17:  DEPTH
 APD .m                  43.00:  DEPTH ABOVE PD
 WDMS.m                 169.80:  WD ELEV
 EGL .m                   0.00:  GROUND ELEVATION
 EPD .m                   0.00:  ELEVATION
 AZTC.deg                 6.31:  AZM TOTAL CORR
 GRDC.deg                 0.14:  GRID CORRECTION
 MDEC.deg                 6.45:  MAGNETIC DECL
 MDIP.deg                59.56:  MAGNETIC DIP
 MFLD.nT              50295.00:  MAGNETIC FIELD
 GVFD.g                   1.00:  GRAVITY FIELD
 VSDR.deg               179.88:  VERT SEC DIRECT
 TDD .m                5150.01:  TOTAL DEPTH (DRILLER)
 SDEP.m                 864.00:  START DEPTH
 DFSL.m                   0.00:  DISTANCE FSL
 DFWL.m                   0.00:  DISTANCE FWL
 UTMY.m             4443793.85:  UTM Y
 UTMX.m              519005.06:  UTM X
 WHEW.m                  -8.91:  WELL HEAD E/W
 WHNS.m                   9.43:  WELL HEAD N/S
 LONG.deg                51.22:  LONGITUDE
 LATI.deg                40.13:  LATITUDE
 TVDS.m                  43.00:  TVDSS CORRECTN
 EKB .m                   0.00:  KB ELEVATION
 EDF .m                  43.00:  DF ELEVATION
 TDL .m                 363.00:  TOTAL DEPTH (LOGGER)
 MAGU.                 1850802:  MAGUTM CHECKSUM
 VSC .                       0:  VS TO CLOSURE
~Parameter Information Block
#MNEM.UNIT       Value        Description
#---------     -----------    ---------------------------
 AV  .mps                 2.30:  Ann Velocity 
 AVMX.mps                 4.40:  Max Ann Veloc 
 AZIF.deg               110.24:  Azm, Final 
 BHAT.        Rotary Steerable:  BHA Type 
 BREV.rev               331.00:  Rev Bit Total 
 BROT.°/30m               0.00:  Build Rotating 
 BS  .in                  8.50:  Bit Size 
 BSZ .in                  8.50:  Bit Size 
 BTPL.psig              585.00:  Bit Press Loss 
 CABU.                     Yes:  Customer Abuse 
 COMM.                     Ô‹p:  Run Comments 1 
 TCS .hr                122.75:  Time Ciculation Ended 
 CV  .mps                 2.67:  Crit Velocity 
 CVMX.mps                 3.56:  Max Crit Veloc 
 DD1 .          Rashad Habibov:  Direct Drillr 1 
 DD2 .         Rasim Ibrahimov:  Direct Drillr 2 
 DDSV.               Geo-Pilot:  DD Service 
 DEFF.%                  98.00:  % Det Eff 
 DLRX.°/30m               0.75:  Dogleg Rot Max 
 DLSO.°/30m               1.25:  Dogleg Oriented 
 DLSX.°/30m               2.06:  Dogleg Str Max 
 DRET.      07.45.00 17-May-20:  Drill End Time 
 DRST.      22.50.00 15-May-20:  Drill Start Tim 
 DTIM.hr                 20.75:  Time Drilling 
 EDEP.m                5124.01:  End Depth 
 ENG1.           Eldar Hajiyev:  Engineer 1 
 ENG2.        Marcelo Sandoval:  Engineer 2 
 ENG3.        Davud huseynzada:  Engineer 3 
 ENG4.          Ruslan Safarov:  Engineer 4 
 ETIM.      04.33.00 23-May-20:  End Time 
 FLOI.gpm               450.00:  Flow In 
 FLON.gpm               400.00:  Flow In Min 
 FLOS.cptm                0.00:  Fluid Loss 
 FLOX.gpm               500.00:  Flow In Max 
 FTRO.       Formation Presure:  FTWD Run Obj 
 HFLO.                      No:  High Flow 
 HPRE.                     Yes:  High Pressure 
 HTEM.                      No:  High Temp 
 HYDO.m                   1.80:  Hydro Offset 
 IFIN.deg                75.06:  Inc, Final 
 IMAX.deg                75.38:  Inc Max 
 IMIN.deg                74.69:  Inc Min 
 IMND.m                5027.38:  Inc Min Depth 
 IMXD.m                4771.61:  Inc Max Depth 
 JARR.                      No:  Jarring 
 LETM.      07.45.00 17-May-20:  Log End Time 
 LOST.hr                     0:  Lost Rig Time 
 LSTM.      22.50.00 15-May-20:  Log Start Time 
 MDCL.ppm             42000.00:  Mud Chlorides 
 MDES.     Inversion Oil/Synthetic:  Mud Desc 
 DFD .sg                  1.34:  Mud Density 
 MDMN.sg                  1.34:  Dens Mud Min 
 MDMX.sg                  1.34:  Dens Mud Max 
 MOIL.                       0:  Run Mud Oil % 
 MOWR.                   67:33:  Run Mud OWR 
 MSND.                       0:  Run Mud Sand % 
 MSOL.                     1.8:  Run Mud Solids% 
 DFV .spqt               76.00:  Mud Viscosity 
 MWOD.in                  6.75:  MWD Tool OD 
 MWSI.                      No:  Serv Intrp, MWD 
 OTIM.hr                228.19:  Time Operating 
 PCON.           Look Like New:  Pad Condition 
 PMAX.psia             6164.70:  Press Op, Max 
 PV  .cP                 28.00:  Mud PV 
 RUN .                     900:  Run Number 
 ROPA.m/hr               19.00:  ROP Avg 
 ROPN.m/hr               11.00:  ROP Min 
 ROPX.m/hr               36.00:  ROP Max 
 RPMA.rpm               120.00:  RPM Surface Avg 
 RPMN.rpm               120.00:  RPM Surface Min 
 RPMX.rpm               120.00:  RPM Surface Max 
 RRUN.                    L604:  Rig Run Number 
 RTIM.hr                  7.00:  Time Reaming 
 SAZI.deg               109.27:  Azm, Start 
 SDEP.m                4761.01:  Start Depth 
 SIDD.                      No:  Serv Intrp, DD 
 SINC.deg                75.38:  Inc, Start 
 SPPA.psig             3574.00:  SPP Avg 
 SPPN.psig             3475.00:  SPP Min 
 SPPX.psig             3791.00:  SPP Max 
 STIM.      07.08.48 13-May-20:  Start Time 
 SVCS.                 DD, MWD:  Services 
 SVER.                    9.20:  Sperry Version 
 TDAT.m                 363.00:  Tot Depth Attmp 
 TDDF.                      No:  Trip for DD 
 TDLG.m                 363.00:  Tot Depth Loggd 
 TFF .                      No:  Trip for Fail 
 TQAA.f-kp               20.00:  Torque Abs Avg 
 TQAN.f-kp               18.00:  Torque Abs Min 
 TQAX.f-kp               22.00:  Torque Abs Max 
 TRRT.°/30m              -0.35:  Turn Rotating 
 MRT .                    HCIM:  Maximum Recorded Temperature 
 TTMX.degC               92.16:  Max Tool Temp 
 VS01.                90586518:  Virtual Str1 SN 
 VS02.        AZ90560654Z1W1C6:  Virtual Str2 SN 
 VS03.           AZ90610398F11:  Virtual Str3 SN 
 VS04.                90514975:  Virtual Str4 SN 
 VS05.                90514972:  Virtual Str5 SN 
 VS06.     AZ90603282F11V7D1A6:  Virtual Str6 SN 
 WBMN.klb                 7.00:  WOB Min 
 WOBA.klb                12.00:  WOB Avg 
 WOBX.klb                14.00:  WOB Max 
 YP  .lhf2               32.00:  Yield Point 
~Curve Information Block
#MNEM.UNIT                 API CODE     Curve Description
#---------               -----------    ---------------------------
 TIME.HHMMSS            00 000 000 000:  GT Time & Date
 GTDEPTH.m              00 000 000 000:  GT Depth
 GTPQH.psia             00 000 000 000:  GT HR Quartz Pressure
 GTTQ.degC              00 000 000 000:  GT Quartz Temperature
 GTTN.NONE              00 000 000 000:  GT Test Number
 GTET.sec               00 000 000 000:  GT Elapsed Test Time
 GTTVD.m                00 000 000 000:  GT True Vertical Depth
#Other Information
#
#WARRANTY: Halliburton will use its best efforts to furnish customers with 
#accurate information and interpretations that are part of, and incident to, the services 
#provided.  However, Halliburton cannot and does not warrant the accuracy 
#or correctness of such information and interpretations.  Under no circumstances should any 
#such information or interpretation be relied upon as the sole basis for any drilling, 
#completion, production, or financial decision or any procedure involving any risk to the 
#safety of any drilling venture, drilling rig or its crew or any other third party.  The 
#Customer has full responsibility for all drilling, completion and production operation.  
#Halliburton makes no representations or warranties, either expressed or 
#implied, including, but not limited to, the implied warranties of merchantability or fitness 
#for a particular purpose, with respect to the services rendered.  In no event will 
#Halliburton be liable for failure to obtain any particular results or for 
#any damages, including, but not limited to, indirect, special or consequential damages, 
#resulting from the use of any information or interpretation provided by Halliburton.
#
~A           TIME           GTDEPTH  GTPQH  GTTQ  GTTN  GTET   GTTVD  
# ...
   21:11:54.170.17-May-2020 4958.01 5540.58 68.17 6.00  46.00 2581.85
   21:11:54.370.17-May-2020 4958.01 5540.58 68.17 6.00  46.20 2581.85
   21:11:54.570.17-May-2020 4958.01 5537.17 68.17 6.00  46.40 2581.85
   21:11:54.770.17-May-2020 4958.01 5421.66 68.17 6.00  46.60 2581.85
   21:11:54.970.17-May-2020 4958.01 4881.87 68.17 6.00  46.80 2581.85
   21:11:55.170.17-May-2020 4958.01 4246.08 68.16 6.00  47.00 2581.85
   21:11:55.370.17-May-2020 4958.01 4246.08 68.16 6.00  47.20 2581.85
   21:11:55.570.17-May-2020 4958.01 4665.28 68.16 6.00  47.40 2581.85
   21:11:55.770.17-May-2020 4958.01 4282.35 68.16 6.00  47.60 2581.85
   21:11:55.970.17-May-2020 4958.01 3845.65 68.16 6.00  47.80 2581.85
   21:11:56.170.17-May-2020 4958.01 3558.57 68.16 6.00  48.00 2581.85
   21:11:56.370.17-May-2020 4958.01 3558.57 68.16 6.00  48.20 2581.85
   21:11:56.570.17-May-2020 4958.01 3795.20 68.16 6.00  48.40 2581.85
   21:11:56.770.17-May-2020 4958.01 3361.65 68.16 6.00  48.60 2581.85
   21:11:56.970.17-May-2020 4958.01 3100.10 68.16 6.00  48.80 2581.85
   21:11:57.170.17-May-2020 4958.01 2740.32 68.16 6.00  49.00 2581.85
   21:11:57.370.17-May-2020 4958.01 2740.32 68.16 6.00  49.20 2581.85
   21:11:57.570.17-May-2020 4958.01 2909.32 68.16 6.00  49.40 2581.85
   21:11:57.770.17-May-2020 4958.01 2908.99 68.15 6.00  49.60 2581.85
   21:11:57.970.17-May-2020 4958.01 2912.04 68.15 6.00  49.80 2581.85
   21:11:58.170.17-May-2020 4958.01 2913.92 68.15 6.00  50.00 2581.85
   21:11:58.370.17-May-2020 4958.01 2913.92 68.15 6.00  50.20 2581.85
   21:11:58.570.17-May-2020 4958.01 2916.13 68.15 6.00  50.40 2581.85
   21:11:58.770.17-May-2020 4958.01 2914.59 68.14 6.00  50.60 2581.85
   21:11:58.970.17-May-2020 4958.01 2914.22 68.14 6.00  50.80 2581.85
   21:11:59.170.17-May-2020 4958.01 2920.43 68.14 6.00  51.00 2581.85
   21:11:59.370.17-May-2020 4958.01 2920.43 68.14 6.00  51.20 2581.85
   21:11:59.570.17-May-2020 4958.01 2915.73 68.14 6.00  51.40 2581.85
   21:11:59.770.17-May-2020 4958.01 2914.30 68.13 6.00  51.60 2581.85
   21:11:59.970.17-May-2020 4958.01 2911.28 68.13 6.00  51.80 2581.85
   21:12:00.170.17-May-2020 4958.01 2911.73 68.13 6.00  52.00 2581.85
   21:12:00.370.17-May-2020 4958.01 2911.73 68.13 6.00  52.20 2581.85
   21:12:00.570.17-May-2020 4958.01 2912.24 68.13 6.00  52.40 2581.85
   21:12:00.770.17-May-2020 4958.01 2912.42 68.12 6.00  52.60 2581.85
   21:12:00.970.17-May-2020 4958.01 2912.48 68.12 6.00  52.80 2581.85
   21:12:01.170.17-May-2020 4958.01 2912.47 68.12 6.00  53.00 2581.85
   21:12:01.370.17-May-2020 4958.01 2912.47 68.12 6.00  53.20 2581.85
   21:12:01.570.17-May-2020 4958.01 2912.36 68.12 6.00  53.40 2581.85
   21:12:01.770.17-May-2020 4958.01 2912.69 68.11 6.00  53.60 2581.85
   21:12:01.970.17-May-2020 4958.01 2912.52 68.11 6.00  53.80 2581.85
   21:12:02.170.17-May-2020 4958.01 2912.58 68.11 6.00  54.00 2581.85
   21:12:02.370.17-May-2020 4958.01 2912.58 68.11 6.00  54.20 2581.85
   21:12:02.570.17-May-2020 4958.01 2912.92 68.11 6.00  54.40 2581.85
   21:12:02.770.17-May-2020 4958.01 2912.72 68.11 6.00  54.60 2581.85
   21:12:02.970.17-May-2020 4958.01 2912.90 68.11 6.00  54.80 2581.85
   21:12:03.170.17-May-2020 4958.01 2912.75 68.10 6.00  55.00 2581.85
   21:12:03.370.17-May-2020 4958.01 2912.75 68.10 6.00  55.20 2581.85
   21:12:03.570.17-May-2020 4958.01 2912.57 68.10 6.00  55.40 2581.85
   21:12:03.770.17-May-2020 4958.01 2913.12 68.10 6.00  55.60 2581.85
   21:12:03.970.17-May-2020 4958.01 2912.69 68.10 6.00  55.80 2581.85
   21:12:04.169.17-May-2020 4958.01 2912.64 68.10 6.00  56.00 2581.85
   21:12:04.369.17-May-2020 4958.01 2912.64 68.10 6.00  56.20 2581.85
   21:12:04.569.17-May-2020 4958.01 2922.10 68.10 6.00  56.40 2581.85
   21:12:04.769.17-May-2020 4958.01 2922.82 68.10 6.00  56.60 2581.85
   21:12:04.969.17-May-2020 4958.01 2923.09 68.09 6.00  56.80 2581.85
   21:12:05.169.17-May-2020 4958.01 2922.99 68.09 6.00  57.00 2581.85
   21:12:05.369.17-May-2020 4958.01 2922.99 68.09 6.00  57.20 2581.85
   21:12:05.569.17-May-2020 4958.01 2923.17 68.09 6.00  57.40 2581.85
   21:12:05.769.17-May-2020 4958.01 2923.24 68.09 6.00  57.60 2581.85
   21:12:05.969.17-May-2020 4958.01 2923.28 68.09 6.00  57.80 2581.85
   21:12:06.169.17-May-2020 4958.01 2923.31 68.09 6.00  58.00 2581.85
   21:12:06.369.17-May-2020 4958.01 2923.31 68.09 6.00  58.20 2581.85
   21:12:06.569.17-May-2020 4958.01 2923.37 68.09 6.00  58.40 2581.85
   21:12:06.769.17-May-2020 4958.01 2923.40 68.09 6.00  58.60 2581.85
   21:12:06.969.17-May-2020 4958.01 2923.42 68.09 6.00  58.80 2581.85
   21:12:07.169.17-May-2020 4958.01 2923.28 68.09 6.00  59.00 2581.85
   21:12:07.369.17-May-2020 4958.01 2923.28 68.09 6.00  59.20 2581.85
   21:12:07.569.17-May-2020 4958.01 2923.39 68.09 6.00  59.40 2581.85
   21:12:07.769.17-May-2020 4958.01 2923.39 68.09 6.00  59.60 2581.85
   21:12:07.969.17-May-2020 4958.01 2923.48 68.09 6.00  59.80 2581.85
   21:12:08.169.17-May-2020 4958.01 2923.50 68.08 6.00  60.00 2581.85
   21:12:08.369.17-May-2020 4958.01 2923.50 68.08 6.00  60.20 2581.85
   21:12:08.569.17-May-2020 4958.01 2923.55 68.08 6.00  60.40 2581.85
   21:12:08.769.17-May-2020 4958.01 2923.57 68.08 6.00  60.60 2581.85
   21:12:08.969.17-May-2020 4958.01 2923.58 68.08 6.00  60.80 2581.85
   21:12:09.169.17-May-2020 4958.01 2923.59 68.08 6.00  61.00 2581.85
   21:12:09.369.17-May-2020 4958.01 2923.59 68.08 6.00  61.20 2581.85
   21:12:09.569.17-May-2020 4958.01 2923.45 68.08 6.00  61.40 2581.85
   21:12:09.769.17-May-2020 4958.01 2923.49 68.08 6.00  61.60 2581.85
   21:12:09.969.17-May-2020 4958.01 2923.45 68.08 6.00  61.80 2581.85
   21:12:10.169.17-May-2020 4958.01 2923.44 68.08 6.00  62.00 2581.85
   21:12:10.369.17-May-2020 4958.01 2923.44 68.08 6.00  62.20 2581.85
   21:12:10.569.17-May-2020 4958.01 2923.49 68.08 6.00  62.40 2581.85
   21:12:10.769.17-May-2020 4958.01 2923.54 68.08 6.00  62.60 2581.85
   21:12:10.969.17-May-2020 4958.01 2923.41 68.08 6.00  62.80 2581.85
   21:12:11.169.17-May-2020 4958.01 2923.51 68.08 6.00  63.00 2581.85
   21:12:11.369.17-May-2020 4958.01 2923.51 68.08 6.00  63.20 2581.85
   21:12:11.569.17-May-2020 4958.01 2923.40 68.08 6.00  63.40 2581.85
   21:12:11.769.17-May-2020 4958.01 2923.47 68.08 6.00  63.60 2581.85
   21:12:11.969.17-May-2020 4958.01 2923.51 68.08 6.00  63.80 2581.85
   21:12:12.169.17-May-2020 4958.01 2923.59 68.08 6.00  64.00 2581.85
   21:12:12.369.17-May-2020 4958.01 2923.59 68.08 6.00  64.20 2581.85
   21:12:12.569.17-May-2020 4958.01 2923.66 68.08 6.00  64.40 2581.85
   21:12:12.769.17-May-2020 4958.01 2923.69 68.08 6.00  64.60 2581.85
   21:12:12.969.17-May-2020 4958.01 2923.70 68.08 6.00  64.79 2581.85
   21:12:13.169.17-May-2020 4958.01 2923.71 68.08 6.00  64.99 2581.85
   21:12:13.369.17-May-2020 4958.01 2923.71 68.08 6.00  65.19 2581.85
   21:12:13.569.17-May-2020 4958.01 2923.58 68.08 6.00  65.39 2581.85
   21:12:13.769.17-May-2020 4958.01 2923.55 68.08 6.00  65.59 2581.85
   21:12:13.969.17-May-2020 4958.01 2923.61 68.08 6.00  65.79 2581.85
   21:12:14.169.17-May-2020 4958.01 2923.58 68.08 6.00  65.99 2581.85
   21:12:14.369.17-May-2020 4958.01 2923.58 68.08 6.00  66.19 2581.85
   21:12:14.569.17-May-2020 4958.01 2923.70 68.08 6.00  66.39 2581.85
   21:12:14.769.17-May-2020 4958.01 2923.73 68.08 6.00  66.59 2581.85
   21:12:14.969.17-May-2020 4958.01 2923.76 68.08 6.00  66.79 2581.85
   21:12:15.169.17-May-2020 4958.01 2923.77 68.08 6.00  66.99 2581.85
   21:12:15.369.17-May-2020 4958.01 2923.77 68.08 6.00  67.19 2581.85
   21:12:15.569.17-May-2020 4958.01 2923.81 68.08 6.00  67.39 2581.85
   21:12:15.769.17-May-2020 4958.01 2923.54 68.08 6.00  67.59 2581.85
   21:12:15.969.17-May-2020 4958.01 2923.61 68.08 6.00  67.79 2581.85
   21:12:16.169.17-May-2020 4958.01 2923.67 68.08 6.00  67.99 2581.85
   21:12:16.369.17-May-2020 4958.01 2923.67 68.08 6.00  68.19 2581.85
   21:12:16.569.17-May-2020 4958.01 2923.55 68.08 6.00  68.39 2581.85
   21:12:16.769.17-May-2020 4958.01 2923.61 68.08 6.00  68.59 2581.85
   21:12:16.969.17-May-2020 4958.01 2923.66 68.08 6.00  68.79 2581.85
