~Version Information
 VERS.                  2.0:   CWLS log ASCII Standard -VERSION 2.0
 WRAP.                   NO:   One line per depth step
~Well Information Block
#MNEM.UNIT     VALUE/NAME     DESCRIPTION
#---------     -----------    ---------------------------
 STRT.S             00:24:31 18-May-20: START TIME 00:24:31 18-May-20
 STOP.S             00:32:03 18-May-20: STOP TIME  00:32:03 18-May-20
 STEP.S                   0.00: STEP TIME
 NULL.                 -999.25: NULL VALUE
 UNIT.                     N/A:  LOGGING EQUIPMENT ID
 DCON.         Sperry Drilling:  DIRECTNL CONTR
 DOE .                     N/A:  DOE NUMBER
 JOBN.        AZ-XX-0906252240:  JOB TICKET NUMB
 MWDS.                     N/A:  MWD SHOP
 PROV.                    Baku:  PROVINCE
 STAT.                    Baku:  STATE NAME
 REGN.                   EESSA:  REGION
 BASE.              Azerbaijan:  LOGGING EQUIPMENT BASE LOCATION
 UWI .                     N/A:  UNIQUE WELL IDENTIFIER
 API .                     N/A:  API NUMBER
 MDS .        Operator Entered:  MAG DATA SOURCE
 WTYP.                Deviated:  WELL TYPE
 COMP.     BP Exploration (Caspian Sea) Ltd.:  COMPANY
 SRVC.          Turan Drilling:  CONTRACTOR
 WELL.           J23 (Slot 07):  WELL NAME
 CTRY.              Azerbaijan:  COUNTRY NAME
 FLD .                     ACG:  FIELD NAME
 PDAT.          Mean Sea Level:  PERMANENT DATUM
 RIG .             West Chirag:  RIG NAME
 SON .        AZ-XX-0906252240:  JOB NUMBER
 FTOP.          Formation Tops:  FORM TOPS DESC
 ILTD.               Lithology:  INTERP LTH DESC
 SVYD.                  Survey:  SURVEY DESC
 DMOD.             Drill Model:  DRILL MOD DESC
 HPTY.       Minimum Curvature:  HOLE POS TYPE
 NREF.                    Grid:  NORTH REFERENCE
 SPUD.               27-Aug-20:  SPUD DATE
 DATE.      00.00.00 19-May-20:  END TIME
 STIM.      03.00.00 25-Mar-20:  START TIME
 DMF .             Drill Floor:  DRILL MEAS FROM
 DFST.                        :  DIST FSL TEXT
 DFWT.                        :  DIST FWL TEXT
 CNTY.                        :  COUNTY
 LOC .                        :  LOCATION
 LMF .             Drill Floor:  LOG MEASURED FROM
 VSNS.m                   9.43:  VERT SEC N/S
 VSEW.m                  -8.91:  VERT SEC E/W
 AGAP.m                  43.00:  AIR GAP
 DEP .m                 354.17:  DEPTH
 APD .m                  43.00:  DEPTH ABOVE PD
 WDMS.m                 169.80:  WD ELEV
 EGL .m                   0.00:  GROUND ELEVATION
 EPD .m                   0.00:  ELEVATION
 AZTC.deg                 6.31:  AZM TOTAL CORR
 GRDC.deg                 0.14:  GRID CORRECTION
 MDEC.deg                 6.45:  MAGNETIC DECL
 MDIP.deg                59.56:  MAGNETIC DIP
 MFLD.nT              50295.00:  MAGNETIC FIELD
 GVFD.g                   1.00:  GRAVITY FIELD
 VSDR.deg               179.88:  VERT SEC DIRECT
 TDD .m                5150.01:  TOTAL DEPTH (DRILLER)
 SDEP.m                 864.00:  START DEPTH
 DFSL.m                   0.00:  DISTANCE FSL
 DFWL.m                   0.00:  DISTANCE FWL
 UTMY.m             4443793.85:  UTM Y
 UTMX.m              519005.06:  UTM X
 WHEW.m                  -8.91:  WELL HEAD E/W
 WHNS.m                   9.43:  WELL HEAD N/S
 LONG.deg                51.22:  LONGITUDE
 LATI.deg                40.13:  LATITUDE
 TVDS.m                  43.00:  TVDSS CORRECTN
 EKB .m                   0.00:  KB ELEVATION
 EDF .m                  43.00:  DF ELEVATION
 TDL .m                 363.00:  TOTAL DEPTH (LOGGER)
 MAGU.                 1850802:  MAGUTM CHECKSUM
 VSC .                       0:  VS TO CLOSURE
~Parameter Information Block
#MNEM.UNIT       Value        Description
#---------     -----------    ---------------------------
 AV  .mps                 2.30:  Ann Velocity 
 AVMX.mps                 4.40:  Max Ann Veloc 
 AZIF.deg               110.24:  Azm, Final 
 BHAT.        Rotary Steerable:  BHA Type 
 BREV.rev               331.00:  Rev Bit Total 
 BROT.°/30m               0.00:  Build Rotating 
 BS  .in                  8.50:  Bit Size 
 BSZ .in                  8.50:  Bit Size 
 BTPL.psig              585.00:  Bit Press Loss 
 CABU.                     Yes:  Customer Abuse 
 COMM.                     ô®q:  Run Comments 1 
 TCS .hr                122.75:  Time Ciculation Ended 
 CV  .mps                 2.67:  Crit Velocity 
 CVMX.mps                 3.56:  Max Crit Veloc 
 DD1 .          Rashad Habibov:  Direct Drillr 1 
 DD2 .         Rasim Ibrahimov:  Direct Drillr 2 
 DDSV.               Geo-Pilot:  DD Service 
 DEFF.%                  98.00:  % Det Eff 
 DLRX.°/30m               0.75:  Dogleg Rot Max 
 DLSO.°/30m               1.25:  Dogleg Oriented 
 DLSX.°/30m               2.06:  Dogleg Str Max 
 DRET.      07.45.00 17-May-20:  Drill End Time 
 DRST.      22.50.00 15-May-20:  Drill Start Tim 
 DTIM.hr                 20.75:  Time Drilling 
 EDEP.m                5124.01:  End Depth 
 ENG1.           Eldar Hajiyev:  Engineer 1 
 ENG2.        Marcelo Sandoval:  Engineer 2 
 ENG3.        Davud huseynzada:  Engineer 3 
 ENG4.          Ruslan Safarov:  Engineer 4 
 ETIM.      04.33.00 23-May-20:  End Time 
 FLOI.gpm               450.00:  Flow In 
 FLON.gpm               400.00:  Flow In Min 
 FLOS.cptm                0.00:  Fluid Loss 
 FLOX.gpm               500.00:  Flow In Max 
 FTRO.       Formation Presure:  FTWD Run Obj 
 HFLO.                      No:  High Flow 
 HPRE.                     Yes:  High Pressure 
 HTEM.                      No:  High Temp 
 HYDO.m                   1.80:  Hydro Offset 
 IFIN.deg                75.06:  Inc, Final 
 IMAX.deg                75.38:  Inc Max 
 IMIN.deg                74.69:  Inc Min 
 IMND.m                5027.38:  Inc Min Depth 
 IMXD.m                4771.61:  Inc Max Depth 
 JARR.                      No:  Jarring 
 LETM.      07.45.00 17-May-20:  Log End Time 
 LOST.hr                     0:  Lost Rig Time 
 LSTM.      22.50.00 15-May-20:  Log Start Time 
 MDCL.ppm             42000.00:  Mud Chlorides 
 MDES.     Inversion Oil/Synthetic:  Mud Desc 
 DFD .sg                  1.34:  Mud Density 
 MDMN.sg                  1.34:  Dens Mud Min 
 MDMX.sg                  1.34:  Dens Mud Max 
 MOIL.                       0:  Run Mud Oil % 
 MOWR.                   67:33:  Run Mud OWR 
 MSND.                       0:  Run Mud Sand % 
 MSOL.                     1.8:  Run Mud Solids% 
 DFV .spqt               76.00:  Mud Viscosity 
 MWOD.in                  6.75:  MWD Tool OD 
 MWSI.                      No:  Serv Intrp, MWD 
 OTIM.hr                228.19:  Time Operating 
 PCON.           Look Like New:  Pad Condition 
 PMAX.psia             6164.70:  Press Op, Max 
 PV  .cP                 28.00:  Mud PV 
 RUN .                     900:  Run Number 
 ROPA.m/hr               19.00:  ROP Avg 
 ROPN.m/hr               11.00:  ROP Min 
 ROPX.m/hr               36.00:  ROP Max 
 RPMA.rpm               120.00:  RPM Surface Avg 
 RPMN.rpm               120.00:  RPM Surface Min 
 RPMX.rpm               120.00:  RPM Surface Max 
 RRUN.                    L604:  Rig Run Number 
 RTIM.hr                  7.00:  Time Reaming 
 SAZI.deg               109.27:  Azm, Start 
 SDEP.m                4761.01:  Start Depth 
 SIDD.                      No:  Serv Intrp, DD 
 SINC.deg                75.38:  Inc, Start 
 SPPA.psig             3574.00:  SPP Avg 
 SPPN.psig             3475.00:  SPP Min 
 SPPX.psig             3791.00:  SPP Max 
 STIM.      07.08.48 13-May-20:  Start Time 
 SVCS.                 DD, MWD:  Services 
 SVER.                    9.20:  Sperry Version 
 TDAT.m                 363.00:  Tot Depth Attmp 
 TDDF.                      No:  Trip for DD 
 TDLG.m                 363.00:  Tot Depth Loggd 
 TFF .                      No:  Trip for Fail 
 TQAA.f-kp               20.00:  Torque Abs Avg 
 TQAN.f-kp               18.00:  Torque Abs Min 
 TQAX.f-kp               22.00:  Torque Abs Max 
 TRRT.°/30m              -0.35:  Turn Rotating 
 MRT .                    HCIM:  Maximum Recorded Temperature 
 TTMX.degC               92.16:  Max Tool Temp 
 VS01.                90586518:  Virtual Str1 SN 
 VS02.        AZ90560654Z1W1C6:  Virtual Str2 SN 
 VS03.           AZ90610398F11:  Virtual Str3 SN 
 VS04.                90514975:  Virtual Str4 SN 
 VS05.                90514972:  Virtual Str5 SN 
 VS06.     AZ90603282F11V7D1A6:  Virtual Str6 SN 
 WBMN.klb                 7.00:  WOB Min 
 WOBA.klb                12.00:  WOB Avg 
 WOBX.klb                14.00:  WOB Max 
 YP  .lhf2               32.00:  Yield Point 
~Curve Information Block
#MNEM.UNIT                 API CODE     Curve Description
#---------               -----------    ---------------------------
 TIME.HHMMSS            00 000 000 000:  GT Time & Date
 GTDEPTH.m              00 000 000 000:  GT Depth
 GTPQH.psia             00 000 000 000:  GT HR Quartz Pressure
 GTTQ.degC              00 000 000 000:  GT Quartz Temperature
 GTTN.NONE              00 000 000 000:  GT Test Number
 GTET.sec               00 000 000 000:  GT Elapsed Test Time
 GTTVD.m                00 000 000 000:  GT True Vertical Depth
#Other Information
#
#WARRANTY: Halliburton will use its best efforts to furnish customers with 
#accurate information and interpretations that are part of, and incident to, the services 
#provided.  However, Halliburton cannot and does not warrant the accuracy 
#or correctness of such information and interpretations.  Under no circumstances should any 
#such information or interpretation be relied upon as the sole basis for any drilling, 
#completion, production, or financial decision or any procedure involving any risk to the 
#safety of any drilling venture, drilling rig or its crew or any other third party.  The 
#Customer has full responsibility for all drilling, completion and production operation.  
#Halliburton makes no representations or warranties, either expressed or 
#implied, including, but not limited to, the implied warranties of merchantability or fitness 
#for a particular purpose, with respect to the services rendered.  In no event will 
#Halliburton be liable for failure to obtain any particular results or for 
#any damages, including, but not limited to, indirect, special or consequential damages, 
#resulting from the use of any information or interpretation provided by Halliburton.
#
~A           TIME           GTDEPTH  GTPQH  GTTQ  GTTN   GTET   GTTVD  
# ...
   00:31:40.885.18-May-2020 4886.01 5523.32 66.43 10.00 429.57 2563.39
   00:31:41.085.18-May-2020 4886.01 5508.85 66.43 10.00 429.77 2563.39
   00:31:41.286.18-May-2020 4886.01 5512.97 66.43 10.00 429.97 2563.39
   00:31:41.486.18-May-2020 4886.01 5517.29 66.43 10.00 430.17 2563.39
   00:31:41.686.18-May-2020 4886.01 5517.29 66.43 10.00 430.37 2563.39
   00:31:41.886.18-May-2020 4886.01 5513.27 66.43 10.00 430.57 2563.39
   00:31:42.086.18-May-2020 4886.01 5518.91 66.43 10.00 430.77 2563.39
   00:31:42.286.18-May-2020 4886.01 5510.13 66.43 10.00 430.97 2563.39
   00:31:42.486.18-May-2020 4886.01 5514.92 66.43 10.00 431.17 2563.39
   00:31:42.686.18-May-2020 4886.01 5514.92 66.43 10.00 431.37 2563.39
   00:31:42.886.18-May-2020 4886.01 5511.71 66.43 10.00 431.57 2563.39
   00:31:43.086.18-May-2020 4886.01 5509.62 66.43 10.00 431.77 2563.39
   00:31:43.286.18-May-2020 4886.01 5510.74 66.43 10.00 431.97 2563.39
   00:31:43.486.18-May-2020 4886.01 5509.41 66.43 10.00 432.17 2563.39
   00:31:43.687.18-May-2020 4886.01 5509.41 66.43 10.00 432.37 2563.39
   00:31:43.887.18-May-2020 4886.01 5505.93 66.43 10.00 432.57 2563.39
   00:31:44.087.18-May-2020 4886.01 5516.30 66.43 10.00 432.77 2563.39
   00:31:44.287.18-May-2020 4886.01 5509.39 66.43 10.00 432.97 2563.39
   00:31:44.487.18-May-2020 4886.01 5513.59 66.43 10.00 433.17 2563.39
   00:31:44.687.18-May-2020 4886.01 5513.59 66.43 10.00 433.37 2563.39
   00:31:44.887.18-May-2020 4886.01 5510.09 66.43 10.00 433.57 2563.39
   00:31:45.087.18-May-2020 4886.01 5507.55 66.43 10.00 433.77 2563.39
   00:31:45.287.18-May-2020 4886.01 5508.47 66.43 10.00 433.98 2563.39
   00:31:45.487.18-May-2020 4886.01 5507.98 66.43 10.00 434.18 2563.39
   00:31:45.687.18-May-2020 4886.01 5507.98 66.43 10.00 434.38 2563.39
   00:31:45.887.18-May-2020 4886.01 5522.87 66.43 10.00 434.58 2563.39
   00:31:46.088.18-May-2020 4886.01 5501.06 66.43 10.00 434.78 2563.39
   00:31:46.288.18-May-2020 4886.01 5513.53 66.43 10.00 434.98 2563.39
   00:31:46.488.18-May-2020 4886.01 5511.66 66.43 10.00 435.18 2563.39
   00:31:46.688.18-May-2020 4886.01 5524.48 66.43 10.00 435.38 2563.39
   00:31:46.888.18-May-2020 4886.01 5506.13 66.43 10.00 435.58 2563.39
   00:31:47.088.18-May-2020 4886.01 5515.69 66.43 10.00 435.78 2563.39
   00:31:47.288.18-May-2020 4886.01 5513.84 66.43 10.00 435.98 2563.39
   00:31:47.488.18-May-2020 4886.01 5520.46 66.43 10.00 436.18 2563.39
   00:31:47.688.18-May-2020 4886.01 5520.46 66.43 10.00 436.38 2563.39
   00:31:47.888.18-May-2020 4886.01 5518.69 66.43 10.00 436.58 2563.39
   00:31:48.088.18-May-2020 4886.01 5512.46 66.43 10.00 436.78 2563.39
   00:31:48.288.18-May-2020 4886.01 5522.58 66.43 10.00 436.98 2563.39
   00:31:48.488.18-May-2020 4886.01 5511.69 66.43 10.00 437.18 2563.39
   00:31:48.689.18-May-2020 4886.01 5511.69 66.43 10.00 437.38 2563.39
   00:31:48.889.18-May-2020 4886.01 5509.43 66.43 10.00 437.58 2563.39
   00:31:49.089.18-May-2020 4886.01 5515.75 66.43 10.00 437.78 2563.39
   00:31:49.289.18-May-2020 4886.01 5509.61 66.43 10.00 437.98 2563.39
   00:31:49.489.18-May-2020 4886.01 5511.76 66.43 10.00 438.18 2563.39
   00:31:49.689.18-May-2020 4886.01 5511.76 66.43 10.00 438.38 2563.39
   00:31:49.889.18-May-2020 4886.01 5510.58 66.42 10.00 438.58 2563.39
   00:31:50.089.18-May-2020 4886.01 5508.99 66.42 10.00 438.78 2563.39
   00:31:50.289.18-May-2020 4886.01 5520.70 66.42 10.00 438.98 2563.39
   00:31:50.489.18-May-2020 4886.01 5505.81 66.42 10.00 439.18 2563.39
   00:31:50.689.18-May-2020 4886.01 5515.53 66.42 10.00 439.38 2563.39
   00:31:50.889.18-May-2020 4886.01 5509.08 66.42 10.00 439.58 2563.39
   00:31:51.090.18-May-2020 4886.01 5513.33 66.42 10.00 439.78 2563.39
   00:31:51.290.18-May-2020 4886.01 5506.88 66.42 10.00 439.98 2563.39
   00:31:51.490.18-May-2020 4886.01 5509.70 66.42 10.00 440.18 2563.39
   00:31:51.690.18-May-2020 4886.01 5507.17 66.42 10.00 440.38 2563.39
   00:31:51.890.18-May-2020 4886.01 5508.20 66.42 10.00 440.58 2563.39
   00:31:52.090.18-May-2020 4886.01 5507.45 66.42 10.00 440.78 2563.39
   00:31:52.290.18-May-2020 4886.01 5507.71 66.42 10.00 440.98 2563.39
   00:31:52.490.18-May-2020 4886.01 5522.48 66.42 10.00 441.18 2563.39
   00:31:52.690.18-May-2020 4886.01 5522.48 66.42 10.00 441.38 2563.39
   00:31:52.890.18-May-2020 4886.01 5512.85 66.42 10.00 441.58 2563.39
   00:31:53.090.18-May-2020 4886.01 5511.67 66.42 10.00 441.78 2563.39
   00:31:53.290.18-May-2020 4886.01 5519.12 66.42 10.00 441.98 2563.39
   00:31:53.490.18-May-2020 4886.01 5510.25 66.42 10.00 442.18 2563.39
   00:31:53.691.18-May-2020 4886.01 5510.25 66.42 10.00 442.38 2563.39
   00:31:53.891.18-May-2020 4886.01 5513.97 66.42 10.00 442.58 2563.39
   00:31:54.091.18-May-2020 4886.01 5518.41 66.42 10.00 442.78 2563.39
   00:31:54.291.18-May-2020 4886.01 5511.75 66.42 10.00 442.98 2563.39
   00:31:54.491.18-May-2020 4886.01 5516.49 66.42 10.00 443.18 2563.39
   00:31:54.691.18-May-2020 4886.01 5520.30 66.42 10.00 443.38 2563.39
   00:31:54.891.18-May-2020 4886.01 5514.11 66.42 10.00 443.58 2563.39
   00:31:55.091.18-May-2020 4886.01 5516.78 66.42 10.00 443.78 2563.39
   00:31:55.291.18-May-2020 4886.01 5511.45 66.42 10.00 443.98 2563.39
   00:31:55.491.18-May-2020 4886.01 5514.73 66.42 10.00 444.18 2563.39
   00:31:55.691.18-May-2020 4886.01 5509.76 66.42 10.00 444.38 2563.39
   00:31:55.891.18-May-2020 4886.01 5511.23 66.42 10.00 444.58 2563.39
   00:31:56.092.18-May-2020 4886.01 5509.11 66.42 10.00 444.78 2563.39
   00:31:56.292.18-May-2020 4886.01 5509.24 66.42 10.00 444.98 2563.39
   00:31:56.492.18-May-2020 4886.01 5508.83 66.42 10.00 445.18 2563.39
   00:31:56.692.18-May-2020 4886.01 5508.83 66.42 10.00 445.38 2563.39
   00:31:56.892.18-May-2020 4886.01 5502.89 66.42 10.00 445.58 2563.39
   00:31:57.092.18-May-2020 4886.01 5514.13 66.42 10.00 445.78 2563.39
   00:31:57.292.18-May-2020 4886.01 5509.89 66.42 10.00 445.98 2563.39
   00:31:57.492.18-May-2020 4886.01 5511.70 66.42 10.00 446.18 2563.39
   00:31:57.692.18-May-2020 4886.01 5511.70 66.42 10.00 446.38 2563.39
   00:31:57.892.18-May-2020 4886.01 5509.09 66.42 10.00 446.58 2563.39
   00:31:58.092.18-May-2020 4886.01 5506.56 66.42 10.00 446.78 2563.39
   00:31:58.292.18-May-2020 4886.01 5507.07 66.42 10.00 446.98 2563.39
   00:31:58.493.18-May-2020 4886.01 5506.72 66.42 10.00 447.18 2563.39
   00:31:58.693.18-May-2020 4886.01 5506.84 66.42 10.00 447.38 2563.39
   00:31:58.893.18-May-2020 4886.01 5520.76 66.42 10.00 447.58 2563.39
   00:31:59.093.18-May-2020 4886.01 5500.84 66.42 10.00 447.78 2563.39
   00:31:59.293.18-May-2020 4886.01 5511.96 66.42 10.00 447.98 2563.39
   00:31:59.493.18-May-2020 4886.01 5510.58 66.42 10.00 448.18 2563.39
   00:31:59.693.18-May-2020 4886.01 5513.40 66.42 10.00 448.38 2563.39
   00:31:59.893.18-May-2020 4886.01 5513.44 66.42 10.00 448.58 2563.39
   00:32:00.093.18-May-2020 4886.01 5512.61 66.42 10.00 448.78 2563.39
   00:32:00.293.18-May-2020 4886.01 5515.44 66.42 10.00 448.98 2563.39
   00:32:00.493.18-May-2020 4886.01 5515.59 66.42 10.00 449.18 2563.39
   00:32:00.693.18-May-2020 4886.01 5515.59 66.42 10.00 449.38 2563.39
   00:32:00.893.18-May-2020 4886.01 5514.80 66.42 10.00 449.58 2563.39
   00:32:01.094.18-May-2020 4886.01 5512.63 66.42 10.00 449.78 2563.39
   00:32:01.294.18-May-2020 4886.01 5518.86 66.42 10.00 449.98 2563.39
   00:32:01.494.18-May-2020 4886.01 5511.18 66.42 10.00 450.18 2563.39
   00:32:01.694.18-May-2020 4886.01 5511.18 66.42 10.00 450.38 2563.39
   00:32:01.894.18-May-2020 4886.01 5507.88 66.42 10.00 450.58 2563.39
   00:32:02.094.18-May-2020 4886.01 5514.20 66.42 10.00 450.78 2563.39
   00:32:02.294.18-May-2020 4886.01 5508.25 66.42 10.00 450.98 2563.39
   00:32:02.494.18-May-2020 4886.01 5511.02 66.42 10.00 451.18 2563.39
   00:32:02.694.18-May-2020 4886.01 5511.02 66.42 10.00 451.38 2563.39
   00:32:02.894.18-May-2020 4886.01 5509.58 66.42 10.00 451.58 2563.39
   00:32:03.094.18-May-2020 4886.01 5508.38 66.42 10.00 451.78 2563.39
   00:32:03.294.18-May-2020 4886.01 5518.89 66.42 10.00 451.98 2563.39
