~Version Information
 VERS.                  2.0:   CWLS log ASCII Standard -VERSION 2.0
 WRAP.                   NO:   One line per depth step
~Well Information Block
#MNEM.UNIT     VALUE/NAME     DESCRIPTION
#---------     -----------    ---------------------------
 STRT.S             12:13:26 20-May-20: START TIME 12:13:26 20-May-20
 STOP.S             12:20:31 20-May-20: STOP TIME  12:20:31 20-May-20
 STEP.S                   0.00: STEP TIME
 NULL.                 -999.25: NULL VALUE
 UNIT.                     N/A:  LOGGING EQUIPMENT ID
 DCON.         Sperry Drilling:  DIRECTNL CONTR
 DOE .                     N/A:  DOE NUMBER
 JOBN.        AZ-XX-0906252240:  JOB TICKET NUMB
 MWDS.                     N/A:  MWD SHOP
 PROV.                    Baku:  PROVINCE
 STAT.                    Baku:  STATE NAME
 REGN.                   EESSA:  REGION
 BASE.              Azerbaijan:  LOGGING EQUIPMENT BASE LOCATION
 UWI .                     N/A:  UNIQUE WELL IDENTIFIER
 API .                     N/A:  API NUMBER
 MDS .        Operator Entered:  MAG DATA SOURCE
 WTYP.                Deviated:  WELL TYPE
 COMP.     BP Exploration (Caspian Sea) Ltd.:  COMPANY
 SRVC.          Turan Drilling:  CONTRACTOR
 WELL.           J23 (Slot 07):  WELL NAME
 CTRY.              Azerbaijan:  COUNTRY NAME
 FLD .                     ACG:  FIELD NAME
 PDAT.          Mean Sea Level:  PERMANENT DATUM
 RIG .             West Chirag:  RIG NAME
 SON .        AZ-XX-0906252240:  JOB NUMBER
 FTOP.          Formation Tops:  FORM TOPS DESC
 ILTD.               Lithology:  INTERP LTH DESC
 SVYD.                  Survey:  SURVEY DESC
 DMOD.             Drill Model:  DRILL MOD DESC
 HPTY.       Minimum Curvature:  HOLE POS TYPE
 NREF.                    Grid:  NORTH REFERENCE
 SPUD.               27-Aug-20:  SPUD DATE
 DATE.      00.00.00 19-May-20:  END TIME
 STIM.      03.00.00 25-Mar-20:  START TIME
 DMF .             Drill Floor:  DRILL MEAS FROM
 DFST.                        :  DIST FSL TEXT
 DFWT.                        :  DIST FWL TEXT
 CNTY.                        :  COUNTY
 LOC .                        :  LOCATION
 LMF .             Drill Floor:  LOG MEASURED FROM
 VSNS.m                   9.43:  VERT SEC N/S
 VSEW.m                  -8.91:  VERT SEC E/W
 AGAP.m                  43.00:  AIR GAP
 DEP .m                 354.17:  DEPTH
 APD .m                  43.00:  DEPTH ABOVE PD
 WDMS.m                 169.80:  WD ELEV
 EGL .m                   0.00:  GROUND ELEVATION
 EPD .m                   0.00:  ELEVATION
 AZTC.deg                 6.31:  AZM TOTAL CORR
 GRDC.deg                 0.14:  GRID CORRECTION
 MDEC.deg                 6.45:  MAGNETIC DECL
 MDIP.deg                59.56:  MAGNETIC DIP
 MFLD.nT              50295.00:  MAGNETIC FIELD
 GVFD.g                   1.00:  GRAVITY FIELD
 VSDR.deg               179.88:  VERT SEC DIRECT
 TDD .m                5150.01:  TOTAL DEPTH (DRILLER)
 SDEP.m                 864.00:  START DEPTH
 DFSL.m                   0.00:  DISTANCE FSL
 DFWL.m                   0.00:  DISTANCE FWL
 UTMY.m             4443793.85:  UTM Y
 UTMX.m              519005.06:  UTM X
 WHEW.m                  -8.91:  WELL HEAD E/W
 WHNS.m                   9.43:  WELL HEAD N/S
 LONG.deg                51.22:  LONGITUDE
 LATI.deg                40.13:  LATITUDE
 TVDS.m                  43.00:  TVDSS CORRECTN
 EKB .m                   0.00:  KB ELEVATION
 EDF .m                  43.00:  DF ELEVATION
 TDL .m                 363.00:  TOTAL DEPTH (LOGGER)
 MAGU.                 1850802:  MAGUTM CHECKSUM
 VSC .                       0:  VS TO CLOSURE
~Parameter Information Block
#MNEM.UNIT       Value        Description
#---------     -----------    ---------------------------
 AV  .mps                 2.30:  Ann Velocity 
 AVMX.mps                 4.40:  Max Ann Veloc 
 AZIF.deg               110.24:  Azm, Final 
 BHAT.        Rotary Steerable:  BHA Type 
 BREV.rev               331.00:  Rev Bit Total 
 BROT.°/30m               0.00:  Build Rotating 
 BS  .in                  8.50:  Bit Size 
 BSZ .in                  8.50:  Bit Size 
 BTPL.psig              585.00:  Bit Press Loss 
 CABU.                     Yes:  Customer Abuse 
 COMM.                     моЊ:  Run Comments 1 
 TCS .hr                122.75:  Time Ciculation Ended 
 CV  .mps                 2.67:  Crit Velocity 
 CVMX.mps                 3.56:  Max Crit Veloc 
 DD1 .          Rashad Habibov:  Direct Drillr 1 
 DD2 .         Rasim Ibrahimov:  Direct Drillr 2 
 DDSV.               Geo-Pilot:  DD Service 
 DEFF.%                  98.00:  % Det Eff 
 DLRX.°/30m               0.75:  Dogleg Rot Max 
 DLSO.°/30m               1.25:  Dogleg Oriented 
 DLSX.°/30m               2.06:  Dogleg Str Max 
 DRET.      07.45.00 17-May-20:  Drill End Time 
 DRST.      22.50.00 15-May-20:  Drill Start Tim 
 DTIM.hr                 20.75:  Time Drilling 
 EDEP.m                5124.01:  End Depth 
 ENG1.           Eldar Hajiyev:  Engineer 1 
 ENG2.        Marcelo Sandoval:  Engineer 2 
 ENG3.        Davud huseynzada:  Engineer 3 
 ENG4.          Ruslan Safarov:  Engineer 4 
 ETIM.      04.33.00 23-May-20:  End Time 
 FLOI.gpm               450.00:  Flow In 
 FLON.gpm               400.00:  Flow In Min 
 FLOS.cptm                0.00:  Fluid Loss 
 FLOX.gpm               500.00:  Flow In Max 
 FTRO.       Formation Presure:  FTWD Run Obj 
 HFLO.                      No:  High Flow 
 HPRE.                     Yes:  High Pressure 
 HTEM.                      No:  High Temp 
 HYDO.m                   1.80:  Hydro Offset 
 IFIN.deg                75.06:  Inc, Final 
 IMAX.deg                75.38:  Inc Max 
 IMIN.deg                74.69:  Inc Min 
 IMND.m                5027.38:  Inc Min Depth 
 IMXD.m                4771.61:  Inc Max Depth 
 JARR.                      No:  Jarring 
 LETM.      07.45.00 17-May-20:  Log End Time 
 LOST.hr                     0:  Lost Rig Time 
 LSTM.      22.50.00 15-May-20:  Log Start Time 
 MDCL.ppm             42000.00:  Mud Chlorides 
 MDES.     Inversion Oil/Synthetic:  Mud Desc 
 DFD .sg                  1.34:  Mud Density 
 MDMN.sg                  1.34:  Dens Mud Min 
 MDMX.sg                  1.34:  Dens Mud Max 
 MOIL.                       0:  Run Mud Oil % 
 MOWR.                   67:33:  Run Mud OWR 
 MSND.                       0:  Run Mud Sand % 
 MSOL.                     1.8:  Run Mud Solids% 
 DFV .spqt               76.00:  Mud Viscosity 
 MWOD.in                  6.75:  MWD Tool OD 
 MWSI.                      No:  Serv Intrp, MWD 
 OTIM.hr                228.19:  Time Operating 
 PCON.           Look Like New:  Pad Condition 
 PMAX.psia             6164.70:  Press Op, Max 
 PV  .cP                 28.00:  Mud PV 
 RUN .                     900:  Run Number 
 ROPA.m/hr               19.00:  ROP Avg 
 ROPN.m/hr               11.00:  ROP Min 
 ROPX.m/hr               36.00:  ROP Max 
 RPMA.rpm               120.00:  RPM Surface Avg 
 RPMN.rpm               120.00:  RPM Surface Min 
 RPMX.rpm               120.00:  RPM Surface Max 
 RRUN.                    L604:  Rig Run Number 
 RTIM.hr                  7.00:  Time Reaming 
 SAZI.deg               109.27:  Azm, Start 
 SDEP.m                4761.01:  Start Depth 
 SIDD.                      No:  Serv Intrp, DD 
 SINC.deg                75.38:  Inc, Start 
 SPPA.psig             3574.00:  SPP Avg 
 SPPN.psig             3475.00:  SPP Min 
 SPPX.psig             3791.00:  SPP Max 
 STIM.      07.08.48 13-May-20:  Start Time 
 SVCS.                 DD, MWD:  Services 
 SVER.                    9.20:  Sperry Version 
 TDAT.m                 363.00:  Tot Depth Attmp 
 TDDF.                      No:  Trip for DD 
 TDLG.m                 363.00:  Tot Depth Loggd 
 TFF .                      No:  Trip for Fail 
 TQAA.f-kp               20.00:  Torque Abs Avg 
 TQAN.f-kp               18.00:  Torque Abs Min 
 TQAX.f-kp               22.00:  Torque Abs Max 
 TRRT.°/30m              -0.35:  Turn Rotating 
 MRT .                    HCIM:  Maximum Recorded Temperature 
 TTMX.degC               92.16:  Max Tool Temp 
 VS01.                90586518:  Virtual Str1 SN 
 VS02.        AZ90560654Z1W1C6:  Virtual Str2 SN 
 VS03.           AZ90610398F11:  Virtual Str3 SN 
 VS04.                90514975:  Virtual Str4 SN 
 VS05.                90514972:  Virtual Str5 SN 
 VS06.     AZ90603282F11V7D1A6:  Virtual Str6 SN 
 WBMN.klb                 7.00:  WOB Min 
 WOBA.klb                12.00:  WOB Avg 
 WOBX.klb                14.00:  WOB Max 
 YP  .lhf2               32.00:  Yield Point 
~Curve Information Block
#MNEM.UNIT                 API CODE     Curve Description
#---------               -----------    ---------------------------
 TIME.HHMMSS            00 000 000 000:  GT Time & Date
 GTDEPTH.m              00 000 000 000:  GT Depth
 GTPQH.psia             00 000 000 000:  GT HR Quartz Pressure
 GTTQ.degC              00 000 000 000:  GT Quartz Temperature
 GTTN.NONE              00 000 000 000:  GT Test Number
 GTET.sec               00 000 000 000:  GT Elapsed Test Time
 GTTVD.m                00 000 000 000:  GT True Vertical Depth
#Other Information
#
#WARRANTY: Halliburton will use its best efforts to furnish customers with 
#accurate information and interpretations that are part of, and incident to, the services 
#provided.  However, Halliburton cannot and does not warrant the accuracy 
#or correctness of such information and interpretations.  Under no circumstances should any 
#such information or interpretation be relied upon as the sole basis for any drilling, 
#completion, production, or financial decision or any procedure involving any risk to the 
#safety of any drilling venture, drilling rig or its crew or any other third party.  The 
#Customer has full responsibility for all drilling, completion and production operation.  
#Halliburton makes no representations or warranties, either expressed or 
#implied, including, but not limited to, the implied warranties of merchantability or fitness 
#for a particular purpose, with respect to the services rendered.  In no event will 
#Halliburton be liable for failure to obtain any particular results or for 
#any damages, including, but not limited to, indirect, special or consequential damages, 
#resulting from the use of any information or interpretation provided by Halliburton.
#
~A           TIME           GTDEPTH  GTPQH  GTTQ  GTTN   GTET   GTTVD  
# ...
   12:14:11.915.20-May-2020 4766.51 5393.76 69.60 15.00  45.21 2532.42
   12:14:12.115.20-May-2020 4766.51 5399.90 69.60 15.00  45.41 2532.42
   12:14:12.315.20-May-2020 4766.51 5401.43 69.60 15.00  45.61 2532.42
   12:14:12.515.20-May-2020 4766.51 5402.96 69.60 15.00  45.81 2532.42
   12:14:12.715.20-May-2020 4766.51 5404.20 69.60 15.00  46.01 2532.42
   12:14:12.915.20-May-2020 4766.51 5224.29 69.60 15.00  46.21 2532.42
   12:14:13.116.20-May-2020 4766.51 4782.34 69.60 15.00  46.41 2532.42
   12:14:13.316.20-May-2020 4766.51 4698.90 69.60 15.00  46.61 2532.42
   12:14:13.516.20-May-2020 4766.51 5195.05 69.60 15.00  46.81 2532.42
   12:14:13.716.20-May-2020 4766.51 5441.90 69.60 15.00  47.02 2532.42
   12:14:13.916.20-May-2020 4766.51 5455.43 69.59 15.00  47.22 2532.42
   12:14:14.116.20-May-2020 4766.51 5450.98 69.59 15.00  47.42 2532.42
   12:14:14.316.20-May-2020 4766.51 5450.64 69.59 15.00  47.62 2532.42
   12:14:14.516.20-May-2020 4766.51 5450.12 69.59 15.00  47.82 2532.42
   12:14:14.716.20-May-2020 4766.51 5461.71 69.59 15.00  48.02 2532.42
   12:14:14.916.20-May-2020 4766.51 5461.71 69.59 15.00  48.22 2532.42
   12:14:15.116.20-May-2020 4766.51 5450.08 69.59 15.00  48.42 2532.42
   12:14:15.316.20-May-2020 4766.51 5445.38 69.59 15.00  48.62 2532.42
   12:14:15.516.20-May-2020 4766.51 5449.71 69.59 15.00  48.82 2532.42
   12:14:15.716.20-May-2020 4766.51 5465.01 69.59 15.00  49.02 2532.42
   12:14:15.916.20-May-2020 4766.51 5465.01 69.59 15.00  49.22 2532.42
   12:14:16.117.20-May-2020 4766.51 5332.74 69.59 15.00  49.42 2532.42
   12:14:16.317.20-May-2020 4766.51 5348.93 69.59 15.00  49.62 2532.42
   12:14:16.517.20-May-2020 4766.51 5334.64 69.59 15.00  49.82 2532.42
   12:14:16.717.20-May-2020 4766.51 5407.27 69.59 15.00  50.02 2532.42
   12:14:16.917.20-May-2020 4766.51 5425.28 69.59 15.00  50.22 2532.42
   12:14:17.117.20-May-2020 4766.51 5418.09 69.59 15.00  50.42 2532.42
   12:14:17.317.20-May-2020 4766.51 5415.35 69.59 15.00  50.62 2532.42
   12:14:17.517.20-May-2020 4766.51 5437.58 69.59 15.00  50.82 2532.42
   12:14:17.717.20-May-2020 4766.51 5440.14 69.59 15.00  51.02 2532.42
   12:14:17.917.20-May-2020 4766.51 5438.85 69.59 15.00  51.22 2532.42
   12:14:18.117.20-May-2020 4766.51 5443.79 69.59 15.00  51.42 2532.42
   12:14:18.317.20-May-2020 4766.51 5440.68 69.58 15.00  51.62 2532.42
   12:14:18.517.20-May-2020 4766.51 5435.25 69.58 15.00  51.82 2532.42
   12:14:18.717.20-May-2020 4766.51 5443.40 69.58 15.00  52.02 2532.42
   12:14:18.917.20-May-2020 4766.51 5443.40 69.58 15.00  52.22 2532.42
   12:14:19.117.20-May-2020 4766.51 5435.22 69.58 15.00  52.42 2532.42
   12:14:19.318.20-May-2020 4766.51 5435.58 69.58 15.00  52.62 2532.42
   12:14:19.518.20-May-2020 4766.51 5437.11 69.58 15.00  52.82 2532.42
   12:14:19.718.20-May-2020 4766.51 5435.31 69.58 15.00  53.02 2532.42
   12:14:19.918.20-May-2020 4766.51 5435.31 69.58 15.00  53.22 2532.42
   12:14:20.118.20-May-2020 4766.51 5446.68 69.58 15.00  53.42 2532.42
   12:14:20.318.20-May-2020 4766.51 5447.68 69.58 15.00  53.62 2532.42
   12:14:20.518.20-May-2020 4766.51 5447.01 69.58 15.00  53.82 2532.42
   12:14:20.718.20-May-2020 4766.51 5447.96 69.58 15.00  54.02 2532.42
   12:14:20.918.20-May-2020 4766.51 5463.19 69.58 15.00  54.22 2532.42
   12:14:21.118.20-May-2020 4766.51 5450.26 69.58 15.00  54.42 2532.42
   12:14:21.318.20-May-2020 4766.51 5448.93 69.58 15.00  54.62 2532.42
   12:14:21.518.20-May-2020 4766.51 5444.78 69.58 15.00  54.82 2532.42
   12:14:21.718.20-May-2020 4766.51 5448.11 69.58 15.00  55.02 2532.42
   12:14:21.918.20-May-2020 4766.51 5461.39 69.58 15.00  55.22 2532.42
   12:14:22.118.20-May-2020 4766.51 5450.92 69.58 15.00  55.42 2532.42
   12:14:22.319.20-May-2020 4766.51 5450.31 69.58 15.00  55.62 2532.42
   12:14:22.519.20-May-2020 4766.51 5459.32 69.58 15.00  55.82 2532.42
   12:14:22.719.20-May-2020 4766.51 5476.44 69.58 15.00  56.02 2532.42
   12:14:22.919.20-May-2020 4766.51 5476.44 69.58 15.00  56.22 2532.42
   12:14:23.119.20-May-2020 4766.51 5493.21 69.58 15.00  56.42 2532.42
   12:14:23.319.20-May-2020 4766.51 5492.51 69.58 15.00  56.62 2532.42
   12:14:23.519.20-May-2020 4766.51 5491.42 69.58 15.00  56.82 2532.42
   12:14:23.719.20-May-2020 4766.51 5488.57 69.58 15.00  57.02 2532.42
   12:14:23.919.20-May-2020 4766.51 5488.57 69.58 15.00  57.22 2532.42
   12:14:24.119.20-May-2020 4766.51 5491.03 69.58 15.00  57.42 2532.42
   12:14:24.319.20-May-2020 4766.51 5488.69 69.57 15.00  57.62 2532.42
   12:14:24.519.20-May-2020 4766.51 5487.19 69.57 15.00  57.82 2532.42
   12:14:24.719.20-May-2020 4766.51 5486.82 69.57 15.00  58.02 2532.42
   12:14:24.919.20-May-2020 4766.51 5486.82 69.57 15.00  58.22 2532.42
   12:14:25.119.20-May-2020 4766.51 5489.37 69.57 15.00  58.42 2532.42
   12:14:25.319.20-May-2020 4766.51 5496.24 69.57 15.00  58.62 2532.42
   12:14:25.520.20-May-2020 4766.51 5486.52 69.57 15.00  58.82 2532.42
   12:14:25.720.20-May-2020 4766.51 5486.87 69.57 15.00  59.02 2532.42
   12:14:25.920.20-May-2020 4766.51 5486.87 69.57 15.00  59.22 2532.42
   12:14:26.120.20-May-2020 4766.51 5488.80 69.57 15.00  59.42 2532.42
   12:14:26.320.20-May-2020 4766.51 5488.17 69.57 15.00  59.62 2532.42
   12:14:26.520.20-May-2020 4766.51 5486.96 69.57 15.00  59.82 2532.42
   12:14:26.720.20-May-2020 4766.51 5486.52 69.57 15.00  60.02 2532.42
   12:14:26.920.20-May-2020 4766.51 5486.52 69.57 15.00  60.22 2532.42
   12:14:27.120.20-May-2020 4766.51 5486.90 69.57 15.00  60.42 2532.42
   12:14:27.320.20-May-2020 4766.51 5486.79 69.57 15.00  60.62 2532.42
   12:14:27.520.20-May-2020 4766.51 5497.91 69.57 15.00  60.82 2532.42
   12:14:27.720.20-May-2020 4766.51 5486.28 69.57 15.00  61.02 2532.42
   12:14:27.920.20-May-2020 4766.51 5486.46 69.57 15.00  61.22 2532.42
   12:14:28.120.20-May-2020 4766.51 5497.89 69.57 15.00  61.42 2532.42
   12:14:28.320.20-May-2020 4766.51 5488.11 69.57 15.00  61.62 2532.42
   12:14:28.520.20-May-2020 4766.51 5489.28 69.57 15.00  61.82 2532.42
   12:14:28.721.20-May-2020 4766.51 5487.53 69.57 15.00  62.02 2532.42
   12:14:28.921.20-May-2020 4766.51 5488.83 69.57 15.00  62.22 2532.42
   12:14:29.121.20-May-2020 4766.51 5501.68 69.57 15.00  62.42 2532.42
   12:14:29.321.20-May-2020 4766.51 5489.75 69.57 15.00  62.62 2532.42
   12:14:29.521.20-May-2020 4766.51 5489.12 69.57 15.00  62.82 2532.42
   12:14:29.721.20-May-2020 4766.51 5499.59 69.57 15.00  63.02 2532.42
   12:14:29.921.20-May-2020 4766.51 5499.59 69.57 15.00  63.22 2532.42
   12:14:30.121.20-May-2020 4766.51 5492.22 69.57 15.00  63.42 2532.42
   12:14:30.321.20-May-2020 4766.51 5490.08 69.56 15.00  63.62 2532.42
   12:14:30.521.20-May-2020 4766.51 5490.58 69.56 15.00  63.82 2532.42
   12:14:30.721.20-May-2020 4766.51 5491.28 69.56 15.00  64.02 2532.42
   12:14:30.921.20-May-2020 4766.51 5491.28 69.56 15.00  64.22 2532.42
   12:14:31.121.20-May-2020 4766.51 5489.36 69.56 15.00  64.42 2532.42
   12:14:31.321.20-May-2020 4766.51 5488.99 69.56 15.00  64.62 2532.42
   12:14:31.521.20-May-2020 4766.51 5488.42 69.56 15.00  64.82 2532.42
   12:14:31.722.20-May-2020 4766.51 5499.43 69.56 15.00  65.02 2532.42
   12:14:31.922.20-May-2020 4766.51 5499.43 69.56 15.00  65.22 2532.42
   12:14:32.122.20-May-2020 4766.51 5487.85 69.56 15.00  65.42 2532.42
   12:14:32.322.20-May-2020 4766.51 5487.81 69.56 15.00  65.62 2532.42
   12:14:32.522.20-May-2020 4766.51 5487.92 69.56 15.00  65.82 2532.42
   12:14:32.722.20-May-2020 4766.51 5489.84 69.56 15.00  66.02 2532.42
   12:14:32.922.20-May-2020 4766.51 5488.18 69.56 15.00  66.22 2532.42
   12:14:33.122.20-May-2020 4766.51 5487.34 69.56 15.00  66.42 2532.42
   12:14:33.322.20-May-2020 4766.51 5487.38 69.56 15.00  66.62 2532.42
   12:14:33.522.20-May-2020 4766.51 5487.47 69.56 15.00  66.82 2532.42
   12:14:33.722.20-May-2020 4766.51 5487.59 69.56 15.00  67.02 2532.42
   12:14:33.922.20-May-2020 4766.51 5494.32 69.56 15.00  67.22 2532.42
   12:14:34.122.20-May-2020 4766.51 5493.78 69.56 15.00  67.42 2532.42
   12:14:34.322.20-May-2020 4766.51 5489.52 69.56 15.00  67.62 2532.42
