~Version Information
 VERS.                  2.0:   CWLS log ASCII Standard -VERSION 2.0
 WRAP.                   NO:   One line per depth step
~Well Information Block
#MNEM.UNIT     VALUE/NAME     DESCRIPTION
#---------     -----------    ---------------------------
 STRT.S             17:25:16 17-May-20: START TIME 17:25:16 17-May-20
 STOP.S             17:32:20 17-May-20: STOP TIME  17:32:20 17-May-20
 STEP.S                   0.00: STEP TIME
 NULL.                 -999.25: NULL VALUE
 UNIT.                     N/A:  LOGGING EQUIPMENT ID
 DCON.         Sperry Drilling:  DIRECTNL CONTR
 DOE .                     N/A:  DOE NUMBER
 JOBN.        AZ-XX-0906252240:  JOB TICKET NUMB
 MWDS.                     N/A:  MWD SHOP
 PROV.                    Baku:  PROVINCE
 STAT.                    Baku:  STATE NAME
 REGN.                   EESSA:  REGION
 BASE.              Azerbaijan:  LOGGING EQUIPMENT BASE LOCATION
 UWI .                     N/A:  UNIQUE WELL IDENTIFIER
 API .                     N/A:  API NUMBER
 MDS .        Operator Entered:  MAG DATA SOURCE
 WTYP.                Deviated:  WELL TYPE
 COMP.     BP Exploration (Caspian Sea) Ltd.:  COMPANY
 SRVC.          Turan Drilling:  CONTRACTOR
 WELL.           J23 (Slot 07):  WELL NAME
 CTRY.              Azerbaijan:  COUNTRY NAME
 FLD .                     ACG:  FIELD NAME
 PDAT.          Mean Sea Level:  PERMANENT DATUM
 RIG .             West Chirag:  RIG NAME
 SON .        AZ-XX-0906252240:  JOB NUMBER
 FTOP.          Formation Tops:  FORM TOPS DESC
 ILTD.               Lithology:  INTERP LTH DESC
 SVYD.                  Survey:  SURVEY DESC
 DMOD.             Drill Model:  DRILL MOD DESC
 HPTY.       Minimum Curvature:  HOLE POS TYPE
 NREF.                    Grid:  NORTH REFERENCE
 SPUD.               27-Aug-20:  SPUD DATE
 DATE.      00.00.00 19-May-20:  END TIME
 STIM.      03.00.00 25-Mar-20:  START TIME
 DMF .             Drill Floor:  DRILL MEAS FROM
 DFST.                        :  DIST FSL TEXT
 DFWT.                        :  DIST FWL TEXT
 CNTY.                        :  COUNTY
 LOC .                        :  LOCATION
 LMF .             Drill Floor:  LOG MEASURED FROM
 VSNS.m                   9.43:  VERT SEC N/S
 VSEW.m                  -8.91:  VERT SEC E/W
 AGAP.m                  43.00:  AIR GAP
 DEP .m                 354.17:  DEPTH
 APD .m                  43.00:  DEPTH ABOVE PD
 WDMS.m                 169.80:  WD ELEV
 EGL .m                   0.00:  GROUND ELEVATION
 EPD .m                   0.00:  ELEVATION
 AZTC.deg                 6.31:  AZM TOTAL CORR
 GRDC.deg                 0.14:  GRID CORRECTION
 MDEC.deg                 6.45:  MAGNETIC DECL
 MDIP.deg                59.56:  MAGNETIC DIP
 MFLD.nT              50295.00:  MAGNETIC FIELD
 GVFD.g                   1.00:  GRAVITY FIELD
 VSDR.deg               179.88:  VERT SEC DIRECT
 TDD .m                5150.01:  TOTAL DEPTH (DRILLER)
 SDEP.m                 864.00:  START DEPTH
 DFSL.m                   0.00:  DISTANCE FSL
 DFWL.m                   0.00:  DISTANCE FWL
 UTMY.m             4443793.85:  UTM Y
 UTMX.m              519005.06:  UTM X
 WHEW.m                  -8.91:  WELL HEAD E/W
 WHNS.m                   9.43:  WELL HEAD N/S
 LONG.deg                51.22:  LONGITUDE
 LATI.deg                40.13:  LATITUDE
 TVDS.m                  43.00:  TVDSS CORRECTN
 EKB .m                   0.00:  KB ELEVATION
 EDF .m                  43.00:  DF ELEVATION
 TDL .m                 363.00:  TOTAL DEPTH (LOGGER)
 MAGU.                 1850802:  MAGUTM CHECKSUM
 VSC .                       0:  VS TO CLOSURE
~Parameter Information Block
#MNEM.UNIT       Value        Description
#---------     -----------    ---------------------------
 AV  .mps                 2.30:  Ann Velocity 
 AVMX.mps                 4.40:  Max Ann Veloc 
 AZIF.deg               110.24:  Azm, Final 
 BHAT.        Rotary Steerable:  BHA Type 
 BREV.rev               331.00:  Rev Bit Total 
 BROT.°/30m               0.00:  Build Rotating 
 BS  .in                  8.50:  Bit Size 
 BSZ .in                  8.50:  Bit Size 
 BTPL.psig              585.00:  Bit Press Loss 
 CABU.                     Yes:  Customer Abuse 
 COMM.                     |n\:  Run Comments 1 
 TCS .hr                122.75:  Time Ciculation Ended 
 CV  .mps                 2.67:  Crit Velocity 
 CVMX.mps                 3.56:  Max Crit Veloc 
 DD1 .          Rashad Habibov:  Direct Drillr 1 
 DD2 .         Rasim Ibrahimov:  Direct Drillr 2 
 DDSV.               Geo-Pilot:  DD Service 
 DEFF.%                  98.00:  % Det Eff 
 DLRX.°/30m               0.75:  Dogleg Rot Max 
 DLSO.°/30m               1.25:  Dogleg Oriented 
 DLSX.°/30m               2.06:  Dogleg Str Max 
 DRET.      07.45.00 17-May-20:  Drill End Time 
 DRST.      22.50.00 15-May-20:  Drill Start Tim 
 DTIM.hr                 20.75:  Time Drilling 
 EDEP.m                5124.01:  End Depth 
 ENG1.           Eldar Hajiyev:  Engineer 1 
 ENG2.        Marcelo Sandoval:  Engineer 2 
 ENG3.        Davud huseynzada:  Engineer 3 
 ENG4.          Ruslan Safarov:  Engineer 4 
 ETIM.      04.33.00 23-May-20:  End Time 
 FLOI.gpm               450.00:  Flow In 
 FLON.gpm               400.00:  Flow In Min 
 FLOS.cptm                0.00:  Fluid Loss 
 FLOX.gpm               500.00:  Flow In Max 
 FTRO.       Formation Presure:  FTWD Run Obj 
 HFLO.                      No:  High Flow 
 HPRE.                     Yes:  High Pressure 
 HTEM.                      No:  High Temp 
 HYDO.m                   1.80:  Hydro Offset 
 IFIN.deg                75.06:  Inc, Final 
 IMAX.deg                75.38:  Inc Max 
 IMIN.deg                74.69:  Inc Min 
 IMND.m                5027.38:  Inc Min Depth 
 IMXD.m                4771.61:  Inc Max Depth 
 JARR.                      No:  Jarring 
 LETM.      07.45.00 17-May-20:  Log End Time 
 LOST.hr                     0:  Lost Rig Time 
 LSTM.      22.50.00 15-May-20:  Log Start Time 
 MDCL.ppm             42000.00:  Mud Chlorides 
 MDES.     Inversion Oil/Synthetic:  Mud Desc 
 DFD .sg                  1.34:  Mud Density 
 MDMN.sg                  1.34:  Dens Mud Min 
 MDMX.sg                  1.34:  Dens Mud Max 
 MOIL.                       0:  Run Mud Oil % 
 MOWR.                   67:33:  Run Mud OWR 
 MSND.                       0:  Run Mud Sand % 
 MSOL.                     1.8:  Run Mud Solids% 
 DFV .spqt               76.00:  Mud Viscosity 
 MWOD.in                  6.75:  MWD Tool OD 
 MWSI.                      No:  Serv Intrp, MWD 
 OTIM.hr                228.19:  Time Operating 
 PCON.           Look Like New:  Pad Condition 
 PMAX.psia             6164.70:  Press Op, Max 
 PV  .cP                 28.00:  Mud PV 
 RUN .                     900:  Run Number 
 ROPA.m/hr               19.00:  ROP Avg 
 ROPN.m/hr               11.00:  ROP Min 
 ROPX.m/hr               36.00:  ROP Max 
 RPMA.rpm               120.00:  RPM Surface Avg 
 RPMN.rpm               120.00:  RPM Surface Min 
 RPMX.rpm               120.00:  RPM Surface Max 
 RRUN.                    L604:  Rig Run Number 
 RTIM.hr                  7.00:  Time Reaming 
 SAZI.deg               109.27:  Azm, Start 
 SDEP.m                4761.01:  Start Depth 
 SIDD.                      No:  Serv Intrp, DD 
 SINC.deg                75.38:  Inc, Start 
 SPPA.psig             3574.00:  SPP Avg 
 SPPN.psig             3475.00:  SPP Min 
 SPPX.psig             3791.00:  SPP Max 
 STIM.      07.08.48 13-May-20:  Start Time 
 SVCS.                 DD, MWD:  Services 
 SVER.                    9.20:  Sperry Version 
 TDAT.m                 363.00:  Tot Depth Attmp 
 TDDF.                      No:  Trip for DD 
 TDLG.m                 363.00:  Tot Depth Loggd 
 TFF .                      No:  Trip for Fail 
 TQAA.f-kp               20.00:  Torque Abs Avg 
 TQAN.f-kp               18.00:  Torque Abs Min 
 TQAX.f-kp               22.00:  Torque Abs Max 
 TRRT.°/30m              -0.35:  Turn Rotating 
 MRT .                    HCIM:  Maximum Recorded Temperature 
 TTMX.degC               92.16:  Max Tool Temp 
 VS01.                90586518:  Virtual Str1 SN 
 VS02.        AZ90560654Z1W1C6:  Virtual Str2 SN 
 VS03.           AZ90610398F11:  Virtual Str3 SN 
 VS04.                90514975:  Virtual Str4 SN 
 VS05.                90514972:  Virtual Str5 SN 
 VS06.     AZ90603282F11V7D1A6:  Virtual Str6 SN 
 WBMN.klb                 7.00:  WOB Min 
 WOBA.klb                12.00:  WOB Avg 
 WOBX.klb                14.00:  WOB Max 
 YP  .lhf2               32.00:  Yield Point 
~Curve Information Block
#MNEM.UNIT                 API CODE     Curve Description
#---------               -----------    ---------------------------
 TIME.HHMMSS            00 000 000 000:  GT Time & Date
 GTDEPTH.m              00 000 000 000:  GT Depth
 GTPQH.psia             00 000 000 000:  GT HR Quartz Pressure
 GTTQ.degC              00 000 000 000:  GT Quartz Temperature
 GTTN.NONE              00 000 000 000:  GT Test Number
 GTET.sec               00 000 000 000:  GT Elapsed Test Time
 GTTVD.m                00 000 000 000:  GT True Vertical Depth
#Other Information
#
#WARRANTY: Halliburton will use its best efforts to furnish customers with 
#accurate information and interpretations that are part of, and incident to, the services 
#provided.  However, Halliburton cannot and does not warrant the accuracy 
#or correctness of such information and interpretations.  Under no circumstances should any 
#such information or interpretation be relied upon as the sole basis for any drilling, 
#completion, production, or financial decision or any procedure involving any risk to the 
#safety of any drilling venture, drilling rig or its crew or any other third party.  The 
#Customer has full responsibility for all drilling, completion and production operation.  
#Halliburton makes no representations or warranties, either expressed or 
#implied, including, but not limited to, the implied warranties of merchantability or fitness 
#for a particular purpose, with respect to the services rendered.  In no event will 
#Halliburton be liable for failure to obtain any particular results or for 
#any damages, including, but not limited to, indirect, special or consequential damages, 
#resulting from the use of any information or interpretation provided by Halliburton.
#
~A           TIME           GTDEPTH  GTPQH  GTTQ  GTTN  GTET   GTTVD  
# ...
   17:31:47.684.17-May-2020 5032.01 5582.46 70.48 3.00 391.37 2600.96
   17:31:47.885.17-May-2020 5032.01 5582.46 70.48 3.00 391.57 2600.96
   17:31:48.085.17-May-2020 5032.01 5582.82 70.48 3.00 391.77 2600.96
   17:31:48.285.17-May-2020 5032.01 5582.36 70.48 3.00 391.97 2600.96
   17:31:48.485.17-May-2020 5032.01 5580.84 70.48 3.00 392.17 2600.96
   17:31:48.685.17-May-2020 5032.01 5581.23 70.47 3.00 392.37 2600.96
   17:31:48.886.17-May-2020 5032.01 5581.39 70.47 3.00 392.57 2600.96
   17:31:49.086.17-May-2020 5032.01 5580.95 70.47 3.00 392.77 2600.96
   17:31:49.286.17-May-2020 5032.01 5596.07 70.47 3.00 392.97 2600.96
   17:31:49.486.17-May-2020 5032.01 5587.34 70.47 3.00 393.17 2600.96
   17:31:49.686.17-May-2020 5032.01 5583.06 70.47 3.00 393.37 2600.96
   17:31:49.887.17-May-2020 5032.01 5583.06 70.47 3.00 393.57 2600.96
   17:31:50.087.17-May-2020 5032.01 5588.74 70.47 3.00 393.77 2600.96
   17:31:50.287.17-May-2020 5032.01 5591.17 70.47 3.00 393.97 2600.96
   17:31:50.487.17-May-2020 5032.01 5591.92 70.47 3.00 394.17 2600.96
   17:31:50.687.17-May-2020 5032.01 5579.66 70.47 3.00 394.37 2600.96
   17:31:50.887.17-May-2020 5032.01 5579.66 70.47 3.00 394.57 2600.96
   17:31:51.088.17-May-2020 5032.01 5601.05 70.47 3.00 394.77 2600.96
   17:31:51.288.17-May-2020 5032.01 5588.63 70.47 3.00 394.97 2600.96
   17:31:51.488.17-May-2020 5032.01 5584.24 70.47 3.00 395.17 2600.96
   17:31:51.688.17-May-2020 5032.01 5583.88 70.47 3.00 395.37 2600.96
   17:31:51.888.17-May-2020 5032.01 5583.88 70.47 3.00 395.57 2600.96
   17:31:52.089.17-May-2020 5032.01 5599.91 70.47 3.00 395.77 2600.96
   17:31:52.289.17-May-2020 5032.01 5590.51 70.47 3.00 395.97 2600.96
   17:31:52.489.17-May-2020 5032.01 5583.21 70.47 3.00 396.17 2600.96
   17:31:52.689.17-May-2020 5032.01 5583.58 70.47 3.00 396.37 2600.96
   17:31:52.889.17-May-2020 5032.01 5584.29 70.47 3.00 396.57 2600.96
   17:31:53.090.17-May-2020 5032.01 5584.45 70.47 3.00 396.77 2600.96
   17:31:53.290.17-May-2020 5032.01 5583.57 70.47 3.00 396.97 2600.96
   17:31:53.490.17-May-2020 5032.01 5581.53 70.46 3.00 397.17 2600.96
   17:31:53.690.17-May-2020 5032.01 5582.01 70.46 3.00 397.37 2600.96
   17:31:53.890.17-May-2020 5032.01 5582.01 70.46 3.00 397.57 2600.96
   17:31:54.090.17-May-2020 5032.01 5595.44 70.46 3.00 397.77 2600.96
   17:31:54.291.17-May-2020 5032.01 5584.14 70.46 3.00 397.97 2600.96
   17:31:54.491.17-May-2020 5032.01 5583.71 70.46 3.00 398.17 2600.96
   17:31:54.691.17-May-2020 5032.01 5579.92 70.46 3.00 398.37 2600.96
   17:31:54.891.17-May-2020 5032.01 5579.92 70.46 3.00 398.57 2600.96
   17:31:55.091.17-May-2020 5032.01 5585.73 70.46 3.00 398.77 2600.96
   17:31:55.292.17-May-2020 5032.01 5583.67 70.46 3.00 398.97 2600.96
   17:31:55.492.17-May-2020 5032.01 5581.33 70.46 3.00 399.17 2600.96
   17:31:55.692.17-May-2020 5032.01 5581.59 70.46 3.00 399.37 2600.96
   17:31:55.892.17-May-2020 5032.01 5581.59 70.46 3.00 399.57 2600.96
   17:31:56.092.17-May-2020 5032.01 5581.05 70.46 3.00 399.77 2600.96
   17:31:56.293.17-May-2020 5032.01 5589.45 70.46 3.00 399.97 2600.96
   17:31:56.493.17-May-2020 5032.01 5586.44 70.46 3.00 400.17 2600.96
   17:31:56.693.17-May-2020 5032.01 5589.31 70.46 3.00 400.37 2600.96
   17:31:56.893.17-May-2020 5032.01 5580.41 70.46 3.00 400.57 2600.96
   17:31:57.093.17-May-2020 5032.01 5581.91 70.46 3.00 400.77 2600.96
   17:31:57.293.17-May-2020 5032.01 5600.88 70.46 3.00 400.98 2600.96
   17:31:57.494.17-May-2020 5032.01 5587.06 70.46 3.00 401.18 2600.96
   17:31:57.694.17-May-2020 5032.01 5582.55 70.46 3.00 401.38 2600.96
   17:31:57.894.17-May-2020 5032.01 5582.55 70.46 3.00 401.58 2600.96
   17:31:58.094.17-May-2020 5032.01 5586.48 70.46 3.00 401.78 2600.96
   17:31:58.294.17-May-2020 5032.01 5592.92 70.46 3.00 401.98 2600.96
   17:31:58.495.17-May-2020 5032.01 5592.36 70.46 3.00 402.18 2600.96
   17:31:58.695.17-May-2020 5032.01 5580.07 70.46 3.00 402.38 2600.96
   17:31:58.895.17-May-2020 5032.01 5580.07 70.46 3.00 402.58 2600.96
   17:31:59.095.17-May-2020 5032.01 5600.65 70.45 3.00 402.78 2600.96
   17:31:59.295.17-May-2020 5032.01 5590.15 70.45 3.00 402.98 2600.96
   17:31:59.496.17-May-2020 5032.01 5583.01 70.45 3.00 403.18 2600.96
   17:31:59.696.17-May-2020 5032.01 5583.62 70.45 3.00 403.38 2600.96
   17:31:59.896.17-May-2020 5032.01 5583.62 70.45 3.00 403.58 2600.96
   17:32:00.096.17-May-2020 5032.01 5584.72 70.45 3.00 403.78 2600.96
   17:32:00.296.17-May-2020 5032.01 5582.75 70.45 3.00 403.98 2600.96
   17:32:00.496.17-May-2020 5032.01 5580.47 70.45 3.00 404.18 2600.96
   17:32:00.697.17-May-2020 5032.01 5581.68 70.45 3.00 404.38 2600.96
   17:32:00.897.17-May-2020 5032.01 5581.68 70.45 3.00 404.58 2600.96
   17:32:01.097.17-May-2020 5032.01 5596.46 70.45 3.00 404.78 2600.96
   17:32:01.297.17-May-2020 5032.01 5583.67 70.45 3.00 404.98 2600.96
   17:32:01.497.17-May-2020 5032.01 5582.06 70.45 3.00 405.18 2600.96
   17:32:01.698.17-May-2020 5032.01 5579.88 70.45 3.00 405.38 2600.96
   17:32:01.898.17-May-2020 5032.01 5579.88 70.45 3.00 405.58 2600.96
   17:32:02.098.17-May-2020 5032.01 5585.12 70.45 3.00 405.78 2600.96
   17:32:02.298.17-May-2020 5032.01 5582.32 70.45 3.00 405.98 2600.96
   17:32:02.498.17-May-2020 5032.01 5580.11 70.45 3.00 406.18 2600.96
   17:32:02.699.17-May-2020 5032.01 5580.53 70.45 3.00 406.38 2600.96
   17:32:02.899.17-May-2020 5032.01 5580.53 70.45 3.00 406.58 2600.96
   17:32:03.099.17-May-2020 5032.01 5580.82 70.45 3.00 406.78 2600.96
   17:32:03.299.17-May-2020 5032.01 5589.75 70.45 3.00 406.98 2600.96
   17:32:03.499.17-May-2020 5032.01 5584.90 70.45 3.00 407.18 2600.96
   17:32:03.699.17-May-2020 5032.01 5588.22 70.45 3.00 407.38 2600.96
   17:32:03.900.17-May-2020 5032.01 5588.22 70.45 3.00 407.58 2600.96
   17:32:04.100.17-May-2020 5032.01 5581.96 70.45 3.00 407.78 2600.96
   17:32:04.300.17-May-2020 5032.01 5598.71 70.45 3.00 407.98 2600.96
   17:32:04.500.17-May-2020 5032.01 5590.12 70.45 3.00 408.18 2600.96
   17:32:04.700.17-May-2020 5032.01 5581.49 70.44 3.00 408.38 2600.96
   17:32:04.901.17-May-2020 5032.01 5581.49 70.44 3.00 408.58 2600.96
   17:32:05.101.17-May-2020 5032.01 5589.13 70.44 3.00 408.78 2600.96
   17:32:05.301.17-May-2020 5032.01 5591.40 70.44 3.00 408.98 2600.96
   17:32:05.501.17-May-2020 5032.01 5591.97 70.44 3.00 409.18 2600.96
   17:32:05.701.17-May-2020 5032.01 5579.23 70.44 3.00 409.38 2600.96
   17:32:05.902.17-May-2020 5032.01 5579.23 70.44 3.00 409.58 2600.96
   17:32:06.102.17-May-2020 5032.01 5588.11 70.44 3.00 409.78 2600.96
   17:32:06.302.17-May-2020 5032.01 5595.42 70.44 3.00 409.98 2600.96
   17:32:06.502.17-May-2020 5032.01 5591.62 70.44 3.00 410.18 2600.96
   17:32:06.702.17-May-2020 5032.01 5581.60 70.44 3.00 410.38 2600.96
   17:32:06.902.17-May-2020 5032.01 5581.60 70.44 3.00 410.58 2600.96
   17:32:07.103.17-May-2020 5032.01 5585.81 70.44 3.00 410.78 2600.96
   17:32:07.303.17-May-2020 5032.01 5583.56 70.44 3.00 410.98 2600.96
   17:32:07.503.17-May-2020 5032.01 5582.51 70.44 3.00 411.18 2600.96
   17:32:07.703.17-May-2020 5032.01 5581.37 70.44 3.00 411.38 2600.96
   17:32:07.903.17-May-2020 5032.01 5581.37 70.44 3.00 411.58 2600.96
   17:32:08.104.17-May-2020 5032.01 5581.73 70.44 3.00 411.79 2600.96
   17:32:08.304.17-May-2020 5032.01 5594.22 70.44 3.00 411.99 2600.96
   17:32:08.504.17-May-2020 5032.01 5586.14 70.44 3.00 412.19 2600.96
   17:32:08.704.17-May-2020 5032.01 5580.96 70.44 3.00 412.39 2600.96
   17:32:08.904.17-May-2020 5032.01 5581.16 70.44 3.00 412.59 2600.96
   17:32:09.105.17-May-2020 5032.01 5581.54 70.44 3.00 412.79 2600.96
   17:32:09.305.17-May-2020 5032.01 5583.17 70.44 3.00 412.99 2600.96
   17:32:09.505.17-May-2020 5032.01 5581.90 70.44 3.00 413.19 2600.96
   17:32:09.705.17-May-2020 5032.01 5579.86 70.44 3.00 413.39 2600.96
   17:32:09.905.17-May-2020 5032.01 5579.86 70.44 3.00 413.59 2600.96
   17:32:10.105.17-May-2020 5032.01 5580.61 70.44 3.00 413.79 2600.96
   17:32:10.306.17-May-2020 5032.01 5579.78 70.44 3.00 413.99 2600.96
   17:32:10.506.17-May-2020 5032.01 5593.61 70.44 3.00 414.19 2600.96
