~Version Information
 VERS.                  2.0:   CWLS log ASCII Standard -VERSION 2.0
 WRAP.                   NO:   One line per depth step
~Well Information Block
#MNEM.UNIT     VALUE/NAME     DESCRIPTION
#---------     -----------    ---------------------------
 STRT.S             12:13:26 20-May-20: START TIME 12:13:26 20-May-20
 STOP.S             12:20:31 20-May-20: STOP TIME  12:20:31 20-May-20
 STEP.S                   0.00: STEP TIME
 NULL.                 -999.25: NULL VALUE
 UNIT.                     N/A:  LOGGING EQUIPMENT ID
 DCON.         Sperry Drilling:  DIRECTNL CONTR
 DOE .                     N/A:  DOE NUMBER
 JOBN.        AZ-XX-0906252240:  JOB TICKET NUMB
 MWDS.                     N/A:  MWD SHOP
 PROV.                    Baku:  PROVINCE
 STAT.                    Baku:  STATE NAME
 REGN.                   EESSA:  REGION
 BASE.              Azerbaijan:  LOGGING EQUIPMENT BASE LOCATION
 UWI .                     N/A:  UNIQUE WELL IDENTIFIER
 API .                     N/A:  API NUMBER
 MDS .        Operator Entered:  MAG DATA SOURCE
 WTYP.                Deviated:  WELL TYPE
 COMP.     BP Exploration (Caspian Sea) Ltd.:  COMPANY
 SRVC.          Turan Drilling:  CONTRACTOR
 WELL.           J23 (Slot 07):  WELL NAME
 CTRY.              Azerbaijan:  COUNTRY NAME
 FLD .                     ACG:  FIELD NAME
 PDAT.          Mean Sea Level:  PERMANENT DATUM
 RIG .             West Chirag:  RIG NAME
 SON .        AZ-XX-0906252240:  JOB NUMBER
 FTOP.          Formation Tops:  FORM TOPS DESC
 ILTD.               Lithology:  INTERP LTH DESC
 SVYD.                  Survey:  SURVEY DESC
 DMOD.             Drill Model:  DRILL MOD DESC
 HPTY.       Minimum Curvature:  HOLE POS TYPE
 NREF.                    Grid:  NORTH REFERENCE
 SPUD.               27-Aug-20:  SPUD DATE
 DATE.      00.00.00 19-May-20:  END TIME
 STIM.      03.00.00 25-Mar-20:  START TIME
 DMF .             Drill Floor:  DRILL MEAS FROM
 DFST.                        :  DIST FSL TEXT
 DFWT.                        :  DIST FWL TEXT
 CNTY.                        :  COUNTY
 LOC .                        :  LOCATION
 LMF .             Drill Floor:  LOG MEASURED FROM
 VSNS.m                   9.43:  VERT SEC N/S
 VSEW.m                  -8.91:  VERT SEC E/W
 AGAP.m                  43.00:  AIR GAP
 DEP .m                 354.17:  DEPTH
 APD .m                  43.00:  DEPTH ABOVE PD
 WDMS.m                 169.80:  WD ELEV
 EGL .m                   0.00:  GROUND ELEVATION
 EPD .m                   0.00:  ELEVATION
 AZTC.deg                 6.31:  AZM TOTAL CORR
 GRDC.deg                 0.14:  GRID CORRECTION
 MDEC.deg                 6.45:  MAGNETIC DECL
 MDIP.deg                59.56:  MAGNETIC DIP
 MFLD.nT              50295.00:  MAGNETIC FIELD
 GVFD.g                   1.00:  GRAVITY FIELD
 VSDR.deg               179.88:  VERT SEC DIRECT
 TDD .m                5150.01:  TOTAL DEPTH (DRILLER)
 SDEP.m                 864.00:  START DEPTH
 DFSL.m                   0.00:  DISTANCE FSL
 DFWL.m                   0.00:  DISTANCE FWL
 UTMY.m             4443793.85:  UTM Y
 UTMX.m              519005.06:  UTM X
 WHEW.m                  -8.91:  WELL HEAD E/W
 WHNS.m                   9.43:  WELL HEAD N/S
 LONG.deg                51.22:  LONGITUDE
 LATI.deg                40.13:  LATITUDE
 TVDS.m                  43.00:  TVDSS CORRECTN
 EKB .m                   0.00:  KB ELEVATION
 EDF .m                  43.00:  DF ELEVATION
 TDL .m                 363.00:  TOTAL DEPTH (LOGGER)
 MAGU.                 1850802:  MAGUTM CHECKSUM
 VSC .                       0:  VS TO CLOSURE
~Parameter Information Block
#MNEM.UNIT       Value        Description
#---------     -----------    ---------------------------
 AV  .mps                 2.30:  Ann Velocity 
 AVMX.mps                 4.40:  Max Ann Veloc 
 AZIF.deg               110.24:  Azm, Final 
 BHAT.        Rotary Steerable:  BHA Type 
 BREV.rev               331.00:  Rev Bit Total 
 BROT.°/30m               0.00:  Build Rotating 
 BS  .in                  8.50:  Bit Size 
 BSZ .in                  8.50:  Bit Size 
 BTPL.psig              585.00:  Bit Press Loss 
 CABU.                     Yes:  Customer Abuse 
 COMM.                     моЊ:  Run Comments 1 
 TCS .hr                122.75:  Time Ciculation Ended 
 CV  .mps                 2.67:  Crit Velocity 
 CVMX.mps                 3.56:  Max Crit Veloc 
 DD1 .          Rashad Habibov:  Direct Drillr 1 
 DD2 .         Rasim Ibrahimov:  Direct Drillr 2 
 DDSV.               Geo-Pilot:  DD Service 
 DEFF.%                  98.00:  % Det Eff 
 DLRX.°/30m               0.75:  Dogleg Rot Max 
 DLSO.°/30m               1.25:  Dogleg Oriented 
 DLSX.°/30m               2.06:  Dogleg Str Max 
 DRET.      07.45.00 17-May-20:  Drill End Time 
 DRST.      22.50.00 15-May-20:  Drill Start Tim 
 DTIM.hr                 20.75:  Time Drilling 
 EDEP.m                5124.01:  End Depth 
 ENG1.           Eldar Hajiyev:  Engineer 1 
 ENG2.        Marcelo Sandoval:  Engineer 2 
 ENG3.        Davud huseynzada:  Engineer 3 
 ENG4.          Ruslan Safarov:  Engineer 4 
 ETIM.      04.33.00 23-May-20:  End Time 
 FLOI.gpm               450.00:  Flow In 
 FLON.gpm               400.00:  Flow In Min 
 FLOS.cptm                0.00:  Fluid Loss 
 FLOX.gpm               500.00:  Flow In Max 
 FTRO.       Formation Presure:  FTWD Run Obj 
 HFLO.                      No:  High Flow 
 HPRE.                     Yes:  High Pressure 
 HTEM.                      No:  High Temp 
 HYDO.m                   1.80:  Hydro Offset 
 IFIN.deg                75.06:  Inc, Final 
 IMAX.deg                75.38:  Inc Max 
 IMIN.deg                74.69:  Inc Min 
 IMND.m                5027.38:  Inc Min Depth 
 IMXD.m                4771.61:  Inc Max Depth 
 JARR.                      No:  Jarring 
 LETM.      07.45.00 17-May-20:  Log End Time 
 LOST.hr                     0:  Lost Rig Time 
 LSTM.      22.50.00 15-May-20:  Log Start Time 
 MDCL.ppm             42000.00:  Mud Chlorides 
 MDES.     Inversion Oil/Synthetic:  Mud Desc 
 DFD .sg                  1.34:  Mud Density 
 MDMN.sg                  1.34:  Dens Mud Min 
 MDMX.sg                  1.34:  Dens Mud Max 
 MOIL.                       0:  Run Mud Oil % 
 MOWR.                   67:33:  Run Mud OWR 
 MSND.                       0:  Run Mud Sand % 
 MSOL.                     1.8:  Run Mud Solids% 
 DFV .spqt               76.00:  Mud Viscosity 
 MWOD.in                  6.75:  MWD Tool OD 
 MWSI.                      No:  Serv Intrp, MWD 
 OTIM.hr                228.19:  Time Operating 
 PCON.           Look Like New:  Pad Condition 
 PMAX.psia             6164.70:  Press Op, Max 
 PV  .cP                 28.00:  Mud PV 
 RUN .                     900:  Run Number 
 ROPA.m/hr               19.00:  ROP Avg 
 ROPN.m/hr               11.00:  ROP Min 
 ROPX.m/hr               36.00:  ROP Max 
 RPMA.rpm               120.00:  RPM Surface Avg 
 RPMN.rpm               120.00:  RPM Surface Min 
 RPMX.rpm               120.00:  RPM Surface Max 
 RRUN.                    L604:  Rig Run Number 
 RTIM.hr                  7.00:  Time Reaming 
 SAZI.deg               109.27:  Azm, Start 
 SDEP.m                4761.01:  Start Depth 
 SIDD.                      No:  Serv Intrp, DD 
 SINC.deg                75.38:  Inc, Start 
 SPPA.psig             3574.00:  SPP Avg 
 SPPN.psig             3475.00:  SPP Min 
 SPPX.psig             3791.00:  SPP Max 
 STIM.      07.08.48 13-May-20:  Start Time 
 SVCS.                 DD, MWD:  Services 
 SVER.                    9.20:  Sperry Version 
 TDAT.m                 363.00:  Tot Depth Attmp 
 TDDF.                      No:  Trip for DD 
 TDLG.m                 363.00:  Tot Depth Loggd 
 TFF .                      No:  Trip for Fail 
 TQAA.f-kp               20.00:  Torque Abs Avg 
 TQAN.f-kp               18.00:  Torque Abs Min 
 TQAX.f-kp               22.00:  Torque Abs Max 
 TRRT.°/30m              -0.35:  Turn Rotating 
 MRT .                    HCIM:  Maximum Recorded Temperature 
 TTMX.degC               92.16:  Max Tool Temp 
 VS01.                90586518:  Virtual Str1 SN 
 VS02.        AZ90560654Z1W1C6:  Virtual Str2 SN 
 VS03.           AZ90610398F11:  Virtual Str3 SN 
 VS04.                90514975:  Virtual Str4 SN 
 VS05.                90514972:  Virtual Str5 SN 
 VS06.     AZ90603282F11V7D1A6:  Virtual Str6 SN 
 WBMN.klb                 7.00:  WOB Min 
 WOBA.klb                12.00:  WOB Avg 
 WOBX.klb                14.00:  WOB Max 
 YP  .lhf2               32.00:  Yield Point 
~Curve Information Block
#MNEM.UNIT                 API CODE     Curve Description
#---------               -----------    ---------------------------
 TIME.HHMMSS            00 000 000 000:  GT Time & Date
 GTDEPTH.m              00 000 000 000:  GT Depth
 GTPQH.psia             00 000 000 000:  GT HR Quartz Pressure
 GTTQ.degC              00 000 000 000:  GT Quartz Temperature
 GTTN.NONE              00 000 000 000:  GT Test Number
 GTET.sec               00 000 000 000:  GT Elapsed Test Time
 GTTVD.m                00 000 000 000:  GT True Vertical Depth
#Other Information
#
#WARRANTY: Halliburton will use its best efforts to furnish customers with 
#accurate information and interpretations that are part of, and incident to, the services 
#provided.  However, Halliburton cannot and does not warrant the accuracy 
#or correctness of such information and interpretations.  Under no circumstances should any 
#such information or interpretation be relied upon as the sole basis for any drilling, 
#completion, production, or financial decision or any procedure involving any risk to the 
#safety of any drilling venture, drilling rig or its crew or any other third party.  The 
#Customer has full responsibility for all drilling, completion and production operation.  
#Halliburton makes no representations or warranties, either expressed or 
#implied, including, but not limited to, the implied warranties of merchantability or fitness 
#for a particular purpose, with respect to the services rendered.  In no event will 
#Halliburton be liable for failure to obtain any particular results or for 
#any damages, including, but not limited to, indirect, special or consequential damages, 
#resulting from the use of any information or interpretation provided by Halliburton.
#
~A           TIME           GTDEPTH  GTPQH  GTTQ  GTTN   GTET   GTTVD  
# ...
   12:16:27.559.20-May-2020 4766.51 5486.03 69.35 15.00 180.86 2532.42
   12:16:27.759.20-May-2020 4766.51 5485.88 69.35 15.00 181.06 2532.42
   12:16:27.959.20-May-2020 4766.51 5487.60 69.35 15.00 181.26 2532.42
   12:16:28.159.20-May-2020 4766.51 5495.25 69.35 15.00 181.46 2532.42
   12:16:28.359.20-May-2020 4766.51 5485.70 69.35 15.00 181.66 2532.42
   12:16:28.559.20-May-2020 4766.51 5485.86 69.35 15.00 181.86 2532.42
   12:16:28.759.20-May-2020 4766.51 5485.04 69.35 15.00 182.06 2532.42
   12:16:28.959.20-May-2020 4766.51 5485.04 69.35 15.00 182.26 2532.42
   12:16:29.159.20-May-2020 4766.51 5486.58 69.35 15.00 182.46 2532.42
   12:16:29.359.20-May-2020 4766.51 5485.56 69.35 15.00 182.66 2532.42
   12:16:29.559.20-May-2020 4766.51 5485.84 69.35 15.00 182.86 2532.42
   12:16:29.759.20-May-2020 4766.51 5485.99 69.35 15.00 183.06 2532.42
   12:16:29.959.20-May-2020 4766.51 5485.99 69.35 15.00 183.26 2532.42
   12:16:30.159.20-May-2020 4766.51 5484.77 69.35 15.00 183.46 2532.42
   12:16:30.359.20-May-2020 4766.51 5497.45 69.35 15.00 183.66 2532.42
   12:16:30.560.20-May-2020 4766.51 5485.38 69.35 15.00 183.86 2532.42
   12:16:30.760.20-May-2020 4766.51 5485.44 69.35 15.00 184.06 2532.42
   12:16:30.960.20-May-2020 4766.51 5485.44 69.35 15.00 184.26 2532.42
   12:16:31.160.20-May-2020 4766.51 5499.05 69.35 15.00 184.46 2532.42
   12:16:31.360.20-May-2020 4766.51 5488.47 69.35 15.00 184.66 2532.42
   12:16:31.560.20-May-2020 4766.51 5486.81 69.35 15.00 184.86 2532.42
   12:16:31.760.20-May-2020 4766.51 5485.96 69.35 15.00 185.06 2532.42
   12:16:31.960.20-May-2020 4766.51 5485.96 69.35 15.00 185.26 2532.42
   12:16:32.160.20-May-2020 4766.51 5495.41 69.35 15.00 185.46 2532.42
   12:16:32.360.20-May-2020 4766.51 5487.34 69.35 15.00 185.66 2532.42
   12:16:32.560.20-May-2020 4766.51 5486.71 69.35 15.00 185.86 2532.42
   12:16:32.760.20-May-2020 4766.51 5486.24 69.35 15.00 186.06 2532.42
   12:16:32.960.20-May-2020 4766.51 5486.24 69.34 15.00 186.26 2532.42
   12:16:33.160.20-May-2020 4766.51 5487.82 69.34 15.00 186.46 2532.42
   12:16:33.360.20-May-2020 4766.51 5486.95 69.34 15.00 186.66 2532.42
   12:16:33.560.20-May-2020 4766.51 5486.77 69.34 15.00 186.86 2532.42
   12:16:33.761.20-May-2020 4766.51 5487.39 69.34 15.00 187.06 2532.42
   12:16:33.961.20-May-2020 4766.51 5488.30 69.34 15.00 187.26 2532.42
   12:16:34.161.20-May-2020 4766.51 5486.29 69.34 15.00 187.46 2532.42
   12:16:34.361.20-May-2020 4766.51 5485.65 69.34 15.00 187.66 2532.42
   12:16:34.561.20-May-2020 4766.51 5485.96 69.34 15.00 187.86 2532.42
   12:16:34.761.20-May-2020 4766.51 5485.43 69.34 15.00 188.06 2532.42
   12:16:34.961.20-May-2020 4766.51 5485.43 69.34 15.00 188.26 2532.42
   12:16:35.161.20-May-2020 4766.51 5486.29 69.34 15.00 188.46 2532.42
   12:16:35.361.20-May-2020 4766.51 5485.33 69.34 15.00 188.66 2532.42
   12:16:35.561.20-May-2020 4766.51 5485.25 69.34 15.00 188.86 2532.42
   12:16:35.761.20-May-2020 4766.51 5485.22 69.34 15.00 189.06 2532.42
   12:16:35.961.20-May-2020 4766.51 5485.22 69.34 15.00 189.26 2532.42
   12:16:36.161.20-May-2020 4766.51 5485.84 69.34 15.00 189.46 2532.42
   12:16:36.361.20-May-2020 4766.51 5485.42 69.34 15.00 189.66 2532.42
   12:16:36.561.20-May-2020 4766.51 5485.84 69.34 15.00 189.86 2532.42
   12:16:36.761.20-May-2020 4766.51 5485.56 69.34 15.00 190.06 2532.42
   12:16:36.962.20-May-2020 4766.51 5485.56 69.34 15.00 190.26 2532.42
   12:16:37.162.20-May-2020 4766.51 5491.49 69.34 15.00 190.46 2532.42
   12:16:37.362.20-May-2020 4766.51 5490.43 69.34 15.00 190.66 2532.42
   12:16:37.562.20-May-2020 4766.51 5485.50 69.34 15.00 190.86 2532.42
   12:16:37.762.20-May-2020 4766.51 5485.39 69.34 15.00 191.06 2532.42
   12:16:37.962.20-May-2020 4766.51 5494.30 69.34 15.00 191.26 2532.42
   12:16:38.162.20-May-2020 4766.51 5492.38 69.34 15.00 191.46 2532.42
   12:16:38.362.20-May-2020 4766.51 5487.19 69.34 15.00 191.66 2532.42
   12:16:38.562.20-May-2020 4766.51 5486.04 69.34 15.00 191.86 2532.42
   12:16:38.762.20-May-2020 4766.51 5486.09 69.34 15.00 192.06 2532.42
   12:16:38.962.20-May-2020 4766.51 5486.09 69.34 15.00 192.26 2532.42
   12:16:39.162.20-May-2020 4766.51 5487.51 69.33 15.00 192.46 2532.42
   12:16:39.362.20-May-2020 4766.51 5486.48 69.33 15.00 192.66 2532.42
   12:16:39.562.20-May-2020 4766.51 5486.57 69.33 15.00 192.86 2532.42
   12:16:39.762.20-May-2020 4766.51 5488.30 69.33 15.00 193.06 2532.42
   12:16:39.963.20-May-2020 4766.51 5488.30 69.33 15.00 193.26 2532.42
   12:16:40.163.20-May-2020 4766.51 5487.14 69.33 15.00 193.46 2532.42
   12:16:40.363.20-May-2020 4766.51 5486.76 69.33 15.00 193.66 2532.42
   12:16:40.563.20-May-2020 4766.51 5486.42 69.33 15.00 193.86 2532.42
   12:16:40.763.20-May-2020 4766.51 5487.77 69.33 15.00 194.06 2532.42
   12:16:40.963.20-May-2020 4766.51 5487.77 69.33 15.00 194.26 2532.42
   12:16:41.163.20-May-2020 4766.51 5486.30 69.33 15.00 194.46 2532.42
   12:16:41.363.20-May-2020 4766.51 5485.93 69.33 15.00 194.66 2532.42
   12:16:41.563.20-May-2020 4766.51 5485.89 69.33 15.00 194.86 2532.42
   12:16:41.763.20-May-2020 4766.51 5485.04 69.33 15.00 195.06 2532.42
   12:16:41.963.20-May-2020 4766.51 5497.22 69.33 15.00 195.26 2532.42
   12:16:42.163.20-May-2020 4766.51 5485.56 69.33 15.00 195.46 2532.42
   12:16:42.363.20-May-2020 4766.51 5485.61 69.33 15.00 195.66 2532.42
   12:16:42.563.20-May-2020 4766.51 5485.30 69.33 15.00 195.86 2532.42
   12:16:42.763.20-May-2020 4766.51 5486.01 69.33 15.00 196.06 2532.42
   12:16:42.963.20-May-2020 4766.51 5486.01 69.33 15.00 196.26 2532.42
   12:16:43.164.20-May-2020 4766.51 5485.97 69.33 15.00 196.46 2532.42
   12:16:43.364.20-May-2020 4766.51 5485.65 69.33 15.00 196.66 2532.42
   12:16:43.564.20-May-2020 4766.51 5485.89 69.33 15.00 196.86 2532.42
   12:16:43.764.20-May-2020 4766.51 5485.08 69.33 15.00 197.06 2532.42
   12:16:43.964.20-May-2020 4766.51 5485.08 69.33 15.00 197.26 2532.42
   12:16:44.164.20-May-2020 4766.51 5495.42 69.33 15.00 197.46 2532.42
   12:16:44.364.20-May-2020 4766.51 5486.53 69.33 15.00 197.66 2532.42
   12:16:44.564.20-May-2020 4766.51 5485.00 69.33 15.00 197.86 2532.42
   12:16:44.764.20-May-2020 4766.51 5484.92 69.33 15.00 198.06 2532.42
   12:16:44.964.20-May-2020 4766.51 5484.92 69.33 15.00 198.26 2532.42
   12:16:45.164.20-May-2020 4766.51 5489.55 69.32 15.00 198.46 2532.42
   12:16:45.364.20-May-2020 4766.51 5486.72 69.32 15.00 198.66 2532.42
   12:16:45.564.20-May-2020 4766.51 5485.93 69.32 15.00 198.86 2532.42
   12:16:45.764.20-May-2020 4766.51 5487.31 69.32 15.00 199.06 2532.42
   12:16:45.964.20-May-2020 4766.51 5500.85 69.32 15.00 199.26 2532.42
   12:16:46.165.20-May-2020 4766.51 5487.30 69.32 15.00 199.46 2532.42
   12:16:46.365.20-May-2020 4766.51 5486.79 69.32 15.00 199.66 2532.42
   12:16:46.565.20-May-2020 4766.51 5486.52 69.32 15.00 199.86 2532.42
   12:16:46.765.20-May-2020 4766.51 5491.77 69.32 15.00 200.06 2532.42
   12:16:46.965.20-May-2020 4766.51 5491.77 69.32 15.00 200.26 2532.42
   12:16:47.165.20-May-2020 4766.51 5487.33 69.32 15.00 200.46 2532.42
   12:16:47.365.20-May-2020 4766.51 5487.00 69.32 15.00 200.66 2532.42
   12:16:47.565.20-May-2020 4766.51 5486.11 69.32 15.00 200.86 2532.42
   12:16:47.765.20-May-2020 4766.51 5488.11 69.32 15.00 201.06 2532.42
   12:16:47.965.20-May-2020 4766.51 5488.11 69.32 15.00 201.26 2532.42
   12:16:48.165.20-May-2020 4766.51 5485.71 69.32 15.00 201.46 2532.42
   12:16:48.365.20-May-2020 4766.51 5485.59 69.32 15.00 201.66 2532.42
   12:16:48.565.20-May-2020 4766.51 5485.37 69.32 15.00 201.86 2532.42
   12:16:48.765.20-May-2020 4766.51 5485.22 69.32 15.00 202.06 2532.42
   12:16:48.965.20-May-2020 4766.51 5485.22 69.32 15.00 202.26 2532.42
   12:16:49.165.20-May-2020 4766.51 5484.86 69.32 15.00 202.46 2532.42
   12:16:49.366.20-May-2020 4766.51 5485.11 69.32 15.00 202.66 2532.42
   12:16:49.566.20-May-2020 4766.51 5484.53 69.32 15.00 202.86 2532.42
   12:16:49.766.20-May-2020 4766.51 5486.22 69.32 15.00 203.06 2532.42
   12:16:49.966.20-May-2020 4766.51 5486.22 69.32 15.00 203.27 2532.42
