~Version Information
 VERS.                  2.0:   CWLS log ASCII Standard -VERSION 2.0
 WRAP.                   NO:   One line per depth step
~Well Information Block
#MNEM.UNIT     VALUE/NAME     DESCRIPTION
#---------     -----------    ---------------------------
 STRT.S             14:38:44 17-May-20: START TIME 14:38:44 17-May-20
 STOP.S             14:45:36 17-May-20: STOP TIME  14:45:36 17-May-20
 STEP.S                   0.00: STEP TIME
 NULL.                 -999.25: NULL VALUE
 UNIT.                     N/A:  LOGGING EQUIPMENT ID
 DCON.         Sperry Drilling:  DIRECTNL CONTR
 DOE .                     N/A:  DOE NUMBER
 JOBN.        AZ-XX-0906252240:  JOB TICKET NUMB
 MWDS.                     N/A:  MWD SHOP
 PROV.                    Baku:  PROVINCE
 STAT.                    Baku:  STATE NAME
 REGN.                   EESSA:  REGION
 BASE.              Azerbaijan:  LOGGING EQUIPMENT BASE LOCATION
 UWI .                     N/A:  UNIQUE WELL IDENTIFIER
 API .                     N/A:  API NUMBER
 MDS .        Operator Entered:  MAG DATA SOURCE
 WTYP.                Deviated:  WELL TYPE
 COMP.     BP Exploration (Caspian Sea) Ltd.:  COMPANY
 SRVC.          Turan Drilling:  CONTRACTOR
 WELL.           J23 (Slot 07):  WELL NAME
 CTRY.              Azerbaijan:  COUNTRY NAME
 FLD .                     ACG:  FIELD NAME
 PDAT.          Mean Sea Level:  PERMANENT DATUM
 RIG .             West Chirag:  RIG NAME
 SON .        AZ-XX-0906252240:  JOB NUMBER
 FTOP.          Formation Tops:  FORM TOPS DESC
 ILTD.               Lithology:  INTERP LTH DESC
 SVYD.                  Survey:  SURVEY DESC
 DMOD.             Drill Model:  DRILL MOD DESC
 HPTY.       Minimum Curvature:  HOLE POS TYPE
 NREF.                    Grid:  NORTH REFERENCE
 SPUD.               27-Aug-20:  SPUD DATE
 DATE.      00.00.00 19-May-20:  END TIME
 STIM.      03.00.00 25-Mar-20:  START TIME
 DMF .             Drill Floor:  DRILL MEAS FROM
 DFST.                        :  DIST FSL TEXT
 DFWT.                        :  DIST FWL TEXT
 CNTY.                        :  COUNTY
 LOC .                        :  LOCATION
 LMF .             Drill Floor:  LOG MEASURED FROM
 VSNS.m                   9.43:  VERT SEC N/S
 VSEW.m                  -8.91:  VERT SEC E/W
 AGAP.m                  43.00:  AIR GAP
 DEP .m                 354.17:  DEPTH
 APD .m                  43.00:  DEPTH ABOVE PD
 WDMS.m                 169.80:  WD ELEV
 EGL .m                   0.00:  GROUND ELEVATION
 EPD .m                   0.00:  ELEVATION
 AZTC.deg                 6.31:  AZM TOTAL CORR
 GRDC.deg                 0.14:  GRID CORRECTION
 MDEC.deg                 6.45:  MAGNETIC DECL
 MDIP.deg                59.56:  MAGNETIC DIP
 MFLD.nT              50295.00:  MAGNETIC FIELD
 GVFD.g                   1.00:  GRAVITY FIELD
 VSDR.deg               179.88:  VERT SEC DIRECT
 TDD .m                5150.01:  TOTAL DEPTH (DRILLER)
 SDEP.m                 864.00:  START DEPTH
 DFSL.m                   0.00:  DISTANCE FSL
 DFWL.m                   0.00:  DISTANCE FWL
 UTMY.m             4443793.85:  UTM Y
 UTMX.m              519005.06:  UTM X
 WHEW.m                  -8.91:  WELL HEAD E/W
 WHNS.m                   9.43:  WELL HEAD N/S
 LONG.deg                51.22:  LONGITUDE
 LATI.deg                40.13:  LATITUDE
 TVDS.m                  43.00:  TVDSS CORRECTN
 EKB .m                   0.00:  KB ELEVATION
 EDF .m                  43.00:  DF ELEVATION
 TDL .m                 363.00:  TOTAL DEPTH (LOGGER)
 MAGU.                 1850802:  MAGUTM CHECKSUM
 VSC .                       0:  VS TO CLOSURE
~Parameter Information Block
#MNEM.UNIT       Value        Description
#---------     -----------    ---------------------------
 AV  .mps                 2.30:  Ann Velocity 
 AVMX.mps                 4.40:  Max Ann Veloc 
 AZIF.deg               110.24:  Azm, Final 
 BHAT.        Rotary Steerable:  BHA Type 
 BREV.rev               331.00:  Rev Bit Total 
 BROT.°/30m               0.00:  Build Rotating 
 BS  .in                  8.50:  Bit Size 
 BSZ .in                  8.50:  Bit Size 
 BTPL.psig              585.00:  Bit Press Loss 
 CABU.                     Yes:  Customer Abuse 
 COMM.                     ÔF[:  Run Comments 1 
 TCS .hr                122.75:  Time Ciculation Ended 
 CV  .mps                 2.67:  Crit Velocity 
 CVMX.mps                 3.56:  Max Crit Veloc 
 DD1 .          Rashad Habibov:  Direct Drillr 1 
 DD2 .         Rasim Ibrahimov:  Direct Drillr 2 
 DDSV.               Geo-Pilot:  DD Service 
 DEFF.%                  98.00:  % Det Eff 
 DLRX.°/30m               0.75:  Dogleg Rot Max 
 DLSO.°/30m               1.25:  Dogleg Oriented 
 DLSX.°/30m               2.06:  Dogleg Str Max 
 DRET.      07.45.00 17-May-20:  Drill End Time 
 DRST.      22.50.00 15-May-20:  Drill Start Tim 
 DTIM.hr                 20.75:  Time Drilling 
 EDEP.m                5124.01:  End Depth 
 ENG1.           Eldar Hajiyev:  Engineer 1 
 ENG2.        Marcelo Sandoval:  Engineer 2 
 ENG3.        Davud huseynzada:  Engineer 3 
 ENG4.          Ruslan Safarov:  Engineer 4 
 ETIM.      04.33.00 23-May-20:  End Time 
 FLOI.gpm               450.00:  Flow In 
 FLON.gpm               400.00:  Flow In Min 
 FLOS.cptm                0.00:  Fluid Loss 
 FLOX.gpm               500.00:  Flow In Max 
 FTRO.       Formation Presure:  FTWD Run Obj 
 HFLO.                      No:  High Flow 
 HPRE.                     Yes:  High Pressure 
 HTEM.                      No:  High Temp 
 HYDO.m                   1.80:  Hydro Offset 
 IFIN.deg                75.06:  Inc, Final 
 IMAX.deg                75.38:  Inc Max 
 IMIN.deg                74.69:  Inc Min 
 IMND.m                5027.38:  Inc Min Depth 
 IMXD.m                4771.61:  Inc Max Depth 
 JARR.                      No:  Jarring 
 LETM.      07.45.00 17-May-20:  Log End Time 
 LOST.hr                     0:  Lost Rig Time 
 LSTM.      22.50.00 15-May-20:  Log Start Time 
 MDCL.ppm             42000.00:  Mud Chlorides 
 MDES.     Inversion Oil/Synthetic:  Mud Desc 
 DFD .sg                  1.34:  Mud Density 
 MDMN.sg                  1.34:  Dens Mud Min 
 MDMX.sg                  1.34:  Dens Mud Max 
 MOIL.                       0:  Run Mud Oil % 
 MOWR.                   67:33:  Run Mud OWR 
 MSND.                       0:  Run Mud Sand % 
 MSOL.                     1.8:  Run Mud Solids% 
 DFV .spqt               76.00:  Mud Viscosity 
 MWOD.in                  6.75:  MWD Tool OD 
 MWSI.                      No:  Serv Intrp, MWD 
 OTIM.hr                228.19:  Time Operating 
 PCON.           Look Like New:  Pad Condition 
 PMAX.psia             6164.70:  Press Op, Max 
 PV  .cP                 28.00:  Mud PV 
 RUN .                     900:  Run Number 
 ROPA.m/hr               19.00:  ROP Avg 
 ROPN.m/hr               11.00:  ROP Min 
 ROPX.m/hr               36.00:  ROP Max 
 RPMA.rpm               120.00:  RPM Surface Avg 
 RPMN.rpm               120.00:  RPM Surface Min 
 RPMX.rpm               120.00:  RPM Surface Max 
 RRUN.                    L604:  Rig Run Number 
 RTIM.hr                  7.00:  Time Reaming 
 SAZI.deg               109.27:  Azm, Start 
 SDEP.m                4761.01:  Start Depth 
 SIDD.                      No:  Serv Intrp, DD 
 SINC.deg                75.38:  Inc, Start 
 SPPA.psig             3574.00:  SPP Avg 
 SPPN.psig             3475.00:  SPP Min 
 SPPX.psig             3791.00:  SPP Max 
 STIM.      07.08.48 13-May-20:  Start Time 
 SVCS.                 DD, MWD:  Services 
 SVER.                    9.20:  Sperry Version 
 TDAT.m                 363.00:  Tot Depth Attmp 
 TDDF.                      No:  Trip for DD 
 TDLG.m                 363.00:  Tot Depth Loggd 
 TFF .                      No:  Trip for Fail 
 TQAA.f-kp               20.00:  Torque Abs Avg 
 TQAN.f-kp               18.00:  Torque Abs Min 
 TQAX.f-kp               22.00:  Torque Abs Max 
 TRRT.°/30m              -0.35:  Turn Rotating 
 MRT .                    HCIM:  Maximum Recorded Temperature 
 TTMX.degC               92.16:  Max Tool Temp 
 VS01.                90586518:  Virtual Str1 SN 
 VS02.        AZ90560654Z1W1C6:  Virtual Str2 SN 
 VS03.           AZ90610398F11:  Virtual Str3 SN 
 VS04.                90514975:  Virtual Str4 SN 
 VS05.                90514972:  Virtual Str5 SN 
 VS06.     AZ90603282F11V7D1A6:  Virtual Str6 SN 
 WBMN.klb                 7.00:  WOB Min 
 WOBA.klb                12.00:  WOB Avg 
 WOBX.klb                14.00:  WOB Max 
 YP  .lhf2               32.00:  Yield Point 
~Curve Information Block
#MNEM.UNIT                 API CODE     Curve Description
#---------               -----------    ---------------------------
 TIME.HHMMSS            00 000 000 000:  GT Time & Date
 GTDEPTH.m              00 000 000 000:  GT Depth
 GTPQH.psia             00 000 000 000:  GT HR Quartz Pressure
 GTTQ.degC              00 000 000 000:  GT Quartz Temperature
 GTTN.NONE              00 000 000 000:  GT Test Number
 GTET.sec               00 000 000 000:  GT Elapsed Test Time
 GTTVD.m                00 000 000 000:  GT True Vertical Depth
#Other Information
#
#WARRANTY: Halliburton will use its best efforts to furnish customers with 
#accurate information and interpretations that are part of, and incident to, the services 
#provided.  However, Halliburton cannot and does not warrant the accuracy 
#or correctness of such information and interpretations.  Under no circumstances should any 
#such information or interpretation be relied upon as the sole basis for any drilling, 
#completion, production, or financial decision or any procedure involving any risk to the 
#safety of any drilling venture, drilling rig or its crew or any other third party.  The 
#Customer has full responsibility for all drilling, completion and production operation.  
#Halliburton makes no representations or warranties, either expressed or 
#implied, including, but not limited to, the implied warranties of merchantability or fitness 
#for a particular purpose, with respect to the services rendered.  In no event will 
#Halliburton be liable for failure to obtain any particular results or for 
#any damages, including, but not limited to, indirect, special or consequential damages, 
#resulting from the use of any information or interpretation provided by Halliburton.
#
~A           TIME           GTDEPTH  GTPQH  GTTQ  GTTN  GTET   GTTVD  
# ...
   14:39:30.000.17-May-2020 5087.01 2755.90 72.37 1.00  46.00 2615.39
   14:39:30.200.17-May-2020 5087.01 2755.90 72.37 1.00  46.20 2615.39
   14:39:30.400.17-May-2020 5087.01 2760.23 72.37 1.00  46.40 2615.39
   14:39:30.600.17-May-2020 5087.01 2763.21 72.37 1.00  46.60 2615.39
   14:39:30.800.17-May-2020 5087.01 2762.35 72.37 1.00  46.80 2615.39
   14:39:31.000.17-May-2020 5087.01 2762.51 72.37 1.00  47.00 2615.39
   14:39:31.200.17-May-2020 5087.01 2762.51 72.37 1.00  47.20 2615.39
   14:39:31.400.17-May-2020 5087.01 2764.20 72.37 1.00  47.40 2615.39
   14:39:31.600.17-May-2020 5087.01 2763.51 72.37 1.00  47.60 2615.39
   14:39:31.800.17-May-2020 5087.01 2763.62 72.37 1.00  47.80 2615.39
   14:39:32.000.17-May-2020 5087.01 2765.84 72.37 1.00  48.00 2615.39
   14:39:32.200.17-May-2020 5087.01 2765.84 72.37 1.00  48.20 2615.39
   14:39:32.400.17-May-2020 5087.01 2764.11 72.36 1.00  48.40 2615.39
   14:39:32.600.17-May-2020 5087.01 2764.56 72.36 1.00  48.60 2615.39
   14:39:32.800.17-May-2020 5087.01 2765.00 72.36 1.00  48.80 2615.39
   14:39:33.000.17-May-2020 5087.01 2764.75 72.36 1.00  49.00 2615.39
   14:39:33.200.17-May-2020 5087.01 2764.84 72.36 1.00  49.20 2615.39
   14:39:33.400.17-May-2020 5087.01 2765.17 72.36 1.00  49.40 2615.39
   14:39:33.600.17-May-2020 5087.01 2764.98 72.36 1.00  49.60 2615.39
   14:39:33.800.17-May-2020 5087.01 2765.09 72.36 1.00  49.80 2615.39
   14:39:34.000.17-May-2020 5087.01 2765.22 72.36 1.00  50.00 2615.39
   14:39:34.200.17-May-2020 5087.01 2765.22 72.36 1.00  50.20 2615.39
   14:39:34.400.17-May-2020 5087.01 2765.27 72.36 1.00  50.40 2615.39
   14:39:34.600.17-May-2020 5087.01 2765.21 72.36 1.00  50.60 2615.39
   14:39:34.800.17-May-2020 5087.01 2765.67 72.36 1.00  50.80 2615.39
   14:39:35.000.17-May-2020 5087.01 2765.55 72.36 1.00  51.00 2615.39
   14:39:35.200.17-May-2020 5087.01 2765.55 72.36 1.00  51.20 2615.39
   14:39:35.400.17-May-2020 5087.01 2765.66 72.36 1.00  51.40 2615.39
   14:39:35.600.17-May-2020 5087.01 2765.65 72.36 1.00  51.60 2615.39
   14:39:35.800.17-May-2020 5087.01 2765.67 72.36 1.00  51.80 2615.39
   14:39:36.000.17-May-2020 5087.01 2765.49 72.36 1.00  52.00 2615.39
   14:39:36.200.17-May-2020 5087.01 2765.49 72.36 1.00  52.20 2615.39
   14:39:36.400.17-May-2020 5087.01 2765.52 72.36 1.00  52.40 2615.39
   14:39:36.600.17-May-2020 5087.01 2765.35 72.36 1.00  52.60 2615.39
   14:39:36.800.17-May-2020 5087.01 2767.06 72.36 1.00  52.80 2615.39
   14:39:37.000.17-May-2020 5087.01 2766.07 72.36 1.00  53.00 2615.39
   14:39:37.200.17-May-2020 5087.01 2766.07 72.36 1.00  53.20 2615.39
   14:39:37.400.17-May-2020 5087.01 2765.78 72.36 1.00  53.40 2615.39
   14:39:37.600.17-May-2020 5087.01 2767.34 72.36 1.00  53.60 2615.39
   14:39:37.800.17-May-2020 5087.01 2765.69 72.36 1.00  53.80 2615.39
   14:39:38.000.17-May-2020 5087.01 2765.77 72.36 1.00  54.00 2615.39
   14:39:38.200.17-May-2020 5087.01 2765.77 72.36 1.00  54.20 2615.39
   14:39:38.400.17-May-2020 5087.01 2766.26 72.36 1.00  54.40 2615.39
   14:39:38.600.17-May-2020 5087.01 2765.77 72.36 1.00  54.60 2615.39
   14:39:38.800.17-May-2020 5087.01 2766.16 72.36 1.00  54.80 2615.39
   14:39:39.000.17-May-2020 5087.01 2766.35 72.36 1.00  55.00 2615.39
   14:39:39.200.17-May-2020 5087.01 2766.35 72.36 1.00  55.20 2615.39
   14:39:39.400.17-May-2020 5087.01 2766.15 72.36 1.00  55.40 2615.39
   14:39:39.600.17-May-2020 5087.01 2766.20 72.36 1.00  55.60 2615.39
   14:39:39.800.17-May-2020 5087.01 2766.26 72.36 1.00  55.80 2615.39
   14:39:40.000.17-May-2020 5087.01 2766.20 72.36 1.00  56.00 2615.39
   14:39:40.200.17-May-2020 5087.01 2766.20 72.36 1.00  56.20 2615.39
   14:39:40.400.17-May-2020 5087.01 2767.31 72.36 1.00  56.40 2615.39
   14:39:40.600.17-May-2020 5087.01 2766.10 72.36 1.00  56.60 2615.39
   14:39:40.800.17-May-2020 5087.01 2766.06 72.36 1.00  56.80 2615.39
   14:39:41.000.17-May-2020 5087.01 2766.34 72.36 1.00  57.00 2615.39
   14:39:41.200.17-May-2020 5087.01 2766.34 72.36 1.00  57.20 2615.39
   14:39:41.400.17-May-2020 5087.01 2766.21 72.36 1.00  57.40 2615.39
   14:39:41.600.17-May-2020 5087.01 2766.42 72.36 1.00  57.60 2615.39
   14:39:41.800.17-May-2020 5087.01 2766.35 72.36 1.00  57.80 2615.39
   14:39:42.000.17-May-2020 5087.01 2766.39 72.36 1.00  58.00 2615.39
   14:39:42.200.17-May-2020 5087.01 2766.39 72.36 1.00  58.20 2615.39
   14:39:42.400.17-May-2020 5087.01 2767.45 72.36 1.00  58.40 2615.39
   14:39:42.600.17-May-2020 5087.01 2766.47 72.36 1.00  58.60 2615.39
   14:39:42.800.17-May-2020 5087.01 2766.20 72.36 1.00  58.80 2615.39
   14:39:43.000.17-May-2020 5087.01 2766.48 72.36 1.00  59.00 2615.39
   14:39:43.200.17-May-2020 5087.01 2766.48 72.36 1.00  59.20 2615.39
   14:39:43.400.17-May-2020 5087.01 2766.90 72.36 1.00  59.40 2615.39
   14:39:43.600.17-May-2020 5087.01 2766.36 72.36 1.00  59.60 2615.39
   14:39:43.800.17-May-2020 5087.01 2766.46 72.36 1.00  59.80 2615.39
   14:39:44.000.17-May-2020 5087.01 2766.66 72.36 1.00  60.00 2615.39
   14:39:44.200.17-May-2020 5087.01 2766.66 72.36 1.00  60.20 2615.39
   14:39:44.400.17-May-2020 5087.01 2766.34 72.36 1.00  60.40 2615.39
   14:39:44.600.17-May-2020 5087.01 2766.53 72.36 1.00  60.60 2615.39
   14:39:44.800.17-May-2020 5087.01 2766.39 72.36 1.00  60.80 2615.39
   14:39:45.000.17-May-2020 5087.01 2767.50 72.36 1.00  61.00 2615.39
   14:39:45.200.17-May-2020 5087.01 2767.50 72.36 1.00  61.20 2615.39
   14:39:45.400.17-May-2020 5087.01 2766.38 72.36 1.00  61.40 2615.39
   14:39:45.600.17-May-2020 5087.01 2766.57 72.36 1.00  61.60 2615.39
   14:39:45.800.17-May-2020 5087.01 2766.95 72.36 1.00  61.80 2615.39
   14:39:46.000.17-May-2020 5087.01 2766.66 72.36 1.00  62.00 2615.39
   14:39:46.200.17-May-2020 5087.01 2766.66 72.36 1.00  62.20 2615.39
   14:39:46.400.17-May-2020 5087.01 2766.63 72.36 1.00  62.40 2615.39
   14:39:46.600.17-May-2020 5087.01 2766.77 72.36 1.00  62.60 2615.39
   14:39:46.800.17-May-2020 5087.01 2766.63 72.36 1.00  62.80 2615.39
   14:39:47.000.17-May-2020 5087.01 2766.38 72.36 1.00  63.00 2615.39
   14:39:47.200.17-May-2020 5087.01 2766.38 72.36 1.00  63.20 2615.39
   14:39:47.400.17-May-2020 5087.01 2766.44 72.36 1.00  63.40 2615.39
   14:39:47.600.17-May-2020 5087.01 2766.57 72.36 1.00  63.60 2615.39
   14:39:47.800.17-May-2020 5087.01 2766.71 72.36 1.00  63.80 2615.39
   14:39:48.000.17-May-2020 5087.01 2766.98 72.36 1.00  64.00 2615.39
   14:39:48.200.17-May-2020 5087.01 2766.60 72.36 1.00  64.20 2615.39
   14:39:48.400.17-May-2020 5087.01 2766.66 72.36 1.00  64.40 2615.39
   14:39:48.600.17-May-2020 5087.01 2766.89 72.36 1.00  64.60 2615.39
   14:39:48.800.17-May-2020 5087.01 2766.77 72.36 1.00  64.80 2615.39
   14:39:49.000.17-May-2020 5087.01 2766.57 72.36 1.00  65.00 2615.39
   14:39:49.200.17-May-2020 5087.01 2767.54 72.36 1.00  65.20 2615.39
   14:39:49.400.17-May-2020 5087.01 2766.65 72.36 1.00  65.40 2615.39
   14:39:49.600.17-May-2020 5087.01 2766.65 72.36 1.00  65.60 2615.39
   14:39:49.800.17-May-2020 5087.01 2766.80 72.36 1.00  65.80 2615.39
   14:39:50.000.17-May-2020 5087.01 2767.08 72.36 1.00  66.00 2615.39
   14:39:50.200.17-May-2020 5087.01 2767.08 72.36 1.00  66.20 2615.39
   14:39:50.400.17-May-2020 5087.01 2766.50 72.36 1.00  66.40 2615.39
   14:39:50.600.17-May-2020 5087.01 2766.68 72.36 1.00  66.60 2615.39
   14:39:50.800.17-May-2020 5087.01 2767.00 72.36 1.00  66.80 2615.39
   14:39:51.000.17-May-2020 5087.01 2767.78 72.36 1.00  67.00 2615.39
   14:39:51.200.17-May-2020 5087.01 2767.78 72.36 1.00  67.20 2615.39
   14:39:51.400.17-May-2020 5087.01 2766.70 72.36 1.00  67.40 2615.39
   14:39:51.600.17-May-2020 5087.01 2767.37 72.36 1.00  67.60 2615.39
   14:39:51.800.17-May-2020 5087.01 2767.37 72.36 1.00  67.80 2615.39
   14:39:52.000.17-May-2020 5087.01 2766.74 72.36 1.00  68.00 2615.39
   14:39:52.200.17-May-2020 5087.01 2766.74 72.36 1.00  68.20 2615.39
   14:39:52.400.17-May-2020 5087.01 2767.14 72.36 1.00  68.40 2615.39
   14:39:52.600.17-May-2020 5087.01 2766.93 72.36 1.00  68.60 2615.39
   14:39:52.800.17-May-2020 5087.01 2766.79 72.36 1.00  68.80 2615.39
