~Version Information
 VERS.                  2.0:   CWLS log ASCII Standard -VERSION 2.0
 WRAP.                   NO:   One line per depth step
~Well Information Block
#MNEM.UNIT     VALUE/NAME     DESCRIPTION
#---------     -----------    ---------------------------
 STRT.S             00:24:31 18-May-20: START TIME 00:24:31 18-May-20
 STOP.S             00:32:03 18-May-20: STOP TIME  00:32:03 18-May-20
 STEP.S                   0.00: STEP TIME
 NULL.                 -999.25: NULL VALUE
 UNIT.                     N/A:  LOGGING EQUIPMENT ID
 DCON.         Sperry Drilling:  DIRECTNL CONTR
 DOE .                     N/A:  DOE NUMBER
 JOBN.        AZ-XX-0906252240:  JOB TICKET NUMB
 MWDS.                     N/A:  MWD SHOP
 PROV.                    Baku:  PROVINCE
 STAT.                    Baku:  STATE NAME
 REGN.                   EESSA:  REGION
 BASE.              Azerbaijan:  LOGGING EQUIPMENT BASE LOCATION
 UWI .                     N/A:  UNIQUE WELL IDENTIFIER
 API .                     N/A:  API NUMBER
 MDS .        Operator Entered:  MAG DATA SOURCE
 WTYP.                Deviated:  WELL TYPE
 COMP.     BP Exploration (Caspian Sea) Ltd.:  COMPANY
 SRVC.          Turan Drilling:  CONTRACTOR
 WELL.           J23 (Slot 07):  WELL NAME
 CTRY.              Azerbaijan:  COUNTRY NAME
 FLD .                     ACG:  FIELD NAME
 PDAT.          Mean Sea Level:  PERMANENT DATUM
 RIG .             West Chirag:  RIG NAME
 SON .        AZ-XX-0906252240:  JOB NUMBER
 FTOP.          Formation Tops:  FORM TOPS DESC
 ILTD.               Lithology:  INTERP LTH DESC
 SVYD.                  Survey:  SURVEY DESC
 DMOD.             Drill Model:  DRILL MOD DESC
 HPTY.       Minimum Curvature:  HOLE POS TYPE
 NREF.                    Grid:  NORTH REFERENCE
 SPUD.               27-Aug-20:  SPUD DATE
 DATE.      00.00.00 19-May-20:  END TIME
 STIM.      03.00.00 25-Mar-20:  START TIME
 DMF .             Drill Floor:  DRILL MEAS FROM
 DFST.                        :  DIST FSL TEXT
 DFWT.                        :  DIST FWL TEXT
 CNTY.                        :  COUNTY
 LOC .                        :  LOCATION
 LMF .             Drill Floor:  LOG MEASURED FROM
 VSNS.m                   9.43:  VERT SEC N/S
 VSEW.m                  -8.91:  VERT SEC E/W
 AGAP.m                  43.00:  AIR GAP
 DEP .m                 354.17:  DEPTH
 APD .m                  43.00:  DEPTH ABOVE PD
 WDMS.m                 169.80:  WD ELEV
 EGL .m                   0.00:  GROUND ELEVATION
 EPD .m                   0.00:  ELEVATION
 AZTC.deg                 6.31:  AZM TOTAL CORR
 GRDC.deg                 0.14:  GRID CORRECTION
 MDEC.deg                 6.45:  MAGNETIC DECL
 MDIP.deg                59.56:  MAGNETIC DIP
 MFLD.nT              50295.00:  MAGNETIC FIELD
 GVFD.g                   1.00:  GRAVITY FIELD
 VSDR.deg               179.88:  VERT SEC DIRECT
 TDD .m                5150.01:  TOTAL DEPTH (DRILLER)
 SDEP.m                 864.00:  START DEPTH
 DFSL.m                   0.00:  DISTANCE FSL
 DFWL.m                   0.00:  DISTANCE FWL
 UTMY.m             4443793.85:  UTM Y
 UTMX.m              519005.06:  UTM X
 WHEW.m                  -8.91:  WELL HEAD E/W
 WHNS.m                   9.43:  WELL HEAD N/S
 LONG.deg                51.22:  LONGITUDE
 LATI.deg                40.13:  LATITUDE
 TVDS.m                  43.00:  TVDSS CORRECTN
 EKB .m                   0.00:  KB ELEVATION
 EDF .m                  43.00:  DF ELEVATION
 TDL .m                 363.00:  TOTAL DEPTH (LOGGER)
 MAGU.                 1850802:  MAGUTM CHECKSUM
 VSC .                       0:  VS TO CLOSURE
~Parameter Information Block
#MNEM.UNIT       Value        Description
#---------     -----------    ---------------------------
 AV  .mps                 2.30:  Ann Velocity 
 AVMX.mps                 4.40:  Max Ann Veloc 
 AZIF.deg               110.24:  Azm, Final 
 BHAT.        Rotary Steerable:  BHA Type 
 BREV.rev               331.00:  Rev Bit Total 
 BROT.°/30m               0.00:  Build Rotating 
 BS  .in                  8.50:  Bit Size 
 BSZ .in                  8.50:  Bit Size 
 BTPL.psig              585.00:  Bit Press Loss 
 CABU.                     Yes:  Customer Abuse 
 COMM.                     ô®q:  Run Comments 1 
 TCS .hr                122.75:  Time Ciculation Ended 
 CV  .mps                 2.67:  Crit Velocity 
 CVMX.mps                 3.56:  Max Crit Veloc 
 DD1 .          Rashad Habibov:  Direct Drillr 1 
 DD2 .         Rasim Ibrahimov:  Direct Drillr 2 
 DDSV.               Geo-Pilot:  DD Service 
 DEFF.%                  98.00:  % Det Eff 
 DLRX.°/30m               0.75:  Dogleg Rot Max 
 DLSO.°/30m               1.25:  Dogleg Oriented 
 DLSX.°/30m               2.06:  Dogleg Str Max 
 DRET.      07.45.00 17-May-20:  Drill End Time 
 DRST.      22.50.00 15-May-20:  Drill Start Tim 
 DTIM.hr                 20.75:  Time Drilling 
 EDEP.m                5124.01:  End Depth 
 ENG1.           Eldar Hajiyev:  Engineer 1 
 ENG2.        Marcelo Sandoval:  Engineer 2 
 ENG3.        Davud huseynzada:  Engineer 3 
 ENG4.          Ruslan Safarov:  Engineer 4 
 ETIM.      04.33.00 23-May-20:  End Time 
 FLOI.gpm               450.00:  Flow In 
 FLON.gpm               400.00:  Flow In Min 
 FLOS.cptm                0.00:  Fluid Loss 
 FLOX.gpm               500.00:  Flow In Max 
 FTRO.       Formation Presure:  FTWD Run Obj 
 HFLO.                      No:  High Flow 
 HPRE.                     Yes:  High Pressure 
 HTEM.                      No:  High Temp 
 HYDO.m                   1.80:  Hydro Offset 
 IFIN.deg                75.06:  Inc, Final 
 IMAX.deg                75.38:  Inc Max 
 IMIN.deg                74.69:  Inc Min 
 IMND.m                5027.38:  Inc Min Depth 
 IMXD.m                4771.61:  Inc Max Depth 
 JARR.                      No:  Jarring 
 LETM.      07.45.00 17-May-20:  Log End Time 
 LOST.hr                     0:  Lost Rig Time 
 LSTM.      22.50.00 15-May-20:  Log Start Time 
 MDCL.ppm             42000.00:  Mud Chlorides 
 MDES.     Inversion Oil/Synthetic:  Mud Desc 
 DFD .sg                  1.34:  Mud Density 
 MDMN.sg                  1.34:  Dens Mud Min 
 MDMX.sg                  1.34:  Dens Mud Max 
 MOIL.                       0:  Run Mud Oil % 
 MOWR.                   67:33:  Run Mud OWR 
 MSND.                       0:  Run Mud Sand % 
 MSOL.                     1.8:  Run Mud Solids% 
 DFV .spqt               76.00:  Mud Viscosity 
 MWOD.in                  6.75:  MWD Tool OD 
 MWSI.                      No:  Serv Intrp, MWD 
 OTIM.hr                228.19:  Time Operating 
 PCON.           Look Like New:  Pad Condition 
 PMAX.psia             6164.70:  Press Op, Max 
 PV  .cP                 28.00:  Mud PV 
 RUN .                     900:  Run Number 
 ROPA.m/hr               19.00:  ROP Avg 
 ROPN.m/hr               11.00:  ROP Min 
 ROPX.m/hr               36.00:  ROP Max 
 RPMA.rpm               120.00:  RPM Surface Avg 
 RPMN.rpm               120.00:  RPM Surface Min 
 RPMX.rpm               120.00:  RPM Surface Max 
 RRUN.                    L604:  Rig Run Number 
 RTIM.hr                  7.00:  Time Reaming 
 SAZI.deg               109.27:  Azm, Start 
 SDEP.m                4761.01:  Start Depth 
 SIDD.                      No:  Serv Intrp, DD 
 SINC.deg                75.38:  Inc, Start 
 SPPA.psig             3574.00:  SPP Avg 
 SPPN.psig             3475.00:  SPP Min 
 SPPX.psig             3791.00:  SPP Max 
 STIM.      07.08.48 13-May-20:  Start Time 
 SVCS.                 DD, MWD:  Services 
 SVER.                    9.20:  Sperry Version 
 TDAT.m                 363.00:  Tot Depth Attmp 
 TDDF.                      No:  Trip for DD 
 TDLG.m                 363.00:  Tot Depth Loggd 
 TFF .                      No:  Trip for Fail 
 TQAA.f-kp               20.00:  Torque Abs Avg 
 TQAN.f-kp               18.00:  Torque Abs Min 
 TQAX.f-kp               22.00:  Torque Abs Max 
 TRRT.°/30m              -0.35:  Turn Rotating 
 MRT .                    HCIM:  Maximum Recorded Temperature 
 TTMX.degC               92.16:  Max Tool Temp 
 VS01.                90586518:  Virtual Str1 SN 
 VS02.        AZ90560654Z1W1C6:  Virtual Str2 SN 
 VS03.           AZ90610398F11:  Virtual Str3 SN 
 VS04.                90514975:  Virtual Str4 SN 
 VS05.                90514972:  Virtual Str5 SN 
 VS06.     AZ90603282F11V7D1A6:  Virtual Str6 SN 
 WBMN.klb                 7.00:  WOB Min 
 WOBA.klb                12.00:  WOB Avg 
 WOBX.klb                14.00:  WOB Max 
 YP  .lhf2               32.00:  Yield Point 
~Curve Information Block
#MNEM.UNIT                 API CODE     Curve Description
#---------               -----------    ---------------------------
 TIME.HHMMSS            00 000 000 000:  GT Time & Date
 GTDEPTH.m              00 000 000 000:  GT Depth
 GTPQH.psia             00 000 000 000:  GT HR Quartz Pressure
 GTTQ.degC              00 000 000 000:  GT Quartz Temperature
 GTTN.NONE              00 000 000 000:  GT Test Number
 GTET.sec               00 000 000 000:  GT Elapsed Test Time
 GTTVD.m                00 000 000 000:  GT True Vertical Depth
#Other Information
#
#WARRANTY: Halliburton will use its best efforts to furnish customers with 
#accurate information and interpretations that are part of, and incident to, the services 
#provided.  However, Halliburton cannot and does not warrant the accuracy 
#or correctness of such information and interpretations.  Under no circumstances should any 
#such information or interpretation be relied upon as the sole basis for any drilling, 
#completion, production, or financial decision or any procedure involving any risk to the 
#safety of any drilling venture, drilling rig or its crew or any other third party.  The 
#Customer has full responsibility for all drilling, completion and production operation.  
#Halliburton makes no representations or warranties, either expressed or 
#implied, including, but not limited to, the implied warranties of merchantability or fitness 
#for a particular purpose, with respect to the services rendered.  In no event will 
#Halliburton be liable for failure to obtain any particular results or for 
#any damages, including, but not limited to, indirect, special or consequential damages, 
#resulting from the use of any information or interpretation provided by Halliburton.
#
~A           TIME           GTDEPTH  GTPQH  GTTQ  GTTN   GTET   GTTVD  
# ...
   00:25:39.140.18-May-2020 4886.01 4655.73 66.42 10.00  67.83 2563.39
   00:25:39.340.18-May-2020 4886.01 4646.37 66.42 10.00  68.03 2563.39
   00:25:39.540.18-May-2020 4886.01 4646.37 66.42 10.00  68.23 2563.39
   00:25:39.740.18-May-2020 4886.01 5171.46 66.41 10.00  68.43 2563.39
   00:25:39.940.18-May-2020 4886.01 5222.74 66.42 10.00  68.63 2563.39
   00:25:40.140.18-May-2020 4886.01 5239.91 66.41 10.00  68.83 2563.39
   00:25:40.340.18-May-2020 4886.01 5249.17 66.41 10.00  69.03 2563.39
   00:25:40.540.18-May-2020 4886.01 5249.17 66.41 10.00  69.23 2563.39
   00:25:40.740.18-May-2020 4886.01 5264.93 66.41 10.00  69.43 2563.39
   00:25:40.940.18-May-2020 4886.01 5236.93 66.41 10.00  69.63 2563.39
   00:25:41.140.18-May-2020 4886.01 5238.95 66.41 10.00  69.83 2563.39
   00:25:41.340.18-May-2020 4886.01 5243.59 66.42 10.00  70.03 2563.39
   00:25:41.540.18-May-2020 4886.01 5243.59 66.42 10.00  70.23 2563.39
   00:25:41.741.18-May-2020 4886.01 5256.25 66.42 10.00  70.43 2563.39
   00:25:41.941.18-May-2020 4886.01 5257.92 66.42 10.00  70.63 2563.39
   00:25:42.141.18-May-2020 4886.01 5259.67 66.42 10.00  70.83 2563.39
   00:25:42.341.18-May-2020 4886.01 5263.27 66.42 10.00  71.03 2563.39
   00:25:42.541.18-May-2020 4886.01 5263.27 66.42 10.00  71.23 2563.39
   00:25:42.741.18-May-2020 4886.01 5272.45 66.42 10.00  71.43 2563.39
   00:25:42.941.18-May-2020 4886.01 5280.93 66.42 10.00  71.63 2563.39
   00:25:43.141.18-May-2020 4886.01 5281.75 66.42 10.00  71.83 2563.39
   00:25:43.341.18-May-2020 4886.01 5280.18 66.42 10.00  72.03 2563.39
   00:25:43.541.18-May-2020 4886.01 5280.18 66.42 10.00  72.23 2563.39
   00:25:43.741.18-May-2020 4886.01 5284.36 66.42 10.00  72.43 2563.39
   00:25:43.941.18-May-2020 4886.01 5284.70 66.42 10.00  72.63 2563.39
   00:25:44.142.18-May-2020 4886.01 5284.46 66.42 10.00  72.83 2563.39
   00:25:44.342.18-May-2020 4886.01 5285.06 66.42 10.00  73.03 2563.39
   00:25:44.542.18-May-2020 4886.01 5285.06 66.42 10.00  73.23 2563.39
   00:25:44.742.18-May-2020 4886.01 5287.04 66.42 10.00  73.43 2563.39
   00:25:44.942.18-May-2020 4886.01 5287.45 66.42 10.00  73.63 2563.39
   00:25:45.142.18-May-2020 4886.01 5287.81 66.42 10.00  73.83 2563.39
   00:25:45.342.18-May-2020 4886.01 5287.66 66.42 10.00  74.03 2563.39
   00:25:45.542.18-May-2020 4886.01 5287.66 66.42 10.00  74.23 2563.39
   00:25:45.742.18-May-2020 4886.01 4858.90 66.42 10.00  74.43 2563.39
   00:25:45.942.18-May-2020 4886.01 3895.86 66.42 10.00  74.63 2563.39
   00:25:46.142.18-May-2020 4886.01 3206.39 66.42 10.00  74.83 2563.39
   00:25:46.342.18-May-2020 4886.01 2770.08 66.42 10.00  75.03 2563.39
   00:25:46.543.18-May-2020 4886.01 2646.52 66.42 10.00  75.23 2563.39
   00:25:46.743.18-May-2020 4886.01 2160.79 66.42 10.00  75.43 2563.39
   00:25:46.943.18-May-2020 4886.01 2007.02 66.42 10.00  75.63 2563.39
   00:25:47.143.18-May-2020 4886.01 2392.11 66.42 10.00  75.83 2563.39
   00:25:47.343.18-May-2020 4886.01 2449.08 66.42 10.00  76.03 2563.39
   00:25:47.543.18-May-2020 4886.01 2449.08 66.42 10.00  76.23 2563.39
   00:25:47.743.18-May-2020 4886.01 3552.66 66.42 10.00  76.43 2563.39
   00:25:47.943.18-May-2020 4886.01 3379.48 66.42 10.00  76.63 2563.39
   00:25:48.143.18-May-2020 4886.01 3178.28 66.42 10.00  76.83 2563.39
   00:25:48.343.18-May-2020 4886.01 3048.61 66.42 10.00  77.03 2563.39
   00:25:48.543.18-May-2020 4886.01 3048.61 66.42 10.00  77.23 2563.39
   00:25:48.743.18-May-2020 4886.01 2838.38 66.41 10.00  77.43 2563.39
   00:25:48.943.18-May-2020 4886.01 2758.30 66.41 10.00  77.63 2563.39
   00:25:49.144.18-May-2020 4886.01 2681.42 66.41 10.00  77.83 2563.39
   00:25:49.344.18-May-2020 4886.01 2612.67 66.41 10.00  78.03 2563.39
   00:25:49.544.18-May-2020 4886.01 2612.67 66.41 10.00  78.23 2563.39
   00:25:49.744.18-May-2020 4886.01 2474.83 66.40 10.00  78.43 2563.39
   00:25:49.944.18-May-2020 4886.01 2404.70 66.40 10.00  78.63 2563.39
   00:25:50.144.18-May-2020 4886.01 2332.97 66.40 10.00  78.83 2563.39
   00:25:50.344.18-May-2020 4886.01 2258.08 66.40 10.00  79.03 2563.39
   00:25:50.544.18-May-2020 4886.01 2258.08 66.40 10.00  79.23 2563.39
   00:25:50.744.18-May-2020 4886.01 2065.34 66.40 10.00  79.43 2563.39
   00:25:50.944.18-May-2020 4886.01 1957.06 66.39 10.00  79.63 2563.39
   00:25:51.144.18-May-2020 4886.01 1970.27 66.39 10.00  79.83 2563.39
   00:25:51.344.18-May-2020 4886.01 1950.98 66.39 10.00  80.03 2563.39
   00:25:51.545.18-May-2020 4886.01 1950.98 66.39 10.00  80.23 2563.39
   00:25:51.745.18-May-2020 4886.01 2286.22 66.39 10.00  80.43 2563.39
   00:25:51.945.18-May-2020 4886.01 2519.67 66.38 10.00  80.63 2563.39
   00:25:52.145.18-May-2020 4886.01 2662.59 66.38 10.00  80.83 2563.39
   00:25:52.345.18-May-2020 4886.01 2904.26 66.38 10.00  81.03 2563.39
   00:25:52.545.18-May-2020 4886.01 2904.26 66.38 10.00  81.23 2563.39
   00:25:52.745.18-May-2020 4886.01 3088.65 66.38 10.00  81.43 2563.39
   00:25:52.945.18-May-2020 4886.01 3093.51 66.38 10.00  81.63 2563.39
   00:25:53.145.18-May-2020 4886.01 3086.33 66.38 10.00  81.83 2563.39
   00:25:53.345.18-May-2020 4886.01 3073.82 66.37 10.00  82.03 2563.39
   00:25:53.545.18-May-2020 4886.01 3073.82 66.37 10.00  82.23 2563.39
   00:25:53.745.18-May-2020 4886.01 3051.57 66.37 10.00  82.43 2563.39
   00:25:53.945.18-May-2020 4886.01 3043.07 66.37 10.00  82.63 2563.39
   00:25:54.146.18-May-2020 4886.01 3033.90 66.37 10.00  82.83 2563.39
   00:25:54.346.18-May-2020 4886.01 3024.44 66.37 10.00  83.03 2563.39
   00:25:54.546.18-May-2020 4886.01 3024.44 66.37 10.00  83.23 2563.39
   00:25:54.746.18-May-2020 4886.01 3024.28 66.37 10.00  83.43 2563.39
   00:25:54.946.18-May-2020 4886.01 3013.54 66.37 10.00  83.63 2563.39
   00:25:55.146.18-May-2020 4886.01 2987.27 66.37 10.00  83.83 2563.39
   00:25:55.346.18-May-2020 4886.01 2976.05 66.37 10.00  84.03 2563.39
   00:25:55.546.18-May-2020 4886.01 2976.05 66.37 10.00  84.23 2563.39
   00:25:55.746.18-May-2020 4886.01 3479.04 66.37 10.00  84.43 2563.39
   00:25:55.946.18-May-2020 4886.01 3607.18 66.37 10.00  84.63 2563.39
   00:25:56.146.18-May-2020 4886.01 3635.45 66.37 10.00  84.83 2563.39
   00:25:56.346.18-May-2020 4886.01 3639.78 66.37 10.00  85.03 2563.39
   00:25:56.547.18-May-2020 4886.01 3639.78 66.37 10.00  85.23 2563.39
   00:25:56.747.18-May-2020 4886.01 3640.76 66.37 10.00  85.43 2563.39
   00:25:56.947.18-May-2020 4886.01 3641.03 66.37 10.00  85.63 2563.39
   00:25:57.147.18-May-2020 4886.01 3641.69 66.37 10.00  85.83 2563.39
   00:25:57.347.18-May-2020 4886.01 3641.48 66.37 10.00  86.03 2563.39
   00:25:57.547.18-May-2020 4886.01 3641.48 66.37 10.00  86.23 2563.39
   00:25:57.747.18-May-2020 4886.01 3642.36 66.37 10.00  86.43 2563.39
   00:25:57.947.18-May-2020 4886.01 3642.43 66.37 10.00  86.63 2563.39
   00:25:58.147.18-May-2020 4886.01 3642.54 66.37 10.00  86.84 2563.39
   00:25:58.347.18-May-2020 4886.01 3642.63 66.37 10.00  87.04 2563.39
   00:25:58.547.18-May-2020 4886.01 3642.63 66.37 10.00  87.24 2563.39
   00:25:58.747.18-May-2020 4886.01 3642.76 66.37 10.00  87.44 2563.39
   00:25:58.948.18-May-2020 4886.01 3642.82 66.37 10.00  87.64 2563.39
   00:25:59.148.18-May-2020 4886.01 3643.00 66.37 10.00  87.84 2563.39
   00:25:59.348.18-May-2020 4886.01 3642.94 66.37 10.00  88.04 2563.39
   00:25:59.548.18-May-2020 4886.01 3642.94 66.37 10.00  88.24 2563.39
   00:25:59.748.18-May-2020 4886.01 3642.79 66.37 10.00  88.44 2563.39
   00:25:59.948.18-May-2020 4886.01 3643.29 66.37 10.00  88.64 2563.39
   00:26:00.148.18-May-2020 4886.01 3643.17 66.38 10.00  88.84 2563.39
   00:26:00.348.18-May-2020 4886.01 3643.28 66.38 10.00  89.04 2563.39
   00:26:00.548.18-May-2020 4886.01 3643.28 66.38 10.00  89.24 2563.39
   00:26:00.748.18-May-2020 4886.01 3643.32 66.38 10.00  89.44 2563.39
   00:26:00.948.18-May-2020 4886.01 3643.34 66.38 10.00  89.64 2563.39
   00:26:01.148.18-May-2020 4886.01 3643.42 66.38 10.00  89.84 2563.39
   00:26:01.348.18-May-2020 4886.01 3643.37 66.38 10.00  90.04 2563.39
   00:26:01.549.18-May-2020 4886.01 3643.37 66.38 10.00  90.24 2563.39
