~Version Information
 VERS.                  2.0:   CWLS log ASCII Standard -VERSION 2.0
 WRAP.                   NO:   One line per depth step
~Well Information Block
#MNEM.UNIT     VALUE/NAME     DESCRIPTION
#---------     -----------    ---------------------------
 STRT.S             23:36:46 17-May-20: START TIME 23:36:46 17-May-20
 STOP.S             23:44:24 17-May-20: STOP TIME  23:44:24 17-May-20
 STEP.S                   0.00: STEP TIME
 NULL.                 -999.25: NULL VALUE
 UNIT.                     N/A:  LOGGING EQUIPMENT ID
 DCON.         Sperry Drilling:  DIRECTNL CONTR
 DOE .                     N/A:  DOE NUMBER
 JOBN.        AZ-XX-0906252240:  JOB TICKET NUMB
 MWDS.                     N/A:  MWD SHOP
 PROV.                    Baku:  PROVINCE
 STAT.                    Baku:  STATE NAME
 REGN.                   EESSA:  REGION
 BASE.              Azerbaijan:  LOGGING EQUIPMENT BASE LOCATION
 UWI .                     N/A:  UNIQUE WELL IDENTIFIER
 API .                     N/A:  API NUMBER
 MDS .        Operator Entered:  MAG DATA SOURCE
 WTYP.                Deviated:  WELL TYPE
 COMP.     BP Exploration (Caspian Sea) Ltd.:  COMPANY
 SRVC.          Turan Drilling:  CONTRACTOR
 WELL.           J23 (Slot 07):  WELL NAME
 CTRY.              Azerbaijan:  COUNTRY NAME
 FLD .                     ACG:  FIELD NAME
 PDAT.          Mean Sea Level:  PERMANENT DATUM
 RIG .             West Chirag:  RIG NAME
 SON .        AZ-XX-0906252240:  JOB NUMBER
 FTOP.          Formation Tops:  FORM TOPS DESC
 ILTD.               Lithology:  INTERP LTH DESC
 SVYD.                  Survey:  SURVEY DESC
 DMOD.             Drill Model:  DRILL MOD DESC
 HPTY.       Minimum Curvature:  HOLE POS TYPE
 NREF.                    Grid:  NORTH REFERENCE
 SPUD.               27-Aug-20:  SPUD DATE
 DATE.      00.00.00 19-May-20:  END TIME
 STIM.      03.00.00 25-Mar-20:  START TIME
 DMF .             Drill Floor:  DRILL MEAS FROM
 DFST.                        :  DIST FSL TEXT
 DFWT.                        :  DIST FWL TEXT
 CNTY.                        :  COUNTY
 LOC .                        :  LOCATION
 LMF .             Drill Floor:  LOG MEASURED FROM
 VSNS.m                   9.43:  VERT SEC N/S
 VSEW.m                  -8.91:  VERT SEC E/W
 AGAP.m                  43.00:  AIR GAP
 DEP .m                 354.17:  DEPTH
 APD .m                  43.00:  DEPTH ABOVE PD
 WDMS.m                 169.80:  WD ELEV
 EGL .m                   0.00:  GROUND ELEVATION
 EPD .m                   0.00:  ELEVATION
 AZTC.deg                 6.31:  AZM TOTAL CORR
 GRDC.deg                 0.14:  GRID CORRECTION
 MDEC.deg                 6.45:  MAGNETIC DECL
 MDIP.deg                59.56:  MAGNETIC DIP
 MFLD.nT              50295.00:  MAGNETIC FIELD
 GVFD.g                   1.00:  GRAVITY FIELD
 VSDR.deg               179.88:  VERT SEC DIRECT
 TDD .m                5150.01:  TOTAL DEPTH (DRILLER)
 SDEP.m                 864.00:  START DEPTH
 DFSL.m                   0.00:  DISTANCE FSL
 DFWL.m                   0.00:  DISTANCE FWL
 UTMY.m             4443793.85:  UTM Y
 UTMX.m              519005.06:  UTM X
 WHEW.m                  -8.91:  WELL HEAD E/W
 WHNS.m                   9.43:  WELL HEAD N/S
 LONG.deg                51.22:  LONGITUDE
 LATI.deg                40.13:  LATITUDE
 TVDS.m                  43.00:  TVDSS CORRECTN
 EKB .m                   0.00:  KB ELEVATION
 EDF .m                  43.00:  DF ELEVATION
 TDL .m                 363.00:  TOTAL DEPTH (LOGGER)
 MAGU.                 1850802:  MAGUTM CHECKSUM
 VSC .                       0:  VS TO CLOSURE
~Parameter Information Block
#MNEM.UNIT       Value        Description
#---------     -----------    ---------------------------
 AV  .mps                 2.30:  Ann Velocity 
 AVMX.mps                 4.40:  Max Ann Veloc 
 AZIF.deg               110.24:  Azm, Final 
 BHAT.        Rotary Steerable:  BHA Type 
 BREV.rev               331.00:  Rev Bit Total 
 BROT.°/30m               0.00:  Build Rotating 
 BS  .in                  8.50:  Bit Size 
 BSZ .in                  8.50:  Bit Size 
 BTPL.psig              585.00:  Bit Press Loss 
 CABU.                     Yes:  Customer Abuse 
 TCS .hr                122.75:  Time Ciculation Ended 
 CV  .mps                 2.67:  Crit Velocity 
 CVMX.mps                 3.56:  Max Crit Veloc 
 DD1 .          Rashad Habibov:  Direct Drillr 1 
 DD2 .         Rasim Ibrahimov:  Direct Drillr 2 
 DDSV.               Geo-Pilot:  DD Service 
 DEFF.%                  98.00:  % Det Eff 
 DLRX.°/30m               0.75:  Dogleg Rot Max 
 DLSO.°/30m               1.25:  Dogleg Oriented 
 DLSX.°/30m               2.06:  Dogleg Str Max 
 DRET.      07.45.00 17-May-20:  Drill End Time 
 DRST.      22.50.00 15-May-20:  Drill Start Tim 
 DTIM.hr                 20.75:  Time Drilling 
 EDEP.m                5124.01:  End Depth 
 ENG1.           Eldar Hajiyev:  Engineer 1 
 ENG2.        Marcelo Sandoval:  Engineer 2 
 ENG3.        Davud huseynzada:  Engineer 3 
 ENG4.          Ruslan Safarov:  Engineer 4 
 ETIM.      04.33.00 23-May-20:  End Time 
 FLOI.gpm               450.00:  Flow In 
 FLON.gpm               400.00:  Flow In Min 
 FLOS.cptm                0.00:  Fluid Loss 
 FLOX.gpm               500.00:  Flow In Max 
 FTRO.       Formation Presure:  FTWD Run Obj 
 HFLO.                      No:  High Flow 
 HPRE.                     Yes:  High Pressure 
 HTEM.                      No:  High Temp 
 HYDO.m                   1.80:  Hydro Offset 
 IFIN.deg                75.06:  Inc, Final 
 IMAX.deg                75.38:  Inc Max 
 IMIN.deg                74.69:  Inc Min 
 IMND.m                5027.38:  Inc Min Depth 
 IMXD.m                4771.61:  Inc Max Depth 
 JARR.                      No:  Jarring 
 LETM.      07.45.00 17-May-20:  Log End Time 
 LOST.hr                     0:  Lost Rig Time 
 LSTM.      22.50.00 15-May-20:  Log Start Time 
 MDCL.ppm             42000.00:  Mud Chlorides 
 MDES.     Inversion Oil/Synthetic:  Mud Desc 
 DFD .sg                  1.34:  Mud Density 
 MDMN.sg                  1.34:  Dens Mud Min 
 MDMX.sg                  1.34:  Dens Mud Max 
 MOIL.                       0:  Run Mud Oil % 
 MOWR.                   67:33:  Run Mud OWR 
 MSND.                       0:  Run Mud Sand % 
 MSOL.                     1.8:  Run Mud Solids% 
 DFV .spqt               76.00:  Mud Viscosity 
 MWOD.in                  6.75:  MWD Tool OD 
 MWSI.                      No:  Serv Intrp, MWD 
 OTIM.hr                228.19:  Time Operating 
 PCON.           Look Like New:  Pad Condition 
 PMAX.psia             6164.70:  Press Op, Max 
 PV  .cP                 28.00:  Mud PV 
 RUN .                     900:  Run Number 
 ROPA.m/hr               19.00:  ROP Avg 
 ROPN.m/hr               11.00:  ROP Min 
 ROPX.m/hr               36.00:  ROP Max 
 RPMA.rpm               120.00:  RPM Surface Avg 
 RPMN.rpm               120.00:  RPM Surface Min 
 RPMX.rpm               120.00:  RPM Surface Max 
 RRUN.                    L604:  Rig Run Number 
 RTIM.hr                  7.00:  Time Reaming 
 SAZI.deg               109.27:  Azm, Start 
 SDEP.m                4761.01:  Start Depth 
 SIDD.                      No:  Serv Intrp, DD 
 SINC.deg                75.38:  Inc, Start 
 SPPA.psig             3574.00:  SPP Avg 
 SPPN.psig             3475.00:  SPP Min 
 SPPX.psig             3791.00:  SPP Max 
 STIM.      07.08.48 13-May-20:  Start Time 
 SVCS.                 DD, MWD:  Services 
 SVER.                    9.20:  Sperry Version 
 TDAT.m                 363.00:  Tot Depth Attmp 
 TDDF.                      No:  Trip for DD 
 TDLG.m                 363.00:  Tot Depth Loggd 
 TFF .                      No:  Trip for Fail 
 TQAA.f-kp               20.00:  Torque Abs Avg 
 TQAN.f-kp               18.00:  Torque Abs Min 
 TQAX.f-kp               22.00:  Torque Abs Max 
 TRRT.°/30m              -0.35:  Turn Rotating 
 MRT .                    HCIM:  Maximum Recorded Temperature 
 TTMX.degC               92.16:  Max Tool Temp 
 VS01.                90586518:  Virtual Str1 SN 
 VS02.        AZ90560654Z1W1C6:  Virtual Str2 SN 
 VS03.           AZ90610398F11:  Virtual Str3 SN 
 VS04.                90514975:  Virtual Str4 SN 
 VS05.                90514972:  Virtual Str5 SN 
 VS06.     AZ90603282F11V7D1A6:  Virtual Str6 SN 
 WBMN.klb                 7.00:  WOB Min 
 WOBA.klb                12.00:  WOB Avg 
 WOBX.klb                14.00:  WOB Max 
 YP  .lhf2               32.00:  Yield Point 
~Curve Information Block
#MNEM.UNIT                 API CODE     Curve Description
#---------               -----------    ---------------------------
 TIME.HHMMSS            00 000 000 000:  GT Time & Date
 GTDEPTH.m              00 000 000 000:  GT Depth
 GTPQH.psia             00 000 000 000:  GT HR Quartz Pressure
 GTTQ.degC              00 000 000 000:  GT Quartz Temperature
 GTTN.NONE              00 000 000 000:  GT Test Number
 GTET.sec               00 000 000 000:  GT Elapsed Test Time
 GTTVD.m                00 000 000 000:  GT True Vertical Depth
#Other Information
#
#WARRANTY: Halliburton will use its best efforts to furnish customers with 
#accurate information and interpretations that are part of, and incident to, the services 
#provided.  However, Halliburton cannot and does not warrant the accuracy 
#or correctness of such information and interpretations.  Under no circumstances should any 
#such information or interpretation be relied upon as the sole basis for any drilling, 
#completion, production, or financial decision or any procedure involving any risk to the 
#safety of any drilling venture, drilling rig or its crew or any other third party.  The 
#Customer has full responsibility for all drilling, completion and production operation.  
#Halliburton makes no representations or warranties, either expressed or 
#implied, including, but not limited to, the implied warranties of merchantability or fitness 
#for a particular purpose, with respect to the services rendered.  In no event will 
#Halliburton be liable for failure to obtain any particular results or for 
#any damages, including, but not limited to, indirect, special or consequential damages, 
#resulting from the use of any information or interpretation provided by Halliburton.
#
~A           TIME           GTDEPTH  GTPQH  GTTQ  GTTN  GTET   GTTVD  
# ...
   23:38:18.025.17-May-2020 4902.01 3640.27 66.33 9.00  91.95 2567.50
   23:38:18.225.17-May-2020 4902.01 3640.27 66.33 9.00  92.15 2567.50
   23:38:18.425.17-May-2020 4902.01 3641.99 66.33 9.00  92.35 2567.50
   23:38:18.624.17-May-2020 4902.01 3642.81 66.33 9.00  92.55 2567.50
   23:38:18.824.17-May-2020 4902.01 3643.54 66.33 9.00  92.75 2567.50
   23:38:19.024.17-May-2020 4902.01 3644.33 66.33 9.00  92.95 2567.50
   23:38:19.224.17-May-2020 4902.01 3644.33 66.33 9.00  93.15 2567.50
   23:38:19.424.17-May-2020 4902.01 3644.13 66.33 9.00  93.35 2567.50
   23:38:19.624.17-May-2020 4902.01 3644.60 66.33 9.00  93.55 2567.50
   23:38:19.824.17-May-2020 4902.01 3645.35 66.33 9.00  93.75 2567.50
   23:38:20.024.17-May-2020 4902.01 3646.53 66.33 9.00  93.95 2567.50
   23:38:20.224.17-May-2020 4902.01 3646.53 66.33 9.00  94.15 2567.50
   23:38:20.424.17-May-2020 4902.01 3647.91 66.33 9.00  94.35 2567.50
   23:38:20.623.17-May-2020 4902.01 3648.60 66.33 9.00  94.55 2567.50
   23:38:20.823.17-May-2020 4902.01 3649.35 66.33 9.00  94.75 2567.50
   23:38:21.023.17-May-2020 4902.01 3650.05 66.33 9.00  94.95 2567.50
   23:38:21.223.17-May-2020 4902.01 3650.05 66.33 9.00  95.15 2567.50
   23:38:21.423.17-May-2020 4902.01 3649.48 66.33 9.00  95.35 2567.50
   23:38:21.623.17-May-2020 4902.01 3649.30 66.33 9.00  95.55 2567.50
   23:38:21.823.17-May-2020 4902.01 3650.65 66.33 9.00  95.75 2567.50
   23:38:22.023.17-May-2020 4902.01 3651.22 66.33 9.00  95.95 2567.50
   23:38:22.223.17-May-2020 4902.01 3651.22 66.33 9.00  96.15 2567.50
   23:38:22.423.17-May-2020 4902.01 3650.02 66.33 9.00  96.35 2567.50
   23:38:22.622.17-May-2020 4902.01 3651.65 66.33 9.00  96.55 2567.50
   23:38:22.822.17-May-2020 4902.01 3650.15 66.33 9.00  96.75 2567.50
   23:38:23.022.17-May-2020 4902.01 3650.60 66.33 9.00  96.95 2567.50
   23:38:23.222.17-May-2020 4902.01 3650.60 66.33 9.00  97.15 2567.50
   23:38:23.422.17-May-2020 4902.01 3652.52 66.33 9.00  97.35 2567.50
   23:38:23.622.17-May-2020 4902.01 3651.35 66.33 9.00  97.55 2567.50
   23:38:23.822.17-May-2020 4902.01 3651.66 66.33 9.00  97.75 2567.50
   23:38:24.022.17-May-2020 4902.01 3653.44 66.33 9.00  97.95 2567.50
   23:38:24.222.17-May-2020 4902.01 3653.44 66.33 9.00  98.15 2567.50
   23:38:24.422.17-May-2020 4902.01 3655.23 66.32 9.00  98.35 2567.50
   23:38:24.621.17-May-2020 4902.01 3655.90 66.33 9.00  98.55 2567.50
   23:38:24.821.17-May-2020 4902.01 3657.06 66.32 9.00  98.75 2567.50
   23:38:25.021.17-May-2020 4902.01 3657.74 66.33 9.00  98.95 2567.50
   23:38:25.221.17-May-2020 4902.01 3657.74 66.33 9.00  99.15 2567.50
   23:38:25.421.17-May-2020 4902.01 3659.08 66.32 9.00  99.35 2567.50
   23:38:25.621.17-May-2020 4902.01 3658.29 66.32 9.00  99.55 2567.50
   23:38:25.821.17-May-2020 4902.01 3658.45 66.32 9.00  99.75 2567.50
   23:38:26.021.17-May-2020 4902.01 3658.74 66.32 9.00  99.95 2567.50
   23:38:26.221.17-May-2020 4902.01 3658.74 66.32 9.00 100.15 2567.50
   23:38:26.420.17-May-2020 4902.01 3660.59 66.32 9.00 100.35 2567.50
   23:38:26.620.17-May-2020 4902.01 3661.26 66.32 9.00 100.55 2567.50
   23:38:26.820.17-May-2020 4902.01 3661.34 66.32 9.00 100.75 2567.50
   23:38:27.020.17-May-2020 4902.01 3661.85 66.32 9.00 100.95 2567.50
   23:38:27.220.17-May-2020 4902.01 3661.85 66.32 9.00 101.15 2567.50
   23:38:27.420.17-May-2020 4902.01 3662.97 66.32 9.00 101.35 2567.50
   23:38:27.620.17-May-2020 4902.01 3663.47 66.32 9.00 101.55 2567.50
   23:38:27.820.17-May-2020 4902.01 3662.33 66.32 9.00 101.75 2567.50
   23:38:28.020.17-May-2020 4902.01 3661.95 66.32 9.00 101.95 2567.50
   23:38:28.220.17-May-2020 4902.01 3661.95 66.32 9.00 102.15 2567.50
   23:38:28.419.17-May-2020 4902.01 3662.21 66.32 9.00 102.35 2567.50
   23:38:28.619.17-May-2020 4902.01 3661.57 66.32 9.00 102.55 2567.50
   23:38:28.819.17-May-2020 4902.01 3662.85 66.32 9.00 102.75 2567.50
   23:38:29.019.17-May-2020 4902.01 3663.75 66.32 9.00 102.95 2567.50
   23:38:29.219.17-May-2020 4902.01 3663.75 66.32 9.00 103.15 2567.50
   23:38:29.419.17-May-2020 4902.01 3663.01 66.32 9.00 103.35 2567.50
   23:38:29.619.17-May-2020 4902.01 3663.66 66.32 9.00 103.55 2567.50
   23:38:29.819.17-May-2020 4902.01 3664.11 66.32 9.00 103.75 2567.50
   23:38:30.019.17-May-2020 4902.01 3663.88 66.32 9.00 103.95 2567.50
   23:38:30.219.17-May-2020 4902.01 3663.88 66.32 9.00 104.15 2567.50
   23:38:30.418.17-May-2020 4902.01 3664.19 66.32 9.00 104.35 2567.50
   23:38:30.618.17-May-2020 4902.01 3665.07 66.32 9.00 104.55 2567.50
   23:38:30.818.17-May-2020 4902.01 3665.99 66.32 9.00 104.75 2567.50
   23:38:31.018.17-May-2020 4902.01 3667.00 66.32 9.00 104.95 2567.50
   23:38:31.218.17-May-2020 4902.01 3667.00 66.32 9.00 105.15 2567.50
   23:38:31.418.17-May-2020 4902.01 3668.52 66.32 9.00 105.35 2567.50
   23:38:31.618.17-May-2020 4902.01 3669.05 66.32 9.00 105.55 2567.50
   23:38:31.818.17-May-2020 4902.01 3669.82 66.32 9.00 105.75 2567.50
   23:38:32.018.17-May-2020 4902.01 3670.34 66.32 9.00 105.95 2567.50
   23:38:32.218.17-May-2020 4902.01 3670.34 66.32 9.00 106.15 2567.50
   23:38:32.417.17-May-2020 4902.01 3668.84 66.32 9.00 106.35 2567.50
   23:38:32.617.17-May-2020 4902.01 3670.33 66.32 9.00 106.55 2567.50
   23:38:32.817.17-May-2020 4902.01 3671.03 66.32 9.00 106.75 2567.50
   23:38:33.017.17-May-2020 4902.01 3672.12 66.32 9.00 106.95 2567.50
   23:38:33.217.17-May-2020 4902.01 3672.12 66.32 9.00 107.15 2567.50
   23:38:33.417.17-May-2020 4902.01 3673.28 66.32 9.00 107.34 2567.50
   23:38:33.617.17-May-2020 4902.01 3673.79 66.32 9.00 107.54 2567.50
   23:38:33.817.17-May-2020 4902.01 3674.27 66.32 9.00 107.74 2567.50
   23:38:34.017.17-May-2020 4902.01 3674.75 66.32 9.00 107.94 2567.50
   23:38:34.216.17-May-2020 4902.01 3674.75 66.32 9.00 108.14 2567.50
   23:38:34.416.17-May-2020 4902.01 3673.28 66.32 9.00 108.34 2567.50
   23:38:34.616.17-May-2020 4902.01 3673.49 66.32 9.00 108.54 2567.50
   23:38:34.816.17-May-2020 4902.01 3674.47 66.32 9.00 108.74 2567.50
   23:38:35.016.17-May-2020 4902.01 3673.08 66.32 9.00 108.94 2567.50
   23:38:35.216.17-May-2020 4902.01 3673.08 66.32 9.00 109.14 2567.50
   23:38:35.416.17-May-2020 4902.01 3673.61 66.32 9.00 109.34 2567.50
   23:38:35.616.17-May-2020 4902.01 3674.42 66.32 9.00 109.54 2567.50
   23:38:35.816.17-May-2020 4902.01 3674.44 66.32 9.00 109.74 2567.50
   23:38:36.016.17-May-2020 4902.01 3673.96 66.32 9.00 109.94 2567.50
   23:38:36.215.17-May-2020 4902.01 3673.96 66.32 9.00 110.14 2567.50
   23:38:36.415.17-May-2020 4902.01 3674.77 66.32 9.00 110.34 2567.50
   23:38:36.615.17-May-2020 4902.01 3672.77 66.32 9.00 110.54 2567.50
   23:38:36.815.17-May-2020 4902.01 3672.38 66.32 9.00 110.74 2567.50
   23:38:37.015.17-May-2020 4902.01 3673.73 66.32 9.00 110.94 2567.50
   23:38:37.215.17-May-2020 4902.01 3673.73 66.32 9.00 111.14 2567.50
   23:38:37.415.17-May-2020 4902.01 3675.89 66.32 9.00 111.34 2567.50
   23:38:37.615.17-May-2020 4902.01 3676.38 66.32 9.00 111.54 2567.50
   23:38:37.815.17-May-2020 4902.01 3677.22 66.32 9.00 111.74 2567.50
   23:38:38.015.17-May-2020 4902.01 3677.63 66.32 9.00 111.94 2567.50
   23:38:38.214.17-May-2020 4902.01 3677.63 66.32 9.00 112.14 2567.50
   23:38:38.414.17-May-2020 4902.01 3679.04 66.32 9.00 112.34 2567.50
   23:38:38.614.17-May-2020 4902.01 3678.50 66.32 9.00 112.54 2567.50
   23:38:38.814.17-May-2020 4902.01 3677.99 66.32 9.00 112.74 2567.50
   23:38:39.014.17-May-2020 4902.01 3678.21 66.32 9.00 112.94 2567.50
   23:38:39.214.17-May-2020 4902.01 3678.21 66.32 9.00 113.14 2567.50
   23:38:39.414.17-May-2020 4902.01 3679.85 66.32 9.00 113.34 2567.50
   23:38:39.614.17-May-2020 4902.01 3680.70 66.32 9.00 113.54 2567.50
   23:38:39.814.17-May-2020 4902.01 3680.93 66.32 9.00 113.74 2567.50
   23:38:40.014.17-May-2020 4902.01 3681.50 66.32 9.00 113.94 2567.50
   23:38:40.213.17-May-2020 4902.01 3681.50 66.32 9.00 114.14 2567.50
   23:38:40.413.17-May-2020 4902.01 3682.49 66.32 9.00 114.34 2567.50
   23:38:40.613.17-May-2020 4902.01 3682.93 66.32 9.00 114.54 2567.50
   23:38:40.813.17-May-2020 4902.01 3681.40 66.32 9.00 114.74 2567.50
