~Version Information
 VERS.                  2.0:   CWLS log ASCII Standard -VERSION 2.0
 WRAP.                   NO:   One line per depth step
~Well Information Block
#MNEM.UNIT     VALUE/NAME     DESCRIPTION
#---------     -----------    ---------------------------
 STRT.S             21:13:20 18-May-20: START TIME 21:13:20 18-May-20
 STOP.S             21:20:25 18-May-20: STOP TIME  21:20:25 18-May-20
 STEP.S                   0.00: STEP TIME
 NULL.                 -999.25: NULL VALUE
 UNIT.                     N/A:  LOGGING EQUIPMENT ID
 DCON.         Sperry Drilling:  DIRECTNL CONTR
 DOE .                     N/A:  DOE NUMBER
 JOBN.        AZ-XX-0906252240:  JOB TICKET NUMB
 MWDS.                     N/A:  MWD SHOP
 PROV.                    Baku:  PROVINCE
 STAT.                    Baku:  STATE NAME
 REGN.                   EESSA:  REGION
 BASE.              Azerbaijan:  LOGGING EQUIPMENT BASE LOCATION
 UWI .                     N/A:  UNIQUE WELL IDENTIFIER
 API .                     N/A:  API NUMBER
 MDS .        Operator Entered:  MAG DATA SOURCE
 WTYP.                Deviated:  WELL TYPE
 COMP.     BP Exploration (Caspian Sea) Ltd.:  COMPANY
 SRVC.          Turan Drilling:  CONTRACTOR
 WELL.           J23 (Slot 07):  WELL NAME
 CTRY.              Azerbaijan:  COUNTRY NAME
 FLD .                     ACG:  FIELD NAME
 PDAT.          Mean Sea Level:  PERMANENT DATUM
 RIG .             West Chirag:  RIG NAME
 SON .        AZ-XX-0906252240:  JOB NUMBER
 FTOP.          Formation Tops:  FORM TOPS DESC
 ILTD.               Lithology:  INTERP LTH DESC
 SVYD.                  Survey:  SURVEY DESC
 DMOD.             Drill Model:  DRILL MOD DESC
 HPTY.       Minimum Curvature:  HOLE POS TYPE
 NREF.                    Grid:  NORTH REFERENCE
 SPUD.               27-Aug-20:  SPUD DATE
 DATE.      00.00.00 19-May-20:  END TIME
 STIM.      03.00.00 25-Mar-20:  START TIME
 DMF .             Drill Floor:  DRILL MEAS FROM
 DFST.                        :  DIST FSL TEXT
 DFWT.                        :  DIST FWL TEXT
 CNTY.                        :  COUNTY
 LOC .                        :  LOCATION
 LMF .             Drill Floor:  LOG MEASURED FROM
 VSNS.m                   9.43:  VERT SEC N/S
 VSEW.m                  -8.91:  VERT SEC E/W
 AGAP.m                  43.00:  AIR GAP
 DEP .m                 354.17:  DEPTH
 APD .m                  43.00:  DEPTH ABOVE PD
 WDMS.m                 169.80:  WD ELEV
 EGL .m                   0.00:  GROUND ELEVATION
 EPD .m                   0.00:  ELEVATION
 AZTC.deg                 6.31:  AZM TOTAL CORR
 GRDC.deg                 0.14:  GRID CORRECTION
 MDEC.deg                 6.45:  MAGNETIC DECL
 MDIP.deg                59.56:  MAGNETIC DIP
 MFLD.nT              50295.00:  MAGNETIC FIELD
 GVFD.g                   1.00:  GRAVITY FIELD
 VSDR.deg               179.88:  VERT SEC DIRECT
 TDD .m                5150.01:  TOTAL DEPTH (DRILLER)
 SDEP.m                 864.00:  START DEPTH
 DFSL.m                   0.00:  DISTANCE FSL
 DFWL.m                   0.00:  DISTANCE FWL
 UTMY.m             4443793.85:  UTM Y
 UTMX.m              519005.06:  UTM X
 WHEW.m                  -8.91:  WELL HEAD E/W
 WHNS.m                   9.43:  WELL HEAD N/S
 LONG.deg                51.22:  LONGITUDE
 LATI.deg                40.13:  LATITUDE
 TVDS.m                  43.00:  TVDSS CORRECTN
 EKB .m                   0.00:  KB ELEVATION
 EDF .m                  43.00:  DF ELEVATION
 TDL .m                 363.00:  TOTAL DEPTH (LOGGER)
 MAGU.                 1850802:  MAGUTM CHECKSUM
 VSC .                       0:  VS TO CLOSURE
~Parameter Information Block
#MNEM.UNIT       Value        Description
#---------     -----------    ---------------------------
 AV  .mps                 2.30:  Ann Velocity 
 AVMX.mps                 4.40:  Max Ann Veloc 
 AZIF.deg               110.24:  Azm, Final 
 BHAT.        Rotary Steerable:  BHA Type 
 BREV.rev               331.00:  Rev Bit Total 
 BROT.°/30m               0.00:  Build Rotating 
 BS  .in                  8.50:  Bit Size 
 BSZ .in                  8.50:  Bit Size 
 BTPL.psig              585.00:  Bit Press Loss 
 CABU.                     Yes:  Customer Abuse 
 TCS .hr                122.75:  Time Ciculation Ended 
 CV  .mps                 2.67:  Crit Velocity 
 CVMX.mps                 3.56:  Max Crit Veloc 
 DD1 .          Rashad Habibov:  Direct Drillr 1 
 DD2 .         Rasim Ibrahimov:  Direct Drillr 2 
 DDSV.               Geo-Pilot:  DD Service 
 DEFF.%                  98.00:  % Det Eff 
 DLRX.°/30m               0.75:  Dogleg Rot Max 
 DLSO.°/30m               1.25:  Dogleg Oriented 
 DLSX.°/30m               2.06:  Dogleg Str Max 
 DRET.      07.45.00 17-May-20:  Drill End Time 
 DRST.      22.50.00 15-May-20:  Drill Start Tim 
 DTIM.hr                 20.75:  Time Drilling 
 EDEP.m                5124.01:  End Depth 
 ENG1.           Eldar Hajiyev:  Engineer 1 
 ENG2.        Marcelo Sandoval:  Engineer 2 
 ENG3.        Davud huseynzada:  Engineer 3 
 ENG4.          Ruslan Safarov:  Engineer 4 
 ETIM.      04.33.00 23-May-20:  End Time 
 FLOI.gpm               450.00:  Flow In 
 FLON.gpm               400.00:  Flow In Min 
 FLOS.cptm                0.00:  Fluid Loss 
 FLOX.gpm               500.00:  Flow In Max 
 FTRO.       Formation Presure:  FTWD Run Obj 
 HFLO.                      No:  High Flow 
 HPRE.                     Yes:  High Pressure 
 HTEM.                      No:  High Temp 
 HYDO.m                   1.80:  Hydro Offset 
 IFIN.deg                75.06:  Inc, Final 
 IMAX.deg                75.38:  Inc Max 
 IMIN.deg                74.69:  Inc Min 
 IMND.m                5027.38:  Inc Min Depth 
 IMXD.m                4771.61:  Inc Max Depth 
 JARR.                      No:  Jarring 
 LETM.      07.45.00 17-May-20:  Log End Time 
 LOST.hr                     0:  Lost Rig Time 
 LSTM.      22.50.00 15-May-20:  Log Start Time 
 MDCL.ppm             42000.00:  Mud Chlorides 
 MDES.     Inversion Oil/Synthetic:  Mud Desc 
 DFD .sg                  1.34:  Mud Density 
 MDMN.sg                  1.34:  Dens Mud Min 
 MDMX.sg                  1.34:  Dens Mud Max 
 MOIL.                       0:  Run Mud Oil % 
 MOWR.                   67:33:  Run Mud OWR 
 MSND.                       0:  Run Mud Sand % 
 MSOL.                     1.8:  Run Mud Solids% 
 DFV .spqt               76.00:  Mud Viscosity 
 MWOD.in                  6.75:  MWD Tool OD 
 MWSI.                      No:  Serv Intrp, MWD 
 OTIM.hr                228.19:  Time Operating 
 PCON.           Look Like New:  Pad Condition 
 PMAX.psia             6164.70:  Press Op, Max 
 PV  .cP                 28.00:  Mud PV 
 RUN .                     900:  Run Number 
 ROPA.m/hr               19.00:  ROP Avg 
 ROPN.m/hr               11.00:  ROP Min 
 ROPX.m/hr               36.00:  ROP Max 
 RPMA.rpm               120.00:  RPM Surface Avg 
 RPMN.rpm               120.00:  RPM Surface Min 
 RPMX.rpm               120.00:  RPM Surface Max 
 RRUN.                    L604:  Rig Run Number 
 RTIM.hr                  7.00:  Time Reaming 
 SAZI.deg               109.27:  Azm, Start 
 SDEP.m                4761.01:  Start Depth 
 SIDD.                      No:  Serv Intrp, DD 
 SINC.deg                75.38:  Inc, Start 
 SPPA.psig             3574.00:  SPP Avg 
 SPPN.psig             3475.00:  SPP Min 
 SPPX.psig             3791.00:  SPP Max 
 STIM.      07.08.48 13-May-20:  Start Time 
 SVCS.                 DD, MWD:  Services 
 SVER.                    9.20:  Sperry Version 
 TDAT.m                 363.00:  Tot Depth Attmp 
 TDDF.                      No:  Trip for DD 
 TDLG.m                 363.00:  Tot Depth Loggd 
 TFF .                      No:  Trip for Fail 
 TQAA.f-kp               20.00:  Torque Abs Avg 
 TQAN.f-kp               18.00:  Torque Abs Min 
 TQAX.f-kp               22.00:  Torque Abs Max 
 TRRT.°/30m              -0.35:  Turn Rotating 
 MRT .                    HCIM:  Maximum Recorded Temperature 
 TTMX.degC               92.16:  Max Tool Temp 
 VS01.                90586518:  Virtual Str1 SN 
 VS02.        AZ90560654Z1W1C6:  Virtual Str2 SN 
 VS03.           AZ90610398F11:  Virtual Str3 SN 
 VS04.                90514975:  Virtual Str4 SN 
 VS05.                90514972:  Virtual Str5 SN 
 VS06.     AZ90603282F11V7D1A6:  Virtual Str6 SN 
 WBMN.klb                 7.00:  WOB Min 
 WOBA.klb                12.00:  WOB Avg 
 WOBX.klb                14.00:  WOB Max 
 YP  .lhf2               32.00:  Yield Point 
~Curve Information Block
#MNEM.UNIT                 API CODE     Curve Description
#---------               -----------    ---------------------------
 TIME.HHMMSS            00 000 000 000:  GT Time & Date
 GTDEPTH.m              00 000 000 000:  GT Depth
 GTPQH.psia             00 000 000 000:  GT HR Quartz Pressure
 GTTQ.degC              00 000 000 000:  GT Quartz Temperature
 GTTN.NONE              00 000 000 000:  GT Test Number
 GTET.sec               00 000 000 000:  GT Elapsed Test Time
 GTTVD.m                00 000 000 000:  GT True Vertical Depth
#Other Information
#
#WARRANTY: Halliburton will use its best efforts to furnish customers with 
#accurate information and interpretations that are part of, and incident to, the services 
#provided.  However, Halliburton cannot and does not warrant the accuracy 
#or correctness of such information and interpretations.  Under no circumstances should any 
#such information or interpretation be relied upon as the sole basis for any drilling, 
#completion, production, or financial decision or any procedure involving any risk to the 
#safety of any drilling venture, drilling rig or its crew or any other third party.  The 
#Customer has full responsibility for all drilling, completion and production operation.  
#Halliburton makes no representations or warranties, either expressed or 
#implied, including, but not limited to, the implied warranties of merchantability or fitness 
#for a particular purpose, with respect to the services rendered.  In no event will 
#Halliburton be liable for failure to obtain any particular results or for 
#any damages, including, but not limited to, indirect, special or consequential damages, 
#resulting from the use of any information or interpretation provided by Halliburton.
#
~A           TIME           GTDEPTH  GTPQH  GTTQ  GTTN   GTET   GTTVD  
# ...
   21:14:05.677.18-May-2020 4766.01 5473.00 60.65 14.00  45.21 2532.29
   21:14:05.877.18-May-2020 4766.01 5482.76 60.65 14.00  45.41 2532.29
   21:14:06.078.18-May-2020 4766.01 5479.60 60.65 14.00  45.61 2532.29
   21:14:06.278.18-May-2020 4766.01 5472.73 60.65 14.00  45.81 2532.29
   21:14:06.478.18-May-2020 4766.01 5473.21 60.65 14.00  46.01 2532.29
   21:14:06.678.18-May-2020 4766.01 5475.28 60.65 14.00  46.21 2532.29
   21:14:06.878.18-May-2020 4766.01 5474.65 60.65 14.00  46.41 2532.29
   21:14:07.078.18-May-2020 4766.01 5476.67 60.64 14.00  46.61 2532.29
   21:14:07.278.18-May-2020 4766.01 5479.10 60.65 14.00  46.81 2532.29
   21:14:07.478.18-May-2020 4766.01 5472.83 60.64 14.00  47.01 2532.29
   21:14:07.678.18-May-2020 4766.01 5472.83 60.64 14.00  47.21 2532.29
   21:14:07.878.18-May-2020 4766.01 5474.92 60.64 14.00  47.41 2532.29
   21:14:08.078.18-May-2020 4766.01 5479.19 60.64 14.00  47.61 2532.29
   21:14:08.278.18-May-2020 4766.01 5462.56 60.64 14.00  47.81 2532.29
   21:14:08.478.18-May-2020 4766.01 5456.61 60.64 14.00  48.01 2532.29
   21:14:08.678.18-May-2020 4766.01 5456.61 60.64 14.00  48.21 2532.29
   21:14:08.878.18-May-2020 4766.01 5455.47 60.64 14.00  48.41 2532.29
   21:14:09.078.18-May-2020 4766.01 5455.28 60.64 14.00  48.61 2532.29
   21:14:09.278.18-May-2020 4766.01 5439.51 60.64 14.00  48.81 2532.29
   21:14:09.478.18-May-2020 4766.01 5435.11 60.64 14.00  49.01 2532.29
   21:14:09.678.18-May-2020 4766.01 5435.11 60.64 14.00  49.21 2532.29
   21:14:09.879.18-May-2020 4766.01 5428.08 60.64 14.00  49.41 2532.29
   21:14:10.079.18-May-2020 4766.01 5416.76 60.64 14.00  49.61 2532.29
   21:14:10.279.18-May-2020 4766.01 5454.14 60.64 14.00  49.81 2532.29
   21:14:10.479.18-May-2020 4766.01 5373.53 60.64 14.00  50.01 2532.29
   21:14:10.679.18-May-2020 4766.01 5363.31 60.64 14.00  50.21 2532.29
   21:14:10.879.18-May-2020 4766.01 5419.46 60.64 14.00  50.41 2532.29
   21:14:11.079.18-May-2020 4766.01 5429.16 60.64 14.00  50.61 2532.29
   21:14:11.279.18-May-2020 4766.01 5436.54 60.64 14.00  50.81 2532.29
   21:14:11.479.18-May-2020 4766.01 5391.01 60.64 14.00  51.01 2532.29
   21:14:11.679.18-May-2020 4766.01 5391.01 60.64 14.00  51.21 2532.29
   21:14:11.879.18-May-2020 4766.01 5486.04 60.64 14.00  51.41 2532.29
   21:14:12.079.18-May-2020 4766.01 5456.74 60.64 14.00  51.61 2532.29
   21:14:12.279.18-May-2020 4766.01 5460.12 60.64 14.00  51.81 2532.29
   21:14:12.479.18-May-2020 4766.01 5443.05 60.64 14.00  52.01 2532.29
   21:14:12.679.18-May-2020 4766.01 5443.05 60.64 14.00  52.21 2532.29
   21:14:12.879.18-May-2020 4766.01 5445.03 60.64 14.00  52.41 2532.29
   21:14:13.079.18-May-2020 4766.01 5427.09 60.64 14.00  52.61 2532.29
   21:14:13.279.18-May-2020 4766.01 5444.86 60.64 14.00  52.81 2532.29
   21:14:13.479.18-May-2020 4766.01 5450.10 60.64 14.00  53.01 2532.29
   21:14:13.680.18-May-2020 4766.01 5450.10 60.64 14.00  53.21 2532.29
   21:14:13.880.18-May-2020 4766.01 5464.49 60.64 14.00  53.41 2532.29
   21:14:14.080.18-May-2020 4766.01 5457.26 60.64 14.00  53.61 2532.29
   21:14:14.280.18-May-2020 4766.01 5458.74 60.64 14.00  53.81 2532.29
   21:14:14.480.18-May-2020 4766.01 5441.86 60.64 14.00  54.01 2532.29
   21:14:14.680.18-May-2020 4766.01 5365.88 60.64 14.00  54.21 2532.29
   21:14:14.880.18-May-2020 4766.01 5471.23 60.64 14.00  54.41 2532.29
   21:14:15.080.18-May-2020 4766.01 5469.55 60.64 14.00  54.61 2532.29
   21:14:15.280.18-May-2020 4766.01 5468.24 60.64 14.00  54.81 2532.29
   21:14:15.480.18-May-2020 4766.01 5395.52 60.64 14.00  55.01 2532.29
   21:14:15.680.18-May-2020 4766.01 5395.52 60.64 14.00  55.21 2532.29
   21:14:15.880.18-May-2020 4766.01 5443.18 60.64 14.00  55.41 2532.29
   21:14:16.080.18-May-2020 4766.01 5486.37 60.64 14.00  55.61 2532.29
   21:14:16.280.18-May-2020 4766.01 5469.37 60.64 14.00  55.81 2532.29
   21:14:16.480.18-May-2020 4766.01 5472.57 60.64 14.00  56.01 2532.29
   21:14:16.680.18-May-2020 4766.01 5472.57 60.64 14.00  56.21 2532.29
   21:14:16.880.18-May-2020 4766.01 5486.27 60.64 14.00  56.41 2532.29
   21:14:17.080.18-May-2020 4766.01 5467.35 60.64 14.00  56.62 2532.29
   21:14:17.280.18-May-2020 4766.01 5438.57 60.64 14.00  56.82 2532.29
   21:14:17.481.18-May-2020 4766.01 5457.35 60.64 14.00  57.02 2532.29
   21:14:17.681.18-May-2020 4766.01 5457.35 60.64 14.00  57.22 2532.29
   21:14:17.881.18-May-2020 4766.01 5475.67 60.64 14.00  57.42 2532.29
   21:14:18.081.18-May-2020 4766.01 5476.07 60.64 14.00  57.62 2532.29
   21:14:18.281.18-May-2020 4766.01 5477.35 60.64 14.00  57.82 2532.29
   21:14:18.481.18-May-2020 4766.01 5492.60 60.64 14.00  58.02 2532.29
   21:14:18.681.18-May-2020 4766.01 5492.60 60.64 14.00  58.22 2532.29
   21:14:18.881.18-May-2020 4766.01 5476.41 60.64 14.00  58.42 2532.29
   21:14:19.081.18-May-2020 4766.01 5478.62 60.64 14.00  58.62 2532.29
   21:14:19.281.18-May-2020 4766.01 5483.06 60.64 14.00  58.82 2532.29
   21:14:19.481.18-May-2020 4766.01 5487.18 60.64 14.00  59.02 2532.29
   21:14:19.681.18-May-2020 4766.01 5487.18 60.64 14.00  59.22 2532.29
   21:14:19.881.18-May-2020 4766.01 5478.87 60.64 14.00  59.42 2532.29
   21:14:20.081.18-May-2020 4766.01 5479.97 60.64 14.00  59.62 2532.29
   21:14:20.281.18-May-2020 4766.01 5480.53 60.64 14.00  59.82 2532.29
   21:14:20.481.18-May-2020 4766.01 5478.13 60.64 14.00  60.02 2532.29
   21:14:20.681.18-May-2020 4766.01 5478.13 60.64 14.00  60.22 2532.29
   21:14:20.881.18-May-2020 4766.01 5476.74 60.64 14.00  60.42 2532.29
   21:14:21.081.18-May-2020 4766.01 5478.91 60.64 14.00  60.62 2532.29
   21:14:21.282.18-May-2020 4766.01 5477.98 60.64 14.00  60.82 2532.29
   21:14:21.482.18-May-2020 4766.01 5486.69 60.64 14.00  61.02 2532.29
   21:14:21.682.18-May-2020 4766.01 5486.69 60.64 14.00  61.22 2532.29
   21:14:21.882.18-May-2020 4766.01 5478.03 60.64 14.00  61.42 2532.29
   21:14:22.082.18-May-2020 4766.01 5478.59 60.64 14.00  61.62 2532.29
   21:14:22.282.18-May-2020 4766.01 5479.83 60.64 14.00  61.82 2532.29
   21:14:22.482.18-May-2020 4766.01 5477.42 60.64 14.00  62.02 2532.29
   21:14:22.682.18-May-2020 4766.01 5477.37 60.64 14.00  62.22 2532.29
   21:14:22.882.18-May-2020 4766.01 5491.22 60.64 14.00  62.42 2532.29
   21:14:23.082.18-May-2020 4766.01 5474.66 60.64 14.00  62.62 2532.29
   21:14:23.282.18-May-2020 4766.01 5478.64 60.64 14.00  62.82 2532.29
   21:14:23.482.18-May-2020 4766.01 5484.30 60.64 14.00  63.02 2532.29
   21:14:23.682.18-May-2020 4766.01 5484.30 60.64 14.00  63.22 2532.29
   21:14:23.882.18-May-2020 4766.01 5479.08 60.64 14.00  63.42 2532.29
   21:14:24.082.18-May-2020 4766.01 5478.30 60.64 14.00  63.62 2532.29
   21:14:24.282.18-May-2020 4766.01 5483.72 60.64 14.00  63.82 2532.29
   21:14:24.482.18-May-2020 4766.01 5489.11 60.64 14.00  64.02 2532.29
   21:14:24.682.18-May-2020 4766.01 5489.11 60.64 14.00  64.22 2532.29
   21:14:24.883.18-May-2020 4766.01 5477.94 60.64 14.00  64.42 2532.29
   21:14:25.083.18-May-2020 4766.01 5482.06 60.64 14.00  64.62 2532.29
   21:14:25.283.18-May-2020 4766.01 5495.24 60.64 14.00  64.82 2532.29
   21:14:25.483.18-May-2020 4766.01 5485.64 60.64 14.00  65.02 2532.29
   21:14:25.683.18-May-2020 4766.01 5485.64 60.64 14.00  65.22 2532.29
   21:14:25.883.18-May-2020 4766.01 5479.39 60.64 14.00  65.42 2532.29
   21:14:26.083.18-May-2020 4766.01 5490.62 60.64 14.00  65.62 2532.29
   21:14:26.283.18-May-2020 4766.01 5481.89 60.64 14.00  65.82 2532.29
   21:14:26.483.18-May-2020 4766.01 5479.15 60.64 14.00  66.02 2532.29
   21:14:26.683.18-May-2020 4766.01 5479.97 60.64 14.00  66.22 2532.29
   21:14:26.883.18-May-2020 4766.01 5481.92 60.64 14.00  66.42 2532.29
   21:14:27.083.18-May-2020 4766.01 5479.15 60.64 14.00  66.62 2532.29
   21:14:27.283.18-May-2020 4766.01 5492.05 60.64 14.00  66.82 2532.29
   21:14:27.483.18-May-2020 4766.01 5475.78 60.64 14.00  67.02 2532.29
   21:14:27.683.18-May-2020 4766.01 5475.78 60.64 14.00  67.22 2532.29
   21:14:27.883.18-May-2020 4766.01 5478.05 60.64 14.00  67.42 2532.29
   21:14:28.083.18-May-2020 4766.01 5487.42 60.64 14.00  67.62 2532.29
