~Version Information
 VERS.                  2.0:   CWLS log ASCII Standard -VERSION 2.0
 WRAP.                   NO:   One line per depth step
~Well Information Block
#MNEM.UNIT     VALUE/NAME     DESCRIPTION
#---------     -----------    ---------------------------
 STRT.S             03:21:16 18-May-20: START TIME 03:21:16 18-May-20
 STOP.S             03:28:29 18-May-20: STOP TIME  03:28:29 18-May-20
 STEP.S                   0.00: STEP TIME
 NULL.                 -999.25: NULL VALUE
 UNIT.                     N/A:  LOGGING EQUIPMENT ID
 DCON.         Sperry Drilling:  DIRECTNL CONTR
 DOE .                     N/A:  DOE NUMBER
 JOBN.        AZ-XX-0906252240:  JOB TICKET NUMB
 MWDS.                     N/A:  MWD SHOP
 PROV.                    Baku:  PROVINCE
 STAT.                    Baku:  STATE NAME
 REGN.                   EESSA:  REGION
 BASE.              Azerbaijan:  LOGGING EQUIPMENT BASE LOCATION
 UWI .                     N/A:  UNIQUE WELL IDENTIFIER
 API .                     N/A:  API NUMBER
 MDS .        Operator Entered:  MAG DATA SOURCE
 WTYP.                Deviated:  WELL TYPE
 COMP.     BP Exploration (Caspian Sea) Ltd.:  COMPANY
 SRVC.          Turan Drilling:  CONTRACTOR
 WELL.           J23 (Slot 07):  WELL NAME
 CTRY.              Azerbaijan:  COUNTRY NAME
 FLD .                     ACG:  FIELD NAME
 PDAT.          Mean Sea Level:  PERMANENT DATUM
 RIG .             West Chirag:  RIG NAME
 SON .        AZ-XX-0906252240:  JOB NUMBER
 FTOP.          Formation Tops:  FORM TOPS DESC
 ILTD.               Lithology:  INTERP LTH DESC
 SVYD.                  Survey:  SURVEY DESC
 DMOD.             Drill Model:  DRILL MOD DESC
 HPTY.       Minimum Curvature:  HOLE POS TYPE
 NREF.                    Grid:  NORTH REFERENCE
 SPUD.               27-Aug-20:  SPUD DATE
 DATE.      00.00.00 19-May-20:  END TIME
 STIM.      03.00.00 25-Mar-20:  START TIME
 DMF .             Drill Floor:  DRILL MEAS FROM
 DFST.                        :  DIST FSL TEXT
 DFWT.                        :  DIST FWL TEXT
 CNTY.                        :  COUNTY
 LOC .                        :  LOCATION
 LMF .             Drill Floor:  LOG MEASURED FROM
 VSNS.m                   9.43:  VERT SEC N/S
 VSEW.m                  -8.91:  VERT SEC E/W
 AGAP.m                  43.00:  AIR GAP
 DEP .m                 354.17:  DEPTH
 APD .m                  43.00:  DEPTH ABOVE PD
 WDMS.m                 169.80:  WD ELEV
 EGL .m                   0.00:  GROUND ELEVATION
 EPD .m                   0.00:  ELEVATION
 AZTC.deg                 6.31:  AZM TOTAL CORR
 GRDC.deg                 0.14:  GRID CORRECTION
 MDEC.deg                 6.45:  MAGNETIC DECL
 MDIP.deg                59.56:  MAGNETIC DIP
 MFLD.nT              50295.00:  MAGNETIC FIELD
 GVFD.g                   1.00:  GRAVITY FIELD
 VSDR.deg               179.88:  VERT SEC DIRECT
 TDD .m                5150.01:  TOTAL DEPTH (DRILLER)
 SDEP.m                 864.00:  START DEPTH
 DFSL.m                   0.00:  DISTANCE FSL
 DFWL.m                   0.00:  DISTANCE FWL
 UTMY.m             4443793.85:  UTM Y
 UTMX.m              519005.06:  UTM X
 WHEW.m                  -8.91:  WELL HEAD E/W
 WHNS.m                   9.43:  WELL HEAD N/S
 LONG.deg                51.22:  LONGITUDE
 LATI.deg                40.13:  LATITUDE
 TVDS.m                  43.00:  TVDSS CORRECTN
 EKB .m                   0.00:  KB ELEVATION
 EDF .m                  43.00:  DF ELEVATION
 TDL .m                 363.00:  TOTAL DEPTH (LOGGER)
 MAGU.                 1850802:  MAGUTM CHECKSUM
 VSC .                       0:  VS TO CLOSURE
~Parameter Information Block
#MNEM.UNIT       Value        Description
#---------     -----------    ---------------------------
 AV  .mps                 2.30:  Ann Velocity 
 AVMX.mps                 4.40:  Max Ann Veloc 
 AZIF.deg               110.24:  Azm, Final 
 BHAT.        Rotary Steerable:  BHA Type 
 BREV.rev               331.00:  Rev Bit Total 
 BROT.°/30m               0.00:  Build Rotating 
 BS  .in                  8.50:  Bit Size 
 BSZ .in                  8.50:  Bit Size 
 BTPL.psig              585.00:  Bit Press Loss 
 CABU.                     Yes:  Customer Abuse 
 TCS .hr                122.75:  Time Ciculation Ended 
 CV  .mps                 2.67:  Crit Velocity 
 CVMX.mps                 3.56:  Max Crit Veloc 
 DD1 .          Rashad Habibov:  Direct Drillr 1 
 DD2 .         Rasim Ibrahimov:  Direct Drillr 2 
 DDSV.               Geo-Pilot:  DD Service 
 DEFF.%                  98.00:  % Det Eff 
 DLRX.°/30m               0.75:  Dogleg Rot Max 
 DLSO.°/30m               1.25:  Dogleg Oriented 
 DLSX.°/30m               2.06:  Dogleg Str Max 
 DRET.      07.45.00 17-May-20:  Drill End Time 
 DRST.      22.50.00 15-May-20:  Drill Start Tim 
 DTIM.hr                 20.75:  Time Drilling 
 EDEP.m                5124.01:  End Depth 
 ENG1.           Eldar Hajiyev:  Engineer 1 
 ENG2.        Marcelo Sandoval:  Engineer 2 
 ENG3.        Davud huseynzada:  Engineer 3 
 ENG4.          Ruslan Safarov:  Engineer 4 
 ETIM.      04.33.00 23-May-20:  End Time 
 FLOI.gpm               450.00:  Flow In 
 FLON.gpm               400.00:  Flow In Min 
 FLOS.cptm                0.00:  Fluid Loss 
 FLOX.gpm               500.00:  Flow In Max 
 FTRO.       Formation Presure:  FTWD Run Obj 
 HFLO.                      No:  High Flow 
 HPRE.                     Yes:  High Pressure 
 HTEM.                      No:  High Temp 
 HYDO.m                   1.80:  Hydro Offset 
 IFIN.deg                75.06:  Inc, Final 
 IMAX.deg                75.38:  Inc Max 
 IMIN.deg                74.69:  Inc Min 
 IMND.m                5027.38:  Inc Min Depth 
 IMXD.m                4771.61:  Inc Max Depth 
 JARR.                      No:  Jarring 
 LETM.      07.45.00 17-May-20:  Log End Time 
 LOST.hr                     0:  Lost Rig Time 
 LSTM.      22.50.00 15-May-20:  Log Start Time 
 MDCL.ppm             42000.00:  Mud Chlorides 
 MDES.     Inversion Oil/Synthetic:  Mud Desc 
 DFD .sg                  1.34:  Mud Density 
 MDMN.sg                  1.34:  Dens Mud Min 
 MDMX.sg                  1.34:  Dens Mud Max 
 MOIL.                       0:  Run Mud Oil % 
 MOWR.                   67:33:  Run Mud OWR 
 MSND.                       0:  Run Mud Sand % 
 MSOL.                     1.8:  Run Mud Solids% 
 DFV .spqt               76.00:  Mud Viscosity 
 MWOD.in                  6.75:  MWD Tool OD 
 MWSI.                      No:  Serv Intrp, MWD 
 OTIM.hr                228.19:  Time Operating 
 PCON.           Look Like New:  Pad Condition 
 PMAX.psia             6164.70:  Press Op, Max 
 PV  .cP                 28.00:  Mud PV 
 RUN .                     900:  Run Number 
 ROPA.m/hr               19.00:  ROP Avg 
 ROPN.m/hr               11.00:  ROP Min 
 ROPX.m/hr               36.00:  ROP Max 
 RPMA.rpm               120.00:  RPM Surface Avg 
 RPMN.rpm               120.00:  RPM Surface Min 
 RPMX.rpm               120.00:  RPM Surface Max 
 RRUN.                    L604:  Rig Run Number 
 RTIM.hr                  7.00:  Time Reaming 
 SAZI.deg               109.27:  Azm, Start 
 SDEP.m                4761.01:  Start Depth 
 SIDD.                      No:  Serv Intrp, DD 
 SINC.deg                75.38:  Inc, Start 
 SPPA.psig             3574.00:  SPP Avg 
 SPPN.psig             3475.00:  SPP Min 
 SPPX.psig             3791.00:  SPP Max 
 STIM.      07.08.48 13-May-20:  Start Time 
 SVCS.                 DD, MWD:  Services 
 SVER.                    9.20:  Sperry Version 
 TDAT.m                 363.00:  Tot Depth Attmp 
 TDDF.                      No:  Trip for DD 
 TDLG.m                 363.00:  Tot Depth Loggd 
 TFF .                      No:  Trip for Fail 
 TQAA.f-kp               20.00:  Torque Abs Avg 
 TQAN.f-kp               18.00:  Torque Abs Min 
 TQAX.f-kp               22.00:  Torque Abs Max 
 TRRT.°/30m              -0.35:  Turn Rotating 
 MRT .                    HCIM:  Maximum Recorded Temperature 
 TTMX.degC               92.16:  Max Tool Temp 
 VS01.                90586518:  Virtual Str1 SN 
 VS02.        AZ90560654Z1W1C6:  Virtual Str2 SN 
 VS03.           AZ90610398F11:  Virtual Str3 SN 
 VS04.                90514975:  Virtual Str4 SN 
 VS05.                90514972:  Virtual Str5 SN 
 VS06.     AZ90603282F11V7D1A6:  Virtual Str6 SN 
 WBMN.klb                 7.00:  WOB Min 
 WOBA.klb                12.00:  WOB Avg 
 WOBX.klb                14.00:  WOB Max 
 YP  .lhf2               32.00:  Yield Point 
~Curve Information Block
#MNEM.UNIT                 API CODE     Curve Description
#---------               -----------    ---------------------------
 TIME.HHMMSS            00 000 000 000:  GT Time & Date
 GTDEPTH.m              00 000 000 000:  GT Depth
 GTPQH.psia             00 000 000 000:  GT HR Quartz Pressure
 GTTQ.degC              00 000 000 000:  GT Quartz Temperature
 GTTN.NONE              00 000 000 000:  GT Test Number
 GTET.sec               00 000 000 000:  GT Elapsed Test Time
 GTTVD.m                00 000 000 000:  GT True Vertical Depth
#Other Information
#
#WARRANTY: Halliburton will use its best efforts to furnish customers with 
#accurate information and interpretations that are part of, and incident to, the services 
#provided.  However, Halliburton cannot and does not warrant the accuracy 
#or correctness of such information and interpretations.  Under no circumstances should any 
#such information or interpretation be relied upon as the sole basis for any drilling, 
#completion, production, or financial decision or any procedure involving any risk to the 
#safety of any drilling venture, drilling rig or its crew or any other third party.  The 
#Customer has full responsibility for all drilling, completion and production operation.  
#Halliburton makes no representations or warranties, either expressed or 
#implied, including, but not limited to, the implied warranties of merchantability or fitness 
#for a particular purpose, with respect to the services rendered.  In no event will 
#Halliburton be liable for failure to obtain any particular results or for 
#any damages, including, but not limited to, indirect, special or consequential damages, 
#resulting from the use of any information or interpretation provided by Halliburton.
#
~A           TIME           GTDEPTH  GTPQH  GTTQ  GTTN   GTET   GTTVD  
# ...
   03:25:02.680.18-May-2020 4797.01 3817.87 65.93 13.00 226.09 2540.22
   03:25:02.880.18-May-2020 4797.01 3817.87 65.93 13.00 226.29 2540.22
   03:25:03.080.18-May-2020 4797.01 3817.70 65.93 13.00 226.49 2540.22
   03:25:03.280.18-May-2020 4797.01 3817.71 65.93 13.00 226.69 2540.22
   03:25:03.481.18-May-2020 4797.01 3817.60 65.93 13.00 226.89 2540.22
   03:25:03.681.18-May-2020 4797.01 3817.65 65.93 13.00 227.09 2540.22
   03:25:03.881.18-May-2020 4797.01 3817.65 65.93 13.00 227.29 2540.22
   03:25:04.081.18-May-2020 4797.01 3817.99 65.93 13.00 227.49 2540.22
   03:25:04.281.18-May-2020 4797.01 3817.55 65.93 13.00 227.69 2540.22
   03:25:04.481.18-May-2020 4797.01 3817.76 65.93 13.00 227.89 2540.22
   03:25:04.681.18-May-2020 4797.01 3817.91 65.93 13.00 228.09 2540.22
   03:25:04.881.18-May-2020 4797.01 3817.91 65.93 13.00 228.29 2540.22
   03:25:05.081.18-May-2020 4797.01 3817.66 65.93 13.00 228.49 2540.22
   03:25:05.281.18-May-2020 4797.01 3817.63 65.93 13.00 228.69 2540.22
   03:25:05.481.18-May-2020 4797.01 3817.63 65.93 13.00 228.89 2540.22
   03:25:05.681.18-May-2020 4797.01 3817.60 65.93 13.00 229.09 2540.22
   03:25:05.882.18-May-2020 4797.01 3817.60 65.93 13.00 229.29 2540.22
   03:25:06.082.18-May-2020 4797.01 3818.40 65.93 13.00 229.49 2540.22
   03:25:06.282.18-May-2020 4797.01 3817.68 65.93 13.00 229.69 2540.22
   03:25:06.482.18-May-2020 4797.01 3817.54 65.93 13.00 229.89 2540.22
   03:25:06.682.18-May-2020 4797.01 3817.96 65.93 13.00 230.09 2540.22
   03:25:06.882.18-May-2020 4797.01 3817.96 65.93 13.00 230.29 2540.22
   03:25:07.082.18-May-2020 4797.01 3818.07 65.93 13.00 230.49 2540.22
   03:25:07.282.18-May-2020 4797.01 3817.72 65.93 13.00 230.69 2540.22
   03:25:07.482.18-May-2020 4797.01 3817.66 65.93 13.00 230.89 2540.22
   03:25:07.682.18-May-2020 4797.01 3817.86 65.93 13.00 231.09 2540.22
   03:25:07.882.18-May-2020 4797.01 3817.86 65.93 13.00 231.29 2540.22
   03:25:08.082.18-May-2020 4797.01 3818.01 65.93 13.00 231.49 2540.22
   03:25:08.283.18-May-2020 4797.01 3817.61 65.93 13.00 231.69 2540.22
   03:25:08.483.18-May-2020 4797.01 3816.89 65.93 13.00 231.89 2540.22
   03:25:08.683.18-May-2020 4797.01 3818.87 65.93 13.00 232.09 2540.22
   03:25:08.883.18-May-2020 4797.01 3818.87 65.93 13.00 232.29 2540.22
   03:25:09.083.18-May-2020 4797.01 3817.74 65.93 13.00 232.49 2540.22
   03:25:09.283.18-May-2020 4797.01 3818.16 65.93 13.00 232.69 2540.22
   03:25:09.483.18-May-2020 4797.01 3817.92 65.93 13.00 232.89 2540.22
   03:25:09.683.18-May-2020 4797.01 3817.71 65.93 13.00 233.09 2540.22
   03:25:09.883.18-May-2020 4797.01 3817.71 65.93 13.00 233.29 2540.22
   03:25:10.083.18-May-2020 4797.01 3817.76 65.93 13.00 233.49 2540.22
   03:25:10.283.18-May-2020 4797.01 3817.65 65.93 13.00 233.69 2540.22
   03:25:10.483.18-May-2020 4797.01 3817.69 65.93 13.00 233.89 2540.22
   03:25:10.683.18-May-2020 4797.01 3817.01 65.93 13.00 234.09 2540.22
   03:25:10.884.18-May-2020 4797.01 3818.23 65.93 13.00 234.29 2540.22
   03:25:11.084.18-May-2020 4797.01 3817.62 65.93 13.00 234.49 2540.22
   03:25:11.284.18-May-2020 4797.01 3817.75 65.93 13.00 234.69 2540.22
   03:25:11.484.18-May-2020 4797.01 3818.02 65.93 13.00 234.89 2540.22
   03:25:11.684.18-May-2020 4797.01 3817.76 65.92 13.00 235.09 2540.22
   03:25:11.884.18-May-2020 4797.01 3817.76 65.92 13.00 235.29 2540.22
   03:25:12.084.18-May-2020 4797.01 3817.66 65.93 13.00 235.49 2540.22
   03:25:12.284.18-May-2020 4797.01 3817.68 65.92 13.00 235.70 2540.22
   03:25:12.484.18-May-2020 4797.01 3817.64 65.92 13.00 235.90 2540.22
   03:25:12.684.18-May-2020 4797.01 3816.96 65.92 13.00 236.10 2540.22
   03:25:12.884.18-May-2020 4797.01 3816.96 65.92 13.00 236.30 2540.22
   03:25:13.084.18-May-2020 4797.01 3817.78 65.92 13.00 236.50 2540.22
   03:25:13.285.18-May-2020 4797.01 3817.63 65.92 13.00 236.70 2540.22
   03:25:13.485.18-May-2020 4797.01 3817.94 65.92 13.00 236.90 2540.22
   03:25:13.685.18-May-2020 4797.01 3817.51 65.92 13.00 237.10 2540.22
   03:25:13.885.18-May-2020 4797.01 3817.51 65.92 13.00 237.30 2540.22
   03:25:14.085.18-May-2020 4797.01 3817.81 65.92 13.00 237.50 2540.22
   03:25:14.285.18-May-2020 4797.01 3817.68 65.92 13.00 237.70 2540.22
   03:25:14.485.18-May-2020 4797.01 3817.92 65.92 13.00 237.90 2540.22
   03:25:14.685.18-May-2020 4797.01 3817.46 65.92 13.00 238.10 2540.22
   03:25:14.885.18-May-2020 4797.01 3817.46 65.92 13.00 238.30 2540.22
   03:25:15.085.18-May-2020 4797.01 3817.68 65.92 13.00 238.50 2540.22
   03:25:15.285.18-May-2020 4797.01 3816.86 65.92 13.00 238.70 2540.22
   03:25:15.485.18-May-2020 4797.01 3818.82 65.92 13.00 238.90 2540.22
   03:25:15.685.18-May-2020 4797.01 3817.88 65.92 13.00 239.10 2540.22
   03:25:15.886.18-May-2020 4797.01 3817.88 65.92 13.00 239.30 2540.22
   03:25:16.086.18-May-2020 4797.01 3818.12 65.92 13.00 239.50 2540.22
   03:25:16.286.18-May-2020 4797.01 3818.00 65.92 13.00 239.70 2540.22
   03:25:16.486.18-May-2020 4797.01 3817.75 65.92 13.00 239.90 2540.22
   03:25:16.686.18-May-2020 4797.01 3817.81 65.92 13.00 240.10 2540.22
   03:25:16.886.18-May-2020 4797.01 3817.81 65.92 13.00 240.30 2540.22
   03:25:17.086.18-May-2020 4797.01 3817.70 65.92 13.00 240.50 2540.22
   03:25:17.286.18-May-2020 4797.01 3817.73 65.92 13.00 240.70 2540.22
   03:25:17.486.18-May-2020 4797.01 3816.82 65.92 13.00 240.90 2540.22
   03:25:17.686.18-May-2020 4797.01 3818.47 65.92 13.00 241.10 2540.22
   03:25:17.886.18-May-2020 4797.01 3818.47 65.92 13.00 241.30 2540.22
   03:25:18.086.18-May-2020 4797.01 3817.77 65.92 13.00 241.50 2540.22
   03:25:18.287.18-May-2020 4797.01 3818.09 65.92 13.00 241.70 2540.22
   03:25:18.487.18-May-2020 4797.01 3817.81 65.92 13.00 241.90 2540.22
   03:25:18.687.18-May-2020 4797.01 3817.76 65.92 13.00 242.10 2540.22
   03:25:18.887.18-May-2020 4797.01 3817.76 65.92 13.00 242.30 2540.22
   03:25:19.087.18-May-2020 4797.01 3817.73 65.92 13.00 242.50 2540.22
   03:25:19.287.18-May-2020 4797.01 3817.70 65.92 13.00 242.70 2540.22
   03:25:19.487.18-May-2020 4797.01 3817.17 65.92 13.00 242.90 2540.22
   03:25:19.687.18-May-2020 4797.01 3818.05 65.92 13.00 243.10 2540.22
   03:25:19.887.18-May-2020 4797.01 3818.05 65.92 13.00 243.30 2540.22
   03:25:20.087.18-May-2020 4797.01 3817.66 65.92 13.00 243.50 2540.22
   03:25:20.287.18-May-2020 4797.01 3817.98 65.92 13.00 243.70 2540.22
   03:25:20.487.18-May-2020 4797.01 3817.78 65.92 13.00 243.90 2540.22
   03:25:20.688.18-May-2020 4797.01 3817.64 65.92 13.00 244.10 2540.22
   03:25:20.888.18-May-2020 4797.01 3817.64 65.92 13.00 244.30 2540.22
   03:25:21.088.18-May-2020 4797.01 3817.71 65.92 13.00 244.50 2540.22
   03:25:21.288.18-May-2020 4797.01 3817.94 65.92 13.00 244.70 2540.22
   03:25:21.488.18-May-2020 4797.01 3817.25 65.92 13.00 244.90 2540.22
   03:25:21.688.18-May-2020 4797.01 3818.47 65.92 13.00 245.10 2540.22
   03:25:21.888.18-May-2020 4797.01 3818.47 65.92 13.00 245.30 2540.22
   03:25:22.088.18-May-2020 4797.01 3816.99 65.92 13.00 245.50 2540.22
   03:25:22.288.18-May-2020 4797.01 3818.69 65.92 13.00 245.70 2540.22
   03:25:22.488.18-May-2020 4797.01 3817.93 65.92 13.00 245.90 2540.22
   03:25:22.688.18-May-2020 4797.01 3817.80 65.92 13.00 246.10 2540.22
   03:25:22.888.18-May-2020 4797.01 3817.80 65.92 13.00 246.30 2540.22
   03:25:23.088.18-May-2020 4797.01 3818.07 65.92 13.00 246.50 2540.22
   03:25:23.289.18-May-2020 4797.01 3817.81 65.92 13.00 246.70 2540.22
   03:25:23.489.18-May-2020 4797.01 3817.83 65.92 13.00 246.90 2540.22
   03:25:23.689.18-May-2020 4797.01 3817.84 65.92 13.00 247.10 2540.22
   03:25:23.889.18-May-2020 4797.01 3817.84 65.92 13.00 247.30 2540.22
   03:25:24.089.18-May-2020 4797.01 3817.76 65.92 13.00 247.50 2540.22
   03:25:24.289.18-May-2020 4797.01 3816.62 65.92 13.00 247.70 2540.22
   03:25:24.489.18-May-2020 4797.01 3818.71 65.92 13.00 247.90 2540.22
   03:25:24.689.18-May-2020 4797.01 3817.72 65.92 13.00 248.10 2540.22
   03:25:24.889.18-May-2020 4797.01 3817.72 65.92 13.00 248.30 2540.22
   03:25:25.089.18-May-2020 4797.01 3818.14 65.92 13.00 248.50 2540.22
