~Version Information
 VERS.                  2.0:   CWLS log ASCII Standard -VERSION 2.0
 WRAP.                   NO:   One line per depth step
~Well Information Block
#MNEM.UNIT     VALUE/NAME     DESCRIPTION
#---------     -----------    ---------------------------
 STRT.S             21:13:20 18-May-20: START TIME 21:13:20 18-May-20
 STOP.S             21:20:25 18-May-20: STOP TIME  21:20:25 18-May-20
 STEP.S                   0.00: STEP TIME
 NULL.                 -999.25: NULL VALUE
 UNIT.                     N/A:  LOGGING EQUIPMENT ID
 DCON.         Sperry Drilling:  DIRECTNL CONTR
 DOE .                     N/A:  DOE NUMBER
 JOBN.        AZ-XX-0906252240:  JOB TICKET NUMB
 MWDS.                     N/A:  MWD SHOP
 PROV.                    Baku:  PROVINCE
 STAT.                    Baku:  STATE NAME
 REGN.                   EESSA:  REGION
 BASE.              Azerbaijan:  LOGGING EQUIPMENT BASE LOCATION
 UWI .                     N/A:  UNIQUE WELL IDENTIFIER
 API .                     N/A:  API NUMBER
 MDS .        Operator Entered:  MAG DATA SOURCE
 WTYP.                Deviated:  WELL TYPE
 COMP.     BP Exploration (Caspian Sea) Ltd.:  COMPANY
 SRVC.          Turan Drilling:  CONTRACTOR
 WELL.           J23 (Slot 07):  WELL NAME
 CTRY.              Azerbaijan:  COUNTRY NAME
 FLD .                     ACG:  FIELD NAME
 PDAT.          Mean Sea Level:  PERMANENT DATUM
 RIG .             West Chirag:  RIG NAME
 SON .        AZ-XX-0906252240:  JOB NUMBER
 FTOP.          Formation Tops:  FORM TOPS DESC
 ILTD.               Lithology:  INTERP LTH DESC
 SVYD.                  Survey:  SURVEY DESC
 DMOD.             Drill Model:  DRILL MOD DESC
 HPTY.       Minimum Curvature:  HOLE POS TYPE
 NREF.                    Grid:  NORTH REFERENCE
 SPUD.               27-Aug-20:  SPUD DATE
 DATE.      00.00.00 19-May-20:  END TIME
 STIM.      03.00.00 25-Mar-20:  START TIME
 DMF .             Drill Floor:  DRILL MEAS FROM
 DFST.                        :  DIST FSL TEXT
 DFWT.                        :  DIST FWL TEXT
 CNTY.                        :  COUNTY
 LOC .                        :  LOCATION
 LMF .             Drill Floor:  LOG MEASURED FROM
 VSNS.m                   9.43:  VERT SEC N/S
 VSEW.m                  -8.91:  VERT SEC E/W
 AGAP.m                  43.00:  AIR GAP
 DEP .m                 354.17:  DEPTH
 APD .m                  43.00:  DEPTH ABOVE PD
 WDMS.m                 169.80:  WD ELEV
 EGL .m                   0.00:  GROUND ELEVATION
 EPD .m                   0.00:  ELEVATION
 AZTC.deg                 6.31:  AZM TOTAL CORR
 GRDC.deg                 0.14:  GRID CORRECTION
 MDEC.deg                 6.45:  MAGNETIC DECL
 MDIP.deg                59.56:  MAGNETIC DIP
 MFLD.nT              50295.00:  MAGNETIC FIELD
 GVFD.g                   1.00:  GRAVITY FIELD
 VSDR.deg               179.88:  VERT SEC DIRECT
 TDD .m                5150.01:  TOTAL DEPTH (DRILLER)
 SDEP.m                 864.00:  START DEPTH
 DFSL.m                   0.00:  DISTANCE FSL
 DFWL.m                   0.00:  DISTANCE FWL
 UTMY.m             4443793.85:  UTM Y
 UTMX.m              519005.06:  UTM X
 WHEW.m                  -8.91:  WELL HEAD E/W
 WHNS.m                   9.43:  WELL HEAD N/S
 LONG.deg                51.22:  LONGITUDE
 LATI.deg                40.13:  LATITUDE
 TVDS.m                  43.00:  TVDSS CORRECTN
 EKB .m                   0.00:  KB ELEVATION
 EDF .m                  43.00:  DF ELEVATION
 TDL .m                 363.00:  TOTAL DEPTH (LOGGER)
 MAGU.                 1850802:  MAGUTM CHECKSUM
 VSC .                       0:  VS TO CLOSURE
~Parameter Information Block
#MNEM.UNIT       Value        Description
#---------     -----------    ---------------------------
 AV  .mps                 2.30:  Ann Velocity 
 AVMX.mps                 4.40:  Max Ann Veloc 
 AZIF.deg               110.24:  Azm, Final 
 BHAT.        Rotary Steerable:  BHA Type 
 BREV.rev               331.00:  Rev Bit Total 
 BROT.°/30m               0.00:  Build Rotating 
 BS  .in                  8.50:  Bit Size 
 BSZ .in                  8.50:  Bit Size 
 BTPL.psig              585.00:  Bit Press Loss 
 CABU.                     Yes:  Customer Abuse 
 TCS .hr                122.75:  Time Ciculation Ended 
 CV  .mps                 2.67:  Crit Velocity 
 CVMX.mps                 3.56:  Max Crit Veloc 
 DD1 .          Rashad Habibov:  Direct Drillr 1 
 DD2 .         Rasim Ibrahimov:  Direct Drillr 2 
 DDSV.               Geo-Pilot:  DD Service 
 DEFF.%                  98.00:  % Det Eff 
 DLRX.°/30m               0.75:  Dogleg Rot Max 
 DLSO.°/30m               1.25:  Dogleg Oriented 
 DLSX.°/30m               2.06:  Dogleg Str Max 
 DRET.      07.45.00 17-May-20:  Drill End Time 
 DRST.      22.50.00 15-May-20:  Drill Start Tim 
 DTIM.hr                 20.75:  Time Drilling 
 EDEP.m                5124.01:  End Depth 
 ENG1.           Eldar Hajiyev:  Engineer 1 
 ENG2.        Marcelo Sandoval:  Engineer 2 
 ENG3.        Davud huseynzada:  Engineer 3 
 ENG4.          Ruslan Safarov:  Engineer 4 
 ETIM.      04.33.00 23-May-20:  End Time 
 FLOI.gpm               450.00:  Flow In 
 FLON.gpm               400.00:  Flow In Min 
 FLOS.cptm                0.00:  Fluid Loss 
 FLOX.gpm               500.00:  Flow In Max 
 FTRO.       Formation Presure:  FTWD Run Obj 
 HFLO.                      No:  High Flow 
 HPRE.                     Yes:  High Pressure 
 HTEM.                      No:  High Temp 
 HYDO.m                   1.80:  Hydro Offset 
 IFIN.deg                75.06:  Inc, Final 
 IMAX.deg                75.38:  Inc Max 
 IMIN.deg                74.69:  Inc Min 
 IMND.m                5027.38:  Inc Min Depth 
 IMXD.m                4771.61:  Inc Max Depth 
 JARR.                      No:  Jarring 
 LETM.      07.45.00 17-May-20:  Log End Time 
 LOST.hr                     0:  Lost Rig Time 
 LSTM.      22.50.00 15-May-20:  Log Start Time 
 MDCL.ppm             42000.00:  Mud Chlorides 
 MDES.     Inversion Oil/Synthetic:  Mud Desc 
 DFD .sg                  1.34:  Mud Density 
 MDMN.sg                  1.34:  Dens Mud Min 
 MDMX.sg                  1.34:  Dens Mud Max 
 MOIL.                       0:  Run Mud Oil % 
 MOWR.                   67:33:  Run Mud OWR 
 MSND.                       0:  Run Mud Sand % 
 MSOL.                     1.8:  Run Mud Solids% 
 DFV .spqt               76.00:  Mud Viscosity 
 MWOD.in                  6.75:  MWD Tool OD 
 MWSI.                      No:  Serv Intrp, MWD 
 OTIM.hr                228.19:  Time Operating 
 PCON.           Look Like New:  Pad Condition 
 PMAX.psia             6164.70:  Press Op, Max 
 PV  .cP                 28.00:  Mud PV 
 RUN .                     900:  Run Number 
 ROPA.m/hr               19.00:  ROP Avg 
 ROPN.m/hr               11.00:  ROP Min 
 ROPX.m/hr               36.00:  ROP Max 
 RPMA.rpm               120.00:  RPM Surface Avg 
 RPMN.rpm               120.00:  RPM Surface Min 
 RPMX.rpm               120.00:  RPM Surface Max 
 RRUN.                    L604:  Rig Run Number 
 RTIM.hr                  7.00:  Time Reaming 
 SAZI.deg               109.27:  Azm, Start 
 SDEP.m                4761.01:  Start Depth 
 SIDD.                      No:  Serv Intrp, DD 
 SINC.deg                75.38:  Inc, Start 
 SPPA.psig             3574.00:  SPP Avg 
 SPPN.psig             3475.00:  SPP Min 
 SPPX.psig             3791.00:  SPP Max 
 STIM.      07.08.48 13-May-20:  Start Time 
 SVCS.                 DD, MWD:  Services 
 SVER.                    9.20:  Sperry Version 
 TDAT.m                 363.00:  Tot Depth Attmp 
 TDDF.                      No:  Trip for DD 
 TDLG.m                 363.00:  Tot Depth Loggd 
 TFF .                      No:  Trip for Fail 
 TQAA.f-kp               20.00:  Torque Abs Avg 
 TQAN.f-kp               18.00:  Torque Abs Min 
 TQAX.f-kp               22.00:  Torque Abs Max 
 TRRT.°/30m              -0.35:  Turn Rotating 
 MRT .                    HCIM:  Maximum Recorded Temperature 
 TTMX.degC               92.16:  Max Tool Temp 
 VS01.                90586518:  Virtual Str1 SN 
 VS02.        AZ90560654Z1W1C6:  Virtual Str2 SN 
 VS03.           AZ90610398F11:  Virtual Str3 SN 
 VS04.                90514975:  Virtual Str4 SN 
 VS05.                90514972:  Virtual Str5 SN 
 VS06.     AZ90603282F11V7D1A6:  Virtual Str6 SN 
 WBMN.klb                 7.00:  WOB Min 
 WOBA.klb                12.00:  WOB Avg 
 WOBX.klb                14.00:  WOB Max 
 YP  .lhf2               32.00:  Yield Point 
~Curve Information Block
#MNEM.UNIT                 API CODE     Curve Description
#---------               -----------    ---------------------------
 TIME.HHMMSS            00 000 000 000:  GT Time & Date
 GTDEPTH.m              00 000 000 000:  GT Depth
 GTPQH.psia             00 000 000 000:  GT HR Quartz Pressure
 GTTQ.degC              00 000 000 000:  GT Quartz Temperature
 GTTN.NONE              00 000 000 000:  GT Test Number
 GTET.sec               00 000 000 000:  GT Elapsed Test Time
 GTTVD.m                00 000 000 000:  GT True Vertical Depth
#Other Information
#
#WARRANTY: Halliburton will use its best efforts to furnish customers with 
#accurate information and interpretations that are part of, and incident to, the services 
#provided.  However, Halliburton cannot and does not warrant the accuracy 
#or correctness of such information and interpretations.  Under no circumstances should any 
#such information or interpretation be relied upon as the sole basis for any drilling, 
#completion, production, or financial decision or any procedure involving any risk to the 
#safety of any drilling venture, drilling rig or its crew or any other third party.  The 
#Customer has full responsibility for all drilling, completion and production operation.  
#Halliburton makes no representations or warranties, either expressed or 
#implied, including, but not limited to, the implied warranties of merchantability or fitness 
#for a particular purpose, with respect to the services rendered.  In no event will 
#Halliburton be liable for failure to obtain any particular results or for 
#any damages, including, but not limited to, indirect, special or consequential damages, 
#resulting from the use of any information or interpretation provided by Halliburton.
#
~A           TIME           GTDEPTH  GTPQH  GTTQ  GTTN   GTET   GTTVD  
# ...
   21:15:36.101.18-May-2020 4766.01 5502.07 60.63 14.00 135.64 2532.29
   21:15:36.301.18-May-2020 4766.01 5502.28 60.63 14.00 135.84 2532.29
   21:15:36.502.18-May-2020 4766.01 5503.60 60.63 14.00 136.04 2532.29
   21:15:36.702.18-May-2020 4766.01 5503.60 60.63 14.00 136.24 2532.29
   21:15:36.902.18-May-2020 4766.01 5501.42 60.63 14.00 136.44 2532.29
   21:15:37.102.18-May-2020 4766.01 5507.89 60.63 14.00 136.64 2532.29
   21:15:37.302.18-May-2020 4766.01 5505.83 60.63 14.00 136.84 2532.29
   21:15:37.502.18-May-2020 4766.01 5501.64 60.63 14.00 137.04 2532.29
   21:15:37.702.18-May-2020 4766.01 5501.64 60.63 14.00 137.24 2532.29
   21:15:37.902.18-May-2020 4766.01 5514.74 60.63 14.00 137.44 2532.29
   21:15:38.102.18-May-2020 4766.01 5510.17 60.63 14.00 137.64 2532.29
   21:15:38.302.18-May-2020 4766.01 5502.88 60.63 14.00 137.84 2532.29
   21:15:38.502.18-May-2020 4766.01 5501.89 60.63 14.00 138.04 2532.29
   21:15:38.702.18-May-2020 4766.01 5501.89 60.63 14.00 138.24 2532.29
   21:15:38.902.18-May-2020 4766.01 5515.81 60.63 14.00 138.44 2532.29
   21:15:39.102.18-May-2020 4766.01 5507.69 60.63 14.00 138.64 2532.29
   21:15:39.302.18-May-2020 4766.01 5503.03 60.63 14.00 138.84 2532.29
   21:15:39.502.18-May-2020 4766.01 5504.87 60.63 14.00 139.04 2532.29
   21:15:39.702.18-May-2020 4766.01 5504.87 60.63 14.00 139.24 2532.29
   21:15:39.902.18-May-2020 4766.01 5510.96 60.63 14.00 139.44 2532.29
   21:15:40.102.18-May-2020 4766.01 5503.69 60.63 14.00 139.64 2532.29
   21:15:40.303.18-May-2020 4766.01 5503.19 60.63 14.00 139.84 2532.29
   21:15:40.503.18-May-2020 4766.01 5510.25 60.63 14.00 140.04 2532.29
   21:15:40.703.18-May-2020 4766.01 5510.25 60.63 14.00 140.24 2532.29
   21:15:40.903.18-May-2020 4766.01 5503.72 60.63 14.00 140.44 2532.29
   21:15:41.103.18-May-2020 4766.01 5503.45 60.63 14.00 140.64 2532.29
   21:15:41.303.18-May-2020 4766.01 5504.46 60.63 14.00 140.84 2532.29
   21:15:41.503.18-May-2020 4766.01 5504.42 60.63 14.00 141.04 2532.29
   21:15:41.703.18-May-2020 4766.01 5504.42 60.63 14.00 141.24 2532.29
   21:15:41.903.18-May-2020 4766.01 5506.17 60.63 14.00 141.44 2532.29
   21:15:42.103.18-May-2020 4766.01 5498.70 60.63 14.00 141.64 2532.29
   21:15:42.303.18-May-2020 4766.01 5498.77 60.63 14.00 141.84 2532.29
   21:15:42.503.18-May-2020 4766.01 5499.78 60.63 14.00 142.04 2532.29
   21:15:42.703.18-May-2020 4766.01 5501.54 60.63 14.00 142.24 2532.29
   21:15:42.903.18-May-2020 4766.01 5494.07 60.63 14.00 142.44 2532.29
   21:15:43.103.18-May-2020 4766.01 5493.57 60.63 14.00 142.64 2532.29
   21:15:43.303.18-May-2020 4766.01 5493.20 60.63 14.00 142.84 2532.29
   21:15:43.503.18-May-2020 4766.01 5491.85 60.63 14.00 143.04 2532.29
   21:15:43.703.18-May-2020 4766.01 5491.85 60.63 14.00 143.24 2532.29
   21:15:43.903.18-May-2020 4766.01 5489.72 60.63 14.00 143.44 2532.29
   21:15:44.104.18-May-2020 4766.01 5502.06 60.63 14.00 143.64 2532.29
   21:15:44.304.18-May-2020 4766.01 5487.57 60.63 14.00 143.84 2532.29
   21:15:44.504.18-May-2020 4766.01 5490.88 60.63 14.00 144.04 2532.29
   21:15:44.704.18-May-2020 4766.01 5490.88 60.63 14.00 144.24 2532.29
   21:15:44.904.18-May-2020 4766.01 5511.76 60.63 14.00 144.44 2532.29
   21:15:45.104.18-May-2020 4766.01 5487.85 60.63 14.00 144.64 2532.29
   21:15:45.304.18-May-2020 4766.01 5491.06 60.63 14.00 144.84 2532.29
   21:15:45.504.18-May-2020 4766.01 5490.17 60.63 14.00 145.04 2532.29
   21:15:45.704.18-May-2020 4766.01 5490.17 60.63 14.00 145.24 2532.29
   21:15:45.904.18-May-2020 4766.01 5504.83 60.63 14.00 145.44 2532.29
   21:15:46.104.18-May-2020 4766.01 5488.21 60.63 14.00 145.64 2532.29
   21:15:46.304.18-May-2020 4766.01 5492.45 60.63 14.00 145.84 2532.29
   21:15:46.504.18-May-2020 4766.01 5503.84 60.63 14.00 146.04 2532.29
   21:15:46.704.18-May-2020 4766.01 5500.48 60.63 14.00 146.24 2532.29
   21:15:46.904.18-May-2020 4766.01 5491.93 60.63 14.00 146.44 2532.29
   21:15:47.104.18-May-2020 4766.01 5490.66 60.63 14.00 146.64 2532.29
   21:15:47.304.18-May-2020 4766.01 5498.65 60.63 14.00 146.84 2532.29
   21:15:47.504.18-May-2020 4766.01 5495.90 60.63 14.00 147.04 2532.29
   21:15:47.705.18-May-2020 4766.01 5495.90 60.63 14.00 147.24 2532.29
   21:15:47.905.18-May-2020 4766.01 5490.53 60.63 14.00 147.44 2532.29
   21:15:48.105.18-May-2020 4766.01 5491.33 60.63 14.00 147.64 2532.29
   21:15:48.305.18-May-2020 4766.01 5489.89 60.63 14.00 147.84 2532.29
   21:15:48.505.18-May-2020 4766.01 5494.30 60.63 14.00 148.04 2532.29
   21:15:48.705.18-May-2020 4766.01 5494.30 60.63 14.00 148.24 2532.29
   21:15:48.905.18-May-2020 4766.01 5488.34 60.63 14.00 148.44 2532.29
   21:15:49.105.18-May-2020 4766.01 5488.01 60.63 14.00 148.64 2532.29
   21:15:49.305.18-May-2020 4766.01 5491.33 60.63 14.00 148.84 2532.29
   21:15:49.505.18-May-2020 4766.01 5493.16 60.63 14.00 149.04 2532.29
   21:15:49.705.18-May-2020 4766.01 5493.16 60.63 14.00 149.24 2532.29
   21:15:49.905.18-May-2020 4766.01 5487.52 60.63 14.00 149.44 2532.29
   21:15:50.105.18-May-2020 4766.01 5488.21 60.63 14.00 149.64 2532.29
   21:15:50.305.18-May-2020 4766.01 5488.20 60.63 14.00 149.84 2532.29
   21:15:50.505.18-May-2020 4766.01 5486.00 60.63 14.00 150.04 2532.29
   21:15:50.705.18-May-2020 4766.01 5487.07 60.63 14.00 150.24 2532.29
   21:15:50.905.18-May-2020 4766.01 5497.15 60.63 14.00 150.44 2532.29
   21:15:51.105.18-May-2020 4766.01 5484.88 60.63 14.00 150.64 2532.29
   21:15:51.305.18-May-2020 4766.01 5487.18 60.63 14.00 150.84 2532.29
   21:15:51.506.18-May-2020 4766.01 5493.61 60.63 14.00 151.04 2532.29
   21:15:51.706.18-May-2020 4766.01 5493.61 60.63 14.00 151.24 2532.29
   21:15:51.906.18-May-2020 4766.01 5485.91 60.63 14.00 151.44 2532.29
   21:15:52.106.18-May-2020 4766.01 5485.75 60.63 14.00 151.64 2532.29
   21:15:52.306.18-May-2020 4766.01 5490.43 60.63 14.00 151.84 2532.29
   21:15:52.506.18-May-2020 4766.01 5498.37 60.63 14.00 152.04 2532.29
   21:15:52.706.18-May-2020 4766.01 5498.37 60.63 14.00 152.24 2532.29
   21:15:52.906.18-May-2020 4766.01 5485.35 60.63 14.00 152.44 2532.29
   21:15:53.106.18-May-2020 4766.01 5487.70 60.63 14.00 152.64 2532.29
   21:15:53.306.18-May-2020 4766.01 5489.72 60.63 14.00 152.84 2532.29
   21:15:53.506.18-May-2020 4766.01 5505.71 60.63 14.00 153.04 2532.29
   21:15:53.706.18-May-2020 4766.01 5505.71 60.63 14.00 153.24 2532.29
   21:15:53.906.18-May-2020 4766.01 5487.04 60.63 14.00 153.44 2532.29
   21:15:54.106.18-May-2020 4766.01 5486.48 60.63 14.00 153.64 2532.29
   21:15:54.306.18-May-2020 4766.01 5496.51 60.63 14.00 153.84 2532.29
   21:15:54.506.18-May-2020 4766.01 5486.57 60.63 14.00 154.04 2532.29
   21:15:54.706.18-May-2020 4766.01 5485.15 60.63 14.00 154.24 2532.29
   21:15:54.906.18-May-2020 4766.01 5485.32 60.63 14.00 154.44 2532.29
   21:15:55.106.18-May-2020 4766.01 5485.74 60.63 14.00 154.64 2532.29
   21:15:55.307.18-May-2020 4766.01 5484.10 60.63 14.00 154.84 2532.29
   21:15:55.507.18-May-2020 4766.01 5495.36 60.63 14.00 155.04 2532.29
   21:15:55.707.18-May-2020 4766.01 5495.36 60.63 14.00 155.24 2532.29
   21:15:55.907.18-May-2020 4766.01 5484.41 60.63 14.00 155.44 2532.29
   21:15:56.107.18-May-2020 4766.01 5483.60 60.63 14.00 155.64 2532.29
   21:15:56.307.18-May-2020 4766.01 5490.73 60.63 14.00 155.84 2532.29
   21:15:56.507.18-May-2020 4766.01 5486.57 60.63 14.00 156.04 2532.29
   21:15:56.707.18-May-2020 4766.01 5486.57 60.63 14.00 156.24 2532.29
   21:15:56.907.18-May-2020 4766.01 5480.11 60.63 14.00 156.44 2532.29
   21:15:57.107.18-May-2020 4766.01 5476.06 60.63 14.00 156.64 2532.29
   21:15:57.307.18-May-2020 4766.01 5478.44 60.63 14.00 156.84 2532.29
   21:15:57.507.18-May-2020 4766.01 5463.33 60.63 14.00 157.04 2532.29
   21:15:57.707.18-May-2020 4766.01 5463.33 60.63 14.00 157.24 2532.29
   21:15:57.907.18-May-2020 4766.01 5445.79 60.63 14.00 157.44 2532.29
   21:15:58.107.18-May-2020 4766.01 5459.99 60.63 14.00 157.64 2532.29
   21:15:58.307.18-May-2020 4766.01 5463.75 60.63 14.00 157.84 2532.29
   21:15:58.507.18-May-2020 4766.01 5478.21 60.63 14.00 158.04 2532.29
