~Version Information
 VERS.                  2.0:   CWLS log ASCII Standard -VERSION 2.0
 WRAP.                   NO:   One line per depth step
~Well Information Block
#MNEM.UNIT     VALUE/NAME     DESCRIPTION
#---------     -----------    ---------------------------
 STRT.S             01:27:41 18-May-20: START TIME 01:27:41 18-May-20
 STOP.S             01:34:42 18-May-20: STOP TIME  01:34:42 18-May-20
 STEP.S                   0.00: STEP TIME
 NULL.                 -999.25: NULL VALUE
 UNIT.                     N/A:  LOGGING EQUIPMENT ID
 DCON.         Sperry Drilling:  DIRECTNL CONTR
 DOE .                     N/A:  DOE NUMBER
 JOBN.        AZ-XX-0906252240:  JOB TICKET NUMB
 MWDS.                     N/A:  MWD SHOP
 PROV.                    Baku:  PROVINCE
 STAT.                    Baku:  STATE NAME
 REGN.                   EESSA:  REGION
 BASE.              Azerbaijan:  LOGGING EQUIPMENT BASE LOCATION
 UWI .                     N/A:  UNIQUE WELL IDENTIFIER
 API .                     N/A:  API NUMBER
 MDS .        Operator Entered:  MAG DATA SOURCE
 WTYP.                Deviated:  WELL TYPE
 COMP.     BP Exploration (Caspian Sea) Ltd.:  COMPANY
 SRVC.          Turan Drilling:  CONTRACTOR
 WELL.           J23 (Slot 07):  WELL NAME
 CTRY.              Azerbaijan:  COUNTRY NAME
 FLD .                     ACG:  FIELD NAME
 PDAT.          Mean Sea Level:  PERMANENT DATUM
 RIG .             West Chirag:  RIG NAME
 SON .        AZ-XX-0906252240:  JOB NUMBER
 FTOP.          Formation Tops:  FORM TOPS DESC
 ILTD.               Lithology:  INTERP LTH DESC
 SVYD.                  Survey:  SURVEY DESC
 DMOD.             Drill Model:  DRILL MOD DESC
 HPTY.       Minimum Curvature:  HOLE POS TYPE
 NREF.                    Grid:  NORTH REFERENCE
 SPUD.               27-Aug-20:  SPUD DATE
 DATE.      00.00.00 19-May-20:  END TIME
 STIM.      03.00.00 25-Mar-20:  START TIME
 DMF .             Drill Floor:  DRILL MEAS FROM
 DFST.                        :  DIST FSL TEXT
 DFWT.                        :  DIST FWL TEXT
 CNTY.                        :  COUNTY
 LOC .                        :  LOCATION
 LMF .             Drill Floor:  LOG MEASURED FROM
 VSNS.m                   9.43:  VERT SEC N/S
 VSEW.m                  -8.91:  VERT SEC E/W
 AGAP.m                  43.00:  AIR GAP
 DEP .m                 354.17:  DEPTH
 APD .m                  43.00:  DEPTH ABOVE PD
 WDMS.m                 169.80:  WD ELEV
 EGL .m                   0.00:  GROUND ELEVATION
 EPD .m                   0.00:  ELEVATION
 AZTC.deg                 6.31:  AZM TOTAL CORR
 GRDC.deg                 0.14:  GRID CORRECTION
 MDEC.deg                 6.45:  MAGNETIC DECL
 MDIP.deg                59.56:  MAGNETIC DIP
 MFLD.nT              50295.00:  MAGNETIC FIELD
 GVFD.g                   1.00:  GRAVITY FIELD
 VSDR.deg               179.88:  VERT SEC DIRECT
 TDD .m                5150.01:  TOTAL DEPTH (DRILLER)
 SDEP.m                 864.00:  START DEPTH
 DFSL.m                   0.00:  DISTANCE FSL
 DFWL.m                   0.00:  DISTANCE FWL
 UTMY.m             4443793.85:  UTM Y
 UTMX.m              519005.06:  UTM X
 WHEW.m                  -8.91:  WELL HEAD E/W
 WHNS.m                   9.43:  WELL HEAD N/S
 LONG.deg                51.22:  LONGITUDE
 LATI.deg                40.13:  LATITUDE
 TVDS.m                  43.00:  TVDSS CORRECTN
 EKB .m                   0.00:  KB ELEVATION
 EDF .m                  43.00:  DF ELEVATION
 TDL .m                 363.00:  TOTAL DEPTH (LOGGER)
 MAGU.                 1850802:  MAGUTM CHECKSUM
 VSC .                       0:  VS TO CLOSURE
~Parameter Information Block
#MNEM.UNIT       Value        Description
#---------     -----------    ---------------------------
 AV  .mps                 2.30:  Ann Velocity 
 AVMX.mps                 4.40:  Max Ann Veloc 
 AZIF.deg               110.24:  Azm, Final 
 BHAT.        Rotary Steerable:  BHA Type 
 BREV.rev               331.00:  Rev Bit Total 
 BROT.°/30m               0.00:  Build Rotating 
 BS  .in                  8.50:  Bit Size 
 BSZ .in                  8.50:  Bit Size 
 BTPL.psig              585.00:  Bit Press Loss 
 CABU.                     Yes:  Customer Abuse 
 COMM.                     tPr:  Run Comments 1 
 TCS .hr                122.75:  Time Ciculation Ended 
 CV  .mps                 2.67:  Crit Velocity 
 CVMX.mps                 3.56:  Max Crit Veloc 
 DD1 .          Rashad Habibov:  Direct Drillr 1 
 DD2 .         Rasim Ibrahimov:  Direct Drillr 2 
 DDSV.               Geo-Pilot:  DD Service 
 DEFF.%                  98.00:  % Det Eff 
 DLRX.°/30m               0.75:  Dogleg Rot Max 
 DLSO.°/30m               1.25:  Dogleg Oriented 
 DLSX.°/30m               2.06:  Dogleg Str Max 
 DRET.      07.45.00 17-May-20:  Drill End Time 
 DRST.      22.50.00 15-May-20:  Drill Start Tim 
 DTIM.hr                 20.75:  Time Drilling 
 EDEP.m                5124.01:  End Depth 
 ENG1.           Eldar Hajiyev:  Engineer 1 
 ENG2.        Marcelo Sandoval:  Engineer 2 
 ENG3.        Davud huseynzada:  Engineer 3 
 ENG4.          Ruslan Safarov:  Engineer 4 
 ETIM.      04.33.00 23-May-20:  End Time 
 FLOI.gpm               450.00:  Flow In 
 FLON.gpm               400.00:  Flow In Min 
 FLOS.cptm                0.00:  Fluid Loss 
 FLOX.gpm               500.00:  Flow In Max 
 FTRO.       Formation Presure:  FTWD Run Obj 
 HFLO.                      No:  High Flow 
 HPRE.                     Yes:  High Pressure 
 HTEM.                      No:  High Temp 
 HYDO.m                   1.80:  Hydro Offset 
 IFIN.deg                75.06:  Inc, Final 
 IMAX.deg                75.38:  Inc Max 
 IMIN.deg                74.69:  Inc Min 
 IMND.m                5027.38:  Inc Min Depth 
 IMXD.m                4771.61:  Inc Max Depth 
 JARR.                      No:  Jarring 
 LETM.      07.45.00 17-May-20:  Log End Time 
 LOST.hr                     0:  Lost Rig Time 
 LSTM.      22.50.00 15-May-20:  Log Start Time 
 MDCL.ppm             42000.00:  Mud Chlorides 
 MDES.     Inversion Oil/Synthetic:  Mud Desc 
 DFD .sg                  1.34:  Mud Density 
 MDMN.sg                  1.34:  Dens Mud Min 
 MDMX.sg                  1.34:  Dens Mud Max 
 MOIL.                       0:  Run Mud Oil % 
 MOWR.                   67:33:  Run Mud OWR 
 MSND.                       0:  Run Mud Sand % 
 MSOL.                     1.8:  Run Mud Solids% 
 DFV .spqt               76.00:  Mud Viscosity 
 MWOD.in                  6.75:  MWD Tool OD 
 MWSI.                      No:  Serv Intrp, MWD 
 OTIM.hr                228.19:  Time Operating 
 PCON.           Look Like New:  Pad Condition 
 PMAX.psia             6164.70:  Press Op, Max 
 PV  .cP                 28.00:  Mud PV 
 RUN .                     900:  Run Number 
 ROPA.m/hr               19.00:  ROP Avg 
 ROPN.m/hr               11.00:  ROP Min 
 ROPX.m/hr               36.00:  ROP Max 
 RPMA.rpm               120.00:  RPM Surface Avg 
 RPMN.rpm               120.00:  RPM Surface Min 
 RPMX.rpm               120.00:  RPM Surface Max 
 RRUN.                    L604:  Rig Run Number 
 RTIM.hr                  7.00:  Time Reaming 
 SAZI.deg               109.27:  Azm, Start 
 SDEP.m                4761.01:  Start Depth 
 SIDD.                      No:  Serv Intrp, DD 
 SINC.deg                75.38:  Inc, Start 
 SPPA.psig             3574.00:  SPP Avg 
 SPPN.psig             3475.00:  SPP Min 
 SPPX.psig             3791.00:  SPP Max 
 STIM.      07.08.48 13-May-20:  Start Time 
 SVCS.                 DD, MWD:  Services 
 SVER.                    9.20:  Sperry Version 
 TDAT.m                 363.00:  Tot Depth Attmp 
 TDDF.                      No:  Trip for DD 
 TDLG.m                 363.00:  Tot Depth Loggd 
 TFF .                      No:  Trip for Fail 
 TQAA.f-kp               20.00:  Torque Abs Avg 
 TQAN.f-kp               18.00:  Torque Abs Min 
 TQAX.f-kp               22.00:  Torque Abs Max 
 TRRT.°/30m              -0.35:  Turn Rotating 
 MRT .                    HCIM:  Maximum Recorded Temperature 
 TTMX.degC               92.16:  Max Tool Temp 
 VS01.                90586518:  Virtual Str1 SN 
 VS02.        AZ90560654Z1W1C6:  Virtual Str2 SN 
 VS03.           AZ90610398F11:  Virtual Str3 SN 
 VS04.                90514975:  Virtual Str4 SN 
 VS05.                90514972:  Virtual Str5 SN 
 VS06.     AZ90603282F11V7D1A6:  Virtual Str6 SN 
 WBMN.klb                 7.00:  WOB Min 
 WOBA.klb                12.00:  WOB Avg 
 WOBX.klb                14.00:  WOB Max 
 YP  .lhf2               32.00:  Yield Point 
~Curve Information Block
#MNEM.UNIT                 API CODE     Curve Description
#---------               -----------    ---------------------------
 TIME.HHMMSS            00 000 000 000:  GT Time & Date
 GTDEPTH.m              00 000 000 000:  GT Depth
 GTPQH.psia             00 000 000 000:  GT HR Quartz Pressure
 GTTQ.degC              00 000 000 000:  GT Quartz Temperature
 GTTN.NONE              00 000 000 000:  GT Test Number
 GTET.sec               00 000 000 000:  GT Elapsed Test Time
 GTTVD.m                00 000 000 000:  GT True Vertical Depth
#Other Information
#
#WARRANTY: Halliburton will use its best efforts to furnish customers with 
#accurate information and interpretations that are part of, and incident to, the services 
#provided.  However, Halliburton cannot and does not warrant the accuracy 
#or correctness of such information and interpretations.  Under no circumstances should any 
#such information or interpretation be relied upon as the sole basis for any drilling, 
#completion, production, or financial decision or any procedure involving any risk to the 
#safety of any drilling venture, drilling rig or its crew or any other third party.  The 
#Customer has full responsibility for all drilling, completion and production operation.  
#Halliburton makes no representations or warranties, either expressed or 
#implied, including, but not limited to, the implied warranties of merchantability or fitness 
#for a particular purpose, with respect to the services rendered.  In no event will 
#Halliburton be liable for failure to obtain any particular results or for 
#any damages, including, but not limited to, indirect, special or consequential damages, 
#resulting from the use of any information or interpretation provided by Halliburton.
#
~A           TIME           GTDEPTH  GTPQH  GTTQ  GTTN   GTET   GTTVD  
# ...
   01:34:06.196.18-May-2020 4854.01 5498.15 66.54 11.00 384.36 2555.10
   01:34:06.396.18-May-2020 4854.01 5497.36 66.54 11.00 384.56 2555.10
   01:34:06.596.18-May-2020 4854.01 5501.36 66.54 11.00 384.76 2555.10
   01:34:06.796.18-May-2020 4854.01 5504.27 66.54 11.00 384.96 2555.10
   01:34:06.996.18-May-2020 4854.01 5502.59 66.54 11.00 385.16 2555.10
   01:34:07.196.18-May-2020 4854.01 5502.59 66.54 11.00 385.36 2555.10
   01:34:07.396.18-May-2020 4854.01 5503.46 66.54 11.00 385.56 2555.10
   01:34:07.596.18-May-2020 4854.01 5509.03 66.54 11.00 385.76 2555.10
   01:34:07.796.18-May-2020 4854.01 5504.30 66.54 11.00 385.96 2555.10
   01:34:07.997.18-May-2020 4854.01 5500.43 66.54 11.00 386.16 2555.10
   01:34:08.197.18-May-2020 4854.01 5500.43 66.54 11.00 386.36 2555.10
   01:34:08.397.18-May-2020 4854.01 5510.36 66.54 11.00 386.56 2555.10
   01:34:08.597.18-May-2020 4854.01 5502.09 66.54 11.00 386.76 2555.10
   01:34:08.797.18-May-2020 4854.01 5504.29 66.54 11.00 386.96 2555.10
   01:34:08.997.18-May-2020 4854.01 5502.99 66.54 11.00 387.16 2555.10
   01:34:09.197.18-May-2020 4854.01 5502.99 66.54 11.00 387.36 2555.10
   01:34:09.397.18-May-2020 4854.01 5501.14 66.54 11.00 387.56 2555.10
   01:34:09.597.18-May-2020 4854.01 5504.53 66.54 11.00 387.76 2555.10
   01:34:09.797.18-May-2020 4854.01 5505.87 66.54 11.00 387.96 2555.10
   01:34:09.997.18-May-2020 4854.01 5501.85 66.54 11.00 388.16 2555.10
   01:34:10.197.18-May-2020 4854.01 5501.85 66.54 11.00 388.36 2555.10
   01:34:10.398.18-May-2020 4854.01 5500.63 66.54 11.00 388.56 2555.10
   01:34:10.598.18-May-2020 4854.01 5500.95 66.54 11.00 388.76 2555.10
   01:34:10.798.18-May-2020 4854.01 5499.25 66.53 11.00 388.96 2555.10
   01:34:10.998.18-May-2020 4854.01 5499.31 66.53 11.00 389.16 2555.10
   01:34:11.198.18-May-2020 4854.01 5499.31 66.53 11.00 389.36 2555.10
   01:34:11.398.18-May-2020 4854.01 5503.51 66.53 11.00 389.56 2555.10
   01:34:11.598.18-May-2020 4854.01 5502.06 66.53 11.00 389.76 2555.10
   01:34:11.798.18-May-2020 4854.01 5500.52 66.53 11.00 389.96 2555.10
   01:34:11.998.18-May-2020 4854.01 5501.35 66.53 11.00 390.16 2555.10
   01:34:12.198.18-May-2020 4854.01 5501.35 66.53 11.00 390.36 2555.10
   01:34:12.398.18-May-2020 4854.01 5499.52 66.53 11.00 390.56 2555.10
   01:34:12.598.18-May-2020 4854.01 5499.35 66.53 11.00 390.76 2555.10
   01:34:12.798.18-May-2020 4854.01 5498.13 66.53 11.00 390.96 2555.10
   01:34:12.999.18-May-2020 4854.01 5498.50 66.53 11.00 391.16 2555.10
   01:34:13.199.18-May-2020 4854.01 5498.50 66.53 11.00 391.36 2555.10
   01:34:13.399.18-May-2020 4854.01 5497.97 66.53 11.00 391.56 2555.10
   01:34:13.599.18-May-2020 4854.01 5508.86 66.53 11.00 391.76 2555.10
   01:34:13.799.18-May-2020 4854.01 5501.42 66.53 11.00 391.96 2555.10
   01:34:13.999.18-May-2020 4854.01 5497.44 66.53 11.00 392.16 2555.10
   01:34:14.199.18-May-2020 4854.01 5497.44 66.53 11.00 392.36 2555.10
   01:34:14.399.18-May-2020 4854.01 5513.62 66.53 11.00 392.56 2555.10
   01:34:14.599.18-May-2020 4854.01 5501.51 66.53 11.00 392.76 2555.10
   01:34:14.799.18-May-2020 4854.01 5498.47 66.53 11.00 392.96 2555.10
   01:34:14.999.18-May-2020 4854.01 5503.24 66.53 11.00 393.16 2555.10
   01:34:15.199.18-May-2020 4854.01 5503.24 66.53 11.00 393.36 2555.10
   01:34:15.400.18-May-2020 4854.01 5510.45 66.53 11.00 393.56 2555.10
   01:34:15.600.18-May-2020 4854.01 5503.67 66.53 11.00 393.76 2555.10
   01:34:15.800.18-May-2020 4854.01 5498.72 66.53 11.00 393.96 2555.10
   01:34:16.000.18-May-2020 4854.01 5514.08 66.53 11.00 394.16 2555.10
   01:34:16.200.18-May-2020 4854.01 5514.08 66.53 11.00 394.36 2555.10
   01:34:16.400.18-May-2020 4854.01 5503.74 66.53 11.00 394.56 2555.10
   01:34:16.600.18-May-2020 4854.01 5505.98 66.53 11.00 394.76 2555.10
   01:34:16.800.18-May-2020 4854.01 5501.97 66.53 11.00 394.96 2555.10
   01:34:17.000.18-May-2020 4854.01 5503.16 66.53 11.00 395.16 2555.10
   01:34:17.200.18-May-2020 4854.01 5503.16 66.53 11.00 395.36 2555.10
   01:34:17.400.18-May-2020 4854.01 5501.81 66.53 11.00 395.56 2555.10
   01:34:17.600.18-May-2020 4854.01 5499.97 66.53 11.00 395.76 2555.10
   01:34:17.800.18-May-2020 4854.01 5499.88 66.53 11.00 395.96 2555.10
   01:34:18.001.18-May-2020 4854.01 5514.08 66.53 11.00 396.16 2555.10
   01:34:18.201.18-May-2020 4854.01 5501.86 66.53 11.00 396.36 2555.10
   01:34:18.401.18-May-2020 4854.01 5501.86 66.53 11.00 396.56 2555.10
   01:34:18.601.18-May-2020 4854.01 5501.86 66.53 11.00 396.76 2555.10
   01:34:18.801.18-May-2020 4854.01 5501.64 66.52 11.00 396.96 2555.10
   01:34:19.001.18-May-2020 4854.01 5500.89 66.52 11.00 397.16 2555.10
   01:34:19.201.18-May-2020 4854.01 5499.26 66.52 11.00 397.36 2555.10
   01:34:19.401.18-May-2020 4854.01 5499.00 66.52 11.00 397.56 2555.10
   01:34:19.601.18-May-2020 4854.01 5497.96 66.52 11.00 397.76 2555.10
   01:34:19.801.18-May-2020 4854.01 5498.35 66.52 11.00 397.96 2555.10
   01:34:20.001.18-May-2020 4854.01 5497.38 66.52 11.00 398.16 2555.10
   01:34:20.201.18-May-2020 4854.01 5497.38 66.52 11.00 398.36 2555.10
   01:34:20.402.18-May-2020 4854.01 5509.19 66.52 11.00 398.56 2555.10
   01:34:20.602.18-May-2020 4854.01 5500.26 66.52 11.00 398.76 2555.10
   01:34:20.802.18-May-2020 4854.01 5497.17 66.52 11.00 398.96 2555.10
   01:34:21.002.18-May-2020 4854.01 5502.35 66.52 11.00 399.16 2555.10
   01:34:21.202.18-May-2020 4854.01 5502.35 66.52 11.00 399.36 2555.10
   01:34:21.402.18-May-2020 4854.01 5500.71 66.52 11.00 399.56 2555.10
   01:34:21.602.18-May-2020 4854.01 5498.57 66.52 11.00 399.76 2555.10
   01:34:21.802.18-May-2020 4854.01 5503.31 66.52 11.00 399.96 2555.10
   01:34:22.002.18-May-2020 4854.01 5503.22 66.52 11.00 400.16 2555.10
   01:34:22.202.18-May-2020 4854.01 5509.35 66.52 11.00 400.36 2555.10
   01:34:22.402.18-May-2020 4854.01 5504.76 66.52 11.00 400.56 2555.10
   01:34:22.602.18-May-2020 4854.01 5499.84 66.52 11.00 400.76 2555.10
   01:34:22.803.18-May-2020 4854.01 5506.43 66.52 11.00 400.96 2555.10
   01:34:23.003.18-May-2020 4854.01 5509.96 66.52 11.00 401.16 2555.10
   01:34:23.203.18-May-2020 4854.01 5509.96 66.52 11.00 401.36 2555.10
   01:34:23.403.18-May-2020 4854.01 5502.35 66.52 11.00 401.56 2555.10
   01:34:23.603.18-May-2020 4854.01 5502.66 66.52 11.00 401.76 2555.10
   01:34:23.803.18-May-2020 4854.01 5503.50 66.52 11.00 401.96 2555.10
   01:34:24.003.18-May-2020 4854.01 5500.41 66.52 11.00 402.16 2555.10
   01:34:24.203.18-May-2020 4854.01 5500.41 66.52 11.00 402.36 2555.10
   01:34:24.403.18-May-2020 4854.01 5499.42 66.52 11.00 402.56 2555.10
   01:34:24.603.18-May-2020 4854.01 5498.97 66.52 11.00 402.76 2555.10
   01:34:24.803.18-May-2020 4854.01 5498.23 66.52 11.00 402.96 2555.10
   01:34:25.003.18-May-2020 4854.01 5509.25 66.52 11.00 403.16 2555.10
   01:34:25.203.18-May-2020 4854.01 5509.25 66.52 11.00 403.36 2555.10
   01:34:25.404.18-May-2020 4854.01 5497.16 66.52 11.00 403.56 2555.10
   01:34:25.604.18-May-2020 4854.01 5502.74 66.52 11.00 403.76 2555.10
   01:34:25.804.18-May-2020 4854.01 5501.37 66.52 11.00 403.96 2555.10
   01:34:26.004.18-May-2020 4854.01 5498.70 66.52 11.00 404.16 2555.10
   01:34:26.204.18-May-2020 4854.01 5498.70 66.52 11.00 404.36 2555.10
   01:34:26.404.18-May-2020 4854.01 5498.17 66.52 11.00 404.56 2555.10
   01:34:26.604.18-May-2020 4854.01 5498.38 66.52 11.00 404.76 2555.10
   01:34:26.804.18-May-2020 4854.01 5497.42 66.52 11.00 404.96 2555.10
   01:34:27.004.18-May-2020 4854.01 5497.43 66.52 11.00 405.16 2555.10
   01:34:27.204.18-May-2020 4854.01 5497.43 66.52 11.00 405.36 2555.10
   01:34:27.404.18-May-2020 4854.01 5494.57 66.52 11.00 405.56 2555.10
   01:34:27.604.18-May-2020 4854.01 5499.46 66.52 11.00 405.76 2555.10
   01:34:27.805.18-May-2020 4854.01 5502.50 66.52 11.00 405.96 2555.10
   01:34:28.005.18-May-2020 4854.01 5514.74 66.52 11.00 406.16 2555.10
   01:34:28.205.18-May-2020 4854.01 5514.74 66.52 11.00 406.36 2555.10
   01:34:28.405.18-May-2020 4854.01 5499.26 66.51 11.00 406.56 2555.10
   01:34:28.605.18-May-2020 4854.01 5504.03 66.51 11.00 406.76 2555.10
