~Version Information
 VERS.                  2.0:   CWLS log ASCII Standard -VERSION 2.0
 WRAP.                   NO:   One line per depth step
~Well Information Block
#MNEM.UNIT     VALUE/NAME     DESCRIPTION
#---------     -----------    ---------------------------
 STRT.S             00:24:31 18-May-20: START TIME 00:24:31 18-May-20
 STOP.S             00:32:03 18-May-20: STOP TIME  00:32:03 18-May-20
 STEP.S                   0.00: STEP TIME
 NULL.                 -999.25: NULL VALUE
 UNIT.                     N/A:  LOGGING EQUIPMENT ID
 DCON.         Sperry Drilling:  DIRECTNL CONTR
 DOE .                     N/A:  DOE NUMBER
 JOBN.        AZ-XX-0906252240:  JOB TICKET NUMB
 MWDS.                     N/A:  MWD SHOP
 PROV.                    Baku:  PROVINCE
 STAT.                    Baku:  STATE NAME
 REGN.                   EESSA:  REGION
 BASE.              Azerbaijan:  LOGGING EQUIPMENT BASE LOCATION
 UWI .                     N/A:  UNIQUE WELL IDENTIFIER
 API .                     N/A:  API NUMBER
 MDS .        Operator Entered:  MAG DATA SOURCE
 WTYP.                Deviated:  WELL TYPE
 COMP.     BP Exploration (Caspian Sea) Ltd.:  COMPANY
 SRVC.          Turan Drilling:  CONTRACTOR
 WELL.           J23 (Slot 07):  WELL NAME
 CTRY.              Azerbaijan:  COUNTRY NAME
 FLD .                     ACG:  FIELD NAME
 PDAT.          Mean Sea Level:  PERMANENT DATUM
 RIG .             West Chirag:  RIG NAME
 SON .        AZ-XX-0906252240:  JOB NUMBER
 FTOP.          Formation Tops:  FORM TOPS DESC
 ILTD.               Lithology:  INTERP LTH DESC
 SVYD.                  Survey:  SURVEY DESC
 DMOD.             Drill Model:  DRILL MOD DESC
 HPTY.       Minimum Curvature:  HOLE POS TYPE
 NREF.                    Grid:  NORTH REFERENCE
 SPUD.               27-Aug-20:  SPUD DATE
 DATE.      00.00.00 19-May-20:  END TIME
 STIM.      03.00.00 25-Mar-20:  START TIME
 DMF .             Drill Floor:  DRILL MEAS FROM
 DFST.                        :  DIST FSL TEXT
 DFWT.                        :  DIST FWL TEXT
 CNTY.                        :  COUNTY
 LOC .                        :  LOCATION
 LMF .             Drill Floor:  LOG MEASURED FROM
 VSNS.m                   9.43:  VERT SEC N/S
 VSEW.m                  -8.91:  VERT SEC E/W
 AGAP.m                  43.00:  AIR GAP
 DEP .m                 354.17:  DEPTH
 APD .m                  43.00:  DEPTH ABOVE PD
 WDMS.m                 169.80:  WD ELEV
 EGL .m                   0.00:  GROUND ELEVATION
 EPD .m                   0.00:  ELEVATION
 AZTC.deg                 6.31:  AZM TOTAL CORR
 GRDC.deg                 0.14:  GRID CORRECTION
 MDEC.deg                 6.45:  MAGNETIC DECL
 MDIP.deg                59.56:  MAGNETIC DIP
 MFLD.nT              50295.00:  MAGNETIC FIELD
 GVFD.g                   1.00:  GRAVITY FIELD
 VSDR.deg               179.88:  VERT SEC DIRECT
 TDD .m                5150.01:  TOTAL DEPTH (DRILLER)
 SDEP.m                 864.00:  START DEPTH
 DFSL.m                   0.00:  DISTANCE FSL
 DFWL.m                   0.00:  DISTANCE FWL
 UTMY.m             4443793.85:  UTM Y
 UTMX.m              519005.06:  UTM X
 WHEW.m                  -8.91:  WELL HEAD E/W
 WHNS.m                   9.43:  WELL HEAD N/S
 LONG.deg                51.22:  LONGITUDE
 LATI.deg                40.13:  LATITUDE
 TVDS.m                  43.00:  TVDSS CORRECTN
 EKB .m                   0.00:  KB ELEVATION
 EDF .m                  43.00:  DF ELEVATION
 TDL .m                 363.00:  TOTAL DEPTH (LOGGER)
 MAGU.                 1850802:  MAGUTM CHECKSUM
 VSC .                       0:  VS TO CLOSURE
~Parameter Information Block
#MNEM.UNIT       Value        Description
#---------     -----------    ---------------------------
 AV  .mps                 2.30:  Ann Velocity 
 AVMX.mps                 4.40:  Max Ann Veloc 
 AZIF.deg               110.24:  Azm, Final 
 BHAT.        Rotary Steerable:  BHA Type 
 BREV.rev               331.00:  Rev Bit Total 
 BROT.°/30m               0.00:  Build Rotating 
 BS  .in                  8.50:  Bit Size 
 BSZ .in                  8.50:  Bit Size 
 BTPL.psig              585.00:  Bit Press Loss 
 CABU.                     Yes:  Customer Abuse 
 COMM.                     ô®q:  Run Comments 1 
 TCS .hr                122.75:  Time Ciculation Ended 
 CV  .mps                 2.67:  Crit Velocity 
 CVMX.mps                 3.56:  Max Crit Veloc 
 DD1 .          Rashad Habibov:  Direct Drillr 1 
 DD2 .         Rasim Ibrahimov:  Direct Drillr 2 
 DDSV.               Geo-Pilot:  DD Service 
 DEFF.%                  98.00:  % Det Eff 
 DLRX.°/30m               0.75:  Dogleg Rot Max 
 DLSO.°/30m               1.25:  Dogleg Oriented 
 DLSX.°/30m               2.06:  Dogleg Str Max 
 DRET.      07.45.00 17-May-20:  Drill End Time 
 DRST.      22.50.00 15-May-20:  Drill Start Tim 
 DTIM.hr                 20.75:  Time Drilling 
 EDEP.m                5124.01:  End Depth 
 ENG1.           Eldar Hajiyev:  Engineer 1 
 ENG2.        Marcelo Sandoval:  Engineer 2 
 ENG3.        Davud huseynzada:  Engineer 3 
 ENG4.          Ruslan Safarov:  Engineer 4 
 ETIM.      04.33.00 23-May-20:  End Time 
 FLOI.gpm               450.00:  Flow In 
 FLON.gpm               400.00:  Flow In Min 
 FLOS.cptm                0.00:  Fluid Loss 
 FLOX.gpm               500.00:  Flow In Max 
 FTRO.       Formation Presure:  FTWD Run Obj 
 HFLO.                      No:  High Flow 
 HPRE.                     Yes:  High Pressure 
 HTEM.                      No:  High Temp 
 HYDO.m                   1.80:  Hydro Offset 
 IFIN.deg                75.06:  Inc, Final 
 IMAX.deg                75.38:  Inc Max 
 IMIN.deg                74.69:  Inc Min 
 IMND.m                5027.38:  Inc Min Depth 
 IMXD.m                4771.61:  Inc Max Depth 
 JARR.                      No:  Jarring 
 LETM.      07.45.00 17-May-20:  Log End Time 
 LOST.hr                     0:  Lost Rig Time 
 LSTM.      22.50.00 15-May-20:  Log Start Time 
 MDCL.ppm             42000.00:  Mud Chlorides 
 MDES.     Inversion Oil/Synthetic:  Mud Desc 
 DFD .sg                  1.34:  Mud Density 
 MDMN.sg                  1.34:  Dens Mud Min 
 MDMX.sg                  1.34:  Dens Mud Max 
 MOIL.                       0:  Run Mud Oil % 
 MOWR.                   67:33:  Run Mud OWR 
 MSND.                       0:  Run Mud Sand % 
 MSOL.                     1.8:  Run Mud Solids% 
 DFV .spqt               76.00:  Mud Viscosity 
 MWOD.in                  6.75:  MWD Tool OD 
 MWSI.                      No:  Serv Intrp, MWD 
 OTIM.hr                228.19:  Time Operating 
 PCON.           Look Like New:  Pad Condition 
 PMAX.psia             6164.70:  Press Op, Max 
 PV  .cP                 28.00:  Mud PV 
 RUN .                     900:  Run Number 
 ROPA.m/hr               19.00:  ROP Avg 
 ROPN.m/hr               11.00:  ROP Min 
 ROPX.m/hr               36.00:  ROP Max 
 RPMA.rpm               120.00:  RPM Surface Avg 
 RPMN.rpm               120.00:  RPM Surface Min 
 RPMX.rpm               120.00:  RPM Surface Max 
 RRUN.                    L604:  Rig Run Number 
 RTIM.hr                  7.00:  Time Reaming 
 SAZI.deg               109.27:  Azm, Start 
 SDEP.m                4761.01:  Start Depth 
 SIDD.                      No:  Serv Intrp, DD 
 SINC.deg                75.38:  Inc, Start 
 SPPA.psig             3574.00:  SPP Avg 
 SPPN.psig             3475.00:  SPP Min 
 SPPX.psig             3791.00:  SPP Max 
 STIM.      07.08.48 13-May-20:  Start Time 
 SVCS.                 DD, MWD:  Services 
 SVER.                    9.20:  Sperry Version 
 TDAT.m                 363.00:  Tot Depth Attmp 
 TDDF.                      No:  Trip for DD 
 TDLG.m                 363.00:  Tot Depth Loggd 
 TFF .                      No:  Trip for Fail 
 TQAA.f-kp               20.00:  Torque Abs Avg 
 TQAN.f-kp               18.00:  Torque Abs Min 
 TQAX.f-kp               22.00:  Torque Abs Max 
 TRRT.°/30m              -0.35:  Turn Rotating 
 MRT .                    HCIM:  Maximum Recorded Temperature 
 TTMX.degC               92.16:  Max Tool Temp 
 VS01.                90586518:  Virtual Str1 SN 
 VS02.        AZ90560654Z1W1C6:  Virtual Str2 SN 
 VS03.           AZ90610398F11:  Virtual Str3 SN 
 VS04.                90514975:  Virtual Str4 SN 
 VS05.                90514972:  Virtual Str5 SN 
 VS06.     AZ90603282F11V7D1A6:  Virtual Str6 SN 
 WBMN.klb                 7.00:  WOB Min 
 WOBA.klb                12.00:  WOB Avg 
 WOBX.klb                14.00:  WOB Max 
 YP  .lhf2               32.00:  Yield Point 
~Curve Information Block
#MNEM.UNIT                 API CODE     Curve Description
#---------               -----------    ---------------------------
 TIME.HHMMSS            00 000 000 000:  GT Time & Date
 GTDEPTH.m              00 000 000 000:  GT Depth
 GTPQH.psia             00 000 000 000:  GT HR Quartz Pressure
 GTTQ.degC              00 000 000 000:  GT Quartz Temperature
 GTTN.NONE              00 000 000 000:  GT Test Number
 GTET.sec               00 000 000 000:  GT Elapsed Test Time
 GTTVD.m                00 000 000 000:  GT True Vertical Depth
#Other Information
#
#WARRANTY: Halliburton will use its best efforts to furnish customers with 
#accurate information and interpretations that are part of, and incident to, the services 
#provided.  However, Halliburton cannot and does not warrant the accuracy 
#or correctness of such information and interpretations.  Under no circumstances should any 
#such information or interpretation be relied upon as the sole basis for any drilling, 
#completion, production, or financial decision or any procedure involving any risk to the 
#safety of any drilling venture, drilling rig or its crew or any other third party.  The 
#Customer has full responsibility for all drilling, completion and production operation.  
#Halliburton makes no representations or warranties, either expressed or 
#implied, including, but not limited to, the implied warranties of merchantability or fitness 
#for a particular purpose, with respect to the services rendered.  In no event will 
#Halliburton be liable for failure to obtain any particular results or for 
#any damages, including, but not limited to, indirect, special or consequential damages, 
#resulting from the use of any information or interpretation provided by Halliburton.
#
~A           TIME           GTDEPTH  GTPQH  GTTQ  GTTN   GTET   GTTVD  
# ...
   00:31:18.276.18-May-2020 4886.01 5506.81 66.44 10.00 406.96 2563.39
   00:31:18.476.18-May-2020 4886.01 5510.56 66.44 10.00 407.16 2563.39
   00:31:18.676.18-May-2020 4886.01 5507.05 66.44 10.00 407.36 2563.39
   00:31:18.877.18-May-2020 4886.01 5508.47 66.44 10.00 407.56 2563.39
   00:31:19.077.18-May-2020 4886.01 5506.99 66.44 10.00 407.76 2563.39
   00:31:19.277.18-May-2020 4886.01 5508.11 66.44 10.00 407.96 2563.39
   00:31:19.477.18-May-2020 4886.01 5506.81 66.44 10.00 408.16 2563.39
   00:31:19.677.18-May-2020 4886.01 5506.89 66.44 10.00 408.36 2563.39
   00:31:19.877.18-May-2020 4886.01 5517.04 66.44 10.00 408.56 2563.39
   00:31:20.077.18-May-2020 4886.01 5507.26 66.44 10.00 408.76 2563.39
   00:31:20.277.18-May-2020 4886.01 5515.16 66.44 10.00 408.96 2563.39
   00:31:20.477.18-May-2020 4886.01 5507.90 66.44 10.00 409.17 2563.39
   00:31:20.677.18-May-2020 4886.01 5507.90 66.44 10.00 409.37 2563.39
   00:31:20.877.18-May-2020 4886.01 5502.36 66.44 10.00 409.57 2563.39
   00:31:21.077.18-May-2020 4886.01 5516.71 66.44 10.00 409.77 2563.39
   00:31:21.277.18-May-2020 4886.01 5524.40 66.44 10.00 409.97 2563.39
   00:31:21.478.18-May-2020 4886.01 5510.20 66.44 10.00 410.17 2563.39
   00:31:21.678.18-May-2020 4886.01 5510.20 66.44 10.00 410.37 2563.39
   00:31:21.878.18-May-2020 4886.01 5516.60 66.44 10.00 410.57 2563.39
   00:31:22.078.18-May-2020 4886.01 5522.42 66.44 10.00 410.77 2563.39
   00:31:22.278.18-May-2020 4886.01 5509.62 66.44 10.00 410.97 2563.39
   00:31:22.478.18-May-2020 4886.01 5519.16 66.44 10.00 411.17 2563.39
   00:31:22.678.18-May-2020 4886.01 5519.16 66.44 10.00 411.37 2563.39
   00:31:22.878.18-May-2020 4886.01 5516.18 66.44 10.00 411.57 2563.39
   00:31:23.078.18-May-2020 4886.01 5509.31 66.44 10.00 411.77 2563.39
   00:31:23.278.18-May-2020 4886.01 5511.67 66.44 10.00 411.97 2563.39
   00:31:23.478.18-May-2020 4886.01 5508.99 66.44 10.00 412.17 2563.39
   00:31:23.678.18-May-2020 4886.01 5509.65 66.44 10.00 412.37 2563.39
   00:31:23.879.18-May-2020 4886.01 5508.64 66.44 10.00 412.57 2563.39
   00:31:24.079.18-May-2020 4886.01 5524.27 66.44 10.00 412.77 2563.39
   00:31:24.279.18-May-2020 4886.01 5501.38 66.44 10.00 412.97 2563.39
   00:31:24.479.18-May-2020 4886.01 5514.15 66.44 10.00 413.17 2563.39
   00:31:24.679.18-May-2020 4886.01 5514.15 66.44 10.00 413.37 2563.39
   00:31:24.879.18-May-2020 4886.01 5511.51 66.44 10.00 413.57 2563.39
   00:31:25.079.18-May-2020 4886.01 5507.97 66.44 10.00 413.77 2563.39
   00:31:25.279.18-May-2020 4886.01 5509.68 66.44 10.00 413.97 2563.39
   00:31:25.479.18-May-2020 4886.01 5507.51 66.44 10.00 414.17 2563.39
   00:31:25.679.18-May-2020 4886.01 5507.51 66.44 10.00 414.37 2563.39
   00:31:25.879.18-May-2020 4886.01 5507.64 66.44 10.00 414.57 2563.39
   00:31:26.079.18-May-2020 4886.01 5507.17 66.44 10.00 414.77 2563.39
   00:31:26.280.18-May-2020 4886.01 5519.59 66.44 10.00 414.97 2563.39
   00:31:26.480.18-May-2020 4886.01 5503.58 66.44 10.00 415.17 2563.39
   00:31:26.680.18-May-2020 4886.01 5512.22 66.44 10.00 415.37 2563.39
   00:31:26.880.18-May-2020 4886.01 5511.73 66.44 10.00 415.57 2563.39
   00:31:27.080.18-May-2020 4886.01 5511.34 66.44 10.00 415.77 2563.39
   00:31:27.280.18-May-2020 4886.01 5517.04 66.44 10.00 415.97 2563.39
   00:31:27.480.18-May-2020 4886.01 5511.33 66.44 10.00 416.17 2563.39
   00:31:27.680.18-May-2020 4886.01 5511.33 66.44 10.00 416.37 2563.39
   00:31:27.880.18-May-2020 4886.01 5514.30 66.44 10.00 416.57 2563.39
   00:31:28.080.18-May-2020 4886.01 5516.16 66.44 10.00 416.77 2563.39
   00:31:28.280.18-May-2020 4886.01 5514.49 66.44 10.00 416.97 2563.39
   00:31:28.480.18-May-2020 4886.01 5524.02 66.44 10.00 417.17 2563.39
   00:31:28.680.18-May-2020 4886.01 5524.02 66.44 10.00 417.37 2563.39
   00:31:28.881.18-May-2020 4886.01 5515.37 66.44 10.00 417.57 2563.39
   00:31:29.081.18-May-2020 4886.01 5515.15 66.44 10.00 417.77 2563.39
   00:31:29.281.18-May-2020 4886.01 5511.88 66.44 10.00 417.97 2563.39
   00:31:29.481.18-May-2020 4886.01 5512.36 66.44 10.00 418.17 2563.39
   00:31:29.681.18-May-2020 4886.01 5512.36 66.44 10.00 418.37 2563.39
   00:31:29.881.18-May-2020 4886.01 5510.54 66.44 10.00 418.57 2563.39
   00:31:30.081.18-May-2020 4886.01 5509.44 66.44 10.00 418.77 2563.39
   00:31:30.281.18-May-2020 4886.01 5510.18 66.44 10.00 418.97 2563.39
   00:31:30.481.18-May-2020 4886.01 5517.28 66.44 10.00 419.17 2563.39
   00:31:30.681.18-May-2020 4886.01 5509.92 66.44 10.00 419.37 2563.39
   00:31:30.881.18-May-2020 4886.01 5512.48 66.44 10.00 419.57 2563.39
   00:31:31.081.18-May-2020 4886.01 5514.18 66.44 10.00 419.77 2563.39
   00:31:31.282.18-May-2020 4886.01 5506.63 66.44 10.00 419.97 2563.39
   00:31:31.482.18-May-2020 4886.01 5511.13 66.44 10.00 420.17 2563.39
   00:31:31.682.18-May-2020 4886.01 5507.46 66.44 10.00 420.37 2563.39
   00:31:31.882.18-May-2020 4886.01 5508.62 66.44 10.00 420.57 2563.39
   00:31:32.082.18-May-2020 4886.01 5507.03 66.44 10.00 420.77 2563.39
   00:31:32.282.18-May-2020 4886.01 5508.10 66.44 10.00 420.97 2563.39
   00:31:32.482.18-May-2020 4886.01 5506.95 66.44 10.00 421.17 2563.39
   00:31:32.682.18-May-2020 4886.01 5506.95 66.44 10.00 421.37 2563.39
   00:31:32.882.18-May-2020 4886.01 5515.14 66.44 10.00 421.57 2563.39
   00:31:33.082.18-May-2020 4886.01 5508.54 66.44 10.00 421.77 2563.39
   00:31:33.282.18-May-2020 4886.01 5514.57 66.44 10.00 421.97 2563.39
   00:31:33.482.18-May-2020 4886.01 5506.94 66.44 10.00 422.17 2563.39
   00:31:33.683.18-May-2020 4886.01 5506.94 66.44 10.00 422.37 2563.39
   00:31:33.883.18-May-2020 4886.01 5500.17 66.44 10.00 422.57 2563.39
   00:31:34.083.18-May-2020 4886.01 5515.63 66.44 10.00 422.77 2563.39
   00:31:34.283.18-May-2020 4886.01 5524.95 66.44 10.00 422.97 2563.39
   00:31:34.483.18-May-2020 4886.01 5507.75 66.44 10.00 423.17 2563.39
   00:31:34.683.18-May-2020 4886.01 5513.07 66.44 10.00 423.37 2563.39
   00:31:34.883.18-May-2020 4886.01 5516.05 66.44 10.00 423.57 2563.39
   00:31:35.083.18-May-2020 4886.01 5525.01 66.44 10.00 423.77 2563.39
   00:31:35.283.18-May-2020 4886.01 5504.40 66.43 10.00 423.97 2563.39
   00:31:35.483.18-May-2020 4886.01 5516.87 66.43 10.00 424.17 2563.39
   00:31:35.683.18-May-2020 4886.01 5513.55 66.43 10.00 424.37 2563.39
   00:31:35.883.18-May-2020 4886.01 5513.27 66.43 10.00 424.57 2563.39
   00:31:36.083.18-May-2020 4886.01 5510.99 66.43 10.00 424.77 2563.39
   00:31:36.284.18-May-2020 4886.01 5511.77 66.43 10.00 424.97 2563.39
   00:31:36.484.18-May-2020 4886.01 5509.08 66.43 10.00 425.17 2563.39
   00:31:36.684.18-May-2020 4886.01 5509.08 66.43 10.00 425.37 2563.39
   00:31:36.884.18-May-2020 4886.01 5509.71 66.43 10.00 425.57 2563.39
   00:31:37.084.18-May-2020 4886.01 5521.16 66.43 10.00 425.77 2563.39
   00:31:37.284.18-May-2020 4886.01 5505.17 66.43 10.00 425.97 2563.39
   00:31:37.484.18-May-2020 4886.01 5513.17 66.43 10.00 426.17 2563.39
   00:31:37.684.18-May-2020 4886.01 5513.17 66.43 10.00 426.37 2563.39
   00:31:37.884.18-May-2020 4886.01 5508.34 66.43 10.00 426.57 2563.39
   00:31:38.084.18-May-2020 4886.01 5510.69 66.43 10.00 426.77 2563.39
   00:31:38.284.18-May-2020 4886.01 5509.22 66.43 10.00 426.97 2563.39
   00:31:38.484.18-May-2020 4886.01 5508.68 66.43 10.00 427.17 2563.39
   00:31:38.685.18-May-2020 4886.01 5507.73 66.43 10.00 427.37 2563.39
   00:31:38.885.18-May-2020 4886.01 5508.64 66.43 10.00 427.57 2563.39
   00:31:39.085.18-May-2020 4886.01 5507.51 66.43 10.00 427.77 2563.39
   00:31:39.285.18-May-2020 4886.01 5512.52 66.43 10.00 427.97 2563.39
   00:31:39.485.18-May-2020 4886.01 5511.35 66.43 10.00 428.17 2563.39
   00:31:39.685.18-May-2020 4886.01 5511.56 66.43 10.00 428.37 2563.39
   00:31:39.885.18-May-2020 4886.01 5513.82 66.43 10.00 428.57 2563.39
   00:31:40.085.18-May-2020 4886.01 5507.13 66.43 10.00 428.77 2563.39
   00:31:40.285.18-May-2020 4886.01 5522.13 66.43 10.00 428.97 2563.39
   00:31:40.485.18-May-2020 4886.01 5507.69 66.43 10.00 429.17 2563.39
   00:31:40.685.18-May-2020 4886.01 5507.69 66.43 10.00 429.37 2563.39
