~Version Information
 VERS.                  2.0:   CWLS log ASCII Standard -VERSION 2.0
 WRAP.                   NO:   One line per depth step
~Well Information Block
#MNEM.UNIT     VALUE/NAME     DESCRIPTION
#---------     -----------    ---------------------------
 STRT.S             01:27:41 18-May-20: START TIME 01:27:41 18-May-20
 STOP.S             01:34:42 18-May-20: STOP TIME  01:34:42 18-May-20
 STEP.S                   0.00: STEP TIME
 NULL.                 -999.25: NULL VALUE
 UNIT.                     N/A:  LOGGING EQUIPMENT ID
 DCON.         Sperry Drilling:  DIRECTNL CONTR
 DOE .                     N/A:  DOE NUMBER
 JOBN.        AZ-XX-0906252240:  JOB TICKET NUMB
 MWDS.                     N/A:  MWD SHOP
 PROV.                    Baku:  PROVINCE
 STAT.                    Baku:  STATE NAME
 REGN.                   EESSA:  REGION
 BASE.              Azerbaijan:  LOGGING EQUIPMENT BASE LOCATION
 UWI .                     N/A:  UNIQUE WELL IDENTIFIER
 API .                     N/A:  API NUMBER
 MDS .        Operator Entered:  MAG DATA SOURCE
 WTYP.                Deviated:  WELL TYPE
 COMP.     BP Exploration (Caspian Sea) Ltd.:  COMPANY
 SRVC.          Turan Drilling:  CONTRACTOR
 WELL.           J23 (Slot 07):  WELL NAME
 CTRY.              Azerbaijan:  COUNTRY NAME
 FLD .                     ACG:  FIELD NAME
 PDAT.          Mean Sea Level:  PERMANENT DATUM
 RIG .             West Chirag:  RIG NAME
 SON .        AZ-XX-0906252240:  JOB NUMBER
 FTOP.          Formation Tops:  FORM TOPS DESC
 ILTD.               Lithology:  INTERP LTH DESC
 SVYD.                  Survey:  SURVEY DESC
 DMOD.             Drill Model:  DRILL MOD DESC
 HPTY.       Minimum Curvature:  HOLE POS TYPE
 NREF.                    Grid:  NORTH REFERENCE
 SPUD.               27-Aug-20:  SPUD DATE
 DATE.      00.00.00 19-May-20:  END TIME
 STIM.      03.00.00 25-Mar-20:  START TIME
 DMF .             Drill Floor:  DRILL MEAS FROM
 DFST.                        :  DIST FSL TEXT
 DFWT.                        :  DIST FWL TEXT
 CNTY.                        :  COUNTY
 LOC .                        :  LOCATION
 LMF .             Drill Floor:  LOG MEASURED FROM
 VSNS.m                   9.43:  VERT SEC N/S
 VSEW.m                  -8.91:  VERT SEC E/W
 AGAP.m                  43.00:  AIR GAP
 DEP .m                 354.17:  DEPTH
 APD .m                  43.00:  DEPTH ABOVE PD
 WDMS.m                 169.80:  WD ELEV
 EGL .m                   0.00:  GROUND ELEVATION
 EPD .m                   0.00:  ELEVATION
 AZTC.deg                 6.31:  AZM TOTAL CORR
 GRDC.deg                 0.14:  GRID CORRECTION
 MDEC.deg                 6.45:  MAGNETIC DECL
 MDIP.deg                59.56:  MAGNETIC DIP
 MFLD.nT              50295.00:  MAGNETIC FIELD
 GVFD.g                   1.00:  GRAVITY FIELD
 VSDR.deg               179.88:  VERT SEC DIRECT
 TDD .m                5150.01:  TOTAL DEPTH (DRILLER)
 SDEP.m                 864.00:  START DEPTH
 DFSL.m                   0.00:  DISTANCE FSL
 DFWL.m                   0.00:  DISTANCE FWL
 UTMY.m             4443793.85:  UTM Y
 UTMX.m              519005.06:  UTM X
 WHEW.m                  -8.91:  WELL HEAD E/W
 WHNS.m                   9.43:  WELL HEAD N/S
 LONG.deg                51.22:  LONGITUDE
 LATI.deg                40.13:  LATITUDE
 TVDS.m                  43.00:  TVDSS CORRECTN
 EKB .m                   0.00:  KB ELEVATION
 EDF .m                  43.00:  DF ELEVATION
 TDL .m                 363.00:  TOTAL DEPTH (LOGGER)
 MAGU.                 1850802:  MAGUTM CHECKSUM
 VSC .                       0:  VS TO CLOSURE
~Parameter Information Block
#MNEM.UNIT       Value        Description
#---------     -----------    ---------------------------
 AV  .mps                 2.30:  Ann Velocity 
 AVMX.mps                 4.40:  Max Ann Veloc 
 AZIF.deg               110.24:  Azm, Final 
 BHAT.        Rotary Steerable:  BHA Type 
 BREV.rev               331.00:  Rev Bit Total 
 BROT.°/30m               0.00:  Build Rotating 
 BS  .in                  8.50:  Bit Size 
 BSZ .in                  8.50:  Bit Size 
 BTPL.psig              585.00:  Bit Press Loss 
 CABU.                     Yes:  Customer Abuse 
 COMM.                     tPr:  Run Comments 1 
 TCS .hr                122.75:  Time Ciculation Ended 
 CV  .mps                 2.67:  Crit Velocity 
 CVMX.mps                 3.56:  Max Crit Veloc 
 DD1 .          Rashad Habibov:  Direct Drillr 1 
 DD2 .         Rasim Ibrahimov:  Direct Drillr 2 
 DDSV.               Geo-Pilot:  DD Service 
 DEFF.%                  98.00:  % Det Eff 
 DLRX.°/30m               0.75:  Dogleg Rot Max 
 DLSO.°/30m               1.25:  Dogleg Oriented 
 DLSX.°/30m               2.06:  Dogleg Str Max 
 DRET.      07.45.00 17-May-20:  Drill End Time 
 DRST.      22.50.00 15-May-20:  Drill Start Tim 
 DTIM.hr                 20.75:  Time Drilling 
 EDEP.m                5124.01:  End Depth 
 ENG1.           Eldar Hajiyev:  Engineer 1 
 ENG2.        Marcelo Sandoval:  Engineer 2 
 ENG3.        Davud huseynzada:  Engineer 3 
 ENG4.          Ruslan Safarov:  Engineer 4 
 ETIM.      04.33.00 23-May-20:  End Time 
 FLOI.gpm               450.00:  Flow In 
 FLON.gpm               400.00:  Flow In Min 
 FLOS.cptm                0.00:  Fluid Loss 
 FLOX.gpm               500.00:  Flow In Max 
 FTRO.       Formation Presure:  FTWD Run Obj 
 HFLO.                      No:  High Flow 
 HPRE.                     Yes:  High Pressure 
 HTEM.                      No:  High Temp 
 HYDO.m                   1.80:  Hydro Offset 
 IFIN.deg                75.06:  Inc, Final 
 IMAX.deg                75.38:  Inc Max 
 IMIN.deg                74.69:  Inc Min 
 IMND.m                5027.38:  Inc Min Depth 
 IMXD.m                4771.61:  Inc Max Depth 
 JARR.                      No:  Jarring 
 LETM.      07.45.00 17-May-20:  Log End Time 
 LOST.hr                     0:  Lost Rig Time 
 LSTM.      22.50.00 15-May-20:  Log Start Time 
 MDCL.ppm             42000.00:  Mud Chlorides 
 MDES.     Inversion Oil/Synthetic:  Mud Desc 
 DFD .sg                  1.34:  Mud Density 
 MDMN.sg                  1.34:  Dens Mud Min 
 MDMX.sg                  1.34:  Dens Mud Max 
 MOIL.                       0:  Run Mud Oil % 
 MOWR.                   67:33:  Run Mud OWR 
 MSND.                       0:  Run Mud Sand % 
 MSOL.                     1.8:  Run Mud Solids% 
 DFV .spqt               76.00:  Mud Viscosity 
 MWOD.in                  6.75:  MWD Tool OD 
 MWSI.                      No:  Serv Intrp, MWD 
 OTIM.hr                228.19:  Time Operating 
 PCON.           Look Like New:  Pad Condition 
 PMAX.psia             6164.70:  Press Op, Max 
 PV  .cP                 28.00:  Mud PV 
 RUN .                     900:  Run Number 
 ROPA.m/hr               19.00:  ROP Avg 
 ROPN.m/hr               11.00:  ROP Min 
 ROPX.m/hr               36.00:  ROP Max 
 RPMA.rpm               120.00:  RPM Surface Avg 
 RPMN.rpm               120.00:  RPM Surface Min 
 RPMX.rpm               120.00:  RPM Surface Max 
 RRUN.                    L604:  Rig Run Number 
 RTIM.hr                  7.00:  Time Reaming 
 SAZI.deg               109.27:  Azm, Start 
 SDEP.m                4761.01:  Start Depth 
 SIDD.                      No:  Serv Intrp, DD 
 SINC.deg                75.38:  Inc, Start 
 SPPA.psig             3574.00:  SPP Avg 
 SPPN.psig             3475.00:  SPP Min 
 SPPX.psig             3791.00:  SPP Max 
 STIM.      07.08.48 13-May-20:  Start Time 
 SVCS.                 DD, MWD:  Services 
 SVER.                    9.20:  Sperry Version 
 TDAT.m                 363.00:  Tot Depth Attmp 
 TDDF.                      No:  Trip for DD 
 TDLG.m                 363.00:  Tot Depth Loggd 
 TFF .                      No:  Trip for Fail 
 TQAA.f-kp               20.00:  Torque Abs Avg 
 TQAN.f-kp               18.00:  Torque Abs Min 
 TQAX.f-kp               22.00:  Torque Abs Max 
 TRRT.°/30m              -0.35:  Turn Rotating 
 MRT .                    HCIM:  Maximum Recorded Temperature 
 TTMX.degC               92.16:  Max Tool Temp 
 VS01.                90586518:  Virtual Str1 SN 
 VS02.        AZ90560654Z1W1C6:  Virtual Str2 SN 
 VS03.           AZ90610398F11:  Virtual Str3 SN 
 VS04.                90514975:  Virtual Str4 SN 
 VS05.                90514972:  Virtual Str5 SN 
 VS06.     AZ90603282F11V7D1A6:  Virtual Str6 SN 
 WBMN.klb                 7.00:  WOB Min 
 WOBA.klb                12.00:  WOB Avg 
 WOBX.klb                14.00:  WOB Max 
 YP  .lhf2               32.00:  Yield Point 
~Curve Information Block
#MNEM.UNIT                 API CODE     Curve Description
#---------               -----------    ---------------------------
 TIME.HHMMSS            00 000 000 000:  GT Time & Date
 GTDEPTH.m              00 000 000 000:  GT Depth
 GTPQH.psia             00 000 000 000:  GT HR Quartz Pressure
 GTTQ.degC              00 000 000 000:  GT Quartz Temperature
 GTTN.NONE              00 000 000 000:  GT Test Number
 GTET.sec               00 000 000 000:  GT Elapsed Test Time
 GTTVD.m                00 000 000 000:  GT True Vertical Depth
#Other Information
#
#WARRANTY: Halliburton will use its best efforts to furnish customers with 
#accurate information and interpretations that are part of, and incident to, the services 
#provided.  However, Halliburton cannot and does not warrant the accuracy 
#or correctness of such information and interpretations.  Under no circumstances should any 
#such information or interpretation be relied upon as the sole basis for any drilling, 
#completion, production, or financial decision or any procedure involving any risk to the 
#safety of any drilling venture, drilling rig or its crew or any other third party.  The 
#Customer has full responsibility for all drilling, completion and production operation.  
#Halliburton makes no representations or warranties, either expressed or 
#implied, including, but not limited to, the implied warranties of merchantability or fitness 
#for a particular purpose, with respect to the services rendered.  In no event will 
#Halliburton be liable for failure to obtain any particular results or for 
#any damages, including, but not limited to, indirect, special or consequential damages, 
#resulting from the use of any information or interpretation provided by Halliburton.
#
~A           TIME           GTDEPTH  GTPQH  GTTQ  GTTN   GTET   GTTVD  
# ...
   01:33:43.587.18-May-2020 4854.01 3158.12 66.48 11.00 361.75 2555.10
   01:33:43.787.18-May-2020 4854.01 3158.09 66.48 11.00 361.95 2555.10
   01:33:43.987.18-May-2020 4854.01 3158.12 66.48 11.00 362.15 2555.10
   01:33:44.187.18-May-2020 4854.01 3158.12 66.48 11.00 362.35 2555.10
   01:33:44.387.18-May-2020 4854.01 3158.07 66.48 11.00 362.55 2555.10
   01:33:44.587.18-May-2020 4854.01 3158.13 66.48 11.00 362.75 2555.10
   01:33:44.787.18-May-2020 4854.01 3158.19 66.48 11.00 362.95 2555.10
   01:33:44.987.18-May-2020 4854.01 3158.13 66.48 11.00 363.15 2555.10
   01:33:45.187.18-May-2020 4854.01 3158.13 66.48 11.00 363.35 2555.10
   01:33:45.387.18-May-2020 4854.01 3158.12 66.48 11.00 363.55 2555.10
   01:33:45.588.18-May-2020 4854.01 3158.11 66.48 11.00 363.75 2555.10
   01:33:45.788.18-May-2020 4854.01 3157.97 66.48 11.00 363.95 2555.10
   01:33:45.988.18-May-2020 4854.01 3163.74 66.48 11.00 364.15 2555.10
   01:33:46.188.18-May-2020 4854.01 3163.74 66.48 11.00 364.35 2555.10
   01:33:46.388.18-May-2020 4854.01 3907.34 66.48 11.00 364.55 2555.10
   01:33:46.588.18-May-2020 4854.01 5506.86 66.48 11.00 364.75 2555.10
   01:33:46.788.18-May-2020 4854.01 5488.04 66.48 11.00 364.95 2555.10
   01:33:46.988.18-May-2020 4854.01 5493.19 66.48 11.00 365.15 2555.10
   01:33:47.188.18-May-2020 4854.01 5493.19 66.49 11.00 365.35 2555.10
   01:33:47.388.18-May-2020 4854.01 5491.98 66.49 11.00 365.55 2555.10
   01:33:47.588.18-May-2020 4854.01 5496.23 66.49 11.00 365.75 2555.10
   01:33:47.788.18-May-2020 4854.01 5499.39 66.49 11.00 365.95 2555.10
   01:33:47.988.18-May-2020 4854.01 5496.16 66.49 11.00 366.15 2555.10
   01:33:48.189.18-May-2020 4854.01 5496.16 66.49 11.00 366.35 2555.10
   01:33:48.389.18-May-2020 4854.01 5495.15 66.49 11.00 366.55 2555.10
   01:33:48.589.18-May-2020 4854.01 5499.23 66.49 11.00 366.75 2555.10
   01:33:48.789.18-May-2020 4854.01 5501.35 66.49 11.00 366.95 2555.10
   01:33:48.989.18-May-2020 4854.01 5510.97 66.50 11.00 367.15 2555.10
   01:33:49.189.18-May-2020 4854.01 5510.97 66.50 11.00 367.35 2555.10
   01:33:49.389.18-May-2020 4854.01 5498.33 66.50 11.00 367.55 2555.10
   01:33:49.589.18-May-2020 4854.01 5504.83 66.50 11.00 367.75 2555.10
   01:33:49.789.18-May-2020 4854.01 5502.74 66.50 11.00 367.95 2555.10
   01:33:49.989.18-May-2020 4854.01 5500.84 66.50 11.00 368.15 2555.10
   01:33:50.189.18-May-2020 4854.01 5500.84 66.50 11.00 368.35 2555.10
   01:33:50.389.18-May-2020 4854.01 5499.10 66.51 11.00 368.55 2555.10
   01:33:50.590.18-May-2020 4854.01 5499.77 66.51 11.00 368.75 2555.10
   01:33:50.790.18-May-2020 4854.01 5499.20 66.51 11.00 368.95 2555.10
   01:33:50.990.18-May-2020 4854.01 5511.01 66.51 11.00 369.15 2555.10
   01:33:51.190.18-May-2020 4854.01 5511.01 66.51 11.00 369.35 2555.10
   01:33:51.390.18-May-2020 4854.01 5501.37 66.52 11.00 369.55 2555.10
   01:33:51.590.18-May-2020 4854.01 5503.10 66.52 11.00 369.75 2555.10
   01:33:51.790.18-May-2020 4854.01 5500.15 66.52 11.00 369.95 2555.10
   01:33:51.990.18-May-2020 4854.01 5500.29 66.52 11.00 370.15 2555.10
   01:33:52.190.18-May-2020 4854.01 5500.29 66.52 11.00 370.35 2555.10
   01:33:52.390.18-May-2020 4854.01 5498.63 66.52 11.00 370.55 2555.10
   01:33:52.590.18-May-2020 4854.01 5497.83 66.53 11.00 370.75 2555.10
   01:33:52.790.18-May-2020 4854.01 5498.34 66.53 11.00 370.95 2555.10
   01:33:52.990.18-May-2020 4854.01 5498.10 66.53 11.00 371.15 2555.10
   01:33:53.191.18-May-2020 4854.01 5498.10 66.53 11.00 371.35 2555.10
   01:33:53.391.18-May-2020 4854.01 5501.48 66.53 11.00 371.55 2555.10
   01:33:53.591.18-May-2020 4854.01 5497.42 66.53 11.00 371.75 2555.10
   01:33:53.791.18-May-2020 4854.01 5513.15 66.53 11.00 371.95 2555.10
   01:33:53.991.18-May-2020 4854.01 5505.90 66.53 11.00 372.15 2555.10
   01:33:54.191.18-May-2020 4854.01 5505.90 66.53 11.00 372.35 2555.10
   01:33:54.391.18-May-2020 4854.01 5504.22 66.53 11.00 372.55 2555.10
   01:33:54.591.18-May-2020 4854.01 5502.24 66.54 11.00 372.75 2555.10
   01:33:54.791.18-May-2020 4854.01 5514.91 66.54 11.00 372.95 2555.10
   01:33:54.991.18-May-2020 4854.01 5498.12 66.54 11.00 373.15 2555.10
   01:33:55.191.18-May-2020 4854.01 5498.12 66.54 11.00 373.35 2555.10
   01:33:55.391.18-May-2020 4854.01 5504.52 66.54 11.00 373.55 2555.10
   01:33:55.592.18-May-2020 4854.01 5515.35 66.54 11.00 373.75 2555.10
   01:33:55.792.18-May-2020 4854.01 5503.85 66.54 11.00 373.95 2555.10
   01:33:55.992.18-May-2020 4854.01 5499.99 66.54 11.00 374.15 2555.10
   01:33:56.192.18-May-2020 4854.01 5499.99 66.54 11.00 374.35 2555.10
   01:33:56.392.18-May-2020 4854.01 5503.94 66.54 11.00 374.55 2555.10
   01:33:56.592.18-May-2020 4854.01 5501.45 66.54 11.00 374.75 2555.10
   01:33:56.792.18-May-2020 4854.01 5501.00 66.54 11.00 374.95 2555.10
   01:33:56.992.18-May-2020 4854.01 5499.52 66.54 11.00 375.15 2555.10
   01:33:57.192.18-May-2020 4854.01 5499.52 66.54 11.00 375.35 2555.10
   01:33:57.392.18-May-2020 4854.01 5499.40 66.54 11.00 375.55 2555.10
   01:33:57.592.18-May-2020 4854.01 5512.20 66.54 11.00 375.75 2555.10
   01:33:57.792.18-May-2020 4854.01 5498.07 66.54 11.00 375.95 2555.10
   01:33:57.993.18-May-2020 4854.01 5499.42 66.54 11.00 376.15 2555.10
   01:33:58.193.18-May-2020 4854.01 5499.42 66.54 11.00 376.35 2555.10
   01:33:58.393.18-May-2020 4854.01 5502.34 66.54 11.00 376.55 2555.10
   01:33:58.593.18-May-2020 4854.01 5499.10 66.54 11.00 376.75 2555.10
   01:33:58.793.18-May-2020 4854.01 5499.30 66.54 11.00 376.95 2555.10
   01:33:58.993.18-May-2020 4854.01 5498.36 66.54 11.00 377.15 2555.10
   01:33:59.193.18-May-2020 4854.01 5498.36 66.54 11.00 377.35 2555.10
   01:33:59.393.18-May-2020 4854.01 5498.29 66.54 11.00 377.55 2555.10
   01:33:59.593.18-May-2020 4854.01 5497.97 66.54 11.00 377.75 2555.10
   01:33:59.793.18-May-2020 4854.01 5511.05 66.55 11.00 377.95 2555.10
   01:33:59.993.18-May-2020 4854.01 5494.75 66.54 11.00 378.15 2555.10
   01:34:00.193.18-May-2020 4854.01 5494.75 66.54 11.00 378.35 2555.10
   01:34:00.393.18-May-2020 4854.01 5503.39 66.54 11.00 378.55 2555.10
   01:34:00.594.18-May-2020 4854.01 5515.51 66.55 11.00 378.75 2555.10
   01:34:00.794.18-May-2020 4854.01 5496.01 66.54 11.00 378.95 2555.10
   01:34:00.994.18-May-2020 4854.01 5502.13 66.54 11.00 379.15 2555.10
   01:34:01.194.18-May-2020 4854.01 5502.13 66.54 11.00 379.35 2555.10
   01:34:01.394.18-May-2020 4854.01 5502.31 66.54 11.00 379.55 2555.10
   01:34:01.594.18-May-2020 4854.01 5514.64 66.54 11.00 379.75 2555.10
   01:34:01.794.18-May-2020 4854.01 5496.81 66.54 11.00 379.95 2555.10
   01:34:01.994.18-May-2020 4854.01 5503.14 66.54 11.00 380.15 2555.10
   01:34:02.194.18-May-2020 4854.01 5503.14 66.54 11.00 380.35 2555.10
   01:34:02.394.18-May-2020 4854.01 5516.23 66.54 11.00 380.55 2555.10
   01:34:02.594.18-May-2020 4854.01 5497.76 66.54 11.00 380.75 2555.10
   01:34:02.794.18-May-2020 4854.01 5503.65 66.54 11.00 380.95 2555.10
   01:34:02.995.18-May-2020 4854.01 5505.61 66.54 11.00 381.15 2555.10
   01:34:03.195.18-May-2020 4854.01 5505.61 66.54 11.00 381.35 2555.10
   01:34:03.395.18-May-2020 4854.01 5501.61 66.54 11.00 381.55 2555.10
   01:34:03.595.18-May-2020 4854.01 5500.79 66.54 11.00 381.75 2555.10
   01:34:03.795.18-May-2020 4854.01 5500.86 66.54 11.00 381.95 2555.10
   01:34:03.995.18-May-2020 4854.01 5499.30 66.54 11.00 382.15 2555.10
   01:34:04.195.18-May-2020 4854.01 5499.30 66.54 11.00 382.35 2555.10
   01:34:04.395.18-May-2020 4854.01 5509.60 66.54 11.00 382.55 2555.10
   01:34:04.595.18-May-2020 4854.01 5497.28 66.54 11.00 382.75 2555.10
   01:34:04.795.18-May-2020 4854.01 5501.54 66.54 11.00 382.95 2555.10
   01:34:04.995.18-May-2020 4854.01 5503.63 66.54 11.00 383.15 2555.10
   01:34:05.195.18-May-2020 4854.01 5503.63 66.54 11.00 383.35 2555.10
   01:34:05.395.18-May-2020 4854.01 5500.29 66.54 11.00 383.55 2555.10
   01:34:05.596.18-May-2020 4854.01 5499.46 66.54 11.00 383.75 2555.10
   01:34:05.796.18-May-2020 4854.01 5499.26 66.54 11.00 383.95 2555.10
   01:34:05.996.18-May-2020 4854.01 5498.15 66.54 11.00 384.15 2555.10
