~Version Information
 VERS.                  2.0:   CWLS log ASCII Standard -VERSION 2.0
 WRAP.                   NO:   One line per depth step
~Well Information Block
#MNEM.UNIT     VALUE/NAME     DESCRIPTION
#---------     -----------    ---------------------------
 STRT.S             21:11:08 17-May-20: START TIME 21:11:08 17-May-20
 STOP.S             21:18:11 17-May-20: STOP TIME  21:18:11 17-May-20
 STEP.S                   0.00: STEP TIME
 NULL.                 -999.25: NULL VALUE
 UNIT.                     N/A:  LOGGING EQUIPMENT ID
 DCON.         Sperry Drilling:  DIRECTNL CONTR
 DOE .                     N/A:  DOE NUMBER
 JOBN.        AZ-XX-0906252240:  JOB TICKET NUMB
 MWDS.                     N/A:  MWD SHOP
 PROV.                    Baku:  PROVINCE
 STAT.                    Baku:  STATE NAME
 REGN.                   EESSA:  REGION
 BASE.              Azerbaijan:  LOGGING EQUIPMENT BASE LOCATION
 UWI .                     N/A:  UNIQUE WELL IDENTIFIER
 API .                     N/A:  API NUMBER
 MDS .        Operator Entered:  MAG DATA SOURCE
 WTYP.                Deviated:  WELL TYPE
 COMP.     BP Exploration (Caspian Sea) Ltd.:  COMPANY
 SRVC.          Turan Drilling:  CONTRACTOR
 WELL.           J23 (Slot 07):  WELL NAME
 CTRY.              Azerbaijan:  COUNTRY NAME
 FLD .                     ACG:  FIELD NAME
 PDAT.          Mean Sea Level:  PERMANENT DATUM
 RIG .             West Chirag:  RIG NAME
 SON .        AZ-XX-0906252240:  JOB NUMBER
 FTOP.          Formation Tops:  FORM TOPS DESC
 ILTD.               Lithology:  INTERP LTH DESC
 SVYD.                  Survey:  SURVEY DESC
 DMOD.             Drill Model:  DRILL MOD DESC
 HPTY.       Minimum Curvature:  HOLE POS TYPE
 NREF.                    Grid:  NORTH REFERENCE
 SPUD.               27-Aug-20:  SPUD DATE
 DATE.      00.00.00 19-May-20:  END TIME
 STIM.      03.00.00 25-Mar-20:  START TIME
 DMF .             Drill Floor:  DRILL MEAS FROM
 DFST.                        :  DIST FSL TEXT
 DFWT.                        :  DIST FWL TEXT
 CNTY.                        :  COUNTY
 LOC .                        :  LOCATION
 LMF .             Drill Floor:  LOG MEASURED FROM
 VSNS.m                   9.43:  VERT SEC N/S
 VSEW.m                  -8.91:  VERT SEC E/W
 AGAP.m                  43.00:  AIR GAP
 DEP .m                 354.17:  DEPTH
 APD .m                  43.00:  DEPTH ABOVE PD
 WDMS.m                 169.80:  WD ELEV
 EGL .m                   0.00:  GROUND ELEVATION
 EPD .m                   0.00:  ELEVATION
 AZTC.deg                 6.31:  AZM TOTAL CORR
 GRDC.deg                 0.14:  GRID CORRECTION
 MDEC.deg                 6.45:  MAGNETIC DECL
 MDIP.deg                59.56:  MAGNETIC DIP
 MFLD.nT              50295.00:  MAGNETIC FIELD
 GVFD.g                   1.00:  GRAVITY FIELD
 VSDR.deg               179.88:  VERT SEC DIRECT
 TDD .m                5150.01:  TOTAL DEPTH (DRILLER)
 SDEP.m                 864.00:  START DEPTH
 DFSL.m                   0.00:  DISTANCE FSL
 DFWL.m                   0.00:  DISTANCE FWL
 UTMY.m             4443793.85:  UTM Y
 UTMX.m              519005.06:  UTM X
 WHEW.m                  -8.91:  WELL HEAD E/W
 WHNS.m                   9.43:  WELL HEAD N/S
 LONG.deg                51.22:  LONGITUDE
 LATI.deg                40.13:  LATITUDE
 TVDS.m                  43.00:  TVDSS CORRECTN
 EKB .m                   0.00:  KB ELEVATION
 EDF .m                  43.00:  DF ELEVATION
 TDL .m                 363.00:  TOTAL DEPTH (LOGGER)
 MAGU.                 1850802:  MAGUTM CHECKSUM
 VSC .                       0:  VS TO CLOSURE
~Parameter Information Block
#MNEM.UNIT       Value        Description
#---------     -----------    ---------------------------
 AV  .mps                 2.30:  Ann Velocity 
 AVMX.mps                 4.40:  Max Ann Veloc 
 AZIF.deg               110.24:  Azm, Final 
 BHAT.        Rotary Steerable:  BHA Type 
 BREV.rev               331.00:  Rev Bit Total 
 BROT.°/30m               0.00:  Build Rotating 
 BS  .in                  8.50:  Bit Size 
 BSZ .in                  8.50:  Bit Size 
 BTPL.psig              585.00:  Bit Press Loss 
 CABU.                     Yes:  Customer Abuse 
 COMM.                     Ô‹p:  Run Comments 1 
 TCS .hr                122.75:  Time Ciculation Ended 
 CV  .mps                 2.67:  Crit Velocity 
 CVMX.mps                 3.56:  Max Crit Veloc 
 DD1 .          Rashad Habibov:  Direct Drillr 1 
 DD2 .         Rasim Ibrahimov:  Direct Drillr 2 
 DDSV.               Geo-Pilot:  DD Service 
 DEFF.%                  98.00:  % Det Eff 
 DLRX.°/30m               0.75:  Dogleg Rot Max 
 DLSO.°/30m               1.25:  Dogleg Oriented 
 DLSX.°/30m               2.06:  Dogleg Str Max 
 DRET.      07.45.00 17-May-20:  Drill End Time 
 DRST.      22.50.00 15-May-20:  Drill Start Tim 
 DTIM.hr                 20.75:  Time Drilling 
 EDEP.m                5124.01:  End Depth 
 ENG1.           Eldar Hajiyev:  Engineer 1 
 ENG2.        Marcelo Sandoval:  Engineer 2 
 ENG3.        Davud huseynzada:  Engineer 3 
 ENG4.          Ruslan Safarov:  Engineer 4 
 ETIM.      04.33.00 23-May-20:  End Time 
 FLOI.gpm               450.00:  Flow In 
 FLON.gpm               400.00:  Flow In Min 
 FLOS.cptm                0.00:  Fluid Loss 
 FLOX.gpm               500.00:  Flow In Max 
 FTRO.       Formation Presure:  FTWD Run Obj 
 HFLO.                      No:  High Flow 
 HPRE.                     Yes:  High Pressure 
 HTEM.                      No:  High Temp 
 HYDO.m                   1.80:  Hydro Offset 
 IFIN.deg                75.06:  Inc, Final 
 IMAX.deg                75.38:  Inc Max 
 IMIN.deg                74.69:  Inc Min 
 IMND.m                5027.38:  Inc Min Depth 
 IMXD.m                4771.61:  Inc Max Depth 
 JARR.                      No:  Jarring 
 LETM.      07.45.00 17-May-20:  Log End Time 
 LOST.hr                     0:  Lost Rig Time 
 LSTM.      22.50.00 15-May-20:  Log Start Time 
 MDCL.ppm             42000.00:  Mud Chlorides 
 MDES.     Inversion Oil/Synthetic:  Mud Desc 
 DFD .sg                  1.34:  Mud Density 
 MDMN.sg                  1.34:  Dens Mud Min 
 MDMX.sg                  1.34:  Dens Mud Max 
 MOIL.                       0:  Run Mud Oil % 
 MOWR.                   67:33:  Run Mud OWR 
 MSND.                       0:  Run Mud Sand % 
 MSOL.                     1.8:  Run Mud Solids% 
 DFV .spqt               76.00:  Mud Viscosity 
 MWOD.in                  6.75:  MWD Tool OD 
 MWSI.                      No:  Serv Intrp, MWD 
 OTIM.hr                228.19:  Time Operating 
 PCON.           Look Like New:  Pad Condition 
 PMAX.psia             6164.70:  Press Op, Max 
 PV  .cP                 28.00:  Mud PV 
 RUN .                     900:  Run Number 
 ROPA.m/hr               19.00:  ROP Avg 
 ROPN.m/hr               11.00:  ROP Min 
 ROPX.m/hr               36.00:  ROP Max 
 RPMA.rpm               120.00:  RPM Surface Avg 
 RPMN.rpm               120.00:  RPM Surface Min 
 RPMX.rpm               120.00:  RPM Surface Max 
 RRUN.                    L604:  Rig Run Number 
 RTIM.hr                  7.00:  Time Reaming 
 SAZI.deg               109.27:  Azm, Start 
 SDEP.m                4761.01:  Start Depth 
 SIDD.                      No:  Serv Intrp, DD 
 SINC.deg                75.38:  Inc, Start 
 SPPA.psig             3574.00:  SPP Avg 
 SPPN.psig             3475.00:  SPP Min 
 SPPX.psig             3791.00:  SPP Max 
 STIM.      07.08.48 13-May-20:  Start Time 
 SVCS.                 DD, MWD:  Services 
 SVER.                    9.20:  Sperry Version 
 TDAT.m                 363.00:  Tot Depth Attmp 
 TDDF.                      No:  Trip for DD 
 TDLG.m                 363.00:  Tot Depth Loggd 
 TFF .                      No:  Trip for Fail 
 TQAA.f-kp               20.00:  Torque Abs Avg 
 TQAN.f-kp               18.00:  Torque Abs Min 
 TQAX.f-kp               22.00:  Torque Abs Max 
 TRRT.°/30m              -0.35:  Turn Rotating 
 MRT .                    HCIM:  Maximum Recorded Temperature 
 TTMX.degC               92.16:  Max Tool Temp 
 VS01.                90586518:  Virtual Str1 SN 
 VS02.        AZ90560654Z1W1C6:  Virtual Str2 SN 
 VS03.           AZ90610398F11:  Virtual Str3 SN 
 VS04.                90514975:  Virtual Str4 SN 
 VS05.                90514972:  Virtual Str5 SN 
 VS06.     AZ90603282F11V7D1A6:  Virtual Str6 SN 
 WBMN.klb                 7.00:  WOB Min 
 WOBA.klb                12.00:  WOB Avg 
 WOBX.klb                14.00:  WOB Max 
 YP  .lhf2               32.00:  Yield Point 
~Curve Information Block
#MNEM.UNIT                 API CODE     Curve Description
#---------               -----------    ---------------------------
 TIME.HHMMSS            00 000 000 000:  GT Time & Date
 GTDEPTH.m              00 000 000 000:  GT Depth
 GTPQH.psia             00 000 000 000:  GT HR Quartz Pressure
 GTTQ.degC              00 000 000 000:  GT Quartz Temperature
 GTTN.NONE              00 000 000 000:  GT Test Number
 GTET.sec               00 000 000 000:  GT Elapsed Test Time
 GTTVD.m                00 000 000 000:  GT True Vertical Depth
#Other Information
#
#WARRANTY: Halliburton will use its best efforts to furnish customers with 
#accurate information and interpretations that are part of, and incident to, the services 
#provided.  However, Halliburton cannot and does not warrant the accuracy 
#or correctness of such information and interpretations.  Under no circumstances should any 
#such information or interpretation be relied upon as the sole basis for any drilling, 
#completion, production, or financial decision or any procedure involving any risk to the 
#safety of any drilling venture, drilling rig or its crew or any other third party.  The 
#Customer has full responsibility for all drilling, completion and production operation.  
#Halliburton makes no representations or warranties, either expressed or 
#implied, including, but not limited to, the implied warranties of merchantability or fitness 
#for a particular purpose, with respect to the services rendered.  In no event will 
#Halliburton be liable for failure to obtain any particular results or for 
#any damages, including, but not limited to, indirect, special or consequential damages, 
#resulting from the use of any information or interpretation provided by Halliburton.
#
~A           TIME           GTDEPTH  GTPQH  GTTQ  GTTN  GTET   GTTVD  
# ...
   21:11:31.172.17-May-2020 4958.01 5525.56 68.18 6.00  23.00 2581.85
   21:11:31.372.17-May-2020 4958.01 5525.56 68.18 6.00  23.20 2581.85
   21:11:31.572.17-May-2020 4958.01 5527.33 68.18 6.00  23.40 2581.85
   21:11:31.772.17-May-2020 4958.01 5528.76 68.18 6.00  23.60 2581.85
   21:11:31.972.17-May-2020 4958.01 5532.05 68.18 6.00  23.80 2581.85
   21:11:32.172.17-May-2020 4958.01 5524.04 68.18 6.00  24.00 2581.85
   21:11:32.372.17-May-2020 4958.01 5524.04 68.18 6.00  24.20 2581.85
   21:11:32.572.17-May-2020 4958.01 5526.50 68.18 6.00  24.40 2581.85
   21:11:32.772.17-May-2020 4958.01 5525.70 68.18 6.00  24.60 2581.85
   21:11:32.972.17-May-2020 4958.01 5525.73 68.18 6.00  24.80 2581.85
   21:11:33.172.17-May-2020 4958.01 5525.90 68.18 6.00  25.00 2581.85
   21:11:33.372.17-May-2020 4958.01 5525.90 68.18 6.00  25.20 2581.85
   21:11:33.572.17-May-2020 4958.01 5525.27 68.18 6.00  25.40 2581.85
   21:11:33.772.17-May-2020 4958.01 5534.84 68.18 6.00  25.60 2581.85
   21:11:33.972.17-May-2020 4958.01 5527.10 68.18 6.00  25.80 2581.85
   21:11:34.172.17-May-2020 4958.01 5535.30 68.18 6.00  26.00 2581.85
   21:11:34.372.17-May-2020 4958.01 5535.30 68.18 6.00  26.20 2581.85
   21:11:34.572.17-May-2020 4958.01 5543.55 68.18 6.00  26.40 2581.85
   21:11:34.772.17-May-2020 4958.01 5524.72 68.18 6.00  26.60 2581.85
   21:11:34.972.17-May-2020 4958.01 5534.09 68.18 6.00  26.80 2581.85
   21:11:35.172.17-May-2020 4958.01 5530.75 68.18 6.00  27.00 2581.85
   21:11:35.372.17-May-2020 4958.01 5530.75 68.18 6.00  27.20 2581.85
   21:11:35.572.17-May-2020 4958.01 5528.96 68.18 6.00  27.40 2581.85
   21:11:35.772.17-May-2020 4958.01 5536.17 68.18 6.00  27.60 2581.85
   21:11:35.972.17-May-2020 4958.01 5530.97 68.18 6.00  27.80 2581.85
   21:11:36.172.17-May-2020 4958.01 5534.23 68.18 6.00  28.00 2581.85
   21:11:36.372.17-May-2020 4958.01 5534.23 68.18 6.00  28.20 2581.85
   21:11:36.572.17-May-2020 4958.01 5531.59 68.18 6.00  28.40 2581.85
   21:11:36.772.17-May-2020 4958.01 5539.41 68.18 6.00  28.60 2581.85
   21:11:36.972.17-May-2020 4958.01 5528.99 68.18 6.00  28.80 2581.85
   21:11:37.172.17-May-2020 4958.01 5532.89 68.18 6.00  29.00 2581.85
   21:11:37.372.17-May-2020 4958.01 5530.68 68.18 6.00  29.20 2581.85
   21:11:37.572.17-May-2020 4958.01 5529.13 68.18 6.00  29.40 2581.85
   21:11:37.772.17-May-2020 4958.01 5529.94 68.18 6.00  29.60 2581.85
   21:11:37.972.17-May-2020 4958.01 5529.61 68.18 6.00  29.80 2581.85
   21:11:38.171.17-May-2020 4958.01 5530.09 68.18 6.00  30.00 2581.85
   21:11:38.371.17-May-2020 4958.01 5530.09 68.18 6.00  30.20 2581.85
   21:11:38.571.17-May-2020 4958.01 5527.17 68.18 6.00  30.40 2581.85
   21:11:38.771.17-May-2020 4958.01 5535.96 68.18 6.00  30.60 2581.85
   21:11:38.971.17-May-2020 4958.01 5529.61 68.18 6.00  30.80 2581.85
   21:11:39.171.17-May-2020 4958.01 5531.79 68.17 6.00  31.00 2581.85
   21:11:39.371.17-May-2020 4958.01 5531.79 68.17 6.00  31.20 2581.85
   21:11:39.571.17-May-2020 4958.01 5528.81 68.17 6.00  31.40 2581.85
   21:11:39.771.17-May-2020 4958.01 5529.63 68.17 6.00  31.60 2581.85
   21:11:39.971.17-May-2020 4958.01 5529.60 68.17 6.00  31.80 2581.85
   21:11:40.171.17-May-2020 4958.01 5529.61 68.17 6.00  32.00 2581.85
   21:11:40.371.17-May-2020 4958.01 5529.61 68.17 6.00  32.20 2581.85
   21:11:40.571.17-May-2020 4958.01 5545.79 68.17 6.00  32.40 2581.85
   21:11:40.771.17-May-2020 4958.01 5523.05 68.17 6.00  32.60 2581.85
   21:11:40.971.17-May-2020 4958.01 5534.57 68.17 6.00  32.80 2581.85
   21:11:41.171.17-May-2020 4958.01 5534.20 68.17 6.00  33.00 2581.85
   21:11:41.371.17-May-2020 4958.01 5534.20 68.17 6.00  33.20 2581.85
   21:11:41.571.17-May-2020 4958.01 5534.12 68.17 6.00  33.40 2581.85
   21:11:41.771.17-May-2020 4958.01 5535.15 68.17 6.00  33.60 2581.85
   21:11:41.971.17-May-2020 4958.01 5538.50 68.17 6.00  33.80 2581.85
   21:11:42.171.17-May-2020 4958.01 5542.09 68.17 6.00  34.00 2581.85
   21:11:42.371.17-May-2020 4958.01 5542.09 68.17 6.00  34.20 2581.85
   21:11:42.571.17-May-2020 4958.01 5537.30 68.17 6.00  34.40 2581.85
   21:11:42.771.17-May-2020 4958.01 5537.95 68.17 6.00  34.60 2581.85
   21:11:42.971.17-May-2020 4958.01 5536.88 68.17 6.00  34.80 2581.85
   21:11:43.171.17-May-2020 4958.01 5539.61 68.17 6.00  35.00 2581.85
   21:11:43.371.17-May-2020 4958.01 5539.61 68.17 6.00  35.20 2581.85
   21:11:43.571.17-May-2020 4958.01 5541.96 68.17 6.00  35.40 2581.85
   21:11:43.771.17-May-2020 4958.01 5531.82 68.17 6.00  35.60 2581.85
   21:11:43.971.17-May-2020 4958.01 5535.59 68.17 6.00  35.80 2581.85
   21:11:44.171.17-May-2020 4958.01 5534.76 68.17 6.00  36.00 2581.85
   21:11:44.371.17-May-2020 4958.01 5534.76 68.17 6.00  36.20 2581.85
   21:11:44.571.17-May-2020 4958.01 5532.78 68.17 6.00  36.40 2581.85
   21:11:44.771.17-May-2020 4958.01 5532.81 68.17 6.00  36.60 2581.85
   21:11:44.971.17-May-2020 4958.01 5532.98 68.17 6.00  36.80 2581.85
   21:11:45.171.17-May-2020 4958.01 5531.91 68.17 6.00  37.00 2581.85
   21:11:45.371.17-May-2020 4958.01 5531.91 68.17 6.00  37.20 2581.85
   21:11:45.571.17-May-2020 4958.01 5525.06 68.17 6.00  37.40 2581.85
   21:11:45.771.17-May-2020 4958.01 5536.23 68.17 6.00  37.60 2581.85
   21:11:45.971.17-May-2020 4958.01 5535.81 68.17 6.00  37.80 2581.85
   21:11:46.171.17-May-2020 4958.01 5533.30 68.17 6.00  38.00 2581.85
   21:11:46.371.17-May-2020 4958.01 5533.30 68.17 6.00  38.20 2581.85
   21:11:46.571.17-May-2020 4958.01 5532.16 68.17 6.00  38.40 2581.85
   21:11:46.771.17-May-2020 4958.01 5533.16 68.17 6.00  38.60 2581.85
   21:11:46.971.17-May-2020 4958.01 5532.40 68.17 6.00  38.80 2581.85
   21:11:47.171.17-May-2020 4958.01 5531.68 68.17 6.00  39.00 2581.85
   21:11:47.371.17-May-2020 4958.01 5531.68 68.17 6.00  39.20 2581.85
   21:11:47.571.17-May-2020 4958.01 5538.15 68.17 6.00  39.40 2581.85
   21:11:47.771.17-May-2020 4958.01 5535.17 68.17 6.00  39.60 2581.85
   21:11:47.971.17-May-2020 4958.01 5536.81 68.17 6.00  39.80 2581.85
   21:11:48.171.17-May-2020 4958.01 5541.24 68.17 6.00  40.00 2581.85
   21:11:48.371.17-May-2020 4958.01 5541.24 68.17 6.00  40.20 2581.85
   21:11:48.571.17-May-2020 4958.01 5545.14 68.17 6.00  40.40 2581.85
   21:11:48.771.17-May-2020 4958.01 5536.24 68.17 6.00  40.60 2581.85
   21:11:48.971.17-May-2020 4958.01 5542.93 68.17 6.00  40.80 2581.85
   21:11:49.171.17-May-2020 4958.01 5533.62 68.17 6.00  41.00 2581.85
   21:11:49.371.17-May-2020 4958.01 5552.58 68.17 6.00  41.20 2581.85
   21:11:49.571.17-May-2020 4958.01 5529.44 68.17 6.00  41.40 2581.85
   21:11:49.771.17-May-2020 4958.01 5539.23 68.17 6.00  41.60 2581.85
   21:11:49.971.17-May-2020 4958.01 5538.86 68.17 6.00  41.80 2581.85
   21:11:50.171.17-May-2020 4958.01 5551.37 68.17 6.00  42.00 2581.85
   21:11:50.371.17-May-2020 4958.01 5534.02 68.17 6.00  42.20 2581.85
   21:11:50.571.17-May-2020 4958.01 5539.57 68.17 6.00  42.40 2581.85
   21:11:50.771.17-May-2020 4958.01 5550.46 68.17 6.00  42.60 2581.85
   21:11:50.971.17-May-2020 4958.01 5536.23 68.17 6.00  42.80 2581.85
   21:11:51.170.17-May-2020 4958.01 5541.85 68.17 6.00  43.00 2581.85
   21:11:51.370.17-May-2020 4958.01 5541.85 68.17 6.00  43.20 2581.85
   21:11:51.570.17-May-2020 4958.01 5551.49 68.17 6.00  43.40 2581.85
   21:11:51.770.17-May-2020 4958.01 5532.81 68.17 6.00  43.60 2581.85
   21:11:51.970.17-May-2020 4958.01 5540.78 68.17 6.00  43.80 2581.85
   21:11:52.170.17-May-2020 4958.01 5540.64 68.17 6.00  44.00 2581.85
   21:11:52.370.17-May-2020 4958.01 5540.64 68.17 6.00  44.20 2581.85
   21:11:52.570.17-May-2020 4958.01 5537.51 68.17 6.00  44.40 2581.85
   21:11:52.770.17-May-2020 4958.01 5535.80 68.17 6.00  44.60 2581.85
   21:11:52.970.17-May-2020 4958.01 5536.36 68.17 6.00  44.80 2581.85
   21:11:53.170.17-May-2020 4958.01 5535.13 68.17 6.00  45.00 2581.85
   21:11:53.370.17-May-2020 4958.01 5535.13 68.17 6.00  45.20 2581.85
   21:11:53.570.17-May-2020 4958.01 5546.10 68.17 6.00  45.40 2581.85
   21:11:53.770.17-May-2020 4958.01 5533.95 68.17 6.00  45.60 2581.85
   21:11:53.970.17-May-2020 4958.01 5539.42 68.17 6.00  45.80 2581.85
