~Version Information
 VERS.                  2.0:   CWLS log ASCII Standard -VERSION 2.0
 WRAP.                   NO:   One line per depth step
~Well Information Block
#MNEM.UNIT     VALUE/NAME     DESCRIPTION
#---------     -----------    ---------------------------
 STRT.S             23:36:46 17-May-20: START TIME 23:36:46 17-May-20
 STOP.S             23:44:24 17-May-20: STOP TIME  23:44:24 17-May-20
 STEP.S                   0.00: STEP TIME
 NULL.                 -999.25: NULL VALUE
 UNIT.                     N/A:  LOGGING EQUIPMENT ID
 DCON.         Sperry Drilling:  DIRECTNL CONTR
 DOE .                     N/A:  DOE NUMBER
 JOBN.        AZ-XX-0906252240:  JOB TICKET NUMB
 MWDS.                     N/A:  MWD SHOP
 PROV.                    Baku:  PROVINCE
 STAT.                    Baku:  STATE NAME
 REGN.                   EESSA:  REGION
 BASE.              Azerbaijan:  LOGGING EQUIPMENT BASE LOCATION
 UWI .                     N/A:  UNIQUE WELL IDENTIFIER
 API .                     N/A:  API NUMBER
 MDS .        Operator Entered:  MAG DATA SOURCE
 WTYP.                Deviated:  WELL TYPE
 COMP.     BP Exploration (Caspian Sea) Ltd.:  COMPANY
 SRVC.          Turan Drilling:  CONTRACTOR
 WELL.           J23 (Slot 07):  WELL NAME
 CTRY.              Azerbaijan:  COUNTRY NAME
 FLD .                     ACG:  FIELD NAME
 PDAT.          Mean Sea Level:  PERMANENT DATUM
 RIG .             West Chirag:  RIG NAME
 SON .        AZ-XX-0906252240:  JOB NUMBER
 FTOP.          Formation Tops:  FORM TOPS DESC
 ILTD.               Lithology:  INTERP LTH DESC
 SVYD.                  Survey:  SURVEY DESC
 DMOD.             Drill Model:  DRILL MOD DESC
 HPTY.       Minimum Curvature:  HOLE POS TYPE
 NREF.                    Grid:  NORTH REFERENCE
 SPUD.               27-Aug-20:  SPUD DATE
 DATE.      00.00.00 19-May-20:  END TIME
 STIM.      03.00.00 25-Mar-20:  START TIME
 DMF .             Drill Floor:  DRILL MEAS FROM
 DFST.                        :  DIST FSL TEXT
 DFWT.                        :  DIST FWL TEXT
 CNTY.                        :  COUNTY
 LOC .                        :  LOCATION
 LMF .             Drill Floor:  LOG MEASURED FROM
 VSNS.m                   9.43:  VERT SEC N/S
 VSEW.m                  -8.91:  VERT SEC E/W
 AGAP.m                  43.00:  AIR GAP
 DEP .m                 354.17:  DEPTH
 APD .m                  43.00:  DEPTH ABOVE PD
 WDMS.m                 169.80:  WD ELEV
 EGL .m                   0.00:  GROUND ELEVATION
 EPD .m                   0.00:  ELEVATION
 AZTC.deg                 6.31:  AZM TOTAL CORR
 GRDC.deg                 0.14:  GRID CORRECTION
 MDEC.deg                 6.45:  MAGNETIC DECL
 MDIP.deg                59.56:  MAGNETIC DIP
 MFLD.nT              50295.00:  MAGNETIC FIELD
 GVFD.g                   1.00:  GRAVITY FIELD
 VSDR.deg               179.88:  VERT SEC DIRECT
 TDD .m                5150.01:  TOTAL DEPTH (DRILLER)
 SDEP.m                 864.00:  START DEPTH
 DFSL.m                   0.00:  DISTANCE FSL
 DFWL.m                   0.00:  DISTANCE FWL
 UTMY.m             4443793.85:  UTM Y
 UTMX.m              519005.06:  UTM X
 WHEW.m                  -8.91:  WELL HEAD E/W
 WHNS.m                   9.43:  WELL HEAD N/S
 LONG.deg                51.22:  LONGITUDE
 LATI.deg                40.13:  LATITUDE
 TVDS.m                  43.00:  TVDSS CORRECTN
 EKB .m                   0.00:  KB ELEVATION
 EDF .m                  43.00:  DF ELEVATION
 TDL .m                 363.00:  TOTAL DEPTH (LOGGER)
 MAGU.                 1850802:  MAGUTM CHECKSUM
 VSC .                       0:  VS TO CLOSURE
~Parameter Information Block
#MNEM.UNIT       Value        Description
#---------     -----------    ---------------------------
 AV  .mps                 2.30:  Ann Velocity 
 AVMX.mps                 4.40:  Max Ann Veloc 
 AZIF.deg               110.24:  Azm, Final 
 BHAT.        Rotary Steerable:  BHA Type 
 BREV.rev               331.00:  Rev Bit Total 
 BROT.°/30m               0.00:  Build Rotating 
 BS  .in                  8.50:  Bit Size 
 BSZ .in                  8.50:  Bit Size 
 BTPL.psig              585.00:  Bit Press Loss 
 CABU.                     Yes:  Customer Abuse 
 TCS .hr                122.75:  Time Ciculation Ended 
 CV  .mps                 2.67:  Crit Velocity 
 CVMX.mps                 3.56:  Max Crit Veloc 
 DD1 .          Rashad Habibov:  Direct Drillr 1 
 DD2 .         Rasim Ibrahimov:  Direct Drillr 2 
 DDSV.               Geo-Pilot:  DD Service 
 DEFF.%                  98.00:  % Det Eff 
 DLRX.°/30m               0.75:  Dogleg Rot Max 
 DLSO.°/30m               1.25:  Dogleg Oriented 
 DLSX.°/30m               2.06:  Dogleg Str Max 
 DRET.      07.45.00 17-May-20:  Drill End Time 
 DRST.      22.50.00 15-May-20:  Drill Start Tim 
 DTIM.hr                 20.75:  Time Drilling 
 EDEP.m                5124.01:  End Depth 
 ENG1.           Eldar Hajiyev:  Engineer 1 
 ENG2.        Marcelo Sandoval:  Engineer 2 
 ENG3.        Davud huseynzada:  Engineer 3 
 ENG4.          Ruslan Safarov:  Engineer 4 
 ETIM.      04.33.00 23-May-20:  End Time 
 FLOI.gpm               450.00:  Flow In 
 FLON.gpm               400.00:  Flow In Min 
 FLOS.cptm                0.00:  Fluid Loss 
 FLOX.gpm               500.00:  Flow In Max 
 FTRO.       Formation Presure:  FTWD Run Obj 
 HFLO.                      No:  High Flow 
 HPRE.                     Yes:  High Pressure 
 HTEM.                      No:  High Temp 
 HYDO.m                   1.80:  Hydro Offset 
 IFIN.deg                75.06:  Inc, Final 
 IMAX.deg                75.38:  Inc Max 
 IMIN.deg                74.69:  Inc Min 
 IMND.m                5027.38:  Inc Min Depth 
 IMXD.m                4771.61:  Inc Max Depth 
 JARR.                      No:  Jarring 
 LETM.      07.45.00 17-May-20:  Log End Time 
 LOST.hr                     0:  Lost Rig Time 
 LSTM.      22.50.00 15-May-20:  Log Start Time 
 MDCL.ppm             42000.00:  Mud Chlorides 
 MDES.     Inversion Oil/Synthetic:  Mud Desc 
 DFD .sg                  1.34:  Mud Density 
 MDMN.sg                  1.34:  Dens Mud Min 
 MDMX.sg                  1.34:  Dens Mud Max 
 MOIL.                       0:  Run Mud Oil % 
 MOWR.                   67:33:  Run Mud OWR 
 MSND.                       0:  Run Mud Sand % 
 MSOL.                     1.8:  Run Mud Solids% 
 DFV .spqt               76.00:  Mud Viscosity 
 MWOD.in                  6.75:  MWD Tool OD 
 MWSI.                      No:  Serv Intrp, MWD 
 OTIM.hr                228.19:  Time Operating 
 PCON.           Look Like New:  Pad Condition 
 PMAX.psia             6164.70:  Press Op, Max 
 PV  .cP                 28.00:  Mud PV 
 RUN .                     900:  Run Number 
 ROPA.m/hr               19.00:  ROP Avg 
 ROPN.m/hr               11.00:  ROP Min 
 ROPX.m/hr               36.00:  ROP Max 
 RPMA.rpm               120.00:  RPM Surface Avg 
 RPMN.rpm               120.00:  RPM Surface Min 
 RPMX.rpm               120.00:  RPM Surface Max 
 RRUN.                    L604:  Rig Run Number 
 RTIM.hr                  7.00:  Time Reaming 
 SAZI.deg               109.27:  Azm, Start 
 SDEP.m                4761.01:  Start Depth 
 SIDD.                      No:  Serv Intrp, DD 
 SINC.deg                75.38:  Inc, Start 
 SPPA.psig             3574.00:  SPP Avg 
 SPPN.psig             3475.00:  SPP Min 
 SPPX.psig             3791.00:  SPP Max 
 STIM.      07.08.48 13-May-20:  Start Time 
 SVCS.                 DD, MWD:  Services 
 SVER.                    9.20:  Sperry Version 
 TDAT.m                 363.00:  Tot Depth Attmp 
 TDDF.                      No:  Trip for DD 
 TDLG.m                 363.00:  Tot Depth Loggd 
 TFF .                      No:  Trip for Fail 
 TQAA.f-kp               20.00:  Torque Abs Avg 
 TQAN.f-kp               18.00:  Torque Abs Min 
 TQAX.f-kp               22.00:  Torque Abs Max 
 TRRT.°/30m              -0.35:  Turn Rotating 
 MRT .                    HCIM:  Maximum Recorded Temperature 
 TTMX.degC               92.16:  Max Tool Temp 
 VS01.                90586518:  Virtual Str1 SN 
 VS02.        AZ90560654Z1W1C6:  Virtual Str2 SN 
 VS03.           AZ90610398F11:  Virtual Str3 SN 
 VS04.                90514975:  Virtual Str4 SN 
 VS05.                90514972:  Virtual Str5 SN 
 VS06.     AZ90603282F11V7D1A6:  Virtual Str6 SN 
 WBMN.klb                 7.00:  WOB Min 
 WOBA.klb                12.00:  WOB Avg 
 WOBX.klb                14.00:  WOB Max 
 YP  .lhf2               32.00:  Yield Point 
~Curve Information Block
#MNEM.UNIT                 API CODE     Curve Description
#---------               -----------    ---------------------------
 TIME.HHMMSS            00 000 000 000:  GT Time & Date
 GTDEPTH.m              00 000 000 000:  GT Depth
 GTPQH.psia             00 000 000 000:  GT HR Quartz Pressure
 GTTQ.degC              00 000 000 000:  GT Quartz Temperature
 GTTN.NONE              00 000 000 000:  GT Test Number
 GTET.sec               00 000 000 000:  GT Elapsed Test Time
 GTTVD.m                00 000 000 000:  GT True Vertical Depth
#Other Information
#
#WARRANTY: Halliburton will use its best efforts to furnish customers with 
#accurate information and interpretations that are part of, and incident to, the services 
#provided.  However, Halliburton cannot and does not warrant the accuracy 
#or correctness of such information and interpretations.  Under no circumstances should any 
#such information or interpretation be relied upon as the sole basis for any drilling, 
#completion, production, or financial decision or any procedure involving any risk to the 
#safety of any drilling venture, drilling rig or its crew or any other third party.  The 
#Customer has full responsibility for all drilling, completion and production operation.  
#Halliburton makes no representations or warranties, either expressed or 
#implied, including, but not limited to, the implied warranties of merchantability or fitness 
#for a particular purpose, with respect to the services rendered.  In no event will 
#Halliburton be liable for failure to obtain any particular results or for 
#any damages, including, but not limited to, indirect, special or consequential damages, 
#resulting from the use of any information or interpretation provided by Halliburton.
#
~A           TIME           GTDEPTH  GTPQH  GTTQ  GTTN  GTET   GTTVD  
# ...
   23:39:04.001.17-May-2020 4902.01 3700.20 66.32 9.00 137.93 2567.50
   23:39:04.201.17-May-2020 4902.01 3700.20 66.32 9.00 138.13 2567.50
   23:39:04.401.17-May-2020 4902.01 3701.36 66.32 9.00 138.33 2567.50
   23:39:04.601.17-May-2020 4902.01 3701.63 66.32 9.00 138.53 2567.50
   23:39:04.801.17-May-2020 4902.01 3702.22 66.32 9.00 138.73 2567.50
   23:39:05.001.17-May-2020 4902.01 3702.70 66.32 9.00 138.93 2567.50
   23:39:05.201.17-May-2020 4902.01 3702.70 66.32 9.00 139.13 2567.50
   23:39:05.400.17-May-2020 4902.01 3701.11 66.32 9.00 139.33 2567.50
   23:39:05.600.17-May-2020 4902.01 3701.14 66.32 9.00 139.53 2567.50
   23:39:05.800.17-May-2020 4902.01 3701.80 66.32 9.00 139.73 2567.50
   23:39:06.000.17-May-2020 4902.01 3702.46 66.32 9.00 139.93 2567.50
   23:39:06.200.17-May-2020 4902.01 3702.46 66.32 9.00 140.13 2567.50
   23:39:06.400.17-May-2020 4902.01 3703.31 66.32 9.00 140.33 2567.50
   23:39:06.600.17-May-2020 4902.01 3703.88 66.32 9.00 140.53 2567.50
   23:39:06.800.17-May-2020 4902.01 3704.30 66.32 9.00 140.73 2567.50
   23:39:07.000.17-May-2020 4902.01 3704.61 66.32 9.00 140.93 2567.50
   23:39:07.200.17-May-2020 4902.01 3704.61 66.32 9.00 141.13 2567.50
   23:39:07.399.17-May-2020 4902.01 3703.13 66.32 9.00 141.33 2567.50
   23:39:07.599.17-May-2020 4902.01 3702.79 66.32 9.00 141.53 2567.50
   23:39:07.799.17-May-2020 4902.01 3703.72 66.32 9.00 141.73 2567.50
   23:39:07.999.17-May-2020 4902.01 3703.90 66.32 9.00 141.93 2567.50
   23:39:08.199.17-May-2020 4902.01 3703.90 66.32 9.00 142.13 2567.50
   23:39:08.399.17-May-2020 4902.01 3701.86 66.31 9.00 142.33 2567.50
   23:39:08.599.17-May-2020 4902.01 3703.00 66.32 9.00 142.53 2567.50
   23:39:08.799.17-May-2020 4902.01 3703.33 66.31 9.00 142.73 2567.50
   23:39:08.999.17-May-2020 4902.01 3703.00 66.31 9.00 142.93 2567.50
   23:39:09.199.17-May-2020 4902.01 3703.00 66.31 9.00 143.13 2567.50
   23:39:09.398.17-May-2020 4902.01 3702.08 66.32 9.00 143.33 2567.50
   23:39:09.598.17-May-2020 4902.01 3702.56 66.31 9.00 143.53 2567.50
   23:39:09.798.17-May-2020 4902.01 3702.73 66.31 9.00 143.73 2567.50
   23:39:09.998.17-May-2020 4902.01 3702.26 66.31 9.00 143.93 2567.50
   23:39:10.198.17-May-2020 4902.01 3702.26 66.31 9.00 144.13 2567.50
   23:39:10.398.17-May-2020 4902.01 3703.10 66.31 9.00 144.33 2567.50
   23:39:10.598.17-May-2020 4902.01 3703.80 66.31 9.00 144.53 2567.50
   23:39:10.798.17-May-2020 4902.01 3704.58 66.31 9.00 144.73 2567.50
   23:39:10.998.17-May-2020 4902.01 3704.92 66.31 9.00 144.93 2567.50
   23:39:11.198.17-May-2020 4902.01 3704.92 66.31 9.00 145.13 2567.50
   23:39:11.397.17-May-2020 4902.01 3706.07 66.31 9.00 145.33 2567.50
   23:39:11.597.17-May-2020 4902.01 3706.49 66.31 9.00 145.53 2567.50
   23:39:11.797.17-May-2020 4902.01 3706.84 66.31 9.00 145.73 2567.50
   23:39:11.997.17-May-2020 4902.01 3705.17 66.31 9.00 145.93 2567.50
   23:39:12.197.17-May-2020 4902.01 3705.17 66.31 9.00 146.13 2567.50
   23:39:12.397.17-May-2020 4902.01 3705.38 66.31 9.00 146.32 2567.50
   23:39:12.597.17-May-2020 4902.01 3705.74 66.31 9.00 146.52 2567.50
   23:39:12.797.17-May-2020 4902.01 3706.57 66.31 9.00 146.72 2567.50
   23:39:12.997.17-May-2020 4902.01 3707.00 66.31 9.00 146.92 2567.50
   23:39:13.196.17-May-2020 4902.01 3707.00 66.31 9.00 147.12 2567.50
   23:39:13.396.17-May-2020 4902.01 3707.97 66.31 9.00 147.32 2567.50
   23:39:13.596.17-May-2020 4902.01 3708.33 66.31 9.00 147.52 2567.50
   23:39:13.796.17-May-2020 4902.01 3708.55 66.31 9.00 147.72 2567.50
   23:39:13.996.17-May-2020 4902.01 3708.63 66.31 9.00 147.92 2567.50
   23:39:14.196.17-May-2020 4902.01 3708.63 66.31 9.00 148.12 2567.50
   23:39:14.396.17-May-2020 4902.01 3707.00 66.31 9.00 148.32 2567.50
   23:39:14.596.17-May-2020 4902.01 3707.78 66.31 9.00 148.52 2567.50
   23:39:14.796.17-May-2020 4902.01 3707.54 66.31 9.00 148.72 2567.50
   23:39:14.996.17-May-2020 4902.01 3705.99 66.31 9.00 148.92 2567.50
   23:39:15.195.17-May-2020 4902.01 3705.99 66.31 9.00 149.12 2567.50
   23:39:15.395.17-May-2020 4902.01 3707.04 66.31 9.00 149.32 2567.50
   23:39:15.595.17-May-2020 4902.01 3707.53 66.31 9.00 149.52 2567.50
   23:39:15.795.17-May-2020 4902.01 3706.86 66.31 9.00 149.72 2567.50
   23:39:15.995.17-May-2020 4902.01 3705.80 66.31 9.00 149.92 2567.50
   23:39:16.195.17-May-2020 4902.01 3705.80 66.31 9.00 150.12 2567.50
   23:39:16.395.17-May-2020 4902.01 3706.43 66.31 9.00 150.32 2567.50
   23:39:16.595.17-May-2020 4902.01 3707.30 66.31 9.00 150.52 2567.50
   23:39:16.795.17-May-2020 4902.01 3705.83 66.31 9.00 150.72 2567.50
   23:39:16.995.17-May-2020 4902.01 3704.96 66.31 9.00 150.92 2567.50
   23:39:17.194.17-May-2020 4902.01 3704.96 66.31 9.00 151.12 2567.50
   23:39:17.394.17-May-2020 4902.01 3706.46 66.31 9.00 151.32 2567.50
   23:39:17.594.17-May-2020 4902.01 3707.49 66.31 9.00 151.52 2567.50
   23:39:17.794.17-May-2020 4902.01 3707.74 66.31 9.00 151.72 2567.50
   23:39:17.994.17-May-2020 4902.01 3708.46 66.31 9.00 151.92 2567.50
   23:39:18.194.17-May-2020 4902.01 3708.46 66.31 9.00 152.12 2567.50
   23:39:18.394.17-May-2020 4902.01 3699.58 66.31 9.00 152.32 2567.50
   23:39:18.594.17-May-2020 4902.01 3078.47 66.31 9.00 152.52 2567.50
   23:39:18.794.17-May-2020 4902.01 2396.36 66.31 9.00 152.72 2567.50
   23:39:18.994.17-May-2020 4902.01 1856.78 66.31 9.00 152.92 2567.50
   23:39:19.193.17-May-2020 4902.01 1856.78 66.31 9.00 153.12 2567.50
   23:39:19.393.17-May-2020 4902.01 1061.46 66.31 9.00 153.32 2567.50
   23:39:19.593.17-May-2020 4902.01  744.62 66.31 9.00 153.52 2567.50
   23:39:19.793.17-May-2020 4902.01  457.12 66.31 9.00 153.72 2567.50
   23:39:19.993.17-May-2020 4902.01  230.62 66.31 9.00 153.92 2567.50
   23:39:20.193.17-May-2020 4902.01  230.62 66.31 9.00 154.12 2567.50
   23:39:20.393.17-May-2020 4902.01   63.38 66.31 9.00 154.32 2567.50
   23:39:20.593.17-May-2020 4902.01   51.10 66.30 9.00 154.52 2567.50
   23:39:20.793.17-May-2020 4902.01   44.21 66.30 9.00 154.72 2567.50
   23:39:20.992.17-May-2020 4902.01   39.42 66.30 9.00 154.92 2567.50
   23:39:21.192.17-May-2020 4902.01   39.42 66.30 9.00 155.12 2567.50
   23:39:21.392.17-May-2020 4902.01   33.15 66.30 9.00 155.32 2567.50
   23:39:21.592.17-May-2020 4902.01   30.97 66.29 9.00 155.52 2567.50
   23:39:21.792.17-May-2020 4902.01   29.16 66.29 9.00 155.72 2567.50
   23:39:21.992.17-May-2020 4902.01   27.76 66.29 9.00 155.92 2567.50
   23:39:22.192.17-May-2020 4902.01   27.76 66.29 9.00 156.12 2567.50
   23:39:22.392.17-May-2020 4902.01   25.78 66.28 9.00 156.32 2567.50
   23:39:22.592.17-May-2020 4902.01   24.93 66.28 9.00 156.52 2567.50
   23:39:22.792.17-May-2020 4902.01   24.16 66.28 9.00 156.72 2567.50
   23:39:22.991.17-May-2020 4902.01   23.43 66.27 9.00 156.92 2567.50
   23:39:23.191.17-May-2020 4902.01   23.43 66.27 9.00 157.12 2567.50
   23:39:23.391.17-May-2020 4902.01   22.22 66.27 9.00 157.32 2567.50
   23:39:23.591.17-May-2020 4902.01   21.71 66.26 9.00 157.52 2567.50
   23:39:23.791.17-May-2020 4902.01   21.25 66.26 9.00 157.72 2567.50
   23:39:23.991.17-May-2020 4902.01   20.83 66.26 9.00 157.92 2567.50
   23:39:24.191.17-May-2020 4902.01   20.83 66.26 9.00 158.12 2567.50
   23:39:24.391.17-May-2020 4902.01   20.14 66.25 9.00 158.32 2567.50
   23:39:24.591.17-May-2020 4902.01   19.84 66.25 9.00 158.52 2567.50
   23:39:24.791.17-May-2020 4902.01   19.58 66.25 9.00 158.72 2567.50
   23:39:24.990.17-May-2020 4902.01   19.33 66.25 9.00 158.92 2567.50
   23:39:25.190.17-May-2020 4902.01   19.33 66.25 9.00 159.12 2567.50
   23:39:25.390.17-May-2020 4902.01   18.92 66.24 9.00 159.32 2567.50
   23:39:25.590.17-May-2020 4902.01   18.72 66.24 9.00 159.52 2567.50
   23:39:25.790.17-May-2020 4902.01   18.53 66.24 9.00 159.72 2567.50
   23:39:25.990.17-May-2020 4902.01   18.36 66.23 9.00 159.92 2567.50
   23:39:26.190.17-May-2020 4902.01   18.36 66.23 9.00 160.12 2567.50
   23:39:26.390.17-May-2020 4902.01   18.06 66.23 9.00 160.32 2567.50
   23:39:26.590.17-May-2020 4902.01   17.93 66.23 9.00 160.52 2567.50
   23:39:26.790.17-May-2020 4902.01   17.80 66.23 9.00 160.72 2567.50
