~Version Information
 VERS.                  2.0:   CWLS log ASCII Standard -VERSION 2.0
 WRAP.                   NO:   One line per depth step
~Well Information Block
#MNEM.UNIT     VALUE/NAME     DESCRIPTION
#---------     -----------    ---------------------------
 STRT.S             17:25:16 17-May-20: START TIME 17:25:16 17-May-20
 STOP.S             17:32:20 17-May-20: STOP TIME  17:32:20 17-May-20
 STEP.S                   0.00: STEP TIME
 NULL.                 -999.25: NULL VALUE
 UNIT.                     N/A:  LOGGING EQUIPMENT ID
 DCON.         Sperry Drilling:  DIRECTNL CONTR
 DOE .                     N/A:  DOE NUMBER
 JOBN.        AZ-XX-0906252240:  JOB TICKET NUMB
 MWDS.                     N/A:  MWD SHOP
 PROV.                    Baku:  PROVINCE
 STAT.                    Baku:  STATE NAME
 REGN.                   EESSA:  REGION
 BASE.              Azerbaijan:  LOGGING EQUIPMENT BASE LOCATION
 UWI .                     N/A:  UNIQUE WELL IDENTIFIER
 API .                     N/A:  API NUMBER
 MDS .        Operator Entered:  MAG DATA SOURCE
 WTYP.                Deviated:  WELL TYPE
 COMP.     BP Exploration (Caspian Sea) Ltd.:  COMPANY
 SRVC.          Turan Drilling:  CONTRACTOR
 WELL.           J23 (Slot 07):  WELL NAME
 CTRY.              Azerbaijan:  COUNTRY NAME
 FLD .                     ACG:  FIELD NAME
 PDAT.          Mean Sea Level:  PERMANENT DATUM
 RIG .             West Chirag:  RIG NAME
 SON .        AZ-XX-0906252240:  JOB NUMBER
 FTOP.          Formation Tops:  FORM TOPS DESC
 ILTD.               Lithology:  INTERP LTH DESC
 SVYD.                  Survey:  SURVEY DESC
 DMOD.             Drill Model:  DRILL MOD DESC
 HPTY.       Minimum Curvature:  HOLE POS TYPE
 NREF.                    Grid:  NORTH REFERENCE
 SPUD.               27-Aug-20:  SPUD DATE
 DATE.      00.00.00 19-May-20:  END TIME
 STIM.      03.00.00 25-Mar-20:  START TIME
 DMF .             Drill Floor:  DRILL MEAS FROM
 DFST.                        :  DIST FSL TEXT
 DFWT.                        :  DIST FWL TEXT
 CNTY.                        :  COUNTY
 LOC .                        :  LOCATION
 LMF .             Drill Floor:  LOG MEASURED FROM
 VSNS.m                   9.43:  VERT SEC N/S
 VSEW.m                  -8.91:  VERT SEC E/W
 AGAP.m                  43.00:  AIR GAP
 DEP .m                 354.17:  DEPTH
 APD .m                  43.00:  DEPTH ABOVE PD
 WDMS.m                 169.80:  WD ELEV
 EGL .m                   0.00:  GROUND ELEVATION
 EPD .m                   0.00:  ELEVATION
 AZTC.deg                 6.31:  AZM TOTAL CORR
 GRDC.deg                 0.14:  GRID CORRECTION
 MDEC.deg                 6.45:  MAGNETIC DECL
 MDIP.deg                59.56:  MAGNETIC DIP
 MFLD.nT              50295.00:  MAGNETIC FIELD
 GVFD.g                   1.00:  GRAVITY FIELD
 VSDR.deg               179.88:  VERT SEC DIRECT
 TDD .m                5150.01:  TOTAL DEPTH (DRILLER)
 SDEP.m                 864.00:  START DEPTH
 DFSL.m                   0.00:  DISTANCE FSL
 DFWL.m                   0.00:  DISTANCE FWL
 UTMY.m             4443793.85:  UTM Y
 UTMX.m              519005.06:  UTM X
 WHEW.m                  -8.91:  WELL HEAD E/W
 WHNS.m                   9.43:  WELL HEAD N/S
 LONG.deg                51.22:  LONGITUDE
 LATI.deg                40.13:  LATITUDE
 TVDS.m                  43.00:  TVDSS CORRECTN
 EKB .m                   0.00:  KB ELEVATION
 EDF .m                  43.00:  DF ELEVATION
 TDL .m                 363.00:  TOTAL DEPTH (LOGGER)
 MAGU.                 1850802:  MAGUTM CHECKSUM
 VSC .                       0:  VS TO CLOSURE
~Parameter Information Block
#MNEM.UNIT       Value        Description
#---------     -----------    ---------------------------
 AV  .mps                 2.30:  Ann Velocity 
 AVMX.mps                 4.40:  Max Ann Veloc 
 AZIF.deg               110.24:  Azm, Final 
 BHAT.        Rotary Steerable:  BHA Type 
 BREV.rev               331.00:  Rev Bit Total 
 BROT.°/30m               0.00:  Build Rotating 
 BS  .in                  8.50:  Bit Size 
 BSZ .in                  8.50:  Bit Size 
 BTPL.psig              585.00:  Bit Press Loss 
 CABU.                     Yes:  Customer Abuse 
 COMM.                     |n\:  Run Comments 1 
 TCS .hr                122.75:  Time Ciculation Ended 
 CV  .mps                 2.67:  Crit Velocity 
 CVMX.mps                 3.56:  Max Crit Veloc 
 DD1 .          Rashad Habibov:  Direct Drillr 1 
 DD2 .         Rasim Ibrahimov:  Direct Drillr 2 
 DDSV.               Geo-Pilot:  DD Service 
 DEFF.%                  98.00:  % Det Eff 
 DLRX.°/30m               0.75:  Dogleg Rot Max 
 DLSO.°/30m               1.25:  Dogleg Oriented 
 DLSX.°/30m               2.06:  Dogleg Str Max 
 DRET.      07.45.00 17-May-20:  Drill End Time 
 DRST.      22.50.00 15-May-20:  Drill Start Tim 
 DTIM.hr                 20.75:  Time Drilling 
 EDEP.m                5124.01:  End Depth 
 ENG1.           Eldar Hajiyev:  Engineer 1 
 ENG2.        Marcelo Sandoval:  Engineer 2 
 ENG3.        Davud huseynzada:  Engineer 3 
 ENG4.          Ruslan Safarov:  Engineer 4 
 ETIM.      04.33.00 23-May-20:  End Time 
 FLOI.gpm               450.00:  Flow In 
 FLON.gpm               400.00:  Flow In Min 
 FLOS.cptm                0.00:  Fluid Loss 
 FLOX.gpm               500.00:  Flow In Max 
 FTRO.       Formation Presure:  FTWD Run Obj 
 HFLO.                      No:  High Flow 
 HPRE.                     Yes:  High Pressure 
 HTEM.                      No:  High Temp 
 HYDO.m                   1.80:  Hydro Offset 
 IFIN.deg                75.06:  Inc, Final 
 IMAX.deg                75.38:  Inc Max 
 IMIN.deg                74.69:  Inc Min 
 IMND.m                5027.38:  Inc Min Depth 
 IMXD.m                4771.61:  Inc Max Depth 
 JARR.                      No:  Jarring 
 LETM.      07.45.00 17-May-20:  Log End Time 
 LOST.hr                     0:  Lost Rig Time 
 LSTM.      22.50.00 15-May-20:  Log Start Time 
 MDCL.ppm             42000.00:  Mud Chlorides 
 MDES.     Inversion Oil/Synthetic:  Mud Desc 
 DFD .sg                  1.34:  Mud Density 
 MDMN.sg                  1.34:  Dens Mud Min 
 MDMX.sg                  1.34:  Dens Mud Max 
 MOIL.                       0:  Run Mud Oil % 
 MOWR.                   67:33:  Run Mud OWR 
 MSND.                       0:  Run Mud Sand % 
 MSOL.                     1.8:  Run Mud Solids% 
 DFV .spqt               76.00:  Mud Viscosity 
 MWOD.in                  6.75:  MWD Tool OD 
 MWSI.                      No:  Serv Intrp, MWD 
 OTIM.hr                228.19:  Time Operating 
 PCON.           Look Like New:  Pad Condition 
 PMAX.psia             6164.70:  Press Op, Max 
 PV  .cP                 28.00:  Mud PV 
 RUN .                     900:  Run Number 
 ROPA.m/hr               19.00:  ROP Avg 
 ROPN.m/hr               11.00:  ROP Min 
 ROPX.m/hr               36.00:  ROP Max 
 RPMA.rpm               120.00:  RPM Surface Avg 
 RPMN.rpm               120.00:  RPM Surface Min 
 RPMX.rpm               120.00:  RPM Surface Max 
 RRUN.                    L604:  Rig Run Number 
 RTIM.hr                  7.00:  Time Reaming 
 SAZI.deg               109.27:  Azm, Start 
 SDEP.m                4761.01:  Start Depth 
 SIDD.                      No:  Serv Intrp, DD 
 SINC.deg                75.38:  Inc, Start 
 SPPA.psig             3574.00:  SPP Avg 
 SPPN.psig             3475.00:  SPP Min 
 SPPX.psig             3791.00:  SPP Max 
 STIM.      07.08.48 13-May-20:  Start Time 
 SVCS.                 DD, MWD:  Services 
 SVER.                    9.20:  Sperry Version 
 TDAT.m                 363.00:  Tot Depth Attmp 
 TDDF.                      No:  Trip for DD 
 TDLG.m                 363.00:  Tot Depth Loggd 
 TFF .                      No:  Trip for Fail 
 TQAA.f-kp               20.00:  Torque Abs Avg 
 TQAN.f-kp               18.00:  Torque Abs Min 
 TQAX.f-kp               22.00:  Torque Abs Max 
 TRRT.°/30m              -0.35:  Turn Rotating 
 MRT .                    HCIM:  Maximum Recorded Temperature 
 TTMX.degC               92.16:  Max Tool Temp 
 VS01.                90586518:  Virtual Str1 SN 
 VS02.        AZ90560654Z1W1C6:  Virtual Str2 SN 
 VS03.           AZ90610398F11:  Virtual Str3 SN 
 VS04.                90514975:  Virtual Str4 SN 
 VS05.                90514972:  Virtual Str5 SN 
 VS06.     AZ90603282F11V7D1A6:  Virtual Str6 SN 
 WBMN.klb                 7.00:  WOB Min 
 WOBA.klb                12.00:  WOB Avg 
 WOBX.klb                14.00:  WOB Max 
 YP  .lhf2               32.00:  Yield Point 
~Curve Information Block
#MNEM.UNIT                 API CODE     Curve Description
#---------               -----------    ---------------------------
 TIME.HHMMSS            00 000 000 000:  GT Time & Date
 GTDEPTH.m              00 000 000 000:  GT Depth
 GTPQH.psia             00 000 000 000:  GT HR Quartz Pressure
 GTTQ.degC              00 000 000 000:  GT Quartz Temperature
 GTTN.NONE              00 000 000 000:  GT Test Number
 GTET.sec               00 000 000 000:  GT Elapsed Test Time
 GTTVD.m                00 000 000 000:  GT True Vertical Depth
#Other Information
#
#WARRANTY: Halliburton will use its best efforts to furnish customers with 
#accurate information and interpretations that are part of, and incident to, the services 
#provided.  However, Halliburton cannot and does not warrant the accuracy 
#or correctness of such information and interpretations.  Under no circumstances should any 
#such information or interpretation be relied upon as the sole basis for any drilling, 
#completion, production, or financial decision or any procedure involving any risk to the 
#safety of any drilling venture, drilling rig or its crew or any other third party.  The 
#Customer has full responsibility for all drilling, completion and production operation.  
#Halliburton makes no representations or warranties, either expressed or 
#implied, including, but not limited to, the implied warranties of merchantability or fitness 
#for a particular purpose, with respect to the services rendered.  In no event will 
#Halliburton be liable for failure to obtain any particular results or for 
#any damages, including, but not limited to, indirect, special or consequential damages, 
#resulting from the use of any information or interpretation provided by Halliburton.
#
~A           TIME           GTDEPTH  GTPQH  GTTQ  GTTN  GTET   GTTVD  
# ...
   17:29:06.534.17-May-2020 5032.01 2637.94 70.55 3.00 230.22 2600.96
   17:29:06.734.17-May-2020 5032.01 2637.94 70.55 3.00 230.42 2600.96
   17:29:06.934.17-May-2020 5032.01 2637.97 70.55 3.00 230.62 2600.96
   17:29:07.134.17-May-2020 5032.01 2637.90 70.55 3.00 230.82 2600.96
   17:29:07.335.17-May-2020 5032.01 2637.96 70.55 3.00 231.02 2600.96
   17:29:07.535.17-May-2020 5032.01 2638.02 70.55 3.00 231.22 2600.96
   17:29:07.735.17-May-2020 5032.01 2638.02 70.55 3.00 231.42 2600.96
   17:29:07.935.17-May-2020 5032.01 2637.90 70.55 3.00 231.62 2600.96
   17:29:08.135.17-May-2020 5032.01 2637.95 70.55 3.00 231.82 2600.96
   17:29:08.335.17-May-2020 5032.01 2637.99 70.55 3.00 232.02 2600.96
   17:29:08.536.17-May-2020 5032.01 2637.98 70.55 3.00 232.22 2600.96
   17:29:08.736.17-May-2020 5032.01 2637.96 70.54 3.00 232.42 2600.96
   17:29:08.936.17-May-2020 5032.01 2637.96 70.54 3.00 232.62 2600.96
   17:29:09.136.17-May-2020 5032.01 2637.96 70.54 3.00 232.82 2600.96
   17:29:09.336.17-May-2020 5032.01 2637.96 70.54 3.00 233.02 2600.96
   17:29:09.537.17-May-2020 5032.01 2638.04 70.54 3.00 233.22 2600.96
   17:29:09.737.17-May-2020 5032.01 2638.04 70.54 3.00 233.42 2600.96
   17:29:09.937.17-May-2020 5032.01 2637.95 70.54 3.00 233.62 2600.96
   17:29:10.137.17-May-2020 5032.01 2637.94 70.54 3.00 233.82 2600.96
   17:29:10.337.17-May-2020 5032.01 2637.96 70.54 3.00 234.02 2600.96
   17:29:10.538.17-May-2020 5032.01 2638.00 70.54 3.00 234.22 2600.96
   17:29:10.738.17-May-2020 5032.01 2638.00 70.54 3.00 234.42 2600.96
   17:29:10.938.17-May-2020 5032.01 2637.96 70.54 3.00 234.62 2600.96
   17:29:11.138.17-May-2020 5032.01 2637.96 70.54 3.00 234.82 2600.96
   17:29:11.338.17-May-2020 5032.01 2637.96 70.54 3.00 235.02 2600.96
   17:29:11.538.17-May-2020 5032.01 2637.92 70.54 3.00 235.22 2600.96
   17:29:11.739.17-May-2020 5032.01 2637.92 70.54 3.00 235.42 2600.96
   17:29:11.939.17-May-2020 5032.01 2637.99 70.54 3.00 235.62 2600.96
   17:29:12.139.17-May-2020 5032.01 2637.89 70.54 3.00 235.82 2600.96
   17:29:12.339.17-May-2020 5032.01 2638.03 70.54 3.00 236.02 2600.96
   17:29:12.539.17-May-2020 5032.01 2638.07 70.54 3.00 236.22 2600.96
   17:29:12.740.17-May-2020 5032.01 2637.94 70.54 3.00 236.42 2600.96
   17:29:12.940.17-May-2020 5032.01 2637.98 70.54 3.00 236.62 2600.96
   17:29:13.140.17-May-2020 5032.01 2637.93 70.54 3.00 236.82 2600.96
   17:29:13.340.17-May-2020 5032.01 2638.06 70.54 3.00 237.02 2600.96
   17:29:13.540.17-May-2020 5032.01 2637.97 70.54 3.00 237.22 2600.96
   17:29:13.741.17-May-2020 5032.01 2637.97 70.54 3.00 237.42 2600.96
   17:29:13.941.17-May-2020 5032.01 2638.02 70.54 3.00 237.62 2600.96
   17:29:14.141.17-May-2020 5032.01 2638.09 70.54 3.00 237.82 2600.96
   17:29:14.341.17-May-2020 5032.01 2637.93 70.54 3.00 238.02 2600.96
   17:29:14.541.17-May-2020 5032.01 2637.91 70.54 3.00 238.22 2600.96
   17:29:14.741.17-May-2020 5032.01 2637.91 70.54 3.00 238.42 2600.96
   17:29:14.942.17-May-2020 5032.01 2637.99 70.54 3.00 238.62 2600.96
   17:29:15.142.17-May-2020 5032.01 2637.97 70.54 3.00 238.82 2600.96
   17:29:15.342.17-May-2020 5032.01 2637.95 70.54 3.00 239.02 2600.96
   17:29:15.542.17-May-2020 5032.01 2637.95 70.54 3.00 239.22 2600.96
   17:29:15.742.17-May-2020 5032.01 2637.95 70.54 3.00 239.42 2600.96
   17:29:15.943.17-May-2020 5032.01 2637.96 70.54 3.00 239.62 2600.96
   17:29:16.143.17-May-2020 5032.01 2638.07 70.54 3.00 239.82 2600.96
   17:29:16.343.17-May-2020 5032.01 2637.97 70.54 3.00 240.02 2600.96
   17:29:16.543.17-May-2020 5032.01 2637.91 70.54 3.00 240.22 2600.96
   17:29:16.743.17-May-2020 5032.01 2638.01 70.54 3.00 240.42 2600.96
   17:29:16.944.17-May-2020 5032.01 2637.95 70.54 3.00 240.63 2600.96
   17:29:17.144.17-May-2020 5032.01 2637.96 70.54 3.00 240.83 2600.96
   17:29:17.344.17-May-2020 5032.01 2637.97 70.54 3.00 241.03 2600.96
   17:29:17.544.17-May-2020 5032.01 2637.94 70.54 3.00 241.23 2600.96
   17:29:17.744.17-May-2020 5032.01 2637.96 70.54 3.00 241.43 2600.96
   17:29:17.944.17-May-2020 5032.01 2637.97 70.54 3.00 241.63 2600.96
   17:29:18.145.17-May-2020 5032.01 2638.10 70.54 3.00 241.83 2600.96
   17:29:18.345.17-May-2020 5032.01 2637.97 70.54 3.00 242.03 2600.96
   17:29:18.545.17-May-2020 5032.01 2637.87 70.54 3.00 242.23 2600.96
   17:29:18.745.17-May-2020 5032.01 2637.87 70.54 3.00 242.43 2600.96
   17:29:18.945.17-May-2020 5032.01 2638.02 70.54 3.00 242.63 2600.96
   17:29:19.146.17-May-2020 5032.01 2637.97 70.54 3.00 242.83 2600.96
   17:29:19.346.17-May-2020 5032.01 2637.93 70.54 3.00 243.03 2600.96
   17:29:19.546.17-May-2020 5032.01 2637.94 70.54 3.00 243.23 2600.96
   17:29:19.746.17-May-2020 5032.01 2637.94 70.53 3.00 243.43 2600.96
   17:29:19.946.17-May-2020 5032.01 2637.94 70.53 3.00 243.63 2600.96
   17:29:20.147.17-May-2020 5032.01 2637.85 70.53 3.00 243.83 2600.96
   17:29:20.347.17-May-2020 5032.01 2638.01 70.53 3.00 244.03 2600.96
   17:29:20.547.17-May-2020 5032.01 2637.96 70.53 3.00 244.23 2600.96
   17:29:20.747.17-May-2020 5032.01 2637.96 70.53 3.00 244.43 2600.96
   17:29:20.947.17-May-2020 5032.01 2637.94 70.53 3.00 244.63 2600.96
   17:29:21.147.17-May-2020 5032.01 2637.96 70.53 3.00 244.83 2600.96
   17:29:21.348.17-May-2020 5032.01 2637.96 70.53 3.00 245.03 2600.96
   17:29:21.548.17-May-2020 5032.01 2637.96 70.53 3.00 245.23 2600.96
   17:29:21.748.17-May-2020 5032.01 2637.96 70.53 3.00 245.43 2600.96
   17:29:21.948.17-May-2020 5032.01 2637.95 70.53 3.00 245.63 2600.96
   17:29:22.148.17-May-2020 5032.01 2637.95 70.53 3.00 245.83 2600.96
   17:29:22.349.17-May-2020 5032.01 2637.95 70.53 3.00 246.03 2600.96
   17:29:22.549.17-May-2020 5032.01 2637.95 70.53 3.00 246.23 2600.96
   17:29:22.749.17-May-2020 5032.01 2637.95 70.53 3.00 246.43 2600.96
   17:29:22.949.17-May-2020 5032.01 2637.94 70.53 3.00 246.63 2600.96
   17:29:23.149.17-May-2020 5032.01 2637.91 70.53 3.00 246.83 2600.96
   17:29:23.350.17-May-2020 5032.01 2637.97 70.53 3.00 247.03 2600.96
   17:29:23.550.17-May-2020 5032.01 2637.99 70.53 3.00 247.23 2600.96
   17:29:23.750.17-May-2020 5032.01 2637.99 70.53 3.00 247.43 2600.96
   17:29:23.950.17-May-2020 5032.01 2637.94 70.53 3.00 247.63 2600.96
   17:29:24.150.17-May-2020 5032.01 2637.95 70.53 3.00 247.83 2600.96
   17:29:24.350.17-May-2020 5032.01 2637.94 70.53 3.00 248.03 2600.96
   17:29:24.551.17-May-2020 5032.01 2637.89 70.53 3.00 248.23 2600.96
   17:29:24.751.17-May-2020 5032.01 2637.89 70.53 3.00 248.43 2600.96
   17:29:24.951.17-May-2020 5032.01 2638.03 70.53 3.00 248.63 2600.96
   17:29:25.151.17-May-2020 5032.01 2637.87 70.53 3.00 248.83 2600.96
   17:29:25.351.17-May-2020 5032.01 2638.13 70.53 3.00 249.03 2600.96
   17:29:25.552.17-May-2020 5032.01 2637.98 70.53 3.00 249.23 2600.96
   17:29:25.752.17-May-2020 5032.01 2637.98 70.53 3.00 249.43 2600.96
   17:29:25.952.17-May-2020 5032.01 2637.99 70.53 3.00 249.63 2600.96
   17:29:26.152.17-May-2020 5032.01 2637.87 70.53 3.00 249.83 2600.96
   17:29:26.352.17-May-2020 5032.01 2638.08 70.53 3.00 250.03 2600.96
   17:29:26.553.17-May-2020 5032.01 2638.01 70.53 3.00 250.23 2600.96
   17:29:26.753.17-May-2020 5032.01 2638.01 70.53 3.00 250.43 2600.96
   17:29:26.953.17-May-2020 5032.01 2638.02 70.53 3.00 250.63 2600.96
   17:29:27.153.17-May-2020 5032.01 2638.03 70.53 3.00 250.83 2600.96
   17:29:27.353.17-May-2020 5032.01 2637.94 70.53 3.00 251.03 2600.96
   17:29:27.553.17-May-2020 5032.01 2637.90 70.53 3.00 251.23 2600.96
   17:29:27.754.17-May-2020 5032.01 2637.90 70.53 3.00 251.44 2600.96
   17:29:27.954.17-May-2020 5032.01 2637.98 70.53 3.00 251.64 2600.96
   17:29:28.154.17-May-2020 5032.01 2637.97 70.53 3.00 251.84 2600.96
   17:29:28.354.17-May-2020 5032.01 2637.96 70.53 3.00 252.04 2600.96
   17:29:28.554.17-May-2020 5032.01 2637.95 70.53 3.00 252.24 2600.96
   17:29:28.755.17-May-2020 5032.01 2637.95 70.53 3.00 252.44 2600.96
   17:29:28.955.17-May-2020 5032.01 2637.95 70.53 3.00 252.64 2600.96
   17:29:29.155.17-May-2020 5032.01 2638.13 70.53 3.00 252.84 2600.96
   17:29:29.355.17-May-2020 5032.01 2637.91 70.53 3.00 253.04 2600.96
