~Version Information
 VERS.                  2.0:   CWLS log ASCII Standard -VERSION 2.0
 WRAP.                   NO:   One line per depth step
~Well Information Block
#MNEM.UNIT     VALUE/NAME     DESCRIPTION
#---------     -----------    ---------------------------
 STRT.S             23:36:46 17-May-20: START TIME 23:36:46 17-May-20
 STOP.S             23:44:24 17-May-20: STOP TIME  23:44:24 17-May-20
 STEP.S                   0.00: STEP TIME
 NULL.                 -999.25: NULL VALUE
 UNIT.                     N/A:  LOGGING EQUIPMENT ID
 DCON.         Sperry Drilling:  DIRECTNL CONTR
 DOE .                     N/A:  DOE NUMBER
 JOBN.        AZ-XX-0906252240:  JOB TICKET NUMB
 MWDS.                     N/A:  MWD SHOP
 PROV.                    Baku:  PROVINCE
 STAT.                    Baku:  STATE NAME
 REGN.                   EESSA:  REGION
 BASE.              Azerbaijan:  LOGGING EQUIPMENT BASE LOCATION
 UWI .                     N/A:  UNIQUE WELL IDENTIFIER
 API .                     N/A:  API NUMBER
 MDS .        Operator Entered:  MAG DATA SOURCE
 WTYP.                Deviated:  WELL TYPE
 COMP.     BP Exploration (Caspian Sea) Ltd.:  COMPANY
 SRVC.          Turan Drilling:  CONTRACTOR
 WELL.           J23 (Slot 07):  WELL NAME
 CTRY.              Azerbaijan:  COUNTRY NAME
 FLD .                     ACG:  FIELD NAME
 PDAT.          Mean Sea Level:  PERMANENT DATUM
 RIG .             West Chirag:  RIG NAME
 SON .        AZ-XX-0906252240:  JOB NUMBER
 FTOP.          Formation Tops:  FORM TOPS DESC
 ILTD.               Lithology:  INTERP LTH DESC
 SVYD.                  Survey:  SURVEY DESC
 DMOD.             Drill Model:  DRILL MOD DESC
 HPTY.       Minimum Curvature:  HOLE POS TYPE
 NREF.                    Grid:  NORTH REFERENCE
 SPUD.               27-Aug-20:  SPUD DATE
 DATE.      00.00.00 19-May-20:  END TIME
 STIM.      03.00.00 25-Mar-20:  START TIME
 DMF .             Drill Floor:  DRILL MEAS FROM
 DFST.                        :  DIST FSL TEXT
 DFWT.                        :  DIST FWL TEXT
 CNTY.                        :  COUNTY
 LOC .                        :  LOCATION
 LMF .             Drill Floor:  LOG MEASURED FROM
 VSNS.m                   9.43:  VERT SEC N/S
 VSEW.m                  -8.91:  VERT SEC E/W
 AGAP.m                  43.00:  AIR GAP
 DEP .m                 354.17:  DEPTH
 APD .m                  43.00:  DEPTH ABOVE PD
 WDMS.m                 169.80:  WD ELEV
 EGL .m                   0.00:  GROUND ELEVATION
 EPD .m                   0.00:  ELEVATION
 AZTC.deg                 6.31:  AZM TOTAL CORR
 GRDC.deg                 0.14:  GRID CORRECTION
 MDEC.deg                 6.45:  MAGNETIC DECL
 MDIP.deg                59.56:  MAGNETIC DIP
 MFLD.nT              50295.00:  MAGNETIC FIELD
 GVFD.g                   1.00:  GRAVITY FIELD
 VSDR.deg               179.88:  VERT SEC DIRECT
 TDD .m                5150.01:  TOTAL DEPTH (DRILLER)
 SDEP.m                 864.00:  START DEPTH
 DFSL.m                   0.00:  DISTANCE FSL
 DFWL.m                   0.00:  DISTANCE FWL
 UTMY.m             4443793.85:  UTM Y
 UTMX.m              519005.06:  UTM X
 WHEW.m                  -8.91:  WELL HEAD E/W
 WHNS.m                   9.43:  WELL HEAD N/S
 LONG.deg                51.22:  LONGITUDE
 LATI.deg                40.13:  LATITUDE
 TVDS.m                  43.00:  TVDSS CORRECTN
 EKB .m                   0.00:  KB ELEVATION
 EDF .m                  43.00:  DF ELEVATION
 TDL .m                 363.00:  TOTAL DEPTH (LOGGER)
 MAGU.                 1850802:  MAGUTM CHECKSUM
 VSC .                       0:  VS TO CLOSURE
~Parameter Information Block
#MNEM.UNIT       Value        Description
#---------     -----------    ---------------------------
 AV  .mps                 2.30:  Ann Velocity 
 AVMX.mps                 4.40:  Max Ann Veloc 
 AZIF.deg               110.24:  Azm, Final 
 BHAT.        Rotary Steerable:  BHA Type 
 BREV.rev               331.00:  Rev Bit Total 
 BROT.°/30m               0.00:  Build Rotating 
 BS  .in                  8.50:  Bit Size 
 BSZ .in                  8.50:  Bit Size 
 BTPL.psig              585.00:  Bit Press Loss 
 CABU.                     Yes:  Customer Abuse 
 TCS .hr                122.75:  Time Ciculation Ended 
 CV  .mps                 2.67:  Crit Velocity 
 CVMX.mps                 3.56:  Max Crit Veloc 
 DD1 .          Rashad Habibov:  Direct Drillr 1 
 DD2 .         Rasim Ibrahimov:  Direct Drillr 2 
 DDSV.               Geo-Pilot:  DD Service 
 DEFF.%                  98.00:  % Det Eff 
 DLRX.°/30m               0.75:  Dogleg Rot Max 
 DLSO.°/30m               1.25:  Dogleg Oriented 
 DLSX.°/30m               2.06:  Dogleg Str Max 
 DRET.      07.45.00 17-May-20:  Drill End Time 
 DRST.      22.50.00 15-May-20:  Drill Start Tim 
 DTIM.hr                 20.75:  Time Drilling 
 EDEP.m                5124.01:  End Depth 
 ENG1.           Eldar Hajiyev:  Engineer 1 
 ENG2.        Marcelo Sandoval:  Engineer 2 
 ENG3.        Davud huseynzada:  Engineer 3 
 ENG4.          Ruslan Safarov:  Engineer 4 
 ETIM.      04.33.00 23-May-20:  End Time 
 FLOI.gpm               450.00:  Flow In 
 FLON.gpm               400.00:  Flow In Min 
 FLOS.cptm                0.00:  Fluid Loss 
 FLOX.gpm               500.00:  Flow In Max 
 FTRO.       Formation Presure:  FTWD Run Obj 
 HFLO.                      No:  High Flow 
 HPRE.                     Yes:  High Pressure 
 HTEM.                      No:  High Temp 
 HYDO.m                   1.80:  Hydro Offset 
 IFIN.deg                75.06:  Inc, Final 
 IMAX.deg                75.38:  Inc Max 
 IMIN.deg                74.69:  Inc Min 
 IMND.m                5027.38:  Inc Min Depth 
 IMXD.m                4771.61:  Inc Max Depth 
 JARR.                      No:  Jarring 
 LETM.      07.45.00 17-May-20:  Log End Time 
 LOST.hr                     0:  Lost Rig Time 
 LSTM.      22.50.00 15-May-20:  Log Start Time 
 MDCL.ppm             42000.00:  Mud Chlorides 
 MDES.     Inversion Oil/Synthetic:  Mud Desc 
 DFD .sg                  1.34:  Mud Density 
 MDMN.sg                  1.34:  Dens Mud Min 
 MDMX.sg                  1.34:  Dens Mud Max 
 MOIL.                       0:  Run Mud Oil % 
 MOWR.                   67:33:  Run Mud OWR 
 MSND.                       0:  Run Mud Sand % 
 MSOL.                     1.8:  Run Mud Solids% 
 DFV .spqt               76.00:  Mud Viscosity 
 MWOD.in                  6.75:  MWD Tool OD 
 MWSI.                      No:  Serv Intrp, MWD 
 OTIM.hr                228.19:  Time Operating 
 PCON.           Look Like New:  Pad Condition 
 PMAX.psia             6164.70:  Press Op, Max 
 PV  .cP                 28.00:  Mud PV 
 RUN .                     900:  Run Number 
 ROPA.m/hr               19.00:  ROP Avg 
 ROPN.m/hr               11.00:  ROP Min 
 ROPX.m/hr               36.00:  ROP Max 
 RPMA.rpm               120.00:  RPM Surface Avg 
 RPMN.rpm               120.00:  RPM Surface Min 
 RPMX.rpm               120.00:  RPM Surface Max 
 RRUN.                    L604:  Rig Run Number 
 RTIM.hr                  7.00:  Time Reaming 
 SAZI.deg               109.27:  Azm, Start 
 SDEP.m                4761.01:  Start Depth 
 SIDD.                      No:  Serv Intrp, DD 
 SINC.deg                75.38:  Inc, Start 
 SPPA.psig             3574.00:  SPP Avg 
 SPPN.psig             3475.00:  SPP Min 
 SPPX.psig             3791.00:  SPP Max 
 STIM.      07.08.48 13-May-20:  Start Time 
 SVCS.                 DD, MWD:  Services 
 SVER.                    9.20:  Sperry Version 
 TDAT.m                 363.00:  Tot Depth Attmp 
 TDDF.                      No:  Trip for DD 
 TDLG.m                 363.00:  Tot Depth Loggd 
 TFF .                      No:  Trip for Fail 
 TQAA.f-kp               20.00:  Torque Abs Avg 
 TQAN.f-kp               18.00:  Torque Abs Min 
 TQAX.f-kp               22.00:  Torque Abs Max 
 TRRT.°/30m              -0.35:  Turn Rotating 
 MRT .                    HCIM:  Maximum Recorded Temperature 
 TTMX.degC               92.16:  Max Tool Temp 
 VS01.                90586518:  Virtual Str1 SN 
 VS02.        AZ90560654Z1W1C6:  Virtual Str2 SN 
 VS03.           AZ90610398F11:  Virtual Str3 SN 
 VS04.                90514975:  Virtual Str4 SN 
 VS05.                90514972:  Virtual Str5 SN 
 VS06.     AZ90603282F11V7D1A6:  Virtual Str6 SN 
 WBMN.klb                 7.00:  WOB Min 
 WOBA.klb                12.00:  WOB Avg 
 WOBX.klb                14.00:  WOB Max 
 YP  .lhf2               32.00:  Yield Point 
~Curve Information Block
#MNEM.UNIT                 API CODE     Curve Description
#---------               -----------    ---------------------------
 TIME.HHMMSS            00 000 000 000:  GT Time & Date
 GTDEPTH.m              00 000 000 000:  GT Depth
 GTPQH.psia             00 000 000 000:  GT HR Quartz Pressure
 GTTQ.degC              00 000 000 000:  GT Quartz Temperature
 GTTN.NONE              00 000 000 000:  GT Test Number
 GTET.sec               00 000 000 000:  GT Elapsed Test Time
 GTTVD.m                00 000 000 000:  GT True Vertical Depth
#Other Information
#
#WARRANTY: Halliburton will use its best efforts to furnish customers with 
#accurate information and interpretations that are part of, and incident to, the services 
#provided.  However, Halliburton cannot and does not warrant the accuracy 
#or correctness of such information and interpretations.  Under no circumstances should any 
#such information or interpretation be relied upon as the sole basis for any drilling, 
#completion, production, or financial decision or any procedure involving any risk to the 
#safety of any drilling venture, drilling rig or its crew or any other third party.  The 
#Customer has full responsibility for all drilling, completion and production operation.  
#Halliburton makes no representations or warranties, either expressed or 
#implied, including, but not limited to, the implied warranties of merchantability or fitness 
#for a particular purpose, with respect to the services rendered.  In no event will 
#Halliburton be liable for failure to obtain any particular results or for 
#any damages, including, but not limited to, indirect, special or consequential damages, 
#resulting from the use of any information or interpretation provided by Halliburton.
#
~A           TIME           GTDEPTH  GTPQH  GTTQ  GTTN  GTET   GTTVD  
   23:36:46.072.17-May-2020 4902.01 5460.89 66.39 9.00   0.00 2567.50
   23:36:46.272.17-May-2020 4902.01 5460.89 66.39 9.00   0.20 2567.50
   23:36:46.472.17-May-2020 4902.01 5475.65 66.39 9.00   0.40 2567.50
   23:36:46.672.17-May-2020 4902.01 5454.43 66.39 9.00   0.60 2567.50
   23:36:46.872.17-May-2020 4902.01 5468.52 66.39 9.00   0.80 2567.50
   23:36:47.071.17-May-2020 4902.01 5463.05 66.39 9.00   1.00 2567.50
   23:36:47.271.17-May-2020 4902.01 5465.24 66.39 9.00   1.20 2567.50
   23:36:47.471.17-May-2020 4902.01 5463.44 66.39 9.00   1.40 2567.50
   23:36:47.671.17-May-2020 4902.01 5479.74 66.39 9.00   1.60 2567.50
   23:36:47.871.17-May-2020 4902.01 5455.76 66.39 9.00   1.80 2567.50
   23:36:48.071.17-May-2020 4902.01 5470.46 66.39 9.00   2.00 2567.50
   23:36:48.271.17-May-2020 4902.01 5470.46 66.39 9.00   2.20 2567.50
   23:36:48.471.17-May-2020 4902.01 5466.81 66.39 9.00   2.40 2567.50
   23:36:48.671.17-May-2020 4902.01 5480.07 66.39 9.00   2.60 2567.50
   23:36:48.871.17-May-2020 4902.01 5459.36 66.39 9.00   2.80 2567.50
   23:36:49.070.17-May-2020 4902.01 5473.54 66.39 9.00   3.00 2567.50
   23:36:49.270.17-May-2020 4902.01 5473.54 66.39 9.00   3.20 2567.50
   23:36:49.470.17-May-2020 4902.01 5485.25 66.39 9.00   3.40 2567.50
   23:36:49.670.17-May-2020 4902.01 5460.87 66.39 9.00   3.60 2567.50
   23:36:49.870.17-May-2020 4902.01 5480.06 66.39 9.00   3.80 2567.50
   23:36:50.070.17-May-2020 4902.01 5469.08 66.39 9.00   4.00 2567.50
   23:36:50.270.17-May-2020 4902.01 5469.08 66.39 9.00   4.20 2567.50
   23:36:50.470.17-May-2020 4902.01 5483.84 66.39 9.00   4.40 2567.50
   23:36:50.670.17-May-2020 4902.01 5469.05 66.39 9.00   4.60 2567.50
   23:36:50.870.17-May-2020 4902.01 5477.71 66.39 9.00   4.80 2567.50
   23:36:51.069.17-May-2020 4902.01 5485.01 66.39 9.00   5.00 2567.50
   23:36:51.269.17-May-2020 4902.01 5485.01 66.39 9.00   5.20 2567.50
   23:36:51.469.17-May-2020 4902.01 5477.02 66.39 9.00   5.40 2567.50
   23:36:51.669.17-May-2020 4902.01 5489.66 66.39 9.00   5.60 2567.50
   23:36:51.869.17-May-2020 4902.01 5472.86 66.39 9.00   5.80 2567.50
   23:36:52.069.17-May-2020 4902.01 5479.71 66.39 9.00   6.00 2567.50
   23:36:52.269.17-May-2020 4902.01 5479.71 66.39 9.00   6.20 2567.50
   23:36:52.469.17-May-2020 4902.01 5474.78 66.39 9.00   6.40 2567.50
   23:36:52.669.17-May-2020 4902.01 5483.62 66.39 9.00   6.60 2567.50
   23:36:52.869.17-May-2020 4902.01 5477.07 66.39 9.00   6.80 2567.50
   23:36:53.068.17-May-2020 4902.01 5474.95 66.39 9.00   7.00 2567.50
   23:36:53.268.17-May-2020 4902.01 5474.95 66.39 9.00   7.20 2567.50
   23:36:53.468.17-May-2020 4902.01 5473.61 66.39 9.00   7.40 2567.50
   23:36:53.668.17-May-2020 4902.01 5477.57 66.39 9.00   7.60 2567.50
   23:36:53.868.17-May-2020 4902.01 5474.40 66.39 9.00   7.80 2567.50
   23:36:54.068.17-May-2020 4902.01 5475.54 66.39 9.00   8.00 2567.50
   23:36:54.268.17-May-2020 4902.01 5475.54 66.39 9.00   8.20 2567.50
   23:36:54.468.17-May-2020 4902.01 5475.26 66.39 9.00   8.40 2567.50
   23:36:54.668.17-May-2020 4902.01 5474.83 66.39 9.00   8.60 2567.50
   23:36:54.867.17-May-2020 4902.01 5475.95 66.39 9.00   8.80 2567.50
   23:36:55.067.17-May-2020 4902.01 5490.49 66.38 9.00   9.00 2567.50
   23:36:55.267.17-May-2020 4902.01 5490.49 66.38 9.00   9.20 2567.50
   23:36:55.467.17-May-2020 4902.01 5484.41 66.38 9.00   9.40 2567.50
   23:36:55.667.17-May-2020 4902.01 5477.05 66.38 9.00   9.60 2567.50
   23:36:55.867.17-May-2020 4902.01 5481.07 66.38 9.00   9.79 2567.50
   23:36:56.067.17-May-2020 4902.01 5477.87 66.38 9.00   9.99 2567.50
   23:36:56.267.17-May-2020 4902.01 5477.87 66.38 9.00  10.19 2567.50
   23:36:56.467.17-May-2020 4902.01 5478.03 66.38 9.00  10.39 2567.50
   23:36:56.667.17-May-2020 4902.01 5478.82 66.38 9.00  10.59 2567.50
   23:36:56.866.17-May-2020 4902.01 5478.62 66.38 9.00  10.79 2567.50
   23:36:57.066.17-May-2020 4902.01 5478.44 66.38 9.00  10.99 2567.50
   23:36:57.266.17-May-2020 4902.01 5478.44 66.38 9.00  11.19 2567.50
   23:36:57.466.17-May-2020 4902.01 5479.57 66.38 9.00  11.39 2567.50
   23:36:57.666.17-May-2020 4902.01 5480.89 66.38 9.00  11.59 2567.50
   23:36:57.866.17-May-2020 4902.01 5485.58 66.38 9.00  11.79 2567.50
   23:36:58.066.17-May-2020 4902.01 5481.35 66.38 9.00  11.99 2567.50
   23:36:58.266.17-May-2020 4902.01 5481.35 66.38 9.00  12.19 2567.50
   23:36:58.466.17-May-2020 4902.01 5481.35 66.38 9.00  12.39 2567.50
   23:36:58.666.17-May-2020 4902.01 5489.38 66.38 9.00  12.59 2567.50
   23:36:58.865.17-May-2020 4902.01 5478.42 66.38 9.00  12.79 2567.50
   23:36:59.065.17-May-2020 4902.01 5499.64 66.38 9.00  12.99 2567.50
   23:36:59.265.17-May-2020 4902.01 5499.64 66.38 9.00  13.19 2567.50
   23:36:59.465.17-May-2020 4902.01 5491.51 66.38 9.00  13.39 2567.50
   23:36:59.665.17-May-2020 4902.01 5479.51 66.38 9.00  13.59 2567.50
   23:36:59.865.17-May-2020 4902.01 5500.17 66.38 9.00  13.79 2567.50
   23:37:00.065.17-May-2020 4902.01 5472.67 66.38 9.00  13.99 2567.50
   23:37:00.265.17-May-2020 4902.01 5472.67 66.38 9.00  14.19 2567.50
   23:37:00.465.17-May-2020 4902.01 5492.35 66.38 9.00  14.39 2567.50
   23:37:00.665.17-May-2020 4902.01 5482.11 66.38 9.00  14.59 2567.50
   23:37:00.864.17-May-2020 4902.01 5485.30 66.38 9.00  14.79 2567.50
   23:37:01.064.17-May-2020 4902.01 5487.62 66.38 9.00  14.99 2567.50
   23:37:01.264.17-May-2020 4902.01 5487.62 66.38 9.00  15.19 2567.50
   23:37:01.464.17-May-2020 4902.01 5476.70 66.38 9.00  15.39 2567.50
   23:37:01.664.17-May-2020 4902.01 5489.32 66.38 9.00  15.59 2567.50
   23:37:01.864.17-May-2020 4902.01 5482.38 66.38 9.00  15.79 2567.50
   23:37:02.064.17-May-2020 4902.01 5484.07 66.38 9.00  15.99 2567.50
   23:37:02.264.17-May-2020 4902.01 5484.07 66.38 9.00  16.19 2567.50
   23:37:02.464.17-May-2020 4902.01 5482.61 66.38 9.00  16.39 2567.50
   23:37:02.663.17-May-2020 4902.01 5480.85 66.38 9.00  16.59 2567.50
   23:37:02.863.17-May-2020 4902.01 5481.39 66.38 9.00  16.79 2567.50
   23:37:03.063.17-May-2020 4902.01 5481.05 66.38 9.00  16.99 2567.50
   23:37:03.263.17-May-2020 4902.01 5481.05 66.38 9.00  17.19 2567.50
   23:37:03.463.17-May-2020 4902.01 5477.63 66.38 9.00  17.39 2567.50
   23:37:03.663.17-May-2020 4902.01 5486.75 66.38 9.00  17.59 2567.50
   23:37:03.863.17-May-2020 4902.01 5485.28 66.38 9.00  17.79 2567.50
   23:37:04.063.17-May-2020 4902.01 5483.02 66.38 9.00  17.99 2567.50
   23:37:04.263.17-May-2020 4902.01 5483.02 66.38 9.00  18.19 2567.50
   23:37:04.463.17-May-2020 4902.01 5482.90 66.38 9.00  18.39 2567.50
   23:37:04.662.17-May-2020 4902.01 5483.37 66.38 9.00  18.59 2567.50
   23:37:04.862.17-May-2020 4902.01 5482.82 66.38 9.00  18.79 2567.50
   23:37:05.062.17-May-2020 4902.01 5483.32 66.38 9.00  18.99 2567.50
   23:37:05.262.17-May-2020 4902.01 5483.32 66.38 9.00  19.19 2567.50
   23:37:05.462.17-May-2020 4902.01 5487.91 66.38 9.00  19.39 2567.50
   23:37:05.662.17-May-2020 4902.01 5487.65 66.38 9.00  19.59 2567.50
   23:37:05.862.17-May-2020 4902.01 5483.07 66.38 9.00  19.79 2567.50
   23:37:06.062.17-May-2020 4902.01 5491.28 66.38 9.00  19.99 2567.50
   23:37:06.262.17-May-2020 4902.01 5491.28 66.38 9.00  20.19 2567.50
   23:37:06.462.17-May-2020 4902.01 5488.69 66.38 9.00  20.39 2567.50
   23:37:06.661.17-May-2020 4902.01 5484.59 66.38 9.00  20.59 2567.50
   23:37:06.861.17-May-2020 4902.01 5492.61 66.38 9.00  20.79 2567.50
   23:37:07.061.17-May-2020 4902.01 5485.09 66.38 9.00  20.99 2567.50
   23:37:07.261.17-May-2020 4902.01 5485.09 66.38 9.00  21.19 2567.50
   23:37:07.461.17-May-2020 4902.01 5481.89 66.38 9.00  21.39 2567.50
   23:37:07.661.17-May-2020 4902.01 5495.53 66.38 9.00  21.59 2567.50
   23:37:07.861.17-May-2020 4902.01 5481.93 66.38 9.00  21.79 2567.50
   23:37:08.061.17-May-2020 4902.01 5505.68 66.38 9.00  21.99 2567.50
   23:37:08.261.17-May-2020 4902.01 5505.68 66.38 9.00  22.19 2567.50
   23:37:08.461.17-May-2020 4902.01 5493.66 66.38 9.00  22.39 2567.50
   23:37:08.660.17-May-2020 4902.01 5484.74 66.38 9.00  22.59 2567.50
   23:37:08.860.17-May-2020 4902.01 5488.67 66.38 9.00  22.79 2567.50
