~Version Information
 VERS.                  2.0:   CWLS log ASCII Standard -VERSION 2.0
 WRAP.                   NO:   One line per depth step
~Well Information Block
#MNEM.UNIT     VALUE/NAME     DESCRIPTION
#---------     -----------    ---------------------------
 STRT.S             21:13:20 18-May-20: START TIME 21:13:20 18-May-20
 STOP.S             21:20:25 18-May-20: STOP TIME  21:20:25 18-May-20
 STEP.S                   0.00: STEP TIME
 NULL.                 -999.25: NULL VALUE
 UNIT.                     N/A:  LOGGING EQUIPMENT ID
 DCON.         Sperry Drilling:  DIRECTNL CONTR
 DOE .                     N/A:  DOE NUMBER
 JOBN.        AZ-XX-0906252240:  JOB TICKET NUMB
 MWDS.                     N/A:  MWD SHOP
 PROV.                    Baku:  PROVINCE
 STAT.                    Baku:  STATE NAME
 REGN.                   EESSA:  REGION
 BASE.              Azerbaijan:  LOGGING EQUIPMENT BASE LOCATION
 UWI .                     N/A:  UNIQUE WELL IDENTIFIER
 API .                     N/A:  API NUMBER
 MDS .        Operator Entered:  MAG DATA SOURCE
 WTYP.                Deviated:  WELL TYPE
 COMP.     BP Exploration (Caspian Sea) Ltd.:  COMPANY
 SRVC.          Turan Drilling:  CONTRACTOR
 WELL.           J23 (Slot 07):  WELL NAME
 CTRY.              Azerbaijan:  COUNTRY NAME
 FLD .                     ACG:  FIELD NAME
 PDAT.          Mean Sea Level:  PERMANENT DATUM
 RIG .             West Chirag:  RIG NAME
 SON .        AZ-XX-0906252240:  JOB NUMBER
 FTOP.          Formation Tops:  FORM TOPS DESC
 ILTD.               Lithology:  INTERP LTH DESC
 SVYD.                  Survey:  SURVEY DESC
 DMOD.             Drill Model:  DRILL MOD DESC
 HPTY.       Minimum Curvature:  HOLE POS TYPE
 NREF.                    Grid:  NORTH REFERENCE
 SPUD.               27-Aug-20:  SPUD DATE
 DATE.      00.00.00 19-May-20:  END TIME
 STIM.      03.00.00 25-Mar-20:  START TIME
 DMF .             Drill Floor:  DRILL MEAS FROM
 DFST.                        :  DIST FSL TEXT
 DFWT.                        :  DIST FWL TEXT
 CNTY.                        :  COUNTY
 LOC .                        :  LOCATION
 LMF .             Drill Floor:  LOG MEASURED FROM
 VSNS.m                   9.43:  VERT SEC N/S
 VSEW.m                  -8.91:  VERT SEC E/W
 AGAP.m                  43.00:  AIR GAP
 DEP .m                 354.17:  DEPTH
 APD .m                  43.00:  DEPTH ABOVE PD
 WDMS.m                 169.80:  WD ELEV
 EGL .m                   0.00:  GROUND ELEVATION
 EPD .m                   0.00:  ELEVATION
 AZTC.deg                 6.31:  AZM TOTAL CORR
 GRDC.deg                 0.14:  GRID CORRECTION
 MDEC.deg                 6.45:  MAGNETIC DECL
 MDIP.deg                59.56:  MAGNETIC DIP
 MFLD.nT              50295.00:  MAGNETIC FIELD
 GVFD.g                   1.00:  GRAVITY FIELD
 VSDR.deg               179.88:  VERT SEC DIRECT
 TDD .m                5150.01:  TOTAL DEPTH (DRILLER)
 SDEP.m                 864.00:  START DEPTH
 DFSL.m                   0.00:  DISTANCE FSL
 DFWL.m                   0.00:  DISTANCE FWL
 UTMY.m             4443793.85:  UTM Y
 UTMX.m              519005.06:  UTM X
 WHEW.m                  -8.91:  WELL HEAD E/W
 WHNS.m                   9.43:  WELL HEAD N/S
 LONG.deg                51.22:  LONGITUDE
 LATI.deg                40.13:  LATITUDE
 TVDS.m                  43.00:  TVDSS CORRECTN
 EKB .m                   0.00:  KB ELEVATION
 EDF .m                  43.00:  DF ELEVATION
 TDL .m                 363.00:  TOTAL DEPTH (LOGGER)
 MAGU.                 1850802:  MAGUTM CHECKSUM
 VSC .                       0:  VS TO CLOSURE
~Parameter Information Block
#MNEM.UNIT       Value        Description
#---------     -----------    ---------------------------
 AV  .mps                 2.30:  Ann Velocity 
 AVMX.mps                 4.40:  Max Ann Veloc 
 AZIF.deg               110.24:  Azm, Final 
 BHAT.        Rotary Steerable:  BHA Type 
 BREV.rev               331.00:  Rev Bit Total 
 BROT.°/30m               0.00:  Build Rotating 
 BS  .in                  8.50:  Bit Size 
 BSZ .in                  8.50:  Bit Size 
 BTPL.psig              585.00:  Bit Press Loss 
 CABU.                     Yes:  Customer Abuse 
 TCS .hr                122.75:  Time Ciculation Ended 
 CV  .mps                 2.67:  Crit Velocity 
 CVMX.mps                 3.56:  Max Crit Veloc 
 DD1 .          Rashad Habibov:  Direct Drillr 1 
 DD2 .         Rasim Ibrahimov:  Direct Drillr 2 
 DDSV.               Geo-Pilot:  DD Service 
 DEFF.%                  98.00:  % Det Eff 
 DLRX.°/30m               0.75:  Dogleg Rot Max 
 DLSO.°/30m               1.25:  Dogleg Oriented 
 DLSX.°/30m               2.06:  Dogleg Str Max 
 DRET.      07.45.00 17-May-20:  Drill End Time 
 DRST.      22.50.00 15-May-20:  Drill Start Tim 
 DTIM.hr                 20.75:  Time Drilling 
 EDEP.m                5124.01:  End Depth 
 ENG1.           Eldar Hajiyev:  Engineer 1 
 ENG2.        Marcelo Sandoval:  Engineer 2 
 ENG3.        Davud huseynzada:  Engineer 3 
 ENG4.          Ruslan Safarov:  Engineer 4 
 ETIM.      04.33.00 23-May-20:  End Time 
 FLOI.gpm               450.00:  Flow In 
 FLON.gpm               400.00:  Flow In Min 
 FLOS.cptm                0.00:  Fluid Loss 
 FLOX.gpm               500.00:  Flow In Max 
 FTRO.       Formation Presure:  FTWD Run Obj 
 HFLO.                      No:  High Flow 
 HPRE.                     Yes:  High Pressure 
 HTEM.                      No:  High Temp 
 HYDO.m                   1.80:  Hydro Offset 
 IFIN.deg                75.06:  Inc, Final 
 IMAX.deg                75.38:  Inc Max 
 IMIN.deg                74.69:  Inc Min 
 IMND.m                5027.38:  Inc Min Depth 
 IMXD.m                4771.61:  Inc Max Depth 
 JARR.                      No:  Jarring 
 LETM.      07.45.00 17-May-20:  Log End Time 
 LOST.hr                     0:  Lost Rig Time 
 LSTM.      22.50.00 15-May-20:  Log Start Time 
 MDCL.ppm             42000.00:  Mud Chlorides 
 MDES.     Inversion Oil/Synthetic:  Mud Desc 
 DFD .sg                  1.34:  Mud Density 
 MDMN.sg                  1.34:  Dens Mud Min 
 MDMX.sg                  1.34:  Dens Mud Max 
 MOIL.                       0:  Run Mud Oil % 
 MOWR.                   67:33:  Run Mud OWR 
 MSND.                       0:  Run Mud Sand % 
 MSOL.                     1.8:  Run Mud Solids% 
 DFV .spqt               76.00:  Mud Viscosity 
 MWOD.in                  6.75:  MWD Tool OD 
 MWSI.                      No:  Serv Intrp, MWD 
 OTIM.hr                228.19:  Time Operating 
 PCON.           Look Like New:  Pad Condition 
 PMAX.psia             6164.70:  Press Op, Max 
 PV  .cP                 28.00:  Mud PV 
 RUN .                     900:  Run Number 
 ROPA.m/hr               19.00:  ROP Avg 
 ROPN.m/hr               11.00:  ROP Min 
 ROPX.m/hr               36.00:  ROP Max 
 RPMA.rpm               120.00:  RPM Surface Avg 
 RPMN.rpm               120.00:  RPM Surface Min 
 RPMX.rpm               120.00:  RPM Surface Max 
 RRUN.                    L604:  Rig Run Number 
 RTIM.hr                  7.00:  Time Reaming 
 SAZI.deg               109.27:  Azm, Start 
 SDEP.m                4761.01:  Start Depth 
 SIDD.                      No:  Serv Intrp, DD 
 SINC.deg                75.38:  Inc, Start 
 SPPA.psig             3574.00:  SPP Avg 
 SPPN.psig             3475.00:  SPP Min 
 SPPX.psig             3791.00:  SPP Max 
 STIM.      07.08.48 13-May-20:  Start Time 
 SVCS.                 DD, MWD:  Services 
 SVER.                    9.20:  Sperry Version 
 TDAT.m                 363.00:  Tot Depth Attmp 
 TDDF.                      No:  Trip for DD 
 TDLG.m                 363.00:  Tot Depth Loggd 
 TFF .                      No:  Trip for Fail 
 TQAA.f-kp               20.00:  Torque Abs Avg 
 TQAN.f-kp               18.00:  Torque Abs Min 
 TQAX.f-kp               22.00:  Torque Abs Max 
 TRRT.°/30m              -0.35:  Turn Rotating 
 MRT .                    HCIM:  Maximum Recorded Temperature 
 TTMX.degC               92.16:  Max Tool Temp 
 VS01.                90586518:  Virtual Str1 SN 
 VS02.        AZ90560654Z1W1C6:  Virtual Str2 SN 
 VS03.           AZ90610398F11:  Virtual Str3 SN 
 VS04.                90514975:  Virtual Str4 SN 
 VS05.                90514972:  Virtual Str5 SN 
 VS06.     AZ90603282F11V7D1A6:  Virtual Str6 SN 
 WBMN.klb                 7.00:  WOB Min 
 WOBA.klb                12.00:  WOB Avg 
 WOBX.klb                14.00:  WOB Max 
 YP  .lhf2               32.00:  Yield Point 
~Curve Information Block
#MNEM.UNIT                 API CODE     Curve Description
#---------               -----------    ---------------------------
 TIME.HHMMSS            00 000 000 000:  GT Time & Date
 GTDEPTH.m              00 000 000 000:  GT Depth
 GTPQH.psia             00 000 000 000:  GT HR Quartz Pressure
 GTTQ.degC              00 000 000 000:  GT Quartz Temperature
 GTTN.NONE              00 000 000 000:  GT Test Number
 GTET.sec               00 000 000 000:  GT Elapsed Test Time
 GTTVD.m                00 000 000 000:  GT True Vertical Depth
#Other Information
#
#WARRANTY: Halliburton will use its best efforts to furnish customers with 
#accurate information and interpretations that are part of, and incident to, the services 
#provided.  However, Halliburton cannot and does not warrant the accuracy 
#or correctness of such information and interpretations.  Under no circumstances should any 
#such information or interpretation be relied upon as the sole basis for any drilling, 
#completion, production, or financial decision or any procedure involving any risk to the 
#safety of any drilling venture, drilling rig or its crew or any other third party.  The 
#Customer has full responsibility for all drilling, completion and production operation.  
#Halliburton makes no representations or warranties, either expressed or 
#implied, including, but not limited to, the implied warranties of merchantability or fitness 
#for a particular purpose, with respect to the services rendered.  In no event will 
#Halliburton be liable for failure to obtain any particular results or for 
#any damages, including, but not limited to, indirect, special or consequential damages, 
#resulting from the use of any information or interpretation provided by Halliburton.
#
~A           TIME           GTDEPTH  GTPQH  GTTQ  GTTN   GTET   GTTVD  
# ...
   21:20:07.373.18-May-2020 4766.01 5527.89 60.62 14.00 406.91 2532.29
   21:20:07.574.18-May-2020 4766.01 5537.77 60.62 14.00 407.11 2532.29
   21:20:07.774.18-May-2020 4766.01 5537.77 60.62 14.00 407.31 2532.29
   21:20:07.974.18-May-2020 4766.01 5530.66 60.62 14.00 407.51 2532.29
   21:20:08.174.18-May-2020 4766.01 5527.61 60.62 14.00 407.71 2532.29
   21:20:08.374.18-May-2020 4766.01 5530.13 60.62 14.00 407.91 2532.29
   21:20:08.574.18-May-2020 4766.01 5529.25 60.62 14.00 408.11 2532.29
   21:20:08.774.18-May-2020 4766.01 5529.25 60.62 14.00 408.31 2532.29
   21:20:08.974.18-May-2020 4766.01 5528.95 60.62 14.00 408.51 2532.29
   21:20:09.174.18-May-2020 4766.01 5526.53 60.62 14.00 408.71 2532.29
   21:20:09.374.18-May-2020 4766.01 5525.42 60.62 14.00 408.91 2532.29
   21:20:09.574.18-May-2020 4766.01 5528.63 60.62 14.00 409.11 2532.29
   21:20:09.774.18-May-2020 4766.01 5528.55 60.62 14.00 409.31 2532.29
   21:20:09.974.18-May-2020 4766.01 5523.62 60.62 14.00 409.51 2532.29
   21:20:10.174.18-May-2020 4766.01 5523.11 60.62 14.00 409.71 2532.29
   21:20:10.374.18-May-2020 4766.01 5523.55 60.62 14.00 409.91 2532.29
   21:20:10.574.18-May-2020 4766.01 5523.14 60.62 14.00 410.11 2532.29
   21:20:10.774.18-May-2020 4766.01 5523.14 60.62 14.00 410.31 2532.29
   21:20:10.974.18-May-2020 4766.01 5522.73 60.62 14.00 410.51 2532.29
   21:20:11.174.18-May-2020 4766.01 5530.97 60.62 14.00 410.71 2532.29
   21:20:11.375.18-May-2020 4766.01 5519.95 60.62 14.00 410.91 2532.29
   21:20:11.575.18-May-2020 4766.01 5521.67 60.62 14.00 411.11 2532.29
   21:20:11.775.18-May-2020 4766.01 5521.67 60.62 14.00 411.31 2532.29
   21:20:11.975.18-May-2020 4766.01 5543.09 60.62 14.00 411.51 2532.29
   21:20:12.175.18-May-2020 4766.01 5518.49 60.62 14.00 411.71 2532.29
   21:20:12.375.18-May-2020 4766.01 5521.44 60.62 14.00 411.91 2532.29
   21:20:12.575.18-May-2020 4766.01 5521.26 60.62 14.00 412.11 2532.29
   21:20:12.775.18-May-2020 4766.01 5521.26 60.62 14.00 412.31 2532.29
   21:20:12.975.18-May-2020 4766.01 5520.84 60.62 14.00 412.51 2532.29
   21:20:13.175.18-May-2020 4766.01 5521.60 60.62 14.00 412.71 2532.29
   21:20:13.375.18-May-2020 4766.01 5533.68 60.62 14.00 412.91 2532.29
   21:20:13.575.18-May-2020 4766.01 5534.13 60.62 14.00 413.11 2532.29
   21:20:13.775.18-May-2020 4766.01 5534.13 60.62 14.00 413.31 2532.29
   21:20:13.975.18-May-2020 4766.01 5519.72 60.62 14.00 413.51 2532.29
   21:20:14.175.18-May-2020 4766.01 5530.31 60.62 14.00 413.71 2532.29
   21:20:14.375.18-May-2020 4766.01 5529.10 60.62 14.00 413.91 2532.29
   21:20:14.575.18-May-2020 4766.01 5524.12 60.62 14.00 414.11 2532.29
   21:20:14.775.18-May-2020 4766.01 5524.12 60.62 14.00 414.31 2532.29
   21:20:14.975.18-May-2020 4766.01 5525.74 60.62 14.00 414.51 2532.29
   21:20:15.176.18-May-2020 4766.01 5527.07 60.62 14.00 414.71 2532.29
   21:20:15.376.18-May-2020 4766.01 5532.15 60.62 14.00 414.91 2532.29
   21:20:15.576.18-May-2020 4766.01 5528.10 60.62 14.00 415.11 2532.29
   21:20:15.776.18-May-2020 4766.01 5528.10 60.62 14.00 415.31 2532.29
   21:20:15.976.18-May-2020 4766.01 5528.06 60.62 14.00 415.51 2532.29
   21:20:16.176.18-May-2020 4766.01 5533.19 60.62 14.00 415.71 2532.29
   21:20:16.376.18-May-2020 4766.01 5535.16 60.62 14.00 415.91 2532.29
   21:20:16.576.18-May-2020 4766.01 5530.88 60.62 14.00 416.11 2532.29
   21:20:16.776.18-May-2020 4766.01 5530.88 60.62 14.00 416.31 2532.29
   21:20:16.976.18-May-2020 4766.01 5536.01 60.62 14.00 416.51 2532.29
   21:20:17.176.18-May-2020 4766.01 5537.60 60.62 14.00 416.71 2532.29
   21:20:17.376.18-May-2020 4766.01 5535.64 60.62 14.00 416.91 2532.29
   21:20:17.576.18-May-2020 4766.01 5538.85 60.62 14.00 417.11 2532.29
   21:20:17.776.18-May-2020 4766.01 5538.85 60.62 14.00 417.31 2532.29
   21:20:17.976.18-May-2020 4766.01 5537.26 60.62 14.00 417.51 2532.29
   21:20:18.176.18-May-2020 4766.01 5538.91 60.62 14.00 417.71 2532.29
   21:20:18.376.18-May-2020 4766.01 5539.67 60.62 14.00 417.91 2532.29
   21:20:18.576.18-May-2020 4766.01 5559.81 60.62 14.00 418.11 2532.29
   21:20:18.776.18-May-2020 4766.01 5559.81 60.62 14.00 418.31 2532.29
   21:20:18.977.18-May-2020 4766.01 5534.52 60.62 14.00 418.51 2532.29
   21:20:19.177.18-May-2020 4766.01 5533.48 60.62 14.00 418.71 2532.29
   21:20:19.377.18-May-2020 4766.01 5555.84 60.62 14.00 418.91 2532.29
   21:20:19.577.18-May-2020 4766.01 5526.41 60.62 14.00 419.11 2532.29
   21:20:19.777.18-May-2020 4766.01 5526.41 60.62 14.00 419.31 2532.29
   21:20:19.977.18-May-2020 4766.01 5526.73 60.62 14.00 419.51 2532.29
   21:20:20.177.18-May-2020 4766.01 5539.68 60.62 14.00 419.71 2532.29
   21:20:20.377.18-May-2020 4766.01 5538.80 60.62 14.00 419.91 2532.29
   21:20:20.577.18-May-2020 4766.01 5520.57 60.62 14.00 420.11 2532.29
   21:20:20.777.18-May-2020 4766.01 5520.57 60.62 14.00 420.31 2532.29
   21:20:20.977.18-May-2020 4766.01 5526.44 60.62 14.00 420.51 2532.29
   21:20:21.177.18-May-2020 4766.01 5532.94 60.62 14.00 420.71 2532.29
   21:20:21.377.18-May-2020 4766.01 5521.36 60.62 14.00 420.91 2532.29
   21:20:21.577.18-May-2020 4766.01 5522.27 60.62 14.00 421.11 2532.29
   21:20:21.777.18-May-2020 4766.01 5522.69 60.62 14.00 421.31 2532.29
   21:20:21.977.18-May-2020 4766.01 5522.27 60.62 14.00 421.51 2532.29
   21:20:22.177.18-May-2020 4766.01 5519.85 60.62 14.00 421.71 2532.29
   21:20:22.377.18-May-2020 4766.01 5534.56 60.62 14.00 421.91 2532.29
   21:20:22.577.18-May-2020 4766.01 5516.62 60.62 14.00 422.11 2532.29
   21:20:22.778.18-May-2020 4766.01 5516.62 60.62 14.00 422.31 2532.29
   21:20:22.978.18-May-2020 4766.01 5518.92 60.62 14.00 422.51 2532.29
   21:20:23.178.18-May-2020 4766.01 5529.13 60.62 14.00 422.71 2532.29
   21:20:23.378.18-May-2020 4766.01 5521.03 60.62 14.00 422.91 2532.29
   21:20:23.578.18-May-2020 4766.01 5520.28 60.62 14.00 423.11 2532.29
   21:20:23.778.18-May-2020 4766.01 5520.28 60.62 14.00 423.31 2532.29
   21:20:23.978.18-May-2020 4766.01 5521.99 60.62 14.00 423.51 2532.29
   21:20:24.178.18-May-2020 4766.01 5520.94 60.62 14.00 423.71 2532.29
   21:20:24.378.18-May-2020 4766.01 5520.08 60.62 14.00 423.91 2532.29
   21:20:24.578.18-May-2020 4766.01 5530.17 60.62 14.00 424.11 2532.29
   21:20:24.778.18-May-2020 4766.01 5530.17 60.62 14.00 424.31 2532.29
   21:20:24.978.18-May-2020 4766.01 5521.01 60.62 14.00 424.51 2532.29
   21:20:25.178.18-May-2020 4766.01 5520.45 60.62 14.00 424.71 2532.29
   21:20:25.378.18-May-2020 4766.01 5527.26 60.62 14.00 424.91 2532.29
