~Version Information
 VERS.                  2.0:   CWLS log ASCII Standard -VERSION 2.0
 WRAP.                   NO:   One line per depth step
~Well Information Block
#MNEM.UNIT     VALUE/NAME     DESCRIPTION
#---------     -----------    ---------------------------
 STRT.S             00:24:31 18-May-20: START TIME 00:24:31 18-May-20
 STOP.S             00:32:03 18-May-20: STOP TIME  00:32:03 18-May-20
 STEP.S                   0.00: STEP TIME
 NULL.                 -999.25: NULL VALUE
 UNIT.                     N/A:  LOGGING EQUIPMENT ID
 DCON.         Sperry Drilling:  DIRECTNL CONTR
 DOE .                     N/A:  DOE NUMBER
 JOBN.        AZ-XX-0906252240:  JOB TICKET NUMB
 MWDS.                     N/A:  MWD SHOP
 PROV.                    Baku:  PROVINCE
 STAT.                    Baku:  STATE NAME
 REGN.                   EESSA:  REGION
 BASE.              Azerbaijan:  LOGGING EQUIPMENT BASE LOCATION
 UWI .                     N/A:  UNIQUE WELL IDENTIFIER
 API .                     N/A:  API NUMBER
 MDS .        Operator Entered:  MAG DATA SOURCE
 WTYP.                Deviated:  WELL TYPE
 COMP.     BP Exploration (Caspian Sea) Ltd.:  COMPANY
 SRVC.          Turan Drilling:  CONTRACTOR
 WELL.           J23 (Slot 07):  WELL NAME
 CTRY.              Azerbaijan:  COUNTRY NAME
 FLD .                     ACG:  FIELD NAME
 PDAT.          Mean Sea Level:  PERMANENT DATUM
 RIG .             West Chirag:  RIG NAME
 SON .        AZ-XX-0906252240:  JOB NUMBER
 FTOP.          Formation Tops:  FORM TOPS DESC
 ILTD.               Lithology:  INTERP LTH DESC
 SVYD.                  Survey:  SURVEY DESC
 DMOD.             Drill Model:  DRILL MOD DESC
 HPTY.       Minimum Curvature:  HOLE POS TYPE
 NREF.                    Grid:  NORTH REFERENCE
 SPUD.               27-Aug-20:  SPUD DATE
 DATE.      00.00.00 19-May-20:  END TIME
 STIM.      03.00.00 25-Mar-20:  START TIME
 DMF .             Drill Floor:  DRILL MEAS FROM
 DFST.                        :  DIST FSL TEXT
 DFWT.                        :  DIST FWL TEXT
 CNTY.                        :  COUNTY
 LOC .                        :  LOCATION
 LMF .             Drill Floor:  LOG MEASURED FROM
 VSNS.m                   9.43:  VERT SEC N/S
 VSEW.m                  -8.91:  VERT SEC E/W
 AGAP.m                  43.00:  AIR GAP
 DEP .m                 354.17:  DEPTH
 APD .m                  43.00:  DEPTH ABOVE PD
 WDMS.m                 169.80:  WD ELEV
 EGL .m                   0.00:  GROUND ELEVATION
 EPD .m                   0.00:  ELEVATION
 AZTC.deg                 6.31:  AZM TOTAL CORR
 GRDC.deg                 0.14:  GRID CORRECTION
 MDEC.deg                 6.45:  MAGNETIC DECL
 MDIP.deg                59.56:  MAGNETIC DIP
 MFLD.nT              50295.00:  MAGNETIC FIELD
 GVFD.g                   1.00:  GRAVITY FIELD
 VSDR.deg               179.88:  VERT SEC DIRECT
 TDD .m                5150.01:  TOTAL DEPTH (DRILLER)
 SDEP.m                 864.00:  START DEPTH
 DFSL.m                   0.00:  DISTANCE FSL
 DFWL.m                   0.00:  DISTANCE FWL
 UTMY.m             4443793.85:  UTM Y
 UTMX.m              519005.06:  UTM X
 WHEW.m                  -8.91:  WELL HEAD E/W
 WHNS.m                   9.43:  WELL HEAD N/S
 LONG.deg                51.22:  LONGITUDE
 LATI.deg                40.13:  LATITUDE
 TVDS.m                  43.00:  TVDSS CORRECTN
 EKB .m                   0.00:  KB ELEVATION
 EDF .m                  43.00:  DF ELEVATION
 TDL .m                 363.00:  TOTAL DEPTH (LOGGER)
 MAGU.                 1850802:  MAGUTM CHECKSUM
 VSC .                       0:  VS TO CLOSURE
~Parameter Information Block
#MNEM.UNIT       Value        Description
#---------     -----------    ---------------------------
 AV  .mps                 2.30:  Ann Velocity 
 AVMX.mps                 4.40:  Max Ann Veloc 
 AZIF.deg               110.24:  Azm, Final 
 BHAT.        Rotary Steerable:  BHA Type 
 BREV.rev               331.00:  Rev Bit Total 
 BROT.°/30m               0.00:  Build Rotating 
 BS  .in                  8.50:  Bit Size 
 BSZ .in                  8.50:  Bit Size 
 BTPL.psig              585.00:  Bit Press Loss 
 CABU.                     Yes:  Customer Abuse 
 COMM.                     ô®q:  Run Comments 1 
 TCS .hr                122.75:  Time Ciculation Ended 
 CV  .mps                 2.67:  Crit Velocity 
 CVMX.mps                 3.56:  Max Crit Veloc 
 DD1 .          Rashad Habibov:  Direct Drillr 1 
 DD2 .         Rasim Ibrahimov:  Direct Drillr 2 
 DDSV.               Geo-Pilot:  DD Service 
 DEFF.%                  98.00:  % Det Eff 
 DLRX.°/30m               0.75:  Dogleg Rot Max 
 DLSO.°/30m               1.25:  Dogleg Oriented 
 DLSX.°/30m               2.06:  Dogleg Str Max 
 DRET.      07.45.00 17-May-20:  Drill End Time 
 DRST.      22.50.00 15-May-20:  Drill Start Tim 
 DTIM.hr                 20.75:  Time Drilling 
 EDEP.m                5124.01:  End Depth 
 ENG1.           Eldar Hajiyev:  Engineer 1 
 ENG2.        Marcelo Sandoval:  Engineer 2 
 ENG3.        Davud huseynzada:  Engineer 3 
 ENG4.          Ruslan Safarov:  Engineer 4 
 ETIM.      04.33.00 23-May-20:  End Time 
 FLOI.gpm               450.00:  Flow In 
 FLON.gpm               400.00:  Flow In Min 
 FLOS.cptm                0.00:  Fluid Loss 
 FLOX.gpm               500.00:  Flow In Max 
 FTRO.       Formation Presure:  FTWD Run Obj 
 HFLO.                      No:  High Flow 
 HPRE.                     Yes:  High Pressure 
 HTEM.                      No:  High Temp 
 HYDO.m                   1.80:  Hydro Offset 
 IFIN.deg                75.06:  Inc, Final 
 IMAX.deg                75.38:  Inc Max 
 IMIN.deg                74.69:  Inc Min 
 IMND.m                5027.38:  Inc Min Depth 
 IMXD.m                4771.61:  Inc Max Depth 
 JARR.                      No:  Jarring 
 LETM.      07.45.00 17-May-20:  Log End Time 
 LOST.hr                     0:  Lost Rig Time 
 LSTM.      22.50.00 15-May-20:  Log Start Time 
 MDCL.ppm             42000.00:  Mud Chlorides 
 MDES.     Inversion Oil/Synthetic:  Mud Desc 
 DFD .sg                  1.34:  Mud Density 
 MDMN.sg                  1.34:  Dens Mud Min 
 MDMX.sg                  1.34:  Dens Mud Max 
 MOIL.                       0:  Run Mud Oil % 
 MOWR.                   67:33:  Run Mud OWR 
 MSND.                       0:  Run Mud Sand % 
 MSOL.                     1.8:  Run Mud Solids% 
 DFV .spqt               76.00:  Mud Viscosity 
 MWOD.in                  6.75:  MWD Tool OD 
 MWSI.                      No:  Serv Intrp, MWD 
 OTIM.hr                228.19:  Time Operating 
 PCON.           Look Like New:  Pad Condition 
 PMAX.psia             6164.70:  Press Op, Max 
 PV  .cP                 28.00:  Mud PV 
 RUN .                     900:  Run Number 
 ROPA.m/hr               19.00:  ROP Avg 
 ROPN.m/hr               11.00:  ROP Min 
 ROPX.m/hr               36.00:  ROP Max 
 RPMA.rpm               120.00:  RPM Surface Avg 
 RPMN.rpm               120.00:  RPM Surface Min 
 RPMX.rpm               120.00:  RPM Surface Max 
 RRUN.                    L604:  Rig Run Number 
 RTIM.hr                  7.00:  Time Reaming 
 SAZI.deg               109.27:  Azm, Start 
 SDEP.m                4761.01:  Start Depth 
 SIDD.                      No:  Serv Intrp, DD 
 SINC.deg                75.38:  Inc, Start 
 SPPA.psig             3574.00:  SPP Avg 
 SPPN.psig             3475.00:  SPP Min 
 SPPX.psig             3791.00:  SPP Max 
 STIM.      07.08.48 13-May-20:  Start Time 
 SVCS.                 DD, MWD:  Services 
 SVER.                    9.20:  Sperry Version 
 TDAT.m                 363.00:  Tot Depth Attmp 
 TDDF.                      No:  Trip for DD 
 TDLG.m                 363.00:  Tot Depth Loggd 
 TFF .                      No:  Trip for Fail 
 TQAA.f-kp               20.00:  Torque Abs Avg 
 TQAN.f-kp               18.00:  Torque Abs Min 
 TQAX.f-kp               22.00:  Torque Abs Max 
 TRRT.°/30m              -0.35:  Turn Rotating 
 MRT .                    HCIM:  Maximum Recorded Temperature 
 TTMX.degC               92.16:  Max Tool Temp 
 VS01.                90586518:  Virtual Str1 SN 
 VS02.        AZ90560654Z1W1C6:  Virtual Str2 SN 
 VS03.           AZ90610398F11:  Virtual Str3 SN 
 VS04.                90514975:  Virtual Str4 SN 
 VS05.                90514972:  Virtual Str5 SN 
 VS06.     AZ90603282F11V7D1A6:  Virtual Str6 SN 
 WBMN.klb                 7.00:  WOB Min 
 WOBA.klb                12.00:  WOB Avg 
 WOBX.klb                14.00:  WOB Max 
 YP  .lhf2               32.00:  Yield Point 
~Curve Information Block
#MNEM.UNIT                 API CODE     Curve Description
#---------               -----------    ---------------------------
 TIME.HHMMSS            00 000 000 000:  GT Time & Date
 GTDEPTH.m              00 000 000 000:  GT Depth
 GTPQH.psia             00 000 000 000:  GT HR Quartz Pressure
 GTTQ.degC              00 000 000 000:  GT Quartz Temperature
 GTTN.NONE              00 000 000 000:  GT Test Number
 GTET.sec               00 000 000 000:  GT Elapsed Test Time
 GTTVD.m                00 000 000 000:  GT True Vertical Depth
#Other Information
#
#WARRANTY: Halliburton will use its best efforts to furnish customers with 
#accurate information and interpretations that are part of, and incident to, the services 
#provided.  However, Halliburton cannot and does not warrant the accuracy 
#or correctness of such information and interpretations.  Under no circumstances should any 
#such information or interpretation be relied upon as the sole basis for any drilling, 
#completion, production, or financial decision or any procedure involving any risk to the 
#safety of any drilling venture, drilling rig or its crew or any other third party.  The 
#Customer has full responsibility for all drilling, completion and production operation.  
#Halliburton makes no representations or warranties, either expressed or 
#implied, including, but not limited to, the implied warranties of merchantability or fitness 
#for a particular purpose, with respect to the services rendered.  In no event will 
#Halliburton be liable for failure to obtain any particular results or for 
#any damages, including, but not limited to, indirect, special or consequential damages, 
#resulting from the use of any information or interpretation provided by Halliburton.
#
~A           TIME           GTDEPTH  GTPQH  GTTQ  GTTN   GTET   GTTVD  
# ...
   00:30:10.449.18-May-2020 4886.01 3643.71 66.40 10.00 339.14 2563.39
   00:30:10.649.18-May-2020 4886.01 3643.55 66.40 10.00 339.34 2563.39
   00:30:10.849.18-May-2020 4886.01 3643.57 66.40 10.00 339.54 2563.39
   00:30:11.049.18-May-2020 4886.01 3643.57 66.40 10.00 339.74 2563.39
   00:30:11.249.18-May-2020 4886.01 3643.57 66.40 10.00 339.94 2563.39
   00:30:11.449.18-May-2020 4886.01 3643.58 66.40 10.00 340.14 2563.39
   00:30:11.649.18-May-2020 4886.01 3643.57 66.40 10.00 340.34 2563.39
   00:30:11.850.18-May-2020 4886.01 3643.58 66.40 10.00 340.54 2563.39
   00:30:12.050.18-May-2020 4886.01 3643.55 66.40 10.00 340.74 2563.39
   00:30:12.250.18-May-2020 4886.01 3643.87 66.40 10.00 340.94 2563.39
   00:30:12.450.18-May-2020 4886.01 3643.34 66.40 10.00 341.14 2563.39
   00:30:12.650.18-May-2020 4886.01 3643.34 66.40 10.00 341.34 2563.39
   00:30:12.850.18-May-2020 4886.01 3643.60 66.40 10.00 341.54 2563.39
   00:30:13.050.18-May-2020 4886.01 3643.85 66.40 10.00 341.74 2563.39
   00:30:13.250.18-May-2020 4886.01 3643.27 66.40 10.00 341.94 2563.39
   00:30:13.450.18-May-2020 4886.01 3643.75 66.40 10.00 342.14 2563.39
   00:30:13.650.18-May-2020 4886.01 3643.75 66.40 10.00 342.34 2563.39
   00:30:13.850.18-May-2020 4886.01 3643.78 66.40 10.00 342.54 2563.39
   00:30:14.050.18-May-2020 4886.01 3643.53 66.40 10.00 342.74 2563.39
   00:30:14.250.18-May-2020 4886.01 3643.75 66.40 10.00 342.94 2563.39
   00:30:14.451.18-May-2020 4886.01 3643.50 66.40 10.00 343.14 2563.39
   00:30:14.651.18-May-2020 4886.01 3643.26 66.40 10.00 343.34 2563.39
   00:30:14.851.18-May-2020 4886.01 3643.83 66.40 10.00 343.54 2563.39
   00:30:15.051.18-May-2020 4886.01 3643.75 66.40 10.00 343.74 2563.39
   00:30:15.251.18-May-2020 4886.01 3643.58 66.40 10.00 343.94 2563.39
   00:30:15.451.18-May-2020 4886.01 3643.55 66.40 10.00 344.14 2563.39
   00:30:15.651.18-May-2020 4886.01 3643.55 66.40 10.00 344.34 2563.39
   00:30:15.851.18-May-2020 4886.01 3643.56 66.40 10.00 344.54 2563.39
   00:30:16.051.18-May-2020 4886.01 3643.59 66.40 10.00 344.74 2563.39
   00:30:16.251.18-May-2020 4886.01 3643.57 66.40 10.00 344.94 2563.39
   00:30:16.451.18-May-2020 4886.01 3643.59 66.40 10.00 345.14 2563.39
   00:30:16.651.18-May-2020 4886.01 3643.59 66.40 10.00 345.34 2563.39
   00:30:16.852.18-May-2020 4886.01 3643.51 66.40 10.00 345.54 2563.39
   00:30:17.052.18-May-2020 4886.01 3643.66 66.40 10.00 345.74 2563.39
   00:30:17.252.18-May-2020 4886.01 3643.68 66.40 10.00 345.94 2563.39
   00:30:17.452.18-May-2020 4886.01 3643.57 66.40 10.00 346.14 2563.39
   00:30:17.652.18-May-2020 4886.01 3643.57 66.40 10.00 346.34 2563.39
   00:30:17.852.18-May-2020 4886.01 3643.51 66.40 10.00 346.54 2563.39
   00:30:18.052.18-May-2020 4886.01 3643.62 66.40 10.00 346.74 2563.39
   00:30:18.252.18-May-2020 4886.01 3643.57 66.40 10.00 346.94 2563.39
   00:30:18.452.18-May-2020 4886.01 3643.58 66.40 10.00 347.14 2563.39
   00:30:18.652.18-May-2020 4886.01 3643.57 66.40 10.00 347.34 2563.39
   00:30:18.852.18-May-2020 4886.01 3643.31 66.40 10.00 347.54 2563.39
   00:30:19.052.18-May-2020 4886.01 3643.86 66.40 10.00 347.74 2563.39
   00:30:19.252.18-May-2020 4886.01 3643.71 66.40 10.00 347.94 2563.39
   00:30:19.453.18-May-2020 4886.01 3643.68 66.40 10.00 348.14 2563.39
   00:30:19.653.18-May-2020 4886.01 3643.37 66.40 10.00 348.34 2563.39
   00:30:19.853.18-May-2020 4886.01 3643.77 66.40 10.00 348.54 2563.39
   00:30:20.053.18-May-2020 4886.01 3643.62 66.40 10.00 348.74 2563.39
   00:30:20.253.18-May-2020 4886.01 3643.70 66.40 10.00 348.94 2563.39
   00:30:20.453.18-May-2020 4886.01 3643.18 66.40 10.00 349.14 2563.39
   00:30:20.653.18-May-2020 4886.01 3643.18 66.40 10.00 349.34 2563.39
   00:30:20.853.18-May-2020 4886.01 3643.58 66.40 10.00 349.54 2563.39
   00:30:21.053.18-May-2020 4886.01 3643.61 66.40 10.00 349.74 2563.39
   00:30:21.253.18-May-2020 4886.01 3643.54 66.40 10.00 349.94 2563.39
   00:30:21.453.18-May-2020 4886.01 3643.45 66.40 10.00 350.14 2563.39
   00:30:21.653.18-May-2020 4886.01 3643.45 66.40 10.00 350.34 2563.39
   00:30:21.854.18-May-2020 4886.01 3643.75 66.40 10.00 350.54 2563.39
   00:30:22.054.18-May-2020 4886.01 3643.51 66.40 10.00 350.74 2563.39
   00:30:22.254.18-May-2020 4886.01 3643.65 66.40 10.00 350.94 2563.39
   00:30:22.454.18-May-2020 4886.01 3643.49 66.40 10.00 351.14 2563.39
   00:30:22.654.18-May-2020 4886.01 3643.49 66.40 10.00 351.34 2563.39
   00:30:22.854.18-May-2020 4886.01 3643.57 66.40 10.00 351.54 2563.39
   00:30:23.054.18-May-2020 4886.01 3643.57 66.40 10.00 351.74 2563.39
   00:30:23.254.18-May-2020 4886.01 3643.57 66.40 10.00 351.94 2563.39
   00:30:23.454.18-May-2020 4886.01 3643.54 66.40 10.00 352.14 2563.39
   00:30:23.654.18-May-2020 4886.01 3643.54 66.40 10.00 352.34 2563.39
   00:30:23.854.18-May-2020 4886.01 3643.35 66.40 10.00 352.54 2563.39
   00:30:24.054.18-May-2020 4886.01 3643.72 66.40 10.00 352.74 2563.39
   00:30:24.255.18-May-2020 4886.01 3643.60 66.40 10.00 352.94 2563.39
   00:30:24.455.18-May-2020 4886.01 3643.59 66.40 10.00 353.14 2563.39
   00:30:24.655.18-May-2020 4886.01 3643.59 66.40 10.00 353.34 2563.39
   00:30:24.855.18-May-2020 4886.01 3643.64 66.40 10.00 353.54 2563.39
   00:30:25.055.18-May-2020 4886.01 3643.55 66.40 10.00 353.74 2563.39
   00:30:25.255.18-May-2020 4886.01 3643.59 66.40 10.00 353.94 2563.39
   00:30:25.455.18-May-2020 4886.01 3643.55 66.40 10.00 354.14 2563.39
   00:30:25.655.18-May-2020 4886.01 3643.55 66.40 10.00 354.34 2563.39
   00:30:25.855.18-May-2020 4886.01 3643.91 66.40 10.00 354.54 2563.39
   00:30:26.055.18-May-2020 4886.01 3643.72 66.40 10.00 354.74 2563.39
   00:30:26.255.18-May-2020 4886.01 3643.56 66.40 10.00 354.94 2563.39
   00:30:26.455.18-May-2020 4886.01 3643.21 66.40 10.00 355.14 2563.39
   00:30:26.655.18-May-2020 4886.01 3643.97 66.40 10.00 355.34 2563.39
   00:30:26.856.18-May-2020 4886.01 3643.73 66.40 10.00 355.54 2563.39
   00:30:27.056.18-May-2020 4886.01 3643.56 66.40 10.00 355.74 2563.39
   00:30:27.256.18-May-2020 4886.01 3643.39 66.40 10.00 355.94 2563.39
   00:30:27.456.18-May-2020 4886.01 3643.75 66.40 10.00 356.14 2563.39
   00:30:27.656.18-May-2020 4886.01 3643.75 66.40 10.00 356.34 2563.39
   00:30:27.856.18-May-2020 4886.01 3643.57 66.40 10.00 356.54 2563.39
   00:30:28.056.18-May-2020 4886.01 3643.64 66.40 10.00 356.74 2563.39
   00:30:28.256.18-May-2020 4886.01 3643.72 66.40 10.00 356.94 2563.39
   00:30:28.456.18-May-2020 4886.01 3643.37 66.40 10.00 357.14 2563.39
   00:30:28.656.18-May-2020 4886.01 3643.37 66.40 10.00 357.34 2563.39
   00:30:28.856.18-May-2020 4886.01 3643.57 66.40 10.00 357.54 2563.39
   00:30:29.056.18-May-2020 4886.01 3643.62 66.40 10.00 357.74 2563.39
   00:30:29.257.18-May-2020 4886.01 3643.48 66.40 10.00 357.94 2563.39
   00:30:29.457.18-May-2020 4886.01 3643.64 66.40 10.00 358.14 2563.39
   00:30:29.657.18-May-2020 4886.01 3643.64 66.40 10.00 358.34 2563.39
   00:30:29.857.18-May-2020 4886.01 3643.58 66.40 10.00 358.54 2563.39
   00:30:30.057.18-May-2020 4886.01 3643.55 66.40 10.00 358.74 2563.39
   00:30:30.257.18-May-2020 4886.01 3643.31 66.40 10.00 358.94 2563.39
   00:30:30.457.18-May-2020 4886.01 3643.82 66.40 10.00 359.14 2563.39
   00:30:30.657.18-May-2020 4886.01 3643.82 66.40 10.00 359.34 2563.39
   00:30:30.857.18-May-2020 4886.01 3643.68 66.40 10.00 359.54 2563.39
   00:30:31.057.18-May-2020 4886.01 3643.52 66.40 10.00 359.75 2563.39
   00:30:31.257.18-May-2020 4886.01 3643.61 66.40 10.00 359.95 2563.39
   00:30:31.457.18-May-2020 4886.01 3643.52 66.40 10.00 360.15 2563.39
   00:30:31.657.18-May-2020 4886.01 3643.58 66.40 10.00 360.35 2563.39
   00:30:31.858.18-May-2020 4886.01 3643.57 66.40 10.00 360.55 2563.39
   00:30:32.058.18-May-2020 4886.01 3643.58 66.40 10.00 360.75 2563.39
   00:30:32.258.18-May-2020 4886.01 3643.54 66.40 10.00 360.95 2563.39
   00:30:32.458.18-May-2020 4886.01 3643.45 66.40 10.00 361.15 2563.39
   00:30:32.658.18-May-2020 4886.01 3643.45 66.40 10.00 361.35 2563.39
   00:30:32.858.18-May-2020 4886.01 3643.68 66.40 10.00 361.55 2563.39
