~Version Information
 VERS.                  2.0:   CWLS log ASCII Standard -VERSION 2.0
 WRAP.                   NO:   One line per depth step
~Well Information Block
#MNEM.UNIT     VALUE/NAME     DESCRIPTION
#---------     -----------    ---------------------------
 STRT.S             12:13:26 20-May-20: START TIME 12:13:26 20-May-20
 STOP.S             12:20:31 20-May-20: STOP TIME  12:20:31 20-May-20
 STEP.S                   0.00: STEP TIME
 NULL.                 -999.25: NULL VALUE
 UNIT.                     N/A:  LOGGING EQUIPMENT ID
 DCON.         Sperry Drilling:  DIRECTNL CONTR
 DOE .                     N/A:  DOE NUMBER
 JOBN.        AZ-XX-0906252240:  JOB TICKET NUMB
 MWDS.                     N/A:  MWD SHOP
 PROV.                    Baku:  PROVINCE
 STAT.                    Baku:  STATE NAME
 REGN.                   EESSA:  REGION
 BASE.              Azerbaijan:  LOGGING EQUIPMENT BASE LOCATION
 UWI .                     N/A:  UNIQUE WELL IDENTIFIER
 API .                     N/A:  API NUMBER
 MDS .        Operator Entered:  MAG DATA SOURCE
 WTYP.                Deviated:  WELL TYPE
 COMP.     BP Exploration (Caspian Sea) Ltd.:  COMPANY
 SRVC.          Turan Drilling:  CONTRACTOR
 WELL.           J23 (Slot 07):  WELL NAME
 CTRY.              Azerbaijan:  COUNTRY NAME
 FLD .                     ACG:  FIELD NAME
 PDAT.          Mean Sea Level:  PERMANENT DATUM
 RIG .             West Chirag:  RIG NAME
 SON .        AZ-XX-0906252240:  JOB NUMBER
 FTOP.          Formation Tops:  FORM TOPS DESC
 ILTD.               Lithology:  INTERP LTH DESC
 SVYD.                  Survey:  SURVEY DESC
 DMOD.             Drill Model:  DRILL MOD DESC
 HPTY.       Minimum Curvature:  HOLE POS TYPE
 NREF.                    Grid:  NORTH REFERENCE
 SPUD.               27-Aug-20:  SPUD DATE
 DATE.      00.00.00 19-May-20:  END TIME
 STIM.      03.00.00 25-Mar-20:  START TIME
 DMF .             Drill Floor:  DRILL MEAS FROM
 DFST.                        :  DIST FSL TEXT
 DFWT.                        :  DIST FWL TEXT
 CNTY.                        :  COUNTY
 LOC .                        :  LOCATION
 LMF .             Drill Floor:  LOG MEASURED FROM
 VSNS.m                   9.43:  VERT SEC N/S
 VSEW.m                  -8.91:  VERT SEC E/W
 AGAP.m                  43.00:  AIR GAP
 DEP .m                 354.17:  DEPTH
 APD .m                  43.00:  DEPTH ABOVE PD
 WDMS.m                 169.80:  WD ELEV
 EGL .m                   0.00:  GROUND ELEVATION
 EPD .m                   0.00:  ELEVATION
 AZTC.deg                 6.31:  AZM TOTAL CORR
 GRDC.deg                 0.14:  GRID CORRECTION
 MDEC.deg                 6.45:  MAGNETIC DECL
 MDIP.deg                59.56:  MAGNETIC DIP
 MFLD.nT              50295.00:  MAGNETIC FIELD
 GVFD.g                   1.00:  GRAVITY FIELD
 VSDR.deg               179.88:  VERT SEC DIRECT
 TDD .m                5150.01:  TOTAL DEPTH (DRILLER)
 SDEP.m                 864.00:  START DEPTH
 DFSL.m                   0.00:  DISTANCE FSL
 DFWL.m                   0.00:  DISTANCE FWL
 UTMY.m             4443793.85:  UTM Y
 UTMX.m              519005.06:  UTM X
 WHEW.m                  -8.91:  WELL HEAD E/W
 WHNS.m                   9.43:  WELL HEAD N/S
 LONG.deg                51.22:  LONGITUDE
 LATI.deg                40.13:  LATITUDE
 TVDS.m                  43.00:  TVDSS CORRECTN
 EKB .m                   0.00:  KB ELEVATION
 EDF .m                  43.00:  DF ELEVATION
 TDL .m                 363.00:  TOTAL DEPTH (LOGGER)
 MAGU.                 1850802:  MAGUTM CHECKSUM
 VSC .                       0:  VS TO CLOSURE
~Parameter Information Block
#MNEM.UNIT       Value        Description
#---------     -----------    ---------------------------
 AV  .mps                 2.30:  Ann Velocity 
 AVMX.mps                 4.40:  Max Ann Veloc 
 AZIF.deg               110.24:  Azm, Final 
 BHAT.        Rotary Steerable:  BHA Type 
 BREV.rev               331.00:  Rev Bit Total 
 BROT.°/30m               0.00:  Build Rotating 
 BS  .in                  8.50:  Bit Size 
 BSZ .in                  8.50:  Bit Size 
 BTPL.psig              585.00:  Bit Press Loss 
 CABU.                     Yes:  Customer Abuse 
 COMM.                     моЊ:  Run Comments 1 
 TCS .hr                122.75:  Time Ciculation Ended 
 CV  .mps                 2.67:  Crit Velocity 
 CVMX.mps                 3.56:  Max Crit Veloc 
 DD1 .          Rashad Habibov:  Direct Drillr 1 
 DD2 .         Rasim Ibrahimov:  Direct Drillr 2 
 DDSV.               Geo-Pilot:  DD Service 
 DEFF.%                  98.00:  % Det Eff 
 DLRX.°/30m               0.75:  Dogleg Rot Max 
 DLSO.°/30m               1.25:  Dogleg Oriented 
 DLSX.°/30m               2.06:  Dogleg Str Max 
 DRET.      07.45.00 17-May-20:  Drill End Time 
 DRST.      22.50.00 15-May-20:  Drill Start Tim 
 DTIM.hr                 20.75:  Time Drilling 
 EDEP.m                5124.01:  End Depth 
 ENG1.           Eldar Hajiyev:  Engineer 1 
 ENG2.        Marcelo Sandoval:  Engineer 2 
 ENG3.        Davud huseynzada:  Engineer 3 
 ENG4.          Ruslan Safarov:  Engineer 4 
 ETIM.      04.33.00 23-May-20:  End Time 
 FLOI.gpm               450.00:  Flow In 
 FLON.gpm               400.00:  Flow In Min 
 FLOS.cptm                0.00:  Fluid Loss 
 FLOX.gpm               500.00:  Flow In Max 
 FTRO.       Formation Presure:  FTWD Run Obj 
 HFLO.                      No:  High Flow 
 HPRE.                     Yes:  High Pressure 
 HTEM.                      No:  High Temp 
 HYDO.m                   1.80:  Hydro Offset 
 IFIN.deg                75.06:  Inc, Final 
 IMAX.deg                75.38:  Inc Max 
 IMIN.deg                74.69:  Inc Min 
 IMND.m                5027.38:  Inc Min Depth 
 IMXD.m                4771.61:  Inc Max Depth 
 JARR.                      No:  Jarring 
 LETM.      07.45.00 17-May-20:  Log End Time 
 LOST.hr                     0:  Lost Rig Time 
 LSTM.      22.50.00 15-May-20:  Log Start Time 
 MDCL.ppm             42000.00:  Mud Chlorides 
 MDES.     Inversion Oil/Synthetic:  Mud Desc 
 DFD .sg                  1.34:  Mud Density 
 MDMN.sg                  1.34:  Dens Mud Min 
 MDMX.sg                  1.34:  Dens Mud Max 
 MOIL.                       0:  Run Mud Oil % 
 MOWR.                   67:33:  Run Mud OWR 
 MSND.                       0:  Run Mud Sand % 
 MSOL.                     1.8:  Run Mud Solids% 
 DFV .spqt               76.00:  Mud Viscosity 
 MWOD.in                  6.75:  MWD Tool OD 
 MWSI.                      No:  Serv Intrp, MWD 
 OTIM.hr                228.19:  Time Operating 
 PCON.           Look Like New:  Pad Condition 
 PMAX.psia             6164.70:  Press Op, Max 
 PV  .cP                 28.00:  Mud PV 
 RUN .                     900:  Run Number 
 ROPA.m/hr               19.00:  ROP Avg 
 ROPN.m/hr               11.00:  ROP Min 
 ROPX.m/hr               36.00:  ROP Max 
 RPMA.rpm               120.00:  RPM Surface Avg 
 RPMN.rpm               120.00:  RPM Surface Min 
 RPMX.rpm               120.00:  RPM Surface Max 
 RRUN.                    L604:  Rig Run Number 
 RTIM.hr                  7.00:  Time Reaming 
 SAZI.deg               109.27:  Azm, Start 
 SDEP.m                4761.01:  Start Depth 
 SIDD.                      No:  Serv Intrp, DD 
 SINC.deg                75.38:  Inc, Start 
 SPPA.psig             3574.00:  SPP Avg 
 SPPN.psig             3475.00:  SPP Min 
 SPPX.psig             3791.00:  SPP Max 
 STIM.      07.08.48 13-May-20:  Start Time 
 SVCS.                 DD, MWD:  Services 
 SVER.                    9.20:  Sperry Version 
 TDAT.m                 363.00:  Tot Depth Attmp 
 TDDF.                      No:  Trip for DD 
 TDLG.m                 363.00:  Tot Depth Loggd 
 TFF .                      No:  Trip for Fail 
 TQAA.f-kp               20.00:  Torque Abs Avg 
 TQAN.f-kp               18.00:  Torque Abs Min 
 TQAX.f-kp               22.00:  Torque Abs Max 
 TRRT.°/30m              -0.35:  Turn Rotating 
 MRT .                    HCIM:  Maximum Recorded Temperature 
 TTMX.degC               92.16:  Max Tool Temp 
 VS01.                90586518:  Virtual Str1 SN 
 VS02.        AZ90560654Z1W1C6:  Virtual Str2 SN 
 VS03.           AZ90610398F11:  Virtual Str3 SN 
 VS04.                90514975:  Virtual Str4 SN 
 VS05.                90514972:  Virtual Str5 SN 
 VS06.     AZ90603282F11V7D1A6:  Virtual Str6 SN 
 WBMN.klb                 7.00:  WOB Min 
 WOBA.klb                12.00:  WOB Avg 
 WOBX.klb                14.00:  WOB Max 
 YP  .lhf2               32.00:  Yield Point 
~Curve Information Block
#MNEM.UNIT                 API CODE     Curve Description
#---------               -----------    ---------------------------
 TIME.HHMMSS            00 000 000 000:  GT Time & Date
 GTDEPTH.m              00 000 000 000:  GT Depth
 GTPQH.psia             00 000 000 000:  GT HR Quartz Pressure
 GTTQ.degC              00 000 000 000:  GT Quartz Temperature
 GTTN.NONE              00 000 000 000:  GT Test Number
 GTET.sec               00 000 000 000:  GT Elapsed Test Time
 GTTVD.m                00 000 000 000:  GT True Vertical Depth
#Other Information
#
#WARRANTY: Halliburton will use its best efforts to furnish customers with 
#accurate information and interpretations that are part of, and incident to, the services 
#provided.  However, Halliburton cannot and does not warrant the accuracy 
#or correctness of such information and interpretations.  Under no circumstances should any 
#such information or interpretation be relied upon as the sole basis for any drilling, 
#completion, production, or financial decision or any procedure involving any risk to the 
#safety of any drilling venture, drilling rig or its crew or any other third party.  The 
#Customer has full responsibility for all drilling, completion and production operation.  
#Halliburton makes no representations or warranties, either expressed or 
#implied, including, but not limited to, the implied warranties of merchantability or fitness 
#for a particular purpose, with respect to the services rendered.  In no event will 
#Halliburton be liable for failure to obtain any particular results or for 
#any damages, including, but not limited to, indirect, special or consequential damages, 
#resulting from the use of any information or interpretation provided by Halliburton.
#
~A           TIME           GTDEPTH  GTPQH  GTTQ  GTTN   GTET   GTTVD  
# ...
   12:17:35.380.20-May-2020 4766.51 5484.89 69.25 15.00 248.68 2532.42
   12:17:35.580.20-May-2020 4766.51 5489.18 69.25 15.00 248.88 2532.42
   12:17:35.780.20-May-2020 4766.51 5496.43 69.25 15.00 249.08 2532.42
   12:17:35.980.20-May-2020 4766.51 5496.43 69.25 15.00 249.28 2532.42
   12:17:36.180.20-May-2020 4766.51 5485.79 69.24 15.00 249.48 2532.42
   12:17:36.381.20-May-2020 4766.51 5484.54 69.24 15.00 249.68 2532.42
   12:17:36.581.20-May-2020 4766.51 5486.16 69.24 15.00 249.88 2532.42
   12:17:36.781.20-May-2020 4766.51 5485.67 69.24 15.00 250.08 2532.42
   12:17:36.981.20-May-2020 4766.51 5485.67 69.24 15.00 250.28 2532.42
   12:17:37.181.20-May-2020 4766.51 5484.41 69.24 15.00 250.48 2532.42
   12:17:37.381.20-May-2020 4766.51 5484.13 69.24 15.00 250.68 2532.42
   12:17:37.581.20-May-2020 4766.51 5483.37 69.24 15.00 250.88 2532.42
   12:17:37.781.20-May-2020 4766.51 5495.87 69.24 15.00 251.08 2532.42
   12:17:37.981.20-May-2020 4766.51 5495.87 69.24 15.00 251.28 2532.42
   12:17:38.181.20-May-2020 4766.51 5495.87 69.24 15.00 251.48 2532.42
   12:17:38.381.20-May-2020 4766.51 5495.87 69.24 15.00 251.68 2532.42
   12:17:38.581.20-May-2020 4766.51 5484.32 69.24 15.00 251.88 2532.42
   12:17:38.781.20-May-2020 4766.51 5485.30 69.24 15.00 252.08 2532.42
   12:17:38.981.20-May-2020 4766.51 5485.30 69.24 15.00 252.28 2532.42
   12:17:39.181.20-May-2020 4766.51 5483.90 69.24 15.00 252.48 2532.42
   12:17:39.382.20-May-2020 4766.51 5484.00 69.24 15.00 252.68 2532.42
   12:17:39.582.20-May-2020 4766.51 5483.23 69.24 15.00 252.88 2532.42
   12:17:39.782.20-May-2020 4766.51 5482.83 69.24 15.00 253.08 2532.42
   12:17:39.982.20-May-2020 4766.51 5482.83 69.24 15.00 253.28 2532.42
   12:17:40.182.20-May-2020 4766.51 5484.18 69.24 15.00 253.48 2532.42
   12:17:40.382.20-May-2020 4766.51 5483.24 69.24 15.00 253.68 2532.42
   12:17:40.582.20-May-2020 4766.51 5483.17 69.24 15.00 253.88 2532.42
   12:17:40.782.20-May-2020 4766.51 5496.35 69.24 15.00 254.08 2532.42
   12:17:40.982.20-May-2020 4766.51 5496.35 69.24 15.00 254.28 2532.42
   12:17:41.182.20-May-2020 4766.51 5485.31 69.24 15.00 254.48 2532.42
   12:17:41.382.20-May-2020 4766.51 5484.15 69.24 15.00 254.68 2532.42
   12:17:41.582.20-May-2020 4766.51 5490.20 69.24 15.00 254.88 2532.42
   12:17:41.782.20-May-2020 4766.51 5494.99 69.24 15.00 255.08 2532.42
   12:17:41.982.20-May-2020 4766.51 5486.08 69.24 15.00 255.28 2532.42
   12:17:42.182.20-May-2020 4766.51 5485.41 69.24 15.00 255.48 2532.42
   12:17:42.382.20-May-2020 4766.51 5484.96 69.23 15.00 255.68 2532.42
   12:17:42.583.20-May-2020 4766.51 5490.11 69.23 15.00 255.88 2532.42
   12:17:42.783.20-May-2020 4766.51 5495.54 69.23 15.00 256.08 2532.42
   12:17:42.983.20-May-2020 4766.51 5495.54 69.23 15.00 256.28 2532.42
   12:17:43.183.20-May-2020 4766.51 5485.66 69.23 15.00 256.48 2532.42
   12:17:43.383.20-May-2020 4766.51 5484.24 69.23 15.00 256.68 2532.42
   12:17:43.583.20-May-2020 4766.51 5486.07 69.23 15.00 256.88 2532.42
   12:17:43.783.20-May-2020 4766.51 5485.39 69.23 15.00 257.08 2532.42
   12:17:43.983.20-May-2020 4766.51 5485.39 69.23 15.00 257.28 2532.42
   12:17:44.183.20-May-2020 4766.51 5484.43 69.23 15.00 257.48 2532.42
   12:17:44.383.20-May-2020 4766.51 5484.06 69.23 15.00 257.68 2532.42
   12:17:44.583.20-May-2020 4766.51 5483.66 69.23 15.00 257.88 2532.42
   12:17:44.783.20-May-2020 4766.51 5495.91 69.23 15.00 258.08 2532.42
   12:17:44.983.20-May-2020 4766.51 5495.91 69.23 15.00 258.28 2532.42
   12:17:45.183.20-May-2020 4766.51 5483.93 69.23 15.00 258.48 2532.42
   12:17:45.383.20-May-2020 4766.51 5483.26 69.23 15.00 258.68 2532.42
   12:17:45.584.20-May-2020 4766.51 5484.60 69.23 15.00 258.88 2532.42
   12:17:45.784.20-May-2020 4766.51 5485.02 69.23 15.00 259.08 2532.42
   12:17:45.984.20-May-2020 4766.51 5484.02 69.23 15.00 259.28 2532.42
   12:17:46.184.20-May-2020 4766.51 5483.81 69.23 15.00 259.48 2532.42
   12:17:46.384.20-May-2020 4766.51 5484.02 69.23 15.00 259.68 2532.42
   12:17:46.584.20-May-2020 4766.51 5483.11 69.23 15.00 259.88 2532.42
   12:17:46.784.20-May-2020 4766.51 5479.26 69.23 15.00 260.08 2532.42
   12:17:46.984.20-May-2020 4766.51 5479.26 69.23 15.00 260.28 2532.42
   12:17:47.184.20-May-2020 4766.51 5479.78 69.23 15.00 260.48 2532.42
   12:17:47.384.20-May-2020 4766.51 5478.49 69.23 15.00 260.68 2532.42
   12:17:47.584.20-May-2020 4766.51 5478.13 69.23 15.00 260.88 2532.42
   12:17:47.784.20-May-2020 4766.51 5491.20 69.23 15.00 261.08 2532.42
   12:17:47.984.20-May-2020 4766.51 5491.20 69.23 15.00 261.28 2532.42
   12:17:48.184.20-May-2020 4766.51 5479.69 69.23 15.00 261.48 2532.42
   12:17:48.384.20-May-2020 4766.51 5478.84 69.23 15.00 261.68 2532.42
   12:17:48.584.20-May-2020 4766.51 5485.86 69.23 15.00 261.88 2532.42
   12:17:48.785.20-May-2020 4766.51 5489.73 69.23 15.00 262.08 2532.42
   12:17:48.985.20-May-2020 4766.51 5489.73 69.22 15.00 262.28 2532.42
   12:17:49.185.20-May-2020 4766.51 5480.12 69.22 15.00 262.48 2532.42
   12:17:49.385.20-May-2020 4766.51 5479.77 69.22 15.00 262.68 2532.42
   12:17:49.585.20-May-2020 4766.51 5492.57 69.22 15.00 262.88 2532.42
   12:17:49.785.20-May-2020 4766.51 5484.44 69.22 15.00 263.08 2532.42
   12:17:49.985.20-May-2020 4766.51 5484.44 69.22 15.00 263.28 2532.42
   12:17:50.185.20-May-2020 4766.51 5480.84 69.22 15.00 263.48 2532.42
   12:17:50.385.20-May-2020 4766.51 5480.19 69.22 15.00 263.68 2532.42
   12:17:50.585.20-May-2020 4766.51 5482.80 69.22 15.00 263.88 2532.42
   12:17:50.785.20-May-2020 4766.51 5480.39 69.22 15.00 264.08 2532.42
   12:17:50.985.20-May-2020 4766.51 5480.39 69.22 15.00 264.28 2532.42
   12:17:51.185.20-May-2020 4766.51 5479.81 69.22 15.00 264.48 2532.42
   12:17:51.385.20-May-2020 4766.51 5479.47 69.22 15.00 264.68 2532.42
   12:17:51.585.20-May-2020 4766.51 5484.85 69.22 15.00 264.88 2532.42
   12:17:51.785.20-May-2020 4766.51 5486.32 69.22 15.00 265.08 2532.42
   12:17:51.986.20-May-2020 4766.51 5486.32 69.22 15.00 265.28 2532.42
   12:17:52.186.20-May-2020 4766.51 5479.38 69.22 15.00 265.48 2532.42
   12:17:52.386.20-May-2020 4766.51 5478.63 69.22 15.00 265.68 2532.42
   12:17:52.586.20-May-2020 4766.51 5481.29 69.22 15.00 265.89 2532.42
   12:17:52.786.20-May-2020 4766.51 5479.25 69.22 15.00 266.09 2532.42
   12:17:52.986.20-May-2020 4766.51 5479.25 69.22 15.00 266.29 2532.42
   12:17:53.186.20-May-2020 4766.51 5479.04 69.22 15.00 266.49 2532.42
   12:17:53.386.20-May-2020 4766.51 5478.81 69.22 15.00 266.69 2532.42
   12:17:53.586.20-May-2020 4766.51 5478.40 69.22 15.00 266.89 2532.42
   12:17:53.786.20-May-2020 4766.51 5479.71 69.22 15.00 267.09 2532.42
   12:17:53.986.20-May-2020 4766.51 5490.82 69.22 15.00 267.29 2532.42
   12:17:54.186.20-May-2020 4766.51 5479.60 69.22 15.00 267.49 2532.42
   12:17:54.386.20-May-2020 4766.51 5479.57 69.22 15.00 267.69 2532.42
   12:17:54.586.20-May-2020 4766.51 5479.52 69.22 15.00 267.89 2532.42
   12:17:54.786.20-May-2020 4766.51 5494.27 69.22 15.00 268.09 2532.42
   12:17:54.987.20-May-2020 4766.51 5494.27 69.22 15.00 268.29 2532.42
   12:17:55.187.20-May-2020 4766.51 5481.41 69.22 15.00 268.49 2532.42
   12:17:55.387.20-May-2020 4766.51 5480.47 69.22 15.00 268.69 2532.42
   12:17:55.587.20-May-2020 4766.51 5495.10 69.21 15.00 268.89 2532.42
   12:17:55.787.20-May-2020 4766.51 5484.02 69.21 15.00 269.09 2532.42
   12:17:55.987.20-May-2020 4766.51 5484.02 69.21 15.00 269.29 2532.42
   12:17:56.187.20-May-2020 4766.51 5480.98 69.21 15.00 269.49 2532.42
   12:17:56.387.20-May-2020 4766.51 5480.95 69.21 15.00 269.69 2532.42
   12:17:56.587.20-May-2020 4766.51 5496.32 69.21 15.00 269.89 2532.42
   12:17:56.787.20-May-2020 4766.51 5482.54 69.21 15.00 270.09 2532.42
   12:17:56.987.20-May-2020 4766.51 5482.54 69.21 15.00 270.29 2532.42
   12:17:57.187.20-May-2020 4766.51 5484.64 69.21 15.00 270.49 2532.42
   12:17:57.387.20-May-2020 4766.51 5484.62 69.21 15.00 270.69 2532.42
   12:17:57.587.20-May-2020 4766.51 5485.67 69.21 15.00 270.89 2532.42
   12:17:57.787.20-May-2020 4766.51 5484.13 69.21 15.00 271.09 2532.42
