~Version Information
 VERS.                  2.0:   CWLS log ASCII Standard -VERSION 2.0
 WRAP.                   NO:   One line per depth step
~Well Information Block
#MNEM.UNIT     VALUE/NAME     DESCRIPTION
#---------     -----------    ---------------------------
 STRT.S             17:25:16 17-May-20: START TIME 17:25:16 17-May-20
 STOP.S             17:32:20 17-May-20: STOP TIME  17:32:20 17-May-20
 STEP.S                   0.00: STEP TIME
 NULL.                 -999.25: NULL VALUE
 UNIT.                     N/A:  LOGGING EQUIPMENT ID
 DCON.         Sperry Drilling:  DIRECTNL CONTR
 DOE .                     N/A:  DOE NUMBER
 JOBN.        AZ-XX-0906252240:  JOB TICKET NUMB
 MWDS.                     N/A:  MWD SHOP
 PROV.                    Baku:  PROVINCE
 STAT.                    Baku:  STATE NAME
 REGN.                   EESSA:  REGION
 BASE.              Azerbaijan:  LOGGING EQUIPMENT BASE LOCATION
 UWI .                     N/A:  UNIQUE WELL IDENTIFIER
 API .                     N/A:  API NUMBER
 MDS .        Operator Entered:  MAG DATA SOURCE
 WTYP.                Deviated:  WELL TYPE
 COMP.     BP Exploration (Caspian Sea) Ltd.:  COMPANY
 SRVC.          Turan Drilling:  CONTRACTOR
 WELL.           J23 (Slot 07):  WELL NAME
 CTRY.              Azerbaijan:  COUNTRY NAME
 FLD .                     ACG:  FIELD NAME
 PDAT.          Mean Sea Level:  PERMANENT DATUM
 RIG .             West Chirag:  RIG NAME
 SON .        AZ-XX-0906252240:  JOB NUMBER
 FTOP.          Formation Tops:  FORM TOPS DESC
 ILTD.               Lithology:  INTERP LTH DESC
 SVYD.                  Survey:  SURVEY DESC
 DMOD.             Drill Model:  DRILL MOD DESC
 HPTY.       Minimum Curvature:  HOLE POS TYPE
 NREF.                    Grid:  NORTH REFERENCE
 SPUD.               27-Aug-20:  SPUD DATE
 DATE.      00.00.00 19-May-20:  END TIME
 STIM.      03.00.00 25-Mar-20:  START TIME
 DMF .             Drill Floor:  DRILL MEAS FROM
 DFST.                        :  DIST FSL TEXT
 DFWT.                        :  DIST FWL TEXT
 CNTY.                        :  COUNTY
 LOC .                        :  LOCATION
 LMF .             Drill Floor:  LOG MEASURED FROM
 VSNS.m                   9.43:  VERT SEC N/S
 VSEW.m                  -8.91:  VERT SEC E/W
 AGAP.m                  43.00:  AIR GAP
 DEP .m                 354.17:  DEPTH
 APD .m                  43.00:  DEPTH ABOVE PD
 WDMS.m                 169.80:  WD ELEV
 EGL .m                   0.00:  GROUND ELEVATION
 EPD .m                   0.00:  ELEVATION
 AZTC.deg                 6.31:  AZM TOTAL CORR
 GRDC.deg                 0.14:  GRID CORRECTION
 MDEC.deg                 6.45:  MAGNETIC DECL
 MDIP.deg                59.56:  MAGNETIC DIP
 MFLD.nT              50295.00:  MAGNETIC FIELD
 GVFD.g                   1.00:  GRAVITY FIELD
 VSDR.deg               179.88:  VERT SEC DIRECT
 TDD .m                5150.01:  TOTAL DEPTH (DRILLER)
 SDEP.m                 864.00:  START DEPTH
 DFSL.m                   0.00:  DISTANCE FSL
 DFWL.m                   0.00:  DISTANCE FWL
 UTMY.m             4443793.85:  UTM Y
 UTMX.m              519005.06:  UTM X
 WHEW.m                  -8.91:  WELL HEAD E/W
 WHNS.m                   9.43:  WELL HEAD N/S
 LONG.deg                51.22:  LONGITUDE
 LATI.deg                40.13:  LATITUDE
 TVDS.m                  43.00:  TVDSS CORRECTN
 EKB .m                   0.00:  KB ELEVATION
 EDF .m                  43.00:  DF ELEVATION
 TDL .m                 363.00:  TOTAL DEPTH (LOGGER)
 MAGU.                 1850802:  MAGUTM CHECKSUM
 VSC .                       0:  VS TO CLOSURE
~Parameter Information Block
#MNEM.UNIT       Value        Description
#---------     -----------    ---------------------------
 AV  .mps                 2.30:  Ann Velocity 
 AVMX.mps                 4.40:  Max Ann Veloc 
 AZIF.deg               110.24:  Azm, Final 
 BHAT.        Rotary Steerable:  BHA Type 
 BREV.rev               331.00:  Rev Bit Total 
 BROT.°/30m               0.00:  Build Rotating 
 BS  .in                  8.50:  Bit Size 
 BSZ .in                  8.50:  Bit Size 
 BTPL.psig              585.00:  Bit Press Loss 
 CABU.                     Yes:  Customer Abuse 
 COMM.                     |n\:  Run Comments 1 
 TCS .hr                122.75:  Time Ciculation Ended 
 CV  .mps                 2.67:  Crit Velocity 
 CVMX.mps                 3.56:  Max Crit Veloc 
 DD1 .          Rashad Habibov:  Direct Drillr 1 
 DD2 .         Rasim Ibrahimov:  Direct Drillr 2 
 DDSV.               Geo-Pilot:  DD Service 
 DEFF.%                  98.00:  % Det Eff 
 DLRX.°/30m               0.75:  Dogleg Rot Max 
 DLSO.°/30m               1.25:  Dogleg Oriented 
 DLSX.°/30m               2.06:  Dogleg Str Max 
 DRET.      07.45.00 17-May-20:  Drill End Time 
 DRST.      22.50.00 15-May-20:  Drill Start Tim 
 DTIM.hr                 20.75:  Time Drilling 
 EDEP.m                5124.01:  End Depth 
 ENG1.           Eldar Hajiyev:  Engineer 1 
 ENG2.        Marcelo Sandoval:  Engineer 2 
 ENG3.        Davud huseynzada:  Engineer 3 
 ENG4.          Ruslan Safarov:  Engineer 4 
 ETIM.      04.33.00 23-May-20:  End Time 
 FLOI.gpm               450.00:  Flow In 
 FLON.gpm               400.00:  Flow In Min 
 FLOS.cptm                0.00:  Fluid Loss 
 FLOX.gpm               500.00:  Flow In Max 
 FTRO.       Formation Presure:  FTWD Run Obj 
 HFLO.                      No:  High Flow 
 HPRE.                     Yes:  High Pressure 
 HTEM.                      No:  High Temp 
 HYDO.m                   1.80:  Hydro Offset 
 IFIN.deg                75.06:  Inc, Final 
 IMAX.deg                75.38:  Inc Max 
 IMIN.deg                74.69:  Inc Min 
 IMND.m                5027.38:  Inc Min Depth 
 IMXD.m                4771.61:  Inc Max Depth 
 JARR.                      No:  Jarring 
 LETM.      07.45.00 17-May-20:  Log End Time 
 LOST.hr                     0:  Lost Rig Time 
 LSTM.      22.50.00 15-May-20:  Log Start Time 
 MDCL.ppm             42000.00:  Mud Chlorides 
 MDES.     Inversion Oil/Synthetic:  Mud Desc 
 DFD .sg                  1.34:  Mud Density 
 MDMN.sg                  1.34:  Dens Mud Min 
 MDMX.sg                  1.34:  Dens Mud Max 
 MOIL.                       0:  Run Mud Oil % 
 MOWR.                   67:33:  Run Mud OWR 
 MSND.                       0:  Run Mud Sand % 
 MSOL.                     1.8:  Run Mud Solids% 
 DFV .spqt               76.00:  Mud Viscosity 
 MWOD.in                  6.75:  MWD Tool OD 
 MWSI.                      No:  Serv Intrp, MWD 
 OTIM.hr                228.19:  Time Operating 
 PCON.           Look Like New:  Pad Condition 
 PMAX.psia             6164.70:  Press Op, Max 
 PV  .cP                 28.00:  Mud PV 
 RUN .                     900:  Run Number 
 ROPA.m/hr               19.00:  ROP Avg 
 ROPN.m/hr               11.00:  ROP Min 
 ROPX.m/hr               36.00:  ROP Max 
 RPMA.rpm               120.00:  RPM Surface Avg 
 RPMN.rpm               120.00:  RPM Surface Min 
 RPMX.rpm               120.00:  RPM Surface Max 
 RRUN.                    L604:  Rig Run Number 
 RTIM.hr                  7.00:  Time Reaming 
 SAZI.deg               109.27:  Azm, Start 
 SDEP.m                4761.01:  Start Depth 
 SIDD.                      No:  Serv Intrp, DD 
 SINC.deg                75.38:  Inc, Start 
 SPPA.psig             3574.00:  SPP Avg 
 SPPN.psig             3475.00:  SPP Min 
 SPPX.psig             3791.00:  SPP Max 
 STIM.      07.08.48 13-May-20:  Start Time 
 SVCS.                 DD, MWD:  Services 
 SVER.                    9.20:  Sperry Version 
 TDAT.m                 363.00:  Tot Depth Attmp 
 TDDF.                      No:  Trip for DD 
 TDLG.m                 363.00:  Tot Depth Loggd 
 TFF .                      No:  Trip for Fail 
 TQAA.f-kp               20.00:  Torque Abs Avg 
 TQAN.f-kp               18.00:  Torque Abs Min 
 TQAX.f-kp               22.00:  Torque Abs Max 
 TRRT.°/30m              -0.35:  Turn Rotating 
 MRT .                    HCIM:  Maximum Recorded Temperature 
 TTMX.degC               92.16:  Max Tool Temp 
 VS01.                90586518:  Virtual Str1 SN 
 VS02.        AZ90560654Z1W1C6:  Virtual Str2 SN 
 VS03.           AZ90610398F11:  Virtual Str3 SN 
 VS04.                90514975:  Virtual Str4 SN 
 VS05.                90514972:  Virtual Str5 SN 
 VS06.     AZ90603282F11V7D1A6:  Virtual Str6 SN 
 WBMN.klb                 7.00:  WOB Min 
 WOBA.klb                12.00:  WOB Avg 
 WOBX.klb                14.00:  WOB Max 
 YP  .lhf2               32.00:  Yield Point 
~Curve Information Block
#MNEM.UNIT                 API CODE     Curve Description
#---------               -----------    ---------------------------
 TIME.HHMMSS            00 000 000 000:  GT Time & Date
 GTDEPTH.m              00 000 000 000:  GT Depth
 GTPQH.psia             00 000 000 000:  GT HR Quartz Pressure
 GTTQ.degC              00 000 000 000:  GT Quartz Temperature
 GTTN.NONE              00 000 000 000:  GT Test Number
 GTET.sec               00 000 000 000:  GT Elapsed Test Time
 GTTVD.m                00 000 000 000:  GT True Vertical Depth
#Other Information
#
#WARRANTY: Halliburton will use its best efforts to furnish customers with 
#accurate information and interpretations that are part of, and incident to, the services 
#provided.  However, Halliburton cannot and does not warrant the accuracy 
#or correctness of such information and interpretations.  Under no circumstances should any 
#such information or interpretation be relied upon as the sole basis for any drilling, 
#completion, production, or financial decision or any procedure involving any risk to the 
#safety of any drilling venture, drilling rig or its crew or any other third party.  The 
#Customer has full responsibility for all drilling, completion and production operation.  
#Halliburton makes no representations or warranties, either expressed or 
#implied, including, but not limited to, the implied warranties of merchantability or fitness 
#for a particular purpose, with respect to the services rendered.  In no event will 
#Halliburton be liable for failure to obtain any particular results or for 
#any damages, including, but not limited to, indirect, special or consequential damages, 
#resulting from the use of any information or interpretation provided by Halliburton.
#
~A           TIME           GTDEPTH  GTPQH  GTTQ  GTTN  GTET   GTTVD  
# ...
   17:26:02.362.17-May-2020 5032.01 5596.12 70.77 3.00  46.04 2600.96
   17:26:02.562.17-May-2020 5032.01 5596.12 70.77 3.00  46.24 2600.96
   17:26:02.762.17-May-2020 5032.01 5081.08 70.77 3.00  46.44 2600.96
   17:26:02.962.17-May-2020 5032.01 4273.72 70.77 3.00  46.64 2600.96
   17:26:03.162.17-May-2020 5032.01 3399.07 70.76 3.00  46.84 2600.96
   17:26:03.362.17-May-2020 5032.01 2597.30 70.76 3.00  47.04 2600.96
   17:26:03.563.17-May-2020 5032.01 2294.89 70.76 3.00  47.24 2600.96
   17:26:03.763.17-May-2020 5032.01 2608.31 70.76 3.00  47.44 2600.96
   17:26:03.963.17-May-2020 5032.01 2601.83 70.76 3.00  47.64 2600.96
   17:26:04.163.17-May-2020 5032.01 2605.47 70.76 3.00  47.84 2600.96
   17:26:04.363.17-May-2020 5032.01 2605.25 70.76 3.00  48.04 2600.96
   17:26:04.564.17-May-2020 5032.01 2605.25 70.76 3.00  48.25 2600.96
   17:26:04.764.17-May-2020 5032.01 2605.38 70.75 3.00  48.45 2600.96
   17:26:04.964.17-May-2020 5032.01 2606.21 70.75 3.00  48.65 2600.96
   17:26:05.164.17-May-2020 5032.01 2605.64 70.75 3.00  48.85 2600.96
   17:26:05.364.17-May-2020 5032.01 2605.11 70.75 3.00  49.05 2600.96
   17:26:05.565.17-May-2020 5032.01 2605.11 70.75 3.00  49.25 2600.96
   17:26:05.765.17-May-2020 5032.01 2605.34 70.74 3.00  49.45 2600.96
   17:26:05.965.17-May-2020 5032.01 2605.63 70.74 3.00  49.65 2600.96
   17:26:06.165.17-May-2020 5032.01 2605.68 70.74 3.00  49.85 2600.96
   17:26:06.365.17-May-2020 5032.01 2606.27 70.74 3.00  50.05 2600.96
   17:26:06.565.17-May-2020 5032.01 2606.27 70.74 3.00  50.25 2600.96
   17:26:06.766.17-May-2020 5032.01 2605.95 70.73 3.00  50.45 2600.96
   17:26:06.966.17-May-2020 5032.01 2606.31 70.73 3.00  50.65 2600.96
   17:26:07.166.17-May-2020 5032.01 2606.14 70.72 3.00  50.85 2600.96
   17:26:07.366.17-May-2020 5032.01 2605.96 70.72 3.00  51.05 2600.96
   17:26:07.566.17-May-2020 5032.01 2605.95 70.72 3.00  51.25 2600.96
   17:26:07.767.17-May-2020 5032.01 2605.99 70.72 3.00  51.45 2600.96
   17:26:07.967.17-May-2020 5032.01 2606.25 70.71 3.00  51.65 2600.96
   17:26:08.167.17-May-2020 5032.01 2606.46 70.71 3.00  51.85 2600.96
   17:26:08.367.17-May-2020 5032.01 2606.43 70.71 3.00  52.05 2600.96
   17:26:08.567.17-May-2020 5032.01 2606.51 70.71 3.00  52.25 2600.96
   17:26:08.768.17-May-2020 5032.01 2606.47 70.71 3.00  52.45 2600.96
   17:26:08.968.17-May-2020 5032.01 2606.05 70.70 3.00  52.65 2600.96
   17:26:09.168.17-May-2020 5032.01 2605.87 70.70 3.00  52.85 2600.96
   17:26:09.368.17-May-2020 5032.01 2606.51 70.70 3.00  53.05 2600.96
   17:26:09.568.17-May-2020 5032.01 2606.51 70.70 3.00  53.25 2600.96
   17:26:09.768.17-May-2020 5032.01 2606.37 70.70 3.00  53.45 2600.96
   17:26:09.969.17-May-2020 5032.01 2606.52 70.69 3.00  53.65 2600.96
   17:26:10.169.17-May-2020 5032.01 2606.77 70.69 3.00  53.85 2600.96
   17:26:10.369.17-May-2020 5032.01 2606.42 70.69 3.00  54.05 2600.96
   17:26:10.569.17-May-2020 5032.01 2606.42 70.69 3.00  54.25 2600.96
   17:26:10.769.17-May-2020 5032.01 2607.03 70.69 3.00  54.45 2600.96
   17:26:10.970.17-May-2020 5032.01 2606.70 70.69 3.00  54.65 2600.96
   17:26:11.170.17-May-2020 5032.01 2606.85 70.69 3.00  54.85 2600.96
   17:26:11.370.17-May-2020 5032.01 2607.44 70.68 3.00  55.05 2600.96
   17:26:11.570.17-May-2020 5032.01 2607.44 70.68 3.00  55.25 2600.96
   17:26:11.770.17-May-2020 5032.01 2608.20 70.68 3.00  55.45 2600.96
   17:26:11.971.17-May-2020 5032.01 2608.31 70.68 3.00  55.65 2600.96
   17:26:12.171.17-May-2020 5032.01 2608.28 70.68 3.00  55.85 2600.96
   17:26:12.371.17-May-2020 5032.01 2614.13 70.68 3.00  56.05 2600.96
   17:26:12.571.17-May-2020 5032.01 2637.15 70.68 3.00  56.25 2600.96
   17:26:12.771.17-May-2020 5032.01 2637.84 70.68 3.00  56.45 2600.96
   17:26:12.971.17-May-2020 5032.01 2637.67 70.68 3.00  56.65 2600.96
   17:26:13.172.17-May-2020 5032.01 2637.32 70.67 3.00  56.85 2600.96
   17:26:13.372.17-May-2020 5032.01 2637.25 70.67 3.00  57.05 2600.96
   17:26:13.572.17-May-2020 5032.01 2637.25 70.67 3.00  57.25 2600.96
   17:26:13.772.17-May-2020 5032.01 2637.35 70.67 3.00  57.45 2600.96
   17:26:13.972.17-May-2020 5032.01 2637.36 70.67 3.00  57.65 2600.96
   17:26:14.173.17-May-2020 5032.01 2637.35 70.67 3.00  57.85 2600.96
   17:26:14.373.17-May-2020 5032.01 2637.38 70.67 3.00  58.05 2600.96
   17:26:14.573.17-May-2020 5032.01 2637.38 70.67 3.00  58.25 2600.96
   17:26:14.773.17-May-2020 5032.01 2637.40 70.67 3.00  58.45 2600.96
   17:26:14.973.17-May-2020 5032.01 2637.49 70.67 3.00  58.65 2600.96
   17:26:15.174.17-May-2020 5032.01 2637.25 70.67 3.00  58.86 2600.96
   17:26:15.374.17-May-2020 5032.01 2637.23 70.67 3.00  59.06 2600.96
   17:26:15.574.17-May-2020 5032.01 2637.23 70.67 3.00  59.26 2600.96
   17:26:15.774.17-May-2020 5032.01 2637.30 70.67 3.00  59.46 2600.96
   17:26:15.974.17-May-2020 5032.01 2637.38 70.67 3.00  59.66 2600.96
   17:26:16.174.17-May-2020 5032.01 2637.44 70.67 3.00  59.86 2600.96
   17:26:16.375.17-May-2020 5032.01 2637.42 70.66 3.00  60.06 2600.96
   17:26:16.575.17-May-2020 5032.01 2637.42 70.66 3.00  60.26 2600.96
   17:26:16.775.17-May-2020 5032.01 2637.49 70.66 3.00  60.46 2600.96
   17:26:16.975.17-May-2020 5032.01 2637.46 70.66 3.00  60.66 2600.96
   17:26:17.175.17-May-2020 5032.01 2637.47 70.66 3.00  60.86 2600.96
   17:26:17.376.17-May-2020 5032.01 2637.23 70.67 3.00  61.06 2600.96
   17:26:17.576.17-May-2020 5032.01 2637.28 70.66 3.00  61.26 2600.96
   17:26:17.776.17-May-2020 5032.01 2637.28 70.66 3.00  61.46 2600.96
   17:26:17.976.17-May-2020 5032.01 2637.28 70.66 3.00  61.66 2600.96
   17:26:18.176.17-May-2020 5032.01 2637.36 70.66 3.00  61.86 2600.96
   17:26:18.377.17-May-2020 5032.01 2637.33 70.66 3.00  62.06 2600.96
   17:26:18.577.17-May-2020 5032.01 2637.33 70.66 3.00  62.26 2600.96
   17:26:18.777.17-May-2020 5032.01 2637.43 70.66 3.00  62.46 2600.96
   17:26:18.977.17-May-2020 5032.01 2637.38 70.66 3.00  62.66 2600.96
   17:26:19.177.17-May-2020 5032.01 2637.53 70.66 3.00  62.86 2600.96
   17:26:19.377.17-May-2020 5032.01 2637.41 70.66 3.00  63.06 2600.96
   17:26:19.578.17-May-2020 5032.01 2637.41 70.66 3.00  63.26 2600.96
   17:26:19.778.17-May-2020 5032.01 2637.50 70.66 3.00  63.46 2600.96
   17:26:19.978.17-May-2020 5032.01 2637.48 70.66 3.00  63.66 2600.96
   17:26:20.178.17-May-2020 5032.01 2637.54 70.66 3.00  63.86 2600.96
   17:26:20.378.17-May-2020 5032.01 2637.62 70.66 3.00  64.06 2600.96
   17:26:20.579.17-May-2020 5032.01 2637.62 70.66 3.00  64.26 2600.96
   17:26:20.779.17-May-2020 5032.01 2637.62 70.66 3.00  64.46 2600.96
   17:26:20.979.17-May-2020 5032.01 2637.66 70.66 3.00  64.66 2600.96
   17:26:21.179.17-May-2020 5032.01 2637.58 70.66 3.00  64.86 2600.96
   17:26:21.379.17-May-2020 5032.01 2637.64 70.66 3.00  65.06 2600.96
   17:26:21.580.17-May-2020 5032.01 2637.64 70.66 3.00  65.26 2600.96
   17:26:21.780.17-May-2020 5032.01 2637.46 70.66 3.00  65.46 2600.96
   17:26:21.980.17-May-2020 5032.01 2637.57 70.66 3.00  65.66 2600.96
   17:26:22.180.17-May-2020 5032.01 2637.65 70.66 3.00  65.86 2600.96
   17:26:22.380.17-May-2020 5032.01 2637.66 70.66 3.00  66.06 2600.96
   17:26:22.580.17-May-2020 5032.01 2637.66 70.66 3.00  66.26 2600.96
   17:26:22.781.17-May-2020 5032.01 2637.72 70.66 3.00  66.46 2600.96
   17:26:22.981.17-May-2020 5032.01 2637.74 70.66 3.00  66.66 2600.96
   17:26:23.181.17-May-2020 5032.01 2637.75 70.66 3.00  66.86 2600.96
   17:26:23.381.17-May-2020 5032.01 2637.65 70.66 3.00  67.06 2600.96
   17:26:23.581.17-May-2020 5032.01 2637.65 70.66 3.00  67.26 2600.96
   17:26:23.782.17-May-2020 5032.01 2637.58 70.66 3.00  67.46 2600.96
   17:26:23.982.17-May-2020 5032.01 2637.75 70.66 3.00  67.66 2600.96
   17:26:24.182.17-May-2020 5032.01 2637.61 70.66 3.00  67.86 2600.96
   17:26:24.382.17-May-2020 5032.01 2637.53 70.66 3.00  68.06 2600.96
   17:26:24.582.17-May-2020 5032.01 2637.53 70.66 3.00  68.26 2600.96
   17:26:24.783.17-May-2020 5032.01 2637.66 70.66 3.00  68.46 2600.96
   17:26:24.983.17-May-2020 5032.01 2637.61 70.66 3.00  68.66 2600.96
   17:26:25.183.17-May-2020 5032.01 2637.77 70.66 3.00  68.86 2600.96
