~Version Information
 VERS.                  2.0:   CWLS log ASCII Standard -VERSION 2.0
 WRAP.                   NO:   One line per depth step
~Well Information Block
#MNEM.UNIT     VALUE/NAME     DESCRIPTION
#---------     -----------    ---------------------------
 STRT.S             01:27:41 18-May-20: START TIME 01:27:41 18-May-20
 STOP.S             01:34:42 18-May-20: STOP TIME  01:34:42 18-May-20
 STEP.S                   0.00: STEP TIME
 NULL.                 -999.25: NULL VALUE
 UNIT.                     N/A:  LOGGING EQUIPMENT ID
 DCON.         Sperry Drilling:  DIRECTNL CONTR
 DOE .                     N/A:  DOE NUMBER
 JOBN.        AZ-XX-0906252240:  JOB TICKET NUMB
 MWDS.                     N/A:  MWD SHOP
 PROV.                    Baku:  PROVINCE
 STAT.                    Baku:  STATE NAME
 REGN.                   EESSA:  REGION
 BASE.              Azerbaijan:  LOGGING EQUIPMENT BASE LOCATION
 UWI .                     N/A:  UNIQUE WELL IDENTIFIER
 API .                     N/A:  API NUMBER
 MDS .        Operator Entered:  MAG DATA SOURCE
 WTYP.                Deviated:  WELL TYPE
 COMP.     BP Exploration (Caspian Sea) Ltd.:  COMPANY
 SRVC.          Turan Drilling:  CONTRACTOR
 WELL.           J23 (Slot 07):  WELL NAME
 CTRY.              Azerbaijan:  COUNTRY NAME
 FLD .                     ACG:  FIELD NAME
 PDAT.          Mean Sea Level:  PERMANENT DATUM
 RIG .             West Chirag:  RIG NAME
 SON .        AZ-XX-0906252240:  JOB NUMBER
 FTOP.          Formation Tops:  FORM TOPS DESC
 ILTD.               Lithology:  INTERP LTH DESC
 SVYD.                  Survey:  SURVEY DESC
 DMOD.             Drill Model:  DRILL MOD DESC
 HPTY.       Minimum Curvature:  HOLE POS TYPE
 NREF.                    Grid:  NORTH REFERENCE
 SPUD.               27-Aug-20:  SPUD DATE
 DATE.      00.00.00 19-May-20:  END TIME
 STIM.      03.00.00 25-Mar-20:  START TIME
 DMF .             Drill Floor:  DRILL MEAS FROM
 DFST.                        :  DIST FSL TEXT
 DFWT.                        :  DIST FWL TEXT
 CNTY.                        :  COUNTY
 LOC .                        :  LOCATION
 LMF .             Drill Floor:  LOG MEASURED FROM
 VSNS.m                   9.43:  VERT SEC N/S
 VSEW.m                  -8.91:  VERT SEC E/W
 AGAP.m                  43.00:  AIR GAP
 DEP .m                 354.17:  DEPTH
 APD .m                  43.00:  DEPTH ABOVE PD
 WDMS.m                 169.80:  WD ELEV
 EGL .m                   0.00:  GROUND ELEVATION
 EPD .m                   0.00:  ELEVATION
 AZTC.deg                 6.31:  AZM TOTAL CORR
 GRDC.deg                 0.14:  GRID CORRECTION
 MDEC.deg                 6.45:  MAGNETIC DECL
 MDIP.deg                59.56:  MAGNETIC DIP
 MFLD.nT              50295.00:  MAGNETIC FIELD
 GVFD.g                   1.00:  GRAVITY FIELD
 VSDR.deg               179.88:  VERT SEC DIRECT
 TDD .m                5150.01:  TOTAL DEPTH (DRILLER)
 SDEP.m                 864.00:  START DEPTH
 DFSL.m                   0.00:  DISTANCE FSL
 DFWL.m                   0.00:  DISTANCE FWL
 UTMY.m             4443793.85:  UTM Y
 UTMX.m              519005.06:  UTM X
 WHEW.m                  -8.91:  WELL HEAD E/W
 WHNS.m                   9.43:  WELL HEAD N/S
 LONG.deg                51.22:  LONGITUDE
 LATI.deg                40.13:  LATITUDE
 TVDS.m                  43.00:  TVDSS CORRECTN
 EKB .m                   0.00:  KB ELEVATION
 EDF .m                  43.00:  DF ELEVATION
 TDL .m                 363.00:  TOTAL DEPTH (LOGGER)
 MAGU.                 1850802:  MAGUTM CHECKSUM
 VSC .                       0:  VS TO CLOSURE
~Parameter Information Block
#MNEM.UNIT       Value        Description
#---------     -----------    ---------------------------
 AV  .mps                 2.30:  Ann Velocity 
 AVMX.mps                 4.40:  Max Ann Veloc 
 AZIF.deg               110.24:  Azm, Final 
 BHAT.        Rotary Steerable:  BHA Type 
 BREV.rev               331.00:  Rev Bit Total 
 BROT.°/30m               0.00:  Build Rotating 
 BS  .in                  8.50:  Bit Size 
 BSZ .in                  8.50:  Bit Size 
 BTPL.psig              585.00:  Bit Press Loss 
 CABU.                     Yes:  Customer Abuse 
 COMM.                     tPr:  Run Comments 1 
 TCS .hr                122.75:  Time Ciculation Ended 
 CV  .mps                 2.67:  Crit Velocity 
 CVMX.mps                 3.56:  Max Crit Veloc 
 DD1 .          Rashad Habibov:  Direct Drillr 1 
 DD2 .         Rasim Ibrahimov:  Direct Drillr 2 
 DDSV.               Geo-Pilot:  DD Service 
 DEFF.%                  98.00:  % Det Eff 
 DLRX.°/30m               0.75:  Dogleg Rot Max 
 DLSO.°/30m               1.25:  Dogleg Oriented 
 DLSX.°/30m               2.06:  Dogleg Str Max 
 DRET.      07.45.00 17-May-20:  Drill End Time 
 DRST.      22.50.00 15-May-20:  Drill Start Tim 
 DTIM.hr                 20.75:  Time Drilling 
 EDEP.m                5124.01:  End Depth 
 ENG1.           Eldar Hajiyev:  Engineer 1 
 ENG2.        Marcelo Sandoval:  Engineer 2 
 ENG3.        Davud huseynzada:  Engineer 3 
 ENG4.          Ruslan Safarov:  Engineer 4 
 ETIM.      04.33.00 23-May-20:  End Time 
 FLOI.gpm               450.00:  Flow In 
 FLON.gpm               400.00:  Flow In Min 
 FLOS.cptm                0.00:  Fluid Loss 
 FLOX.gpm               500.00:  Flow In Max 
 FTRO.       Formation Presure:  FTWD Run Obj 
 HFLO.                      No:  High Flow 
 HPRE.                     Yes:  High Pressure 
 HTEM.                      No:  High Temp 
 HYDO.m                   1.80:  Hydro Offset 
 IFIN.deg                75.06:  Inc, Final 
 IMAX.deg                75.38:  Inc Max 
 IMIN.deg                74.69:  Inc Min 
 IMND.m                5027.38:  Inc Min Depth 
 IMXD.m                4771.61:  Inc Max Depth 
 JARR.                      No:  Jarring 
 LETM.      07.45.00 17-May-20:  Log End Time 
 LOST.hr                     0:  Lost Rig Time 
 LSTM.      22.50.00 15-May-20:  Log Start Time 
 MDCL.ppm             42000.00:  Mud Chlorides 
 MDES.     Inversion Oil/Synthetic:  Mud Desc 
 DFD .sg                  1.34:  Mud Density 
 MDMN.sg                  1.34:  Dens Mud Min 
 MDMX.sg                  1.34:  Dens Mud Max 
 MOIL.                       0:  Run Mud Oil % 
 MOWR.                   67:33:  Run Mud OWR 
 MSND.                       0:  Run Mud Sand % 
 MSOL.                     1.8:  Run Mud Solids% 
 DFV .spqt               76.00:  Mud Viscosity 
 MWOD.in                  6.75:  MWD Tool OD 
 MWSI.                      No:  Serv Intrp, MWD 
 OTIM.hr                228.19:  Time Operating 
 PCON.           Look Like New:  Pad Condition 
 PMAX.psia             6164.70:  Press Op, Max 
 PV  .cP                 28.00:  Mud PV 
 RUN .                     900:  Run Number 
 ROPA.m/hr               19.00:  ROP Avg 
 ROPN.m/hr               11.00:  ROP Min 
 ROPX.m/hr               36.00:  ROP Max 
 RPMA.rpm               120.00:  RPM Surface Avg 
 RPMN.rpm               120.00:  RPM Surface Min 
 RPMX.rpm               120.00:  RPM Surface Max 
 RRUN.                    L604:  Rig Run Number 
 RTIM.hr                  7.00:  Time Reaming 
 SAZI.deg               109.27:  Azm, Start 
 SDEP.m                4761.01:  Start Depth 
 SIDD.                      No:  Serv Intrp, DD 
 SINC.deg                75.38:  Inc, Start 
 SPPA.psig             3574.00:  SPP Avg 
 SPPN.psig             3475.00:  SPP Min 
 SPPX.psig             3791.00:  SPP Max 
 STIM.      07.08.48 13-May-20:  Start Time 
 SVCS.                 DD, MWD:  Services 
 SVER.                    9.20:  Sperry Version 
 TDAT.m                 363.00:  Tot Depth Attmp 
 TDDF.                      No:  Trip for DD 
 TDLG.m                 363.00:  Tot Depth Loggd 
 TFF .                      No:  Trip for Fail 
 TQAA.f-kp               20.00:  Torque Abs Avg 
 TQAN.f-kp               18.00:  Torque Abs Min 
 TQAX.f-kp               22.00:  Torque Abs Max 
 TRRT.°/30m              -0.35:  Turn Rotating 
 MRT .                    HCIM:  Maximum Recorded Temperature 
 TTMX.degC               92.16:  Max Tool Temp 
 VS01.                90586518:  Virtual Str1 SN 
 VS02.        AZ90560654Z1W1C6:  Virtual Str2 SN 
 VS03.           AZ90610398F11:  Virtual Str3 SN 
 VS04.                90514975:  Virtual Str4 SN 
 VS05.                90514972:  Virtual Str5 SN 
 VS06.     AZ90603282F11V7D1A6:  Virtual Str6 SN 
 WBMN.klb                 7.00:  WOB Min 
 WOBA.klb                12.00:  WOB Avg 
 WOBX.klb                14.00:  WOB Max 
 YP  .lhf2               32.00:  Yield Point 
~Curve Information Block
#MNEM.UNIT                 API CODE     Curve Description
#---------               -----------    ---------------------------
 TIME.HHMMSS            00 000 000 000:  GT Time & Date
 GTDEPTH.m              00 000 000 000:  GT Depth
 GTPQH.psia             00 000 000 000:  GT HR Quartz Pressure
 GTTQ.degC              00 000 000 000:  GT Quartz Temperature
 GTTN.NONE              00 000 000 000:  GT Test Number
 GTET.sec               00 000 000 000:  GT Elapsed Test Time
 GTTVD.m                00 000 000 000:  GT True Vertical Depth
#Other Information
#
#WARRANTY: Halliburton will use its best efforts to furnish customers with 
#accurate information and interpretations that are part of, and incident to, the services 
#provided.  However, Halliburton cannot and does not warrant the accuracy 
#or correctness of such information and interpretations.  Under no circumstances should any 
#such information or interpretation be relied upon as the sole basis for any drilling, 
#completion, production, or financial decision or any procedure involving any risk to the 
#safety of any drilling venture, drilling rig or its crew or any other third party.  The 
#Customer has full responsibility for all drilling, completion and production operation.  
#Halliburton makes no representations or warranties, either expressed or 
#implied, including, but not limited to, the implied warranties of merchantability or fitness 
#for a particular purpose, with respect to the services rendered.  In no event will 
#Halliburton be liable for failure to obtain any particular results or for 
#any damages, including, but not limited to, indirect, special or consequential damages, 
#resulting from the use of any information or interpretation provided by Halliburton.
#
~A           TIME           GTDEPTH  GTPQH  GTTQ  GTTN   GTET   GTTVD  
# ...
   01:32:58.368.18-May-2020 4854.01 3158.12 66.50 11.00 316.53 2555.10
   01:32:58.569.18-May-2020 4854.01 3158.04 66.50 11.00 316.73 2555.10
   01:32:58.769.18-May-2020 4854.01 3158.13 66.50 11.00 316.93 2555.10
   01:32:58.969.18-May-2020 4854.01 3158.22 66.50 11.00 317.13 2555.10
   01:32:59.169.18-May-2020 4854.01 3158.22 66.50 11.00 317.33 2555.10
   01:32:59.369.18-May-2020 4854.01 3158.13 66.50 11.00 317.53 2555.10
   01:32:59.569.18-May-2020 4854.01 3158.12 66.50 11.00 317.73 2555.10
   01:32:59.769.18-May-2020 4854.01 3158.11 66.50 11.00 317.93 2555.10
   01:32:59.969.18-May-2020 4854.01 3158.12 66.50 11.00 318.13 2555.10
   01:33:00.169.18-May-2020 4854.01 3158.12 66.50 11.00 318.33 2555.10
   01:33:00.369.18-May-2020 4854.01 3158.12 66.50 11.00 318.53 2555.10
   01:33:00.569.18-May-2020 4854.01 3158.11 66.50 11.00 318.73 2555.10
   01:33:00.769.18-May-2020 4854.01 3158.28 66.50 11.00 318.93 2555.10
   01:33:00.970.18-May-2020 4854.01 3157.98 66.50 11.00 319.13 2555.10
   01:33:01.170.18-May-2020 4854.01 3157.98 66.50 11.00 319.33 2555.10
   01:33:01.370.18-May-2020 4854.01 3158.38 66.50 11.00 319.53 2555.10
   01:33:01.570.18-May-2020 4854.01 3157.96 66.50 11.00 319.73 2555.10
   01:33:01.770.18-May-2020 4854.01 3158.12 66.50 11.00 319.93 2555.10
   01:33:01.970.18-May-2020 4854.01 3158.21 66.50 11.00 320.13 2555.10
   01:33:02.170.18-May-2020 4854.01 3158.21 66.50 11.00 320.33 2555.10
   01:33:02.370.18-May-2020 4854.01 3158.24 66.50 11.00 320.53 2555.10
   01:33:02.570.18-May-2020 4854.01 3158.03 66.50 11.00 320.73 2555.10
   01:33:02.770.18-May-2020 4854.01 3158.11 66.50 11.00 320.93 2555.10
   01:33:02.970.18-May-2020 4854.01 3158.19 66.50 11.00 321.13 2555.10
   01:33:03.170.18-May-2020 4854.01 3158.19 66.50 11.00 321.33 2555.10
   01:33:03.370.18-May-2020 4854.01 3158.13 66.50 11.00 321.53 2555.10
   01:33:03.571.18-May-2020 4854.01 3158.04 66.50 11.00 321.73 2555.10
   01:33:03.771.18-May-2020 4854.01 3158.17 66.50 11.00 321.93 2555.10
   01:33:03.971.18-May-2020 4854.01 3158.12 66.50 11.00 322.13 2555.10
   01:33:04.171.18-May-2020 4854.01 3158.12 66.50 11.00 322.33 2555.10
   01:33:04.371.18-May-2020 4854.01 3158.11 66.50 11.00 322.53 2555.10
   01:33:04.571.18-May-2020 4854.01 3158.09 66.50 11.00 322.73 2555.10
   01:33:04.771.18-May-2020 4854.01 3158.13 66.50 11.00 322.93 2555.10
   01:33:04.971.18-May-2020 4854.01 3158.10 66.50 11.00 323.13 2555.10
   01:33:05.171.18-May-2020 4854.01 3158.10 66.50 11.00 323.33 2555.10
   01:33:05.371.18-May-2020 4854.01 3157.95 66.50 11.00 323.53 2555.10
   01:33:05.571.18-May-2020 4854.01 3158.14 66.50 11.00 323.73 2555.10
   01:33:05.771.18-May-2020 4854.01 3158.18 66.50 11.00 323.93 2555.10
   01:33:05.972.18-May-2020 4854.01 3158.10 66.50 11.00 324.13 2555.10
   01:33:06.172.18-May-2020 4854.01 3158.10 66.50 11.00 324.33 2555.10
   01:33:06.372.18-May-2020 4854.01 3158.13 66.50 11.00 324.53 2555.10
   01:33:06.572.18-May-2020 4854.01 3158.11 66.50 11.00 324.73 2555.10
   01:33:06.772.18-May-2020 4854.01 3158.11 66.50 11.00 324.93 2555.10
   01:33:06.972.18-May-2020 4854.01 3158.10 66.50 11.00 325.13 2555.10
   01:33:07.172.18-May-2020 4854.01 3158.10 66.50 11.00 325.33 2555.10
   01:33:07.372.18-May-2020 4854.01 3158.20 66.50 11.00 325.53 2555.10
   01:33:07.572.18-May-2020 4854.01 3158.15 66.50 11.00 325.73 2555.10
   01:33:07.772.18-May-2020 4854.01 3158.05 66.50 11.00 325.93 2555.10
   01:33:07.972.18-May-2020 4854.01 3158.35 66.50 11.00 326.13 2555.10
   01:33:08.172.18-May-2020 4854.01 3158.35 66.50 11.00 326.33 2555.10
   01:33:08.372.18-May-2020 4854.01 3158.07 66.50 11.00 326.53 2555.10
   01:33:08.573.18-May-2020 4854.01 3158.17 66.50 11.00 326.73 2555.10
   01:33:08.773.18-May-2020 4854.01 3158.12 66.50 11.00 326.93 2555.10
   01:33:08.973.18-May-2020 4854.01 3158.34 66.50 11.00 327.13 2555.10
   01:33:09.173.18-May-2020 4854.01 3158.34 66.50 11.00 327.33 2555.10
   01:33:09.373.18-May-2020 4854.01 3158.07 66.50 11.00 327.53 2555.10
   01:33:09.573.18-May-2020 4854.01 3158.20 66.50 11.00 327.73 2555.10
   01:33:09.773.18-May-2020 4854.01 3158.15 66.50 11.00 327.93 2555.10
   01:33:09.973.18-May-2020 4854.01 3158.12 66.50 11.00 328.13 2555.10
   01:33:10.173.18-May-2020 4854.01 3158.12 66.50 11.00 328.33 2555.10
   01:33:10.373.18-May-2020 4854.01 3158.10 66.50 11.00 328.53 2555.10
   01:33:10.573.18-May-2020 4854.01 3158.12 66.50 11.00 328.73 2555.10
   01:33:10.773.18-May-2020 4854.01 3158.12 66.50 11.00 328.93 2555.10
   01:33:10.974.18-May-2020 4854.01 3158.11 66.50 11.00 329.13 2555.10
   01:33:11.174.18-May-2020 4854.01 3158.11 66.50 11.00 329.33 2555.10
   01:33:11.374.18-May-2020 4854.01 3158.11 66.50 11.00 329.53 2555.10
   01:33:11.574.18-May-2020 4854.01 3158.11 66.50 11.00 329.73 2555.10
   01:33:11.774.18-May-2020 4854.01 3158.31 66.50 11.00 329.93 2555.10
   01:33:11.974.18-May-2020 4854.01 3157.97 66.50 11.00 330.13 2555.10
   01:33:12.174.18-May-2020 4854.01 3157.97 66.50 11.00 330.33 2555.10
   01:33:12.374.18-May-2020 4854.01 3158.18 66.50 11.00 330.53 2555.10
   01:33:12.574.18-May-2020 4854.01 3158.14 66.50 11.00 330.73 2555.10
   01:33:12.774.18-May-2020 4854.01 3158.09 66.50 11.00 330.93 2555.10
   01:33:12.974.18-May-2020 4854.01 3158.11 66.50 11.00 331.13 2555.10
   01:33:13.174.18-May-2020 4854.01 3158.11 66.50 11.00 331.33 2555.10
   01:33:13.375.18-May-2020 4854.01 3158.11 66.50 11.00 331.53 2555.10
   01:33:13.575.18-May-2020 4854.01 3158.12 66.50 11.00 331.73 2555.10
   01:33:13.775.18-May-2020 4854.01 3158.10 66.50 11.00 331.93 2555.10
   01:33:13.975.18-May-2020 4854.01 3158.12 66.50 11.00 332.13 2555.10
   01:33:14.175.18-May-2020 4854.01 3158.12 66.50 11.00 332.33 2555.10
   01:33:14.375.18-May-2020 4854.01 3158.10 66.50 11.00 332.53 2555.10
   01:33:14.575.18-May-2020 4854.01 3158.12 66.50 11.00 332.73 2555.10
   01:33:14.775.18-May-2020 4854.01 3158.24 66.50 11.00 332.93 2555.10
   01:33:14.975.18-May-2020 4854.01 3158.08 66.50 11.00 333.13 2555.10
   01:33:15.175.18-May-2020 4854.01 3158.08 66.50 11.00 333.33 2555.10
   01:33:15.375.18-May-2020 4854.01 3158.12 66.50 11.00 333.53 2555.10
   01:33:15.575.18-May-2020 4854.01 3158.17 66.49 11.00 333.73 2555.10
   01:33:15.775.18-May-2020 4854.01 3158.17 66.50 11.00 333.93 2555.10
   01:33:15.976.18-May-2020 4854.01 3158.03 66.49 11.00 334.13 2555.10
   01:33:16.176.18-May-2020 4854.01 3158.03 66.49 11.00 334.33 2555.10
   01:33:16.376.18-May-2020 4854.01 3157.94 66.49 11.00 334.53 2555.10
   01:33:16.576.18-May-2020 4854.01 3158.10 66.49 11.00 334.73 2555.10
   01:33:16.776.18-May-2020 4854.01 3158.19 66.49 11.00 334.94 2555.10
   01:33:16.976.18-May-2020 4854.01 3158.08 66.49 11.00 335.14 2555.10
   01:33:17.176.18-May-2020 4854.01 3158.08 66.49 11.00 335.34 2555.10
   01:33:17.376.18-May-2020 4854.01 3158.11 66.49 11.00 335.54 2555.10
   01:33:17.576.18-May-2020 4854.01 3158.10 66.49 11.00 335.74 2555.10
   01:33:17.776.18-May-2020 4854.01 3158.11 66.49 11.00 335.94 2555.10
   01:33:17.976.18-May-2020 4854.01 3158.12 66.49 11.00 336.14 2555.10
   01:33:18.176.18-May-2020 4854.01 3158.12 66.49 11.00 336.34 2555.10
   01:33:18.377.18-May-2020 4854.01 3158.10 66.49 11.00 336.54 2555.10
   01:33:18.577.18-May-2020 4854.01 3158.21 66.49 11.00 336.74 2555.10
   01:33:18.777.18-May-2020 4854.01 3158.07 66.49 11.00 336.94 2555.10
   01:33:18.977.18-May-2020 4854.01 3158.13 66.49 11.00 337.14 2555.10
   01:33:19.177.18-May-2020 4854.01 3158.13 66.49 11.00 337.34 2555.10
   01:33:19.377.18-May-2020 4854.01 3158.11 66.49 11.00 337.54 2555.10
   01:33:19.577.18-May-2020 4854.01 3158.10 66.49 11.00 337.74 2555.10
   01:33:19.777.18-May-2020 4854.01 3158.10 66.49 11.00 337.94 2555.10
   01:33:19.977.18-May-2020 4854.01 3158.12 66.49 11.00 338.14 2555.10
   01:33:20.177.18-May-2020 4854.01 3158.12 66.49 11.00 338.34 2555.10
   01:33:20.377.18-May-2020 4854.01 3158.31 66.49 11.00 338.54 2555.10
   01:33:20.577.18-May-2020 4854.01 3157.92 66.49 11.00 338.74 2555.10
   01:33:20.777.18-May-2020 4854.01 3158.12 66.49 11.00 338.94 2555.10
