~Version Information
 VERS.                  2.0:   CWLS log ASCII Standard -VERSION 2.0
 WRAP.                   NO:   One line per depth step
~Well Information Block
#MNEM.UNIT     VALUE/NAME     DESCRIPTION
#---------     -----------    ---------------------------
 STRT.S             03:21:16 18-May-20: START TIME 03:21:16 18-May-20
 STOP.S             03:28:29 18-May-20: STOP TIME  03:28:29 18-May-20
 STEP.S                   0.00: STEP TIME
 NULL.                 -999.25: NULL VALUE
 UNIT.                     N/A:  LOGGING EQUIPMENT ID
 DCON.         Sperry Drilling:  DIRECTNL CONTR
 DOE .                     N/A:  DOE NUMBER
 JOBN.        AZ-XX-0906252240:  JOB TICKET NUMB
 MWDS.                     N/A:  MWD SHOP
 PROV.                    Baku:  PROVINCE
 STAT.                    Baku:  STATE NAME
 REGN.                   EESSA:  REGION
 BASE.              Azerbaijan:  LOGGING EQUIPMENT BASE LOCATION
 UWI .                     N/A:  UNIQUE WELL IDENTIFIER
 API .                     N/A:  API NUMBER
 MDS .        Operator Entered:  MAG DATA SOURCE
 WTYP.                Deviated:  WELL TYPE
 COMP.     BP Exploration (Caspian Sea) Ltd.:  COMPANY
 SRVC.          Turan Drilling:  CONTRACTOR
 WELL.           J23 (Slot 07):  WELL NAME
 CTRY.              Azerbaijan:  COUNTRY NAME
 FLD .                     ACG:  FIELD NAME
 PDAT.          Mean Sea Level:  PERMANENT DATUM
 RIG .             West Chirag:  RIG NAME
 SON .        AZ-XX-0906252240:  JOB NUMBER
 FTOP.          Formation Tops:  FORM TOPS DESC
 ILTD.               Lithology:  INTERP LTH DESC
 SVYD.                  Survey:  SURVEY DESC
 DMOD.             Drill Model:  DRILL MOD DESC
 HPTY.       Minimum Curvature:  HOLE POS TYPE
 NREF.                    Grid:  NORTH REFERENCE
 SPUD.               27-Aug-20:  SPUD DATE
 DATE.      00.00.00 19-May-20:  END TIME
 STIM.      03.00.00 25-Mar-20:  START TIME
 DMF .             Drill Floor:  DRILL MEAS FROM
 DFST.                        :  DIST FSL TEXT
 DFWT.                        :  DIST FWL TEXT
 CNTY.                        :  COUNTY
 LOC .                        :  LOCATION
 LMF .             Drill Floor:  LOG MEASURED FROM
 VSNS.m                   9.43:  VERT SEC N/S
 VSEW.m                  -8.91:  VERT SEC E/W
 AGAP.m                  43.00:  AIR GAP
 DEP .m                 354.17:  DEPTH
 APD .m                  43.00:  DEPTH ABOVE PD
 WDMS.m                 169.80:  WD ELEV
 EGL .m                   0.00:  GROUND ELEVATION
 EPD .m                   0.00:  ELEVATION
 AZTC.deg                 6.31:  AZM TOTAL CORR
 GRDC.deg                 0.14:  GRID CORRECTION
 MDEC.deg                 6.45:  MAGNETIC DECL
 MDIP.deg                59.56:  MAGNETIC DIP
 MFLD.nT              50295.00:  MAGNETIC FIELD
 GVFD.g                   1.00:  GRAVITY FIELD
 VSDR.deg               179.88:  VERT SEC DIRECT
 TDD .m                5150.01:  TOTAL DEPTH (DRILLER)
 SDEP.m                 864.00:  START DEPTH
 DFSL.m                   0.00:  DISTANCE FSL
 DFWL.m                   0.00:  DISTANCE FWL
 UTMY.m             4443793.85:  UTM Y
 UTMX.m              519005.06:  UTM X
 WHEW.m                  -8.91:  WELL HEAD E/W
 WHNS.m                   9.43:  WELL HEAD N/S
 LONG.deg                51.22:  LONGITUDE
 LATI.deg                40.13:  LATITUDE
 TVDS.m                  43.00:  TVDSS CORRECTN
 EKB .m                   0.00:  KB ELEVATION
 EDF .m                  43.00:  DF ELEVATION
 TDL .m                 363.00:  TOTAL DEPTH (LOGGER)
 MAGU.                 1850802:  MAGUTM CHECKSUM
 VSC .                       0:  VS TO CLOSURE
~Parameter Information Block
#MNEM.UNIT       Value        Description
#---------     -----------    ---------------------------
 AV  .mps                 2.30:  Ann Velocity 
 AVMX.mps                 4.40:  Max Ann Veloc 
 AZIF.deg               110.24:  Azm, Final 
 BHAT.        Rotary Steerable:  BHA Type 
 BREV.rev               331.00:  Rev Bit Total 
 BROT.°/30m               0.00:  Build Rotating 
 BS  .in                  8.50:  Bit Size 
 BSZ .in                  8.50:  Bit Size 
 BTPL.psig              585.00:  Bit Press Loss 
 CABU.                     Yes:  Customer Abuse 
 TCS .hr                122.75:  Time Ciculation Ended 
 CV  .mps                 2.67:  Crit Velocity 
 CVMX.mps                 3.56:  Max Crit Veloc 
 DD1 .          Rashad Habibov:  Direct Drillr 1 
 DD2 .         Rasim Ibrahimov:  Direct Drillr 2 
 DDSV.               Geo-Pilot:  DD Service 
 DEFF.%                  98.00:  % Det Eff 
 DLRX.°/30m               0.75:  Dogleg Rot Max 
 DLSO.°/30m               1.25:  Dogleg Oriented 
 DLSX.°/30m               2.06:  Dogleg Str Max 
 DRET.      07.45.00 17-May-20:  Drill End Time 
 DRST.      22.50.00 15-May-20:  Drill Start Tim 
 DTIM.hr                 20.75:  Time Drilling 
 EDEP.m                5124.01:  End Depth 
 ENG1.           Eldar Hajiyev:  Engineer 1 
 ENG2.        Marcelo Sandoval:  Engineer 2 
 ENG3.        Davud huseynzada:  Engineer 3 
 ENG4.          Ruslan Safarov:  Engineer 4 
 ETIM.      04.33.00 23-May-20:  End Time 
 FLOI.gpm               450.00:  Flow In 
 FLON.gpm               400.00:  Flow In Min 
 FLOS.cptm                0.00:  Fluid Loss 
 FLOX.gpm               500.00:  Flow In Max 
 FTRO.       Formation Presure:  FTWD Run Obj 
 HFLO.                      No:  High Flow 
 HPRE.                     Yes:  High Pressure 
 HTEM.                      No:  High Temp 
 HYDO.m                   1.80:  Hydro Offset 
 IFIN.deg                75.06:  Inc, Final 
 IMAX.deg                75.38:  Inc Max 
 IMIN.deg                74.69:  Inc Min 
 IMND.m                5027.38:  Inc Min Depth 
 IMXD.m                4771.61:  Inc Max Depth 
 JARR.                      No:  Jarring 
 LETM.      07.45.00 17-May-20:  Log End Time 
 LOST.hr                     0:  Lost Rig Time 
 LSTM.      22.50.00 15-May-20:  Log Start Time 
 MDCL.ppm             42000.00:  Mud Chlorides 
 MDES.     Inversion Oil/Synthetic:  Mud Desc 
 DFD .sg                  1.34:  Mud Density 
 MDMN.sg                  1.34:  Dens Mud Min 
 MDMX.sg                  1.34:  Dens Mud Max 
 MOIL.                       0:  Run Mud Oil % 
 MOWR.                   67:33:  Run Mud OWR 
 MSND.                       0:  Run Mud Sand % 
 MSOL.                     1.8:  Run Mud Solids% 
 DFV .spqt               76.00:  Mud Viscosity 
 MWOD.in                  6.75:  MWD Tool OD 
 MWSI.                      No:  Serv Intrp, MWD 
 OTIM.hr                228.19:  Time Operating 
 PCON.           Look Like New:  Pad Condition 
 PMAX.psia             6164.70:  Press Op, Max 
 PV  .cP                 28.00:  Mud PV 
 RUN .                     900:  Run Number 
 ROPA.m/hr               19.00:  ROP Avg 
 ROPN.m/hr               11.00:  ROP Min 
 ROPX.m/hr               36.00:  ROP Max 
 RPMA.rpm               120.00:  RPM Surface Avg 
 RPMN.rpm               120.00:  RPM Surface Min 
 RPMX.rpm               120.00:  RPM Surface Max 
 RRUN.                    L604:  Rig Run Number 
 RTIM.hr                  7.00:  Time Reaming 
 SAZI.deg               109.27:  Azm, Start 
 SDEP.m                4761.01:  Start Depth 
 SIDD.                      No:  Serv Intrp, DD 
 SINC.deg                75.38:  Inc, Start 
 SPPA.psig             3574.00:  SPP Avg 
 SPPN.psig             3475.00:  SPP Min 
 SPPX.psig             3791.00:  SPP Max 
 STIM.      07.08.48 13-May-20:  Start Time 
 SVCS.                 DD, MWD:  Services 
 SVER.                    9.20:  Sperry Version 
 TDAT.m                 363.00:  Tot Depth Attmp 
 TDDF.                      No:  Trip for DD 
 TDLG.m                 363.00:  Tot Depth Loggd 
 TFF .                      No:  Trip for Fail 
 TQAA.f-kp               20.00:  Torque Abs Avg 
 TQAN.f-kp               18.00:  Torque Abs Min 
 TQAX.f-kp               22.00:  Torque Abs Max 
 TRRT.°/30m              -0.35:  Turn Rotating 
 MRT .                    HCIM:  Maximum Recorded Temperature 
 TTMX.degC               92.16:  Max Tool Temp 
 VS01.                90586518:  Virtual Str1 SN 
 VS02.        AZ90560654Z1W1C6:  Virtual Str2 SN 
 VS03.           AZ90610398F11:  Virtual Str3 SN 
 VS04.                90514975:  Virtual Str4 SN 
 VS05.                90514972:  Virtual Str5 SN 
 VS06.     AZ90603282F11V7D1A6:  Virtual Str6 SN 
 WBMN.klb                 7.00:  WOB Min 
 WOBA.klb                12.00:  WOB Avg 
 WOBX.klb                14.00:  WOB Max 
 YP  .lhf2               32.00:  Yield Point 
~Curve Information Block
#MNEM.UNIT                 API CODE     Curve Description
#---------               -----------    ---------------------------
 TIME.HHMMSS            00 000 000 000:  GT Time & Date
 GTDEPTH.m              00 000 000 000:  GT Depth
 GTPQH.psia             00 000 000 000:  GT HR Quartz Pressure
 GTTQ.degC              00 000 000 000:  GT Quartz Temperature
 GTTN.NONE              00 000 000 000:  GT Test Number
 GTET.sec               00 000 000 000:  GT Elapsed Test Time
 GTTVD.m                00 000 000 000:  GT True Vertical Depth
#Other Information
#
#WARRANTY: Halliburton will use its best efforts to furnish customers with 
#accurate information and interpretations that are part of, and incident to, the services 
#provided.  However, Halliburton cannot and does not warrant the accuracy 
#or correctness of such information and interpretations.  Under no circumstances should any 
#such information or interpretation be relied upon as the sole basis for any drilling, 
#completion, production, or financial decision or any procedure involving any risk to the 
#safety of any drilling venture, drilling rig or its crew or any other third party.  The 
#Customer has full responsibility for all drilling, completion and production operation.  
#Halliburton makes no representations or warranties, either expressed or 
#implied, including, but not limited to, the implied warranties of merchantability or fitness 
#for a particular purpose, with respect to the services rendered.  In no event will 
#Halliburton be liable for failure to obtain any particular results or for 
#any damages, including, but not limited to, indirect, special or consequential damages, 
#resulting from the use of any information or interpretation provided by Halliburton.
#
~A           TIME           GTDEPTH  GTPQH  GTTQ  GTTN   GTET   GTTVD  
   03:21:16.589.18-May-2020 4797.01 5415.74 66.06 13.00   0.00 2540.22
   03:21:16.789.18-May-2020 4797.01 5415.74 66.06 13.00   0.20 2540.22
   03:21:16.989.18-May-2020 4797.01 5423.70 66.06 13.00   0.40 2540.22
   03:21:17.189.18-May-2020 4797.01 5416.71 66.06 13.00   0.60 2540.22
   03:21:17.389.18-May-2020 4797.01 5417.28 66.06 13.00   0.80 2540.22
   03:21:17.589.18-May-2020 4797.01 5435.09 66.06 13.00   1.00 2540.22
   03:21:17.790.18-May-2020 4797.01 5435.09 66.06 13.00   1.20 2540.22
   03:21:17.990.18-May-2020 4797.01 5418.16 66.06 13.00   1.40 2540.22
   03:21:18.190.18-May-2020 4797.01 5420.42 66.06 13.00   1.60 2540.22
   03:21:18.390.18-May-2020 4797.01 5423.93 66.06 13.00   1.80 2540.22
   03:21:18.590.18-May-2020 4797.01 5432.04 66.06 13.00   2.00 2540.22
   03:21:18.790.18-May-2020 4797.01 5432.04 66.06 13.00   2.20 2540.22
   03:21:18.990.18-May-2020 4797.01 5420.15 66.06 13.00   2.40 2540.22
   03:21:19.190.18-May-2020 4797.01 5421.66 66.06 13.00   2.60 2540.22
   03:21:19.390.18-May-2020 4797.01 5438.44 66.06 13.00   2.80 2540.22
   03:21:19.590.18-May-2020 4797.01 5423.19 66.06 13.00   3.00 2540.22
   03:21:19.790.18-May-2020 4797.01 5423.19 66.06 13.00   3.20 2540.22
   03:21:19.990.18-May-2020 4797.01 5425.51 66.06 13.00   3.40 2540.22
   03:21:20.191.18-May-2020 4797.01 5428.80 66.06 13.00   3.60 2540.22
   03:21:20.391.18-May-2020 4797.01 5436.39 66.06 13.00   3.80 2540.22
   03:21:20.591.18-May-2020 4797.01 5424.26 66.06 13.00   4.00 2540.22
   03:21:20.791.18-May-2020 4797.01 5424.26 66.06 13.00   4.20 2540.22
   03:21:20.991.18-May-2020 4797.01 5440.81 66.06 13.00   4.40 2540.22
   03:21:21.191.18-May-2020 4797.01 5429.25 66.06 13.00   4.60 2540.22
   03:21:21.391.18-May-2020 4797.01 5426.67 66.06 13.00   4.80 2540.22
   03:21:21.591.18-May-2020 4797.01 5427.11 66.06 13.00   5.00 2540.22
   03:21:21.791.18-May-2020 4797.01 5427.11 66.06 13.00   5.20 2540.22
   03:21:21.991.18-May-2020 4797.01 5428.22 66.06 13.00   5.40 2540.22
   03:21:22.191.18-May-2020 4797.01 5426.67 66.06 13.00   5.60 2540.22
   03:21:22.391.18-May-2020 4797.01 5427.55 66.06 13.00   5.80 2540.22
   03:21:22.591.18-May-2020 4797.01 5427.25 66.06 13.00   6.00 2540.22
   03:21:22.792.18-May-2020 4797.01 5427.25 66.06 13.00   6.20 2540.22
   03:21:22.992.18-May-2020 4797.01 5427.23 66.06 13.00   6.40 2540.22
   03:21:23.192.18-May-2020 4797.01 5429.30 66.06 13.00   6.60 2540.22
   03:21:23.392.18-May-2020 4797.01 5437.45 66.06 13.00   6.80 2540.22
   03:21:23.592.18-May-2020 4797.01 5426.11 66.06 13.00   7.00 2540.22
   03:21:23.792.18-May-2020 4797.01 5426.11 66.06 13.00   7.20 2540.22
   03:21:23.992.18-May-2020 4797.01 5431.73 66.06 13.00   7.40 2540.22
   03:21:24.192.18-May-2020 4797.01 5431.17 66.06 13.00   7.60 2540.22
   03:21:24.392.18-May-2020 4797.01 5429.38 66.06 13.00   7.80 2540.22
   03:21:24.592.18-May-2020 4797.01 5428.88 66.06 13.00   8.00 2540.22
   03:21:24.792.18-May-2020 4797.01 5428.88 66.06 13.00   8.20 2540.22
   03:21:24.992.18-May-2020 4797.01 5428.88 66.06 13.00   8.40 2540.22
   03:21:25.193.18-May-2020 4797.01 5429.08 66.06 13.00   8.60 2540.22
   03:21:25.393.18-May-2020 4797.01 5428.68 66.06 13.00   8.80 2540.22
   03:21:25.593.18-May-2020 4797.01 5440.63 66.06 13.00   9.00 2540.22
   03:21:25.793.18-May-2020 4797.01 5429.38 66.06 13.00   9.20 2540.22
   03:21:25.993.18-May-2020 4797.01 5429.63 66.05 13.00   9.40 2540.22
   03:21:26.193.18-May-2020 4797.01 5429.98 66.06 13.00   9.60 2540.22
   03:21:26.393.18-May-2020 4797.01 5444.65 66.05 13.00   9.80 2540.22
   03:21:26.593.18-May-2020 4797.01 5433.06 66.05 13.00  10.00 2540.22
   03:21:26.793.18-May-2020 4797.01 5433.06 66.05 13.00  10.20 2540.22
   03:21:26.993.18-May-2020 4797.01 5431.21 66.05 13.00  10.40 2540.22
   03:21:27.193.18-May-2020 4797.01 5439.35 66.05 13.00  10.60 2540.22
   03:21:27.393.18-May-2020 4797.01 5441.98 66.05 13.00  10.80 2540.22
   03:21:27.594.18-May-2020 4797.01 5429.45 66.05 13.00  11.00 2540.22
   03:21:27.794.18-May-2020 4797.01 5429.45 66.05 13.00  11.20 2540.22
   03:21:27.994.18-May-2020 4797.01 5435.12 66.05 13.00  11.40 2540.22
   03:21:28.194.18-May-2020 4797.01 5445.54 66.05 13.00  11.60 2540.22
   03:21:28.394.18-May-2020 4797.01 5431.96 66.05 13.00  11.80 2540.22
   03:21:28.594.18-May-2020 4797.01 5432.79 66.05 13.00  12.00 2540.22
   03:21:28.794.18-May-2020 4797.01 5432.79 66.05 13.00  12.20 2540.22
   03:21:28.994.18-May-2020 4797.01 5434.82 66.05 13.00  12.41 2540.22
   03:21:29.194.18-May-2020 4797.01 5433.96 66.05 13.00  12.61 2540.22
   03:21:29.394.18-May-2020 4797.01 5436.48 66.05 13.00  12.81 2540.22
   03:21:29.594.18-May-2020 4797.01 5449.88 66.05 13.00  13.01 2540.22
   03:21:29.794.18-May-2020 4797.01 5432.73 66.05 13.00  13.21 2540.22
   03:21:29.994.18-May-2020 4797.01 5433.99 66.05 13.00  13.41 2540.22
   03:21:30.195.18-May-2020 4797.01 5438.17 66.05 13.00  13.61 2540.22
   03:21:30.395.18-May-2020 4797.01 5436.68 66.05 13.00  13.81 2540.22
   03:21:30.595.18-May-2020 4797.01 5434.12 66.05 13.00  14.01 2540.22
   03:21:30.795.18-May-2020 4797.01 5434.12 66.05 13.00  14.21 2540.22
   03:21:30.995.18-May-2020 4797.01 5434.05 66.05 13.00  14.41 2540.22
   03:21:31.195.18-May-2020 4797.01 5433.26 66.05 13.00  14.61 2540.22
   03:21:31.395.18-May-2020 4797.01 5433.55 66.05 13.00  14.81 2540.22
   03:21:31.595.18-May-2020 4797.01 5445.87 66.05 13.00  15.01 2540.22
   03:21:31.795.18-May-2020 4797.01 5445.87 66.05 13.00  15.21 2540.22
   03:21:31.995.18-May-2020 4797.01 5433.62 66.05 13.00  15.41 2540.22
   03:21:32.195.18-May-2020 4797.01 5436.62 66.05 13.00  15.61 2540.22
   03:21:32.395.18-May-2020 4797.01 5438.84 66.05 13.00  15.81 2540.22
   03:21:32.596.18-May-2020 4797.01 5435.14 66.05 13.00  16.01 2540.22
   03:21:32.796.18-May-2020 4797.01 5435.14 66.05 13.00  16.21 2540.22
   03:21:32.996.18-May-2020 4797.01 5435.46 66.05 13.00  16.41 2540.22
   03:21:33.196.18-May-2020 4797.01 5434.56 66.05 13.00  16.61 2540.22
   03:21:33.396.18-May-2020 4797.01 5434.72 66.05 13.00  16.81 2540.22
   03:21:33.596.18-May-2020 4797.01 5434.70 66.05 13.00  17.01 2540.22
   03:21:33.796.18-May-2020 4797.01 5447.39 66.05 13.00  17.21 2540.22
   03:21:33.996.18-May-2020 4797.01 5434.84 66.05 13.00  17.41 2540.22
   03:21:34.196.18-May-2020 4797.01 5434.92 66.05 13.00  17.61 2540.22
   03:21:34.396.18-May-2020 4797.01 5435.86 66.05 13.00  17.81 2540.22
   03:21:34.596.18-May-2020 4797.01 5454.35 66.05 13.00  18.01 2540.22
   03:21:34.796.18-May-2020 4797.01 5454.35 66.05 13.00  18.21 2540.22
   03:21:34.996.18-May-2020 4797.01 5435.61 66.05 13.00  18.41 2540.22
   03:21:35.197.18-May-2020 4797.01 5440.82 66.05 13.00  18.61 2540.22
   03:21:35.397.18-May-2020 4797.01 5452.80 66.05 13.00  18.81 2540.22
   03:21:35.597.18-May-2020 4797.01 5437.83 66.05 13.00  19.01 2540.22
   03:21:35.797.18-May-2020 4797.01 5437.83 66.05 13.00  19.21 2540.22
   03:21:35.997.18-May-2020 4797.01 5440.48 66.05 13.00  19.41 2540.22
   03:21:36.197.18-May-2020 4797.01 5441.44 66.05 13.00  19.61 2540.22
   03:21:36.397.18-May-2020 4797.01 5451.05 66.05 13.00  19.81 2540.22
   03:21:36.597.18-May-2020 4797.01 5436.77 66.05 13.00  20.01 2540.22
   03:21:36.797.18-May-2020 4797.01 5436.77 66.05 13.00  20.21 2540.22
   03:21:36.997.18-May-2020 4797.01 5441.66 66.05 13.00  20.41 2540.22
   03:21:37.197.18-May-2020 4797.01 5441.46 66.05 13.00  20.61 2540.22
   03:21:37.397.18-May-2020 4797.01 5437.69 66.05 13.00  20.81 2540.22
   03:21:37.598.18-May-2020 4797.01 5437.55 66.05 13.00  21.01 2540.22
   03:21:37.798.18-May-2020 4797.01 5438.53 66.05 13.00  21.21 2540.22
   03:21:37.998.18-May-2020 4797.01 5437.02 66.05 13.00  21.41 2540.22
   03:21:38.198.18-May-2020 4797.01 5436.79 66.05 13.00  21.61 2540.22
   03:21:38.398.18-May-2020 4797.01 5449.20 66.05 13.00  21.81 2540.22
   03:21:38.598.18-May-2020 4797.01 5436.35 66.05 13.00  22.01 2540.22
   03:21:38.798.18-May-2020 4797.01 5436.35 66.05 13.00  22.21 2540.22
   03:21:38.998.18-May-2020 4797.01 5439.04 66.05 13.00  22.41 2540.22
