~Version Information
 VERS.                  2.0:   CWLS log ASCII Standard -VERSION 2.0
 WRAP.                   NO:   One line per depth step
~Well Information Block
#MNEM.UNIT     VALUE/NAME     DESCRIPTION
#---------     -----------    ---------------------------
 STRT.S             21:13:20 18-May-20: START TIME 21:13:20 18-May-20
 STOP.S             21:20:25 18-May-20: STOP TIME  21:20:25 18-May-20
 STEP.S                   0.00: STEP TIME
 NULL.                 -999.25: NULL VALUE
 UNIT.                     N/A:  LOGGING EQUIPMENT ID
 DCON.         Sperry Drilling:  DIRECTNL CONTR
 DOE .                     N/A:  DOE NUMBER
 JOBN.        AZ-XX-0906252240:  JOB TICKET NUMB
 MWDS.                     N/A:  MWD SHOP
 PROV.                    Baku:  PROVINCE
 STAT.                    Baku:  STATE NAME
 REGN.                   EESSA:  REGION
 BASE.              Azerbaijan:  LOGGING EQUIPMENT BASE LOCATION
 UWI .                     N/A:  UNIQUE WELL IDENTIFIER
 API .                     N/A:  API NUMBER
 MDS .        Operator Entered:  MAG DATA SOURCE
 WTYP.                Deviated:  WELL TYPE
 COMP.     BP Exploration (Caspian Sea) Ltd.:  COMPANY
 SRVC.          Turan Drilling:  CONTRACTOR
 WELL.           J23 (Slot 07):  WELL NAME
 CTRY.              Azerbaijan:  COUNTRY NAME
 FLD .                     ACG:  FIELD NAME
 PDAT.          Mean Sea Level:  PERMANENT DATUM
 RIG .             West Chirag:  RIG NAME
 SON .        AZ-XX-0906252240:  JOB NUMBER
 FTOP.          Formation Tops:  FORM TOPS DESC
 ILTD.               Lithology:  INTERP LTH DESC
 SVYD.                  Survey:  SURVEY DESC
 DMOD.             Drill Model:  DRILL MOD DESC
 HPTY.       Minimum Curvature:  HOLE POS TYPE
 NREF.                    Grid:  NORTH REFERENCE
 SPUD.               27-Aug-20:  SPUD DATE
 DATE.      00.00.00 19-May-20:  END TIME
 STIM.      03.00.00 25-Mar-20:  START TIME
 DMF .             Drill Floor:  DRILL MEAS FROM
 DFST.                        :  DIST FSL TEXT
 DFWT.                        :  DIST FWL TEXT
 CNTY.                        :  COUNTY
 LOC .                        :  LOCATION
 LMF .             Drill Floor:  LOG MEASURED FROM
 VSNS.m                   9.43:  VERT SEC N/S
 VSEW.m                  -8.91:  VERT SEC E/W
 AGAP.m                  43.00:  AIR GAP
 DEP .m                 354.17:  DEPTH
 APD .m                  43.00:  DEPTH ABOVE PD
 WDMS.m                 169.80:  WD ELEV
 EGL .m                   0.00:  GROUND ELEVATION
 EPD .m                   0.00:  ELEVATION
 AZTC.deg                 6.31:  AZM TOTAL CORR
 GRDC.deg                 0.14:  GRID CORRECTION
 MDEC.deg                 6.45:  MAGNETIC DECL
 MDIP.deg                59.56:  MAGNETIC DIP
 MFLD.nT              50295.00:  MAGNETIC FIELD
 GVFD.g                   1.00:  GRAVITY FIELD
 VSDR.deg               179.88:  VERT SEC DIRECT
 TDD .m                5150.01:  TOTAL DEPTH (DRILLER)
 SDEP.m                 864.00:  START DEPTH
 DFSL.m                   0.00:  DISTANCE FSL
 DFWL.m                   0.00:  DISTANCE FWL
 UTMY.m             4443793.85:  UTM Y
 UTMX.m              519005.06:  UTM X
 WHEW.m                  -8.91:  WELL HEAD E/W
 WHNS.m                   9.43:  WELL HEAD N/S
 LONG.deg                51.22:  LONGITUDE
 LATI.deg                40.13:  LATITUDE
 TVDS.m                  43.00:  TVDSS CORRECTN
 EKB .m                   0.00:  KB ELEVATION
 EDF .m                  43.00:  DF ELEVATION
 TDL .m                 363.00:  TOTAL DEPTH (LOGGER)
 MAGU.                 1850802:  MAGUTM CHECKSUM
 VSC .                       0:  VS TO CLOSURE
~Parameter Information Block
#MNEM.UNIT       Value        Description
#---------     -----------    ---------------------------
 AV  .mps                 2.30:  Ann Velocity 
 AVMX.mps                 4.40:  Max Ann Veloc 
 AZIF.deg               110.24:  Azm, Final 
 BHAT.        Rotary Steerable:  BHA Type 
 BREV.rev               331.00:  Rev Bit Total 
 BROT.°/30m               0.00:  Build Rotating 
 BS  .in                  8.50:  Bit Size 
 BSZ .in                  8.50:  Bit Size 
 BTPL.psig              585.00:  Bit Press Loss 
 CABU.                     Yes:  Customer Abuse 
 TCS .hr                122.75:  Time Ciculation Ended 
 CV  .mps                 2.67:  Crit Velocity 
 CVMX.mps                 3.56:  Max Crit Veloc 
 DD1 .          Rashad Habibov:  Direct Drillr 1 
 DD2 .         Rasim Ibrahimov:  Direct Drillr 2 
 DDSV.               Geo-Pilot:  DD Service 
 DEFF.%                  98.00:  % Det Eff 
 DLRX.°/30m               0.75:  Dogleg Rot Max 
 DLSO.°/30m               1.25:  Dogleg Oriented 
 DLSX.°/30m               2.06:  Dogleg Str Max 
 DRET.      07.45.00 17-May-20:  Drill End Time 
 DRST.      22.50.00 15-May-20:  Drill Start Tim 
 DTIM.hr                 20.75:  Time Drilling 
 EDEP.m                5124.01:  End Depth 
 ENG1.           Eldar Hajiyev:  Engineer 1 
 ENG2.        Marcelo Sandoval:  Engineer 2 
 ENG3.        Davud huseynzada:  Engineer 3 
 ENG4.          Ruslan Safarov:  Engineer 4 
 ETIM.      04.33.00 23-May-20:  End Time 
 FLOI.gpm               450.00:  Flow In 
 FLON.gpm               400.00:  Flow In Min 
 FLOS.cptm                0.00:  Fluid Loss 
 FLOX.gpm               500.00:  Flow In Max 
 FTRO.       Formation Presure:  FTWD Run Obj 
 HFLO.                      No:  High Flow 
 HPRE.                     Yes:  High Pressure 
 HTEM.                      No:  High Temp 
 HYDO.m                   1.80:  Hydro Offset 
 IFIN.deg                75.06:  Inc, Final 
 IMAX.deg                75.38:  Inc Max 
 IMIN.deg                74.69:  Inc Min 
 IMND.m                5027.38:  Inc Min Depth 
 IMXD.m                4771.61:  Inc Max Depth 
 JARR.                      No:  Jarring 
 LETM.      07.45.00 17-May-20:  Log End Time 
 LOST.hr                     0:  Lost Rig Time 
 LSTM.      22.50.00 15-May-20:  Log Start Time 
 MDCL.ppm             42000.00:  Mud Chlorides 
 MDES.     Inversion Oil/Synthetic:  Mud Desc 
 DFD .sg                  1.34:  Mud Density 
 MDMN.sg                  1.34:  Dens Mud Min 
 MDMX.sg                  1.34:  Dens Mud Max 
 MOIL.                       0:  Run Mud Oil % 
 MOWR.                   67:33:  Run Mud OWR 
 MSND.                       0:  Run Mud Sand % 
 MSOL.                     1.8:  Run Mud Solids% 
 DFV .spqt               76.00:  Mud Viscosity 
 MWOD.in                  6.75:  MWD Tool OD 
 MWSI.                      No:  Serv Intrp, MWD 
 OTIM.hr                228.19:  Time Operating 
 PCON.           Look Like New:  Pad Condition 
 PMAX.psia             6164.70:  Press Op, Max 
 PV  .cP                 28.00:  Mud PV 
 RUN .                     900:  Run Number 
 ROPA.m/hr               19.00:  ROP Avg 
 ROPN.m/hr               11.00:  ROP Min 
 ROPX.m/hr               36.00:  ROP Max 
 RPMA.rpm               120.00:  RPM Surface Avg 
 RPMN.rpm               120.00:  RPM Surface Min 
 RPMX.rpm               120.00:  RPM Surface Max 
 RRUN.                    L604:  Rig Run Number 
 RTIM.hr                  7.00:  Time Reaming 
 SAZI.deg               109.27:  Azm, Start 
 SDEP.m                4761.01:  Start Depth 
 SIDD.                      No:  Serv Intrp, DD 
 SINC.deg                75.38:  Inc, Start 
 SPPA.psig             3574.00:  SPP Avg 
 SPPN.psig             3475.00:  SPP Min 
 SPPX.psig             3791.00:  SPP Max 
 STIM.      07.08.48 13-May-20:  Start Time 
 SVCS.                 DD, MWD:  Services 
 SVER.                    9.20:  Sperry Version 
 TDAT.m                 363.00:  Tot Depth Attmp 
 TDDF.                      No:  Trip for DD 
 TDLG.m                 363.00:  Tot Depth Loggd 
 TFF .                      No:  Trip for Fail 
 TQAA.f-kp               20.00:  Torque Abs Avg 
 TQAN.f-kp               18.00:  Torque Abs Min 
 TQAX.f-kp               22.00:  Torque Abs Max 
 TRRT.°/30m              -0.35:  Turn Rotating 
 MRT .                    HCIM:  Maximum Recorded Temperature 
 TTMX.degC               92.16:  Max Tool Temp 
 VS01.                90586518:  Virtual Str1 SN 
 VS02.        AZ90560654Z1W1C6:  Virtual Str2 SN 
 VS03.           AZ90610398F11:  Virtual Str3 SN 
 VS04.                90514975:  Virtual Str4 SN 
 VS05.                90514972:  Virtual Str5 SN 
 VS06.     AZ90603282F11V7D1A6:  Virtual Str6 SN 
 WBMN.klb                 7.00:  WOB Min 
 WOBA.klb                12.00:  WOB Avg 
 WOBX.klb                14.00:  WOB Max 
 YP  .lhf2               32.00:  Yield Point 
~Curve Information Block
#MNEM.UNIT                 API CODE     Curve Description
#---------               -----------    ---------------------------
 TIME.HHMMSS            00 000 000 000:  GT Time & Date
 GTDEPTH.m              00 000 000 000:  GT Depth
 GTPQH.psia             00 000 000 000:  GT HR Quartz Pressure
 GTTQ.degC              00 000 000 000:  GT Quartz Temperature
 GTTN.NONE              00 000 000 000:  GT Test Number
 GTET.sec               00 000 000 000:  GT Elapsed Test Time
 GTTVD.m                00 000 000 000:  GT True Vertical Depth
#Other Information
#
#WARRANTY: Halliburton will use its best efforts to furnish customers with 
#accurate information and interpretations that are part of, and incident to, the services 
#provided.  However, Halliburton cannot and does not warrant the accuracy 
#or correctness of such information and interpretations.  Under no circumstances should any 
#such information or interpretation be relied upon as the sole basis for any drilling, 
#completion, production, or financial decision or any procedure involving any risk to the 
#safety of any drilling venture, drilling rig or its crew or any other third party.  The 
#Customer has full responsibility for all drilling, completion and production operation.  
#Halliburton makes no representations or warranties, either expressed or 
#implied, including, but not limited to, the implied warranties of merchantability or fitness 
#for a particular purpose, with respect to the services rendered.  In no event will 
#Halliburton be liable for failure to obtain any particular results or for 
#any damages, including, but not limited to, indirect, special or consequential damages, 
#resulting from the use of any information or interpretation provided by Halliburton.
#
~A           TIME           GTDEPTH  GTPQH  GTTQ  GTTN   GTET   GTTVD  
# ...
   21:14:50.889.18-May-2020 4766.01 5481.67 60.64 14.00  90.42 2532.29
   21:14:51.089.18-May-2020 4766.01 5482.44 60.64 14.00  90.62 2532.29
   21:14:51.290.18-May-2020 4766.01 5502.23 60.64 14.00  90.82 2532.29
   21:14:51.490.18-May-2020 4766.01 5485.69 60.64 14.00  91.02 2532.29
   21:14:51.690.18-May-2020 4766.01 5485.69 60.64 14.00  91.22 2532.29
   21:14:51.890.18-May-2020 4766.01 5490.97 60.64 14.00  91.42 2532.29
   21:14:52.090.18-May-2020 4766.01 5493.10 60.64 14.00  91.62 2532.29
   21:14:52.290.18-May-2020 4766.01 5487.28 60.64 14.00  91.82 2532.29
   21:14:52.490.18-May-2020 4766.01 5482.05 60.64 14.00  92.02 2532.29
   21:14:52.690.18-May-2020 4766.01 5482.05 60.64 14.00  92.22 2532.29
   21:14:52.890.18-May-2020 4766.01 5489.37 60.64 14.00  92.42 2532.29
   21:14:53.090.18-May-2020 4766.01 5484.55 60.64 14.00  92.62 2532.29
   21:14:53.290.18-May-2020 4766.01 5481.92 60.64 14.00  92.82 2532.29
   21:14:53.490.18-May-2020 4766.01 5483.63 60.64 14.00  93.02 2532.29
   21:14:53.690.18-May-2020 4766.01 5483.63 60.64 14.00  93.22 2532.29
   21:14:53.890.18-May-2020 4766.01 5484.66 60.64 14.00  93.42 2532.29
   21:14:54.090.18-May-2020 4766.01 5487.36 60.64 14.00  93.62 2532.29
   21:14:54.290.18-May-2020 4766.01 5480.58 60.64 14.00  93.82 2532.29
   21:14:54.490.18-May-2020 4766.01 5481.03 60.64 14.00  94.02 2532.29
   21:14:54.690.18-May-2020 4766.01 5481.88 60.64 14.00  94.23 2532.29
   21:14:54.890.18-May-2020 4766.01 5486.44 60.64 14.00  94.43 2532.29
   21:14:55.091.18-May-2020 4766.01 5479.84 60.64 14.00  94.63 2532.29
   21:14:55.291.18-May-2020 4766.01 5479.26 60.63 14.00  94.83 2532.29
   21:14:55.491.18-May-2020 4766.01 5480.56 60.64 14.00  95.03 2532.29
   21:14:55.691.18-May-2020 4766.01 5480.56 60.64 14.00  95.23 2532.29
   21:14:55.891.18-May-2020 4766.01 5478.92 60.63 14.00  95.43 2532.29
   21:14:56.091.18-May-2020 4766.01 5478.18 60.63 14.00  95.63 2532.29
   21:14:56.291.18-May-2020 4766.01 5491.31 60.63 14.00  95.83 2532.29
   21:14:56.491.18-May-2020 4766.01 5476.51 60.63 14.00  96.03 2532.29
   21:14:56.691.18-May-2020 4766.01 5476.51 60.63 14.00  96.23 2532.29
   21:14:56.891.18-May-2020 4766.01 5479.53 60.63 14.00  96.43 2532.29
   21:14:57.091.18-May-2020 4766.01 5499.39 60.63 14.00  96.63 2532.29
   21:14:57.291.18-May-2020 4766.01 5477.77 60.63 14.00  96.83 2532.29
   21:14:57.491.18-May-2020 4766.01 5479.74 60.63 14.00  97.03 2532.29
   21:14:57.691.18-May-2020 4766.01 5479.74 60.63 14.00  97.23 2532.29
   21:14:57.891.18-May-2020 4766.01 5505.52 60.63 14.00  97.43 2532.29
   21:14:58.091.18-May-2020 4766.01 5478.16 60.63 14.00  97.63 2532.29
   21:14:58.291.18-May-2020 4766.01 5480.18 60.63 14.00  97.83 2532.29
   21:14:58.491.18-May-2020 4766.01 5480.48 60.63 14.00  98.03 2532.29
   21:14:58.691.18-May-2020 4766.01 5480.48 60.63 14.00  98.23 2532.29
   21:14:58.892.18-May-2020 4766.01 5485.61 60.63 14.00  98.43 2532.29
   21:14:59.092.18-May-2020 4766.01 5480.13 60.63 14.00  98.63 2532.29
   21:14:59.292.18-May-2020 4766.01 5481.78 60.63 14.00  98.83 2532.29
   21:14:59.492.18-May-2020 4766.01 5489.67 60.63 14.00  99.03 2532.29
   21:14:59.692.18-May-2020 4766.01 5489.67 60.63 14.00  99.23 2532.29
   21:14:59.892.18-May-2020 4766.01 5481.78 60.63 14.00  99.43 2532.29
   21:15:00.092.18-May-2020 4766.01 5482.05 60.63 14.00  99.63 2532.29
   21:15:00.292.18-May-2020 4766.01 5484.13 60.63 14.00  99.83 2532.29
   21:15:00.492.18-May-2020 4766.01 5483.82 60.63 14.00 100.03 2532.29
   21:15:00.692.18-May-2020 4766.01 5483.82 60.63 14.00 100.23 2532.29
   21:15:00.892.18-May-2020 4766.01 5490.34 60.63 14.00 100.43 2532.29
   21:15:01.092.18-May-2020 4766.01 5481.05 60.63 14.00 100.63 2532.29
   21:15:01.292.18-May-2020 4766.01 5482.36 60.63 14.00 100.83 2532.29
   21:15:01.492.18-May-2020 4766.01 5482.66 60.63 14.00 101.03 2532.29
   21:15:01.692.18-May-2020 4766.01 5482.66 60.63 14.00 101.23 2532.29
   21:15:01.892.18-May-2020 4766.01 5481.80 60.63 14.00 101.43 2532.29
   21:15:02.092.18-May-2020 4766.01 5481.76 60.63 14.00 101.63 2532.29
   21:15:02.292.18-May-2020 4766.01 5482.38 60.63 14.00 101.83 2532.29
   21:15:02.492.18-May-2020 4766.01 5482.68 60.63 14.00 102.03 2532.29
   21:15:02.693.18-May-2020 4766.01 5480.72 60.63 14.00 102.23 2532.29
   21:15:02.893.18-May-2020 4766.01 5480.52 60.63 14.00 102.43 2532.29
   21:15:03.093.18-May-2020 4766.01 5493.75 60.63 14.00 102.63 2532.29
   21:15:03.293.18-May-2020 4766.01 5478.12 60.63 14.00 102.83 2532.29
   21:15:03.493.18-May-2020 4766.01 5481.65 60.63 14.00 103.03 2532.29
   21:15:03.693.18-May-2020 4766.01 5481.65 60.63 14.00 103.23 2532.29
   21:15:03.893.18-May-2020 4766.01 5499.51 60.63 14.00 103.43 2532.29
   21:15:04.093.18-May-2020 4766.01 5480.54 60.63 14.00 103.63 2532.29
   21:15:04.293.18-May-2020 4766.01 5481.42 60.63 14.00 103.83 2532.29
   21:15:04.493.18-May-2020 4766.01 5482.96 60.63 14.00 104.03 2532.29
   21:15:04.693.18-May-2020 4766.01 5482.96 60.63 14.00 104.23 2532.29
   21:15:04.893.18-May-2020 4766.01 5479.08 60.63 14.00 104.43 2532.29
   21:15:05.093.18-May-2020 4766.01 5482.48 60.63 14.00 104.63 2532.29
   21:15:05.293.18-May-2020 4766.01 5489.62 60.63 14.00 104.83 2532.29
   21:15:05.493.18-May-2020 4766.01 5498.30 60.63 14.00 105.03 2532.29
   21:15:05.693.18-May-2020 4766.01 5498.30 60.63 14.00 105.23 2532.29
   21:15:05.893.18-May-2020 4766.01 5483.20 60.63 14.00 105.43 2532.29
   21:15:06.093.18-May-2020 4766.01 5488.47 60.63 14.00 105.63 2532.29
   21:15:06.294.18-May-2020 4766.01 5493.06 60.63 14.00 105.83 2532.29
   21:15:06.494.18-May-2020 4766.01 5484.87 60.63 14.00 106.03 2532.29
   21:15:06.694.18-May-2020 4766.01 5484.22 60.63 14.00 106.23 2532.29
   21:15:06.894.18-May-2020 4766.01 5485.98 60.63 14.00 106.43 2532.29
   21:15:07.094.18-May-2020 4766.01 5487.12 60.63 14.00 106.63 2532.29
   21:15:07.294.18-May-2020 4766.01 5486.34 60.63 14.00 106.83 2532.29
   21:15:07.494.18-May-2020 4766.01 5492.77 60.63 14.00 107.03 2532.29
   21:15:07.694.18-May-2020 4766.01 5492.77 60.63 14.00 107.23 2532.29
   21:15:07.894.18-May-2020 4766.01 5484.80 60.63 14.00 107.43 2532.29
   21:15:08.094.18-May-2020 4766.01 5484.66 60.63 14.00 107.63 2532.29
   21:15:08.294.18-May-2020 4766.01 5491.53 60.63 14.00 107.83 2532.29
   21:15:08.494.18-May-2020 4766.01 5484.28 60.63 14.00 108.03 2532.29
   21:15:08.694.18-May-2020 4766.01 5484.28 60.63 14.00 108.23 2532.29
   21:15:08.894.18-May-2020 4766.01 5486.16 60.63 14.00 108.43 2532.29
   21:15:09.094.18-May-2020 4766.01 5487.46 60.63 14.00 108.63 2532.29
   21:15:09.294.18-May-2020 4766.01 5485.57 60.63 14.00 108.83 2532.29
   21:15:09.494.18-May-2020 4766.01 5485.30 60.63 14.00 109.03 2532.29
   21:15:09.694.18-May-2020 4766.01 5485.30 60.63 14.00 109.23 2532.29
   21:15:09.894.18-May-2020 4766.01 5484.43 60.63 14.00 109.43 2532.29
   21:15:10.095.18-May-2020 4766.01 5487.50 60.63 14.00 109.63 2532.29
   21:15:10.295.18-May-2020 4766.01 5486.43 60.63 14.00 109.83 2532.29
   21:15:10.495.18-May-2020 4766.01 5509.75 60.63 14.00 110.03 2532.29
   21:15:10.695.18-May-2020 4766.01 5486.33 60.63 14.00 110.23 2532.29
   21:15:10.895.18-May-2020 4766.01 5488.35 60.63 14.00 110.43 2532.29
   21:15:11.095.18-May-2020 4766.01 5488.17 60.63 14.00 110.63 2532.29
   21:15:11.295.18-May-2020 4766.01 5514.87 60.63 14.00 110.83 2532.29
   21:15:11.495.18-May-2020 4766.01 5486.47 60.63 14.00 111.03 2532.29
   21:15:11.695.18-May-2020 4766.01 5486.47 60.63 14.00 111.23 2532.29
   21:15:11.895.18-May-2020 4766.01 5488.40 60.63 14.00 111.43 2532.29
   21:15:12.095.18-May-2020 4766.01 5510.86 60.63 14.00 111.63 2532.29
   21:15:12.295.18-May-2020 4766.01 5492.51 60.63 14.00 111.83 2532.29
   21:15:12.495.18-May-2020 4766.01 5488.33 60.63 14.00 112.03 2532.29
   21:15:12.695.18-May-2020 4766.01 5488.33 60.63 14.00 112.23 2532.29
   21:15:12.895.18-May-2020 4766.01 5498.99 60.63 14.00 112.43 2532.29
   21:15:13.095.18-May-2020 4766.01 5496.08 60.63 14.00 112.63 2532.29
   21:15:13.295.18-May-2020 4766.01 5489.93 60.63 14.00 112.83 2532.29
