~Version Information
 VERS.                  2.0:   CWLS log ASCII Standard -VERSION 2.0
 WRAP.                   NO:   One line per depth step
~Well Information Block
#MNEM.UNIT     VALUE/NAME     DESCRIPTION
#---------     -----------    ---------------------------
 STRT.S             19:37:06 17-May-20: START TIME 19:37:06 17-May-20
 STOP.S             19:44:11 17-May-20: STOP TIME  19:44:11 17-May-20
 STEP.S                   0.00: STEP TIME
 NULL.                 -999.25: NULL VALUE
 UNIT.                     N/A:  LOGGING EQUIPMENT ID
 DCON.         Sperry Drilling:  DIRECTNL CONTR
 DOE .                     N/A:  DOE NUMBER
 JOBN.        AZ-XX-0906252240:  JOB TICKET NUMB
 MWDS.                     N/A:  MWD SHOP
 PROV.                    Baku:  PROVINCE
 STAT.                    Baku:  STATE NAME
 REGN.                   EESSA:  REGION
 BASE.              Azerbaijan:  LOGGING EQUIPMENT BASE LOCATION
 UWI .                     N/A:  UNIQUE WELL IDENTIFIER
 API .                     N/A:  API NUMBER
 MDS .        Operator Entered:  MAG DATA SOURCE
 WTYP.                Deviated:  WELL TYPE
 COMP.     BP Exploration (Caspian Sea) Ltd.:  COMPANY
 SRVC.          Turan Drilling:  CONTRACTOR
 WELL.           J23 (Slot 07):  WELL NAME
 CTRY.              Azerbaijan:  COUNTRY NAME
 FLD .                     ACG:  FIELD NAME
 PDAT.          Mean Sea Level:  PERMANENT DATUM
 RIG .             West Chirag:  RIG NAME
 SON .        AZ-XX-0906252240:  JOB NUMBER
 FTOP.          Formation Tops:  FORM TOPS DESC
 ILTD.               Lithology:  INTERP LTH DESC
 SVYD.                  Survey:  SURVEY DESC
 DMOD.             Drill Model:  DRILL MOD DESC
 HPTY.       Minimum Curvature:  HOLE POS TYPE
 NREF.                    Grid:  NORTH REFERENCE
 SPUD.               27-Aug-20:  SPUD DATE
 DATE.      00.00.00 19-May-20:  END TIME
 STIM.      03.00.00 25-Mar-20:  START TIME
 DMF .             Drill Floor:  DRILL MEAS FROM
 DFST.                        :  DIST FSL TEXT
 DFWT.                        :  DIST FWL TEXT
 CNTY.                        :  COUNTY
 LOC .                        :  LOCATION
 LMF .             Drill Floor:  LOG MEASURED FROM
 VSNS.m                   9.43:  VERT SEC N/S
 VSEW.m                  -8.91:  VERT SEC E/W
 AGAP.m                  43.00:  AIR GAP
 DEP .m                 354.17:  DEPTH
 APD .m                  43.00:  DEPTH ABOVE PD
 WDMS.m                 169.80:  WD ELEV
 EGL .m                   0.00:  GROUND ELEVATION
 EPD .m                   0.00:  ELEVATION
 AZTC.deg                 6.31:  AZM TOTAL CORR
 GRDC.deg                 0.14:  GRID CORRECTION
 MDEC.deg                 6.45:  MAGNETIC DECL
 MDIP.deg                59.56:  MAGNETIC DIP
 MFLD.nT              50295.00:  MAGNETIC FIELD
 GVFD.g                   1.00:  GRAVITY FIELD
 VSDR.deg               179.88:  VERT SEC DIRECT
 TDD .m                5150.01:  TOTAL DEPTH (DRILLER)
 SDEP.m                 864.00:  START DEPTH
 DFSL.m                   0.00:  DISTANCE FSL
 DFWL.m                   0.00:  DISTANCE FWL
 UTMY.m             4443793.85:  UTM Y
 UTMX.m              519005.06:  UTM X
 WHEW.m                  -8.91:  WELL HEAD E/W
 WHNS.m                   9.43:  WELL HEAD N/S
 LONG.deg                51.22:  LONGITUDE
 LATI.deg                40.13:  LATITUDE
 TVDS.m                  43.00:  TVDSS CORRECTN
 EKB .m                   0.00:  KB ELEVATION
 EDF .m                  43.00:  DF ELEVATION
 TDL .m                 363.00:  TOTAL DEPTH (LOGGER)
 MAGU.                 1850802:  MAGUTM CHECKSUM
 VSC .                       0:  VS TO CLOSURE
~Parameter Information Block
#MNEM.UNIT       Value        Description
#---------     -----------    ---------------------------
 AV  .mps                 2.30:  Ann Velocity 
 AVMX.mps                 4.40:  Max Ann Veloc 
 AZIF.deg               110.24:  Azm, Final 
 BHAT.        Rotary Steerable:  BHA Type 
 BREV.rev               331.00:  Rev Bit Total 
 BROT.°/30m               0.00:  Build Rotating 
 BS  .in                  8.50:  Bit Size 
 BSZ .in                  8.50:  Bit Size 
 BTPL.psig              585.00:  Bit Press Loss 
 CABU.                     Yes:  Customer Abuse 
 TCS .hr                122.75:  Time Ciculation Ended 
 CV  .mps                 2.67:  Crit Velocity 
 CVMX.mps                 3.56:  Max Crit Veloc 
 DD1 .          Rashad Habibov:  Direct Drillr 1 
 DD2 .         Rasim Ibrahimov:  Direct Drillr 2 
 DDSV.               Geo-Pilot:  DD Service 
 DEFF.%                  98.00:  % Det Eff 
 DLRX.°/30m               0.75:  Dogleg Rot Max 
 DLSO.°/30m               1.25:  Dogleg Oriented 
 DLSX.°/30m               2.06:  Dogleg Str Max 
 DRET.      07.45.00 17-May-20:  Drill End Time 
 DRST.      22.50.00 15-May-20:  Drill Start Tim 
 DTIM.hr                 20.75:  Time Drilling 
 EDEP.m                5124.01:  End Depth 
 ENG1.           Eldar Hajiyev:  Engineer 1 
 ENG2.        Marcelo Sandoval:  Engineer 2 
 ENG3.        Davud huseynzada:  Engineer 3 
 ENG4.          Ruslan Safarov:  Engineer 4 
 ETIM.      04.33.00 23-May-20:  End Time 
 FLOI.gpm               450.00:  Flow In 
 FLON.gpm               400.00:  Flow In Min 
 FLOS.cptm                0.00:  Fluid Loss 
 FLOX.gpm               500.00:  Flow In Max 
 FTRO.       Formation Presure:  FTWD Run Obj 
 HFLO.                      No:  High Flow 
 HPRE.                     Yes:  High Pressure 
 HTEM.                      No:  High Temp 
 HYDO.m                   1.80:  Hydro Offset 
 IFIN.deg                75.06:  Inc, Final 
 IMAX.deg                75.38:  Inc Max 
 IMIN.deg                74.69:  Inc Min 
 IMND.m                5027.38:  Inc Min Depth 
 IMXD.m                4771.61:  Inc Max Depth 
 JARR.                      No:  Jarring 
 LETM.      07.45.00 17-May-20:  Log End Time 
 LOST.hr                     0:  Lost Rig Time 
 LSTM.      22.50.00 15-May-20:  Log Start Time 
 MDCL.ppm             42000.00:  Mud Chlorides 
 MDES.     Inversion Oil/Synthetic:  Mud Desc 
 DFD .sg                  1.34:  Mud Density 
 MDMN.sg                  1.34:  Dens Mud Min 
 MDMX.sg                  1.34:  Dens Mud Max 
 MOIL.                       0:  Run Mud Oil % 
 MOWR.                   67:33:  Run Mud OWR 
 MSND.                       0:  Run Mud Sand % 
 MSOL.                     1.8:  Run Mud Solids% 
 DFV .spqt               76.00:  Mud Viscosity 
 MWOD.in                  6.75:  MWD Tool OD 
 MWSI.                      No:  Serv Intrp, MWD 
 OTIM.hr                228.19:  Time Operating 
 PCON.           Look Like New:  Pad Condition 
 PMAX.psia             6164.70:  Press Op, Max 
 PV  .cP                 28.00:  Mud PV 
 RUN .                     900:  Run Number 
 ROPA.m/hr               19.00:  ROP Avg 
 ROPN.m/hr               11.00:  ROP Min 
 ROPX.m/hr               36.00:  ROP Max 
 RPMA.rpm               120.00:  RPM Surface Avg 
 RPMN.rpm               120.00:  RPM Surface Min 
 RPMX.rpm               120.00:  RPM Surface Max 
 RRUN.                    L604:  Rig Run Number 
 RTIM.hr                  7.00:  Time Reaming 
 SAZI.deg               109.27:  Azm, Start 
 SDEP.m                4761.01:  Start Depth 
 SIDD.                      No:  Serv Intrp, DD 
 SINC.deg                75.38:  Inc, Start 
 SPPA.psig             3574.00:  SPP Avg 
 SPPN.psig             3475.00:  SPP Min 
 SPPX.psig             3791.00:  SPP Max 
 STIM.      07.08.48 13-May-20:  Start Time 
 SVCS.                 DD, MWD:  Services 
 SVER.                    9.20:  Sperry Version 
 TDAT.m                 363.00:  Tot Depth Attmp 
 TDDF.                      No:  Trip for DD 
 TDLG.m                 363.00:  Tot Depth Loggd 
 TFF .                      No:  Trip for Fail 
 TQAA.f-kp               20.00:  Torque Abs Avg 
 TQAN.f-kp               18.00:  Torque Abs Min 
 TQAX.f-kp               22.00:  Torque Abs Max 
 TRRT.°/30m              -0.35:  Turn Rotating 
 MRT .                    HCIM:  Maximum Recorded Temperature 
 TTMX.degC               92.16:  Max Tool Temp 
 VS01.                90586518:  Virtual Str1 SN 
 VS02.        AZ90560654Z1W1C6:  Virtual Str2 SN 
 VS03.           AZ90610398F11:  Virtual Str3 SN 
 VS04.                90514975:  Virtual Str4 SN 
 VS05.                90514972:  Virtual Str5 SN 
 VS06.     AZ90603282F11V7D1A6:  Virtual Str6 SN 
 WBMN.klb                 7.00:  WOB Min 
 WOBA.klb                12.00:  WOB Avg 
 WOBX.klb                14.00:  WOB Max 
 YP  .lhf2               32.00:  Yield Point 
~Curve Information Block
#MNEM.UNIT                 API CODE     Curve Description
#---------               -----------    ---------------------------
 TIME.HHMMSS            00 000 000 000:  GT Time & Date
 GTDEPTH.m              00 000 000 000:  GT Depth
 GTPQH.psia             00 000 000 000:  GT HR Quartz Pressure
 GTTQ.degC              00 000 000 000:  GT Quartz Temperature
 GTTN.NONE              00 000 000 000:  GT Test Number
 GTET.sec               00 000 000 000:  GT Elapsed Test Time
 GTTVD.m                00 000 000 000:  GT True Vertical Depth
#Other Information
#
#WARRANTY: Halliburton will use its best efforts to furnish customers with 
#accurate information and interpretations that are part of, and incident to, the services 
#provided.  However, Halliburton cannot and does not warrant the accuracy 
#or correctness of such information and interpretations.  Under no circumstances should any 
#such information or interpretation be relied upon as the sole basis for any drilling, 
#completion, production, or financial decision or any procedure involving any risk to the 
#safety of any drilling venture, drilling rig or its crew or any other third party.  The 
#Customer has full responsibility for all drilling, completion and production operation.  
#Halliburton makes no representations or warranties, either expressed or 
#implied, including, but not limited to, the implied warranties of merchantability or fitness 
#for a particular purpose, with respect to the services rendered.  In no event will 
#Halliburton be liable for failure to obtain any particular results or for 
#any damages, including, but not limited to, indirect, special or consequential damages, 
#resulting from the use of any information or interpretation provided by Halliburton.
#
~A           TIME           GTDEPTH  GTPQH  GTTQ  GTTN  GTET   GTTVD  
# ...
   19:39:01.601.17-May-2020 4994.01 2917.59 69.84 4.00 114.99 2591.05
   19:39:01.801.17-May-2020 4994.01 2917.59 69.84 4.00 115.19 2591.05
   19:39:02.001.17-May-2020 4994.01 2917.60 69.84 4.00 115.39 2591.05
   19:39:02.201.17-May-2020 4994.01 2917.47 69.84 4.00 115.59 2591.05
   19:39:02.401.17-May-2020 4994.01 2917.54 69.84 4.00 115.79 2591.05
   19:39:02.601.17-May-2020 4994.01 2917.56 69.84 4.00 115.99 2591.05
   19:39:02.801.17-May-2020 4994.01 2917.56 69.84 4.00 116.19 2591.05
   19:39:03.001.17-May-2020 4994.01 2917.55 69.84 4.00 116.39 2591.05
   19:39:03.201.17-May-2020 4994.01 2917.56 69.84 4.00 116.59 2591.05
   19:39:03.401.17-May-2020 4994.01 2917.56 69.84 4.00 116.79 2591.05
   19:39:03.601.17-May-2020 4994.01 2917.57 69.84 4.00 116.99 2591.05
   19:39:03.801.17-May-2020 4994.01 2917.57 69.84 4.00 117.19 2591.05
   19:39:04.001.17-May-2020 4994.01 2917.58 69.84 4.00 117.39 2591.05
   19:39:04.201.17-May-2020 4994.01 2917.64 69.84 4.00 117.59 2591.05
   19:39:04.401.17-May-2020 4994.01 2917.51 69.84 4.00 117.79 2591.05
   19:39:04.601.17-May-2020 4994.01 2917.51 69.84 4.00 117.99 2591.05
   19:39:04.801.17-May-2020 4994.01 2917.54 69.84 4.00 118.19 2591.05
   19:39:05.001.17-May-2020 4994.01 2917.55 69.84 4.00 118.39 2591.05
   19:39:05.201.17-May-2020 4994.01 2917.55 69.84 4.00 118.59 2591.05
   19:39:05.401.17-May-2020 4994.01 2917.55 69.84 4.00 118.79 2591.05
   19:39:05.601.17-May-2020 4994.01 2917.57 69.84 4.00 118.99 2591.05
   19:39:05.801.17-May-2020 4994.01 2917.57 69.84 4.00 119.19 2591.05
   19:39:06.001.17-May-2020 4994.01 2917.58 69.84 4.00 119.39 2591.05
   19:39:06.201.17-May-2020 4994.01 2917.67 69.84 4.00 119.59 2591.05
   19:39:06.401.17-May-2020 4994.01 2917.47 69.84 4.00 119.79 2591.05
   19:39:06.600.17-May-2020 4994.01 2917.55 69.84 4.00 119.99 2591.05
   19:39:06.800.17-May-2020 4994.01 2917.55 69.84 4.00 120.19 2591.05
   19:39:07.000.17-May-2020 4994.01 2917.59 69.84 4.00 120.39 2591.05
   19:39:07.200.17-May-2020 4994.01 2917.54 69.84 4.00 120.59 2591.05
   19:39:07.400.17-May-2020 4994.01 2917.50 69.84 4.00 120.79 2591.05
   19:39:07.600.17-May-2020 4994.01 2917.54 69.84 4.00 120.99 2591.05
   19:39:07.800.17-May-2020 4994.01 2917.54 69.84 4.00 121.19 2591.05
   19:39:08.000.17-May-2020 4994.01 2917.53 69.84 4.00 121.39 2591.05
   19:39:08.200.17-May-2020 4994.01 2917.58 69.84 4.00 121.59 2591.05
   19:39:08.400.17-May-2020 4994.01 2917.51 69.84 4.00 121.79 2591.05
   19:39:08.600.17-May-2020 4994.01 2917.61 69.84 4.00 121.99 2591.05
   19:39:08.800.17-May-2020 4994.01 2917.61 69.84 4.00 122.19 2591.05
   19:39:09.000.17-May-2020 4994.01 2917.55 69.84 4.00 122.39 2591.05
   19:39:09.200.17-May-2020 4994.01 2917.54 69.84 4.00 122.59 2591.05
   19:39:09.400.17-May-2020 4994.01 2917.52 69.84 4.00 122.79 2591.05
   19:39:09.600.17-May-2020 4994.01 2917.54 69.84 4.00 122.99 2591.05
   19:39:09.800.17-May-2020 4994.01 2917.54 69.84 4.00 123.19 2591.05
   19:39:10.000.17-May-2020 4994.01 2917.56 69.84 4.00 123.39 2591.05
   19:39:10.200.17-May-2020 4994.01 2917.55 69.84 4.00 123.59 2591.05
   19:39:10.400.17-May-2020 4994.01 2917.56 69.84 4.00 123.79 2591.05
   19:39:10.600.17-May-2020 4994.01 2917.57 69.84 4.00 123.99 2591.05
   19:39:10.800.17-May-2020 4994.01 2917.57 69.84 4.00 124.19 2591.05
   19:39:11.000.17-May-2020 4994.01 2917.57 69.84 4.00 124.39 2591.05
   19:39:11.200.17-May-2020 4994.01 2917.49 69.84 4.00 124.59 2591.05
   19:39:11.400.17-May-2020 4994.01 2917.54 69.84 4.00 124.79 2591.05
   19:39:11.600.17-May-2020 4994.01 2917.55 69.84 4.00 124.99 2591.05
   19:39:11.800.17-May-2020 4994.01 2917.55 69.84 4.00 125.19 2591.05
   19:39:12.000.17-May-2020 4994.01 2917.54 69.84 4.00 125.39 2591.05
   19:39:12.200.17-May-2020 4994.01 2917.55 69.84 4.00 125.59 2591.05
   19:39:12.400.17-May-2020 4994.01 2917.56 69.84 4.00 125.79 2591.05
   19:39:12.600.17-May-2020 4994.01 2917.56 69.84 4.00 125.99 2591.05
   19:39:12.800.17-May-2020 4994.01 2917.56 69.84 4.00 126.19 2591.05
   19:39:13.000.17-May-2020 4994.01 2917.45 69.83 4.00 126.39 2591.05
   19:39:13.200.17-May-2020 4994.01 2917.55 69.83 4.00 126.59 2591.05
   19:39:13.400.17-May-2020 4994.01 2917.55 69.83 4.00 126.79 2591.05
   19:39:13.600.17-May-2020 4994.01 2917.55 69.83 4.00 126.99 2591.05
   19:39:13.800.17-May-2020 4994.01 2917.55 69.83 4.00 127.19 2591.05
   19:39:14.000.17-May-2020 4994.01 2917.50 69.83 4.00 127.39 2591.05
   19:39:14.200.17-May-2020 4994.01 2917.54 69.83 4.00 127.59 2591.05
   19:39:14.400.17-May-2020 4994.01 2917.61 69.83 4.00 127.79 2591.05
   19:39:14.600.17-May-2020 4994.01 2917.49 69.83 4.00 127.99 2591.05
   19:39:14.800.17-May-2020 4994.01 2917.49 69.83 4.00 128.19 2591.05
   19:39:15.000.17-May-2020 4994.01 2917.55 69.83 4.00 128.39 2591.05
   19:39:15.200.17-May-2020 4994.01 2917.58 69.83 4.00 128.59 2591.05
   19:39:15.400.17-May-2020 4994.01 2917.50 69.83 4.00 128.79 2591.05
   19:39:15.600.17-May-2020 4994.01 2917.52 69.83 4.00 128.99 2591.05
   19:39:15.800.17-May-2020 4994.01 2917.52 69.83 4.00 129.19 2591.05
   19:39:16.000.17-May-2020 4994.01 2917.54 69.83 4.00 129.39 2591.05
   19:39:16.200.17-May-2020 4994.01 2917.53 69.83 4.00 129.59 2591.05
   19:39:16.400.17-May-2020 4994.01 2917.54 69.83 4.00 129.79 2591.05
   19:39:16.600.17-May-2020 4994.01 2917.55 69.83 4.00 129.99 2591.05
   19:39:16.800.17-May-2020 4994.01 2917.55 69.83 4.00 130.19 2591.05
   19:39:17.000.17-May-2020 4994.01 2917.55 69.83 4.00 130.39 2591.05
   19:39:17.200.17-May-2020 4994.01 2917.56 69.83 4.00 130.59 2591.05
   19:39:17.400.17-May-2020 4994.01 2917.54 69.83 4.00 130.79 2591.05
   19:39:17.600.17-May-2020 4994.01 2917.61 69.83 4.00 130.99 2591.05
   19:39:17.800.17-May-2020 4994.01 2917.61 69.83 4.00 131.19 2591.05
   19:39:18.000.17-May-2020 4994.01 2917.51 69.83 4.00 131.39 2591.05
   19:39:18.200.17-May-2020 4994.01 2917.55 69.83 4.00 131.59 2591.05
   19:39:18.400.17-May-2020 4994.01 2917.54 69.83 4.00 131.79 2591.05
   19:39:18.600.17-May-2020 4994.01 2917.53 69.83 4.00 131.99 2591.05
   19:39:18.800.17-May-2020 4994.01 2917.53 69.83 4.00 132.19 2591.05
   19:39:19.000.17-May-2020 4994.01 2917.54 69.83 4.00 132.39 2591.05
   19:39:19.200.17-May-2020 4994.01 2917.56 69.83 4.00 132.59 2591.05
   19:39:19.400.17-May-2020 4994.01 2917.64 69.83 4.00 132.79 2591.05
   19:39:19.599.17-May-2020 4994.01 2917.49 69.83 4.00 132.99 2591.05
   19:39:19.799.17-May-2020 4994.01 2917.49 69.83 4.00 133.19 2591.05
   19:39:19.999.17-May-2020 4994.01 2917.53 69.83 4.00 133.39 2591.05
   19:39:20.199.17-May-2020 4994.01 2917.56 69.83 4.00 133.59 2591.05
   19:39:20.399.17-May-2020 4994.01 2917.59 69.83 4.00 133.79 2591.05
   19:39:20.599.17-May-2020 4994.01 2917.49 69.83 4.00 133.99 2591.05
   19:39:20.799.17-May-2020 4994.01 2917.49 69.83 4.00 134.19 2591.05
   19:39:20.999.17-May-2020 4994.01 2917.62 69.83 4.00 134.39 2591.05
   19:39:21.199.17-May-2020 4994.01 2917.44 69.83 4.00 134.59 2591.05
   19:39:21.399.17-May-2020 4994.01 2917.54 69.83 4.00 134.79 2591.05
   19:39:21.599.17-May-2020 4994.01 2917.55 69.83 4.00 134.99 2591.05
   19:39:21.799.17-May-2020 4994.01 2917.55 69.83 4.00 135.19 2591.05
   19:39:21.999.17-May-2020 4994.01 2917.54 69.83 4.00 135.39 2591.05
   19:39:22.199.17-May-2020 4994.01 2917.48 69.83 4.00 135.59 2591.05
   19:39:22.399.17-May-2020 4994.01 2917.52 69.83 4.00 135.79 2591.05
   19:39:22.599.17-May-2020 4994.01 2917.53 69.83 4.00 135.99 2591.05
   19:39:22.799.17-May-2020 4994.01 2917.53 69.83 4.00 136.19 2591.05
   19:39:22.999.17-May-2020 4994.01 2917.53 69.83 4.00 136.39 2591.05
   19:39:23.199.17-May-2020 4994.01 2917.54 69.83 4.00 136.59 2591.05
   19:39:23.399.17-May-2020 4994.01 2917.53 69.83 4.00 136.79 2591.05
   19:39:23.599.17-May-2020 4994.01 2917.53 69.83 4.00 136.99 2591.05
   19:39:23.799.17-May-2020 4994.01 2917.53 69.83 4.00 137.19 2591.05
   19:39:23.999.17-May-2020 4994.01 2917.52 69.83 4.00 137.39 2591.05
   19:39:24.199.17-May-2020 4994.01 2917.55 69.83 4.00 137.59 2591.05
   19:39:24.399.17-May-2020 4994.01 2917.51 69.83 4.00 137.79 2591.05
