~Version Information
 VERS.                  2.0:   CWLS log ASCII Standard -VERSION 2.0
 WRAP.                   NO:   One line per depth step
~Well Information Block
#MNEM.UNIT     VALUE/NAME     DESCRIPTION
#---------     -----------    ---------------------------
 STRT.S             00:24:31 18-May-20: START TIME 00:24:31 18-May-20
 STOP.S             00:32:03 18-May-20: STOP TIME  00:32:03 18-May-20
 STEP.S                   0.00: STEP TIME
 NULL.                 -999.25: NULL VALUE
 UNIT.                     N/A:  LOGGING EQUIPMENT ID
 DCON.         Sperry Drilling:  DIRECTNL CONTR
 DOE .                     N/A:  DOE NUMBER
 JOBN.        AZ-XX-0906252240:  JOB TICKET NUMB
 MWDS.                     N/A:  MWD SHOP
 PROV.                    Baku:  PROVINCE
 STAT.                    Baku:  STATE NAME
 REGN.                   EESSA:  REGION
 BASE.              Azerbaijan:  LOGGING EQUIPMENT BASE LOCATION
 UWI .                     N/A:  UNIQUE WELL IDENTIFIER
 API .                     N/A:  API NUMBER
 MDS .        Operator Entered:  MAG DATA SOURCE
 WTYP.                Deviated:  WELL TYPE
 COMP.     BP Exploration (Caspian Sea) Ltd.:  COMPANY
 SRVC.          Turan Drilling:  CONTRACTOR
 WELL.           J23 (Slot 07):  WELL NAME
 CTRY.              Azerbaijan:  COUNTRY NAME
 FLD .                     ACG:  FIELD NAME
 PDAT.          Mean Sea Level:  PERMANENT DATUM
 RIG .             West Chirag:  RIG NAME
 SON .        AZ-XX-0906252240:  JOB NUMBER
 FTOP.          Formation Tops:  FORM TOPS DESC
 ILTD.               Lithology:  INTERP LTH DESC
 SVYD.                  Survey:  SURVEY DESC
 DMOD.             Drill Model:  DRILL MOD DESC
 HPTY.       Minimum Curvature:  HOLE POS TYPE
 NREF.                    Grid:  NORTH REFERENCE
 SPUD.               27-Aug-20:  SPUD DATE
 DATE.      00.00.00 19-May-20:  END TIME
 STIM.      03.00.00 25-Mar-20:  START TIME
 DMF .             Drill Floor:  DRILL MEAS FROM
 DFST.                        :  DIST FSL TEXT
 DFWT.                        :  DIST FWL TEXT
 CNTY.                        :  COUNTY
 LOC .                        :  LOCATION
 LMF .             Drill Floor:  LOG MEASURED FROM
 VSNS.m                   9.43:  VERT SEC N/S
 VSEW.m                  -8.91:  VERT SEC E/W
 AGAP.m                  43.00:  AIR GAP
 DEP .m                 354.17:  DEPTH
 APD .m                  43.00:  DEPTH ABOVE PD
 WDMS.m                 169.80:  WD ELEV
 EGL .m                   0.00:  GROUND ELEVATION
 EPD .m                   0.00:  ELEVATION
 AZTC.deg                 6.31:  AZM TOTAL CORR
 GRDC.deg                 0.14:  GRID CORRECTION
 MDEC.deg                 6.45:  MAGNETIC DECL
 MDIP.deg                59.56:  MAGNETIC DIP
 MFLD.nT              50295.00:  MAGNETIC FIELD
 GVFD.g                   1.00:  GRAVITY FIELD
 VSDR.deg               179.88:  VERT SEC DIRECT
 TDD .m                5150.01:  TOTAL DEPTH (DRILLER)
 SDEP.m                 864.00:  START DEPTH
 DFSL.m                   0.00:  DISTANCE FSL
 DFWL.m                   0.00:  DISTANCE FWL
 UTMY.m             4443793.85:  UTM Y
 UTMX.m              519005.06:  UTM X
 WHEW.m                  -8.91:  WELL HEAD E/W
 WHNS.m                   9.43:  WELL HEAD N/S
 LONG.deg                51.22:  LONGITUDE
 LATI.deg                40.13:  LATITUDE
 TVDS.m                  43.00:  TVDSS CORRECTN
 EKB .m                   0.00:  KB ELEVATION
 EDF .m                  43.00:  DF ELEVATION
 TDL .m                 363.00:  TOTAL DEPTH (LOGGER)
 MAGU.                 1850802:  MAGUTM CHECKSUM
 VSC .                       0:  VS TO CLOSURE
~Parameter Information Block
#MNEM.UNIT       Value        Description
#---------     -----------    ---------------------------
 AV  .mps                 2.30:  Ann Velocity 
 AVMX.mps                 4.40:  Max Ann Veloc 
 AZIF.deg               110.24:  Azm, Final 
 BHAT.        Rotary Steerable:  BHA Type 
 BREV.rev               331.00:  Rev Bit Total 
 BROT.°/30m               0.00:  Build Rotating 
 BS  .in                  8.50:  Bit Size 
 BSZ .in                  8.50:  Bit Size 
 BTPL.psig              585.00:  Bit Press Loss 
 CABU.                     Yes:  Customer Abuse 
 COMM.                     ô®q:  Run Comments 1 
 TCS .hr                122.75:  Time Ciculation Ended 
 CV  .mps                 2.67:  Crit Velocity 
 CVMX.mps                 3.56:  Max Crit Veloc 
 DD1 .          Rashad Habibov:  Direct Drillr 1 
 DD2 .         Rasim Ibrahimov:  Direct Drillr 2 
 DDSV.               Geo-Pilot:  DD Service 
 DEFF.%                  98.00:  % Det Eff 
 DLRX.°/30m               0.75:  Dogleg Rot Max 
 DLSO.°/30m               1.25:  Dogleg Oriented 
 DLSX.°/30m               2.06:  Dogleg Str Max 
 DRET.      07.45.00 17-May-20:  Drill End Time 
 DRST.      22.50.00 15-May-20:  Drill Start Tim 
 DTIM.hr                 20.75:  Time Drilling 
 EDEP.m                5124.01:  End Depth 
 ENG1.           Eldar Hajiyev:  Engineer 1 
 ENG2.        Marcelo Sandoval:  Engineer 2 
 ENG3.        Davud huseynzada:  Engineer 3 
 ENG4.          Ruslan Safarov:  Engineer 4 
 ETIM.      04.33.00 23-May-20:  End Time 
 FLOI.gpm               450.00:  Flow In 
 FLON.gpm               400.00:  Flow In Min 
 FLOS.cptm                0.00:  Fluid Loss 
 FLOX.gpm               500.00:  Flow In Max 
 FTRO.       Formation Presure:  FTWD Run Obj 
 HFLO.                      No:  High Flow 
 HPRE.                     Yes:  High Pressure 
 HTEM.                      No:  High Temp 
 HYDO.m                   1.80:  Hydro Offset 
 IFIN.deg                75.06:  Inc, Final 
 IMAX.deg                75.38:  Inc Max 
 IMIN.deg                74.69:  Inc Min 
 IMND.m                5027.38:  Inc Min Depth 
 IMXD.m                4771.61:  Inc Max Depth 
 JARR.                      No:  Jarring 
 LETM.      07.45.00 17-May-20:  Log End Time 
 LOST.hr                     0:  Lost Rig Time 
 LSTM.      22.50.00 15-May-20:  Log Start Time 
 MDCL.ppm             42000.00:  Mud Chlorides 
 MDES.     Inversion Oil/Synthetic:  Mud Desc 
 DFD .sg                  1.34:  Mud Density 
 MDMN.sg                  1.34:  Dens Mud Min 
 MDMX.sg                  1.34:  Dens Mud Max 
 MOIL.                       0:  Run Mud Oil % 
 MOWR.                   67:33:  Run Mud OWR 
 MSND.                       0:  Run Mud Sand % 
 MSOL.                     1.8:  Run Mud Solids% 
 DFV .spqt               76.00:  Mud Viscosity 
 MWOD.in                  6.75:  MWD Tool OD 
 MWSI.                      No:  Serv Intrp, MWD 
 OTIM.hr                228.19:  Time Operating 
 PCON.           Look Like New:  Pad Condition 
 PMAX.psia             6164.70:  Press Op, Max 
 PV  .cP                 28.00:  Mud PV 
 RUN .                     900:  Run Number 
 ROPA.m/hr               19.00:  ROP Avg 
 ROPN.m/hr               11.00:  ROP Min 
 ROPX.m/hr               36.00:  ROP Max 
 RPMA.rpm               120.00:  RPM Surface Avg 
 RPMN.rpm               120.00:  RPM Surface Min 
 RPMX.rpm               120.00:  RPM Surface Max 
 RRUN.                    L604:  Rig Run Number 
 RTIM.hr                  7.00:  Time Reaming 
 SAZI.deg               109.27:  Azm, Start 
 SDEP.m                4761.01:  Start Depth 
 SIDD.                      No:  Serv Intrp, DD 
 SINC.deg                75.38:  Inc, Start 
 SPPA.psig             3574.00:  SPP Avg 
 SPPN.psig             3475.00:  SPP Min 
 SPPX.psig             3791.00:  SPP Max 
 STIM.      07.08.48 13-May-20:  Start Time 
 SVCS.                 DD, MWD:  Services 
 SVER.                    9.20:  Sperry Version 
 TDAT.m                 363.00:  Tot Depth Attmp 
 TDDF.                      No:  Trip for DD 
 TDLG.m                 363.00:  Tot Depth Loggd 
 TFF .                      No:  Trip for Fail 
 TQAA.f-kp               20.00:  Torque Abs Avg 
 TQAN.f-kp               18.00:  Torque Abs Min 
 TQAX.f-kp               22.00:  Torque Abs Max 
 TRRT.°/30m              -0.35:  Turn Rotating 
 MRT .                    HCIM:  Maximum Recorded Temperature 
 TTMX.degC               92.16:  Max Tool Temp 
 VS01.                90586518:  Virtual Str1 SN 
 VS02.        AZ90560654Z1W1C6:  Virtual Str2 SN 
 VS03.           AZ90610398F11:  Virtual Str3 SN 
 VS04.                90514975:  Virtual Str4 SN 
 VS05.                90514972:  Virtual Str5 SN 
 VS06.     AZ90603282F11V7D1A6:  Virtual Str6 SN 
 WBMN.klb                 7.00:  WOB Min 
 WOBA.klb                12.00:  WOB Avg 
 WOBX.klb                14.00:  WOB Max 
 YP  .lhf2               32.00:  Yield Point 
~Curve Information Block
#MNEM.UNIT                 API CODE     Curve Description
#---------               -----------    ---------------------------
 TIME.HHMMSS            00 000 000 000:  GT Time & Date
 GTDEPTH.m              00 000 000 000:  GT Depth
 GTPQH.psia             00 000 000 000:  GT HR Quartz Pressure
 GTTQ.degC              00 000 000 000:  GT Quartz Temperature
 GTTN.NONE              00 000 000 000:  GT Test Number
 GTET.sec               00 000 000 000:  GT Elapsed Test Time
 GTTVD.m                00 000 000 000:  GT True Vertical Depth
#Other Information
#
#WARRANTY: Halliburton will use its best efforts to furnish customers with 
#accurate information and interpretations that are part of, and incident to, the services 
#provided.  However, Halliburton cannot and does not warrant the accuracy 
#or correctness of such information and interpretations.  Under no circumstances should any 
#such information or interpretation be relied upon as the sole basis for any drilling, 
#completion, production, or financial decision or any procedure involving any risk to the 
#safety of any drilling venture, drilling rig or its crew or any other third party.  The 
#Customer has full responsibility for all drilling, completion and production operation.  
#Halliburton makes no representations or warranties, either expressed or 
#implied, including, but not limited to, the implied warranties of merchantability or fitness 
#for a particular purpose, with respect to the services rendered.  In no event will 
#Halliburton be liable for failure to obtain any particular results or for 
#any damages, including, but not limited to, indirect, special or consequential damages, 
#resulting from the use of any information or interpretation provided by Halliburton.
#
~A           TIME           GTDEPTH  GTPQH  GTTQ  GTTN   GTET   GTTVD  
# ...
   00:28:17.403.18-May-2020 4886.01 3643.91 66.41 10.00 226.09 2563.39
   00:28:17.603.18-May-2020 4886.01 3643.91 66.41 10.00 226.29 2563.39
   00:28:17.804.18-May-2020 4886.01 3643.73 66.41 10.00 226.49 2563.39
   00:28:18.004.18-May-2020 4886.01 3643.40 66.41 10.00 226.69 2563.39
   00:28:18.204.18-May-2020 4886.01 3643.90 66.41 10.00 226.89 2563.39
   00:28:18.404.18-May-2020 4886.01 3643.83 66.41 10.00 227.09 2563.39
   00:28:18.604.18-May-2020 4886.01 3643.83 66.41 10.00 227.29 2563.39
   00:28:18.804.18-May-2020 4886.01 3643.58 66.41 10.00 227.49 2563.39
   00:28:19.004.18-May-2020 4886.01 3643.83 66.41 10.00 227.69 2563.39
   00:28:19.204.18-May-2020 4886.01 3643.73 66.41 10.00 227.89 2563.39
   00:28:19.404.18-May-2020 4886.01 3643.66 66.41 10.00 228.09 2563.39
   00:28:19.604.18-May-2020 4886.01 3643.66 66.41 10.00 228.29 2563.39
   00:28:19.804.18-May-2020 4886.01 3643.76 66.41 10.00 228.49 2563.39
   00:28:20.004.18-May-2020 4886.01 3643.63 66.41 10.00 228.69 2563.39
   00:28:20.204.18-May-2020 4886.01 3643.79 66.41 10.00 228.89 2563.39
   00:28:20.405.18-May-2020 4886.01 3643.63 66.41 10.00 229.09 2563.39
   00:28:20.605.18-May-2020 4886.01 3643.63 66.41 10.00 229.29 2563.39
   00:28:20.805.18-May-2020 4886.01 3643.58 66.41 10.00 229.49 2563.39
   00:28:21.005.18-May-2020 4886.01 3643.72 66.41 10.00 229.69 2563.39
   00:28:21.205.18-May-2020 4886.01 3643.64 66.41 10.00 229.89 2563.39
   00:28:21.405.18-May-2020 4886.01 3643.66 66.41 10.00 230.09 2563.39
   00:28:21.605.18-May-2020 4886.01 3643.66 66.41 10.00 230.29 2563.39
   00:28:21.805.18-May-2020 4886.01 3643.64 66.41 10.00 230.49 2563.39
   00:28:22.005.18-May-2020 4886.01 3643.90 66.41 10.00 230.69 2563.39
   00:28:22.205.18-May-2020 4886.01 3643.52 66.41 10.00 230.89 2563.39
   00:28:22.405.18-May-2020 4886.01 3643.83 66.41 10.00 231.09 2563.39
   00:28:22.605.18-May-2020 4886.01 3643.83 66.41 10.00 231.29 2563.39
   00:28:22.806.18-May-2020 4886.01 3643.70 66.41 10.00 231.49 2563.39
   00:28:23.006.18-May-2020 4886.01 3643.59 66.41 10.00 231.69 2563.39
   00:28:23.206.18-May-2020 4886.01 3643.69 66.41 10.00 231.89 2563.39
   00:28:23.406.18-May-2020 4886.01 3643.64 66.41 10.00 232.09 2563.39
   00:28:23.606.18-May-2020 4886.01 3643.64 66.41 10.00 232.29 2563.39
   00:28:23.806.18-May-2020 4886.01 3643.64 66.41 10.00 232.49 2563.39
   00:28:24.006.18-May-2020 4886.01 3643.71 66.41 10.00 232.69 2563.39
   00:28:24.206.18-May-2020 4886.01 3643.74 66.41 10.00 232.89 2563.39
   00:28:24.406.18-May-2020 4886.01 3643.80 66.41 10.00 233.09 2563.39
   00:28:24.606.18-May-2020 4886.01 3643.80 66.41 10.00 233.29 2563.39
   00:28:24.806.18-May-2020 4886.01 3643.65 66.41 10.00 233.49 2563.39
   00:28:25.006.18-May-2020 4886.01 3643.77 66.41 10.00 233.69 2563.39
   00:28:25.206.18-May-2020 4886.01 3643.87 66.41 10.00 233.89 2563.39
   00:28:25.407.18-May-2020 4886.01 3643.61 66.41 10.00 234.09 2563.39
   00:28:25.607.18-May-2020 4886.01 3643.61 66.41 10.00 234.29 2563.39
   00:28:25.807.18-May-2020 4886.01 3643.62 66.41 10.00 234.49 2563.39
   00:28:26.007.18-May-2020 4886.01 3643.77 66.41 10.00 234.69 2563.39
   00:28:26.207.18-May-2020 4886.01 3643.68 66.41 10.00 234.89 2563.39
   00:28:26.407.18-May-2020 4886.01 3643.73 66.41 10.00 235.09 2563.39
   00:28:26.607.18-May-2020 4886.01 3643.92 66.41 10.00 235.29 2563.39
   00:28:26.807.18-May-2020 4886.01 3646.56 66.41 10.00 235.49 2563.39
   00:28:27.007.18-May-2020 4886.01 3644.85 66.41 10.00 235.70 2563.39
   00:28:27.207.18-May-2020 4886.01 3645.35 66.41 10.00 235.90 2563.39
   00:28:27.407.18-May-2020 4886.01 3643.97 66.41 10.00 236.10 2563.39
   00:28:27.607.18-May-2020 4886.01 3643.97 66.41 10.00 236.30 2563.39
   00:28:27.808.18-May-2020 4886.01 3643.83 66.41 10.00 236.50 2563.39
   00:28:28.008.18-May-2020 4886.01 3643.72 66.41 10.00 236.70 2563.39
   00:28:28.208.18-May-2020 4886.01 3643.77 66.41 10.00 236.90 2563.39
   00:28:28.408.18-May-2020 4886.01 3643.72 66.41 10.00 237.10 2563.39
   00:28:28.608.18-May-2020 4886.01 3643.72 66.41 10.00 237.30 2563.39
   00:28:28.808.18-May-2020 4886.01 3644.13 66.41 10.00 237.50 2563.39
   00:28:29.008.18-May-2020 4886.01 3643.87 66.41 10.00 237.70 2563.39
   00:28:29.208.18-May-2020 4886.01 3643.77 66.41 10.00 237.90 2563.39
   00:28:29.408.18-May-2020 4886.01 3643.60 66.41 10.00 238.10 2563.39
   00:28:29.608.18-May-2020 4886.01 3643.60 66.41 10.00 238.30 2563.39
   00:28:29.808.18-May-2020 4886.01 3643.64 66.41 10.00 238.50 2563.39
   00:28:30.008.18-May-2020 4886.01 3643.68 66.41 10.00 238.70 2563.39
   00:28:30.209.18-May-2020 4886.01 3643.68 66.41 10.00 238.90 2563.39
   00:28:30.409.18-May-2020 4886.01 3643.70 66.41 10.00 239.10 2563.39
   00:28:30.609.18-May-2020 4886.01 3643.65 66.41 10.00 239.30 2563.39
   00:28:30.809.18-May-2020 4886.01 3643.72 66.41 10.00 239.50 2563.39
   00:28:31.009.18-May-2020 4886.01 3643.76 66.41 10.00 239.70 2563.39
   00:28:31.209.18-May-2020 4886.01 3643.79 66.41 10.00 239.90 2563.39
   00:28:31.409.18-May-2020 4886.01 3643.69 66.41 10.00 240.10 2563.39
   00:28:31.609.18-May-2020 4886.01 3643.62 66.41 10.00 240.30 2563.39
   00:28:31.809.18-May-2020 4886.01 3643.77 66.41 10.00 240.50 2563.39
   00:28:32.009.18-May-2020 4886.01 3643.85 66.41 10.00 240.70 2563.39
   00:28:32.209.18-May-2020 4886.01 3643.62 66.41 10.00 240.90 2563.39
   00:28:32.409.18-May-2020 4886.01 3644.02 66.41 10.00 241.10 2563.39
   00:28:32.609.18-May-2020 4886.01 3644.02 66.41 10.00 241.30 2563.39
   00:28:32.810.18-May-2020 4886.01 3643.87 66.41 10.00 241.50 2563.39
   00:28:33.010.18-May-2020 4886.01 3643.67 66.41 10.00 241.70 2563.39
   00:28:33.210.18-May-2020 4886.01 3643.56 66.41 10.00 241.90 2563.39
   00:28:33.410.18-May-2020 4886.01 3643.71 66.41 10.00 242.10 2563.39
   00:28:33.610.18-May-2020 4886.01 3643.71 66.41 10.00 242.30 2563.39
   00:28:33.810.18-May-2020 4886.01 3643.78 66.41 10.00 242.50 2563.39
   00:28:34.010.18-May-2020 4886.01 3643.62 66.41 10.00 242.70 2563.39
   00:28:34.210.18-May-2020 4886.01 3643.68 66.41 10.00 242.90 2563.39
   00:28:34.410.18-May-2020 4886.01 3643.60 66.41 10.00 243.10 2563.39
   00:28:34.610.18-May-2020 4886.01 3643.69 66.41 10.00 243.30 2563.39
   00:28:34.810.18-May-2020 4886.01 3643.65 66.41 10.00 243.50 2563.39
   00:28:35.010.18-May-2020 4886.01 3643.69 66.41 10.00 243.70 2563.39
   00:28:35.211.18-May-2020 4886.01 3643.62 66.41 10.00 243.90 2563.39
   00:28:35.411.18-May-2020 4886.01 3643.49 66.41 10.00 244.10 2563.39
   00:28:35.611.18-May-2020 4886.01 3643.49 66.41 10.00 244.30 2563.39
   00:28:35.811.18-May-2020 4886.01 3643.80 66.41 10.00 244.50 2563.39
   00:28:36.011.18-May-2020 4886.01 3643.62 66.41 10.00 244.70 2563.39
   00:28:36.211.18-May-2020 4886.01 3643.66 66.41 10.00 244.90 2563.39
   00:28:36.411.18-May-2020 4886.01 3643.64 66.41 10.00 245.10 2563.39
   00:28:36.611.18-May-2020 4886.01 3643.64 66.41 10.00 245.30 2563.39
   00:28:36.811.18-May-2020 4886.01 3643.65 66.41 10.00 245.50 2563.39
   00:28:37.011.18-May-2020 4886.01 3643.67 66.41 10.00 245.70 2563.39
   00:28:37.211.18-May-2020 4886.01 3643.66 66.41 10.00 245.90 2563.39
   00:28:37.411.18-May-2020 4886.01 3643.63 66.41 10.00 246.10 2563.39
   00:28:37.611.18-May-2020 4886.01 3643.63 66.41 10.00 246.30 2563.39
   00:28:37.812.18-May-2020 4886.01 3643.47 66.41 10.00 246.50 2563.39
   00:28:38.012.18-May-2020 4886.01 3643.84 66.41 10.00 246.70 2563.39
   00:28:38.212.18-May-2020 4886.01 3643.68 66.41 10.00 246.90 2563.39
   00:28:38.412.18-May-2020 4886.01 3657.69 66.41 10.00 247.10 2563.39
   00:28:38.612.18-May-2020 4886.01 3661.25 66.41 10.00 247.30 2563.39
   00:28:38.812.18-May-2020 4886.01 3655.23 66.41 10.00 247.50 2563.39
   00:28:39.012.18-May-2020 4886.01 3654.04 66.41 10.00 247.70 2563.39
   00:28:39.212.18-May-2020 4886.01 3654.44 66.41 10.00 247.90 2563.39
   00:28:39.412.18-May-2020 4886.01 3652.01 66.41 10.00 248.10 2563.39
   00:28:39.612.18-May-2020 4886.01 3649.89 66.41 10.00 248.30 2563.39
   00:28:39.812.18-May-2020 4886.01 3648.24 66.41 10.00 248.50 2563.39
