~Version Information
 VERS.                  2.0:   CWLS log ASCII Standard -VERSION 2.0
 WRAP.                   NO:   One line per depth step
~Well Information Block
#MNEM.UNIT     VALUE/NAME     DESCRIPTION
#---------     -----------    ---------------------------
 STRT.S             21:11:08 17-May-20: START TIME 21:11:08 17-May-20
 STOP.S             21:18:11 17-May-20: STOP TIME  21:18:11 17-May-20
 STEP.S                   0.00: STEP TIME
 NULL.                 -999.25: NULL VALUE
 UNIT.                     N/A:  LOGGING EQUIPMENT ID
 DCON.         Sperry Drilling:  DIRECTNL CONTR
 DOE .                     N/A:  DOE NUMBER
 JOBN.        AZ-XX-0906252240:  JOB TICKET NUMB
 MWDS.                     N/A:  MWD SHOP
 PROV.                    Baku:  PROVINCE
 STAT.                    Baku:  STATE NAME
 REGN.                   EESSA:  REGION
 BASE.              Azerbaijan:  LOGGING EQUIPMENT BASE LOCATION
 UWI .                     N/A:  UNIQUE WELL IDENTIFIER
 API .                     N/A:  API NUMBER
 MDS .        Operator Entered:  MAG DATA SOURCE
 WTYP.                Deviated:  WELL TYPE
 COMP.     BP Exploration (Caspian Sea) Ltd.:  COMPANY
 SRVC.          Turan Drilling:  CONTRACTOR
 WELL.           J23 (Slot 07):  WELL NAME
 CTRY.              Azerbaijan:  COUNTRY NAME
 FLD .                     ACG:  FIELD NAME
 PDAT.          Mean Sea Level:  PERMANENT DATUM
 RIG .             West Chirag:  RIG NAME
 SON .        AZ-XX-0906252240:  JOB NUMBER
 FTOP.          Formation Tops:  FORM TOPS DESC
 ILTD.               Lithology:  INTERP LTH DESC
 SVYD.                  Survey:  SURVEY DESC
 DMOD.             Drill Model:  DRILL MOD DESC
 HPTY.       Minimum Curvature:  HOLE POS TYPE
 NREF.                    Grid:  NORTH REFERENCE
 SPUD.               27-Aug-20:  SPUD DATE
 DATE.      00.00.00 19-May-20:  END TIME
 STIM.      03.00.00 25-Mar-20:  START TIME
 DMF .             Drill Floor:  DRILL MEAS FROM
 DFST.                        :  DIST FSL TEXT
 DFWT.                        :  DIST FWL TEXT
 CNTY.                        :  COUNTY
 LOC .                        :  LOCATION
 LMF .             Drill Floor:  LOG MEASURED FROM
 VSNS.m                   9.43:  VERT SEC N/S
 VSEW.m                  -8.91:  VERT SEC E/W
 AGAP.m                  43.00:  AIR GAP
 DEP .m                 354.17:  DEPTH
 APD .m                  43.00:  DEPTH ABOVE PD
 WDMS.m                 169.80:  WD ELEV
 EGL .m                   0.00:  GROUND ELEVATION
 EPD .m                   0.00:  ELEVATION
 AZTC.deg                 6.31:  AZM TOTAL CORR
 GRDC.deg                 0.14:  GRID CORRECTION
 MDEC.deg                 6.45:  MAGNETIC DECL
 MDIP.deg                59.56:  MAGNETIC DIP
 MFLD.nT              50295.00:  MAGNETIC FIELD
 GVFD.g                   1.00:  GRAVITY FIELD
 VSDR.deg               179.88:  VERT SEC DIRECT
 TDD .m                5150.01:  TOTAL DEPTH (DRILLER)
 SDEP.m                 864.00:  START DEPTH
 DFSL.m                   0.00:  DISTANCE FSL
 DFWL.m                   0.00:  DISTANCE FWL
 UTMY.m             4443793.85:  UTM Y
 UTMX.m              519005.06:  UTM X
 WHEW.m                  -8.91:  WELL HEAD E/W
 WHNS.m                   9.43:  WELL HEAD N/S
 LONG.deg                51.22:  LONGITUDE
 LATI.deg                40.13:  LATITUDE
 TVDS.m                  43.00:  TVDSS CORRECTN
 EKB .m                   0.00:  KB ELEVATION
 EDF .m                  43.00:  DF ELEVATION
 TDL .m                 363.00:  TOTAL DEPTH (LOGGER)
 MAGU.                 1850802:  MAGUTM CHECKSUM
 VSC .                       0:  VS TO CLOSURE
~Parameter Information Block
#MNEM.UNIT       Value        Description
#---------     -----------    ---------------------------
 AV  .mps                 2.30:  Ann Velocity 
 AVMX.mps                 4.40:  Max Ann Veloc 
 AZIF.deg               110.24:  Azm, Final 
 BHAT.        Rotary Steerable:  BHA Type 
 BREV.rev               331.00:  Rev Bit Total 
 BROT.°/30m               0.00:  Build Rotating 
 BS  .in                  8.50:  Bit Size 
 BSZ .in                  8.50:  Bit Size 
 BTPL.psig              585.00:  Bit Press Loss 
 CABU.                     Yes:  Customer Abuse 
 COMM.                     Ô‹p:  Run Comments 1 
 TCS .hr                122.75:  Time Ciculation Ended 
 CV  .mps                 2.67:  Crit Velocity 
 CVMX.mps                 3.56:  Max Crit Veloc 
 DD1 .          Rashad Habibov:  Direct Drillr 1 
 DD2 .         Rasim Ibrahimov:  Direct Drillr 2 
 DDSV.               Geo-Pilot:  DD Service 
 DEFF.%                  98.00:  % Det Eff 
 DLRX.°/30m               0.75:  Dogleg Rot Max 
 DLSO.°/30m               1.25:  Dogleg Oriented 
 DLSX.°/30m               2.06:  Dogleg Str Max 
 DRET.      07.45.00 17-May-20:  Drill End Time 
 DRST.      22.50.00 15-May-20:  Drill Start Tim 
 DTIM.hr                 20.75:  Time Drilling 
 EDEP.m                5124.01:  End Depth 
 ENG1.           Eldar Hajiyev:  Engineer 1 
 ENG2.        Marcelo Sandoval:  Engineer 2 
 ENG3.        Davud huseynzada:  Engineer 3 
 ENG4.          Ruslan Safarov:  Engineer 4 
 ETIM.      04.33.00 23-May-20:  End Time 
 FLOI.gpm               450.00:  Flow In 
 FLON.gpm               400.00:  Flow In Min 
 FLOS.cptm                0.00:  Fluid Loss 
 FLOX.gpm               500.00:  Flow In Max 
 FTRO.       Formation Presure:  FTWD Run Obj 
 HFLO.                      No:  High Flow 
 HPRE.                     Yes:  High Pressure 
 HTEM.                      No:  High Temp 
 HYDO.m                   1.80:  Hydro Offset 
 IFIN.deg                75.06:  Inc, Final 
 IMAX.deg                75.38:  Inc Max 
 IMIN.deg                74.69:  Inc Min 
 IMND.m                5027.38:  Inc Min Depth 
 IMXD.m                4771.61:  Inc Max Depth 
 JARR.                      No:  Jarring 
 LETM.      07.45.00 17-May-20:  Log End Time 
 LOST.hr                     0:  Lost Rig Time 
 LSTM.      22.50.00 15-May-20:  Log Start Time 
 MDCL.ppm             42000.00:  Mud Chlorides 
 MDES.     Inversion Oil/Synthetic:  Mud Desc 
 DFD .sg                  1.34:  Mud Density 
 MDMN.sg                  1.34:  Dens Mud Min 
 MDMX.sg                  1.34:  Dens Mud Max 
 MOIL.                       0:  Run Mud Oil % 
 MOWR.                   67:33:  Run Mud OWR 
 MSND.                       0:  Run Mud Sand % 
 MSOL.                     1.8:  Run Mud Solids% 
 DFV .spqt               76.00:  Mud Viscosity 
 MWOD.in                  6.75:  MWD Tool OD 
 MWSI.                      No:  Serv Intrp, MWD 
 OTIM.hr                228.19:  Time Operating 
 PCON.           Look Like New:  Pad Condition 
 PMAX.psia             6164.70:  Press Op, Max 
 PV  .cP                 28.00:  Mud PV 
 RUN .                     900:  Run Number 
 ROPA.m/hr               19.00:  ROP Avg 
 ROPN.m/hr               11.00:  ROP Min 
 ROPX.m/hr               36.00:  ROP Max 
 RPMA.rpm               120.00:  RPM Surface Avg 
 RPMN.rpm               120.00:  RPM Surface Min 
 RPMX.rpm               120.00:  RPM Surface Max 
 RRUN.                    L604:  Rig Run Number 
 RTIM.hr                  7.00:  Time Reaming 
 SAZI.deg               109.27:  Azm, Start 
 SDEP.m                4761.01:  Start Depth 
 SIDD.                      No:  Serv Intrp, DD 
 SINC.deg                75.38:  Inc, Start 
 SPPA.psig             3574.00:  SPP Avg 
 SPPN.psig             3475.00:  SPP Min 
 SPPX.psig             3791.00:  SPP Max 
 STIM.      07.08.48 13-May-20:  Start Time 
 SVCS.                 DD, MWD:  Services 
 SVER.                    9.20:  Sperry Version 
 TDAT.m                 363.00:  Tot Depth Attmp 
 TDDF.                      No:  Trip for DD 
 TDLG.m                 363.00:  Tot Depth Loggd 
 TFF .                      No:  Trip for Fail 
 TQAA.f-kp               20.00:  Torque Abs Avg 
 TQAN.f-kp               18.00:  Torque Abs Min 
 TQAX.f-kp               22.00:  Torque Abs Max 
 TRRT.°/30m              -0.35:  Turn Rotating 
 MRT .                    HCIM:  Maximum Recorded Temperature 
 TTMX.degC               92.16:  Max Tool Temp 
 VS01.                90586518:  Virtual Str1 SN 
 VS02.        AZ90560654Z1W1C6:  Virtual Str2 SN 
 VS03.           AZ90610398F11:  Virtual Str3 SN 
 VS04.                90514975:  Virtual Str4 SN 
 VS05.                90514972:  Virtual Str5 SN 
 VS06.     AZ90603282F11V7D1A6:  Virtual Str6 SN 
 WBMN.klb                 7.00:  WOB Min 
 WOBA.klb                12.00:  WOB Avg 
 WOBX.klb                14.00:  WOB Max 
 YP  .lhf2               32.00:  Yield Point 
~Curve Information Block
#MNEM.UNIT                 API CODE     Curve Description
#---------               -----------    ---------------------------
 TIME.HHMMSS            00 000 000 000:  GT Time & Date
 GTDEPTH.m              00 000 000 000:  GT Depth
 GTPQH.psia             00 000 000 000:  GT HR Quartz Pressure
 GTTQ.degC              00 000 000 000:  GT Quartz Temperature
 GTTN.NONE              00 000 000 000:  GT Test Number
 GTET.sec               00 000 000 000:  GT Elapsed Test Time
 GTTVD.m                00 000 000 000:  GT True Vertical Depth
#Other Information
#
#WARRANTY: Halliburton will use its best efforts to furnish customers with 
#accurate information and interpretations that are part of, and incident to, the services 
#provided.  However, Halliburton cannot and does not warrant the accuracy 
#or correctness of such information and interpretations.  Under no circumstances should any 
#such information or interpretation be relied upon as the sole basis for any drilling, 
#completion, production, or financial decision or any procedure involving any risk to the 
#safety of any drilling venture, drilling rig or its crew or any other third party.  The 
#Customer has full responsibility for all drilling, completion and production operation.  
#Halliburton makes no representations or warranties, either expressed or 
#implied, including, but not limited to, the implied warranties of merchantability or fitness 
#for a particular purpose, with respect to the services rendered.  In no event will 
#Halliburton be liable for failure to obtain any particular results or for 
#any damages, including, but not limited to, indirect, special or consequential damages, 
#resulting from the use of any information or interpretation provided by Halliburton.
#
~A           TIME           GTDEPTH  GTPQH  GTTQ  GTTN  GTET   GTTVD  
# ...
   21:14:12.160.17-May-2020 4958.01 2923.96 68.07 6.00 183.99 2581.85
   21:14:12.360.17-May-2020 4958.01 2923.96 68.07 6.00 184.19 2581.85
   21:14:12.560.17-May-2020 4958.01 2923.94 68.07 6.00 184.39 2581.85
   21:14:12.760.17-May-2020 4958.01 2923.93 68.07 6.00 184.59 2581.85
   21:14:12.960.17-May-2020 4958.01 2923.96 68.07 6.00 184.79 2581.85
   21:14:13.160.17-May-2020 4958.01 2923.89 68.07 6.00 184.99 2581.85
   21:14:13.360.17-May-2020 4958.01 2923.89 68.07 6.00 185.19 2581.85
   21:14:13.559.17-May-2020 4958.01 2923.85 68.07 6.00 185.39 2581.85
   21:14:13.759.17-May-2020 4958.01 2923.91 68.07 6.00 185.59 2581.85
   21:14:13.959.17-May-2020 4958.01 2923.91 68.07 6.00 185.79 2581.85
   21:14:14.159.17-May-2020 4958.01 2923.93 68.07 6.00 185.99 2581.85
   21:14:14.359.17-May-2020 4958.01 2923.93 68.07 6.00 186.19 2581.85
   21:14:14.559.17-May-2020 4958.01 2923.83 68.07 6.00 186.39 2581.85
   21:14:14.759.17-May-2020 4958.01 2923.96 68.07 6.00 186.59 2581.85
   21:14:14.959.17-May-2020 4958.01 2923.90 68.07 6.00 186.79 2581.85
   21:14:15.159.17-May-2020 4958.01 2923.93 68.07 6.00 186.99 2581.85
   21:14:15.359.17-May-2020 4958.01 2923.93 68.07 6.00 187.19 2581.85
   21:14:15.559.17-May-2020 4958.01 2923.91 68.07 6.00 187.39 2581.85
   21:14:15.759.17-May-2020 4958.01 2923.92 68.07 6.00 187.59 2581.85
   21:14:15.959.17-May-2020 4958.01 2923.93 68.07 6.00 187.79 2581.85
   21:14:16.159.17-May-2020 4958.01 2923.93 68.07 6.00 187.99 2581.85
   21:14:16.359.17-May-2020 4958.01 2923.93 68.07 6.00 188.19 2581.85
   21:14:16.559.17-May-2020 4958.01 2923.95 68.07 6.00 188.39 2581.85
   21:14:16.759.17-May-2020 4958.01 2923.93 68.07 6.00 188.59 2581.85
   21:14:16.959.17-May-2020 4958.01 2923.95 68.07 6.00 188.79 2581.85
   21:14:17.159.17-May-2020 4958.01 2923.89 68.07 6.00 188.99 2581.85
   21:14:17.359.17-May-2020 4958.01 2923.89 68.07 6.00 189.19 2581.85
   21:14:17.559.17-May-2020 4958.01 2923.92 68.07 6.00 189.39 2581.85
   21:14:17.759.17-May-2020 4958.01 2923.92 68.07 6.00 189.59 2581.85
   21:14:17.959.17-May-2020 4958.01 2923.92 68.07 6.00 189.79 2581.85
   21:14:18.159.17-May-2020 4958.01 2923.92 68.07 6.00 189.99 2581.85
   21:14:18.359.17-May-2020 4958.01 2923.92 68.07 6.00 190.19 2581.85
   21:14:18.559.17-May-2020 4958.01 2924.02 68.07 6.00 190.39 2581.85
   21:14:18.759.17-May-2020 4958.01 2923.85 68.07 6.00 190.59 2581.85
   21:14:18.959.17-May-2020 4958.01 2923.96 68.07 6.00 190.79 2581.85
   21:14:19.159.17-May-2020 4958.01 2923.91 68.07 6.00 190.99 2581.85
   21:14:19.359.17-May-2020 4958.01 2923.91 68.07 6.00 191.19 2581.85
   21:14:19.559.17-May-2020 4958.01 2923.82 68.07 6.00 191.39 2581.85
   21:14:19.759.17-May-2020 4958.01 2923.94 68.07 6.00 191.59 2581.85
   21:14:19.959.17-May-2020 4958.01 2923.91 68.07 6.00 191.79 2581.85
   21:14:20.159.17-May-2020 4958.01 2924.05 68.07 6.00 191.99 2581.85
   21:14:20.359.17-May-2020 4958.01 2924.05 68.07 6.00 192.19 2581.85
   21:14:20.559.17-May-2020 4958.01 2923.93 68.07 6.00 192.39 2581.85
   21:14:20.759.17-May-2020 4958.01 2923.93 68.07 6.00 192.59 2581.85
   21:14:20.959.17-May-2020 4958.01 2923.91 68.07 6.00 192.79 2581.85
   21:14:21.159.17-May-2020 4958.01 2924.00 68.07 6.00 192.99 2581.85
   21:14:21.359.17-May-2020 4958.01 2924.00 68.07 6.00 193.19 2581.85
   21:14:21.559.17-May-2020 4958.01 2923.93 68.07 6.00 193.39 2581.85
   21:14:21.759.17-May-2020 4958.01 2923.91 68.07 6.00 193.59 2581.85
   21:14:21.959.17-May-2020 4958.01 2923.92 68.07 6.00 193.79 2581.85
   21:14:22.159.17-May-2020 4958.01 2923.92 68.07 6.00 193.99 2581.85
   21:14:22.359.17-May-2020 4958.01 2923.92 68.07 6.00 194.18 2581.85
   21:14:22.559.17-May-2020 4958.01 2923.92 68.07 6.00 194.38 2581.85
   21:14:22.759.17-May-2020 4958.01 2923.91 68.07 6.00 194.58 2581.85
   21:14:22.959.17-May-2020 4958.01 2923.92 68.06 6.00 194.78 2581.85
   21:14:23.159.17-May-2020 4958.01 2923.92 68.07 6.00 194.98 2581.85
   21:14:23.359.17-May-2020 4958.01 2923.92 68.07 6.00 195.18 2581.85
   21:14:23.559.17-May-2020 4958.01 2923.95 68.06 6.00 195.38 2581.85
   21:14:23.759.17-May-2020 4958.01 2923.96 68.06 6.00 195.58 2581.85
   21:14:23.959.17-May-2020 4958.01 2923.89 68.06 6.00 195.78 2581.85
   21:14:24.159.17-May-2020 4958.01 2923.92 68.06 6.00 195.98 2581.85
   21:14:24.359.17-May-2020 4958.01 2923.92 68.06 6.00 196.18 2581.85
   21:14:24.559.17-May-2020 4958.01 2923.91 68.06 6.00 196.38 2581.85
   21:14:24.759.17-May-2020 4958.01 2923.92 68.06 6.00 196.58 2581.85
   21:14:24.959.17-May-2020 4958.01 2923.92 68.06 6.00 196.78 2581.85
   21:14:25.159.17-May-2020 4958.01 2923.92 68.06 6.00 196.98 2581.85
   21:14:25.359.17-May-2020 4958.01 2923.92 68.06 6.00 197.18 2581.85
   21:14:25.559.17-May-2020 4958.01 2923.86 68.06 6.00 197.38 2581.85
   21:14:25.759.17-May-2020 4958.01 2923.92 68.06 6.00 197.58 2581.85
   21:14:25.959.17-May-2020 4958.01 2923.92 68.06 6.00 197.78 2581.85
   21:14:26.159.17-May-2020 4958.01 2924.02 68.06 6.00 197.98 2581.85
   21:14:26.359.17-May-2020 4958.01 2924.02 68.06 6.00 198.18 2581.85
   21:14:26.558.17-May-2020 4958.01 2923.92 68.06 6.00 198.38 2581.85
   21:14:26.758.17-May-2020 4958.01 2923.92 68.06 6.00 198.58 2581.85
   21:14:26.958.17-May-2020 4958.01 2923.93 68.06 6.00 198.78 2581.85
   21:14:27.158.17-May-2020 4958.01 2923.95 68.06 6.00 198.98 2581.85
   21:14:27.358.17-May-2020 4958.01 2923.95 68.06 6.00 199.18 2581.85
   21:14:27.558.17-May-2020 4958.01 2923.94 68.06 6.00 199.38 2581.85
   21:14:27.758.17-May-2020 4958.01 2923.88 68.06 6.00 199.58 2581.85
   21:14:27.958.17-May-2020 4958.01 2924.02 68.06 6.00 199.78 2581.85
   21:14:28.158.17-May-2020 4958.01 2923.83 68.06 6.00 199.98 2581.85
   21:14:28.358.17-May-2020 4958.01 2923.83 68.06 6.00 200.18 2581.85
   21:14:28.558.17-May-2020 4958.01 2923.92 68.06 6.00 200.38 2581.85
   21:14:28.758.17-May-2020 4958.01 2923.90 68.06 6.00 200.58 2581.85
   21:14:28.958.17-May-2020 4958.01 2923.92 68.06 6.00 200.78 2581.85
   21:14:29.158.17-May-2020 4958.01 2923.91 68.06 6.00 200.98 2581.85
   21:14:29.358.17-May-2020 4958.01 2923.91 68.06 6.00 201.18 2581.85
   21:14:29.558.17-May-2020 4958.01 2923.91 68.06 6.00 201.38 2581.85
   21:14:29.758.17-May-2020 4958.01 2923.91 68.06 6.00 201.58 2581.85
   21:14:29.958.17-May-2020 4958.01 2923.92 68.06 6.00 201.78 2581.85
   21:14:30.158.17-May-2020 4958.01 2924.02 68.06 6.00 201.98 2581.85
   21:14:30.358.17-May-2020 4958.01 2924.02 68.06 6.00 202.18 2581.85
   21:14:30.558.17-May-2020 4958.01 2923.94 68.06 6.00 202.38 2581.85
   21:14:30.758.17-May-2020 4958.01 2923.92 68.06 6.00 202.58 2581.85
   21:14:30.958.17-May-2020 4958.01 2923.93 68.06 6.00 202.78 2581.85
   21:14:31.158.17-May-2020 4958.01 2923.92 68.06 6.00 202.98 2581.85
   21:14:31.358.17-May-2020 4958.01 2923.92 68.06 6.00 203.18 2581.85
   21:14:31.558.17-May-2020 4958.01 2923.92 68.06 6.00 203.38 2581.85
   21:14:31.758.17-May-2020 4958.01 2923.92 68.06 6.00 203.58 2581.85
   21:14:31.958.17-May-2020 4958.01 2923.91 68.06 6.00 203.78 2581.85
   21:14:32.158.17-May-2020 4958.01 2924.02 68.06 6.00 203.98 2581.85
   21:14:32.358.17-May-2020 4958.01 2924.02 68.06 6.00 204.18 2581.85
   21:14:32.558.17-May-2020 4958.01 2923.96 68.06 6.00 204.38 2581.85
   21:14:32.758.17-May-2020 4958.01 2923.92 68.06 6.00 204.58 2581.85
   21:14:32.958.17-May-2020 4958.01 2923.99 68.06 6.00 204.78 2581.85
   21:14:33.158.17-May-2020 4958.01 2923.86 68.06 6.00 204.98 2581.85
   21:14:33.358.17-May-2020 4958.01 2923.86 68.06 6.00 205.18 2581.85
   21:14:33.558.17-May-2020 4958.01 2923.93 68.06 6.00 205.38 2581.85
   21:14:33.758.17-May-2020 4958.01 2923.91 68.06 6.00 205.58 2581.85
   21:14:33.958.17-May-2020 4958.01 2923.90 68.06 6.00 205.78 2581.85
   21:14:34.158.17-May-2020 4958.01 2923.96 68.06 6.00 205.98 2581.85
   21:14:34.358.17-May-2020 4958.01 2923.96 68.06 6.00 206.18 2581.85
   21:14:34.558.17-May-2020 4958.01 2923.88 68.06 6.00 206.38 2581.85
   21:14:34.758.17-May-2020 4958.01 2923.94 68.06 6.00 206.58 2581.85
   21:14:34.958.17-May-2020 4958.01 2923.94 68.06 6.00 206.78 2581.85
