~Version Information
 VERS.                  2.0:   CWLS log ASCII Standard -VERSION 2.0
 WRAP.                   NO:   One line per depth step
~Well Information Block
#MNEM.UNIT     VALUE/NAME     DESCRIPTION
#---------     -----------    ---------------------------
 STRT.S             12:13:26 20-May-20: START TIME 12:13:26 20-May-20
 STOP.S             12:20:31 20-May-20: STOP TIME  12:20:31 20-May-20
 STEP.S                   0.00: STEP TIME
 NULL.                 -999.25: NULL VALUE
 UNIT.                     N/A:  LOGGING EQUIPMENT ID
 DCON.         Sperry Drilling:  DIRECTNL CONTR
 DOE .                     N/A:  DOE NUMBER
 JOBN.        AZ-XX-0906252240:  JOB TICKET NUMB
 MWDS.                     N/A:  MWD SHOP
 PROV.                    Baku:  PROVINCE
 STAT.                    Baku:  STATE NAME
 REGN.                   EESSA:  REGION
 BASE.              Azerbaijan:  LOGGING EQUIPMENT BASE LOCATION
 UWI .                     N/A:  UNIQUE WELL IDENTIFIER
 API .                     N/A:  API NUMBER
 MDS .        Operator Entered:  MAG DATA SOURCE
 WTYP.                Deviated:  WELL TYPE
 COMP.     BP Exploration (Caspian Sea) Ltd.:  COMPANY
 SRVC.          Turan Drilling:  CONTRACTOR
 WELL.           J23 (Slot 07):  WELL NAME
 CTRY.              Azerbaijan:  COUNTRY NAME
 FLD .                     ACG:  FIELD NAME
 PDAT.          Mean Sea Level:  PERMANENT DATUM
 RIG .             West Chirag:  RIG NAME
 SON .        AZ-XX-0906252240:  JOB NUMBER
 FTOP.          Formation Tops:  FORM TOPS DESC
 ILTD.               Lithology:  INTERP LTH DESC
 SVYD.                  Survey:  SURVEY DESC
 DMOD.             Drill Model:  DRILL MOD DESC
 HPTY.       Minimum Curvature:  HOLE POS TYPE
 NREF.                    Grid:  NORTH REFERENCE
 SPUD.               27-Aug-20:  SPUD DATE
 DATE.      00.00.00 19-May-20:  END TIME
 STIM.      03.00.00 25-Mar-20:  START TIME
 DMF .             Drill Floor:  DRILL MEAS FROM
 DFST.                        :  DIST FSL TEXT
 DFWT.                        :  DIST FWL TEXT
 CNTY.                        :  COUNTY
 LOC .                        :  LOCATION
 LMF .             Drill Floor:  LOG MEASURED FROM
 VSNS.m                   9.43:  VERT SEC N/S
 VSEW.m                  -8.91:  VERT SEC E/W
 AGAP.m                  43.00:  AIR GAP
 DEP .m                 354.17:  DEPTH
 APD .m                  43.00:  DEPTH ABOVE PD
 WDMS.m                 169.80:  WD ELEV
 EGL .m                   0.00:  GROUND ELEVATION
 EPD .m                   0.00:  ELEVATION
 AZTC.deg                 6.31:  AZM TOTAL CORR
 GRDC.deg                 0.14:  GRID CORRECTION
 MDEC.deg                 6.45:  MAGNETIC DECL
 MDIP.deg                59.56:  MAGNETIC DIP
 MFLD.nT              50295.00:  MAGNETIC FIELD
 GVFD.g                   1.00:  GRAVITY FIELD
 VSDR.deg               179.88:  VERT SEC DIRECT
 TDD .m                5150.01:  TOTAL DEPTH (DRILLER)
 SDEP.m                 864.00:  START DEPTH
 DFSL.m                   0.00:  DISTANCE FSL
 DFWL.m                   0.00:  DISTANCE FWL
 UTMY.m             4443793.85:  UTM Y
 UTMX.m              519005.06:  UTM X
 WHEW.m                  -8.91:  WELL HEAD E/W
 WHNS.m                   9.43:  WELL HEAD N/S
 LONG.deg                51.22:  LONGITUDE
 LATI.deg                40.13:  LATITUDE
 TVDS.m                  43.00:  TVDSS CORRECTN
 EKB .m                   0.00:  KB ELEVATION
 EDF .m                  43.00:  DF ELEVATION
 TDL .m                 363.00:  TOTAL DEPTH (LOGGER)
 MAGU.                 1850802:  MAGUTM CHECKSUM
 VSC .                       0:  VS TO CLOSURE
~Parameter Information Block
#MNEM.UNIT       Value        Description
#---------     -----------    ---------------------------
 AV  .mps                 2.30:  Ann Velocity 
 AVMX.mps                 4.40:  Max Ann Veloc 
 AZIF.deg               110.24:  Azm, Final 
 BHAT.        Rotary Steerable:  BHA Type 
 BREV.rev               331.00:  Rev Bit Total 
 BROT.°/30m               0.00:  Build Rotating 
 BS  .in                  8.50:  Bit Size 
 BSZ .in                  8.50:  Bit Size 
 BTPL.psig              585.00:  Bit Press Loss 
 CABU.                     Yes:  Customer Abuse 
 COMM.                     моЊ:  Run Comments 1 
 TCS .hr                122.75:  Time Ciculation Ended 
 CV  .mps                 2.67:  Crit Velocity 
 CVMX.mps                 3.56:  Max Crit Veloc 
 DD1 .          Rashad Habibov:  Direct Drillr 1 
 DD2 .         Rasim Ibrahimov:  Direct Drillr 2 
 DDSV.               Geo-Pilot:  DD Service 
 DEFF.%                  98.00:  % Det Eff 
 DLRX.°/30m               0.75:  Dogleg Rot Max 
 DLSO.°/30m               1.25:  Dogleg Oriented 
 DLSX.°/30m               2.06:  Dogleg Str Max 
 DRET.      07.45.00 17-May-20:  Drill End Time 
 DRST.      22.50.00 15-May-20:  Drill Start Tim 
 DTIM.hr                 20.75:  Time Drilling 
 EDEP.m                5124.01:  End Depth 
 ENG1.           Eldar Hajiyev:  Engineer 1 
 ENG2.        Marcelo Sandoval:  Engineer 2 
 ENG3.        Davud huseynzada:  Engineer 3 
 ENG4.          Ruslan Safarov:  Engineer 4 
 ETIM.      04.33.00 23-May-20:  End Time 
 FLOI.gpm               450.00:  Flow In 
 FLON.gpm               400.00:  Flow In Min 
 FLOS.cptm                0.00:  Fluid Loss 
 FLOX.gpm               500.00:  Flow In Max 
 FTRO.       Formation Presure:  FTWD Run Obj 
 HFLO.                      No:  High Flow 
 HPRE.                     Yes:  High Pressure 
 HTEM.                      No:  High Temp 
 HYDO.m                   1.80:  Hydro Offset 
 IFIN.deg                75.06:  Inc, Final 
 IMAX.deg                75.38:  Inc Max 
 IMIN.deg                74.69:  Inc Min 
 IMND.m                5027.38:  Inc Min Depth 
 IMXD.m                4771.61:  Inc Max Depth 
 JARR.                      No:  Jarring 
 LETM.      07.45.00 17-May-20:  Log End Time 
 LOST.hr                     0:  Lost Rig Time 
 LSTM.      22.50.00 15-May-20:  Log Start Time 
 MDCL.ppm             42000.00:  Mud Chlorides 
 MDES.     Inversion Oil/Synthetic:  Mud Desc 
 DFD .sg                  1.34:  Mud Density 
 MDMN.sg                  1.34:  Dens Mud Min 
 MDMX.sg                  1.34:  Dens Mud Max 
 MOIL.                       0:  Run Mud Oil % 
 MOWR.                   67:33:  Run Mud OWR 
 MSND.                       0:  Run Mud Sand % 
 MSOL.                     1.8:  Run Mud Solids% 
 DFV .spqt               76.00:  Mud Viscosity 
 MWOD.in                  6.75:  MWD Tool OD 
 MWSI.                      No:  Serv Intrp, MWD 
 OTIM.hr                228.19:  Time Operating 
 PCON.           Look Like New:  Pad Condition 
 PMAX.psia             6164.70:  Press Op, Max 
 PV  .cP                 28.00:  Mud PV 
 RUN .                     900:  Run Number 
 ROPA.m/hr               19.00:  ROP Avg 
 ROPN.m/hr               11.00:  ROP Min 
 ROPX.m/hr               36.00:  ROP Max 
 RPMA.rpm               120.00:  RPM Surface Avg 
 RPMN.rpm               120.00:  RPM Surface Min 
 RPMX.rpm               120.00:  RPM Surface Max 
 RRUN.                    L604:  Rig Run Number 
 RTIM.hr                  7.00:  Time Reaming 
 SAZI.deg               109.27:  Azm, Start 
 SDEP.m                4761.01:  Start Depth 
 SIDD.                      No:  Serv Intrp, DD 
 SINC.deg                75.38:  Inc, Start 
 SPPA.psig             3574.00:  SPP Avg 
 SPPN.psig             3475.00:  SPP Min 
 SPPX.psig             3791.00:  SPP Max 
 STIM.      07.08.48 13-May-20:  Start Time 
 SVCS.                 DD, MWD:  Services 
 SVER.                    9.20:  Sperry Version 
 TDAT.m                 363.00:  Tot Depth Attmp 
 TDDF.                      No:  Trip for DD 
 TDLG.m                 363.00:  Tot Depth Loggd 
 TFF .                      No:  Trip for Fail 
 TQAA.f-kp               20.00:  Torque Abs Avg 
 TQAN.f-kp               18.00:  Torque Abs Min 
 TQAX.f-kp               22.00:  Torque Abs Max 
 TRRT.°/30m              -0.35:  Turn Rotating 
 MRT .                    HCIM:  Maximum Recorded Temperature 
 TTMX.degC               92.16:  Max Tool Temp 
 VS01.                90586518:  Virtual Str1 SN 
 VS02.        AZ90560654Z1W1C6:  Virtual Str2 SN 
 VS03.           AZ90610398F11:  Virtual Str3 SN 
 VS04.                90514975:  Virtual Str4 SN 
 VS05.                90514972:  Virtual Str5 SN 
 VS06.     AZ90603282F11V7D1A6:  Virtual Str6 SN 
 WBMN.klb                 7.00:  WOB Min 
 WOBA.klb                12.00:  WOB Avg 
 WOBX.klb                14.00:  WOB Max 
 YP  .lhf2               32.00:  Yield Point 
~Curve Information Block
#MNEM.UNIT                 API CODE     Curve Description
#---------               -----------    ---------------------------
 TIME.HHMMSS            00 000 000 000:  GT Time & Date
 GTDEPTH.m              00 000 000 000:  GT Depth
 GTPQH.psia             00 000 000 000:  GT HR Quartz Pressure
 GTTQ.degC              00 000 000 000:  GT Quartz Temperature
 GTTN.NONE              00 000 000 000:  GT Test Number
 GTET.sec               00 000 000 000:  GT Elapsed Test Time
 GTTVD.m                00 000 000 000:  GT True Vertical Depth
#Other Information
#
#WARRANTY: Halliburton will use its best efforts to furnish customers with 
#accurate information and interpretations that are part of, and incident to, the services 
#provided.  However, Halliburton cannot and does not warrant the accuracy 
#or correctness of such information and interpretations.  Under no circumstances should any 
#such information or interpretation be relied upon as the sole basis for any drilling, 
#completion, production, or financial decision or any procedure involving any risk to the 
#safety of any drilling venture, drilling rig or its crew or any other third party.  The 
#Customer has full responsibility for all drilling, completion and production operation.  
#Halliburton makes no representations or warranties, either expressed or 
#implied, including, but not limited to, the implied warranties of merchantability or fitness 
#for a particular purpose, with respect to the services rendered.  In no event will 
#Halliburton be liable for failure to obtain any particular results or for 
#any damages, including, but not limited to, indirect, special or consequential damages, 
#resulting from the use of any information or interpretation provided by Halliburton.
#
~A           TIME           GTDEPTH  GTPQH  GTTQ  GTTN   GTET   GTTVD  
   12:13:26.701.20-May-2020 4766.51 5469.21 69.69 15.00   0.00 2532.42
   12:13:26.901.20-May-2020 4766.51 5469.21 69.69 15.00   0.20 2532.42
   12:13:27.101.20-May-2020 4766.51 5470.65 69.69 15.00   0.40 2532.42
   12:13:27.301.20-May-2020 4766.51 5471.14 69.69 15.00   0.60 2532.42
   12:13:27.501.20-May-2020 4766.51 5482.54 69.69 15.00   0.80 2532.42
   12:13:27.701.20-May-2020 4766.51 5472.25 69.69 15.00   1.00 2532.42
   12:13:27.901.20-May-2020 4766.51 5472.25 69.69 15.00   1.20 2532.42
   12:13:28.101.20-May-2020 4766.51 5482.56 69.69 15.00   1.40 2532.42
   12:13:28.301.20-May-2020 4766.51 5475.07 69.69 15.00   1.60 2532.42
   12:13:28.501.20-May-2020 4766.51 5476.51 69.69 15.00   1.80 2532.42
   12:13:28.701.20-May-2020 4766.51 5474.59 69.69 15.00   2.00 2532.42
   12:13:28.901.20-May-2020 4766.51 5484.47 69.68 15.00   2.20 2532.42
   12:13:29.101.20-May-2020 4766.51 5478.49 69.68 15.00   2.40 2532.42
   12:13:29.302.20-May-2020 4766.51 5476.18 69.68 15.00   2.60 2532.42
   12:13:29.502.20-May-2020 4766.51 5483.70 69.68 15.00   2.80 2532.42
   12:13:29.702.20-May-2020 4766.51 5476.65 69.68 15.00   3.00 2532.42
   12:13:29.902.20-May-2020 4766.51 5476.65 69.68 15.00   3.20 2532.42
   12:13:30.102.20-May-2020 4766.51 5476.87 69.68 15.00   3.40 2532.42
   12:13:30.302.20-May-2020 4766.51 5486.41 69.68 15.00   3.60 2532.42
   12:13:30.502.20-May-2020 4766.51 5478.79 69.68 15.00   3.80 2532.42
   12:13:30.702.20-May-2020 4766.51 5477.32 69.68 15.00   4.00 2532.42
   12:13:30.902.20-May-2020 4766.51 5477.32 69.68 15.00   4.20 2532.42
   12:13:31.102.20-May-2020 4766.51 5486.48 69.68 15.00   4.40 2532.42
   12:13:31.302.20-May-2020 4766.51 5479.99 69.68 15.00   4.60 2532.42
   12:13:31.502.20-May-2020 4766.51 5477.92 69.68 15.00   4.80 2532.42
   12:13:31.702.20-May-2020 4766.51 5476.84 69.68 15.00   5.00 2532.42
   12:13:31.902.20-May-2020 4766.51 5476.84 69.68 15.00   5.20 2532.42
   12:13:32.102.20-May-2020 4766.51 5482.79 69.68 15.00   5.40 2532.42
   12:13:32.303.20-May-2020 4766.51 5478.65 69.68 15.00   5.60 2532.42
   12:13:32.503.20-May-2020 4766.51 5477.29 69.68 15.00   5.80 2532.42
   12:13:32.703.20-May-2020 4766.51 5476.63 69.68 15.00   6.00 2532.42
   12:13:32.903.20-May-2020 4766.51 5480.47 69.68 15.00   6.20 2532.42
   12:13:33.103.20-May-2020 4766.51 5478.10 69.68 15.00   6.40 2532.42
   12:13:33.303.20-May-2020 4766.51 5477.07 69.68 15.00   6.60 2532.42
   12:13:33.503.20-May-2020 4766.51 5477.17 69.68 15.00   6.80 2532.42
   12:13:33.703.20-May-2020 4766.51 5477.11 69.68 15.00   7.00 2532.42
   12:13:33.903.20-May-2020 4766.51 5477.14 69.68 15.00   7.20 2532.42
   12:13:34.103.20-May-2020 4766.51 5477.09 69.67 15.00   7.40 2532.42
   12:13:34.303.20-May-2020 4766.51 5488.39 69.67 15.00   7.60 2532.42
   12:13:34.503.20-May-2020 4766.51 5476.96 69.67 15.00   7.80 2532.42
   12:13:34.703.20-May-2020 4766.51 5477.90 69.67 15.00   8.00 2532.42
   12:13:34.903.20-May-2020 4766.51 5477.90 69.67 15.00   8.20 2532.42
   12:13:35.103.20-May-2020 4766.51 5479.48 69.67 15.00   8.40 2532.42
   12:13:35.303.20-May-2020 4766.51 5480.27 69.67 15.00   8.60 2532.42
   12:13:35.504.20-May-2020 4766.51 5479.07 69.67 15.00   8.80 2532.42
   12:13:35.704.20-May-2020 4766.51 5479.25 69.67 15.00   9.00 2532.42
   12:13:35.904.20-May-2020 4766.51 5479.25 69.67 15.00   9.20 2532.42
   12:13:36.104.20-May-2020 4766.51 5480.04 69.67 15.00   9.40 2532.42
   12:13:36.304.20-May-2020 4766.51 5479.68 69.67 15.00   9.60 2532.42
   12:13:36.504.20-May-2020 4766.51 5489.01 69.67 15.00   9.80 2532.42
   12:13:36.704.20-May-2020 4766.51 5480.78 69.67 15.00  10.00 2532.42
   12:13:36.904.20-May-2020 4766.51 5479.05 69.67 15.00  10.20 2532.42
   12:13:37.104.20-May-2020 4766.51 5478.97 69.67 15.00  10.40 2532.42
   12:13:37.304.20-May-2020 4766.51 5484.74 69.67 15.00  10.60 2532.42
   12:13:37.504.20-May-2020 4766.51 5488.81 69.67 15.00  10.80 2532.42
   12:13:37.704.20-May-2020 4766.51 5480.98 69.67 15.00  11.00 2532.42
   12:13:37.904.20-May-2020 4766.51 5480.25 69.67 15.00  11.20 2532.42
   12:13:38.104.20-May-2020 4766.51 5480.20 69.67 15.00  11.40 2532.42
   12:13:38.304.20-May-2020 4766.51 5494.67 69.67 15.00  11.60 2532.42
   12:13:38.504.20-May-2020 4766.51 5481.16 69.67 15.00  11.80 2532.42
   12:13:38.705.20-May-2020 4766.51 5480.90 69.67 15.00  12.00 2532.42
   12:13:38.905.20-May-2020 4766.51 5480.90 69.67 15.00  12.20 2532.42
   12:13:39.105.20-May-2020 4766.51 5493.12 69.66 15.00  12.40 2532.42
   12:13:39.305.20-May-2020 4766.51 5481.94 69.66 15.00  12.60 2532.42
   12:13:39.505.20-May-2020 4766.51 5481.45 69.66 15.00  12.80 2532.42
   12:13:39.705.20-May-2020 4766.51 5491.22 69.66 15.00  13.00 2532.42
   12:13:39.905.20-May-2020 4766.51 5491.22 69.66 15.00  13.20 2532.42
   12:13:40.105.20-May-2020 4766.51 5483.34 69.66 15.00  13.40 2532.42
   12:13:40.305.20-May-2020 4766.51 5481.15 69.66 15.00  13.60 2532.42
   12:13:40.505.20-May-2020 4766.51 5492.03 69.66 15.00  13.80 2532.42
   12:13:40.705.20-May-2020 4766.51 5483.42 69.66 15.00  14.00 2532.42
   12:13:40.905.20-May-2020 4766.51 5480.96 69.66 15.00  14.20 2532.42
   12:13:41.105.20-May-2020 4766.51 5479.19 69.66 15.00  14.40 2532.42
   12:13:41.305.20-May-2020 4766.51 5481.15 69.66 15.00  14.60 2532.42
   12:13:41.505.20-May-2020 4766.51 5482.37 69.66 15.00  14.80 2532.42
   12:13:41.706.20-May-2020 4766.51 5480.43 69.66 15.00  15.00 2532.42
   12:13:41.906.20-May-2020 4766.51 5479.69 69.66 15.00  15.20 2532.42
   12:13:42.106.20-May-2020 4766.51 5479.95 69.66 15.00  15.40 2532.42
   12:13:42.306.20-May-2020 4766.51 5479.99 69.66 15.00  15.60 2532.42
   12:13:42.506.20-May-2020 4766.51 5491.56 69.66 15.00  15.81 2532.42
   12:13:42.706.20-May-2020 4766.51 5480.29 69.66 15.00  16.01 2532.42
   12:13:42.906.20-May-2020 4766.51 5480.29 69.66 15.00  16.21 2532.42
   12:13:43.106.20-May-2020 4766.51 5479.91 69.66 15.00  16.41 2532.42
   12:13:43.306.20-May-2020 4766.51 5480.44 69.66 15.00  16.61 2532.42
   12:13:43.506.20-May-2020 4766.51 5483.72 69.66 15.00  16.81 2532.42
   12:13:43.706.20-May-2020 4766.51 5481.32 69.66 15.00  17.01 2532.42
   12:13:43.906.20-May-2020 4766.51 5481.32 69.66 15.00  17.21 2532.42
   12:13:44.106.20-May-2020 4766.51 5480.70 69.66 15.00  17.41 2532.42
   12:13:44.306.20-May-2020 4766.51 5480.85 69.65 15.00  17.61 2532.42
   12:13:44.506.20-May-2020 4766.51 5481.10 69.65 15.00  17.81 2532.42
   12:13:44.706.20-May-2020 4766.51 5488.68 69.65 15.00  18.01 2532.42
   12:13:44.907.20-May-2020 4766.51 5488.68 69.65 15.00  18.21 2532.42
   12:13:45.107.20-May-2020 4766.51 5482.01 69.65 15.00  18.41 2532.42
   12:13:45.307.20-May-2020 4766.51 5481.40 69.65 15.00  18.61 2532.42
   12:13:45.507.20-May-2020 4766.51 5492.53 69.65 15.00  18.81 2532.42
   12:13:45.707.20-May-2020 4766.51 5485.43 69.65 15.00  19.01 2532.42
   12:13:45.907.20-May-2020 4766.51 5483.82 69.65 15.00  19.21 2532.42
   12:13:46.107.20-May-2020 4766.51 5481.68 69.65 15.00  19.41 2532.42
   12:13:46.307.20-May-2020 4766.51 5483.52 69.65 15.00  19.61 2532.42
   12:13:46.507.20-May-2020 4766.51 5495.71 69.65 15.00  19.81 2532.42
   12:13:46.707.20-May-2020 4766.51 5483.46 69.65 15.00  20.01 2532.42
   12:13:46.907.20-May-2020 4766.51 5483.46 69.65 15.00  20.21 2532.42
   12:13:47.107.20-May-2020 4766.51 5481.47 69.65 15.00  20.41 2532.42
   12:13:47.307.20-May-2020 4766.51 5494.11 69.65 15.00  20.61 2532.42
   12:13:47.507.20-May-2020 4766.51 5486.40 69.65 15.00  20.81 2532.42
   12:13:47.707.20-May-2020 4766.51 5483.56 69.65 15.00  21.01 2532.42
   12:13:47.907.20-May-2020 4766.51 5483.56 69.65 15.00  21.21 2532.42
   12:13:48.108.20-May-2020 4766.51 5482.17 69.65 15.00  21.41 2532.42
   12:13:48.308.20-May-2020 4766.51 5487.14 69.65 15.00  21.61 2532.42
   12:13:48.508.20-May-2020 4766.51 5483.54 69.65 15.00  21.81 2532.42
   12:13:48.708.20-May-2020 4766.51 5482.10 69.65 15.00  22.01 2532.42
   12:13:48.908.20-May-2020 4766.51 5482.47 69.65 15.00  22.21 2532.42
   12:13:49.108.20-May-2020 4766.51 5482.27 69.65 15.00  22.41 2532.42
