~Version Information
 VERS.                  2.0:   CWLS log ASCII Standard -VERSION 2.0
 WRAP.                   NO:   One line per depth step
~Well Information Block
#MNEM.UNIT     VALUE/NAME     DESCRIPTION
#---------     -----------    ---------------------------
 STRT.S             22:49:31 17-May-20: START TIME 22:49:31 17-May-20
 STOP.S             22:56:24 17-May-20: STOP TIME  22:56:24 17-May-20
 STEP.S                   0.00: STEP TIME
 NULL.                 -999.25: NULL VALUE
 UNIT.                     N/A:  LOGGING EQUIPMENT ID
 DCON.         Sperry Drilling:  DIRECTNL CONTR
 DOE .                     N/A:  DOE NUMBER
 JOBN.        AZ-XX-0906252240:  JOB TICKET NUMB
 MWDS.                     N/A:  MWD SHOP
 PROV.                    Baku:  PROVINCE
 STAT.                    Baku:  STATE NAME
 REGN.                   EESSA:  REGION
 BASE.              Azerbaijan:  LOGGING EQUIPMENT BASE LOCATION
 UWI .                     N/A:  UNIQUE WELL IDENTIFIER
 API .                     N/A:  API NUMBER
 MDS .        Operator Entered:  MAG DATA SOURCE
 WTYP.                Deviated:  WELL TYPE
 COMP.     BP Exploration (Caspian Sea) Ltd.:  COMPANY
 SRVC.          Turan Drilling:  CONTRACTOR
 WELL.           J23 (Slot 07):  WELL NAME
 CTRY.              Azerbaijan:  COUNTRY NAME
 FLD .                     ACG:  FIELD NAME
 PDAT.          Mean Sea Level:  PERMANENT DATUM
 RIG .             West Chirag:  RIG NAME
 SON .        AZ-XX-0906252240:  JOB NUMBER
 FTOP.          Formation Tops:  FORM TOPS DESC
 ILTD.               Lithology:  INTERP LTH DESC
 SVYD.                  Survey:  SURVEY DESC
 DMOD.             Drill Model:  DRILL MOD DESC
 HPTY.       Minimum Curvature:  HOLE POS TYPE
 NREF.                    Grid:  NORTH REFERENCE
 SPUD.               27-Aug-20:  SPUD DATE
 DATE.      00.00.00 19-May-20:  END TIME
 STIM.      03.00.00 25-Mar-20:  START TIME
 DMF .             Drill Floor:  DRILL MEAS FROM
 DFST.                        :  DIST FSL TEXT
 DFWT.                        :  DIST FWL TEXT
 CNTY.                        :  COUNTY
 LOC .                        :  LOCATION
 LMF .             Drill Floor:  LOG MEASURED FROM
 VSNS.m                   9.43:  VERT SEC N/S
 VSEW.m                  -8.91:  VERT SEC E/W
 AGAP.m                  43.00:  AIR GAP
 DEP .m                 354.17:  DEPTH
 APD .m                  43.00:  DEPTH ABOVE PD
 WDMS.m                 169.80:  WD ELEV
 EGL .m                   0.00:  GROUND ELEVATION
 EPD .m                   0.00:  ELEVATION
 AZTC.deg                 6.31:  AZM TOTAL CORR
 GRDC.deg                 0.14:  GRID CORRECTION
 MDEC.deg                 6.45:  MAGNETIC DECL
 MDIP.deg                59.56:  MAGNETIC DIP
 MFLD.nT              50295.00:  MAGNETIC FIELD
 GVFD.g                   1.00:  GRAVITY FIELD
 VSDR.deg               179.88:  VERT SEC DIRECT
 TDD .m                5150.01:  TOTAL DEPTH (DRILLER)
 SDEP.m                 864.00:  START DEPTH
 DFSL.m                   0.00:  DISTANCE FSL
 DFWL.m                   0.00:  DISTANCE FWL
 UTMY.m             4443793.85:  UTM Y
 UTMX.m              519005.06:  UTM X
 WHEW.m                  -8.91:  WELL HEAD E/W
 WHNS.m                   9.43:  WELL HEAD N/S
 LONG.deg                51.22:  LONGITUDE
 LATI.deg                40.13:  LATITUDE
 TVDS.m                  43.00:  TVDSS CORRECTN
 EKB .m                   0.00:  KB ELEVATION
 EDF .m                  43.00:  DF ELEVATION
 TDL .m                 363.00:  TOTAL DEPTH (LOGGER)
 MAGU.                 1850802:  MAGUTM CHECKSUM
 VSC .                       0:  VS TO CLOSURE
~Parameter Information Block
#MNEM.UNIT       Value        Description
#---------     -----------    ---------------------------
 AV  .mps                 2.30:  Ann Velocity 
 AVMX.mps                 4.40:  Max Ann Veloc 
 AZIF.deg               110.24:  Azm, Final 
 BHAT.        Rotary Steerable:  BHA Type 
 BREV.rev               331.00:  Rev Bit Total 
 BROT.°/30m               0.00:  Build Rotating 
 BS  .in                  8.50:  Bit Size 
 BSZ .in                  8.50:  Bit Size 
 BTPL.psig              585.00:  Bit Press Loss 
 CABU.                     Yes:  Customer Abuse 
 COMM.                     ¼´€:  Run Comments 1 
 TCS .hr                122.75:  Time Ciculation Ended 
 CV  .mps                 2.67:  Crit Velocity 
 CVMX.mps                 3.56:  Max Crit Veloc 
 DD1 .          Rashad Habibov:  Direct Drillr 1 
 DD2 .         Rasim Ibrahimov:  Direct Drillr 2 
 DDSV.               Geo-Pilot:  DD Service 
 DEFF.%                  98.00:  % Det Eff 
 DLRX.°/30m               0.75:  Dogleg Rot Max 
 DLSO.°/30m               1.25:  Dogleg Oriented 
 DLSX.°/30m               2.06:  Dogleg Str Max 
 DRET.      07.45.00 17-May-20:  Drill End Time 
 DRST.      22.50.00 15-May-20:  Drill Start Tim 
 DTIM.hr                 20.75:  Time Drilling 
 EDEP.m                5124.01:  End Depth 
 ENG1.           Eldar Hajiyev:  Engineer 1 
 ENG2.        Marcelo Sandoval:  Engineer 2 
 ENG3.        Davud huseynzada:  Engineer 3 
 ENG4.          Ruslan Safarov:  Engineer 4 
 ETIM.      04.33.00 23-May-20:  End Time 
 FLOI.gpm               450.00:  Flow In 
 FLON.gpm               400.00:  Flow In Min 
 FLOS.cptm                0.00:  Fluid Loss 
 FLOX.gpm               500.00:  Flow In Max 
 FTRO.       Formation Presure:  FTWD Run Obj 
 HFLO.                      No:  High Flow 
 HPRE.                     Yes:  High Pressure 
 HTEM.                      No:  High Temp 
 HYDO.m                   1.80:  Hydro Offset 
 IFIN.deg                75.06:  Inc, Final 
 IMAX.deg                75.38:  Inc Max 
 IMIN.deg                74.69:  Inc Min 
 IMND.m                5027.38:  Inc Min Depth 
 IMXD.m                4771.61:  Inc Max Depth 
 JARR.                      No:  Jarring 
 LETM.      07.45.00 17-May-20:  Log End Time 
 LOST.hr                     0:  Lost Rig Time 
 LSTM.      22.50.00 15-May-20:  Log Start Time 
 MDCL.ppm             42000.00:  Mud Chlorides 
 MDES.     Inversion Oil/Synthetic:  Mud Desc 
 DFD .sg                  1.34:  Mud Density 
 MDMN.sg                  1.34:  Dens Mud Min 
 MDMX.sg                  1.34:  Dens Mud Max 
 MOIL.                       0:  Run Mud Oil % 
 MOWR.                   67:33:  Run Mud OWR 
 MSND.                       0:  Run Mud Sand % 
 MSOL.                     1.8:  Run Mud Solids% 
 DFV .spqt               76.00:  Mud Viscosity 
 MWOD.in                  6.75:  MWD Tool OD 
 MWSI.                      No:  Serv Intrp, MWD 
 OTIM.hr                228.19:  Time Operating 
 PCON.           Look Like New:  Pad Condition 
 PMAX.psia             6164.70:  Press Op, Max 
 PV  .cP                 28.00:  Mud PV 
 RUN .                     900:  Run Number 
 ROPA.m/hr               19.00:  ROP Avg 
 ROPN.m/hr               11.00:  ROP Min 
 ROPX.m/hr               36.00:  ROP Max 
 RPMA.rpm               120.00:  RPM Surface Avg 
 RPMN.rpm               120.00:  RPM Surface Min 
 RPMX.rpm               120.00:  RPM Surface Max 
 RRUN.                    L604:  Rig Run Number 
 RTIM.hr                  7.00:  Time Reaming 
 SAZI.deg               109.27:  Azm, Start 
 SDEP.m                4761.01:  Start Depth 
 SIDD.                      No:  Serv Intrp, DD 
 SINC.deg                75.38:  Inc, Start 
 SPPA.psig             3574.00:  SPP Avg 
 SPPN.psig             3475.00:  SPP Min 
 SPPX.psig             3791.00:  SPP Max 
 STIM.      07.08.48 13-May-20:  Start Time 
 SVCS.                 DD, MWD:  Services 
 SVER.                    9.20:  Sperry Version 
 TDAT.m                 363.00:  Tot Depth Attmp 
 TDDF.                      No:  Trip for DD 
 TDLG.m                 363.00:  Tot Depth Loggd 
 TFF .                      No:  Trip for Fail 
 TQAA.f-kp               20.00:  Torque Abs Avg 
 TQAN.f-kp               18.00:  Torque Abs Min 
 TQAX.f-kp               22.00:  Torque Abs Max 
 TRRT.°/30m              -0.35:  Turn Rotating 
 MRT .                    HCIM:  Maximum Recorded Temperature 
 TTMX.degC               92.16:  Max Tool Temp 
 VS01.                90586518:  Virtual Str1 SN 
 VS02.        AZ90560654Z1W1C6:  Virtual Str2 SN 
 VS03.           AZ90610398F11:  Virtual Str3 SN 
 VS04.                90514975:  Virtual Str4 SN 
 VS05.                90514972:  Virtual Str5 SN 
 VS06.     AZ90603282F11V7D1A6:  Virtual Str6 SN 
 WBMN.klb                 7.00:  WOB Min 
 WOBA.klb                12.00:  WOB Avg 
 WOBX.klb                14.00:  WOB Max 
 YP  .lhf2               32.00:  Yield Point 
~Curve Information Block
#MNEM.UNIT                 API CODE     Curve Description
#---------               -----------    ---------------------------
 TIME.HHMMSS            00 000 000 000:  GT Time & Date
 GTDEPTH.m              00 000 000 000:  GT Depth
 GTPQH.psia             00 000 000 000:  GT HR Quartz Pressure
 GTTQ.degC              00 000 000 000:  GT Quartz Temperature
 GTTN.NONE              00 000 000 000:  GT Test Number
 GTET.sec               00 000 000 000:  GT Elapsed Test Time
 GTTVD.m                00 000 000 000:  GT True Vertical Depth
#Other Information
#
#WARRANTY: Halliburton will use its best efforts to furnish customers with 
#accurate information and interpretations that are part of, and incident to, the services 
#provided.  However, Halliburton cannot and does not warrant the accuracy 
#or correctness of such information and interpretations.  Under no circumstances should any 
#such information or interpretation be relied upon as the sole basis for any drilling, 
#completion, production, or financial decision or any procedure involving any risk to the 
#safety of any drilling venture, drilling rig or its crew or any other third party.  The 
#Customer has full responsibility for all drilling, completion and production operation.  
#Halliburton makes no representations or warranties, either expressed or 
#implied, including, but not limited to, the implied warranties of merchantability or fitness 
#for a particular purpose, with respect to the services rendered.  In no event will 
#Halliburton be liable for failure to obtain any particular results or for 
#any damages, including, but not limited to, indirect, special or consequential damages, 
#resulting from the use of any information or interpretation provided by Halliburton.
#
~A           TIME           GTDEPTH  GTPQH  GTTQ  GTTN  GTET   GTTVD  
# ...
   22:52:58.420.17-May-2020 4908.51   90.85 67.18 8.00 206.89 2569.17
   22:52:58.620.17-May-2020 4908.51   90.85 67.18 8.00 207.09 2569.17
   22:52:58.820.17-May-2020 4908.51   91.41 67.18 8.00 207.29 2569.17
   22:52:59.020.17-May-2020 4908.51   91.62 67.18 8.00 207.49 2569.17
   22:52:59.220.17-May-2020 4908.51   91.87 67.18 8.00 207.69 2569.17
   22:52:59.420.17-May-2020 4908.51   92.12 67.18 8.00 207.89 2569.17
   22:52:59.620.17-May-2020 4908.51   92.38 67.18 8.00 208.09 2569.17
   22:52:59.820.17-May-2020 4908.51   92.63 67.18 8.00 208.29 2569.17
   22:53:00.020.17-May-2020 4908.51   92.88 67.18 8.00 208.49 2569.17
   22:53:00.220.17-May-2020 4908.51   93.15 67.18 8.00 208.69 2569.17
   22:53:00.419.17-May-2020 4908.51   93.40 67.18 8.00 208.89 2569.17
   22:53:00.619.17-May-2020 4908.51   93.66 67.18 8.00 209.09 2569.17
   22:53:00.819.17-May-2020 4908.51   93.97 67.18 8.00 209.29 2569.17
   22:53:01.019.17-May-2020 4908.51   94.20 67.18 8.00 209.49 2569.17
   22:53:01.219.17-May-2020 4908.51   94.45 67.18 8.00 209.69 2569.17
   22:53:01.419.17-May-2020 4908.51   94.77 67.18 8.00 209.89 2569.17
   22:53:01.619.17-May-2020 4908.51   94.77 67.18 8.00 210.09 2569.17
   22:53:01.819.17-May-2020 4908.51   95.26 67.18 8.00 210.29 2569.17
   22:53:02.019.17-May-2020 4908.51   95.53 67.18 8.00 210.49 2569.17
   22:53:02.218.17-May-2020 4908.51   95.81 67.18 8.00 210.69 2569.17
   22:53:02.418.17-May-2020 4908.51   96.10 67.18 8.00 210.89 2569.17
   22:53:02.618.17-May-2020 4908.51   96.10 67.18 8.00 211.09 2569.17
   22:53:02.818.17-May-2020 4908.51   96.62 67.18 8.00 211.29 2569.17
   22:53:03.018.17-May-2020 4908.51   96.90 67.18 8.00 211.49 2569.17
   22:53:03.218.17-May-2020 4908.51   97.21 67.18 8.00 211.69 2569.17
   22:53:03.418.17-May-2020 4908.51   97.48 67.18 8.00 211.89 2569.17
   22:53:03.618.17-May-2020 4908.51   97.74 67.18 8.00 212.09 2569.17
   22:53:03.818.17-May-2020 4908.51   98.02 67.18 8.00 212.29 2569.17
   22:53:04.018.17-May-2020 4908.51   98.31 67.18 8.00 212.49 2569.17
   22:53:04.217.17-May-2020 4908.51   98.59 67.18 8.00 212.69 2569.17
   22:53:04.417.17-May-2020 4908.51   98.88 67.18 8.00 212.89 2569.17
   22:53:04.617.17-May-2020 4908.51   99.16 67.18 8.00 213.09 2569.17
   22:53:04.817.17-May-2020 4908.51   99.45 67.18 8.00 213.29 2569.17
   22:53:05.017.17-May-2020 4908.51   99.73 67.18 8.00 213.49 2569.17
   22:53:05.217.17-May-2020 4908.51  100.05 67.18 8.00 213.69 2569.17
   22:53:05.417.17-May-2020 4908.51  100.34 67.18 8.00 213.89 2569.17
   22:53:05.617.17-May-2020 4908.51  100.34 67.18 8.00 214.09 2569.17
   22:53:05.817.17-May-2020 4908.51  100.89 67.18 8.00 214.29 2569.17
   22:53:06.017.17-May-2020 4908.51  101.18 67.18 8.00 214.49 2569.17
   22:53:06.216.17-May-2020 4908.51  101.48 67.18 8.00 214.69 2569.17
   22:53:06.416.17-May-2020 4908.51  101.78 67.18 8.00 214.89 2569.17
   22:53:06.616.17-May-2020 4908.51  101.78 67.18 8.00 215.09 2569.17
   22:53:06.816.17-May-2020 4908.51  102.37 67.18 8.00 215.29 2569.17
   22:53:07.016.17-May-2020 4908.51  102.68 67.18 8.00 215.49 2569.17
   22:53:07.216.17-May-2020 4908.51  102.99 67.18 8.00 215.69 2569.17
   22:53:07.416.17-May-2020 4908.51  103.31 67.18 8.00 215.89 2569.17
   22:53:07.616.17-May-2020 4908.51  103.58 67.18 8.00 216.09 2569.17
   22:53:07.816.17-May-2020 4908.51  103.89 67.18 8.00 216.29 2569.17
   22:53:08.016.17-May-2020 4908.51  104.25 67.18 8.00 216.49 2569.17
   22:53:08.215.17-May-2020 4908.51  104.51 67.18 8.00 216.69 2569.17
   22:53:08.415.17-May-2020 4908.51  104.83 67.18 8.00 216.89 2569.17
   22:53:08.615.17-May-2020 4908.51  105.14 67.18 8.00 217.09 2569.17
   22:53:08.815.17-May-2020 4908.51  105.45 67.18 8.00 217.29 2569.17
   22:53:09.015.17-May-2020 4908.51  105.82 67.18 8.00 217.49 2569.17
   22:53:09.215.17-May-2020 4908.51  106.10 67.18 8.00 217.69 2569.17
   22:53:09.415.17-May-2020 4908.51  106.41 67.18 8.00 217.89 2569.17
   22:53:09.615.17-May-2020 4908.51  106.41 67.18 8.00 218.09 2569.17
   22:53:09.815.17-May-2020 4908.51  107.06 67.18 8.00 218.29 2569.17
   22:53:10.014.17-May-2020 4908.51  107.43 67.18 8.00 218.49 2569.17
   22:53:10.214.17-May-2020 4908.51  107.71 67.18 8.00 218.69 2569.17
   22:53:10.414.17-May-2020 4908.51  108.05 67.18 8.00 218.89 2569.17
   22:53:10.614.17-May-2020 4908.51  108.05 67.18 8.00 219.09 2569.17
   22:53:10.814.17-May-2020 4908.51  108.72 67.18 8.00 219.29 2569.17
   22:53:11.014.17-May-2020 4908.51  109.06 67.18 8.00 219.49 2569.17
   22:53:11.214.17-May-2020 4908.51  109.39 67.18 8.00 219.69 2569.17
   22:53:11.414.17-May-2020 4908.51  109.74 67.18 8.00 219.89 2569.17
   22:53:11.614.17-May-2020 4908.51  110.08 67.18 8.00 220.09 2569.17
   22:53:11.814.17-May-2020 4908.51  110.42 67.18 8.00 220.29 2569.17
   22:53:12.013.17-May-2020 4908.51  110.82 67.18 8.00 220.49 2569.17
   22:53:12.213.17-May-2020 4908.51  111.14 67.18 8.00 220.69 2569.17
   22:53:12.413.17-May-2020 4908.51  111.48 67.18 8.00 220.89 2569.17
   22:53:12.613.17-May-2020 4908.51  111.84 67.18 8.00 221.09 2569.17
   22:53:12.813.17-May-2020 4908.51  112.20 67.18 8.00 221.29 2569.17
   22:53:13.013.17-May-2020 4908.51  112.55 67.18 8.00 221.49 2569.17
   22:53:13.213.17-May-2020 4908.51  112.92 67.18 8.00 221.69 2569.17
   22:53:13.413.17-May-2020 4908.51  113.28 67.18 8.00 221.89 2569.17
   22:53:13.613.17-May-2020 4908.51  113.28 67.18 8.00 222.09 2569.17
   22:53:13.813.17-May-2020 4908.51  114.02 67.18 8.00 222.29 2569.17
   22:53:14.012.17-May-2020 4908.51  114.42 67.18 8.00 222.49 2569.17
   22:53:14.212.17-May-2020 4908.51  114.77 67.18 8.00 222.69 2569.17
   22:53:14.412.17-May-2020 4908.51  115.14 67.18 8.00 222.89 2569.17
   22:53:14.612.17-May-2020 4908.51  115.14 67.18 8.00 223.09 2569.17
   22:53:14.812.17-May-2020 4908.51  115.92 67.18 8.00 223.29 2569.17
   22:53:15.012.17-May-2020 4908.51  116.28 67.18 8.00 223.49 2569.17
   22:53:15.212.17-May-2020 4908.51  116.65 67.18 8.00 223.69 2569.17
   22:53:15.412.17-May-2020 4908.51  117.04 67.18 8.00 223.89 2569.17
   22:53:15.612.17-May-2020 4908.51  117.44 67.18 8.00 224.09 2569.17
   22:53:15.812.17-May-2020 4908.51  117.84 67.18 8.00 224.28 2569.17
   22:53:16.011.17-May-2020 4908.51  118.22 67.18 8.00 224.48 2569.17
   22:53:16.211.17-May-2020 4908.51  118.61 67.18 8.00 224.68 2569.17
   22:53:16.411.17-May-2020 4908.51  119.01 67.18 8.00 224.88 2569.17
   22:53:16.611.17-May-2020 4908.51  119.41 67.18 8.00 225.08 2569.17
   22:53:16.811.17-May-2020 4908.51  119.84 67.18 8.00 225.28 2569.17
   22:53:17.011.17-May-2020 4908.51  120.22 67.18 8.00 225.48 2569.17
   22:53:17.211.17-May-2020 4908.51  120.63 67.18 8.00 225.68 2569.17
   22:53:17.411.17-May-2020 4908.51  121.04 67.18 8.00 225.88 2569.17
   22:53:17.611.17-May-2020 4908.51  121.04 67.18 8.00 226.08 2569.17
   22:53:17.810.17-May-2020 4908.51  121.87 67.18 8.00 226.28 2569.17
   22:53:18.010.17-May-2020 4908.51  122.29 67.18 8.00 226.48 2569.17
   22:53:18.210.17-May-2020 4908.51  122.71 67.18 8.00 226.68 2569.17
   22:53:18.410.17-May-2020 4908.51  123.14 67.18 8.00 226.88 2569.17
   22:53:18.610.17-May-2020 4908.51  123.14 67.18 8.00 227.08 2569.17
   22:53:18.810.17-May-2020 4908.51  124.01 67.18 8.00 227.28 2569.17
   22:53:19.010.17-May-2020 4908.51  124.43 67.18 8.00 227.48 2569.17
   22:53:19.210.17-May-2020 4908.51  124.87 67.18 8.00 227.68 2569.17
   22:53:19.410.17-May-2020 4908.51  125.31 67.18 8.00 227.88 2569.17
   22:53:19.610.17-May-2020 4908.51  125.77 67.18 8.00 228.08 2569.17
   22:53:19.809.17-May-2020 4908.51  126.22 67.18 8.00 228.28 2569.17
   22:53:20.009.17-May-2020 4908.51  126.68 67.18 8.00 228.48 2569.17
   22:53:20.209.17-May-2020 4908.51  127.15 67.18 8.00 228.68 2569.17
   22:53:20.409.17-May-2020 4908.51  127.61 67.18 8.00 228.88 2569.17
   22:53:20.609.17-May-2020 4908.51  128.09 67.18 8.00 229.08 2569.17
   22:53:20.809.17-May-2020 4908.51  128.62 67.18 8.00 229.28 2569.17
   22:53:21.009.17-May-2020 4908.51  129.10 67.18 8.00 229.48 2569.17
   22:53:21.209.17-May-2020 4908.51  129.58 67.18 8.00 229.68 2569.17
