~Version Information
 VERS.                  2.0:   CWLS log ASCII Standard -VERSION 2.0
 WRAP.                   NO:   One line per depth step
~Well Information Block
#MNEM.UNIT     VALUE/NAME     DESCRIPTION
#---------     -----------    ---------------------------
 STRT.S             02:13:59 18-May-20: START TIME 02:13:59 18-May-20
 STOP.S             02:21:38 18-May-20: STOP TIME  02:21:38 18-May-20
 STEP.S                   0.00: STEP TIME
 NULL.                 -999.25: NULL VALUE
 UNIT.                     N/A:  LOGGING EQUIPMENT ID
 DCON.         Sperry Drilling:  DIRECTNL CONTR
 DOE .                     N/A:  DOE NUMBER
 JOBN.        AZ-XX-0906252240:  JOB TICKET NUMB
 MWDS.                     N/A:  MWD SHOP
 PROV.                    Baku:  PROVINCE
 STAT.                    Baku:  STATE NAME
 REGN.                   EESSA:  REGION
 BASE.              Azerbaijan:  LOGGING EQUIPMENT BASE LOCATION
 UWI .                     N/A:  UNIQUE WELL IDENTIFIER
 API .                     N/A:  API NUMBER
 MDS .        Operator Entered:  MAG DATA SOURCE
 WTYP.                Deviated:  WELL TYPE
 COMP.     BP Exploration (Caspian Sea) Ltd.:  COMPANY
 SRVC.          Turan Drilling:  CONTRACTOR
 WELL.           J23 (Slot 07):  WELL NAME
 CTRY.              Azerbaijan:  COUNTRY NAME
 FLD .                     ACG:  FIELD NAME
 PDAT.          Mean Sea Level:  PERMANENT DATUM
 RIG .             West Chirag:  RIG NAME
 SON .        AZ-XX-0906252240:  JOB NUMBER
 FTOP.          Formation Tops:  FORM TOPS DESC
 ILTD.               Lithology:  INTERP LTH DESC
 SVYD.                  Survey:  SURVEY DESC
 DMOD.             Drill Model:  DRILL MOD DESC
 HPTY.       Minimum Curvature:  HOLE POS TYPE
 NREF.                    Grid:  NORTH REFERENCE
 SPUD.               27-Aug-20:  SPUD DATE
 DATE.      00.00.00 19-May-20:  END TIME
 STIM.      03.00.00 25-Mar-20:  START TIME
 DMF .             Drill Floor:  DRILL MEAS FROM
 DFST.                        :  DIST FSL TEXT
 DFWT.                        :  DIST FWL TEXT
 CNTY.                        :  COUNTY
 LOC .                        :  LOCATION
 LMF .             Drill Floor:  LOG MEASURED FROM
 VSNS.m                   9.43:  VERT SEC N/S
 VSEW.m                  -8.91:  VERT SEC E/W
 AGAP.m                  43.00:  AIR GAP
 DEP .m                 354.17:  DEPTH
 APD .m                  43.00:  DEPTH ABOVE PD
 WDMS.m                 169.80:  WD ELEV
 EGL .m                   0.00:  GROUND ELEVATION
 EPD .m                   0.00:  ELEVATION
 AZTC.deg                 6.31:  AZM TOTAL CORR
 GRDC.deg                 0.14:  GRID CORRECTION
 MDEC.deg                 6.45:  MAGNETIC DECL
 MDIP.deg                59.56:  MAGNETIC DIP
 MFLD.nT              50295.00:  MAGNETIC FIELD
 GVFD.g                   1.00:  GRAVITY FIELD
 VSDR.deg               179.88:  VERT SEC DIRECT
 TDD .m                5150.01:  TOTAL DEPTH (DRILLER)
 SDEP.m                 864.00:  START DEPTH
 DFSL.m                   0.00:  DISTANCE FSL
 DFWL.m                   0.00:  DISTANCE FWL
 UTMY.m             4443793.85:  UTM Y
 UTMX.m              519005.06:  UTM X
 WHEW.m                  -8.91:  WELL HEAD E/W
 WHNS.m                   9.43:  WELL HEAD N/S
 LONG.deg                51.22:  LONGITUDE
 LATI.deg                40.13:  LATITUDE
 TVDS.m                  43.00:  TVDSS CORRECTN
 EKB .m                   0.00:  KB ELEVATION
 EDF .m                  43.00:  DF ELEVATION
 TDL .m                 363.00:  TOTAL DEPTH (LOGGER)
 MAGU.                 1850802:  MAGUTM CHECKSUM
 VSC .                       0:  VS TO CLOSURE
~Parameter Information Block
#MNEM.UNIT       Value        Description
#---------     -----------    ---------------------------
 AV  .mps                 2.30:  Ann Velocity 
 AVMX.mps                 4.40:  Max Ann Veloc 
 AZIF.deg               110.24:  Azm, Final 
 BHAT.        Rotary Steerable:  BHA Type 
 BREV.rev               331.00:  Rev Bit Total 
 BROT.°/30m               0.00:  Build Rotating 
 BS  .in                  8.50:  Bit Size 
 BSZ .in                  8.50:  Bit Size 
 BTPL.psig              585.00:  Bit Press Loss 
 CABU.                     Yes:  Customer Abuse 
 COMM.                     ü9U:  Run Comments 1 
 TCS .hr                122.75:  Time Ciculation Ended 
 CV  .mps                 2.67:  Crit Velocity 
 CVMX.mps                 3.56:  Max Crit Veloc 
 DD1 .          Rashad Habibov:  Direct Drillr 1 
 DD2 .         Rasim Ibrahimov:  Direct Drillr 2 
 DDSV.               Geo-Pilot:  DD Service 
 DEFF.%                  98.00:  % Det Eff 
 DLRX.°/30m               0.75:  Dogleg Rot Max 
 DLSO.°/30m               1.25:  Dogleg Oriented 
 DLSX.°/30m               2.06:  Dogleg Str Max 
 DRET.      07.45.00 17-May-20:  Drill End Time 
 DRST.      22.50.00 15-May-20:  Drill Start Tim 
 DTIM.hr                 20.75:  Time Drilling 
 EDEP.m                5124.01:  End Depth 
 ENG1.           Eldar Hajiyev:  Engineer 1 
 ENG2.        Marcelo Sandoval:  Engineer 2 
 ENG3.        Davud huseynzada:  Engineer 3 
 ENG4.          Ruslan Safarov:  Engineer 4 
 ETIM.      04.33.00 23-May-20:  End Time 
 FLOI.gpm               450.00:  Flow In 
 FLON.gpm               400.00:  Flow In Min 
 FLOS.cptm                0.00:  Fluid Loss 
 FLOX.gpm               500.00:  Flow In Max 
 FTRO.       Formation Presure:  FTWD Run Obj 
 HFLO.                      No:  High Flow 
 HPRE.                     Yes:  High Pressure 
 HTEM.                      No:  High Temp 
 HYDO.m                   1.80:  Hydro Offset 
 IFIN.deg                75.06:  Inc, Final 
 IMAX.deg                75.38:  Inc Max 
 IMIN.deg                74.69:  Inc Min 
 IMND.m                5027.38:  Inc Min Depth 
 IMXD.m                4771.61:  Inc Max Depth 
 JARR.                      No:  Jarring 
 LETM.      07.45.00 17-May-20:  Log End Time 
 LOST.hr                     0:  Lost Rig Time 
 LSTM.      22.50.00 15-May-20:  Log Start Time 
 MDCL.ppm             42000.00:  Mud Chlorides 
 MDES.     Inversion Oil/Synthetic:  Mud Desc 
 DFD .sg                  1.34:  Mud Density 
 MDMN.sg                  1.34:  Dens Mud Min 
 MDMX.sg                  1.34:  Dens Mud Max 
 MOIL.                       0:  Run Mud Oil % 
 MOWR.                   67:33:  Run Mud OWR 
 MSND.                       0:  Run Mud Sand % 
 MSOL.                     1.8:  Run Mud Solids% 
 DFV .spqt               76.00:  Mud Viscosity 
 MWOD.in                  6.75:  MWD Tool OD 
 MWSI.                      No:  Serv Intrp, MWD 
 OTIM.hr                228.19:  Time Operating 
 PCON.           Look Like New:  Pad Condition 
 PMAX.psia             6164.70:  Press Op, Max 
 PV  .cP                 28.00:  Mud PV 
 RUN .                     900:  Run Number 
 ROPA.m/hr               19.00:  ROP Avg 
 ROPN.m/hr               11.00:  ROP Min 
 ROPX.m/hr               36.00:  ROP Max 
 RPMA.rpm               120.00:  RPM Surface Avg 
 RPMN.rpm               120.00:  RPM Surface Min 
 RPMX.rpm               120.00:  RPM Surface Max 
 RRUN.                    L604:  Rig Run Number 
 RTIM.hr                  7.00:  Time Reaming 
 SAZI.deg               109.27:  Azm, Start 
 SDEP.m                4761.01:  Start Depth 
 SIDD.                      No:  Serv Intrp, DD 
 SINC.deg                75.38:  Inc, Start 
 SPPA.psig             3574.00:  SPP Avg 
 SPPN.psig             3475.00:  SPP Min 
 SPPX.psig             3791.00:  SPP Max 
 STIM.      07.08.48 13-May-20:  Start Time 
 SVCS.                 DD, MWD:  Services 
 SVER.                    9.20:  Sperry Version 
 TDAT.m                 363.00:  Tot Depth Attmp 
 TDDF.                      No:  Trip for DD 
 TDLG.m                 363.00:  Tot Depth Loggd 
 TFF .                      No:  Trip for Fail 
 TQAA.f-kp               20.00:  Torque Abs Avg 
 TQAN.f-kp               18.00:  Torque Abs Min 
 TQAX.f-kp               22.00:  Torque Abs Max 
 TRRT.°/30m              -0.35:  Turn Rotating 
 MRT .                    HCIM:  Maximum Recorded Temperature 
 TTMX.degC               92.16:  Max Tool Temp 
 VS01.                90586518:  Virtual Str1 SN 
 VS02.        AZ90560654Z1W1C6:  Virtual Str2 SN 
 VS03.           AZ90610398F11:  Virtual Str3 SN 
 VS04.                90514975:  Virtual Str4 SN 
 VS05.                90514972:  Virtual Str5 SN 
 VS06.     AZ90603282F11V7D1A6:  Virtual Str6 SN 
 WBMN.klb                 7.00:  WOB Min 
 WOBA.klb                12.00:  WOB Avg 
 WOBX.klb                14.00:  WOB Max 
 YP  .lhf2               32.00:  Yield Point 
~Curve Information Block
#MNEM.UNIT                 API CODE     Curve Description
#---------               -----------    ---------------------------
 TIME.HHMMSS            00 000 000 000:  GT Time & Date
 GTDEPTH.m              00 000 000 000:  GT Depth
 GTPQH.psia             00 000 000 000:  GT HR Quartz Pressure
 GTTQ.degC              00 000 000 000:  GT Quartz Temperature
 GTTN.NONE              00 000 000 000:  GT Test Number
 GTET.sec               00 000 000 000:  GT Elapsed Test Time
 GTTVD.m                00 000 000 000:  GT True Vertical Depth
#Other Information
#
#WARRANTY: Halliburton will use its best efforts to furnish customers with 
#accurate information and interpretations that are part of, and incident to, the services 
#provided.  However, Halliburton cannot and does not warrant the accuracy 
#or correctness of such information and interpretations.  Under no circumstances should any 
#such information or interpretation be relied upon as the sole basis for any drilling, 
#completion, production, or financial decision or any procedure involving any risk to the 
#safety of any drilling venture, drilling rig or its crew or any other third party.  The 
#Customer has full responsibility for all drilling, completion and production operation.  
#Halliburton makes no representations or warranties, either expressed or 
#implied, including, but not limited to, the implied warranties of merchantability or fitness 
#for a particular purpose, with respect to the services rendered.  In no event will 
#Halliburton be liable for failure to obtain any particular results or for 
#any damages, including, but not limited to, indirect, special or consequential damages, 
#resulting from the use of any information or interpretation provided by Halliburton.
#
~A           TIME           GTDEPTH  GTPQH  GTTQ  GTTN   GTET   GTTVD  
# ...
   02:19:39.098.18-May-2020 4832.01 2681.76 65.95 12.00 339.14 2549.35
   02:19:39.298.18-May-2020 4832.01 2681.76 65.95 12.00 339.34 2549.35
   02:19:39.498.18-May-2020 4832.01 2681.77 65.95 12.00 339.54 2549.35
   02:19:39.698.18-May-2020 4832.01 2681.76 65.95 12.00 339.74 2549.35
   02:19:39.898.18-May-2020 4832.01 2681.76 65.95 12.00 339.94 2549.35
   02:19:40.098.18-May-2020 4832.01 2681.78 65.95 12.00 340.14 2549.35
   02:19:40.298.18-May-2020 4832.01 2681.78 65.95 12.00 340.34 2549.35
   02:19:40.499.18-May-2020 4832.01 2681.77 65.95 12.00 340.54 2549.35
   02:19:40.699.18-May-2020 4832.01 2681.76 65.95 12.00 340.74 2549.35
   02:19:40.899.18-May-2020 4832.01 2681.75 65.95 12.00 340.94 2549.35
   02:19:41.099.18-May-2020 4832.01 2681.73 65.95 12.00 341.14 2549.35
   02:19:41.299.18-May-2020 4832.01 2681.76 65.95 12.00 341.34 2549.35
   02:19:41.499.18-May-2020 4832.01 2681.81 65.95 12.00 341.54 2549.35
   02:19:41.699.18-May-2020 4832.01 2681.76 65.95 12.00 341.74 2549.35
   02:19:41.899.18-May-2020 4832.01 2681.79 65.95 12.00 341.94 2549.35
   02:19:42.099.18-May-2020 4832.01 2681.75 65.95 12.00 342.14 2549.35
   02:19:42.299.18-May-2020 4832.01 2681.75 65.95 12.00 342.34 2549.35
   02:19:42.499.18-May-2020 4832.01 2681.76 65.95 12.00 342.54 2549.35
   02:19:42.699.18-May-2020 4832.01 2681.75 65.95 12.00 342.74 2549.35
   02:19:42.899.18-May-2020 4832.01 2681.76 65.95 12.00 342.94 2549.35
   02:19:43.100.18-May-2020 4832.01 2681.75 65.95 12.00 343.14 2549.35
   02:19:43.300.18-May-2020 4832.01 2681.75 65.95 12.00 343.34 2549.35
   02:19:43.500.18-May-2020 4832.01 2681.73 65.95 12.00 343.54 2549.35
   02:19:43.700.18-May-2020 4832.01 2681.73 65.95 12.00 343.74 2549.35
   02:19:43.900.18-May-2020 4832.01 2681.76 65.95 12.00 343.94 2549.35
   02:19:44.100.18-May-2020 4832.01 2681.77 65.95 12.00 344.14 2549.35
   02:19:44.300.18-May-2020 4832.01 2681.77 65.95 12.00 344.34 2549.35
   02:19:44.500.18-May-2020 4832.01 2681.76 65.95 12.00 344.54 2549.35
   02:19:44.700.18-May-2020 4832.01 2681.76 65.95 12.00 344.74 2549.35
   02:19:44.900.18-May-2020 4832.01 2681.76 65.95 12.00 344.94 2549.35
   02:19:45.100.18-May-2020 4832.01 2681.75 65.95 12.00 345.14 2549.35
   02:19:45.300.18-May-2020 4832.01 2681.75 65.95 12.00 345.34 2549.35
   02:19:45.501.18-May-2020 4832.01 2681.78 65.95 12.00 345.54 2549.35
   02:19:45.701.18-May-2020 4832.01 2681.76 65.95 12.00 345.74 2549.35
   02:19:45.901.18-May-2020 4832.01 2681.76 65.95 12.00 345.94 2549.35
   02:19:46.101.18-May-2020 4832.01 2681.78 65.95 12.00 346.14 2549.35
   02:19:46.301.18-May-2020 4832.01 2681.78 65.95 12.00 346.34 2549.35
   02:19:46.501.18-May-2020 4832.01 2681.74 65.95 12.00 346.54 2549.35
   02:19:46.701.18-May-2020 4832.01 2681.77 65.95 12.00 346.74 2549.35
   02:19:46.901.18-May-2020 4832.01 2681.77 65.95 12.00 346.94 2549.35
   02:19:47.101.18-May-2020 4832.01 2681.79 65.95 12.00 347.14 2549.35
   02:19:47.301.18-May-2020 4832.01 2681.79 65.95 12.00 347.34 2549.35
   02:19:47.501.18-May-2020 4832.01 2681.74 65.95 12.00 347.54 2549.35
   02:19:47.701.18-May-2020 4832.01 2681.75 65.95 12.00 347.74 2549.35
   02:19:47.901.18-May-2020 4832.01 2681.75 65.95 12.00 347.94 2549.35
   02:19:48.102.18-May-2020 4832.01 2681.77 65.95 12.00 348.14 2549.35
   02:19:48.302.18-May-2020 4832.01 2681.77 65.95 12.00 348.34 2549.35
   02:19:48.502.18-May-2020 4832.01 2681.77 65.95 12.00 348.54 2549.35
   02:19:48.702.18-May-2020 4832.01 2681.77 65.95 12.00 348.74 2549.35
   02:19:48.902.18-May-2020 4832.01 2681.75 65.95 12.00 348.94 2549.35
   02:19:49.102.18-May-2020 4832.01 2681.75 65.95 12.00 349.14 2549.35
   02:19:49.302.18-May-2020 4832.01 2681.75 65.95 12.00 349.34 2549.35
   02:19:49.502.18-May-2020 4832.01 2681.75 65.95 12.00 349.54 2549.35
   02:19:49.702.18-May-2020 4832.01 2681.75 65.95 12.00 349.74 2549.35
   02:19:49.902.18-May-2020 4832.01 2681.74 65.95 12.00 349.94 2549.35
   02:19:50.102.18-May-2020 4832.01 2681.83 65.95 12.00 350.14 2549.35
   02:19:50.302.18-May-2020 4832.01 2681.83 65.95 12.00 350.34 2549.35
   02:19:50.503.18-May-2020 4832.01 2681.72 65.95 12.00 350.54 2549.35
   02:19:50.703.18-May-2020 4832.01 2681.76 65.95 12.00 350.74 2549.35
   02:19:50.903.18-May-2020 4832.01 2681.76 65.95 12.00 350.94 2549.35
   02:19:51.103.18-May-2020 4832.01 2681.75 65.95 12.00 351.14 2549.35
   02:19:51.303.18-May-2020 4832.01 2681.75 65.95 12.00 351.34 2549.35
   02:19:51.503.18-May-2020 4832.01 2681.75 65.95 12.00 351.54 2549.35
   02:19:51.703.18-May-2020 4832.01 2681.75 65.95 12.00 351.74 2549.35
   02:19:51.903.18-May-2020 4832.01 2681.75 65.95 12.00 351.94 2549.35
   02:19:52.103.18-May-2020 4832.01 2681.76 65.95 12.00 352.14 2549.35
   02:19:52.303.18-May-2020 4832.01 2681.76 65.95 12.00 352.34 2549.35
   02:19:52.503.18-May-2020 4832.01 2681.74 65.95 12.00 352.54 2549.35
   02:19:52.703.18-May-2020 4832.01 2681.75 65.95 12.00 352.74 2549.35
   02:19:52.904.18-May-2020 4832.01 2681.83 65.95 12.00 352.94 2549.35
   02:19:53.104.18-May-2020 4832.01 2681.73 65.95 12.00 353.14 2549.35
   02:19:53.304.18-May-2020 4832.01 2681.73 65.95 12.00 353.34 2549.35
   02:19:53.504.18-May-2020 4832.01 2681.77 65.95 12.00 353.54 2549.35
   02:19:53.704.18-May-2020 4832.01 2681.76 65.95 12.00 353.74 2549.35
   02:19:53.904.18-May-2020 4832.01 2681.81 65.95 12.00 353.94 2549.35
   02:19:54.104.18-May-2020 4832.01 2681.72 65.95 12.00 354.14 2549.35
   02:19:54.304.18-May-2020 4832.01 2681.73 65.95 12.00 354.34 2549.35
   02:19:54.504.18-May-2020 4832.01 2681.76 65.95 12.00 354.54 2549.35
   02:19:54.704.18-May-2020 4832.01 2681.77 65.95 12.00 354.74 2549.35
   02:19:54.904.18-May-2020 4832.01 2681.76 65.95 12.00 354.94 2549.35
   02:19:55.104.18-May-2020 4832.01 2681.74 65.95 12.00 355.14 2549.35
   02:19:55.304.18-May-2020 4832.01 2681.74 65.95 12.00 355.34 2549.35
   02:19:55.505.18-May-2020 4832.01 2681.78 65.95 12.00 355.54 2549.35
   02:19:55.705.18-May-2020 4832.01 2681.75 65.95 12.00 355.74 2549.35
   02:19:55.905.18-May-2020 4832.01 2681.75 65.95 12.00 355.94 2549.35
   02:19:56.105.18-May-2020 4832.01 2681.76 65.95 12.00 356.14 2549.35
   02:19:56.305.18-May-2020 4832.01 2681.76 65.95 12.00 356.34 2549.35
   02:19:56.505.18-May-2020 4832.01 2681.75 65.95 12.00 356.54 2549.35
   02:19:56.705.18-May-2020 4832.01 2681.74 65.95 12.00 356.74 2549.35
   02:19:56.905.18-May-2020 4832.01 2681.80 65.95 12.00 356.94 2549.35
   02:19:57.105.18-May-2020 4832.01 2681.75 65.95 12.00 357.14 2549.35
   02:19:57.305.18-May-2020 4832.01 2681.71 65.95 12.00 357.34 2549.35
   02:19:57.505.18-May-2020 4832.01 2681.79 65.95 12.00 357.54 2549.35
   02:19:57.705.18-May-2020 4832.01 2681.74 65.95 12.00 357.74 2549.35
   02:19:57.906.18-May-2020 4832.01 2681.74 65.95 12.00 357.94 2549.35
   02:19:58.106.18-May-2020 4832.01 2681.74 65.95 12.00 358.14 2549.35
   02:19:58.306.18-May-2020 4832.01 2681.74 65.95 12.00 358.34 2549.35
   02:19:58.506.18-May-2020 4832.01 2681.75 65.95 12.00 358.54 2549.35
   02:19:58.706.18-May-2020 4832.01 2681.74 65.95 12.00 358.74 2549.35
   02:19:58.906.18-May-2020 4832.01 2681.81 65.95 12.00 358.94 2549.35
   02:19:59.106.18-May-2020 4832.01 2681.73 65.95 12.00 359.14 2549.35
   02:19:59.306.18-May-2020 4832.01 2681.73 65.95 12.00 359.34 2549.35
   02:19:59.506.18-May-2020 4832.01 2681.76 65.94 12.00 359.54 2549.35
   02:19:59.706.18-May-2020 4832.01 2681.83 65.95 12.00 359.75 2549.35
   02:19:59.906.18-May-2020 4832.01 2681.72 65.94 12.00 359.95 2549.35
   02:20:00.106.18-May-2020 4832.01 2681.72 65.94 12.00 360.15 2549.35
   02:20:00.306.18-May-2020 4832.01 2681.72 65.94 12.00 360.35 2549.35
   02:20:00.507.18-May-2020 4832.01 2681.76 65.94 12.00 360.55 2549.35
   02:20:00.707.18-May-2020 4832.01 2681.80 65.94 12.00 360.75 2549.35
   02:20:00.907.18-May-2020 4832.01 2681.74 65.94 12.00 360.95 2549.35
   02:20:01.107.18-May-2020 4832.01 2681.72 65.94 12.00 361.15 2549.35
   02:20:01.307.18-May-2020 4832.01 2681.72 65.94 12.00 361.35 2549.35
   02:20:01.507.18-May-2020 4832.01 2681.78 65.94 12.00 361.55 2549.35
