~Version Information
 VERS.                  2.0:   CWLS log ASCII Standard -VERSION 2.0
 WRAP.                   NO:   One line per depth step
~Well Information Block
#MNEM.UNIT     VALUE/NAME     DESCRIPTION
#---------     -----------    ---------------------------
 STRT.S             17:25:16 17-May-20: START TIME 17:25:16 17-May-20
 STOP.S             17:32:20 17-May-20: STOP TIME  17:32:20 17-May-20
 STEP.S                   0.00: STEP TIME
 NULL.                 -999.25: NULL VALUE
 UNIT.                     N/A:  LOGGING EQUIPMENT ID
 DCON.         Sperry Drilling:  DIRECTNL CONTR
 DOE .                     N/A:  DOE NUMBER
 JOBN.        AZ-XX-0906252240:  JOB TICKET NUMB
 MWDS.                     N/A:  MWD SHOP
 PROV.                    Baku:  PROVINCE
 STAT.                    Baku:  STATE NAME
 REGN.                   EESSA:  REGION
 BASE.              Azerbaijan:  LOGGING EQUIPMENT BASE LOCATION
 UWI .                     N/A:  UNIQUE WELL IDENTIFIER
 API .                     N/A:  API NUMBER
 MDS .        Operator Entered:  MAG DATA SOURCE
 WTYP.                Deviated:  WELL TYPE
 COMP.     BP Exploration (Caspian Sea) Ltd.:  COMPANY
 SRVC.          Turan Drilling:  CONTRACTOR
 WELL.           J23 (Slot 07):  WELL NAME
 CTRY.              Azerbaijan:  COUNTRY NAME
 FLD .                     ACG:  FIELD NAME
 PDAT.          Mean Sea Level:  PERMANENT DATUM
 RIG .             West Chirag:  RIG NAME
 SON .        AZ-XX-0906252240:  JOB NUMBER
 FTOP.          Formation Tops:  FORM TOPS DESC
 ILTD.               Lithology:  INTERP LTH DESC
 SVYD.                  Survey:  SURVEY DESC
 DMOD.             Drill Model:  DRILL MOD DESC
 HPTY.       Minimum Curvature:  HOLE POS TYPE
 NREF.                    Grid:  NORTH REFERENCE
 SPUD.               27-Aug-20:  SPUD DATE
 DATE.      00.00.00 19-May-20:  END TIME
 STIM.      03.00.00 25-Mar-20:  START TIME
 DMF .             Drill Floor:  DRILL MEAS FROM
 DFST.                        :  DIST FSL TEXT
 DFWT.                        :  DIST FWL TEXT
 CNTY.                        :  COUNTY
 LOC .                        :  LOCATION
 LMF .             Drill Floor:  LOG MEASURED FROM
 VSNS.m                   9.43:  VERT SEC N/S
 VSEW.m                  -8.91:  VERT SEC E/W
 AGAP.m                  43.00:  AIR GAP
 DEP .m                 354.17:  DEPTH
 APD .m                  43.00:  DEPTH ABOVE PD
 WDMS.m                 169.80:  WD ELEV
 EGL .m                   0.00:  GROUND ELEVATION
 EPD .m                   0.00:  ELEVATION
 AZTC.deg                 6.31:  AZM TOTAL CORR
 GRDC.deg                 0.14:  GRID CORRECTION
 MDEC.deg                 6.45:  MAGNETIC DECL
 MDIP.deg                59.56:  MAGNETIC DIP
 MFLD.nT              50295.00:  MAGNETIC FIELD
 GVFD.g                   1.00:  GRAVITY FIELD
 VSDR.deg               179.88:  VERT SEC DIRECT
 TDD .m                5150.01:  TOTAL DEPTH (DRILLER)
 SDEP.m                 864.00:  START DEPTH
 DFSL.m                   0.00:  DISTANCE FSL
 DFWL.m                   0.00:  DISTANCE FWL
 UTMY.m             4443793.85:  UTM Y
 UTMX.m              519005.06:  UTM X
 WHEW.m                  -8.91:  WELL HEAD E/W
 WHNS.m                   9.43:  WELL HEAD N/S
 LONG.deg                51.22:  LONGITUDE
 LATI.deg                40.13:  LATITUDE
 TVDS.m                  43.00:  TVDSS CORRECTN
 EKB .m                   0.00:  KB ELEVATION
 EDF .m                  43.00:  DF ELEVATION
 TDL .m                 363.00:  TOTAL DEPTH (LOGGER)
 MAGU.                 1850802:  MAGUTM CHECKSUM
 VSC .                       0:  VS TO CLOSURE
~Parameter Information Block
#MNEM.UNIT       Value        Description
#---------     -----------    ---------------------------
 AV  .mps                 2.30:  Ann Velocity 
 AVMX.mps                 4.40:  Max Ann Veloc 
 AZIF.deg               110.24:  Azm, Final 
 BHAT.        Rotary Steerable:  BHA Type 
 BREV.rev               331.00:  Rev Bit Total 
 BROT.°/30m               0.00:  Build Rotating 
 BS  .in                  8.50:  Bit Size 
 BSZ .in                  8.50:  Bit Size 
 BTPL.psig              585.00:  Bit Press Loss 
 CABU.                     Yes:  Customer Abuse 
 COMM.                     |n\:  Run Comments 1 
 TCS .hr                122.75:  Time Ciculation Ended 
 CV  .mps                 2.67:  Crit Velocity 
 CVMX.mps                 3.56:  Max Crit Veloc 
 DD1 .          Rashad Habibov:  Direct Drillr 1 
 DD2 .         Rasim Ibrahimov:  Direct Drillr 2 
 DDSV.               Geo-Pilot:  DD Service 
 DEFF.%                  98.00:  % Det Eff 
 DLRX.°/30m               0.75:  Dogleg Rot Max 
 DLSO.°/30m               1.25:  Dogleg Oriented 
 DLSX.°/30m               2.06:  Dogleg Str Max 
 DRET.      07.45.00 17-May-20:  Drill End Time 
 DRST.      22.50.00 15-May-20:  Drill Start Tim 
 DTIM.hr                 20.75:  Time Drilling 
 EDEP.m                5124.01:  End Depth 
 ENG1.           Eldar Hajiyev:  Engineer 1 
 ENG2.        Marcelo Sandoval:  Engineer 2 
 ENG3.        Davud huseynzada:  Engineer 3 
 ENG4.          Ruslan Safarov:  Engineer 4 
 ETIM.      04.33.00 23-May-20:  End Time 
 FLOI.gpm               450.00:  Flow In 
 FLON.gpm               400.00:  Flow In Min 
 FLOS.cptm                0.00:  Fluid Loss 
 FLOX.gpm               500.00:  Flow In Max 
 FTRO.       Formation Presure:  FTWD Run Obj 
 HFLO.                      No:  High Flow 
 HPRE.                     Yes:  High Pressure 
 HTEM.                      No:  High Temp 
 HYDO.m                   1.80:  Hydro Offset 
 IFIN.deg                75.06:  Inc, Final 
 IMAX.deg                75.38:  Inc Max 
 IMIN.deg                74.69:  Inc Min 
 IMND.m                5027.38:  Inc Min Depth 
 IMXD.m                4771.61:  Inc Max Depth 
 JARR.                      No:  Jarring 
 LETM.      07.45.00 17-May-20:  Log End Time 
 LOST.hr                     0:  Lost Rig Time 
 LSTM.      22.50.00 15-May-20:  Log Start Time 
 MDCL.ppm             42000.00:  Mud Chlorides 
 MDES.     Inversion Oil/Synthetic:  Mud Desc 
 DFD .sg                  1.34:  Mud Density 
 MDMN.sg                  1.34:  Dens Mud Min 
 MDMX.sg                  1.34:  Dens Mud Max 
 MOIL.                       0:  Run Mud Oil % 
 MOWR.                   67:33:  Run Mud OWR 
 MSND.                       0:  Run Mud Sand % 
 MSOL.                     1.8:  Run Mud Solids% 
 DFV .spqt               76.00:  Mud Viscosity 
 MWOD.in                  6.75:  MWD Tool OD 
 MWSI.                      No:  Serv Intrp, MWD 
 OTIM.hr                228.19:  Time Operating 
 PCON.           Look Like New:  Pad Condition 
 PMAX.psia             6164.70:  Press Op, Max 
 PV  .cP                 28.00:  Mud PV 
 RUN .                     900:  Run Number 
 ROPA.m/hr               19.00:  ROP Avg 
 ROPN.m/hr               11.00:  ROP Min 
 ROPX.m/hr               36.00:  ROP Max 
 RPMA.rpm               120.00:  RPM Surface Avg 
 RPMN.rpm               120.00:  RPM Surface Min 
 RPMX.rpm               120.00:  RPM Surface Max 
 RRUN.                    L604:  Rig Run Number 
 RTIM.hr                  7.00:  Time Reaming 
 SAZI.deg               109.27:  Azm, Start 
 SDEP.m                4761.01:  Start Depth 
 SIDD.                      No:  Serv Intrp, DD 
 SINC.deg                75.38:  Inc, Start 
 SPPA.psig             3574.00:  SPP Avg 
 SPPN.psig             3475.00:  SPP Min 
 SPPX.psig             3791.00:  SPP Max 
 STIM.      07.08.48 13-May-20:  Start Time 
 SVCS.                 DD, MWD:  Services 
 SVER.                    9.20:  Sperry Version 
 TDAT.m                 363.00:  Tot Depth Attmp 
 TDDF.                      No:  Trip for DD 
 TDLG.m                 363.00:  Tot Depth Loggd 
 TFF .                      No:  Trip for Fail 
 TQAA.f-kp               20.00:  Torque Abs Avg 
 TQAN.f-kp               18.00:  Torque Abs Min 
 TQAX.f-kp               22.00:  Torque Abs Max 
 TRRT.°/30m              -0.35:  Turn Rotating 
 MRT .                    HCIM:  Maximum Recorded Temperature 
 TTMX.degC               92.16:  Max Tool Temp 
 VS01.                90586518:  Virtual Str1 SN 
 VS02.        AZ90560654Z1W1C6:  Virtual Str2 SN 
 VS03.           AZ90610398F11:  Virtual Str3 SN 
 VS04.                90514975:  Virtual Str4 SN 
 VS05.                90514972:  Virtual Str5 SN 
 VS06.     AZ90603282F11V7D1A6:  Virtual Str6 SN 
 WBMN.klb                 7.00:  WOB Min 
 WOBA.klb                12.00:  WOB Avg 
 WOBX.klb                14.00:  WOB Max 
 YP  .lhf2               32.00:  Yield Point 
~Curve Information Block
#MNEM.UNIT                 API CODE     Curve Description
#---------               -----------    ---------------------------
 TIME.HHMMSS            00 000 000 000:  GT Time & Date
 GTDEPTH.m              00 000 000 000:  GT Depth
 GTPQH.psia             00 000 000 000:  GT HR Quartz Pressure
 GTTQ.degC              00 000 000 000:  GT Quartz Temperature
 GTTN.NONE              00 000 000 000:  GT Test Number
 GTET.sec               00 000 000 000:  GT Elapsed Test Time
 GTTVD.m                00 000 000 000:  GT True Vertical Depth
#Other Information
#
#WARRANTY: Halliburton will use its best efforts to furnish customers with 
#accurate information and interpretations that are part of, and incident to, the services 
#provided.  However, Halliburton cannot and does not warrant the accuracy 
#or correctness of such information and interpretations.  Under no circumstances should any 
#such information or interpretation be relied upon as the sole basis for any drilling, 
#completion, production, or financial decision or any procedure involving any risk to the 
#safety of any drilling venture, drilling rig or its crew or any other third party.  The 
#Customer has full responsibility for all drilling, completion and production operation.  
#Halliburton makes no representations or warranties, either expressed or 
#implied, including, but not limited to, the implied warranties of merchantability or fitness 
#for a particular purpose, with respect to the services rendered.  In no event will 
#Halliburton be liable for failure to obtain any particular results or for 
#any damages, including, but not limited to, indirect, special or consequential damages, 
#resulting from the use of any information or interpretation provided by Halliburton.
#
~A           TIME           GTDEPTH  GTPQH  GTTQ  GTTN  GTET   GTTVD  
# ...
   17:30:38.620.17-May-2020 5032.01 2638.04 70.46 3.00 322.30 2600.96
   17:30:38.820.17-May-2020 5032.01 2638.04 70.46 3.00 322.50 2600.96
   17:30:39.020.17-May-2020 5032.01 2637.83 70.46 3.00 322.70 2600.96
   17:30:39.220.17-May-2020 5032.01 2637.87 70.46 3.00 322.90 2600.96
   17:30:39.421.17-May-2020 5032.01 2637.93 70.46 3.00 323.10 2600.96
   17:30:39.621.17-May-2020 5032.01 2637.88 70.46 3.00 323.30 2600.96
   17:30:39.821.17-May-2020 5032.01 2637.88 70.46 3.00 323.50 2600.96
   17:30:40.021.17-May-2020 5032.01 2637.89 70.46 3.00 323.70 2600.96
   17:30:40.221.17-May-2020 5032.01 2637.87 70.46 3.00 323.90 2600.96
   17:30:40.422.17-May-2020 5032.01 2637.87 70.46 3.00 324.10 2600.96
   17:30:40.622.17-May-2020 5032.01 2637.94 70.46 3.00 324.30 2600.96
   17:30:40.822.17-May-2020 5032.01 2637.94 70.46 3.00 324.50 2600.96
   17:30:41.022.17-May-2020 5032.01 2637.84 70.46 3.00 324.70 2600.96
   17:30:41.222.17-May-2020 5032.01 2637.85 70.46 3.00 324.90 2600.96
   17:30:41.423.17-May-2020 5032.01 2637.89 70.46 3.00 325.10 2600.96
   17:30:41.623.17-May-2020 5032.01 2637.91 70.46 3.00 325.30 2600.96
   17:30:41.823.17-May-2020 5032.01 2637.91 70.46 3.00 325.50 2600.96
   17:30:42.023.17-May-2020 5032.01 2637.87 70.46 3.00 325.70 2600.96
   17:30:42.223.17-May-2020 5032.01 2637.88 70.46 3.00 325.90 2600.96
   17:30:42.423.17-May-2020 5032.01 2637.88 70.46 3.00 326.10 2600.96
   17:30:42.624.17-May-2020 5032.01 2637.91 70.46 3.00 326.31 2600.96
   17:30:42.824.17-May-2020 5032.01 2637.91 70.46 3.00 326.51 2600.96
   17:30:43.024.17-May-2020 5032.01 2637.88 70.46 3.00 326.71 2600.96
   17:30:43.224.17-May-2020 5032.01 2637.79 70.46 3.00 326.91 2600.96
   17:30:43.424.17-May-2020 5032.01 2637.92 70.46 3.00 327.11 2600.96
   17:30:43.625.17-May-2020 5032.01 2638.07 70.46 3.00 327.31 2600.96
   17:30:43.825.17-May-2020 5032.01 2638.07 70.46 3.00 327.51 2600.96
   17:30:44.025.17-May-2020 5032.01 2637.88 70.46 3.00 327.71 2600.96
   17:30:44.225.17-May-2020 5032.01 2637.97 70.46 3.00 327.91 2600.96
   17:30:44.425.17-May-2020 5032.01 2637.91 70.46 3.00 328.11 2600.96
   17:30:44.626.17-May-2020 5032.01 2637.87 70.46 3.00 328.31 2600.96
   17:30:44.826.17-May-2020 5032.01 2637.87 70.46 3.00 328.51 2600.96
   17:30:45.026.17-May-2020 5032.01 2637.99 70.46 3.00 328.71 2600.96
   17:30:45.226.17-May-2020 5032.01 2637.95 70.46 3.00 328.91 2600.96
   17:30:45.426.17-May-2020 5032.01 2637.80 70.46 3.00 329.11 2600.96
   17:30:45.626.17-May-2020 5032.01 2637.90 70.46 3.00 329.31 2600.96
   17:30:45.827.17-May-2020 5032.01 2637.90 70.46 3.00 329.51 2600.96
   17:30:46.027.17-May-2020 5032.01 2637.91 70.46 3.00 329.71 2600.96
   17:30:46.227.17-May-2020 5032.01 2637.89 70.46 3.00 329.91 2600.96
   17:30:46.427.17-May-2020 5032.01 2637.87 70.46 3.00 330.11 2600.96
   17:30:46.627.17-May-2020 5032.01 2637.88 70.46 3.00 330.31 2600.96
   17:30:46.828.17-May-2020 5032.01 2637.88 70.46 3.00 330.51 2600.96
   17:30:47.028.17-May-2020 5032.01 2637.88 70.45 3.00 330.71 2600.96
   17:30:47.228.17-May-2020 5032.01 2637.86 70.45 3.00 330.91 2600.96
   17:30:47.428.17-May-2020 5032.01 2637.99 70.45 3.00 331.11 2600.96
   17:30:47.628.17-May-2020 5032.01 2637.84 70.45 3.00 331.31 2600.96
   17:30:47.829.17-May-2020 5032.01 2637.84 70.45 3.00 331.51 2600.96
   17:30:48.029.17-May-2020 5032.01 2637.89 70.45 3.00 331.71 2600.96
   17:30:48.229.17-May-2020 5032.01 2637.89 70.45 3.00 331.91 2600.96
   17:30:48.429.17-May-2020 5032.01 2637.87 70.45 3.00 332.11 2600.96
   17:30:48.629.17-May-2020 5032.01 2637.86 70.45 3.00 332.31 2600.96
   17:30:48.829.17-May-2020 5032.01 2637.87 70.45 3.00 332.51 2600.96
   17:30:49.030.17-May-2020 5032.01 2637.88 70.45 3.00 332.71 2600.96
   17:30:49.230.17-May-2020 5032.01 2638.05 70.45 3.00 332.91 2600.96
   17:30:49.430.17-May-2020 5032.01 2637.84 70.45 3.00 333.11 2600.96
   17:30:49.630.17-May-2020 5032.01 2637.81 70.45 3.00 333.31 2600.96
   17:30:49.830.17-May-2020 5032.01 2637.81 70.45 3.00 333.51 2600.96
   17:30:50.031.17-May-2020 5032.01 2637.95 70.45 3.00 333.71 2600.96
   17:30:50.231.17-May-2020 5032.01 2637.84 70.45 3.00 333.91 2600.96
   17:30:50.431.17-May-2020 5032.01 2637.85 70.45 3.00 334.11 2600.96
   17:30:50.631.17-May-2020 5032.01 2637.86 70.45 3.00 334.31 2600.96
   17:30:50.831.17-May-2020 5032.01 2637.86 70.45 3.00 334.51 2600.96
   17:30:51.032.17-May-2020 5032.01 2637.90 70.45 3.00 334.71 2600.96
   17:30:51.232.17-May-2020 5032.01 2637.81 70.45 3.00 334.91 2600.96
   17:30:51.432.17-May-2020 5032.01 2637.85 70.45 3.00 335.11 2600.96
   17:30:51.632.17-May-2020 5032.01 2637.97 70.45 3.00 335.31 2600.96
   17:30:51.832.17-May-2020 5032.01 2637.97 70.45 3.00 335.51 2600.96
   17:30:52.032.17-May-2020 5032.01 2637.82 70.45 3.00 335.71 2600.96
   17:30:52.233.17-May-2020 5032.01 2637.87 70.45 3.00 335.91 2600.96
   17:30:52.433.17-May-2020 5032.01 2637.90 70.45 3.00 336.11 2600.96
   17:30:52.633.17-May-2020 5032.01 2637.88 70.45 3.00 336.31 2600.96
   17:30:52.833.17-May-2020 5032.01 2637.87 70.45 3.00 336.51 2600.96
   17:30:53.033.17-May-2020 5032.01 2637.87 70.45 3.00 336.71 2600.96
   17:30:53.234.17-May-2020 5032.01 2637.87 70.45 3.00 336.92 2600.96
   17:30:53.434.17-May-2020 5032.01 2637.87 70.45 3.00 337.12 2600.96
   17:30:53.634.17-May-2020 5032.01 2637.94 70.45 3.00 337.32 2600.96
   17:30:53.834.17-May-2020 5032.01 2637.94 70.45 3.00 337.52 2600.96
   17:30:54.034.17-May-2020 5032.01 2637.86 70.45 3.00 337.72 2600.96
   17:30:54.235.17-May-2020 5032.01 2637.86 70.45 3.00 337.92 2600.96
   17:30:54.435.17-May-2020 5032.01 2637.86 70.45 3.00 338.12 2600.96
   17:30:54.635.17-May-2020 5032.01 2637.91 70.45 3.00 338.32 2600.96
   17:30:54.835.17-May-2020 5032.01 2637.91 70.45 3.00 338.52 2600.96
   17:30:55.035.17-May-2020 5032.01 2637.86 70.45 3.00 338.72 2600.96
   17:30:55.235.17-May-2020 5032.01 2637.87 70.45 3.00 338.92 2600.96
   17:30:55.436.17-May-2020 5032.01 2637.88 70.45 3.00 339.12 2600.96
   17:30:55.636.17-May-2020 5032.01 2637.84 70.45 3.00 339.32 2600.96
   17:30:55.836.17-May-2020 5032.01 2637.84 70.45 3.00 339.52 2600.96
   17:30:56.036.17-May-2020 5032.01 2637.89 70.45 3.00 339.72 2600.96
   17:30:56.236.17-May-2020 5032.01 2637.82 70.45 3.00 339.92 2600.96
   17:30:56.437.17-May-2020 5032.01 2637.92 70.45 3.00 340.12 2600.96
   17:30:56.637.17-May-2020 5032.01 2638.00 70.45 3.00 340.32 2600.96
   17:30:56.837.17-May-2020 5032.01 2637.85 70.45 3.00 340.52 2600.96
   17:30:57.037.17-May-2020 5032.01 2637.88 70.45 3.00 340.72 2600.96
   17:30:57.237.17-May-2020 5032.01 2637.85 70.45 3.00 340.92 2600.96
   17:30:57.438.17-May-2020 5032.01 2637.96 70.45 3.00 341.12 2600.96
   17:30:57.638.17-May-2020 5032.01 2637.89 70.45 3.00 341.32 2600.96
   17:30:57.838.17-May-2020 5032.01 2637.89 70.45 3.00 341.52 2600.96
   17:30:58.038.17-May-2020 5032.01 2637.93 70.44 3.00 341.72 2600.96
   17:30:58.238.17-May-2020 5032.01 2638.00 70.44 3.00 341.92 2600.96
   17:30:58.438.17-May-2020 5032.01 2637.86 70.44 3.00 342.12 2600.96
   17:30:58.639.17-May-2020 5032.01 2637.84 70.44 3.00 342.32 2600.96
   17:30:58.839.17-May-2020 5032.01 2637.84 70.44 3.00 342.52 2600.96
   17:30:59.039.17-May-2020 5032.01 2637.90 70.44 3.00 342.72 2600.96
   17:30:59.239.17-May-2020 5032.01 2637.89 70.44 3.00 342.92 2600.96
   17:30:59.439.17-May-2020 5032.01 2637.87 70.44 3.00 343.12 2600.96
   17:30:59.640.17-May-2020 5032.01 2637.87 70.44 3.00 343.32 2600.96
   17:30:59.840.17-May-2020 5032.01 2637.86 70.44 3.00 343.52 2600.96
   17:31:00.040.17-May-2020 5032.01 2637.87 70.44 3.00 343.72 2600.96
   17:31:00.240.17-May-2020 5032.01 2637.97 70.44 3.00 343.92 2600.96
   17:31:00.440.17-May-2020 5032.01 2637.89 70.44 3.00 344.12 2600.96
   17:31:00.641.17-May-2020 5032.01 2637.83 70.44 3.00 344.32 2600.96
   17:31:00.841.17-May-2020 5032.01 2637.83 70.44 3.00 344.52 2600.96
   17:31:01.041.17-May-2020 5032.01 2637.85 70.44 3.00 344.72 2600.96
   17:31:01.241.17-May-2020 5032.01 2637.87 70.44 3.00 344.92 2600.96
   17:31:01.441.17-May-2020 5032.01 2637.88 70.44 3.00 345.12 2600.96
