~Version Information
 VERS.                  2.0:   CWLS log ASCII Standard -VERSION 2.0
 WRAP.                   NO:   One line per depth step
~Well Information Block
#MNEM.UNIT     VALUE/NAME     DESCRIPTION
#---------     -----------    ---------------------------
 STRT.S             00:24:31 18-May-20: START TIME 00:24:31 18-May-20
 STOP.S             00:32:03 18-May-20: STOP TIME  00:32:03 18-May-20
 STEP.S                   0.00: STEP TIME
 NULL.                 -999.25: NULL VALUE
 UNIT.                     N/A:  LOGGING EQUIPMENT ID
 DCON.         Sperry Drilling:  DIRECTNL CONTR
 DOE .                     N/A:  DOE NUMBER
 JOBN.        AZ-XX-0906252240:  JOB TICKET NUMB
 MWDS.                     N/A:  MWD SHOP
 PROV.                    Baku:  PROVINCE
 STAT.                    Baku:  STATE NAME
 REGN.                   EESSA:  REGION
 BASE.              Azerbaijan:  LOGGING EQUIPMENT BASE LOCATION
 UWI .                     N/A:  UNIQUE WELL IDENTIFIER
 API .                     N/A:  API NUMBER
 MDS .        Operator Entered:  MAG DATA SOURCE
 WTYP.                Deviated:  WELL TYPE
 COMP.     BP Exploration (Caspian Sea) Ltd.:  COMPANY
 SRVC.          Turan Drilling:  CONTRACTOR
 WELL.           J23 (Slot 07):  WELL NAME
 CTRY.              Azerbaijan:  COUNTRY NAME
 FLD .                     ACG:  FIELD NAME
 PDAT.          Mean Sea Level:  PERMANENT DATUM
 RIG .             West Chirag:  RIG NAME
 SON .        AZ-XX-0906252240:  JOB NUMBER
 FTOP.          Formation Tops:  FORM TOPS DESC
 ILTD.               Lithology:  INTERP LTH DESC
 SVYD.                  Survey:  SURVEY DESC
 DMOD.             Drill Model:  DRILL MOD DESC
 HPTY.       Minimum Curvature:  HOLE POS TYPE
 NREF.                    Grid:  NORTH REFERENCE
 SPUD.               27-Aug-20:  SPUD DATE
 DATE.      00.00.00 19-May-20:  END TIME
 STIM.      03.00.00 25-Mar-20:  START TIME
 DMF .             Drill Floor:  DRILL MEAS FROM
 DFST.                        :  DIST FSL TEXT
 DFWT.                        :  DIST FWL TEXT
 CNTY.                        :  COUNTY
 LOC .                        :  LOCATION
 LMF .             Drill Floor:  LOG MEASURED FROM
 VSNS.m                   9.43:  VERT SEC N/S
 VSEW.m                  -8.91:  VERT SEC E/W
 AGAP.m                  43.00:  AIR GAP
 DEP .m                 354.17:  DEPTH
 APD .m                  43.00:  DEPTH ABOVE PD
 WDMS.m                 169.80:  WD ELEV
 EGL .m                   0.00:  GROUND ELEVATION
 EPD .m                   0.00:  ELEVATION
 AZTC.deg                 6.31:  AZM TOTAL CORR
 GRDC.deg                 0.14:  GRID CORRECTION
 MDEC.deg                 6.45:  MAGNETIC DECL
 MDIP.deg                59.56:  MAGNETIC DIP
 MFLD.nT              50295.00:  MAGNETIC FIELD
 GVFD.g                   1.00:  GRAVITY FIELD
 VSDR.deg               179.88:  VERT SEC DIRECT
 TDD .m                5150.01:  TOTAL DEPTH (DRILLER)
 SDEP.m                 864.00:  START DEPTH
 DFSL.m                   0.00:  DISTANCE FSL
 DFWL.m                   0.00:  DISTANCE FWL
 UTMY.m             4443793.85:  UTM Y
 UTMX.m              519005.06:  UTM X
 WHEW.m                  -8.91:  WELL HEAD E/W
 WHNS.m                   9.43:  WELL HEAD N/S
 LONG.deg                51.22:  LONGITUDE
 LATI.deg                40.13:  LATITUDE
 TVDS.m                  43.00:  TVDSS CORRECTN
 EKB .m                   0.00:  KB ELEVATION
 EDF .m                  43.00:  DF ELEVATION
 TDL .m                 363.00:  TOTAL DEPTH (LOGGER)
 MAGU.                 1850802:  MAGUTM CHECKSUM
 VSC .                       0:  VS TO CLOSURE
~Parameter Information Block
#MNEM.UNIT       Value        Description
#---------     -----------    ---------------------------
 AV  .mps                 2.30:  Ann Velocity 
 AVMX.mps                 4.40:  Max Ann Veloc 
 AZIF.deg               110.24:  Azm, Final 
 BHAT.        Rotary Steerable:  BHA Type 
 BREV.rev               331.00:  Rev Bit Total 
 BROT.°/30m               0.00:  Build Rotating 
 BS  .in                  8.50:  Bit Size 
 BSZ .in                  8.50:  Bit Size 
 BTPL.psig              585.00:  Bit Press Loss 
 CABU.                     Yes:  Customer Abuse 
 COMM.                     ô®q:  Run Comments 1 
 TCS .hr                122.75:  Time Ciculation Ended 
 CV  .mps                 2.67:  Crit Velocity 
 CVMX.mps                 3.56:  Max Crit Veloc 
 DD1 .          Rashad Habibov:  Direct Drillr 1 
 DD2 .         Rasim Ibrahimov:  Direct Drillr 2 
 DDSV.               Geo-Pilot:  DD Service 
 DEFF.%                  98.00:  % Det Eff 
 DLRX.°/30m               0.75:  Dogleg Rot Max 
 DLSO.°/30m               1.25:  Dogleg Oriented 
 DLSX.°/30m               2.06:  Dogleg Str Max 
 DRET.      07.45.00 17-May-20:  Drill End Time 
 DRST.      22.50.00 15-May-20:  Drill Start Tim 
 DTIM.hr                 20.75:  Time Drilling 
 EDEP.m                5124.01:  End Depth 
 ENG1.           Eldar Hajiyev:  Engineer 1 
 ENG2.        Marcelo Sandoval:  Engineer 2 
 ENG3.        Davud huseynzada:  Engineer 3 
 ENG4.          Ruslan Safarov:  Engineer 4 
 ETIM.      04.33.00 23-May-20:  End Time 
 FLOI.gpm               450.00:  Flow In 
 FLON.gpm               400.00:  Flow In Min 
 FLOS.cptm                0.00:  Fluid Loss 
 FLOX.gpm               500.00:  Flow In Max 
 FTRO.       Formation Presure:  FTWD Run Obj 
 HFLO.                      No:  High Flow 
 HPRE.                     Yes:  High Pressure 
 HTEM.                      No:  High Temp 
 HYDO.m                   1.80:  Hydro Offset 
 IFIN.deg                75.06:  Inc, Final 
 IMAX.deg                75.38:  Inc Max 
 IMIN.deg                74.69:  Inc Min 
 IMND.m                5027.38:  Inc Min Depth 
 IMXD.m                4771.61:  Inc Max Depth 
 JARR.                      No:  Jarring 
 LETM.      07.45.00 17-May-20:  Log End Time 
 LOST.hr                     0:  Lost Rig Time 
 LSTM.      22.50.00 15-May-20:  Log Start Time 
 MDCL.ppm             42000.00:  Mud Chlorides 
 MDES.     Inversion Oil/Synthetic:  Mud Desc 
 DFD .sg                  1.34:  Mud Density 
 MDMN.sg                  1.34:  Dens Mud Min 
 MDMX.sg                  1.34:  Dens Mud Max 
 MOIL.                       0:  Run Mud Oil % 
 MOWR.                   67:33:  Run Mud OWR 
 MSND.                       0:  Run Mud Sand % 
 MSOL.                     1.8:  Run Mud Solids% 
 DFV .spqt               76.00:  Mud Viscosity 
 MWOD.in                  6.75:  MWD Tool OD 
 MWSI.                      No:  Serv Intrp, MWD 
 OTIM.hr                228.19:  Time Operating 
 PCON.           Look Like New:  Pad Condition 
 PMAX.psia             6164.70:  Press Op, Max 
 PV  .cP                 28.00:  Mud PV 
 RUN .                     900:  Run Number 
 ROPA.m/hr               19.00:  ROP Avg 
 ROPN.m/hr               11.00:  ROP Min 
 ROPX.m/hr               36.00:  ROP Max 
 RPMA.rpm               120.00:  RPM Surface Avg 
 RPMN.rpm               120.00:  RPM Surface Min 
 RPMX.rpm               120.00:  RPM Surface Max 
 RRUN.                    L604:  Rig Run Number 
 RTIM.hr                  7.00:  Time Reaming 
 SAZI.deg               109.27:  Azm, Start 
 SDEP.m                4761.01:  Start Depth 
 SIDD.                      No:  Serv Intrp, DD 
 SINC.deg                75.38:  Inc, Start 
 SPPA.psig             3574.00:  SPP Avg 
 SPPN.psig             3475.00:  SPP Min 
 SPPX.psig             3791.00:  SPP Max 
 STIM.      07.08.48 13-May-20:  Start Time 
 SVCS.                 DD, MWD:  Services 
 SVER.                    9.20:  Sperry Version 
 TDAT.m                 363.00:  Tot Depth Attmp 
 TDDF.                      No:  Trip for DD 
 TDLG.m                 363.00:  Tot Depth Loggd 
 TFF .                      No:  Trip for Fail 
 TQAA.f-kp               20.00:  Torque Abs Avg 
 TQAN.f-kp               18.00:  Torque Abs Min 
 TQAX.f-kp               22.00:  Torque Abs Max 
 TRRT.°/30m              -0.35:  Turn Rotating 
 MRT .                    HCIM:  Maximum Recorded Temperature 
 TTMX.degC               92.16:  Max Tool Temp 
 VS01.                90586518:  Virtual Str1 SN 
 VS02.        AZ90560654Z1W1C6:  Virtual Str2 SN 
 VS03.           AZ90610398F11:  Virtual Str3 SN 
 VS04.                90514975:  Virtual Str4 SN 
 VS05.                90514972:  Virtual Str5 SN 
 VS06.     AZ90603282F11V7D1A6:  Virtual Str6 SN 
 WBMN.klb                 7.00:  WOB Min 
 WOBA.klb                12.00:  WOB Avg 
 WOBX.klb                14.00:  WOB Max 
 YP  .lhf2               32.00:  Yield Point 
~Curve Information Block
#MNEM.UNIT                 API CODE     Curve Description
#---------               -----------    ---------------------------
 TIME.HHMMSS            00 000 000 000:  GT Time & Date
 GTDEPTH.m              00 000 000 000:  GT Depth
 GTPQH.psia             00 000 000 000:  GT HR Quartz Pressure
 GTTQ.degC              00 000 000 000:  GT Quartz Temperature
 GTTN.NONE              00 000 000 000:  GT Test Number
 GTET.sec               00 000 000 000:  GT Elapsed Test Time
 GTTVD.m                00 000 000 000:  GT True Vertical Depth
#Other Information
#
#WARRANTY: Halliburton will use its best efforts to furnish customers with 
#accurate information and interpretations that are part of, and incident to, the services 
#provided.  However, Halliburton cannot and does not warrant the accuracy 
#or correctness of such information and interpretations.  Under no circumstances should any 
#such information or interpretation be relied upon as the sole basis for any drilling, 
#completion, production, or financial decision or any procedure involving any risk to the 
#safety of any drilling venture, drilling rig or its crew or any other third party.  The 
#Customer has full responsibility for all drilling, completion and production operation.  
#Halliburton makes no representations or warranties, either expressed or 
#implied, including, but not limited to, the implied warranties of merchantability or fitness 
#for a particular purpose, with respect to the services rendered.  In no event will 
#Halliburton be liable for failure to obtain any particular results or for 
#any damages, including, but not limited to, indirect, special or consequential damages, 
#resulting from the use of any information or interpretation provided by Halliburton.
#
~A           TIME           GTDEPTH  GTPQH  GTTQ  GTTN   GTET   GTTVD  
# ...
   00:26:24.358.18-May-2020 4886.01 3643.84 66.40 10.00 113.05 2563.39
   00:26:24.558.18-May-2020 4886.01 3643.84 66.40 10.00 113.25 2563.39
   00:26:24.758.18-May-2020 4886.01 3643.79 66.40 10.00 113.45 2563.39
   00:26:24.958.18-May-2020 4886.01 3643.76 66.40 10.00 113.65 2563.39
   00:26:25.158.18-May-2020 4886.01 3643.95 66.40 10.00 113.85 2563.39
   00:26:25.358.18-May-2020 4886.01 3643.75 66.40 10.00 114.05 2563.39
   00:26:25.558.18-May-2020 4886.01 3643.75 66.40 10.00 114.25 2563.39
   00:26:25.758.18-May-2020 4886.01 3643.75 66.40 10.00 114.45 2563.39
   00:26:25.958.18-May-2020 4886.01 3643.86 66.40 10.00 114.65 2563.39
   00:26:26.158.18-May-2020 4886.01 3643.82 66.40 10.00 114.85 2563.39
   00:26:26.359.18-May-2020 4886.01 3643.84 66.40 10.00 115.05 2563.39
   00:26:26.559.18-May-2020 4886.01 3643.84 66.40 10.00 115.25 2563.39
   00:26:26.759.18-May-2020 4886.01 3643.83 66.40 10.00 115.45 2563.39
   00:26:26.959.18-May-2020 4886.01 3644.15 66.40 10.00 115.65 2563.39
   00:26:27.159.18-May-2020 4886.01 3643.49 66.40 10.00 115.85 2563.39
   00:26:27.359.18-May-2020 4886.01 3643.97 66.40 10.00 116.05 2563.39
   00:26:27.559.18-May-2020 4886.01 3643.97 66.40 10.00 116.25 2563.39
   00:26:27.759.18-May-2020 4886.01 3643.87 66.40 10.00 116.45 2563.39
   00:26:27.959.18-May-2020 4886.01 3643.77 66.40 10.00 116.65 2563.39
   00:26:28.159.18-May-2020 4886.01 3643.90 66.40 10.00 116.85 2563.39
   00:26:28.359.18-May-2020 4886.01 3643.83 66.40 10.00 117.05 2563.39
   00:26:28.559.18-May-2020 4886.01 3643.83 66.40 10.00 117.25 2563.39
   00:26:28.760.18-May-2020 4886.01 3643.86 66.40 10.00 117.45 2563.39
   00:26:28.960.18-May-2020 4886.01 3643.57 66.40 10.00 117.65 2563.39
   00:26:29.160.18-May-2020 4886.01 3644.17 66.40 10.00 117.85 2563.39
   00:26:29.360.18-May-2020 4886.01 3644.00 66.40 10.00 118.05 2563.39
   00:26:29.560.18-May-2020 4886.01 3644.00 66.40 10.00 118.25 2563.39
   00:26:29.760.18-May-2020 4886.01 3643.51 66.40 10.00 118.45 2563.39
   00:26:29.960.18-May-2020 4886.01 3644.26 66.40 10.00 118.65 2563.39
   00:26:30.160.18-May-2020 4886.01 3644.02 66.40 10.00 118.85 2563.39
   00:26:30.360.18-May-2020 4886.01 3643.83 66.40 10.00 119.05 2563.39
   00:26:30.560.18-May-2020 4886.01 3643.75 66.40 10.00 119.25 2563.39
   00:26:30.760.18-May-2020 4886.01 3643.86 66.40 10.00 119.45 2563.39
   00:26:30.960.18-May-2020 4886.01 3643.91 66.40 10.00 119.65 2563.39
   00:26:31.161.18-May-2020 4886.01 3643.78 66.40 10.00 119.85 2563.39
   00:26:31.361.18-May-2020 4886.01 3643.88 66.40 10.00 120.05 2563.39
   00:26:31.561.18-May-2020 4886.01 3643.98 66.40 10.00 120.25 2563.39
   00:26:31.761.18-May-2020 4886.01 3643.77 66.40 10.00 120.45 2563.39
   00:26:31.961.18-May-2020 4886.01 3644.01 66.40 10.00 120.65 2563.39
   00:26:32.161.18-May-2020 4886.01 3643.82 66.40 10.00 120.85 2563.39
   00:26:32.361.18-May-2020 4886.01 3643.89 66.40 10.00 121.05 2563.39
   00:26:32.561.18-May-2020 4886.01 3643.89 66.40 10.00 121.25 2563.39
   00:26:32.761.18-May-2020 4886.01 3643.90 66.40 10.00 121.45 2563.39
   00:26:32.961.18-May-2020 4886.01 3643.81 66.40 10.00 121.65 2563.39
   00:26:33.161.18-May-2020 4886.01 3643.86 66.40 10.00 121.85 2563.39
   00:26:33.361.18-May-2020 4886.01 3643.82 66.40 10.00 122.05 2563.39
   00:26:33.561.18-May-2020 4886.01 3643.82 66.40 10.00 122.25 2563.39
   00:26:33.762.18-May-2020 4886.01 3643.96 66.40 10.00 122.45 2563.39
   00:26:33.962.18-May-2020 4886.01 3643.89 66.40 10.00 122.65 2563.39
   00:26:34.162.18-May-2020 4886.01 3643.96 66.40 10.00 122.85 2563.39
   00:26:34.362.18-May-2020 4886.01 3643.76 66.40 10.00 123.05 2563.39
   00:26:34.562.18-May-2020 4886.01 3643.76 66.40 10.00 123.25 2563.39
   00:26:34.762.18-May-2020 4886.01 3643.78 66.40 10.00 123.45 2563.39
   00:26:34.962.18-May-2020 4886.01 3643.85 66.40 10.00 123.65 2563.39
   00:26:35.162.18-May-2020 4886.01 3643.83 66.40 10.00 123.85 2563.39
   00:26:35.362.18-May-2020 4886.01 3643.87 66.40 10.00 124.05 2563.39
   00:26:35.562.18-May-2020 4886.01 3643.87 66.40 10.00 124.25 2563.39
   00:26:35.762.18-May-2020 4886.01 3643.82 66.40 10.00 124.45 2563.39
   00:26:35.962.18-May-2020 4886.01 3643.88 66.40 10.00 124.65 2563.39
   00:26:36.163.18-May-2020 4886.01 3643.95 66.40 10.00 124.85 2563.39
   00:26:36.363.18-May-2020 4886.01 3643.77 66.40 10.00 125.05 2563.39
   00:26:36.563.18-May-2020 4886.01 3643.77 66.40 10.00 125.25 2563.39
   00:26:36.763.18-May-2020 4886.01 3643.78 66.40 10.00 125.45 2563.39
   00:26:36.963.18-May-2020 4886.01 3644.02 66.40 10.00 125.65 2563.39
   00:26:37.163.18-May-2020 4886.01 3643.74 66.40 10.00 125.85 2563.39
   00:26:37.363.18-May-2020 4886.01 3644.14 66.40 10.00 126.05 2563.39
   00:26:37.563.18-May-2020 4886.01 3644.14 66.40 10.00 126.25 2563.39
   00:26:37.763.18-May-2020 4886.01 3643.97 66.40 10.00 126.45 2563.39
   00:26:37.963.18-May-2020 4886.01 3643.82 66.40 10.00 126.65 2563.39
   00:26:38.163.18-May-2020 4886.01 3643.85 66.40 10.00 126.85 2563.39
   00:26:38.363.18-May-2020 4886.01 3643.90 66.40 10.00 127.05 2563.39
   00:26:38.563.18-May-2020 4886.01 3643.90 66.40 10.00 127.25 2563.39
   00:26:38.764.18-May-2020 4886.01 3643.97 66.40 10.00 127.45 2563.39
   00:26:38.964.18-May-2020 4886.01 3643.76 66.40 10.00 127.65 2563.39
   00:26:39.164.18-May-2020 4886.01 3643.82 66.40 10.00 127.85 2563.39
   00:26:39.364.18-May-2020 4886.01 3643.74 66.40 10.00 128.05 2563.39
   00:26:39.564.18-May-2020 4886.01 3643.74 66.40 10.00 128.25 2563.39
   00:26:39.764.18-May-2020 4886.01 3644.08 66.40 10.00 128.45 2563.39
   00:26:39.964.18-May-2020 4886.01 3643.92 66.40 10.00 128.65 2563.39
   00:26:40.164.18-May-2020 4886.01 3643.83 66.40 10.00 128.85 2563.39
   00:26:40.364.18-May-2020 4886.01 3643.52 66.40 10.00 129.05 2563.39
   00:26:40.564.18-May-2020 4886.01 3643.52 66.40 10.00 129.25 2563.39
   00:26:40.764.18-May-2020 4886.01 3643.97 66.40 10.00 129.45 2563.39
   00:26:40.964.18-May-2020 4886.01 3643.80 66.40 10.00 129.65 2563.39
   00:26:41.165.18-May-2020 4886.01 3643.78 66.40 10.00 129.85 2563.39
   00:26:41.365.18-May-2020 4886.01 3643.82 66.40 10.00 130.05 2563.39
   00:26:41.565.18-May-2020 4886.01 3643.82 66.40 10.00 130.25 2563.39
   00:26:41.765.18-May-2020 4886.01 3643.83 66.40 10.00 130.45 2563.39
   00:26:41.965.18-May-2020 4886.01 3643.84 66.40 10.00 130.65 2563.39
   00:26:42.165.18-May-2020 4886.01 3643.84 66.40 10.00 130.85 2563.39
   00:26:42.365.18-May-2020 4886.01 3643.81 66.40 10.00 131.05 2563.39
   00:26:42.565.18-May-2020 4886.01 3643.81 66.40 10.00 131.25 2563.39
   00:26:42.765.18-May-2020 4886.01 3643.50 66.40 10.00 131.45 2563.39
   00:26:42.965.18-May-2020 4886.01 3643.95 66.40 10.00 131.65 2563.39
   00:26:43.165.18-May-2020 4886.01 3643.84 66.40 10.00 131.85 2563.39
   00:26:43.365.18-May-2020 4886.01 3644.16 66.40 10.00 132.05 2563.39
   00:26:43.566.18-May-2020 4886.01 3644.16 66.40 10.00 132.25 2563.39
   00:26:43.766.18-May-2020 4886.01 3644.01 66.40 10.00 132.45 2563.39
   00:26:43.966.18-May-2020 4886.01 3643.78 66.40 10.00 132.65 2563.39
   00:26:44.166.18-May-2020 4886.01 3643.97 66.40 10.00 132.85 2563.39
   00:26:44.366.18-May-2020 4886.01 3643.68 66.40 10.00 133.05 2563.39
   00:26:44.566.18-May-2020 4886.01 3643.68 66.40 10.00 133.25 2563.39
   00:26:44.766.18-May-2020 4886.01 3643.73 66.40 10.00 133.45 2563.39
   00:26:44.966.18-May-2020 4886.01 3643.50 66.40 10.00 133.65 2563.39
   00:26:45.166.18-May-2020 4886.01 3644.06 66.40 10.00 133.85 2563.39
   00:26:45.366.18-May-2020 4886.01 3644.03 66.40 10.00 134.05 2563.39
   00:26:45.566.18-May-2020 4886.01 3644.03 66.40 10.00 134.25 2563.39
   00:26:45.766.18-May-2020 4886.01 3643.73 66.40 10.00 134.45 2563.39
   00:26:45.966.18-May-2020 4886.01 3643.82 66.40 10.00 134.65 2563.39
   00:26:46.167.18-May-2020 4886.01 3643.81 66.40 10.00 134.85 2563.39
   00:26:46.367.18-May-2020 4886.01 3643.83 66.40 10.00 135.05 2563.39
   00:26:46.567.18-May-2020 4886.01 3643.82 66.40 10.00 135.25 2563.39
   00:26:46.767.18-May-2020 4886.01 3643.85 66.40 10.00 135.45 2563.39
