~Version Information
 VERS.                  2.0:   CWLS log ASCII Standard -VERSION 2.0
 WRAP.                   NO:   One line per depth step
~Well Information Block
#MNEM.UNIT     VALUE/NAME     DESCRIPTION
#---------     -----------    ---------------------------
 STRT.S             17:25:16 17-May-20: START TIME 17:25:16 17-May-20
 STOP.S             17:32:20 17-May-20: STOP TIME  17:32:20 17-May-20
 STEP.S                   0.00: STEP TIME
 NULL.                 -999.25: NULL VALUE
 UNIT.                     N/A:  LOGGING EQUIPMENT ID
 DCON.         Sperry Drilling:  DIRECTNL CONTR
 DOE .                     N/A:  DOE NUMBER
 JOBN.        AZ-XX-0906252240:  JOB TICKET NUMB
 MWDS.                     N/A:  MWD SHOP
 PROV.                    Baku:  PROVINCE
 STAT.                    Baku:  STATE NAME
 REGN.                   EESSA:  REGION
 BASE.              Azerbaijan:  LOGGING EQUIPMENT BASE LOCATION
 UWI .                     N/A:  UNIQUE WELL IDENTIFIER
 API .                     N/A:  API NUMBER
 MDS .        Operator Entered:  MAG DATA SOURCE
 WTYP.                Deviated:  WELL TYPE
 COMP.     BP Exploration (Caspian Sea) Ltd.:  COMPANY
 SRVC.          Turan Drilling:  CONTRACTOR
 WELL.           J23 (Slot 07):  WELL NAME
 CTRY.              Azerbaijan:  COUNTRY NAME
 FLD .                     ACG:  FIELD NAME
 PDAT.          Mean Sea Level:  PERMANENT DATUM
 RIG .             West Chirag:  RIG NAME
 SON .        AZ-XX-0906252240:  JOB NUMBER
 FTOP.          Formation Tops:  FORM TOPS DESC
 ILTD.               Lithology:  INTERP LTH DESC
 SVYD.                  Survey:  SURVEY DESC
 DMOD.             Drill Model:  DRILL MOD DESC
 HPTY.       Minimum Curvature:  HOLE POS TYPE
 NREF.                    Grid:  NORTH REFERENCE
 SPUD.               27-Aug-20:  SPUD DATE
 DATE.      00.00.00 19-May-20:  END TIME
 STIM.      03.00.00 25-Mar-20:  START TIME
 DMF .             Drill Floor:  DRILL MEAS FROM
 DFST.                        :  DIST FSL TEXT
 DFWT.                        :  DIST FWL TEXT
 CNTY.                        :  COUNTY
 LOC .                        :  LOCATION
 LMF .             Drill Floor:  LOG MEASURED FROM
 VSNS.m                   9.43:  VERT SEC N/S
 VSEW.m                  -8.91:  VERT SEC E/W
 AGAP.m                  43.00:  AIR GAP
 DEP .m                 354.17:  DEPTH
 APD .m                  43.00:  DEPTH ABOVE PD
 WDMS.m                 169.80:  WD ELEV
 EGL .m                   0.00:  GROUND ELEVATION
 EPD .m                   0.00:  ELEVATION
 AZTC.deg                 6.31:  AZM TOTAL CORR
 GRDC.deg                 0.14:  GRID CORRECTION
 MDEC.deg                 6.45:  MAGNETIC DECL
 MDIP.deg                59.56:  MAGNETIC DIP
 MFLD.nT              50295.00:  MAGNETIC FIELD
 GVFD.g                   1.00:  GRAVITY FIELD
 VSDR.deg               179.88:  VERT SEC DIRECT
 TDD .m                5150.01:  TOTAL DEPTH (DRILLER)
 SDEP.m                 864.00:  START DEPTH
 DFSL.m                   0.00:  DISTANCE FSL
 DFWL.m                   0.00:  DISTANCE FWL
 UTMY.m             4443793.85:  UTM Y
 UTMX.m              519005.06:  UTM X
 WHEW.m                  -8.91:  WELL HEAD E/W
 WHNS.m                   9.43:  WELL HEAD N/S
 LONG.deg                51.22:  LONGITUDE
 LATI.deg                40.13:  LATITUDE
 TVDS.m                  43.00:  TVDSS CORRECTN
 EKB .m                   0.00:  KB ELEVATION
 EDF .m                  43.00:  DF ELEVATION
 TDL .m                 363.00:  TOTAL DEPTH (LOGGER)
 MAGU.                 1850802:  MAGUTM CHECKSUM
 VSC .                       0:  VS TO CLOSURE
~Parameter Information Block
#MNEM.UNIT       Value        Description
#---------     -----------    ---------------------------
 AV  .mps                 2.30:  Ann Velocity 
 AVMX.mps                 4.40:  Max Ann Veloc 
 AZIF.deg               110.24:  Azm, Final 
 BHAT.        Rotary Steerable:  BHA Type 
 BREV.rev               331.00:  Rev Bit Total 
 BROT.°/30m               0.00:  Build Rotating 
 BS  .in                  8.50:  Bit Size 
 BSZ .in                  8.50:  Bit Size 
 BTPL.psig              585.00:  Bit Press Loss 
 CABU.                     Yes:  Customer Abuse 
 COMM.                     |n\:  Run Comments 1 
 TCS .hr                122.75:  Time Ciculation Ended 
 CV  .mps                 2.67:  Crit Velocity 
 CVMX.mps                 3.56:  Max Crit Veloc 
 DD1 .          Rashad Habibov:  Direct Drillr 1 
 DD2 .         Rasim Ibrahimov:  Direct Drillr 2 
 DDSV.               Geo-Pilot:  DD Service 
 DEFF.%                  98.00:  % Det Eff 
 DLRX.°/30m               0.75:  Dogleg Rot Max 
 DLSO.°/30m               1.25:  Dogleg Oriented 
 DLSX.°/30m               2.06:  Dogleg Str Max 
 DRET.      07.45.00 17-May-20:  Drill End Time 
 DRST.      22.50.00 15-May-20:  Drill Start Tim 
 DTIM.hr                 20.75:  Time Drilling 
 EDEP.m                5124.01:  End Depth 
 ENG1.           Eldar Hajiyev:  Engineer 1 
 ENG2.        Marcelo Sandoval:  Engineer 2 
 ENG3.        Davud huseynzada:  Engineer 3 
 ENG4.          Ruslan Safarov:  Engineer 4 
 ETIM.      04.33.00 23-May-20:  End Time 
 FLOI.gpm               450.00:  Flow In 
 FLON.gpm               400.00:  Flow In Min 
 FLOS.cptm                0.00:  Fluid Loss 
 FLOX.gpm               500.00:  Flow In Max 
 FTRO.       Formation Presure:  FTWD Run Obj 
 HFLO.                      No:  High Flow 
 HPRE.                     Yes:  High Pressure 
 HTEM.                      No:  High Temp 
 HYDO.m                   1.80:  Hydro Offset 
 IFIN.deg                75.06:  Inc, Final 
 IMAX.deg                75.38:  Inc Max 
 IMIN.deg                74.69:  Inc Min 
 IMND.m                5027.38:  Inc Min Depth 
 IMXD.m                4771.61:  Inc Max Depth 
 JARR.                      No:  Jarring 
 LETM.      07.45.00 17-May-20:  Log End Time 
 LOST.hr                     0:  Lost Rig Time 
 LSTM.      22.50.00 15-May-20:  Log Start Time 
 MDCL.ppm             42000.00:  Mud Chlorides 
 MDES.     Inversion Oil/Synthetic:  Mud Desc 
 DFD .sg                  1.34:  Mud Density 
 MDMN.sg                  1.34:  Dens Mud Min 
 MDMX.sg                  1.34:  Dens Mud Max 
 MOIL.                       0:  Run Mud Oil % 
 MOWR.                   67:33:  Run Mud OWR 
 MSND.                       0:  Run Mud Sand % 
 MSOL.                     1.8:  Run Mud Solids% 
 DFV .spqt               76.00:  Mud Viscosity 
 MWOD.in                  6.75:  MWD Tool OD 
 MWSI.                      No:  Serv Intrp, MWD 
 OTIM.hr                228.19:  Time Operating 
 PCON.           Look Like New:  Pad Condition 
 PMAX.psia             6164.70:  Press Op, Max 
 PV  .cP                 28.00:  Mud PV 
 RUN .                     900:  Run Number 
 ROPA.m/hr               19.00:  ROP Avg 
 ROPN.m/hr               11.00:  ROP Min 
 ROPX.m/hr               36.00:  ROP Max 
 RPMA.rpm               120.00:  RPM Surface Avg 
 RPMN.rpm               120.00:  RPM Surface Min 
 RPMX.rpm               120.00:  RPM Surface Max 
 RRUN.                    L604:  Rig Run Number 
 RTIM.hr                  7.00:  Time Reaming 
 SAZI.deg               109.27:  Azm, Start 
 SDEP.m                4761.01:  Start Depth 
 SIDD.                      No:  Serv Intrp, DD 
 SINC.deg                75.38:  Inc, Start 
 SPPA.psig             3574.00:  SPP Avg 
 SPPN.psig             3475.00:  SPP Min 
 SPPX.psig             3791.00:  SPP Max 
 STIM.      07.08.48 13-May-20:  Start Time 
 SVCS.                 DD, MWD:  Services 
 SVER.                    9.20:  Sperry Version 
 TDAT.m                 363.00:  Tot Depth Attmp 
 TDDF.                      No:  Trip for DD 
 TDLG.m                 363.00:  Tot Depth Loggd 
 TFF .                      No:  Trip for Fail 
 TQAA.f-kp               20.00:  Torque Abs Avg 
 TQAN.f-kp               18.00:  Torque Abs Min 
 TQAX.f-kp               22.00:  Torque Abs Max 
 TRRT.°/30m              -0.35:  Turn Rotating 
 MRT .                    HCIM:  Maximum Recorded Temperature 
 TTMX.degC               92.16:  Max Tool Temp 
 VS01.                90586518:  Virtual Str1 SN 
 VS02.        AZ90560654Z1W1C6:  Virtual Str2 SN 
 VS03.           AZ90610398F11:  Virtual Str3 SN 
 VS04.                90514975:  Virtual Str4 SN 
 VS05.                90514972:  Virtual Str5 SN 
 VS06.     AZ90603282F11V7D1A6:  Virtual Str6 SN 
 WBMN.klb                 7.00:  WOB Min 
 WOBA.klb                12.00:  WOB Avg 
 WOBX.klb                14.00:  WOB Max 
 YP  .lhf2               32.00:  Yield Point 
~Curve Information Block
#MNEM.UNIT                 API CODE     Curve Description
#---------               -----------    ---------------------------
 TIME.HHMMSS            00 000 000 000:  GT Time & Date
 GTDEPTH.m              00 000 000 000:  GT Depth
 GTPQH.psia             00 000 000 000:  GT HR Quartz Pressure
 GTTQ.degC              00 000 000 000:  GT Quartz Temperature
 GTTN.NONE              00 000 000 000:  GT Test Number
 GTET.sec               00 000 000 000:  GT Elapsed Test Time
 GTTVD.m                00 000 000 000:  GT True Vertical Depth
#Other Information
#
#WARRANTY: Halliburton will use its best efforts to furnish customers with 
#accurate information and interpretations that are part of, and incident to, the services 
#provided.  However, Halliburton cannot and does not warrant the accuracy 
#or correctness of such information and interpretations.  Under no circumstances should any 
#such information or interpretation be relied upon as the sole basis for any drilling, 
#completion, production, or financial decision or any procedure involving any risk to the 
#safety of any drilling venture, drilling rig or its crew or any other third party.  The 
#Customer has full responsibility for all drilling, completion and production operation.  
#Halliburton makes no representations or warranties, either expressed or 
#implied, including, but not limited to, the implied warranties of merchantability or fitness 
#for a particular purpose, with respect to the services rendered.  In no event will 
#Halliburton be liable for failure to obtain any particular results or for 
#any damages, including, but not limited to, indirect, special or consequential damages, 
#resulting from the use of any information or interpretation provided by Halliburton.
#
~A           TIME           GTDEPTH  GTPQH  GTTQ  GTTN  GTET   GTTVD  
# ...
   17:25:39.340.17-May-2020 5032.01 5570.27 70.79 3.00  23.02 2600.96
   17:25:39.540.17-May-2020 5032.01 5570.06 70.79 3.00  23.22 2600.96
   17:25:39.740.17-May-2020 5032.01 5575.81 70.79 3.00  23.42 2600.96
   17:25:39.941.17-May-2020 5032.01 5578.82 70.79 3.00  23.62 2600.96
   17:25:40.141.17-May-2020 5032.01 5578.65 70.79 3.00  23.82 2600.96
   17:25:40.341.17-May-2020 5032.01 5568.48 70.79 3.00  24.02 2600.96
   17:25:40.541.17-May-2020 5032.01 5568.48 70.79 3.00  24.22 2600.96
   17:25:40.741.17-May-2020 5032.01 5574.30 70.79 3.00  24.42 2600.96
   17:25:40.942.17-May-2020 5032.01 5572.28 70.79 3.00  24.62 2600.96
   17:25:41.142.17-May-2020 5032.01 5571.51 70.79 3.00  24.82 2600.96
   17:25:41.342.17-May-2020 5032.01 5570.06 70.79 3.00  25.02 2600.96
   17:25:41.542.17-May-2020 5032.01 5570.06 70.79 3.00  25.22 2600.96
   17:25:41.742.17-May-2020 5032.01 5572.32 70.79 3.00  25.42 2600.96
   17:25:41.942.17-May-2020 5032.01 5571.93 70.79 3.00  25.62 2600.96
   17:25:42.143.17-May-2020 5032.01 5582.37 70.79 3.00  25.82 2600.96
   17:25:42.343.17-May-2020 5032.01 5579.17 70.79 3.00  26.02 2600.96
   17:25:42.543.17-May-2020 5032.01 5579.17 70.79 3.00  26.22 2600.96
   17:25:42.743.17-May-2020 5032.01 5574.41 70.79 3.00  26.42 2600.96
   17:25:42.943.17-May-2020 5032.01 5589.01 70.79 3.00  26.62 2600.96
   17:25:43.144.17-May-2020 5032.01 5578.39 70.79 3.00  26.83 2600.96
   17:25:43.344.17-May-2020 5032.01 5577.24 70.79 3.00  27.03 2600.96
   17:25:43.544.17-May-2020 5032.01 5570.96 70.79 3.00  27.23 2600.96
   17:25:43.744.17-May-2020 5032.01 5578.30 70.79 3.00  27.43 2600.96
   17:25:43.944.17-May-2020 5032.01 5585.24 70.79 3.00  27.63 2600.96
   17:25:44.145.17-May-2020 5032.01 5584.48 70.79 3.00  27.83 2600.96
   17:25:44.345.17-May-2020 5032.01 5571.22 70.79 3.00  28.03 2600.96
   17:25:44.545.17-May-2020 5032.01 5571.22 70.79 3.00  28.23 2600.96
   17:25:44.745.17-May-2020 5032.01 5586.98 70.79 3.00  28.43 2600.96
   17:25:44.945.17-May-2020 5032.01 5586.82 70.79 3.00  28.63 2600.96
   17:25:45.145.17-May-2020 5032.01 5574.44 70.79 3.00  28.83 2600.96
   17:25:45.346.17-May-2020 5032.01 5574.89 70.79 3.00  29.03 2600.96
   17:25:45.546.17-May-2020 5032.01 5574.89 70.79 3.00  29.23 2600.96
   17:25:45.746.17-May-2020 5032.01 5577.62 70.78 3.00  29.43 2600.96
   17:25:45.946.17-May-2020 5032.01 5576.33 70.78 3.00  29.63 2600.96
   17:25:46.146.17-May-2020 5032.01 5573.37 70.78 3.00  29.83 2600.96
   17:25:46.347.17-May-2020 5032.01 5574.00 70.78 3.00  30.03 2600.96
   17:25:46.547.17-May-2020 5032.01 5574.00 70.78 3.00  30.23 2600.96
   17:25:46.747.17-May-2020 5032.01 5586.11 70.78 3.00  30.43 2600.96
   17:25:46.947.17-May-2020 5032.01 5582.49 70.78 3.00  30.63 2600.96
   17:25:47.147.17-May-2020 5032.01 5573.17 70.78 3.00  30.83 2600.96
   17:25:47.347.17-May-2020 5032.01 5575.25 70.78 3.00  31.03 2600.96
   17:25:47.548.17-May-2020 5032.01 5576.67 70.78 3.00  31.23 2600.96
   17:25:47.748.17-May-2020 5032.01 5576.11 70.78 3.00  31.43 2600.96
   17:25:47.948.17-May-2020 5032.01 5575.54 70.78 3.00  31.63 2600.96
   17:25:48.148.17-May-2020 5032.01 5573.26 70.78 3.00  31.83 2600.96
   17:25:48.348.17-May-2020 5032.01 5573.79 70.78 3.00  32.03 2600.96
   17:25:48.549.17-May-2020 5032.01 5575.41 70.78 3.00  32.23 2600.96
   17:25:48.749.17-May-2020 5032.01 5575.42 70.78 3.00  32.43 2600.96
   17:25:48.949.17-May-2020 5032.01 5588.47 70.78 3.00  32.63 2600.96
   17:25:49.149.17-May-2020 5032.01 5578.88 70.78 3.00  32.83 2600.96
   17:25:49.349.17-May-2020 5032.01 5575.97 70.78 3.00  33.03 2600.96
   17:25:49.550.17-May-2020 5032.01 5576.10 70.78 3.00  33.23 2600.96
   17:25:49.750.17-May-2020 5032.01 5589.84 70.78 3.00  33.43 2600.96
   17:25:49.950.17-May-2020 5032.01 5582.73 70.78 3.00  33.63 2600.96
   17:25:50.150.17-May-2020 5032.01 5582.51 70.78 3.00  33.83 2600.96
   17:25:50.350.17-May-2020 5032.01 5574.09 70.78 3.00  34.03 2600.96
   17:25:50.550.17-May-2020 5032.01 5574.09 70.78 3.00  34.23 2600.96
   17:25:50.751.17-May-2020 5032.01 5592.09 70.78 3.00  34.43 2600.96
   17:25:50.951.17-May-2020 5032.01 5589.07 70.78 3.00  34.63 2600.96
   17:25:51.151.17-May-2020 5032.01 5576.11 70.78 3.00  34.83 2600.96
   17:25:51.351.17-May-2020 5032.01 5583.97 70.78 3.00  35.03 2600.96
   17:25:51.551.17-May-2020 5032.01 5586.41 70.78 3.00  35.23 2600.96
   17:25:51.752.17-May-2020 5032.01 5589.02 70.78 3.00  35.43 2600.96
   17:25:51.952.17-May-2020 5032.01 5578.39 70.78 3.00  35.63 2600.96
   17:25:52.152.17-May-2020 5032.01 5577.29 70.78 3.00  35.83 2600.96
   17:25:52.352.17-May-2020 5032.01 5581.11 70.78 3.00  36.03 2600.96
   17:25:52.552.17-May-2020 5032.01 5580.42 70.78 3.00  36.23 2600.96
   17:25:52.753.17-May-2020 5032.01 5579.19 70.78 3.00  36.43 2600.96
   17:25:52.953.17-May-2020 5032.01 5576.68 70.78 3.00  36.63 2600.96
   17:25:53.153.17-May-2020 5032.01 5576.23 70.78 3.00  36.83 2600.96
   17:25:53.353.17-May-2020 5032.01 5577.97 70.78 3.00  37.03 2600.96
   17:25:53.553.17-May-2020 5032.01 5577.97 70.78 3.00  37.23 2600.96
   17:25:53.753.17-May-2020 5032.01 5590.66 70.78 3.00  37.44 2600.96
   17:25:53.954.17-May-2020 5032.01 5580.45 70.77 3.00  37.64 2600.96
   17:25:54.154.17-May-2020 5032.01 5577.07 70.77 3.00  37.84 2600.96
   17:25:54.354.17-May-2020 5032.01 5624.75 70.77 3.00  38.04 2600.96
   17:25:54.554.17-May-2020 5032.01 5624.75 70.77 3.00  38.24 2600.96
   17:25:54.754.17-May-2020 5032.01 5717.22 70.77 3.00  38.44 2600.96
   17:25:54.955.17-May-2020 5032.01 5712.96 70.77 3.00  38.64 2600.96
   17:25:55.155.17-May-2020 5032.01 5699.72 70.77 3.00  38.84 2600.96
   17:25:55.355.17-May-2020 5032.01 5690.20 70.77 3.00  39.04 2600.96
   17:25:55.555.17-May-2020 5032.01 5690.20 70.77 3.00  39.24 2600.96
   17:25:55.755.17-May-2020 5032.01 5674.75 70.77 3.00  39.44 2600.96
   17:25:55.956.17-May-2020 5032.01 5671.56 70.77 3.00  39.64 2600.96
   17:25:56.156.17-May-2020 5032.01 5670.85 70.77 3.00  39.84 2600.96
   17:25:56.356.17-May-2020 5032.01 5667.86 70.77 3.00  40.04 2600.96
   17:25:56.556.17-May-2020 5032.01 5662.33 70.77 3.00  40.24 2600.96
   17:25:56.756.17-May-2020 5032.01 5663.04 70.77 3.00  40.44 2600.96
   17:25:56.956.17-May-2020 5032.01 5667.11 70.77 3.00  40.64 2600.96
   17:25:57.157.17-May-2020 5032.01 5664.83 70.77 3.00  40.84 2600.96
   17:25:57.357.17-May-2020 5032.01 5658.50 70.77 3.00  41.04 2600.96
   17:25:57.557.17-May-2020 5032.01 5658.50 70.77 3.00  41.24 2600.96
   17:25:57.757.17-May-2020 5032.01 5659.32 70.77 3.00  41.44 2600.96
   17:25:57.957.17-May-2020 5032.01 5620.64 70.77 3.00  41.64 2600.96
   17:25:58.158.17-May-2020 5032.01 5606.55 70.77 3.00  41.84 2600.96
   17:25:58.358.17-May-2020 5032.01 5601.86 70.77 3.00  42.04 2600.96
   17:25:58.558.17-May-2020 5032.01 5601.86 70.77 3.00  42.24 2600.96
   17:25:58.758.17-May-2020 5032.01 5604.82 70.77 3.00  42.44 2600.96
   17:25:58.958.17-May-2020 5032.01 5602.39 70.77 3.00  42.64 2600.96
   17:25:59.159.17-May-2020 5032.01 5602.00 70.77 3.00  42.84 2600.96
   17:25:59.359.17-May-2020 5032.01 5599.64 70.77 3.00  43.04 2600.96
   17:25:59.559.17-May-2020 5032.01 5599.64 70.77 3.00  43.24 2600.96
   17:25:59.759.17-May-2020 5032.01 5597.22 70.77 3.00  43.44 2600.96
   17:25:59.959.17-May-2020 5032.01 5603.40 70.77 3.00  43.64 2600.96
   17:26:00.159.17-May-2020 5032.01 5601.02 70.77 3.00  43.84 2600.96
   17:26:00.360.17-May-2020 5032.01 5598.77 70.77 3.00  44.04 2600.96
   17:26:00.560.17-May-2020 5032.01 5598.77 70.77 3.00  44.24 2600.96
   17:26:00.760.17-May-2020 5032.01 5596.69 70.77 3.00  44.44 2600.96
   17:26:00.960.17-May-2020 5032.01 5599.10 70.77 3.00  44.64 2600.96
   17:26:01.160.17-May-2020 5032.01 5598.98 70.77 3.00  44.84 2600.96
   17:26:01.361.17-May-2020 5032.01 5598.26 70.77 3.00  45.04 2600.96
   17:26:01.561.17-May-2020 5032.01 5598.26 70.77 3.00  45.24 2600.96
   17:26:01.761.17-May-2020 5032.01 5597.59 70.77 3.00  45.44 2600.96
   17:26:01.961.17-May-2020 5032.01 5599.37 70.77 3.00  45.64 2600.96
   17:26:02.161.17-May-2020 5032.01 5596.64 70.77 3.00  45.84 2600.96
