~Version Information
 VERS.                  2.0:   CWLS log ASCII Standard -VERSION 2.0
 WRAP.                   NO:   One line per depth step
~Well Information Block
#MNEM.UNIT     VALUE/NAME     DESCRIPTION
#---------     -----------    ---------------------------
 STRT.S             22:49:31 17-May-20: START TIME 22:49:31 17-May-20
 STOP.S             22:56:24 17-May-20: STOP TIME  22:56:24 17-May-20
 STEP.S                   0.00: STEP TIME
 NULL.                 -999.25: NULL VALUE
 UNIT.                     N/A:  LOGGING EQUIPMENT ID
 DCON.         Sperry Drilling:  DIRECTNL CONTR
 DOE .                     N/A:  DOE NUMBER
 JOBN.        AZ-XX-0906252240:  JOB TICKET NUMB
 MWDS.                     N/A:  MWD SHOP
 PROV.                    Baku:  PROVINCE
 STAT.                    Baku:  STATE NAME
 REGN.                   EESSA:  REGION
 BASE.              Azerbaijan:  LOGGING EQUIPMENT BASE LOCATION
 UWI .                     N/A:  UNIQUE WELL IDENTIFIER
 API .                     N/A:  API NUMBER
 MDS .        Operator Entered:  MAG DATA SOURCE
 WTYP.                Deviated:  WELL TYPE
 COMP.     BP Exploration (Caspian Sea) Ltd.:  COMPANY
 SRVC.          Turan Drilling:  CONTRACTOR
 WELL.           J23 (Slot 07):  WELL NAME
 CTRY.              Azerbaijan:  COUNTRY NAME
 FLD .                     ACG:  FIELD NAME
 PDAT.          Mean Sea Level:  PERMANENT DATUM
 RIG .             West Chirag:  RIG NAME
 SON .        AZ-XX-0906252240:  JOB NUMBER
 FTOP.          Formation Tops:  FORM TOPS DESC
 ILTD.               Lithology:  INTERP LTH DESC
 SVYD.                  Survey:  SURVEY DESC
 DMOD.             Drill Model:  DRILL MOD DESC
 HPTY.       Minimum Curvature:  HOLE POS TYPE
 NREF.                    Grid:  NORTH REFERENCE
 SPUD.               27-Aug-20:  SPUD DATE
 DATE.      00.00.00 19-May-20:  END TIME
 STIM.      03.00.00 25-Mar-20:  START TIME
 DMF .             Drill Floor:  DRILL MEAS FROM
 DFST.                        :  DIST FSL TEXT
 DFWT.                        :  DIST FWL TEXT
 CNTY.                        :  COUNTY
 LOC .                        :  LOCATION
 LMF .             Drill Floor:  LOG MEASURED FROM
 VSNS.m                   9.43:  VERT SEC N/S
 VSEW.m                  -8.91:  VERT SEC E/W
 AGAP.m                  43.00:  AIR GAP
 DEP .m                 354.17:  DEPTH
 APD .m                  43.00:  DEPTH ABOVE PD
 WDMS.m                 169.80:  WD ELEV
 EGL .m                   0.00:  GROUND ELEVATION
 EPD .m                   0.00:  ELEVATION
 AZTC.deg                 6.31:  AZM TOTAL CORR
 GRDC.deg                 0.14:  GRID CORRECTION
 MDEC.deg                 6.45:  MAGNETIC DECL
 MDIP.deg                59.56:  MAGNETIC DIP
 MFLD.nT              50295.00:  MAGNETIC FIELD
 GVFD.g                   1.00:  GRAVITY FIELD
 VSDR.deg               179.88:  VERT SEC DIRECT
 TDD .m                5150.01:  TOTAL DEPTH (DRILLER)
 SDEP.m                 864.00:  START DEPTH
 DFSL.m                   0.00:  DISTANCE FSL
 DFWL.m                   0.00:  DISTANCE FWL
 UTMY.m             4443793.85:  UTM Y
 UTMX.m              519005.06:  UTM X
 WHEW.m                  -8.91:  WELL HEAD E/W
 WHNS.m                   9.43:  WELL HEAD N/S
 LONG.deg                51.22:  LONGITUDE
 LATI.deg                40.13:  LATITUDE
 TVDS.m                  43.00:  TVDSS CORRECTN
 EKB .m                   0.00:  KB ELEVATION
 EDF .m                  43.00:  DF ELEVATION
 TDL .m                 363.00:  TOTAL DEPTH (LOGGER)
 MAGU.                 1850802:  MAGUTM CHECKSUM
 VSC .                       0:  VS TO CLOSURE
~Parameter Information Block
#MNEM.UNIT       Value        Description
#---------     -----------    ---------------------------
 AV  .mps                 2.30:  Ann Velocity 
 AVMX.mps                 4.40:  Max Ann Veloc 
 AZIF.deg               110.24:  Azm, Final 
 BHAT.        Rotary Steerable:  BHA Type 
 BREV.rev               331.00:  Rev Bit Total 
 BROT.°/30m               0.00:  Build Rotating 
 BS  .in                  8.50:  Bit Size 
 BSZ .in                  8.50:  Bit Size 
 BTPL.psig              585.00:  Bit Press Loss 
 CABU.                     Yes:  Customer Abuse 
 COMM.                     ¼´€:  Run Comments 1 
 TCS .hr                122.75:  Time Ciculation Ended 
 CV  .mps                 2.67:  Crit Velocity 
 CVMX.mps                 3.56:  Max Crit Veloc 
 DD1 .          Rashad Habibov:  Direct Drillr 1 
 DD2 .         Rasim Ibrahimov:  Direct Drillr 2 
 DDSV.               Geo-Pilot:  DD Service 
 DEFF.%                  98.00:  % Det Eff 
 DLRX.°/30m               0.75:  Dogleg Rot Max 
 DLSO.°/30m               1.25:  Dogleg Oriented 
 DLSX.°/30m               2.06:  Dogleg Str Max 
 DRET.      07.45.00 17-May-20:  Drill End Time 
 DRST.      22.50.00 15-May-20:  Drill Start Tim 
 DTIM.hr                 20.75:  Time Drilling 
 EDEP.m                5124.01:  End Depth 
 ENG1.           Eldar Hajiyev:  Engineer 1 
 ENG2.        Marcelo Sandoval:  Engineer 2 
 ENG3.        Davud huseynzada:  Engineer 3 
 ENG4.          Ruslan Safarov:  Engineer 4 
 ETIM.      04.33.00 23-May-20:  End Time 
 FLOI.gpm               450.00:  Flow In 
 FLON.gpm               400.00:  Flow In Min 
 FLOS.cptm                0.00:  Fluid Loss 
 FLOX.gpm               500.00:  Flow In Max 
 FTRO.       Formation Presure:  FTWD Run Obj 
 HFLO.                      No:  High Flow 
 HPRE.                     Yes:  High Pressure 
 HTEM.                      No:  High Temp 
 HYDO.m                   1.80:  Hydro Offset 
 IFIN.deg                75.06:  Inc, Final 
 IMAX.deg                75.38:  Inc Max 
 IMIN.deg                74.69:  Inc Min 
 IMND.m                5027.38:  Inc Min Depth 
 IMXD.m                4771.61:  Inc Max Depth 
 JARR.                      No:  Jarring 
 LETM.      07.45.00 17-May-20:  Log End Time 
 LOST.hr                     0:  Lost Rig Time 
 LSTM.      22.50.00 15-May-20:  Log Start Time 
 MDCL.ppm             42000.00:  Mud Chlorides 
 MDES.     Inversion Oil/Synthetic:  Mud Desc 
 DFD .sg                  1.34:  Mud Density 
 MDMN.sg                  1.34:  Dens Mud Min 
 MDMX.sg                  1.34:  Dens Mud Max 
 MOIL.                       0:  Run Mud Oil % 
 MOWR.                   67:33:  Run Mud OWR 
 MSND.                       0:  Run Mud Sand % 
 MSOL.                     1.8:  Run Mud Solids% 
 DFV .spqt               76.00:  Mud Viscosity 
 MWOD.in                  6.75:  MWD Tool OD 
 MWSI.                      No:  Serv Intrp, MWD 
 OTIM.hr                228.19:  Time Operating 
 PCON.           Look Like New:  Pad Condition 
 PMAX.psia             6164.70:  Press Op, Max 
 PV  .cP                 28.00:  Mud PV 
 RUN .                     900:  Run Number 
 ROPA.m/hr               19.00:  ROP Avg 
 ROPN.m/hr               11.00:  ROP Min 
 ROPX.m/hr               36.00:  ROP Max 
 RPMA.rpm               120.00:  RPM Surface Avg 
 RPMN.rpm               120.00:  RPM Surface Min 
 RPMX.rpm               120.00:  RPM Surface Max 
 RRUN.                    L604:  Rig Run Number 
 RTIM.hr                  7.00:  Time Reaming 
 SAZI.deg               109.27:  Azm, Start 
 SDEP.m                4761.01:  Start Depth 
 SIDD.                      No:  Serv Intrp, DD 
 SINC.deg                75.38:  Inc, Start 
 SPPA.psig             3574.00:  SPP Avg 
 SPPN.psig             3475.00:  SPP Min 
 SPPX.psig             3791.00:  SPP Max 
 STIM.      07.08.48 13-May-20:  Start Time 
 SVCS.                 DD, MWD:  Services 
 SVER.                    9.20:  Sperry Version 
 TDAT.m                 363.00:  Tot Depth Attmp 
 TDDF.                      No:  Trip for DD 
 TDLG.m                 363.00:  Tot Depth Loggd 
 TFF .                      No:  Trip for Fail 
 TQAA.f-kp               20.00:  Torque Abs Avg 
 TQAN.f-kp               18.00:  Torque Abs Min 
 TQAX.f-kp               22.00:  Torque Abs Max 
 TRRT.°/30m              -0.35:  Turn Rotating 
 MRT .                    HCIM:  Maximum Recorded Temperature 
 TTMX.degC               92.16:  Max Tool Temp 
 VS01.                90586518:  Virtual Str1 SN 
 VS02.        AZ90560654Z1W1C6:  Virtual Str2 SN 
 VS03.           AZ90610398F11:  Virtual Str3 SN 
 VS04.                90514975:  Virtual Str4 SN 
 VS05.                90514972:  Virtual Str5 SN 
 VS06.     AZ90603282F11V7D1A6:  Virtual Str6 SN 
 WBMN.klb                 7.00:  WOB Min 
 WOBA.klb                12.00:  WOB Avg 
 WOBX.klb                14.00:  WOB Max 
 YP  .lhf2               32.00:  Yield Point 
~Curve Information Block
#MNEM.UNIT                 API CODE     Curve Description
#---------               -----------    ---------------------------
 TIME.HHMMSS            00 000 000 000:  GT Time & Date
 GTDEPTH.m              00 000 000 000:  GT Depth
 GTPQH.psia             00 000 000 000:  GT HR Quartz Pressure
 GTTQ.degC              00 000 000 000:  GT Quartz Temperature
 GTTN.NONE              00 000 000 000:  GT Test Number
 GTET.sec               00 000 000 000:  GT Elapsed Test Time
 GTTVD.m                00 000 000 000:  GT True Vertical Depth
#Other Information
#
#WARRANTY: Halliburton will use its best efforts to furnish customers with 
#accurate information and interpretations that are part of, and incident to, the services 
#provided.  However, Halliburton cannot and does not warrant the accuracy 
#or correctness of such information and interpretations.  Under no circumstances should any 
#such information or interpretation be relied upon as the sole basis for any drilling, 
#completion, production, or financial decision or any procedure involving any risk to the 
#safety of any drilling venture, drilling rig or its crew or any other third party.  The 
#Customer has full responsibility for all drilling, completion and production operation.  
#Halliburton makes no representations or warranties, either expressed or 
#implied, including, but not limited to, the implied warranties of merchantability or fitness 
#for a particular purpose, with respect to the services rendered.  In no event will 
#Halliburton be liable for failure to obtain any particular results or for 
#any damages, including, but not limited to, indirect, special or consequential damages, 
#resulting from the use of any information or interpretation provided by Halliburton.
#
~A           TIME           GTDEPTH  GTPQH  GTTQ  GTTN  GTET   GTTVD  
# ...
   22:53:21.409.17-May-2020 4908.51  130.08 67.18 8.00 229.88 2569.17
   22:53:21.609.17-May-2020 4908.51  130.08 67.18 8.00 230.08 2569.17
   22:53:21.808.17-May-2020 4908.51  131.13 67.18 8.00 230.28 2569.17
   22:53:22.008.17-May-2020 4908.51  131.66 67.18 8.00 230.48 2569.17
   22:53:22.208.17-May-2020 4908.51  132.16 67.18 8.00 230.68 2569.17
   22:53:22.408.17-May-2020 4908.51  132.68 67.18 8.00 230.88 2569.17
   22:53:22.608.17-May-2020 4908.51  132.68 67.18 8.00 231.08 2569.17
   22:53:22.808.17-May-2020 4908.51  133.89 67.18 8.00 231.28 2569.17
   22:53:23.008.17-May-2020 4908.51  134.49 67.17 8.00 231.48 2569.17
   22:53:23.208.17-May-2020 4908.51  135.07 67.17 8.00 231.68 2569.17
   22:53:23.408.17-May-2020 4908.51  135.64 67.18 8.00 231.88 2569.17
   22:53:23.608.17-May-2020 4908.51  136.20 67.18 8.00 232.08 2569.17
   22:53:23.807.17-May-2020 4908.51  136.77 67.17 8.00 232.28 2569.17
   22:53:24.007.17-May-2020 4908.51  137.33 67.18 8.00 232.48 2569.17
   22:53:24.207.17-May-2020 4908.51  137.89 67.17 8.00 232.68 2569.17
   22:53:24.407.17-May-2020 4908.51  138.44 67.17 8.00 232.88 2569.17
   22:53:24.607.17-May-2020 4908.51  138.99 67.17 8.00 233.08 2569.17
   22:53:24.807.17-May-2020 4908.51  139.55 67.17 8.00 233.28 2569.17
   22:53:25.007.17-May-2020 4908.51  140.12 67.17 8.00 233.48 2569.17
   22:53:25.207.17-May-2020 4908.51  140.68 67.17 8.00 233.68 2569.17
   22:53:25.407.17-May-2020 4908.51  141.28 67.17 8.00 233.88 2569.17
   22:53:25.606.17-May-2020 4908.51  141.28 67.17 8.00 234.08 2569.17
   22:53:25.806.17-May-2020 4908.51  142.42 67.17 8.00 234.28 2569.17
   22:53:26.006.17-May-2020 4908.51  143.00 67.17 8.00 234.48 2569.17
   22:53:26.206.17-May-2020 4908.51  143.59 67.17 8.00 234.68 2569.17
   22:53:26.406.17-May-2020 4908.51  144.17 67.17 8.00 234.88 2569.17
   22:53:26.606.17-May-2020 4908.51  144.17 67.17 8.00 235.08 2569.17
   22:53:26.806.17-May-2020 4908.51  145.36 67.17 8.00 235.28 2569.17
   22:53:27.006.17-May-2020 4908.51  145.97 67.17 8.00 235.48 2569.17
   22:53:27.206.17-May-2020 4908.51  146.57 67.17 8.00 235.68 2569.17
   22:53:27.406.17-May-2020 4908.51  147.22 67.17 8.00 235.88 2569.17
   22:53:27.605.17-May-2020 4908.51  147.82 67.17 8.00 236.08 2569.17
   22:53:27.805.17-May-2020 4908.51  148.45 67.17 8.00 236.28 2569.17
   22:53:28.005.17-May-2020 4908.51  149.06 67.17 8.00 236.48 2569.17
   22:53:28.205.17-May-2020 4908.51  149.73 67.17 8.00 236.68 2569.17
   22:53:28.405.17-May-2020 4908.51  150.35 67.17 8.00 236.88 2569.17
   22:53:28.605.17-May-2020 4908.51  151.00 67.17 8.00 237.08 2569.17
   22:53:28.805.17-May-2020 4908.51  151.65 67.17 8.00 237.28 2569.17
   22:53:29.005.17-May-2020 4908.51  152.30 67.17 8.00 237.48 2569.17
   22:53:29.205.17-May-2020 4908.51  152.97 67.17 8.00 237.68 2569.17
   22:53:29.405.17-May-2020 4908.51  153.63 67.17 8.00 237.88 2569.17
   22:53:29.604.17-May-2020 4908.51  153.63 67.17 8.00 238.08 2569.17
   22:53:29.804.17-May-2020 4908.51  154.99 67.17 8.00 238.28 2569.17
   22:53:30.004.17-May-2020 4908.51  155.66 67.17 8.00 238.48 2569.17
   22:53:30.204.17-May-2020 4908.51  156.35 67.17 8.00 238.68 2569.17
   22:53:30.404.17-May-2020 4908.51  157.04 67.17 8.00 238.88 2569.17
   22:53:30.604.17-May-2020 4908.51  157.04 67.17 8.00 239.08 2569.17
   22:53:30.804.17-May-2020 4908.51  158.45 67.17 8.00 239.28 2569.17
   22:53:31.004.17-May-2020 4908.51  159.17 67.17 8.00 239.48 2569.17
   22:53:31.204.17-May-2020 4908.51  159.89 67.17 8.00 239.68 2569.17
   22:53:31.404.17-May-2020 4908.51  160.60 67.17 8.00 239.88 2569.17
   22:53:31.603.17-May-2020 4908.51  161.34 67.17 8.00 240.08 2569.17
   22:53:31.803.17-May-2020 4908.51  162.08 67.17 8.00 240.28 2569.17
   22:53:32.003.17-May-2020 4908.51  162.83 67.17 8.00 240.48 2569.17
   22:53:32.203.17-May-2020 4908.51  163.59 67.17 8.00 240.68 2569.17
   22:53:32.403.17-May-2020 4908.51  164.34 67.17 8.00 240.88 2569.17
   22:53:32.603.17-May-2020 4908.51  165.11 67.17 8.00 241.08 2569.17
   22:53:32.803.17-May-2020 4908.51  165.89 67.17 8.00 241.28 2569.17
   22:53:33.003.17-May-2020 4908.51  166.68 67.17 8.00 241.48 2569.17
   22:53:33.203.17-May-2020 4908.51  167.46 67.17 8.00 241.68 2569.17
   22:53:33.402.17-May-2020 4908.51  168.26 67.17 8.00 241.88 2569.17
   22:53:33.602.17-May-2020 4908.51  168.26 67.17 8.00 242.08 2569.17
   22:53:33.802.17-May-2020 4908.51  169.87 67.17 8.00 242.28 2569.17
   22:53:34.002.17-May-2020 4908.51  170.69 67.17 8.00 242.48 2569.17
   22:53:34.202.17-May-2020 4908.51  171.51 67.17 8.00 242.68 2569.17
   22:53:34.402.17-May-2020 4908.51  172.38 67.17 8.00 242.88 2569.17
   22:53:34.602.17-May-2020 4908.51  172.38 67.17 8.00 243.08 2569.17
   22:53:34.802.17-May-2020 4908.51  174.06 67.17 8.00 243.28 2569.17
   22:53:35.002.17-May-2020 4908.51  174.92 67.17 8.00 243.48 2569.17
   22:53:35.202.17-May-2020 4908.51  175.84 67.17 8.00 243.67 2569.17
   22:53:35.401.17-May-2020 4908.51  176.71 67.17 8.00 243.87 2569.17
   22:53:35.601.17-May-2020 4908.51  177.61 67.17 8.00 244.07 2569.17
   22:53:35.801.17-May-2020 4908.51  178.48 67.17 8.00 244.27 2569.17
   22:53:36.001.17-May-2020 4908.51  179.44 67.17 8.00 244.47 2569.17
   22:53:36.201.17-May-2020 4908.51  180.38 67.17 8.00 244.67 2569.17
   22:53:36.401.17-May-2020 4908.51  181.30 67.17 8.00 244.87 2569.17
   22:53:36.601.17-May-2020 4908.51  182.31 67.17 8.00 245.07 2569.17
   22:53:36.801.17-May-2020 4908.51  183.22 67.17 8.00 245.27 2569.17
   22:53:37.001.17-May-2020 4908.51  184.13 67.17 8.00 245.47 2569.17
   22:53:37.201.17-May-2020 4908.51  185.08 67.17 8.00 245.67 2569.17
   22:53:37.400.17-May-2020 4908.51  186.01 67.17 8.00 245.87 2569.17
   22:53:37.600.17-May-2020 4908.51  186.01 67.17 8.00 246.07 2569.17
   22:53:37.800.17-May-2020 4908.51  187.91 67.17 8.00 246.27 2569.17
   22:53:38.000.17-May-2020 4908.51  188.91 67.17 8.00 246.47 2569.17
   22:53:38.200.17-May-2020 4908.51  189.96 67.17 8.00 246.67 2569.17
   22:53:38.400.17-May-2020 4908.51  190.99 67.17 8.00 246.87 2569.17
   22:53:38.600.17-May-2020 4908.51  190.99 67.17 8.00 247.07 2569.17
   22:53:38.800.17-May-2020 4908.51  193.17 67.17 8.00 247.27 2569.17
   22:53:39.000.17-May-2020 4908.51  194.23 67.17 8.00 247.47 2569.17
   22:53:39.200.17-May-2020 4908.51  195.23 67.17 8.00 247.67 2569.17
   22:53:39.399.17-May-2020 4908.51  196.23 67.17 8.00 247.87 2569.17
   22:53:39.599.17-May-2020 4908.51  197.36 67.17 8.00 248.07 2569.17
   22:53:39.799.17-May-2020 4908.51  198.50 67.17 8.00 248.27 2569.17
   22:53:39.999.17-May-2020 4908.51  199.66 67.17 8.00 248.47 2569.17
   22:53:40.199.17-May-2020 4908.51  200.83 67.17 8.00 248.67 2569.17
   22:53:40.399.17-May-2020 4908.51  201.99 67.17 8.00 248.87 2569.17
   22:53:40.599.17-May-2020 4908.51  203.17 67.17 8.00 249.07 2569.17
   22:53:40.799.17-May-2020 4908.51  204.35 67.17 8.00 249.27 2569.17
   22:53:40.999.17-May-2020 4908.51  205.57 67.17 8.00 249.47 2569.17
   22:53:41.198.17-May-2020 4908.51  206.82 67.17 8.00 249.67 2569.17
   22:53:41.398.17-May-2020 4908.51  208.02 67.17 8.00 249.87 2569.17
   22:53:41.598.17-May-2020 4908.51  208.02 67.17 8.00 250.07 2569.17
   22:53:41.798.17-May-2020 4908.51  210.59 67.17 8.00 250.27 2569.17
   22:53:41.998.17-May-2020 4908.51  211.88 67.17 8.00 250.47 2569.17
   22:53:42.198.17-May-2020 4908.51  213.18 67.17 8.00 250.67 2569.17
   22:53:42.398.17-May-2020 4908.51  214.48 67.17 8.00 250.87 2569.17
   22:53:42.598.17-May-2020 4908.51  214.48 67.17 8.00 251.07 2569.17
   22:53:42.798.17-May-2020 4908.51  217.18 67.17 8.00 251.27 2569.17
   22:53:42.998.17-May-2020 4908.51  218.54 67.17 8.00 251.47 2569.17
   22:53:43.197.17-May-2020 4908.51  219.91 67.17 8.00 251.67 2569.17
   22:53:43.397.17-May-2020 4908.51  221.34 67.17 8.00 251.87 2569.17
   22:53:43.597.17-May-2020 4908.51  222.75 67.17 8.00 252.07 2569.17
   22:53:43.797.17-May-2020 4908.51  224.20 67.17 8.00 252.27 2569.17
   22:53:43.997.17-May-2020 4908.51  225.89 67.17 8.00 252.47 2569.17
   22:53:44.197.17-May-2020 4908.51  227.34 67.17 8.00 252.67 2569.17
