~Version Information
 VERS.                  2.0:   CWLS log ASCII Standard -VERSION 2.0
 WRAP.                   NO:   One line per depth step
~Well Information Block
#MNEM.UNIT     VALUE/NAME     DESCRIPTION
#---------     -----------    ---------------------------
 STRT.S             03:21:16 18-May-20: START TIME 03:21:16 18-May-20
 STOP.S             03:28:29 18-May-20: STOP TIME  03:28:29 18-May-20
 STEP.S                   0.00: STEP TIME
 NULL.                 -999.25: NULL VALUE
 UNIT.                     N/A:  LOGGING EQUIPMENT ID
 DCON.         Sperry Drilling:  DIRECTNL CONTR
 DOE .                     N/A:  DOE NUMBER
 JOBN.        AZ-XX-0906252240:  JOB TICKET NUMB
 MWDS.                     N/A:  MWD SHOP
 PROV.                    Baku:  PROVINCE
 STAT.                    Baku:  STATE NAME
 REGN.                   EESSA:  REGION
 BASE.              Azerbaijan:  LOGGING EQUIPMENT BASE LOCATION
 UWI .                     N/A:  UNIQUE WELL IDENTIFIER
 API .                     N/A:  API NUMBER
 MDS .        Operator Entered:  MAG DATA SOURCE
 WTYP.                Deviated:  WELL TYPE
 COMP.     BP Exploration (Caspian Sea) Ltd.:  COMPANY
 SRVC.          Turan Drilling:  CONTRACTOR
 WELL.           J23 (Slot 07):  WELL NAME
 CTRY.              Azerbaijan:  COUNTRY NAME
 FLD .                     ACG:  FIELD NAME
 PDAT.          Mean Sea Level:  PERMANENT DATUM
 RIG .             West Chirag:  RIG NAME
 SON .        AZ-XX-0906252240:  JOB NUMBER
 FTOP.          Formation Tops:  FORM TOPS DESC
 ILTD.               Lithology:  INTERP LTH DESC
 SVYD.                  Survey:  SURVEY DESC
 DMOD.             Drill Model:  DRILL MOD DESC
 HPTY.       Minimum Curvature:  HOLE POS TYPE
 NREF.                    Grid:  NORTH REFERENCE
 SPUD.               27-Aug-20:  SPUD DATE
 DATE.      00.00.00 19-May-20:  END TIME
 STIM.      03.00.00 25-Mar-20:  START TIME
 DMF .             Drill Floor:  DRILL MEAS FROM
 DFST.                        :  DIST FSL TEXT
 DFWT.                        :  DIST FWL TEXT
 CNTY.                        :  COUNTY
 LOC .                        :  LOCATION
 LMF .             Drill Floor:  LOG MEASURED FROM
 VSNS.m                   9.43:  VERT SEC N/S
 VSEW.m                  -8.91:  VERT SEC E/W
 AGAP.m                  43.00:  AIR GAP
 DEP .m                 354.17:  DEPTH
 APD .m                  43.00:  DEPTH ABOVE PD
 WDMS.m                 169.80:  WD ELEV
 EGL .m                   0.00:  GROUND ELEVATION
 EPD .m                   0.00:  ELEVATION
 AZTC.deg                 6.31:  AZM TOTAL CORR
 GRDC.deg                 0.14:  GRID CORRECTION
 MDEC.deg                 6.45:  MAGNETIC DECL
 MDIP.deg                59.56:  MAGNETIC DIP
 MFLD.nT              50295.00:  MAGNETIC FIELD
 GVFD.g                   1.00:  GRAVITY FIELD
 VSDR.deg               179.88:  VERT SEC DIRECT
 TDD .m                5150.01:  TOTAL DEPTH (DRILLER)
 SDEP.m                 864.00:  START DEPTH
 DFSL.m                   0.00:  DISTANCE FSL
 DFWL.m                   0.00:  DISTANCE FWL
 UTMY.m             4443793.85:  UTM Y
 UTMX.m              519005.06:  UTM X
 WHEW.m                  -8.91:  WELL HEAD E/W
 WHNS.m                   9.43:  WELL HEAD N/S
 LONG.deg                51.22:  LONGITUDE
 LATI.deg                40.13:  LATITUDE
 TVDS.m                  43.00:  TVDSS CORRECTN
 EKB .m                   0.00:  KB ELEVATION
 EDF .m                  43.00:  DF ELEVATION
 TDL .m                 363.00:  TOTAL DEPTH (LOGGER)
 MAGU.                 1850802:  MAGUTM CHECKSUM
 VSC .                       0:  VS TO CLOSURE
~Parameter Information Block
#MNEM.UNIT       Value        Description
#---------     -----------    ---------------------------
 AV  .mps                 2.30:  Ann Velocity 
 AVMX.mps                 4.40:  Max Ann Veloc 
 AZIF.deg               110.24:  Azm, Final 
 BHAT.        Rotary Steerable:  BHA Type 
 BREV.rev               331.00:  Rev Bit Total 
 BROT.°/30m               0.00:  Build Rotating 
 BS  .in                  8.50:  Bit Size 
 BSZ .in                  8.50:  Bit Size 
 BTPL.psig              585.00:  Bit Press Loss 
 CABU.                     Yes:  Customer Abuse 
 TCS .hr                122.75:  Time Ciculation Ended 
 CV  .mps                 2.67:  Crit Velocity 
 CVMX.mps                 3.56:  Max Crit Veloc 
 DD1 .          Rashad Habibov:  Direct Drillr 1 
 DD2 .         Rasim Ibrahimov:  Direct Drillr 2 
 DDSV.               Geo-Pilot:  DD Service 
 DEFF.%                  98.00:  % Det Eff 
 DLRX.°/30m               0.75:  Dogleg Rot Max 
 DLSO.°/30m               1.25:  Dogleg Oriented 
 DLSX.°/30m               2.06:  Dogleg Str Max 
 DRET.      07.45.00 17-May-20:  Drill End Time 
 DRST.      22.50.00 15-May-20:  Drill Start Tim 
 DTIM.hr                 20.75:  Time Drilling 
 EDEP.m                5124.01:  End Depth 
 ENG1.           Eldar Hajiyev:  Engineer 1 
 ENG2.        Marcelo Sandoval:  Engineer 2 
 ENG3.        Davud huseynzada:  Engineer 3 
 ENG4.          Ruslan Safarov:  Engineer 4 
 ETIM.      04.33.00 23-May-20:  End Time 
 FLOI.gpm               450.00:  Flow In 
 FLON.gpm               400.00:  Flow In Min 
 FLOS.cptm                0.00:  Fluid Loss 
 FLOX.gpm               500.00:  Flow In Max 
 FTRO.       Formation Presure:  FTWD Run Obj 
 HFLO.                      No:  High Flow 
 HPRE.                     Yes:  High Pressure 
 HTEM.                      No:  High Temp 
 HYDO.m                   1.80:  Hydro Offset 
 IFIN.deg                75.06:  Inc, Final 
 IMAX.deg                75.38:  Inc Max 
 IMIN.deg                74.69:  Inc Min 
 IMND.m                5027.38:  Inc Min Depth 
 IMXD.m                4771.61:  Inc Max Depth 
 JARR.                      No:  Jarring 
 LETM.      07.45.00 17-May-20:  Log End Time 
 LOST.hr                     0:  Lost Rig Time 
 LSTM.      22.50.00 15-May-20:  Log Start Time 
 MDCL.ppm             42000.00:  Mud Chlorides 
 MDES.     Inversion Oil/Synthetic:  Mud Desc 
 DFD .sg                  1.34:  Mud Density 
 MDMN.sg                  1.34:  Dens Mud Min 
 MDMX.sg                  1.34:  Dens Mud Max 
 MOIL.                       0:  Run Mud Oil % 
 MOWR.                   67:33:  Run Mud OWR 
 MSND.                       0:  Run Mud Sand % 
 MSOL.                     1.8:  Run Mud Solids% 
 DFV .spqt               76.00:  Mud Viscosity 
 MWOD.in                  6.75:  MWD Tool OD 
 MWSI.                      No:  Serv Intrp, MWD 
 OTIM.hr                228.19:  Time Operating 
 PCON.           Look Like New:  Pad Condition 
 PMAX.psia             6164.70:  Press Op, Max 
 PV  .cP                 28.00:  Mud PV 
 RUN .                     900:  Run Number 
 ROPA.m/hr               19.00:  ROP Avg 
 ROPN.m/hr               11.00:  ROP Min 
 ROPX.m/hr               36.00:  ROP Max 
 RPMA.rpm               120.00:  RPM Surface Avg 
 RPMN.rpm               120.00:  RPM Surface Min 
 RPMX.rpm               120.00:  RPM Surface Max 
 RRUN.                    L604:  Rig Run Number 
 RTIM.hr                  7.00:  Time Reaming 
 SAZI.deg               109.27:  Azm, Start 
 SDEP.m                4761.01:  Start Depth 
 SIDD.                      No:  Serv Intrp, DD 
 SINC.deg                75.38:  Inc, Start 
 SPPA.psig             3574.00:  SPP Avg 
 SPPN.psig             3475.00:  SPP Min 
 SPPX.psig             3791.00:  SPP Max 
 STIM.      07.08.48 13-May-20:  Start Time 
 SVCS.                 DD, MWD:  Services 
 SVER.                    9.20:  Sperry Version 
 TDAT.m                 363.00:  Tot Depth Attmp 
 TDDF.                      No:  Trip for DD 
 TDLG.m                 363.00:  Tot Depth Loggd 
 TFF .                      No:  Trip for Fail 
 TQAA.f-kp               20.00:  Torque Abs Avg 
 TQAN.f-kp               18.00:  Torque Abs Min 
 TQAX.f-kp               22.00:  Torque Abs Max 
 TRRT.°/30m              -0.35:  Turn Rotating 
 MRT .                    HCIM:  Maximum Recorded Temperature 
 TTMX.degC               92.16:  Max Tool Temp 
 VS01.                90586518:  Virtual Str1 SN 
 VS02.        AZ90560654Z1W1C6:  Virtual Str2 SN 
 VS03.           AZ90610398F11:  Virtual Str3 SN 
 VS04.                90514975:  Virtual Str4 SN 
 VS05.                90514972:  Virtual Str5 SN 
 VS06.     AZ90603282F11V7D1A6:  Virtual Str6 SN 
 WBMN.klb                 7.00:  WOB Min 
 WOBA.klb                12.00:  WOB Avg 
 WOBX.klb                14.00:  WOB Max 
 YP  .lhf2               32.00:  Yield Point 
~Curve Information Block
#MNEM.UNIT                 API CODE     Curve Description
#---------               -----------    ---------------------------
 TIME.HHMMSS            00 000 000 000:  GT Time & Date
 GTDEPTH.m              00 000 000 000:  GT Depth
 GTPQH.psia             00 000 000 000:  GT HR Quartz Pressure
 GTTQ.degC              00 000 000 000:  GT Quartz Temperature
 GTTN.NONE              00 000 000 000:  GT Test Number
 GTET.sec               00 000 000 000:  GT Elapsed Test Time
 GTTVD.m                00 000 000 000:  GT True Vertical Depth
#Other Information
#
#WARRANTY: Halliburton will use its best efforts to furnish customers with 
#accurate information and interpretations that are part of, and incident to, the services 
#provided.  However, Halliburton cannot and does not warrant the accuracy 
#or correctness of such information and interpretations.  Under no circumstances should any 
#such information or interpretation be relied upon as the sole basis for any drilling, 
#completion, production, or financial decision or any procedure involving any risk to the 
#safety of any drilling venture, drilling rig or its crew or any other third party.  The 
#Customer has full responsibility for all drilling, completion and production operation.  
#Halliburton makes no representations or warranties, either expressed or 
#implied, including, but not limited to, the implied warranties of merchantability or fitness 
#for a particular purpose, with respect to the services rendered.  In no event will 
#Halliburton be liable for failure to obtain any particular results or for 
#any damages, including, but not limited to, indirect, special or consequential damages, 
#resulting from the use of any information or interpretation provided by Halliburton.
#
~A           TIME           GTDEPTH  GTPQH  GTTQ  GTTN   GTET   GTTVD  
# ...
   03:26:10.508.18-May-2020 4797.01 3816.70 65.90 13.00 293.92 2540.22
   03:26:10.708.18-May-2020 4797.01 3817.23 65.90 13.00 294.12 2540.22
   03:26:10.908.18-May-2020 4797.01 3817.23 65.90 13.00 294.32 2540.22
   03:26:11.108.18-May-2020 4797.01 3816.93 65.90 13.00 294.52 2540.22
   03:26:11.308.18-May-2020 4797.01 3816.90 65.90 13.00 294.72 2540.22
   03:26:11.508.18-May-2020 4797.01 3816.82 65.90 13.00 294.92 2540.22
   03:26:11.708.18-May-2020 4797.01 3816.89 65.90 13.00 295.12 2540.22
   03:26:11.908.18-May-2020 4797.01 3816.89 65.90 13.00 295.32 2540.22
   03:26:12.108.18-May-2020 4797.01 3816.73 65.90 13.00 295.52 2540.22
   03:26:12.308.18-May-2020 4797.01 3816.89 65.90 13.00 295.72 2540.22
   03:26:12.508.18-May-2020 4797.01 3816.86 65.90 13.00 295.92 2540.22
   03:26:12.708.18-May-2020 4797.01 3817.10 65.90 13.00 296.12 2540.22
   03:26:12.909.18-May-2020 4797.01 3817.10 65.90 13.00 296.32 2540.22
   03:26:13.109.18-May-2020 4797.01 3817.07 65.90 13.00 296.52 2540.22
   03:26:13.309.18-May-2020 4797.01 3816.98 65.90 13.00 296.72 2540.22
   03:26:13.509.18-May-2020 4797.01 3816.96 65.90 13.00 296.92 2540.22
   03:26:13.709.18-May-2020 4797.01 3816.95 65.90 13.00 297.12 2540.22
   03:26:13.909.18-May-2020 4797.01 3816.95 65.90 13.00 297.32 2540.22
   03:26:14.109.18-May-2020 4797.01 3816.12 65.90 13.00 297.52 2540.22
   03:26:14.309.18-May-2020 4797.01 3817.77 65.90 13.00 297.72 2540.22
   03:26:14.509.18-May-2020 4797.01 3816.92 65.90 13.00 297.92 2540.22
   03:26:14.709.18-May-2020 4797.01 3816.92 65.90 13.00 298.12 2540.22
   03:26:14.909.18-May-2020 4797.01 3816.92 65.90 13.00 298.32 2540.22
   03:26:15.109.18-May-2020 4797.01 3816.32 65.90 13.00 298.52 2540.22
   03:26:15.310.18-May-2020 4797.01 3817.62 65.90 13.00 298.72 2540.22
   03:26:15.510.18-May-2020 4797.01 3816.90 65.90 13.00 298.92 2540.22
   03:26:15.710.18-May-2020 4797.01 3816.91 65.90 13.00 299.12 2540.22
   03:26:15.910.18-May-2020 4797.01 3816.91 65.90 13.00 299.32 2540.22
   03:26:16.110.18-May-2020 4797.01 3817.50 65.90 13.00 299.52 2540.22
   03:26:16.310.18-May-2020 4797.01 3817.14 65.90 13.00 299.72 2540.22
   03:26:16.510.18-May-2020 4797.01 3816.99 65.90 13.00 299.92 2540.22
   03:26:16.710.18-May-2020 4797.01 3816.77 65.90 13.00 300.12 2540.22
   03:26:16.910.18-May-2020 4797.01 3816.77 65.90 13.00 300.32 2540.22
   03:26:17.110.18-May-2020 4797.01 3817.24 65.90 13.00 300.52 2540.22
   03:26:17.310.18-May-2020 4797.01 3817.43 65.90 13.00 300.72 2540.22
   03:26:17.510.18-May-2020 4797.01 3817.48 65.90 13.00 300.92 2540.22
   03:26:17.711.18-May-2020 4797.01 3817.28 65.90 13.00 301.12 2540.22
   03:26:17.911.18-May-2020 4797.01 3817.28 65.90 13.00 301.32 2540.22
   03:26:18.111.18-May-2020 4797.01 3817.27 65.90 13.00 301.52 2540.22
   03:26:18.311.18-May-2020 4797.01 3817.23 65.90 13.00 301.72 2540.22
   03:26:18.511.18-May-2020 4797.01 3817.14 65.90 13.00 301.92 2540.22
   03:26:18.711.18-May-2020 4797.01 3816.31 65.90 13.00 302.12 2540.22
   03:26:18.911.18-May-2020 4797.01 3816.31 65.90 13.00 302.32 2540.22
   03:26:19.111.18-May-2020 4797.01 3817.14 65.90 13.00 302.52 2540.22
   03:26:19.311.18-May-2020 4797.01 3817.12 65.90 13.00 302.72 2540.22
   03:26:19.511.18-May-2020 4797.01 3817.56 65.90 13.00 302.92 2540.22
   03:26:19.711.18-May-2020 4797.01 3817.42 65.90 13.00 303.12 2540.22
   03:26:19.911.18-May-2020 4797.01 3817.42 65.90 13.00 303.32 2540.22
   03:26:20.111.18-May-2020 4797.01 3817.25 65.90 13.00 303.52 2540.22
   03:26:20.312.18-May-2020 4797.01 3817.29 65.90 13.00 303.72 2540.22
   03:26:20.512.18-May-2020 4797.01 3817.18 65.90 13.00 303.92 2540.22
   03:26:20.712.18-May-2020 4797.01 3817.21 65.90 13.00 304.12 2540.22
   03:26:20.912.18-May-2020 4797.01 3817.21 65.90 13.00 304.32 2540.22
   03:26:21.112.18-May-2020 4797.01 3817.38 65.90 13.00 304.52 2540.22
   03:26:21.312.18-May-2020 4797.01 3817.14 65.90 13.00 304.72 2540.22
   03:26:21.512.18-May-2020 4797.01 3817.38 65.90 13.00 304.92 2540.22
   03:26:21.712.18-May-2020 4797.01 3817.56 65.90 13.00 305.12 2540.22
   03:26:21.912.18-May-2020 4797.01 3817.56 65.90 13.00 305.32 2540.22
   03:26:22.112.18-May-2020 4797.01 3817.56 65.90 13.00 305.52 2540.22
   03:26:22.312.18-May-2020 4797.01 3817.11 65.90 13.00 305.72 2540.22
   03:26:22.512.18-May-2020 4797.01 3817.35 65.90 13.00 305.92 2540.22
   03:26:22.713.18-May-2020 4797.01 3816.68 65.90 13.00 306.12 2540.22
   03:26:22.913.18-May-2020 4797.01 3816.68 65.90 13.00 306.32 2540.22
   03:26:23.113.18-May-2020 4797.01 3817.25 65.90 13.00 306.52 2540.22
   03:26:23.313.18-May-2020 4797.01 3816.29 65.90 13.00 306.72 2540.22
   03:26:23.513.18-May-2020 4797.01 3818.20 65.90 13.00 306.92 2540.22
   03:26:23.713.18-May-2020 4797.01 3817.26 65.90 13.00 307.12 2540.22
   03:26:23.913.18-May-2020 4797.01 3817.26 65.90 13.00 307.32 2540.22
   03:26:24.113.18-May-2020 4797.01 3817.80 65.90 13.00 307.52 2540.22
   03:26:24.313.18-May-2020 4797.01 3817.64 65.90 13.00 307.72 2540.22
   03:26:24.513.18-May-2020 4797.01 3817.37 65.90 13.00 307.92 2540.22
   03:26:24.713.18-May-2020 4797.01 3817.39 65.89 13.00 308.12 2540.22
   03:26:24.913.18-May-2020 4797.01 3817.39 65.89 13.00 308.32 2540.22
   03:26:25.113.18-May-2020 4797.01 3817.31 65.89 13.00 308.52 2540.22
   03:26:25.314.18-May-2020 4797.01 3817.32 65.89 13.00 308.72 2540.22
   03:26:25.514.18-May-2020 4797.01 3816.72 65.89 13.00 308.92 2540.22
   03:26:25.714.18-May-2020 4797.01 3817.75 65.89 13.00 309.12 2540.22
   03:26:25.914.18-May-2020 4797.01 3817.75 65.89 13.00 309.32 2540.22
   03:26:26.114.18-May-2020 4797.01 3817.37 65.89 13.00 309.52 2540.22
   03:26:26.314.18-May-2020 4797.01 3817.68 65.89 13.00 309.72 2540.22
   03:26:26.514.18-May-2020 4797.01 3817.44 65.89 13.00 309.92 2540.22
   03:26:26.714.18-May-2020 4797.01 3817.38 65.89 13.00 310.13 2540.22
   03:26:26.914.18-May-2020 4797.01 3817.38 65.89 13.00 310.33 2540.22
   03:26:27.114.18-May-2020 4797.01 3817.36 65.89 13.00 310.53 2540.22
   03:26:27.314.18-May-2020 4797.01 3817.32 65.89 13.00 310.73 2540.22
   03:26:27.514.18-May-2020 4797.01 3816.69 65.89 13.00 310.93 2540.22
   03:26:27.715.18-May-2020 4797.01 3817.84 65.89 13.00 311.13 2540.22
   03:26:27.915.18-May-2020 4797.01 3817.84 65.89 13.00 311.33 2540.22
   03:26:28.115.18-May-2020 4797.01 3817.30 65.89 13.00 311.53 2540.22
   03:26:28.315.18-May-2020 4797.01 3817.63 65.89 13.00 311.73 2540.22
   03:26:28.515.18-May-2020 4797.01 3817.26 65.89 13.00 311.93 2540.22
   03:26:28.715.18-May-2020 4797.01 3817.44 65.89 13.00 312.13 2540.22
   03:26:28.915.18-May-2020 4797.01 3817.44 65.89 13.00 312.33 2540.22
   03:26:29.115.18-May-2020 4797.01 3817.34 65.89 13.00 312.53 2540.22
   03:26:29.315.18-May-2020 4797.01 3817.63 65.89 13.00 312.73 2540.22
   03:26:29.515.18-May-2020 4797.01 3817.16 65.89 13.00 312.93 2540.22
   03:26:29.715.18-May-2020 4797.01 3817.71 65.89 13.00 313.13 2540.22
   03:26:29.915.18-May-2020 4797.01 3817.71 65.89 13.00 313.33 2540.22
   03:26:30.116.18-May-2020 4797.01 3816.64 65.89 13.00 313.53 2540.22
   03:26:30.316.18-May-2020 4797.01 3818.36 65.89 13.00 313.73 2540.22
   03:26:30.516.18-May-2020 4797.01 3817.35 65.89 13.00 313.93 2540.22
   03:26:30.716.18-May-2020 4797.01 3817.39 65.89 13.00 314.13 2540.22
   03:26:30.916.18-May-2020 4797.01 3817.39 65.89 13.00 314.33 2540.22
   03:26:31.116.18-May-2020 4797.01 3817.74 65.89 13.00 314.53 2540.22
   03:26:31.316.18-May-2020 4797.01 3817.45 65.89 13.00 314.73 2540.22
   03:26:31.516.18-May-2020 4797.01 3817.48 65.89 13.00 314.93 2540.22
   03:26:31.716.18-May-2020 4797.01 3817.51 65.89 13.00 315.13 2540.22
   03:26:31.916.18-May-2020 4797.01 3817.51 65.89 13.00 315.33 2540.22
   03:26:32.116.18-May-2020 4797.01 3817.45 65.89 13.00 315.53 2540.22
   03:26:32.316.18-May-2020 4797.01 3816.66 65.89 13.00 315.73 2540.22
   03:26:32.516.18-May-2020 4797.01 3818.05 65.89 13.00 315.93 2540.22
   03:26:32.717.18-May-2020 4797.01 3817.32 65.89 13.00 316.13 2540.22
   03:26:32.917.18-May-2020 4797.01 3817.32 65.89 13.00 316.33 2540.22
