~Version Information
 VERS.                  2.0:   CWLS log ASCII Standard -VERSION 2.0
 WRAP.                   NO:   One line per depth step
~Well Information Block
#MNEM.UNIT     VALUE/NAME     DESCRIPTION
#---------     -----------    ---------------------------
 STRT.S             02:13:59 18-May-20: START TIME 02:13:59 18-May-20
 STOP.S             02:21:38 18-May-20: STOP TIME  02:21:38 18-May-20
 STEP.S                   0.00: STEP TIME
 NULL.                 -999.25: NULL VALUE
 UNIT.                     N/A:  LOGGING EQUIPMENT ID
 DCON.         Sperry Drilling:  DIRECTNL CONTR
 DOE .                     N/A:  DOE NUMBER
 JOBN.        AZ-XX-0906252240:  JOB TICKET NUMB
 MWDS.                     N/A:  MWD SHOP
 PROV.                    Baku:  PROVINCE
 STAT.                    Baku:  STATE NAME
 REGN.                   EESSA:  REGION
 BASE.              Azerbaijan:  LOGGING EQUIPMENT BASE LOCATION
 UWI .                     N/A:  UNIQUE WELL IDENTIFIER
 API .                     N/A:  API NUMBER
 MDS .        Operator Entered:  MAG DATA SOURCE
 WTYP.                Deviated:  WELL TYPE
 COMP.     BP Exploration (Caspian Sea) Ltd.:  COMPANY
 SRVC.          Turan Drilling:  CONTRACTOR
 WELL.           J23 (Slot 07):  WELL NAME
 CTRY.              Azerbaijan:  COUNTRY NAME
 FLD .                     ACG:  FIELD NAME
 PDAT.          Mean Sea Level:  PERMANENT DATUM
 RIG .             West Chirag:  RIG NAME
 SON .        AZ-XX-0906252240:  JOB NUMBER
 FTOP.          Formation Tops:  FORM TOPS DESC
 ILTD.               Lithology:  INTERP LTH DESC
 SVYD.                  Survey:  SURVEY DESC
 DMOD.             Drill Model:  DRILL MOD DESC
 HPTY.       Minimum Curvature:  HOLE POS TYPE
 NREF.                    Grid:  NORTH REFERENCE
 SPUD.               27-Aug-20:  SPUD DATE
 DATE.      00.00.00 19-May-20:  END TIME
 STIM.      03.00.00 25-Mar-20:  START TIME
 DMF .             Drill Floor:  DRILL MEAS FROM
 DFST.                        :  DIST FSL TEXT
 DFWT.                        :  DIST FWL TEXT
 CNTY.                        :  COUNTY
 LOC .                        :  LOCATION
 LMF .             Drill Floor:  LOG MEASURED FROM
 VSNS.m                   9.43:  VERT SEC N/S
 VSEW.m                  -8.91:  VERT SEC E/W
 AGAP.m                  43.00:  AIR GAP
 DEP .m                 354.17:  DEPTH
 APD .m                  43.00:  DEPTH ABOVE PD
 WDMS.m                 169.80:  WD ELEV
 EGL .m                   0.00:  GROUND ELEVATION
 EPD .m                   0.00:  ELEVATION
 AZTC.deg                 6.31:  AZM TOTAL CORR
 GRDC.deg                 0.14:  GRID CORRECTION
 MDEC.deg                 6.45:  MAGNETIC DECL
 MDIP.deg                59.56:  MAGNETIC DIP
 MFLD.nT              50295.00:  MAGNETIC FIELD
 GVFD.g                   1.00:  GRAVITY FIELD
 VSDR.deg               179.88:  VERT SEC DIRECT
 TDD .m                5150.01:  TOTAL DEPTH (DRILLER)
 SDEP.m                 864.00:  START DEPTH
 DFSL.m                   0.00:  DISTANCE FSL
 DFWL.m                   0.00:  DISTANCE FWL
 UTMY.m             4443793.85:  UTM Y
 UTMX.m              519005.06:  UTM X
 WHEW.m                  -8.91:  WELL HEAD E/W
 WHNS.m                   9.43:  WELL HEAD N/S
 LONG.deg                51.22:  LONGITUDE
 LATI.deg                40.13:  LATITUDE
 TVDS.m                  43.00:  TVDSS CORRECTN
 EKB .m                   0.00:  KB ELEVATION
 EDF .m                  43.00:  DF ELEVATION
 TDL .m                 363.00:  TOTAL DEPTH (LOGGER)
 MAGU.                 1850802:  MAGUTM CHECKSUM
 VSC .                       0:  VS TO CLOSURE
~Parameter Information Block
#MNEM.UNIT       Value        Description
#---------     -----------    ---------------------------
 AV  .mps                 2.30:  Ann Velocity 
 AVMX.mps                 4.40:  Max Ann Veloc 
 AZIF.deg               110.24:  Azm, Final 
 BHAT.        Rotary Steerable:  BHA Type 
 BREV.rev               331.00:  Rev Bit Total 
 BROT.°/30m               0.00:  Build Rotating 
 BS  .in                  8.50:  Bit Size 
 BSZ .in                  8.50:  Bit Size 
 BTPL.psig              585.00:  Bit Press Loss 
 CABU.                     Yes:  Customer Abuse 
 COMM.                     ü9U:  Run Comments 1 
 TCS .hr                122.75:  Time Ciculation Ended 
 CV  .mps                 2.67:  Crit Velocity 
 CVMX.mps                 3.56:  Max Crit Veloc 
 DD1 .          Rashad Habibov:  Direct Drillr 1 
 DD2 .         Rasim Ibrahimov:  Direct Drillr 2 
 DDSV.               Geo-Pilot:  DD Service 
 DEFF.%                  98.00:  % Det Eff 
 DLRX.°/30m               0.75:  Dogleg Rot Max 
 DLSO.°/30m               1.25:  Dogleg Oriented 
 DLSX.°/30m               2.06:  Dogleg Str Max 
 DRET.      07.45.00 17-May-20:  Drill End Time 
 DRST.      22.50.00 15-May-20:  Drill Start Tim 
 DTIM.hr                 20.75:  Time Drilling 
 EDEP.m                5124.01:  End Depth 
 ENG1.           Eldar Hajiyev:  Engineer 1 
 ENG2.        Marcelo Sandoval:  Engineer 2 
 ENG3.        Davud huseynzada:  Engineer 3 
 ENG4.          Ruslan Safarov:  Engineer 4 
 ETIM.      04.33.00 23-May-20:  End Time 
 FLOI.gpm               450.00:  Flow In 
 FLON.gpm               400.00:  Flow In Min 
 FLOS.cptm                0.00:  Fluid Loss 
 FLOX.gpm               500.00:  Flow In Max 
 FTRO.       Formation Presure:  FTWD Run Obj 
 HFLO.                      No:  High Flow 
 HPRE.                     Yes:  High Pressure 
 HTEM.                      No:  High Temp 
 HYDO.m                   1.80:  Hydro Offset 
 IFIN.deg                75.06:  Inc, Final 
 IMAX.deg                75.38:  Inc Max 
 IMIN.deg                74.69:  Inc Min 
 IMND.m                5027.38:  Inc Min Depth 
 IMXD.m                4771.61:  Inc Max Depth 
 JARR.                      No:  Jarring 
 LETM.      07.45.00 17-May-20:  Log End Time 
 LOST.hr                     0:  Lost Rig Time 
 LSTM.      22.50.00 15-May-20:  Log Start Time 
 MDCL.ppm             42000.00:  Mud Chlorides 
 MDES.     Inversion Oil/Synthetic:  Mud Desc 
 DFD .sg                  1.34:  Mud Density 
 MDMN.sg                  1.34:  Dens Mud Min 
 MDMX.sg                  1.34:  Dens Mud Max 
 MOIL.                       0:  Run Mud Oil % 
 MOWR.                   67:33:  Run Mud OWR 
 MSND.                       0:  Run Mud Sand % 
 MSOL.                     1.8:  Run Mud Solids% 
 DFV .spqt               76.00:  Mud Viscosity 
 MWOD.in                  6.75:  MWD Tool OD 
 MWSI.                      No:  Serv Intrp, MWD 
 OTIM.hr                228.19:  Time Operating 
 PCON.           Look Like New:  Pad Condition 
 PMAX.psia             6164.70:  Press Op, Max 
 PV  .cP                 28.00:  Mud PV 
 RUN .                     900:  Run Number 
 ROPA.m/hr               19.00:  ROP Avg 
 ROPN.m/hr               11.00:  ROP Min 
 ROPX.m/hr               36.00:  ROP Max 
 RPMA.rpm               120.00:  RPM Surface Avg 
 RPMN.rpm               120.00:  RPM Surface Min 
 RPMX.rpm               120.00:  RPM Surface Max 
 RRUN.                    L604:  Rig Run Number 
 RTIM.hr                  7.00:  Time Reaming 
 SAZI.deg               109.27:  Azm, Start 
 SDEP.m                4761.01:  Start Depth 
 SIDD.                      No:  Serv Intrp, DD 
 SINC.deg                75.38:  Inc, Start 
 SPPA.psig             3574.00:  SPP Avg 
 SPPN.psig             3475.00:  SPP Min 
 SPPX.psig             3791.00:  SPP Max 
 STIM.      07.08.48 13-May-20:  Start Time 
 SVCS.                 DD, MWD:  Services 
 SVER.                    9.20:  Sperry Version 
 TDAT.m                 363.00:  Tot Depth Attmp 
 TDDF.                      No:  Trip for DD 
 TDLG.m                 363.00:  Tot Depth Loggd 
 TFF .                      No:  Trip for Fail 
 TQAA.f-kp               20.00:  Torque Abs Avg 
 TQAN.f-kp               18.00:  Torque Abs Min 
 TQAX.f-kp               22.00:  Torque Abs Max 
 TRRT.°/30m              -0.35:  Turn Rotating 
 MRT .                    HCIM:  Maximum Recorded Temperature 
 TTMX.degC               92.16:  Max Tool Temp 
 VS01.                90586518:  Virtual Str1 SN 
 VS02.        AZ90560654Z1W1C6:  Virtual Str2 SN 
 VS03.           AZ90610398F11:  Virtual Str3 SN 
 VS04.                90514975:  Virtual Str4 SN 
 VS05.                90514972:  Virtual Str5 SN 
 VS06.     AZ90603282F11V7D1A6:  Virtual Str6 SN 
 WBMN.klb                 7.00:  WOB Min 
 WOBA.klb                12.00:  WOB Avg 
 WOBX.klb                14.00:  WOB Max 
 YP  .lhf2               32.00:  Yield Point 
~Curve Information Block
#MNEM.UNIT                 API CODE     Curve Description
#---------               -----------    ---------------------------
 TIME.HHMMSS            00 000 000 000:  GT Time & Date
 GTDEPTH.m              00 000 000 000:  GT Depth
 GTPQH.psia             00 000 000 000:  GT HR Quartz Pressure
 GTTQ.degC              00 000 000 000:  GT Quartz Temperature
 GTTN.NONE              00 000 000 000:  GT Test Number
 GTET.sec               00 000 000 000:  GT Elapsed Test Time
 GTTVD.m                00 000 000 000:  GT True Vertical Depth
#Other Information
#
#WARRANTY: Halliburton will use its best efforts to furnish customers with 
#accurate information and interpretations that are part of, and incident to, the services 
#provided.  However, Halliburton cannot and does not warrant the accuracy 
#or correctness of such information and interpretations.  Under no circumstances should any 
#such information or interpretation be relied upon as the sole basis for any drilling, 
#completion, production, or financial decision or any procedure involving any risk to the 
#safety of any drilling venture, drilling rig or its crew or any other third party.  The 
#Customer has full responsibility for all drilling, completion and production operation.  
#Halliburton makes no representations or warranties, either expressed or 
#implied, including, but not limited to, the implied warranties of merchantability or fitness 
#for a particular purpose, with respect to the services rendered.  In no event will 
#Halliburton be liable for failure to obtain any particular results or for 
#any damages, including, but not limited to, indirect, special or consequential damages, 
#resulting from the use of any information or interpretation provided by Halliburton.
#
~A           TIME           GTDEPTH  GTPQH  GTTQ  GTTN   GTET   GTTVD  
# ...
   02:21:09.534.18-May-2020 4832.01 5472.47 65.96 12.00 429.57 2549.35
   02:21:09.734.18-May-2020 4832.01 5471.49 65.96 12.00 429.77 2549.35
   02:21:09.935.18-May-2020 4832.01 5482.60 65.96 12.00 429.97 2549.35
   02:21:10.135.18-May-2020 4832.01 5474.63 65.96 12.00 430.17 2549.35
   02:21:10.335.18-May-2020 4832.01 5474.63 65.96 12.00 430.37 2549.35
   02:21:10.535.18-May-2020 4832.01 5474.63 65.96 12.00 430.57 2549.35
   02:21:10.735.18-May-2020 4832.01 5473.94 65.96 12.00 430.77 2549.35
   02:21:10.935.18-May-2020 4832.01 5471.32 65.96 12.00 430.97 2549.35
   02:21:11.135.18-May-2020 4832.01 5471.02 65.96 12.00 431.17 2549.35
   02:21:11.335.18-May-2020 4832.01 5471.02 65.96 12.00 431.37 2549.35
   02:21:11.535.18-May-2020 4832.01 5470.81 65.96 12.00 431.57 2549.35
   02:21:11.735.18-May-2020 4832.01 5470.54 65.96 12.00 431.77 2549.35
   02:21:11.935.18-May-2020 4832.01 5469.66 65.96 12.00 431.97 2549.35
   02:21:12.135.18-May-2020 4832.01 5485.77 65.96 12.00 432.17 2549.35
   02:21:12.336.18-May-2020 4832.01 5485.77 65.96 12.00 432.37 2549.35
   02:21:12.536.18-May-2020 4832.01 5468.51 65.96 12.00 432.57 2549.35
   02:21:12.736.18-May-2020 4832.01 5477.86 65.96 12.00 432.77 2549.35
   02:21:12.936.18-May-2020 4832.01 5479.87 65.96 12.00 432.97 2549.35
   02:21:13.136.18-May-2020 4832.01 5475.41 65.96 12.00 433.17 2549.35
   02:21:13.336.18-May-2020 4832.01 5475.41 65.96 12.00 433.37 2549.35
   02:21:13.536.18-May-2020 4832.01 5477.07 65.96 12.00 433.57 2549.35
   02:21:13.736.18-May-2020 4832.01 5475.45 65.96 12.00 433.77 2549.35
   02:21:13.936.18-May-2020 4832.01 5481.36 65.96 12.00 433.98 2549.35
   02:21:14.136.18-May-2020 4832.01 5476.86 65.96 12.00 434.18 2549.35
   02:21:14.336.18-May-2020 4832.01 5476.86 65.96 12.00 434.38 2549.35
   02:21:14.536.18-May-2020 4832.01 5494.08 65.96 12.00 434.58 2549.35
   02:21:14.737.18-May-2020 4832.01 5474.25 65.96 12.00 434.78 2549.35
   02:21:14.937.18-May-2020 4832.01 5471.84 65.96 12.00 434.98 2549.35
   02:21:15.137.18-May-2020 4832.01 5476.70 65.96 12.00 435.18 2549.35
   02:21:15.337.18-May-2020 4832.01 5476.70 65.96 12.00 435.38 2549.35
   02:21:15.537.18-May-2020 4832.01 5474.53 65.96 12.00 435.58 2549.35
   02:21:15.737.18-May-2020 4832.01 5474.08 65.96 12.00 435.78 2549.35
   02:21:15.937.18-May-2020 4832.01 5472.64 65.96 12.00 435.98 2549.35
   02:21:16.137.18-May-2020 4832.01 5472.75 65.96 12.00 436.18 2549.35
   02:21:16.337.18-May-2020 4832.01 5472.75 65.96 12.00 436.38 2549.35
   02:21:16.537.18-May-2020 4832.01 5482.45 65.96 12.00 436.58 2549.35
   02:21:16.737.18-May-2020 4832.01 5471.88 65.96 12.00 436.78 2549.35
   02:21:16.937.18-May-2020 4832.01 5472.06 65.96 12.00 436.98 2549.35
   02:21:17.137.18-May-2020 4832.01 5472.53 65.96 12.00 437.18 2549.35
   02:21:17.338.18-May-2020 4832.01 5475.69 65.96 12.00 437.38 2549.35
   02:21:17.538.18-May-2020 4832.01 5472.42 65.96 12.00 437.58 2549.35
   02:21:17.738.18-May-2020 4832.01 5471.24 65.96 12.00 437.78 2549.35
   02:21:17.938.18-May-2020 4832.01 5471.23 65.96 12.00 437.98 2549.35
   02:21:18.138.18-May-2020 4832.01 5470.53 65.96 12.00 438.18 2549.35
   02:21:18.338.18-May-2020 4832.01 5470.53 65.96 12.00 438.38 2549.35
   02:21:18.538.18-May-2020 4832.01 5469.82 65.96 12.00 438.58 2549.35
   02:21:18.738.18-May-2020 4832.01 5474.17 65.96 12.00 438.78 2549.35
   02:21:18.938.18-May-2020 4832.01 5475.76 65.95 12.00 438.98 2549.35
   02:21:19.138.18-May-2020 4832.01 5473.69 65.95 12.00 439.18 2549.35
   02:21:19.338.18-May-2020 4832.01 5473.69 65.95 12.00 439.38 2549.35
   02:21:19.538.18-May-2020 4832.01 5490.61 65.95 12.00 439.58 2549.35
   02:21:19.739.18-May-2020 4832.01 5474.12 65.95 12.00 439.78 2549.35
   02:21:19.939.18-May-2020 4832.01 5470.42 65.95 12.00 439.98 2549.35
   02:21:20.139.18-May-2020 4832.01 5475.63 65.95 12.00 440.18 2549.35
   02:21:20.339.18-May-2020 4832.01 5475.63 65.95 12.00 440.38 2549.35
   02:21:20.539.18-May-2020 4832.01 5485.99 65.95 12.00 440.58 2549.35
   02:21:20.739.18-May-2020 4832.01 5472.96 65.95 12.00 440.78 2549.35
   02:21:20.939.18-May-2020 4832.01 5472.85 65.95 12.00 440.98 2549.35
   02:21:21.139.18-May-2020 4832.01 5483.89 65.95 12.00 441.18 2549.35
   02:21:21.339.18-May-2020 4832.01 5483.89 65.95 12.00 441.38 2549.35
   02:21:21.539.18-May-2020 4832.01 5476.28 65.95 12.00 441.58 2549.35
   02:21:21.739.18-May-2020 4832.01 5475.42 65.95 12.00 441.78 2549.35
   02:21:21.939.18-May-2020 4832.01 5478.87 65.95 12.00 441.98 2549.35
   02:21:22.139.18-May-2020 4832.01 5475.20 65.95 12.00 442.18 2549.35
   02:21:22.340.18-May-2020 4832.01 5475.20 65.95 12.00 442.38 2549.35
   02:21:22.540.18-May-2020 4832.01 5473.06 65.95 12.00 442.58 2549.35
   02:21:22.740.18-May-2020 4832.01 5472.61 65.95 12.00 442.78 2549.35
   02:21:22.940.18-May-2020 4832.01 5472.48 65.95 12.00 442.98 2549.35
   02:21:23.140.18-May-2020 4832.01 5474.09 65.95 12.00 443.18 2549.35
   02:21:23.340.18-May-2020 4832.01 5474.09 65.95 12.00 443.38 2549.35
   02:21:23.540.18-May-2020 4832.01 5475.72 65.95 12.00 443.58 2549.35
   02:21:23.740.18-May-2020 4832.01 5471.66 65.95 12.00 443.78 2549.35
   02:21:23.940.18-May-2020 4832.01 5476.24 65.95 12.00 443.98 2549.35
   02:21:24.140.18-May-2020 4832.01 5473.42 65.95 12.00 444.18 2549.35
   02:21:24.340.18-May-2020 4832.01 5473.42 65.95 12.00 444.38 2549.35
   02:21:24.540.18-May-2020 4832.01 5471.55 65.95 12.00 444.58 2549.35
   02:21:24.741.18-May-2020 4832.01 5470.83 65.95 12.00 444.78 2549.35
   02:21:24.941.18-May-2020 4832.01 5470.98 65.95 12.00 444.98 2549.35
   02:21:25.141.18-May-2020 4832.01 5470.78 65.95 12.00 445.18 2549.35
   02:21:25.341.18-May-2020 4832.01 5470.78 65.95 12.00 445.38 2549.35
   02:21:25.541.18-May-2020 4832.01 5482.58 65.95 12.00 445.58 2549.35
   02:21:25.741.18-May-2020 4832.01 5473.78 65.95 12.00 445.78 2549.35
   02:21:25.941.18-May-2020 4832.01 5469.41 65.95 12.00 445.98 2549.35
   02:21:26.141.18-May-2020 4832.01 5486.71 65.95 12.00 446.18 2549.35
   02:21:26.341.18-May-2020 4832.01 5486.71 65.95 12.00 446.38 2549.35
   02:21:26.541.18-May-2020 4832.01 5472.90 65.95 12.00 446.58 2549.35
   02:21:26.741.18-May-2020 4832.01 5473.68 65.95 12.00 446.78 2549.35
   02:21:26.941.18-May-2020 4832.01 5476.52 65.95 12.00 446.98 2549.35
   02:21:27.142.18-May-2020 4832.01 5482.67 65.95 12.00 447.18 2549.35
   02:21:27.342.18-May-2020 4832.01 5482.67 65.95 12.00 447.38 2549.35
   02:21:27.542.18-May-2020 4832.01 5474.76 65.95 12.00 447.58 2549.35
   02:21:27.742.18-May-2020 4832.01 5473.83 65.95 12.00 447.78 2549.35
   02:21:27.942.18-May-2020 4832.01 5490.06 65.95 12.00 447.98 2549.35
   02:21:28.142.18-May-2020 4832.01 5477.28 65.95 12.00 448.18 2549.35
   02:21:28.342.18-May-2020 4832.01 5477.28 65.95 12.00 448.38 2549.35
   02:21:28.542.18-May-2020 4832.01 5477.51 65.95 12.00 448.58 2549.35
   02:21:28.742.18-May-2020 4832.01 5475.58 65.95 12.00 448.78 2549.35
   02:21:28.942.18-May-2020 4832.01 5473.62 65.95 12.00 448.98 2549.35
   02:21:29.142.18-May-2020 4832.01 5473.07 65.95 12.00 449.18 2549.35
   02:21:29.342.18-May-2020 4832.01 5471.80 65.95 12.00 449.38 2549.35
   02:21:29.542.18-May-2020 4832.01 5472.42 65.95 12.00 449.58 2549.35
   02:21:29.743.18-May-2020 4832.01 5471.54 65.95 12.00 449.78 2549.35
   02:21:29.943.18-May-2020 4832.01 5485.98 65.95 12.00 449.98 2549.35
   02:21:30.143.18-May-2020 4832.01 5471.73 65.95 12.00 450.18 2549.35
   02:21:30.343.18-May-2020 4832.01 5471.73 65.95 12.00 450.38 2549.35
   02:21:30.543.18-May-2020 4832.01 5473.91 65.95 12.00 450.58 2549.35
   02:21:30.743.18-May-2020 4832.01 5474.71 65.95 12.00 450.78 2549.35
   02:21:30.943.18-May-2020 4832.01 5471.79 65.95 12.00 450.98 2549.35
   02:21:31.143.18-May-2020 4832.01 5471.02 65.95 12.00 451.18 2549.35
   02:21:31.343.18-May-2020 4832.01 5471.02 65.95 12.00 451.38 2549.35
   02:21:31.543.18-May-2020 4832.01 5470.54 65.95 12.00 451.58 2549.35
   02:21:31.743.18-May-2020 4832.01 5470.38 65.95 12.00 451.78 2549.35
   02:21:31.943.18-May-2020 4832.01 5469.58 65.95 12.00 451.98 2549.35
