~Version Information
 VERS.                  2.0:   CWLS log ASCII Standard -VERSION 2.0
 WRAP.                   NO:   One line per depth step
~Well Information Block
#MNEM.UNIT     VALUE/NAME     DESCRIPTION
#---------     -----------    ---------------------------
 STRT.S             14:38:44 17-May-20: START TIME 14:38:44 17-May-20
 STOP.S             14:45:36 17-May-20: STOP TIME  14:45:36 17-May-20
 STEP.S                   0.00: STEP TIME
 NULL.                 -999.25: NULL VALUE
 UNIT.                     N/A:  LOGGING EQUIPMENT ID
 DCON.         Sperry Drilling:  DIRECTNL CONTR
 DOE .                     N/A:  DOE NUMBER
 JOBN.        AZ-XX-0906252240:  JOB TICKET NUMB
 MWDS.                     N/A:  MWD SHOP
 PROV.                    Baku:  PROVINCE
 STAT.                    Baku:  STATE NAME
 REGN.                   EESSA:  REGION
 BASE.              Azerbaijan:  LOGGING EQUIPMENT BASE LOCATION
 UWI .                     N/A:  UNIQUE WELL IDENTIFIER
 API .                     N/A:  API NUMBER
 MDS .        Operator Entered:  MAG DATA SOURCE
 WTYP.                Deviated:  WELL TYPE
 COMP.     BP Exploration (Caspian Sea) Ltd.:  COMPANY
 SRVC.          Turan Drilling:  CONTRACTOR
 WELL.           J23 (Slot 07):  WELL NAME
 CTRY.              Azerbaijan:  COUNTRY NAME
 FLD .                     ACG:  FIELD NAME
 PDAT.          Mean Sea Level:  PERMANENT DATUM
 RIG .             West Chirag:  RIG NAME
 SON .        AZ-XX-0906252240:  JOB NUMBER
 FTOP.          Formation Tops:  FORM TOPS DESC
 ILTD.               Lithology:  INTERP LTH DESC
 SVYD.                  Survey:  SURVEY DESC
 DMOD.             Drill Model:  DRILL MOD DESC
 HPTY.       Minimum Curvature:  HOLE POS TYPE
 NREF.                    Grid:  NORTH REFERENCE
 SPUD.               27-Aug-20:  SPUD DATE
 DATE.      00.00.00 19-May-20:  END TIME
 STIM.      03.00.00 25-Mar-20:  START TIME
 DMF .             Drill Floor:  DRILL MEAS FROM
 DFST.                        :  DIST FSL TEXT
 DFWT.                        :  DIST FWL TEXT
 CNTY.                        :  COUNTY
 LOC .                        :  LOCATION
 LMF .             Drill Floor:  LOG MEASURED FROM
 VSNS.m                   9.43:  VERT SEC N/S
 VSEW.m                  -8.91:  VERT SEC E/W
 AGAP.m                  43.00:  AIR GAP
 DEP .m                 354.17:  DEPTH
 APD .m                  43.00:  DEPTH ABOVE PD
 WDMS.m                 169.80:  WD ELEV
 EGL .m                   0.00:  GROUND ELEVATION
 EPD .m                   0.00:  ELEVATION
 AZTC.deg                 6.31:  AZM TOTAL CORR
 GRDC.deg                 0.14:  GRID CORRECTION
 MDEC.deg                 6.45:  MAGNETIC DECL
 MDIP.deg                59.56:  MAGNETIC DIP
 MFLD.nT              50295.00:  MAGNETIC FIELD
 GVFD.g                   1.00:  GRAVITY FIELD
 VSDR.deg               179.88:  VERT SEC DIRECT
 TDD .m                5150.01:  TOTAL DEPTH (DRILLER)
 SDEP.m                 864.00:  START DEPTH
 DFSL.m                   0.00:  DISTANCE FSL
 DFWL.m                   0.00:  DISTANCE FWL
 UTMY.m             4443793.85:  UTM Y
 UTMX.m              519005.06:  UTM X
 WHEW.m                  -8.91:  WELL HEAD E/W
 WHNS.m                   9.43:  WELL HEAD N/S
 LONG.deg                51.22:  LONGITUDE
 LATI.deg                40.13:  LATITUDE
 TVDS.m                  43.00:  TVDSS CORRECTN
 EKB .m                   0.00:  KB ELEVATION
 EDF .m                  43.00:  DF ELEVATION
 TDL .m                 363.00:  TOTAL DEPTH (LOGGER)
 MAGU.                 1850802:  MAGUTM CHECKSUM
 VSC .                       0:  VS TO CLOSURE
~Parameter Information Block
#MNEM.UNIT       Value        Description
#---------     -----------    ---------------------------
 AV  .mps                 2.30:  Ann Velocity 
 AVMX.mps                 4.40:  Max Ann Veloc 
 AZIF.deg               110.24:  Azm, Final 
 BHAT.        Rotary Steerable:  BHA Type 
 BREV.rev               331.00:  Rev Bit Total 
 BROT.°/30m               0.00:  Build Rotating 
 BS  .in                  8.50:  Bit Size 
 BSZ .in                  8.50:  Bit Size 
 BTPL.psig              585.00:  Bit Press Loss 
 CABU.                     Yes:  Customer Abuse 
 COMM.                     ÔF[:  Run Comments 1 
 TCS .hr                122.75:  Time Ciculation Ended 
 CV  .mps                 2.67:  Crit Velocity 
 CVMX.mps                 3.56:  Max Crit Veloc 
 DD1 .          Rashad Habibov:  Direct Drillr 1 
 DD2 .         Rasim Ibrahimov:  Direct Drillr 2 
 DDSV.               Geo-Pilot:  DD Service 
 DEFF.%                  98.00:  % Det Eff 
 DLRX.°/30m               0.75:  Dogleg Rot Max 
 DLSO.°/30m               1.25:  Dogleg Oriented 
 DLSX.°/30m               2.06:  Dogleg Str Max 
 DRET.      07.45.00 17-May-20:  Drill End Time 
 DRST.      22.50.00 15-May-20:  Drill Start Tim 
 DTIM.hr                 20.75:  Time Drilling 
 EDEP.m                5124.01:  End Depth 
 ENG1.           Eldar Hajiyev:  Engineer 1 
 ENG2.        Marcelo Sandoval:  Engineer 2 
 ENG3.        Davud huseynzada:  Engineer 3 
 ENG4.          Ruslan Safarov:  Engineer 4 
 ETIM.      04.33.00 23-May-20:  End Time 
 FLOI.gpm               450.00:  Flow In 
 FLON.gpm               400.00:  Flow In Min 
 FLOS.cptm                0.00:  Fluid Loss 
 FLOX.gpm               500.00:  Flow In Max 
 FTRO.       Formation Presure:  FTWD Run Obj 
 HFLO.                      No:  High Flow 
 HPRE.                     Yes:  High Pressure 
 HTEM.                      No:  High Temp 
 HYDO.m                   1.80:  Hydro Offset 
 IFIN.deg                75.06:  Inc, Final 
 IMAX.deg                75.38:  Inc Max 
 IMIN.deg                74.69:  Inc Min 
 IMND.m                5027.38:  Inc Min Depth 
 IMXD.m                4771.61:  Inc Max Depth 
 JARR.                      No:  Jarring 
 LETM.      07.45.00 17-May-20:  Log End Time 
 LOST.hr                     0:  Lost Rig Time 
 LSTM.      22.50.00 15-May-20:  Log Start Time 
 MDCL.ppm             42000.00:  Mud Chlorides 
 MDES.     Inversion Oil/Synthetic:  Mud Desc 
 DFD .sg                  1.34:  Mud Density 
 MDMN.sg                  1.34:  Dens Mud Min 
 MDMX.sg                  1.34:  Dens Mud Max 
 MOIL.                       0:  Run Mud Oil % 
 MOWR.                   67:33:  Run Mud OWR 
 MSND.                       0:  Run Mud Sand % 
 MSOL.                     1.8:  Run Mud Solids% 
 DFV .spqt               76.00:  Mud Viscosity 
 MWOD.in                  6.75:  MWD Tool OD 
 MWSI.                      No:  Serv Intrp, MWD 
 OTIM.hr                228.19:  Time Operating 
 PCON.           Look Like New:  Pad Condition 
 PMAX.psia             6164.70:  Press Op, Max 
 PV  .cP                 28.00:  Mud PV 
 RUN .                     900:  Run Number 
 ROPA.m/hr               19.00:  ROP Avg 
 ROPN.m/hr               11.00:  ROP Min 
 ROPX.m/hr               36.00:  ROP Max 
 RPMA.rpm               120.00:  RPM Surface Avg 
 RPMN.rpm               120.00:  RPM Surface Min 
 RPMX.rpm               120.00:  RPM Surface Max 
 RRUN.                    L604:  Rig Run Number 
 RTIM.hr                  7.00:  Time Reaming 
 SAZI.deg               109.27:  Azm, Start 
 SDEP.m                4761.01:  Start Depth 
 SIDD.                      No:  Serv Intrp, DD 
 SINC.deg                75.38:  Inc, Start 
 SPPA.psig             3574.00:  SPP Avg 
 SPPN.psig             3475.00:  SPP Min 
 SPPX.psig             3791.00:  SPP Max 
 STIM.      07.08.48 13-May-20:  Start Time 
 SVCS.                 DD, MWD:  Services 
 SVER.                    9.20:  Sperry Version 
 TDAT.m                 363.00:  Tot Depth Attmp 
 TDDF.                      No:  Trip for DD 
 TDLG.m                 363.00:  Tot Depth Loggd 
 TFF .                      No:  Trip for Fail 
 TQAA.f-kp               20.00:  Torque Abs Avg 
 TQAN.f-kp               18.00:  Torque Abs Min 
 TQAX.f-kp               22.00:  Torque Abs Max 
 TRRT.°/30m              -0.35:  Turn Rotating 
 MRT .                    HCIM:  Maximum Recorded Temperature 
 TTMX.degC               92.16:  Max Tool Temp 
 VS01.                90586518:  Virtual Str1 SN 
 VS02.        AZ90560654Z1W1C6:  Virtual Str2 SN 
 VS03.           AZ90610398F11:  Virtual Str3 SN 
 VS04.                90514975:  Virtual Str4 SN 
 VS05.                90514972:  Virtual Str5 SN 
 VS06.     AZ90603282F11V7D1A6:  Virtual Str6 SN 
 WBMN.klb                 7.00:  WOB Min 
 WOBA.klb                12.00:  WOB Avg 
 WOBX.klb                14.00:  WOB Max 
 YP  .lhf2               32.00:  Yield Point 
~Curve Information Block
#MNEM.UNIT                 API CODE     Curve Description
#---------               -----------    ---------------------------
 TIME.HHMMSS            00 000 000 000:  GT Time & Date
 GTDEPTH.m              00 000 000 000:  GT Depth
 GTPQH.psia             00 000 000 000:  GT HR Quartz Pressure
 GTTQ.degC              00 000 000 000:  GT Quartz Temperature
 GTTN.NONE              00 000 000 000:  GT Test Number
 GTET.sec               00 000 000 000:  GT Elapsed Test Time
 GTTVD.m                00 000 000 000:  GT True Vertical Depth
#Other Information
#
#WARRANTY: Halliburton will use its best efforts to furnish customers with 
#accurate information and interpretations that are part of, and incident to, the services 
#provided.  However, Halliburton cannot and does not warrant the accuracy 
#or correctness of such information and interpretations.  Under no circumstances should any 
#such information or interpretation be relied upon as the sole basis for any drilling, 
#completion, production, or financial decision or any procedure involving any risk to the 
#safety of any drilling venture, drilling rig or its crew or any other third party.  The 
#Customer has full responsibility for all drilling, completion and production operation.  
#Halliburton makes no representations or warranties, either expressed or 
#implied, including, but not limited to, the implied warranties of merchantability or fitness 
#for a particular purpose, with respect to the services rendered.  In no event will 
#Halliburton be liable for failure to obtain any particular results or for 
#any damages, including, but not limited to, indirect, special or consequential damages, 
#resulting from the use of any information or interpretation provided by Halliburton.
#
~A           TIME           GTDEPTH  GTPQH  GTTQ  GTTN  GTET   GTTVD  
# ...
   14:45:15.000.17-May-2020 5087.01 5613.52 72.20 1.00 391.00 2615.39
   14:45:15.200.17-May-2020 5087.01 5613.52 72.20 1.00 391.20 2615.39
   14:45:15.400.17-May-2020 5087.01 5607.49 72.19 1.00 391.40 2615.39
   14:45:15.600.17-May-2020 5087.01 5610.39 72.19 1.00 391.60 2615.39
   14:45:15.800.17-May-2020 5087.01 5610.25 72.19 1.00 391.80 2615.39
   14:45:16.000.17-May-2020 5087.01 5628.53 72.19 1.00 392.00 2615.39
   14:45:16.200.17-May-2020 5087.01 5610.91 72.19 1.00 392.20 2615.39
   14:45:16.400.17-May-2020 5087.01 5606.47 72.19 1.00 392.40 2615.39
   14:45:16.600.17-May-2020 5087.01 5603.32 72.19 1.00 392.60 2615.39
   14:45:16.800.17-May-2020 5087.01 5616.05 72.19 1.00 392.80 2615.39
   14:45:17.000.17-May-2020 5087.01 5610.46 72.19 1.00 393.00 2615.39
   14:45:17.200.17-May-2020 5087.01 5610.46 72.19 1.00 393.20 2615.39
   14:45:17.400.17-May-2020 5087.01 5606.66 72.19 1.00 393.40 2615.39
   14:45:17.600.17-May-2020 5087.01 5607.33 72.19 1.00 393.60 2615.39
   14:45:17.800.17-May-2020 5087.01 5609.26 72.19 1.00 393.80 2615.39
   14:45:18.000.17-May-2020 5087.01 5608.09 72.19 1.00 394.00 2615.39
   14:45:18.200.17-May-2020 5087.01 5608.09 72.19 1.00 394.20 2615.39
   14:45:18.400.17-May-2020 5087.01 5612.36 72.19 1.00 394.40 2615.39
   14:45:18.600.17-May-2020 5087.01 5607.84 72.19 1.00 394.60 2615.39
   14:45:18.800.17-May-2020 5087.01 5604.19 72.19 1.00 394.80 2615.39
   14:45:19.000.17-May-2020 5087.01 5614.38 72.19 1.00 395.00 2615.39
   14:45:19.200.17-May-2020 5087.01 5614.38 72.19 1.00 395.20 2615.39
   14:45:19.400.17-May-2020 5087.01 5613.79 72.19 1.00 395.40 2615.39
   14:45:19.600.17-May-2020 5087.01 5606.75 72.19 1.00 395.60 2615.39
   14:45:19.800.17-May-2020 5087.01 5603.63 72.19 1.00 395.80 2615.39
   14:45:20.000.17-May-2020 5087.01 5627.99 72.19 1.00 396.00 2615.39
   14:45:20.200.17-May-2020 5087.01 5627.99 72.19 1.00 396.20 2615.39
   14:45:20.400.17-May-2020 5087.01 5608.69 72.19 1.00 396.40 2615.39
   14:45:20.600.17-May-2020 5087.01 5605.19 72.19 1.00 396.60 2615.39
   14:45:20.800.17-May-2020 5087.01 5618.79 72.19 1.00 396.80 2615.39
   14:45:21.000.17-May-2020 5087.01 5631.10 72.19 1.00 397.00 2615.39
   14:45:21.200.17-May-2020 5087.01 5631.10 72.19 1.00 397.20 2615.39
   14:45:21.400.17-May-2020 5087.01 5607.11 72.18 1.00 397.40 2615.39
   14:45:21.600.17-May-2020 5087.01 5604.69 72.18 1.00 397.60 2615.39
   14:45:21.800.17-May-2020 5087.01 5617.43 72.18 1.00 397.80 2615.39
   14:45:22.000.17-May-2020 5087.01 5611.77 72.18 1.00 398.00 2615.39
   14:45:22.200.17-May-2020 5087.01 5611.77 72.18 1.00 398.20 2615.39
   14:45:22.400.17-May-2020 5087.01 5606.18 72.18 1.00 398.40 2615.39
   14:45:22.600.17-May-2020 5087.01 5609.52 72.18 1.00 398.60 2615.39
   14:45:22.800.17-May-2020 5087.01 5611.53 72.18 1.00 398.80 2615.39
   14:45:23.000.17-May-2020 5087.01 5626.15 72.18 1.00 399.00 2615.39
   14:45:23.200.17-May-2020 5087.01 5626.15 72.18 1.00 399.20 2615.39
   14:45:23.400.17-May-2020 5087.01 5606.49 72.18 1.00 399.40 2615.39
   14:45:23.600.17-May-2020 5087.01 5603.59 72.18 1.00 399.60 2615.39
   14:45:23.800.17-May-2020 5087.01 5616.08 72.18 1.00 399.80 2615.39
   14:45:24.000.17-May-2020 5087.01 5609.79 72.18 1.00 400.00 2615.39
   14:45:24.200.17-May-2020 5087.01 5608.17 72.18 1.00 400.20 2615.39
   14:45:24.400.17-May-2020 5087.01 5606.27 72.18 1.00 400.40 2615.39
   14:45:24.600.17-May-2020 5087.01 5607.86 72.18 1.00 400.60 2615.39
   14:45:24.800.17-May-2020 5087.01 5608.87 72.18 1.00 400.80 2615.39
   14:45:25.000.17-May-2020 5087.01 5607.31 72.18 1.00 401.00 2615.39
   14:45:25.200.17-May-2020 5087.01 5607.31 72.18 1.00 401.20 2615.39
   14:45:25.400.17-May-2020 5087.01 5613.40 72.18 1.00 401.40 2615.39
   14:45:25.600.17-May-2020 5087.01 5607.64 72.18 1.00 401.60 2615.39
   14:45:25.800.17-May-2020 5087.01 5603.85 72.18 1.00 401.80 2615.39
   14:45:26.000.17-May-2020 5087.01 5614.83 72.18 1.00 402.00 2615.39
   14:45:26.200.17-May-2020 5087.01 5614.83 72.18 1.00 402.20 2615.39
   14:45:26.400.17-May-2020 5087.01 5614.14 72.18 1.00 402.40 2615.39
   14:45:26.600.17-May-2020 5087.01 5606.48 72.18 1.00 402.60 2615.39
   14:45:26.800.17-May-2020 5087.01 5602.77 72.18 1.00 402.80 2615.39
   14:45:27.000.17-May-2020 5087.01 5629.02 72.18 1.00 403.00 2615.39
   14:45:27.200.17-May-2020 5087.01 5629.02 72.18 1.00 403.20 2615.39
   14:45:27.400.17-May-2020 5087.01 5608.14 72.18 1.00 403.40 2615.39
   14:45:27.600.17-May-2020 5087.01 5618.48 72.18 1.00 403.60 2615.39
   14:45:27.800.17-May-2020 5087.01 5619.88 72.18 1.00 403.80 2615.39
   14:45:28.000.17-May-2020 5087.01 5617.47 72.18 1.00 404.00 2615.39
   14:45:28.200.17-May-2020 5087.01 5609.48 72.17 1.00 404.20 2615.39
   14:45:28.400.17-May-2020 5087.01 5608.33 72.17 1.00 404.40 2615.39
   14:45:28.600.17-May-2020 5087.01 5613.50 72.17 1.00 404.60 2615.39
   14:45:28.800.17-May-2020 5087.01 5612.62 72.17 1.00 404.80 2615.39
   14:45:29.000.17-May-2020 5087.01 5611.36 72.17 1.00 405.00 2615.39
   14:45:29.200.17-May-2020 5087.01 5607.13 72.17 1.00 405.20 2615.39
   14:45:29.400.17-May-2020 5087.01 5609.76 72.17 1.00 405.40 2615.39
   14:45:29.600.17-May-2020 5087.01 5615.81 72.17 1.00 405.60 2615.39
   14:45:29.800.17-May-2020 5087.01 5627.28 72.17 1.00 405.80 2615.39
   14:45:30.000.17-May-2020 5087.01 5607.40 72.17 1.00 406.00 2615.39
   14:45:30.200.17-May-2020 5087.01 5607.40 72.17 1.00 406.20 2615.39
   14:45:30.400.17-May-2020 5087.01 5605.28 72.17 1.00 406.40 2615.39
   14:45:30.600.17-May-2020 5087.01 5615.55 72.17 1.00 406.60 2615.39
   14:45:30.800.17-May-2020 5087.01 5610.18 72.17 1.00 406.80 2615.39
   14:45:31.000.17-May-2020 5087.01 5608.81 72.17 1.00 407.00 2615.39
   14:45:31.200.17-May-2020 5087.01 5608.81 72.17 1.00 407.20 2615.39
   14:45:31.400.17-May-2020 5087.01 5608.02 72.17 1.00 407.40 2615.39
   14:45:31.600.17-May-2020 5087.01 5609.34 72.17 1.00 407.60 2615.39
   14:45:31.800.17-May-2020 5087.01 5608.64 72.17 1.00 407.80 2615.39
   14:45:32.000.17-May-2020 5087.01 5625.06 72.17 1.00 408.00 2615.39
   14:45:32.200.17-May-2020 5087.01 5611.66 72.17 1.00 408.20 2615.39
   14:45:32.400.17-May-2020 5087.01 5608.31 72.17 1.00 408.40 2615.39
   14:45:32.600.17-May-2020 5087.01 5603.50 72.17 1.00 408.60 2615.39
   14:45:32.800.17-May-2020 5087.01 5616.53 72.17 1.00 408.80 2615.39
   14:45:33.000.17-May-2020 5087.01 5630.07 72.17 1.00 409.00 2615.39
   14:45:33.200.17-May-2020 5087.01 5613.77 72.17 1.00 409.20 2615.39
   14:45:33.400.17-May-2020 5087.01 5607.03 72.17 1.00 409.40 2615.39
   14:45:33.600.17-May-2020 5087.01 5602.37 72.17 1.00 409.60 2615.39
   14:45:33.800.17-May-2020 5087.01 5631.97 72.17 1.00 409.80 2615.39
   14:45:34.000.17-May-2020 5087.01 5619.71 72.17 1.00 410.00 2615.39
   14:45:34.200.17-May-2020 5087.01 5619.71 72.17 1.00 410.20 2615.39
   14:45:34.400.17-May-2020 5087.01 5618.60 72.17 1.00 410.40 2615.39
   14:45:34.600.17-May-2020 5087.01 5617.79 72.17 1.00 410.60 2615.39
   14:45:34.800.17-May-2020 5087.01 5616.22 72.17 1.00 410.80 2615.39
   14:45:35.000.17-May-2020 5087.01 5609.70 72.17 1.00 411.00 2615.39
   14:45:35.200.17-May-2020 5087.01 5609.70 72.17 1.00 411.20 2615.39
   14:45:35.400.17-May-2020 5087.01 5611.31 72.16 1.00 411.40 2615.39
   14:45:35.600.17-May-2020 5087.01 5611.83 72.16 1.00 411.60 2615.39
   14:45:35.800.17-May-2020 5087.01 5610.77 72.16 1.00 411.80 2615.39
   14:45:36.000.17-May-2020 5087.01 5608.42 72.16 1.00 412.00 2615.39
   14:45:36.200.17-May-2020 5087.01 5608.97 72.16 1.00 412.20 2615.39
   14:45:36.400.17-May-2020 5087.01 5617.78 72.16 1.00 412.40 2615.39
   14:45:36.600.17-May-2020 5087.01 5624.19 72.16 1.00 412.60 2615.39
   14:45:36.800.17-May-2020 5087.01 5605.68 72.16 1.00 412.80 2615.39
