~Version Information
 VERS.                  2.0:   CWLS log ASCII Standard -VERSION 2.0
 WRAP.                   NO:   One line per depth step
~Well Information Block
#MNEM.UNIT     VALUE/NAME     DESCRIPTION
#---------     -----------    ---------------------------
 STRT.S             21:11:08 17-May-20: START TIME 21:11:08 17-May-20
 STOP.S             21:18:11 17-May-20: STOP TIME  21:18:11 17-May-20
 STEP.S                   0.00: STEP TIME
 NULL.                 -999.25: NULL VALUE
 UNIT.                     N/A:  LOGGING EQUIPMENT ID
 DCON.         Sperry Drilling:  DIRECTNL CONTR
 DOE .                     N/A:  DOE NUMBER
 JOBN.        AZ-XX-0906252240:  JOB TICKET NUMB
 MWDS.                     N/A:  MWD SHOP
 PROV.                    Baku:  PROVINCE
 STAT.                    Baku:  STATE NAME
 REGN.                   EESSA:  REGION
 BASE.              Azerbaijan:  LOGGING EQUIPMENT BASE LOCATION
 UWI .                     N/A:  UNIQUE WELL IDENTIFIER
 API .                     N/A:  API NUMBER
 MDS .        Operator Entered:  MAG DATA SOURCE
 WTYP.                Deviated:  WELL TYPE
 COMP.     BP Exploration (Caspian Sea) Ltd.:  COMPANY
 SRVC.          Turan Drilling:  CONTRACTOR
 WELL.           J23 (Slot 07):  WELL NAME
 CTRY.              Azerbaijan:  COUNTRY NAME
 FLD .                     ACG:  FIELD NAME
 PDAT.          Mean Sea Level:  PERMANENT DATUM
 RIG .             West Chirag:  RIG NAME
 SON .        AZ-XX-0906252240:  JOB NUMBER
 FTOP.          Formation Tops:  FORM TOPS DESC
 ILTD.               Lithology:  INTERP LTH DESC
 SVYD.                  Survey:  SURVEY DESC
 DMOD.             Drill Model:  DRILL MOD DESC
 HPTY.       Minimum Curvature:  HOLE POS TYPE
 NREF.                    Grid:  NORTH REFERENCE
 SPUD.               27-Aug-20:  SPUD DATE
 DATE.      00.00.00 19-May-20:  END TIME
 STIM.      03.00.00 25-Mar-20:  START TIME
 DMF .             Drill Floor:  DRILL MEAS FROM
 DFST.                        :  DIST FSL TEXT
 DFWT.                        :  DIST FWL TEXT
 CNTY.                        :  COUNTY
 LOC .                        :  LOCATION
 LMF .             Drill Floor:  LOG MEASURED FROM
 VSNS.m                   9.43:  VERT SEC N/S
 VSEW.m                  -8.91:  VERT SEC E/W
 AGAP.m                  43.00:  AIR GAP
 DEP .m                 354.17:  DEPTH
 APD .m                  43.00:  DEPTH ABOVE PD
 WDMS.m                 169.80:  WD ELEV
 EGL .m                   0.00:  GROUND ELEVATION
 EPD .m                   0.00:  ELEVATION
 AZTC.deg                 6.31:  AZM TOTAL CORR
 GRDC.deg                 0.14:  GRID CORRECTION
 MDEC.deg                 6.45:  MAGNETIC DECL
 MDIP.deg                59.56:  MAGNETIC DIP
 MFLD.nT              50295.00:  MAGNETIC FIELD
 GVFD.g                   1.00:  GRAVITY FIELD
 VSDR.deg               179.88:  VERT SEC DIRECT
 TDD .m                5150.01:  TOTAL DEPTH (DRILLER)
 SDEP.m                 864.00:  START DEPTH
 DFSL.m                   0.00:  DISTANCE FSL
 DFWL.m                   0.00:  DISTANCE FWL
 UTMY.m             4443793.85:  UTM Y
 UTMX.m              519005.06:  UTM X
 WHEW.m                  -8.91:  WELL HEAD E/W
 WHNS.m                   9.43:  WELL HEAD N/S
 LONG.deg                51.22:  LONGITUDE
 LATI.deg                40.13:  LATITUDE
 TVDS.m                  43.00:  TVDSS CORRECTN
 EKB .m                   0.00:  KB ELEVATION
 EDF .m                  43.00:  DF ELEVATION
 TDL .m                 363.00:  TOTAL DEPTH (LOGGER)
 MAGU.                 1850802:  MAGUTM CHECKSUM
 VSC .                       0:  VS TO CLOSURE
~Parameter Information Block
#MNEM.UNIT       Value        Description
#---------     -----------    ---------------------------
 AV  .mps                 2.30:  Ann Velocity 
 AVMX.mps                 4.40:  Max Ann Veloc 
 AZIF.deg               110.24:  Azm, Final 
 BHAT.        Rotary Steerable:  BHA Type 
 BREV.rev               331.00:  Rev Bit Total 
 BROT.°/30m               0.00:  Build Rotating 
 BS  .in                  8.50:  Bit Size 
 BSZ .in                  8.50:  Bit Size 
 BTPL.psig              585.00:  Bit Press Loss 
 CABU.                     Yes:  Customer Abuse 
 COMM.                     Ô‹p:  Run Comments 1 
 TCS .hr                122.75:  Time Ciculation Ended 
 CV  .mps                 2.67:  Crit Velocity 
 CVMX.mps                 3.56:  Max Crit Veloc 
 DD1 .          Rashad Habibov:  Direct Drillr 1 
 DD2 .         Rasim Ibrahimov:  Direct Drillr 2 
 DDSV.               Geo-Pilot:  DD Service 
 DEFF.%                  98.00:  % Det Eff 
 DLRX.°/30m               0.75:  Dogleg Rot Max 
 DLSO.°/30m               1.25:  Dogleg Oriented 
 DLSX.°/30m               2.06:  Dogleg Str Max 
 DRET.      07.45.00 17-May-20:  Drill End Time 
 DRST.      22.50.00 15-May-20:  Drill Start Tim 
 DTIM.hr                 20.75:  Time Drilling 
 EDEP.m                5124.01:  End Depth 
 ENG1.           Eldar Hajiyev:  Engineer 1 
 ENG2.        Marcelo Sandoval:  Engineer 2 
 ENG3.        Davud huseynzada:  Engineer 3 
 ENG4.          Ruslan Safarov:  Engineer 4 
 ETIM.      04.33.00 23-May-20:  End Time 
 FLOI.gpm               450.00:  Flow In 
 FLON.gpm               400.00:  Flow In Min 
 FLOS.cptm                0.00:  Fluid Loss 
 FLOX.gpm               500.00:  Flow In Max 
 FTRO.       Formation Presure:  FTWD Run Obj 
 HFLO.                      No:  High Flow 
 HPRE.                     Yes:  High Pressure 
 HTEM.                      No:  High Temp 
 HYDO.m                   1.80:  Hydro Offset 
 IFIN.deg                75.06:  Inc, Final 
 IMAX.deg                75.38:  Inc Max 
 IMIN.deg                74.69:  Inc Min 
 IMND.m                5027.38:  Inc Min Depth 
 IMXD.m                4771.61:  Inc Max Depth 
 JARR.                      No:  Jarring 
 LETM.      07.45.00 17-May-20:  Log End Time 
 LOST.hr                     0:  Lost Rig Time 
 LSTM.      22.50.00 15-May-20:  Log Start Time 
 MDCL.ppm             42000.00:  Mud Chlorides 
 MDES.     Inversion Oil/Synthetic:  Mud Desc 
 DFD .sg                  1.34:  Mud Density 
 MDMN.sg                  1.34:  Dens Mud Min 
 MDMX.sg                  1.34:  Dens Mud Max 
 MOIL.                       0:  Run Mud Oil % 
 MOWR.                   67:33:  Run Mud OWR 
 MSND.                       0:  Run Mud Sand % 
 MSOL.                     1.8:  Run Mud Solids% 
 DFV .spqt               76.00:  Mud Viscosity 
 MWOD.in                  6.75:  MWD Tool OD 
 MWSI.                      No:  Serv Intrp, MWD 
 OTIM.hr                228.19:  Time Operating 
 PCON.           Look Like New:  Pad Condition 
 PMAX.psia             6164.70:  Press Op, Max 
 PV  .cP                 28.00:  Mud PV 
 RUN .                     900:  Run Number 
 ROPA.m/hr               19.00:  ROP Avg 
 ROPN.m/hr               11.00:  ROP Min 
 ROPX.m/hr               36.00:  ROP Max 
 RPMA.rpm               120.00:  RPM Surface Avg 
 RPMN.rpm               120.00:  RPM Surface Min 
 RPMX.rpm               120.00:  RPM Surface Max 
 RRUN.                    L604:  Rig Run Number 
 RTIM.hr                  7.00:  Time Reaming 
 SAZI.deg               109.27:  Azm, Start 
 SDEP.m                4761.01:  Start Depth 
 SIDD.                      No:  Serv Intrp, DD 
 SINC.deg                75.38:  Inc, Start 
 SPPA.psig             3574.00:  SPP Avg 
 SPPN.psig             3475.00:  SPP Min 
 SPPX.psig             3791.00:  SPP Max 
 STIM.      07.08.48 13-May-20:  Start Time 
 SVCS.                 DD, MWD:  Services 
 SVER.                    9.20:  Sperry Version 
 TDAT.m                 363.00:  Tot Depth Attmp 
 TDDF.                      No:  Trip for DD 
 TDLG.m                 363.00:  Tot Depth Loggd 
 TFF .                      No:  Trip for Fail 
 TQAA.f-kp               20.00:  Torque Abs Avg 
 TQAN.f-kp               18.00:  Torque Abs Min 
 TQAX.f-kp               22.00:  Torque Abs Max 
 TRRT.°/30m              -0.35:  Turn Rotating 
 MRT .                    HCIM:  Maximum Recorded Temperature 
 TTMX.degC               92.16:  Max Tool Temp 
 VS01.                90586518:  Virtual Str1 SN 
 VS02.        AZ90560654Z1W1C6:  Virtual Str2 SN 
 VS03.           AZ90610398F11:  Virtual Str3 SN 
 VS04.                90514975:  Virtual Str4 SN 
 VS05.                90514972:  Virtual Str5 SN 
 VS06.     AZ90603282F11V7D1A6:  Virtual Str6 SN 
 WBMN.klb                 7.00:  WOB Min 
 WOBA.klb                12.00:  WOB Avg 
 WOBX.klb                14.00:  WOB Max 
 YP  .lhf2               32.00:  Yield Point 
~Curve Information Block
#MNEM.UNIT                 API CODE     Curve Description
#---------               -----------    ---------------------------
 TIME.HHMMSS            00 000 000 000:  GT Time & Date
 GTDEPTH.m              00 000 000 000:  GT Depth
 GTPQH.psia             00 000 000 000:  GT HR Quartz Pressure
 GTTQ.degC              00 000 000 000:  GT Quartz Temperature
 GTTN.NONE              00 000 000 000:  GT Test Number
 GTET.sec               00 000 000 000:  GT Elapsed Test Time
 GTTVD.m                00 000 000 000:  GT True Vertical Depth
#Other Information
#
#WARRANTY: Halliburton will use its best efforts to furnish customers with 
#accurate information and interpretations that are part of, and incident to, the services 
#provided.  However, Halliburton cannot and does not warrant the accuracy 
#or correctness of such information and interpretations.  Under no circumstances should any 
#such information or interpretation be relied upon as the sole basis for any drilling, 
#completion, production, or financial decision or any procedure involving any risk to the 
#safety of any drilling venture, drilling rig or its crew or any other third party.  The 
#Customer has full responsibility for all drilling, completion and production operation.  
#Halliburton makes no representations or warranties, either expressed or 
#implied, including, but not limited to, the implied warranties of merchantability or fitness 
#for a particular purpose, with respect to the services rendered.  In no event will 
#Halliburton be liable for failure to obtain any particular results or for 
#any damages, including, but not limited to, indirect, special or consequential damages, 
#resulting from the use of any information or interpretation provided by Halliburton.
#
~A           TIME           GTDEPTH  GTPQH  GTTQ  GTTN  GTET   GTTVD  
# ...
   21:17:39.144.17-May-2020 4958.01 5548.97 68.06 6.00 390.97 2581.85
   21:17:39.344.17-May-2020 4958.01 5546.24 68.06 6.00 391.17 2581.85
   21:17:39.544.17-May-2020 4958.01 5551.57 68.06 6.00 391.37 2581.85
   21:17:39.744.17-May-2020 4958.01 5540.66 68.06 6.00 391.57 2581.85
   21:17:39.944.17-May-2020 4958.01 5544.44 68.05 6.00 391.77 2581.85
   21:17:40.144.17-May-2020 4958.01 5542.82 68.05 6.00 391.97 2581.85
   21:17:40.344.17-May-2020 4958.01 5542.82 68.05 6.00 392.17 2581.85
   21:17:40.543.17-May-2020 4958.01 5541.47 68.05 6.00 392.37 2581.85
   21:17:40.743.17-May-2020 4958.01 5541.02 68.05 6.00 392.57 2581.85
   21:17:40.943.17-May-2020 4958.01 5541.31 68.05 6.00 392.77 2581.85
   21:17:41.143.17-May-2020 4958.01 5550.60 68.05 6.00 392.97 2581.85
   21:17:41.343.17-May-2020 4958.01 5550.60 68.05 6.00 393.17 2581.85
   21:17:41.543.17-May-2020 4958.01 5548.29 68.05 6.00 393.37 2581.85
   21:17:41.743.17-May-2020 4958.01 5539.22 68.05 6.00 393.57 2581.85
   21:17:41.943.17-May-2020 4958.01 5542.59 68.05 6.00 393.77 2581.85
   21:17:42.143.17-May-2020 4958.01 5540.29 68.05 6.00 393.97 2581.85
   21:17:42.343.17-May-2020 4958.01 5540.29 68.05 6.00 394.17 2581.85
   21:17:42.543.17-May-2020 4958.01 5539.46 68.05 6.00 394.37 2581.85
   21:17:42.743.17-May-2020 4958.01 5539.26 68.05 6.00 394.57 2581.85
   21:17:42.943.17-May-2020 4958.01 5539.42 68.05 6.00 394.77 2581.85
   21:17:43.143.17-May-2020 4958.01 5538.96 68.05 6.00 394.97 2581.85
   21:17:43.343.17-May-2020 4958.01 5554.24 68.05 6.00 395.17 2581.85
   21:17:43.543.17-May-2020 4958.01 5533.36 68.05 6.00 395.37 2581.85
   21:17:43.743.17-May-2020 4958.01 5545.06 68.05 6.00 395.57 2581.85
   21:17:43.943.17-May-2020 4958.01 5543.01 68.05 6.00 395.77 2581.85
   21:17:44.143.17-May-2020 4958.01 5542.27 68.05 6.00 395.97 2581.85
   21:17:44.343.17-May-2020 4958.01 5542.27 68.05 6.00 396.17 2581.85
   21:17:44.543.17-May-2020 4958.01 5535.42 68.05 6.00 396.37 2581.85
   21:17:44.743.17-May-2020 4958.01 5547.56 68.05 6.00 396.57 2581.85
   21:17:44.943.17-May-2020 4958.01 5556.49 68.05 6.00 396.77 2581.85
   21:17:45.143.17-May-2020 4958.01 5540.40 68.05 6.00 396.97 2581.85
   21:17:45.343.17-May-2020 4958.01 5540.40 68.05 6.00 397.17 2581.85
   21:17:45.543.17-May-2020 4958.01 5554.42 68.05 6.00 397.37 2581.85
   21:17:45.743.17-May-2020 4958.01 5542.46 68.05 6.00 397.57 2581.85
   21:17:45.943.17-May-2020 4958.01 5547.78 68.05 6.00 397.77 2581.85
   21:17:46.143.17-May-2020 4958.01 5549.50 68.05 6.00 397.97 2581.85
   21:17:46.343.17-May-2020 4958.01 5549.50 68.05 6.00 398.17 2581.85
   21:17:46.543.17-May-2020 4958.01 5544.03 68.05 6.00 398.37 2581.85
   21:17:46.743.17-May-2020 4958.01 5542.76 68.05 6.00 398.57 2581.85
   21:17:46.943.17-May-2020 4958.01 5542.74 68.04 6.00 398.77 2581.85
   21:17:47.143.17-May-2020 4958.01 5541.72 68.04 6.00 398.97 2581.85
   21:17:47.343.17-May-2020 4958.01 5541.45 68.04 6.00 399.17 2581.85
   21:17:47.543.17-May-2020 4958.01 5544.04 68.04 6.00 399.37 2581.85
   21:17:47.743.17-May-2020 4958.01 5548.95 68.04 6.00 399.57 2581.85
   21:17:47.943.17-May-2020 4958.01 5542.99 68.04 6.00 399.77 2581.85
   21:17:48.143.17-May-2020 4958.01 5549.19 68.04 6.00 399.97 2581.85
   21:17:48.343.17-May-2020 4958.01 5549.19 68.04 6.00 400.17 2581.85
   21:17:48.543.17-May-2020 4958.01 5542.77 68.04 6.00 400.37 2581.85
   21:17:48.743.17-May-2020 4958.01 5540.87 68.04 6.00 400.57 2581.85
   21:17:48.943.17-May-2020 4958.01 5539.53 68.04 6.00 400.77 2581.85
   21:17:49.143.17-May-2020 4958.01 5539.85 68.04 6.00 400.97 2581.85
   21:17:49.343.17-May-2020 4958.01 5539.85 68.04 6.00 401.17 2581.85
   21:17:49.543.17-May-2020 4958.01 5539.77 68.04 6.00 401.37 2581.85
   21:17:49.743.17-May-2020 4958.01 5539.43 68.04 6.00 401.57 2581.85
   21:17:49.943.17-May-2020 4958.01 5551.05 68.04 6.00 401.77 2581.85
   21:17:50.143.17-May-2020 4958.01 5536.48 68.04 6.00 401.97 2581.85
   21:17:50.343.17-May-2020 4958.01 5536.48 68.04 6.00 402.17 2581.85
   21:17:50.543.17-May-2020 4958.01 5541.18 68.04 6.00 402.37 2581.85
   21:17:50.743.17-May-2020 4958.01 5544.00 68.04 6.00 402.57 2581.85
   21:17:50.943.17-May-2020 4958.01 5549.89 68.04 6.00 402.77 2581.85
   21:17:51.143.17-May-2020 4958.01 5541.72 68.04 6.00 402.97 2581.85
   21:17:51.343.17-May-2020 4958.01 5541.72 68.04 6.00 403.17 2581.85
   21:17:51.543.17-May-2020 4958.01 5554.37 68.04 6.00 403.37 2581.85
   21:17:51.743.17-May-2020 4958.01 5538.78 68.04 6.00 403.57 2581.85
   21:17:51.943.17-May-2020 4958.01 5548.65 68.04 6.00 403.77 2581.85
   21:17:52.143.17-May-2020 4958.01 5543.24 68.04 6.00 403.97 2581.85
   21:17:52.343.17-May-2020 4958.01 5543.24 68.04 6.00 404.17 2581.85
   21:17:52.543.17-May-2020 4958.01 5544.04 68.04 6.00 404.37 2581.85
   21:17:52.743.17-May-2020 4958.01 5551.22 68.04 6.00 404.57 2581.85
   21:17:52.943.17-May-2020 4958.01 5542.87 68.04 6.00 404.77 2581.85
   21:17:53.143.17-May-2020 4958.01 5545.50 68.04 6.00 404.97 2581.85
   21:17:53.343.17-May-2020 4958.01 5545.50 68.04 6.00 405.17 2581.85
   21:17:53.542.17-May-2020 4958.01 5541.61 68.04 6.00 405.37 2581.85
   21:17:53.742.17-May-2020 4958.01 5542.51 68.04 6.00 405.57 2581.85
   21:17:53.942.17-May-2020 4958.01 5541.89 68.04 6.00 405.77 2581.85
   21:17:54.142.17-May-2020 4958.01 5542.07 68.04 6.00 405.97 2581.85
   21:17:54.342.17-May-2020 4958.01 5554.89 68.04 6.00 406.17 2581.85
   21:17:54.542.17-May-2020 4958.01 5537.44 68.04 6.00 406.37 2581.85
   21:17:54.742.17-May-2020 4958.01 5547.95 68.04 6.00 406.57 2581.85
   21:17:54.942.17-May-2020 4958.01 5542.30 68.04 6.00 406.77 2581.85
   21:17:55.142.17-May-2020 4958.01 5542.96 68.03 6.00 406.97 2581.85
   21:17:55.342.17-May-2020 4958.01 5541.39 68.03 6.00 407.17 2581.85
   21:17:55.542.17-May-2020 4958.01 5539.58 68.03 6.00 407.37 2581.85
   21:17:55.742.17-May-2020 4958.01 5540.41 68.03 6.00 407.57 2581.85
   21:17:55.942.17-May-2020 4958.01 5539.42 68.03 6.00 407.77 2581.85
   21:17:56.142.17-May-2020 4958.01 5539.80 68.03 6.00 407.97 2581.85
   21:17:56.342.17-May-2020 4958.01 5539.80 68.03 6.00 408.17 2581.85
   21:17:56.542.17-May-2020 4958.01 5554.18 68.03 6.00 408.37 2581.85
   21:17:56.742.17-May-2020 4958.01 5534.56 68.03 6.00 408.57 2581.85
   21:17:56.942.17-May-2020 4958.01 5543.68 68.03 6.00 408.77 2581.85
   21:17:57.142.17-May-2020 4958.01 5544.32 68.03 6.00 408.97 2581.85
   21:17:57.342.17-May-2020 4958.01 5544.32 68.03 6.00 409.17 2581.85
   21:17:57.542.17-May-2020 4958.01 5559.37 68.03 6.00 409.37 2581.85
   21:17:57.742.17-May-2020 4958.01 5535.03 68.03 6.00 409.57 2581.85
   21:17:57.942.17-May-2020 4958.01 5546.11 68.03 6.00 409.77 2581.85
   21:17:58.142.17-May-2020 4958.01 5557.76 68.03 6.00 409.97 2581.85
   21:17:58.342.17-May-2020 4958.01 5539.61 68.03 6.00 410.17 2581.85
   21:17:58.542.17-May-2020 4958.01 5548.05 68.03 6.00 410.37 2581.85
   21:17:58.742.17-May-2020 4958.01 5546.46 68.03 6.00 410.57 2581.85
   21:17:58.942.17-May-2020 4958.01 5554.27 68.03 6.00 410.77 2581.85
   21:17:59.142.17-May-2020 4958.01 5541.98 68.03 6.00 410.97 2581.85
   21:17:59.342.17-May-2020 4958.01 5547.35 68.03 6.00 411.17 2581.85
   21:17:59.542.17-May-2020 4958.01 5549.16 68.03 6.00 411.37 2581.85
   21:17:59.742.17-May-2020 4958.01 5541.41 68.03 6.00 411.57 2581.85
   21:17:59.942.17-May-2020 4958.01 5544.59 68.03 6.00 411.77 2581.85
   21:18:00.142.17-May-2020 4958.01 5543.05 68.03 6.00 411.97 2581.85
   21:18:00.342.17-May-2020 4958.01 5543.05 68.03 6.00 412.17 2581.85
   21:18:00.542.17-May-2020 4958.01 5541.57 68.03 6.00 412.37 2581.85
   21:18:00.742.17-May-2020 4958.01 5541.48 68.03 6.00 412.57 2581.85
   21:18:00.942.17-May-2020 4958.01 5547.13 68.03 6.00 412.77 2581.85
   21:18:01.142.17-May-2020 4958.01 5544.76 68.03 6.00 412.97 2581.85
   21:18:01.342.17-May-2020 4958.01 5544.76 68.03 6.00 413.17 2581.85
   21:18:01.542.17-May-2020 4958.01 5548.31 68.03 6.00 413.37 2581.85
   21:18:01.742.17-May-2020 4958.01 5538.48 68.03 6.00 413.57 2581.85
   21:18:01.942.17-May-2020 4958.01 5542.26 68.03 6.00 413.77 2581.85
