~Version Information
 VERS.                  2.0:   CWLS log ASCII Standard -VERSION 2.0
 WRAP.                   NO:   One line per depth step
~Well Information Block
#MNEM.UNIT     VALUE/NAME     DESCRIPTION
#---------     -----------    ---------------------------
 STRT.S             21:11:08 17-May-20: START TIME 21:11:08 17-May-20
 STOP.S             21:18:11 17-May-20: STOP TIME  21:18:11 17-May-20
 STEP.S                   0.00: STEP TIME
 NULL.                 -999.25: NULL VALUE
 UNIT.                     N/A:  LOGGING EQUIPMENT ID
 DCON.         Sperry Drilling:  DIRECTNL CONTR
 DOE .                     N/A:  DOE NUMBER
 JOBN.        AZ-XX-0906252240:  JOB TICKET NUMB
 MWDS.                     N/A:  MWD SHOP
 PROV.                    Baku:  PROVINCE
 STAT.                    Baku:  STATE NAME
 REGN.                   EESSA:  REGION
 BASE.              Azerbaijan:  LOGGING EQUIPMENT BASE LOCATION
 UWI .                     N/A:  UNIQUE WELL IDENTIFIER
 API .                     N/A:  API NUMBER
 MDS .        Operator Entered:  MAG DATA SOURCE
 WTYP.                Deviated:  WELL TYPE
 COMP.     BP Exploration (Caspian Sea) Ltd.:  COMPANY
 SRVC.          Turan Drilling:  CONTRACTOR
 WELL.           J23 (Slot 07):  WELL NAME
 CTRY.              Azerbaijan:  COUNTRY NAME
 FLD .                     ACG:  FIELD NAME
 PDAT.          Mean Sea Level:  PERMANENT DATUM
 RIG .             West Chirag:  RIG NAME
 SON .        AZ-XX-0906252240:  JOB NUMBER
 FTOP.          Formation Tops:  FORM TOPS DESC
 ILTD.               Lithology:  INTERP LTH DESC
 SVYD.                  Survey:  SURVEY DESC
 DMOD.             Drill Model:  DRILL MOD DESC
 HPTY.       Minimum Curvature:  HOLE POS TYPE
 NREF.                    Grid:  NORTH REFERENCE
 SPUD.               27-Aug-20:  SPUD DATE
 DATE.      00.00.00 19-May-20:  END TIME
 STIM.      03.00.00 25-Mar-20:  START TIME
 DMF .             Drill Floor:  DRILL MEAS FROM
 DFST.                        :  DIST FSL TEXT
 DFWT.                        :  DIST FWL TEXT
 CNTY.                        :  COUNTY
 LOC .                        :  LOCATION
 LMF .             Drill Floor:  LOG MEASURED FROM
 VSNS.m                   9.43:  VERT SEC N/S
 VSEW.m                  -8.91:  VERT SEC E/W
 AGAP.m                  43.00:  AIR GAP
 DEP .m                 354.17:  DEPTH
 APD .m                  43.00:  DEPTH ABOVE PD
 WDMS.m                 169.80:  WD ELEV
 EGL .m                   0.00:  GROUND ELEVATION
 EPD .m                   0.00:  ELEVATION
 AZTC.deg                 6.31:  AZM TOTAL CORR
 GRDC.deg                 0.14:  GRID CORRECTION
 MDEC.deg                 6.45:  MAGNETIC DECL
 MDIP.deg                59.56:  MAGNETIC DIP
 MFLD.nT              50295.00:  MAGNETIC FIELD
 GVFD.g                   1.00:  GRAVITY FIELD
 VSDR.deg               179.88:  VERT SEC DIRECT
 TDD .m                5150.01:  TOTAL DEPTH (DRILLER)
 SDEP.m                 864.00:  START DEPTH
 DFSL.m                   0.00:  DISTANCE FSL
 DFWL.m                   0.00:  DISTANCE FWL
 UTMY.m             4443793.85:  UTM Y
 UTMX.m              519005.06:  UTM X
 WHEW.m                  -8.91:  WELL HEAD E/W
 WHNS.m                   9.43:  WELL HEAD N/S
 LONG.deg                51.22:  LONGITUDE
 LATI.deg                40.13:  LATITUDE
 TVDS.m                  43.00:  TVDSS CORRECTN
 EKB .m                   0.00:  KB ELEVATION
 EDF .m                  43.00:  DF ELEVATION
 TDL .m                 363.00:  TOTAL DEPTH (LOGGER)
 MAGU.                 1850802:  MAGUTM CHECKSUM
 VSC .                       0:  VS TO CLOSURE
~Parameter Information Block
#MNEM.UNIT       Value        Description
#---------     -----------    ---------------------------
 AV  .mps                 2.30:  Ann Velocity 
 AVMX.mps                 4.40:  Max Ann Veloc 
 AZIF.deg               110.24:  Azm, Final 
 BHAT.        Rotary Steerable:  BHA Type 
 BREV.rev               331.00:  Rev Bit Total 
 BROT.°/30m               0.00:  Build Rotating 
 BS  .in                  8.50:  Bit Size 
 BSZ .in                  8.50:  Bit Size 
 BTPL.psig              585.00:  Bit Press Loss 
 CABU.                     Yes:  Customer Abuse 
 COMM.                     Ô‹p:  Run Comments 1 
 TCS .hr                122.75:  Time Ciculation Ended 
 CV  .mps                 2.67:  Crit Velocity 
 CVMX.mps                 3.56:  Max Crit Veloc 
 DD1 .          Rashad Habibov:  Direct Drillr 1 
 DD2 .         Rasim Ibrahimov:  Direct Drillr 2 
 DDSV.               Geo-Pilot:  DD Service 
 DEFF.%                  98.00:  % Det Eff 
 DLRX.°/30m               0.75:  Dogleg Rot Max 
 DLSO.°/30m               1.25:  Dogleg Oriented 
 DLSX.°/30m               2.06:  Dogleg Str Max 
 DRET.      07.45.00 17-May-20:  Drill End Time 
 DRST.      22.50.00 15-May-20:  Drill Start Tim 
 DTIM.hr                 20.75:  Time Drilling 
 EDEP.m                5124.01:  End Depth 
 ENG1.           Eldar Hajiyev:  Engineer 1 
 ENG2.        Marcelo Sandoval:  Engineer 2 
 ENG3.        Davud huseynzada:  Engineer 3 
 ENG4.          Ruslan Safarov:  Engineer 4 
 ETIM.      04.33.00 23-May-20:  End Time 
 FLOI.gpm               450.00:  Flow In 
 FLON.gpm               400.00:  Flow In Min 
 FLOS.cptm                0.00:  Fluid Loss 
 FLOX.gpm               500.00:  Flow In Max 
 FTRO.       Formation Presure:  FTWD Run Obj 
 HFLO.                      No:  High Flow 
 HPRE.                     Yes:  High Pressure 
 HTEM.                      No:  High Temp 
 HYDO.m                   1.80:  Hydro Offset 
 IFIN.deg                75.06:  Inc, Final 
 IMAX.deg                75.38:  Inc Max 
 IMIN.deg                74.69:  Inc Min 
 IMND.m                5027.38:  Inc Min Depth 
 IMXD.m                4771.61:  Inc Max Depth 
 JARR.                      No:  Jarring 
 LETM.      07.45.00 17-May-20:  Log End Time 
 LOST.hr                     0:  Lost Rig Time 
 LSTM.      22.50.00 15-May-20:  Log Start Time 
 MDCL.ppm             42000.00:  Mud Chlorides 
 MDES.     Inversion Oil/Synthetic:  Mud Desc 
 DFD .sg                  1.34:  Mud Density 
 MDMN.sg                  1.34:  Dens Mud Min 
 MDMX.sg                  1.34:  Dens Mud Max 
 MOIL.                       0:  Run Mud Oil % 
 MOWR.                   67:33:  Run Mud OWR 
 MSND.                       0:  Run Mud Sand % 
 MSOL.                     1.8:  Run Mud Solids% 
 DFV .spqt               76.00:  Mud Viscosity 
 MWOD.in                  6.75:  MWD Tool OD 
 MWSI.                      No:  Serv Intrp, MWD 
 OTIM.hr                228.19:  Time Operating 
 PCON.           Look Like New:  Pad Condition 
 PMAX.psia             6164.70:  Press Op, Max 
 PV  .cP                 28.00:  Mud PV 
 RUN .                     900:  Run Number 
 ROPA.m/hr               19.00:  ROP Avg 
 ROPN.m/hr               11.00:  ROP Min 
 ROPX.m/hr               36.00:  ROP Max 
 RPMA.rpm               120.00:  RPM Surface Avg 
 RPMN.rpm               120.00:  RPM Surface Min 
 RPMX.rpm               120.00:  RPM Surface Max 
 RRUN.                    L604:  Rig Run Number 
 RTIM.hr                  7.00:  Time Reaming 
 SAZI.deg               109.27:  Azm, Start 
 SDEP.m                4761.01:  Start Depth 
 SIDD.                      No:  Serv Intrp, DD 
 SINC.deg                75.38:  Inc, Start 
 SPPA.psig             3574.00:  SPP Avg 
 SPPN.psig             3475.00:  SPP Min 
 SPPX.psig             3791.00:  SPP Max 
 STIM.      07.08.48 13-May-20:  Start Time 
 SVCS.                 DD, MWD:  Services 
 SVER.                    9.20:  Sperry Version 
 TDAT.m                 363.00:  Tot Depth Attmp 
 TDDF.                      No:  Trip for DD 
 TDLG.m                 363.00:  Tot Depth Loggd 
 TFF .                      No:  Trip for Fail 
 TQAA.f-kp               20.00:  Torque Abs Avg 
 TQAN.f-kp               18.00:  Torque Abs Min 
 TQAX.f-kp               22.00:  Torque Abs Max 
 TRRT.°/30m              -0.35:  Turn Rotating 
 MRT .                    HCIM:  Maximum Recorded Temperature 
 TTMX.degC               92.16:  Max Tool Temp 
 VS01.                90586518:  Virtual Str1 SN 
 VS02.        AZ90560654Z1W1C6:  Virtual Str2 SN 
 VS03.           AZ90610398F11:  Virtual Str3 SN 
 VS04.                90514975:  Virtual Str4 SN 
 VS05.                90514972:  Virtual Str5 SN 
 VS06.     AZ90603282F11V7D1A6:  Virtual Str6 SN 
 WBMN.klb                 7.00:  WOB Min 
 WOBA.klb                12.00:  WOB Avg 
 WOBX.klb                14.00:  WOB Max 
 YP  .lhf2               32.00:  Yield Point 
~Curve Information Block
#MNEM.UNIT                 API CODE     Curve Description
#---------               -----------    ---------------------------
 TIME.HHMMSS            00 000 000 000:  GT Time & Date
 GTDEPTH.m              00 000 000 000:  GT Depth
 GTPQH.psia             00 000 000 000:  GT HR Quartz Pressure
 GTTQ.degC              00 000 000 000:  GT Quartz Temperature
 GTTN.NONE              00 000 000 000:  GT Test Number
 GTET.sec               00 000 000 000:  GT Elapsed Test Time
 GTTVD.m                00 000 000 000:  GT True Vertical Depth
#Other Information
#
#WARRANTY: Halliburton will use its best efforts to furnish customers with 
#accurate information and interpretations that are part of, and incident to, the services 
#provided.  However, Halliburton cannot and does not warrant the accuracy 
#or correctness of such information and interpretations.  Under no circumstances should any 
#such information or interpretation be relied upon as the sole basis for any drilling, 
#completion, production, or financial decision or any procedure involving any risk to the 
#safety of any drilling venture, drilling rig or its crew or any other third party.  The 
#Customer has full responsibility for all drilling, completion and production operation.  
#Halliburton makes no representations or warranties, either expressed or 
#implied, including, but not limited to, the implied warranties of merchantability or fitness 
#for a particular purpose, with respect to the services rendered.  In no event will 
#Halliburton be liable for failure to obtain any particular results or for 
#any damages, including, but not limited to, indirect, special or consequential damages, 
#resulting from the use of any information or interpretation provided by Halliburton.
#
~A           TIME           GTDEPTH  GTPQH  GTTQ  GTTN  GTET   GTTVD  
# ...
   21:14:58.156.17-May-2020 4958.01 2923.88 68.05 6.00 229.98 2581.85
   21:14:58.356.17-May-2020 4958.01 2923.88 68.05 6.00 230.18 2581.85
   21:14:58.556.17-May-2020 4958.01 2923.89 68.05 6.00 230.38 2581.85
   21:14:58.756.17-May-2020 4958.01 2923.89 68.05 6.00 230.58 2581.85
   21:14:58.956.17-May-2020 4958.01 2923.91 68.05 6.00 230.78 2581.85
   21:14:59.156.17-May-2020 4958.01 2923.91 68.05 6.00 230.98 2581.85
   21:14:59.356.17-May-2020 4958.01 2923.90 68.05 6.00 231.18 2581.85
   21:14:59.556.17-May-2020 4958.01 2923.99 68.05 6.00 231.38 2581.85
   21:14:59.756.17-May-2020 4958.01 2923.86 68.05 6.00 231.58 2581.85
   21:14:59.956.17-May-2020 4958.01 2923.90 68.05 6.00 231.78 2581.85
   21:15:00.156.17-May-2020 4958.01 2923.91 68.05 6.00 231.98 2581.85
   21:15:00.356.17-May-2020 4958.01 2923.91 68.05 6.00 232.18 2581.85
   21:15:00.556.17-May-2020 4958.01 2923.83 68.05 6.00 232.38 2581.85
   21:15:00.756.17-May-2020 4958.01 2923.90 68.05 6.00 232.58 2581.85
   21:15:00.956.17-May-2020 4958.01 2923.91 68.05 6.00 232.78 2581.85
   21:15:01.156.17-May-2020 4958.01 2923.91 68.05 6.00 232.98 2581.85
   21:15:01.356.17-May-2020 4958.01 2923.91 68.05 6.00 233.18 2581.85
   21:15:01.556.17-May-2020 4958.01 2923.91 68.05 6.00 233.38 2581.85
   21:15:01.756.17-May-2020 4958.01 2923.94 68.05 6.00 233.58 2581.85
   21:15:01.956.17-May-2020 4958.01 2923.86 68.05 6.00 233.78 2581.85
   21:15:02.156.17-May-2020 4958.01 2923.98 68.05 6.00 233.98 2581.85
   21:15:02.356.17-May-2020 4958.01 2923.98 68.05 6.00 234.18 2581.85
   21:15:02.556.17-May-2020 4958.01 2923.94 68.05 6.00 234.38 2581.85
   21:15:02.756.17-May-2020 4958.01 2923.91 68.05 6.00 234.58 2581.85
   21:15:02.956.17-May-2020 4958.01 2923.88 68.05 6.00 234.78 2581.85
   21:15:03.156.17-May-2020 4958.01 2923.90 68.05 6.00 234.98 2581.85
   21:15:03.356.17-May-2020 4958.01 2923.90 68.05 6.00 235.18 2581.85
   21:15:03.556.17-May-2020 4958.01 2923.90 68.05 6.00 235.38 2581.85
   21:15:03.756.17-May-2020 4958.01 2923.89 68.05 6.00 235.58 2581.85
   21:15:03.956.17-May-2020 4958.01 2923.90 68.05 6.00 235.78 2581.85
   21:15:04.156.17-May-2020 4958.01 2923.89 68.05 6.00 235.98 2581.85
   21:15:04.356.17-May-2020 4958.01 2923.89 68.05 6.00 236.18 2581.85
   21:15:04.556.17-May-2020 4958.01 2923.82 68.05 6.00 236.38 2581.85
   21:15:04.756.17-May-2020 4958.01 2923.92 68.05 6.00 236.58 2581.85
   21:15:04.956.17-May-2020 4958.01 2923.90 68.05 6.00 236.78 2581.85
   21:15:05.156.17-May-2020 4958.01 2923.90 68.05 6.00 236.98 2581.85
   21:15:05.355.17-May-2020 4958.01 2923.90 68.05 6.00 237.18 2581.85
   21:15:05.555.17-May-2020 4958.01 2923.89 68.05 6.00 237.38 2581.85
   21:15:05.755.17-May-2020 4958.01 2923.90 68.05 6.00 237.58 2581.85
   21:15:05.955.17-May-2020 4958.01 2923.89 68.05 6.00 237.78 2581.85
   21:15:06.155.17-May-2020 4958.01 2923.89 68.05 6.00 237.98 2581.85
   21:15:06.355.17-May-2020 4958.01 2923.89 68.05 6.00 238.18 2581.85
   21:15:06.555.17-May-2020 4958.01 2923.84 68.05 6.00 238.38 2581.85
   21:15:06.755.17-May-2020 4958.01 2923.92 68.05 6.00 238.58 2581.85
   21:15:06.955.17-May-2020 4958.01 2923.90 68.05 6.00 238.78 2581.85
   21:15:07.155.17-May-2020 4958.01 2923.93 68.05 6.00 238.98 2581.85
   21:15:07.355.17-May-2020 4958.01 2923.93 68.05 6.00 239.18 2581.85
   21:15:07.555.17-May-2020 4958.01 2923.93 68.05 6.00 239.38 2581.85
   21:15:07.755.17-May-2020 4958.01 2923.90 68.05 6.00 239.58 2581.85
   21:15:07.955.17-May-2020 4958.01 2923.88 68.05 6.00 239.78 2581.85
   21:15:08.155.17-May-2020 4958.01 2923.90 68.05 6.00 239.98 2581.85
   21:15:08.355.17-May-2020 4958.01 2923.90 68.05 6.00 240.18 2581.85
   21:15:08.555.17-May-2020 4958.01 2923.94 68.05 6.00 240.38 2581.85
   21:15:08.755.17-May-2020 4958.01 2923.87 68.05 6.00 240.58 2581.85
   21:15:08.955.17-May-2020 4958.01 2923.91 68.05 6.00 240.78 2581.85
   21:15:09.155.17-May-2020 4958.01 2923.92 68.05 6.00 240.98 2581.85
   21:15:09.355.17-May-2020 4958.01 2923.92 68.05 6.00 241.18 2581.85
   21:15:09.555.17-May-2020 4958.01 2923.92 68.05 6.00 241.38 2581.85
   21:15:09.755.17-May-2020 4958.01 2923.85 68.05 6.00 241.58 2581.85
   21:15:09.955.17-May-2020 4958.01 2923.90 68.05 6.00 241.78 2581.85
   21:15:10.155.17-May-2020 4958.01 2923.89 68.05 6.00 241.98 2581.85
   21:15:10.355.17-May-2020 4958.01 2923.89 68.05 6.00 242.18 2581.85
   21:15:10.555.17-May-2020 4958.01 2923.89 68.05 6.00 242.38 2581.85
   21:15:10.755.17-May-2020 4958.01 2923.89 68.05 6.00 242.58 2581.85
   21:15:10.955.17-May-2020 4958.01 2923.89 68.05 6.00 242.78 2581.85
   21:15:11.155.17-May-2020 4958.01 2924.00 68.05 6.00 242.98 2581.85
   21:15:11.355.17-May-2020 4958.01 2924.00 68.05 6.00 243.18 2581.85
   21:15:11.555.17-May-2020 4958.01 2923.90 68.05 6.00 243.38 2581.85
   21:15:11.755.17-May-2020 4958.01 2923.89 68.05 6.00 243.58 2581.85
   21:15:11.955.17-May-2020 4958.01 2923.89 68.05 6.00 243.78 2581.85
   21:15:12.155.17-May-2020 4958.01 2923.90 68.05 6.00 243.98 2581.85
   21:15:12.355.17-May-2020 4958.01 2923.90 68.05 6.00 244.18 2581.85
   21:15:12.555.17-May-2020 4958.01 2923.89 68.05 6.00 244.38 2581.85
   21:15:12.755.17-May-2020 4958.01 2923.89 68.05 6.00 244.58 2581.85
   21:15:12.955.17-May-2020 4958.01 2923.89 68.05 6.00 244.78 2581.85
   21:15:13.155.17-May-2020 4958.01 2923.89 68.05 6.00 244.98 2581.85
   21:15:13.355.17-May-2020 4958.01 2923.89 68.05 6.00 245.18 2581.85
   21:15:13.555.17-May-2020 4958.01 2923.91 68.05 6.00 245.38 2581.85
   21:15:13.755.17-May-2020 4958.01 2923.92 68.05 6.00 245.58 2581.85
   21:15:13.955.17-May-2020 4958.01 2923.86 68.05 6.00 245.78 2581.85
   21:15:14.155.17-May-2020 4958.01 2923.90 68.05 6.00 245.98 2581.85
   21:15:14.355.17-May-2020 4958.01 2923.90 68.05 6.00 246.18 2581.85
   21:15:14.555.17-May-2020 4958.01 2923.93 68.05 6.00 246.38 2581.85
   21:15:14.755.17-May-2020 4958.01 2923.86 68.05 6.00 246.58 2581.85
   21:15:14.955.17-May-2020 4958.01 2923.99 68.05 6.00 246.78 2581.85
   21:15:15.155.17-May-2020 4958.01 2923.80 68.05 6.00 246.98 2581.85
   21:15:15.355.17-May-2020 4958.01 2923.80 68.05 6.00 247.18 2581.85
   21:15:15.555.17-May-2020 4958.01 2923.88 68.05 6.00 247.38 2581.85
   21:15:15.755.17-May-2020 4958.01 2923.91 68.05 6.00 247.58 2581.85
   21:15:15.955.17-May-2020 4958.01 2923.90 68.05 6.00 247.78 2581.85
   21:15:16.155.17-May-2020 4958.01 2923.89 68.05 6.00 247.98 2581.85
   21:15:16.355.17-May-2020 4958.01 2923.89 68.05 6.00 248.18 2581.85
   21:15:16.555.17-May-2020 4958.01 2923.85 68.04 6.00 248.38 2581.85
   21:15:16.755.17-May-2020 4958.01 2923.90 68.04 6.00 248.58 2581.85
   21:15:16.955.17-May-2020 4958.01 2923.87 68.04 6.00 248.78 2581.85
   21:15:17.155.17-May-2020 4958.01 2923.88 68.04 6.00 248.98 2581.85
   21:15:17.355.17-May-2020 4958.01 2923.88 68.04 6.00 249.18 2581.85
   21:15:17.555.17-May-2020 4958.01 2923.88 68.04 6.00 249.38 2581.85
   21:15:17.755.17-May-2020 4958.01 2923.88 68.04 6.00 249.58 2581.85
   21:15:17.955.17-May-2020 4958.01 2923.94 68.04 6.00 249.78 2581.85
   21:15:18.154.17-May-2020 4958.01 2923.86 68.04 6.00 249.98 2581.85
   21:15:18.354.17-May-2020 4958.01 2923.86 68.04 6.00 250.18 2581.85
   21:15:18.554.17-May-2020 4958.01 2923.89 68.04 6.00 250.38 2581.85
   21:15:18.754.17-May-2020 4958.01 2923.87 68.04 6.00 250.58 2581.85
   21:15:18.954.17-May-2020 4958.01 2923.89 68.04 6.00 250.78 2581.85
   21:15:19.154.17-May-2020 4958.01 2923.88 68.04 6.00 250.98 2581.85
   21:15:19.354.17-May-2020 4958.01 2923.88 68.04 6.00 251.18 2581.85
   21:15:19.554.17-May-2020 4958.01 2923.88 68.04 6.00 251.38 2581.85
   21:15:19.754.17-May-2020 4958.01 2923.89 68.04 6.00 251.58 2581.85
   21:15:19.954.17-May-2020 4958.01 2923.88 68.04 6.00 251.78 2581.85
   21:15:20.154.17-May-2020 4958.01 2923.89 68.04 6.00 251.98 2581.85
   21:15:20.354.17-May-2020 4958.01 2923.89 68.04 6.00 252.18 2581.85
   21:15:20.554.17-May-2020 4958.01 2923.93 68.04 6.00 252.38 2581.85
   21:15:20.754.17-May-2020 4958.01 2923.86 68.04 6.00 252.58 2581.85
   21:15:20.954.17-May-2020 4958.01 2923.94 68.04 6.00 252.78 2581.85
