~Version Information
 VERS.                  2.0:   CWLS log ASCII Standard -VERSION 2.0
 WRAP.                   NO:   One line per depth step
~Well Information Block
#MNEM.UNIT     VALUE/NAME     DESCRIPTION
#---------     -----------    ---------------------------
 STRT.S             21:11:08 17-May-20: START TIME 21:11:08 17-May-20
 STOP.S             21:18:11 17-May-20: STOP TIME  21:18:11 17-May-20
 STEP.S                   0.00: STEP TIME
 NULL.                 -999.25: NULL VALUE
 UNIT.                     N/A:  LOGGING EQUIPMENT ID
 DCON.         Sperry Drilling:  DIRECTNL CONTR
 DOE .                     N/A:  DOE NUMBER
 JOBN.        AZ-XX-0906252240:  JOB TICKET NUMB
 MWDS.                     N/A:  MWD SHOP
 PROV.                    Baku:  PROVINCE
 STAT.                    Baku:  STATE NAME
 REGN.                   EESSA:  REGION
 BASE.              Azerbaijan:  LOGGING EQUIPMENT BASE LOCATION
 UWI .                     N/A:  UNIQUE WELL IDENTIFIER
 API .                     N/A:  API NUMBER
 MDS .        Operator Entered:  MAG DATA SOURCE
 WTYP.                Deviated:  WELL TYPE
 COMP.     BP Exploration (Caspian Sea) Ltd.:  COMPANY
 SRVC.          Turan Drilling:  CONTRACTOR
 WELL.           J23 (Slot 07):  WELL NAME
 CTRY.              Azerbaijan:  COUNTRY NAME
 FLD .                     ACG:  FIELD NAME
 PDAT.          Mean Sea Level:  PERMANENT DATUM
 RIG .             West Chirag:  RIG NAME
 SON .        AZ-XX-0906252240:  JOB NUMBER
 FTOP.          Formation Tops:  FORM TOPS DESC
 ILTD.               Lithology:  INTERP LTH DESC
 SVYD.                  Survey:  SURVEY DESC
 DMOD.             Drill Model:  DRILL MOD DESC
 HPTY.       Minimum Curvature:  HOLE POS TYPE
 NREF.                    Grid:  NORTH REFERENCE
 SPUD.               27-Aug-20:  SPUD DATE
 DATE.      00.00.00 19-May-20:  END TIME
 STIM.      03.00.00 25-Mar-20:  START TIME
 DMF .             Drill Floor:  DRILL MEAS FROM
 DFST.                        :  DIST FSL TEXT
 DFWT.                        :  DIST FWL TEXT
 CNTY.                        :  COUNTY
 LOC .                        :  LOCATION
 LMF .             Drill Floor:  LOG MEASURED FROM
 VSNS.m                   9.43:  VERT SEC N/S
 VSEW.m                  -8.91:  VERT SEC E/W
 AGAP.m                  43.00:  AIR GAP
 DEP .m                 354.17:  DEPTH
 APD .m                  43.00:  DEPTH ABOVE PD
 WDMS.m                 169.80:  WD ELEV
 EGL .m                   0.00:  GROUND ELEVATION
 EPD .m                   0.00:  ELEVATION
 AZTC.deg                 6.31:  AZM TOTAL CORR
 GRDC.deg                 0.14:  GRID CORRECTION
 MDEC.deg                 6.45:  MAGNETIC DECL
 MDIP.deg                59.56:  MAGNETIC DIP
 MFLD.nT              50295.00:  MAGNETIC FIELD
 GVFD.g                   1.00:  GRAVITY FIELD
 VSDR.deg               179.88:  VERT SEC DIRECT
 TDD .m                5150.01:  TOTAL DEPTH (DRILLER)
 SDEP.m                 864.00:  START DEPTH
 DFSL.m                   0.00:  DISTANCE FSL
 DFWL.m                   0.00:  DISTANCE FWL
 UTMY.m             4443793.85:  UTM Y
 UTMX.m              519005.06:  UTM X
 WHEW.m                  -8.91:  WELL HEAD E/W
 WHNS.m                   9.43:  WELL HEAD N/S
 LONG.deg                51.22:  LONGITUDE
 LATI.deg                40.13:  LATITUDE
 TVDS.m                  43.00:  TVDSS CORRECTN
 EKB .m                   0.00:  KB ELEVATION
 EDF .m                  43.00:  DF ELEVATION
 TDL .m                 363.00:  TOTAL DEPTH (LOGGER)
 MAGU.                 1850802:  MAGUTM CHECKSUM
 VSC .                       0:  VS TO CLOSURE
~Parameter Information Block
#MNEM.UNIT       Value        Description
#---------     -----------    ---------------------------
 AV  .mps                 2.30:  Ann Velocity 
 AVMX.mps                 4.40:  Max Ann Veloc 
 AZIF.deg               110.24:  Azm, Final 
 BHAT.        Rotary Steerable:  BHA Type 
 BREV.rev               331.00:  Rev Bit Total 
 BROT.°/30m               0.00:  Build Rotating 
 BS  .in                  8.50:  Bit Size 
 BSZ .in                  8.50:  Bit Size 
 BTPL.psig              585.00:  Bit Press Loss 
 CABU.                     Yes:  Customer Abuse 
 COMM.                     Ô‹p:  Run Comments 1 
 TCS .hr                122.75:  Time Ciculation Ended 
 CV  .mps                 2.67:  Crit Velocity 
 CVMX.mps                 3.56:  Max Crit Veloc 
 DD1 .          Rashad Habibov:  Direct Drillr 1 
 DD2 .         Rasim Ibrahimov:  Direct Drillr 2 
 DDSV.               Geo-Pilot:  DD Service 
 DEFF.%                  98.00:  % Det Eff 
 DLRX.°/30m               0.75:  Dogleg Rot Max 
 DLSO.°/30m               1.25:  Dogleg Oriented 
 DLSX.°/30m               2.06:  Dogleg Str Max 
 DRET.      07.45.00 17-May-20:  Drill End Time 
 DRST.      22.50.00 15-May-20:  Drill Start Tim 
 DTIM.hr                 20.75:  Time Drilling 
 EDEP.m                5124.01:  End Depth 
 ENG1.           Eldar Hajiyev:  Engineer 1 
 ENG2.        Marcelo Sandoval:  Engineer 2 
 ENG3.        Davud huseynzada:  Engineer 3 
 ENG4.          Ruslan Safarov:  Engineer 4 
 ETIM.      04.33.00 23-May-20:  End Time 
 FLOI.gpm               450.00:  Flow In 
 FLON.gpm               400.00:  Flow In Min 
 FLOS.cptm                0.00:  Fluid Loss 
 FLOX.gpm               500.00:  Flow In Max 
 FTRO.       Formation Presure:  FTWD Run Obj 
 HFLO.                      No:  High Flow 
 HPRE.                     Yes:  High Pressure 
 HTEM.                      No:  High Temp 
 HYDO.m                   1.80:  Hydro Offset 
 IFIN.deg                75.06:  Inc, Final 
 IMAX.deg                75.38:  Inc Max 
 IMIN.deg                74.69:  Inc Min 
 IMND.m                5027.38:  Inc Min Depth 
 IMXD.m                4771.61:  Inc Max Depth 
 JARR.                      No:  Jarring 
 LETM.      07.45.00 17-May-20:  Log End Time 
 LOST.hr                     0:  Lost Rig Time 
 LSTM.      22.50.00 15-May-20:  Log Start Time 
 MDCL.ppm             42000.00:  Mud Chlorides 
 MDES.     Inversion Oil/Synthetic:  Mud Desc 
 DFD .sg                  1.34:  Mud Density 
 MDMN.sg                  1.34:  Dens Mud Min 
 MDMX.sg                  1.34:  Dens Mud Max 
 MOIL.                       0:  Run Mud Oil % 
 MOWR.                   67:33:  Run Mud OWR 
 MSND.                       0:  Run Mud Sand % 
 MSOL.                     1.8:  Run Mud Solids% 
 DFV .spqt               76.00:  Mud Viscosity 
 MWOD.in                  6.75:  MWD Tool OD 
 MWSI.                      No:  Serv Intrp, MWD 
 OTIM.hr                228.19:  Time Operating 
 PCON.           Look Like New:  Pad Condition 
 PMAX.psia             6164.70:  Press Op, Max 
 PV  .cP                 28.00:  Mud PV 
 RUN .                     900:  Run Number 
 ROPA.m/hr               19.00:  ROP Avg 
 ROPN.m/hr               11.00:  ROP Min 
 ROPX.m/hr               36.00:  ROP Max 
 RPMA.rpm               120.00:  RPM Surface Avg 
 RPMN.rpm               120.00:  RPM Surface Min 
 RPMX.rpm               120.00:  RPM Surface Max 
 RRUN.                    L604:  Rig Run Number 
 RTIM.hr                  7.00:  Time Reaming 
 SAZI.deg               109.27:  Azm, Start 
 SDEP.m                4761.01:  Start Depth 
 SIDD.                      No:  Serv Intrp, DD 
 SINC.deg                75.38:  Inc, Start 
 SPPA.psig             3574.00:  SPP Avg 
 SPPN.psig             3475.00:  SPP Min 
 SPPX.psig             3791.00:  SPP Max 
 STIM.      07.08.48 13-May-20:  Start Time 
 SVCS.                 DD, MWD:  Services 
 SVER.                    9.20:  Sperry Version 
 TDAT.m                 363.00:  Tot Depth Attmp 
 TDDF.                      No:  Trip for DD 
 TDLG.m                 363.00:  Tot Depth Loggd 
 TFF .                      No:  Trip for Fail 
 TQAA.f-kp               20.00:  Torque Abs Avg 
 TQAN.f-kp               18.00:  Torque Abs Min 
 TQAX.f-kp               22.00:  Torque Abs Max 
 TRRT.°/30m              -0.35:  Turn Rotating 
 MRT .                    HCIM:  Maximum Recorded Temperature 
 TTMX.degC               92.16:  Max Tool Temp 
 VS01.                90586518:  Virtual Str1 SN 
 VS02.        AZ90560654Z1W1C6:  Virtual Str2 SN 
 VS03.           AZ90610398F11:  Virtual Str3 SN 
 VS04.                90514975:  Virtual Str4 SN 
 VS05.                90514972:  Virtual Str5 SN 
 VS06.     AZ90603282F11V7D1A6:  Virtual Str6 SN 
 WBMN.klb                 7.00:  WOB Min 
 WOBA.klb                12.00:  WOB Avg 
 WOBX.klb                14.00:  WOB Max 
 YP  .lhf2               32.00:  Yield Point 
~Curve Information Block
#MNEM.UNIT                 API CODE     Curve Description
#---------               -----------    ---------------------------
 TIME.HHMMSS            00 000 000 000:  GT Time & Date
 GTDEPTH.m              00 000 000 000:  GT Depth
 GTPQH.psia             00 000 000 000:  GT HR Quartz Pressure
 GTTQ.degC              00 000 000 000:  GT Quartz Temperature
 GTTN.NONE              00 000 000 000:  GT Test Number
 GTET.sec               00 000 000 000:  GT Elapsed Test Time
 GTTVD.m                00 000 000 000:  GT True Vertical Depth
#Other Information
#
#WARRANTY: Halliburton will use its best efforts to furnish customers with 
#accurate information and interpretations that are part of, and incident to, the services 
#provided.  However, Halliburton cannot and does not warrant the accuracy 
#or correctness of such information and interpretations.  Under no circumstances should any 
#such information or interpretation be relied upon as the sole basis for any drilling, 
#completion, production, or financial decision or any procedure involving any risk to the 
#safety of any drilling venture, drilling rig or its crew or any other third party.  The 
#Customer has full responsibility for all drilling, completion and production operation.  
#Halliburton makes no representations or warranties, either expressed or 
#implied, including, but not limited to, the implied warranties of merchantability or fitness 
#for a particular purpose, with respect to the services rendered.  In no event will 
#Halliburton be liable for failure to obtain any particular results or for 
#any damages, including, but not limited to, indirect, special or consequential damages, 
#resulting from the use of any information or interpretation provided by Halliburton.
#
~A           TIME           GTDEPTH  GTPQH  GTTQ  GTTN  GTET   GTTVD  
# ...
   21:15:44.152.17-May-2020 4958.01 2923.80 68.03 6.00 275.98 2581.85
   21:15:44.352.17-May-2020 4958.01 2923.80 68.03 6.00 276.18 2581.85
   21:15:44.552.17-May-2020 4958.01 2923.79 68.03 6.00 276.38 2581.85
   21:15:44.752.17-May-2020 4958.01 2923.80 68.03 6.00 276.58 2581.85
   21:15:44.952.17-May-2020 4958.01 2923.80 68.03 6.00 276.78 2581.85
   21:15:45.152.17-May-2020 4958.01 2923.88 68.03 6.00 276.98 2581.85
   21:15:45.352.17-May-2020 4958.01 2923.88 68.03 6.00 277.18 2581.85
   21:15:45.552.17-May-2020 4958.01 2923.84 68.03 6.00 277.38 2581.85
   21:15:45.752.17-May-2020 4958.01 2923.79 68.03 6.00 277.58 2581.85
   21:15:45.952.17-May-2020 4958.01 2923.82 68.03 6.00 277.78 2581.85
   21:15:46.152.17-May-2020 4958.01 2923.80 68.03 6.00 277.98 2581.85
   21:15:46.352.17-May-2020 4958.01 2923.80 68.03 6.00 278.18 2581.85
   21:15:46.552.17-May-2020 4958.01 2923.81 68.03 6.00 278.38 2581.85
   21:15:46.752.17-May-2020 4958.01 2923.80 68.03 6.00 278.58 2581.85
   21:15:46.952.17-May-2020 4958.01 2923.81 68.03 6.00 278.78 2581.85
   21:15:47.152.17-May-2020 4958.01 2923.92 68.03 6.00 278.98 2581.85
   21:15:47.352.17-May-2020 4958.01 2923.92 68.03 6.00 279.18 2581.85
   21:15:47.552.17-May-2020 4958.01 2923.84 68.03 6.00 279.38 2581.85
   21:15:47.752.17-May-2020 4958.01 2923.81 68.03 6.00 279.58 2581.85
   21:15:47.952.17-May-2020 4958.01 2923.94 68.03 6.00 279.78 2581.85
   21:15:48.152.17-May-2020 4958.01 2923.73 68.03 6.00 279.98 2581.85
   21:15:48.352.17-May-2020 4958.01 2923.73 68.03 6.00 280.18 2581.85
   21:15:48.552.17-May-2020 4958.01 2923.83 68.03 6.00 280.38 2581.85
   21:15:48.752.17-May-2020 4958.01 2923.78 68.03 6.00 280.58 2581.85
   21:15:48.952.17-May-2020 4958.01 2923.82 68.03 6.00 280.78 2581.85
   21:15:49.152.17-May-2020 4958.01 2923.88 68.03 6.00 280.98 2581.85
   21:15:49.352.17-May-2020 4958.01 2923.88 68.03 6.00 281.18 2581.85
   21:15:49.552.17-May-2020 4958.01 2923.77 68.03 6.00 281.38 2581.85
   21:15:49.752.17-May-2020 4958.01 2923.88 68.03 6.00 281.58 2581.85
   21:15:49.952.17-May-2020 4958.01 2923.81 68.03 6.00 281.78 2581.85
   21:15:50.152.17-May-2020 4958.01 2923.84 68.03 6.00 281.98 2581.85
   21:15:50.352.17-May-2020 4958.01 2923.84 68.03 6.00 282.18 2581.85
   21:15:50.552.17-May-2020 4958.01 2923.80 68.03 6.00 282.38 2581.85
   21:15:50.752.17-May-2020 4958.01 2923.83 68.03 6.00 282.58 2581.85
   21:15:50.952.17-May-2020 4958.01 2923.82 68.03 6.00 282.78 2581.85
   21:15:51.152.17-May-2020 4958.01 2923.83 68.03 6.00 282.98 2581.85
   21:15:51.352.17-May-2020 4958.01 2923.83 68.03 6.00 283.18 2581.85
   21:15:51.552.17-May-2020 4958.01 2923.82 68.03 6.00 283.38 2581.85
   21:15:51.752.17-May-2020 4958.01 2923.83 68.03 6.00 283.58 2581.85
   21:15:51.952.17-May-2020 4958.01 2923.90 68.03 6.00 283.78 2581.85
   21:15:52.152.17-May-2020 4958.01 2923.77 68.03 6.00 283.98 2581.85
   21:15:52.352.17-May-2020 4958.01 2923.77 68.03 6.00 284.18 2581.85
   21:15:52.552.17-May-2020 4958.01 2923.82 68.03 6.00 284.38 2581.85
   21:15:52.752.17-May-2020 4958.01 2923.83 68.03 6.00 284.58 2581.85
   21:15:52.952.17-May-2020 4958.01 2923.83 68.03 6.00 284.78 2581.85
   21:15:53.152.17-May-2020 4958.01 2923.83 68.03 6.00 284.98 2581.85
   21:15:53.352.17-May-2020 4958.01 2923.83 68.03 6.00 285.18 2581.85
   21:15:53.552.17-May-2020 4958.01 2923.82 68.03 6.00 285.38 2581.85
   21:15:53.752.17-May-2020 4958.01 2923.82 68.03 6.00 285.58 2581.85
   21:15:53.952.17-May-2020 4958.01 2923.87 68.03 6.00 285.78 2581.85
   21:15:54.152.17-May-2020 4958.01 2923.82 68.03 6.00 285.98 2581.85
   21:15:54.352.17-May-2020 4958.01 2923.82 68.03 6.00 286.18 2581.85
   21:15:54.552.17-May-2020 4958.01 2923.83 68.03 6.00 286.38 2581.85
   21:15:54.752.17-May-2020 4958.01 2923.83 68.03 6.00 286.58 2581.85
   21:15:54.952.17-May-2020 4958.01 2923.85 68.03 6.00 286.78 2581.85
   21:15:55.152.17-May-2020 4958.01 2923.85 68.03 6.00 286.98 2581.85
   21:15:55.352.17-May-2020 4958.01 2923.85 68.03 6.00 287.18 2581.85
   21:15:55.552.17-May-2020 4958.01 2923.80 68.03 6.00 287.38 2581.85
   21:15:55.752.17-May-2020 4958.01 2923.90 68.03 6.00 287.58 2581.85
   21:15:55.952.17-May-2020 4958.01 2923.78 68.03 6.00 287.78 2581.85
   21:15:56.152.17-May-2020 4958.01 2923.86 68.03 6.00 287.98 2581.85
   21:15:56.352.17-May-2020 4958.01 2923.86 68.03 6.00 288.18 2581.85
   21:15:56.552.17-May-2020 4958.01 2923.81 68.03 6.00 288.38 2581.85
   21:15:56.752.17-May-2020 4958.01 2923.84 68.03 6.00 288.58 2581.85
   21:15:56.952.17-May-2020 4958.01 2923.87 68.03 6.00 288.78 2581.85
   21:15:57.151.17-May-2020 4958.01 2923.87 68.03 6.00 288.98 2581.85
   21:15:57.351.17-May-2020 4958.01 2923.87 68.03 6.00 289.18 2581.85
   21:15:57.551.17-May-2020 4958.01 2923.84 68.03 6.00 289.38 2581.85
   21:15:57.751.17-May-2020 4958.01 2923.82 68.03 6.00 289.58 2581.85
   21:15:57.951.17-May-2020 4958.01 2923.82 68.03 6.00 289.78 2581.85
   21:15:58.151.17-May-2020 4958.01 2923.83 68.03 6.00 289.98 2581.85
   21:15:58.351.17-May-2020 4958.01 2923.83 68.03 6.00 290.18 2581.85
   21:15:58.551.17-May-2020 4958.01 2923.83 68.03 6.00 290.38 2581.85
   21:15:58.751.17-May-2020 4958.01 2923.93 68.03 6.00 290.58 2581.85
   21:15:58.951.17-May-2020 4958.01 2923.74 68.03 6.00 290.78 2581.85
   21:15:59.151.17-May-2020 4958.01 2923.86 68.03 6.00 290.98 2581.85
   21:15:59.351.17-May-2020 4958.01 2923.84 68.03 6.00 291.18 2581.85
   21:15:59.551.17-May-2020 4958.01 2923.81 68.03 6.00 291.38 2581.85
   21:15:59.751.17-May-2020 4958.01 2923.83 68.03 6.00 291.58 2581.85
   21:15:59.951.17-May-2020 4958.01 2923.83 68.03 6.00 291.78 2581.85
   21:16:00.151.17-May-2020 4958.01 2923.83 68.03 6.00 291.98 2581.85
   21:16:00.351.17-May-2020 4958.01 2923.83 68.03 6.00 292.18 2581.85
   21:16:00.551.17-May-2020 4958.01 2923.82 68.03 6.00 292.38 2581.85
   21:16:00.751.17-May-2020 4958.01 2923.80 68.03 6.00 292.58 2581.85
   21:16:00.951.17-May-2020 4958.01 2923.83 68.03 6.00 292.78 2581.85
   21:16:01.151.17-May-2020 4958.01 2923.90 68.03 6.00 292.98 2581.85
   21:16:01.351.17-May-2020 4958.01 2923.90 68.03 6.00 293.18 2581.85
   21:16:01.551.17-May-2020 4958.01 2923.80 68.03 6.00 293.38 2581.85
   21:16:01.751.17-May-2020 4958.01 2923.81 68.03 6.00 293.58 2581.85
   21:16:01.951.17-May-2020 4958.01 2923.89 68.03 6.00 293.78 2581.85
   21:16:02.151.17-May-2020 4958.01 2923.88 68.03 6.00 293.98 2581.85
   21:16:02.351.17-May-2020 4958.01 2923.88 68.03 6.00 294.18 2581.85
   21:16:02.551.17-May-2020 4958.01 2923.96 68.03 6.00 294.38 2581.85
   21:16:02.751.17-May-2020 4958.01 2923.75 68.03 6.00 294.58 2581.85
   21:16:02.951.17-May-2020 4958.01 2923.82 68.03 6.00 294.78 2581.85
   21:16:03.151.17-May-2020 4958.01 2923.82 68.03 6.00 294.98 2581.85
   21:16:03.351.17-May-2020 4958.01 2923.85 68.03 6.00 295.18 2581.85
   21:16:03.551.17-May-2020 4958.01 2923.90 68.03 6.00 295.38 2581.85
   21:16:03.751.17-May-2020 4958.01 2923.77 68.03 6.00 295.58 2581.85
   21:16:03.951.17-May-2020 4958.01 2923.87 68.03 6.00 295.78 2581.85
   21:16:04.151.17-May-2020 4958.01 2923.82 68.03 6.00 295.98 2581.85
   21:16:04.351.17-May-2020 4958.01 2923.82 68.03 6.00 296.18 2581.85
   21:16:04.551.17-May-2020 4958.01 2923.82 68.03 6.00 296.38 2581.85
   21:16:04.751.17-May-2020 4958.01 2923.82 68.03 6.00 296.58 2581.85
   21:16:04.951.17-May-2020 4958.01 2923.82 68.03 6.00 296.78 2581.85
   21:16:05.151.17-May-2020 4958.01 2923.83 68.03 6.00 296.98 2581.85
   21:16:05.351.17-May-2020 4958.01 2923.83 68.03 6.00 297.18 2581.85
   21:16:05.551.17-May-2020 4958.01 2923.83 68.03 6.00 297.38 2581.85
   21:16:05.751.17-May-2020 4958.01 2923.85 68.03 6.00 297.58 2581.85
   21:16:05.951.17-May-2020 4958.01 2923.83 68.03 6.00 297.78 2581.85
   21:16:06.151.17-May-2020 4958.01 2923.84 68.03 6.00 297.98 2581.85
   21:16:06.351.17-May-2020 4958.01 2923.84 68.03 6.00 298.18 2581.85
   21:16:06.551.17-May-2020 4958.01 2923.84 68.03 6.00 298.38 2581.85
   21:16:06.751.17-May-2020 4958.01 2923.83 68.03 6.00 298.58 2581.85
   21:16:06.951.17-May-2020 4958.01 2923.83 68.03 6.00 298.78 2581.85
