~Version Information
 VERS.                  2.0:   CWLS log ASCII Standard -VERSION 2.0
 WRAP.                   NO:   One line per depth step
~Well Information Block
#MNEM.UNIT     VALUE/NAME     DESCRIPTION
#---------     -----------    ---------------------------
 STRT.S             03:21:16 18-May-20: START TIME 03:21:16 18-May-20
 STOP.S             03:28:29 18-May-20: STOP TIME  03:28:29 18-May-20
 STEP.S                   0.00: STEP TIME
 NULL.                 -999.25: NULL VALUE
 UNIT.                     N/A:  LOGGING EQUIPMENT ID
 DCON.         Sperry Drilling:  DIRECTNL CONTR
 DOE .                     N/A:  DOE NUMBER
 JOBN.        AZ-XX-0906252240:  JOB TICKET NUMB
 MWDS.                     N/A:  MWD SHOP
 PROV.                    Baku:  PROVINCE
 STAT.                    Baku:  STATE NAME
 REGN.                   EESSA:  REGION
 BASE.              Azerbaijan:  LOGGING EQUIPMENT BASE LOCATION
 UWI .                     N/A:  UNIQUE WELL IDENTIFIER
 API .                     N/A:  API NUMBER
 MDS .        Operator Entered:  MAG DATA SOURCE
 WTYP.                Deviated:  WELL TYPE
 COMP.     BP Exploration (Caspian Sea) Ltd.:  COMPANY
 SRVC.          Turan Drilling:  CONTRACTOR
 WELL.           J23 (Slot 07):  WELL NAME
 CTRY.              Azerbaijan:  COUNTRY NAME
 FLD .                     ACG:  FIELD NAME
 PDAT.          Mean Sea Level:  PERMANENT DATUM
 RIG .             West Chirag:  RIG NAME
 SON .        AZ-XX-0906252240:  JOB NUMBER
 FTOP.          Formation Tops:  FORM TOPS DESC
 ILTD.               Lithology:  INTERP LTH DESC
 SVYD.                  Survey:  SURVEY DESC
 DMOD.             Drill Model:  DRILL MOD DESC
 HPTY.       Minimum Curvature:  HOLE POS TYPE
 NREF.                    Grid:  NORTH REFERENCE
 SPUD.               27-Aug-20:  SPUD DATE
 DATE.      00.00.00 19-May-20:  END TIME
 STIM.      03.00.00 25-Mar-20:  START TIME
 DMF .             Drill Floor:  DRILL MEAS FROM
 DFST.                        :  DIST FSL TEXT
 DFWT.                        :  DIST FWL TEXT
 CNTY.                        :  COUNTY
 LOC .                        :  LOCATION
 LMF .             Drill Floor:  LOG MEASURED FROM
 VSNS.m                   9.43:  VERT SEC N/S
 VSEW.m                  -8.91:  VERT SEC E/W
 AGAP.m                  43.00:  AIR GAP
 DEP .m                 354.17:  DEPTH
 APD .m                  43.00:  DEPTH ABOVE PD
 WDMS.m                 169.80:  WD ELEV
 EGL .m                   0.00:  GROUND ELEVATION
 EPD .m                   0.00:  ELEVATION
 AZTC.deg                 6.31:  AZM TOTAL CORR
 GRDC.deg                 0.14:  GRID CORRECTION
 MDEC.deg                 6.45:  MAGNETIC DECL
 MDIP.deg                59.56:  MAGNETIC DIP
 MFLD.nT              50295.00:  MAGNETIC FIELD
 GVFD.g                   1.00:  GRAVITY FIELD
 VSDR.deg               179.88:  VERT SEC DIRECT
 TDD .m                5150.01:  TOTAL DEPTH (DRILLER)
 SDEP.m                 864.00:  START DEPTH
 DFSL.m                   0.00:  DISTANCE FSL
 DFWL.m                   0.00:  DISTANCE FWL
 UTMY.m             4443793.85:  UTM Y
 UTMX.m              519005.06:  UTM X
 WHEW.m                  -8.91:  WELL HEAD E/W
 WHNS.m                   9.43:  WELL HEAD N/S
 LONG.deg                51.22:  LONGITUDE
 LATI.deg                40.13:  LATITUDE
 TVDS.m                  43.00:  TVDSS CORRECTN
 EKB .m                   0.00:  KB ELEVATION
 EDF .m                  43.00:  DF ELEVATION
 TDL .m                 363.00:  TOTAL DEPTH (LOGGER)
 MAGU.                 1850802:  MAGUTM CHECKSUM
 VSC .                       0:  VS TO CLOSURE
~Parameter Information Block
#MNEM.UNIT       Value        Description
#---------     -----------    ---------------------------
 AV  .mps                 2.30:  Ann Velocity 
 AVMX.mps                 4.40:  Max Ann Veloc 
 AZIF.deg               110.24:  Azm, Final 
 BHAT.        Rotary Steerable:  BHA Type 
 BREV.rev               331.00:  Rev Bit Total 
 BROT.°/30m               0.00:  Build Rotating 
 BS  .in                  8.50:  Bit Size 
 BSZ .in                  8.50:  Bit Size 
 BTPL.psig              585.00:  Bit Press Loss 
 CABU.                     Yes:  Customer Abuse 
 TCS .hr                122.75:  Time Ciculation Ended 
 CV  .mps                 2.67:  Crit Velocity 
 CVMX.mps                 3.56:  Max Crit Veloc 
 DD1 .          Rashad Habibov:  Direct Drillr 1 
 DD2 .         Rasim Ibrahimov:  Direct Drillr 2 
 DDSV.               Geo-Pilot:  DD Service 
 DEFF.%                  98.00:  % Det Eff 
 DLRX.°/30m               0.75:  Dogleg Rot Max 
 DLSO.°/30m               1.25:  Dogleg Oriented 
 DLSX.°/30m               2.06:  Dogleg Str Max 
 DRET.      07.45.00 17-May-20:  Drill End Time 
 DRST.      22.50.00 15-May-20:  Drill Start Tim 
 DTIM.hr                 20.75:  Time Drilling 
 EDEP.m                5124.01:  End Depth 
 ENG1.           Eldar Hajiyev:  Engineer 1 
 ENG2.        Marcelo Sandoval:  Engineer 2 
 ENG3.        Davud huseynzada:  Engineer 3 
 ENG4.          Ruslan Safarov:  Engineer 4 
 ETIM.      04.33.00 23-May-20:  End Time 
 FLOI.gpm               450.00:  Flow In 
 FLON.gpm               400.00:  Flow In Min 
 FLOS.cptm                0.00:  Fluid Loss 
 FLOX.gpm               500.00:  Flow In Max 
 FTRO.       Formation Presure:  FTWD Run Obj 
 HFLO.                      No:  High Flow 
 HPRE.                     Yes:  High Pressure 
 HTEM.                      No:  High Temp 
 HYDO.m                   1.80:  Hydro Offset 
 IFIN.deg                75.06:  Inc, Final 
 IMAX.deg                75.38:  Inc Max 
 IMIN.deg                74.69:  Inc Min 
 IMND.m                5027.38:  Inc Min Depth 
 IMXD.m                4771.61:  Inc Max Depth 
 JARR.                      No:  Jarring 
 LETM.      07.45.00 17-May-20:  Log End Time 
 LOST.hr                     0:  Lost Rig Time 
 LSTM.      22.50.00 15-May-20:  Log Start Time 
 MDCL.ppm             42000.00:  Mud Chlorides 
 MDES.     Inversion Oil/Synthetic:  Mud Desc 
 DFD .sg                  1.34:  Mud Density 
 MDMN.sg                  1.34:  Dens Mud Min 
 MDMX.sg                  1.34:  Dens Mud Max 
 MOIL.                       0:  Run Mud Oil % 
 MOWR.                   67:33:  Run Mud OWR 
 MSND.                       0:  Run Mud Sand % 
 MSOL.                     1.8:  Run Mud Solids% 
 DFV .spqt               76.00:  Mud Viscosity 
 MWOD.in                  6.75:  MWD Tool OD 
 MWSI.                      No:  Serv Intrp, MWD 
 OTIM.hr                228.19:  Time Operating 
 PCON.           Look Like New:  Pad Condition 
 PMAX.psia             6164.70:  Press Op, Max 
 PV  .cP                 28.00:  Mud PV 
 RUN .                     900:  Run Number 
 ROPA.m/hr               19.00:  ROP Avg 
 ROPN.m/hr               11.00:  ROP Min 
 ROPX.m/hr               36.00:  ROP Max 
 RPMA.rpm               120.00:  RPM Surface Avg 
 RPMN.rpm               120.00:  RPM Surface Min 
 RPMX.rpm               120.00:  RPM Surface Max 
 RRUN.                    L604:  Rig Run Number 
 RTIM.hr                  7.00:  Time Reaming 
 SAZI.deg               109.27:  Azm, Start 
 SDEP.m                4761.01:  Start Depth 
 SIDD.                      No:  Serv Intrp, DD 
 SINC.deg                75.38:  Inc, Start 
 SPPA.psig             3574.00:  SPP Avg 
 SPPN.psig             3475.00:  SPP Min 
 SPPX.psig             3791.00:  SPP Max 
 STIM.      07.08.48 13-May-20:  Start Time 
 SVCS.                 DD, MWD:  Services 
 SVER.                    9.20:  Sperry Version 
 TDAT.m                 363.00:  Tot Depth Attmp 
 TDDF.                      No:  Trip for DD 
 TDLG.m                 363.00:  Tot Depth Loggd 
 TFF .                      No:  Trip for Fail 
 TQAA.f-kp               20.00:  Torque Abs Avg 
 TQAN.f-kp               18.00:  Torque Abs Min 
 TQAX.f-kp               22.00:  Torque Abs Max 
 TRRT.°/30m              -0.35:  Turn Rotating 
 MRT .                    HCIM:  Maximum Recorded Temperature 
 TTMX.degC               92.16:  Max Tool Temp 
 VS01.                90586518:  Virtual Str1 SN 
 VS02.        AZ90560654Z1W1C6:  Virtual Str2 SN 
 VS03.           AZ90610398F11:  Virtual Str3 SN 
 VS04.                90514975:  Virtual Str4 SN 
 VS05.                90514972:  Virtual Str5 SN 
 VS06.     AZ90603282F11V7D1A6:  Virtual Str6 SN 
 WBMN.klb                 7.00:  WOB Min 
 WOBA.klb                12.00:  WOB Avg 
 WOBX.klb                14.00:  WOB Max 
 YP  .lhf2               32.00:  Yield Point 
~Curve Information Block
#MNEM.UNIT                 API CODE     Curve Description
#---------               -----------    ---------------------------
 TIME.HHMMSS            00 000 000 000:  GT Time & Date
 GTDEPTH.m              00 000 000 000:  GT Depth
 GTPQH.psia             00 000 000 000:  GT HR Quartz Pressure
 GTTQ.degC              00 000 000 000:  GT Quartz Temperature
 GTTN.NONE              00 000 000 000:  GT Test Number
 GTET.sec               00 000 000 000:  GT Elapsed Test Time
 GTTVD.m                00 000 000 000:  GT True Vertical Depth
#Other Information
#
#WARRANTY: Halliburton will use its best efforts to furnish customers with 
#accurate information and interpretations that are part of, and incident to, the services 
#provided.  However, Halliburton cannot and does not warrant the accuracy 
#or correctness of such information and interpretations.  Under no circumstances should any 
#such information or interpretation be relied upon as the sole basis for any drilling, 
#completion, production, or financial decision or any procedure involving any risk to the 
#safety of any drilling venture, drilling rig or its crew or any other third party.  The 
#Customer has full responsibility for all drilling, completion and production operation.  
#Halliburton makes no representations or warranties, either expressed or 
#implied, including, but not limited to, the implied warranties of merchantability or fitness 
#for a particular purpose, with respect to the services rendered.  In no event will 
#Halliburton be liable for failure to obtain any particular results or for 
#any damages, including, but not limited to, indirect, special or consequential damages, 
#resulting from the use of any information or interpretation provided by Halliburton.
#
~A           TIME           GTDEPTH  GTPQH  GTTQ  GTTN   GTET   GTTVD  
# ...
   03:27:40.944.18-May-2020 4797.01 5458.16 65.90 13.00 384.36 2540.22
   03:27:41.144.18-May-2020 4797.01 5461.36 65.90 13.00 384.56 2540.22
   03:27:41.344.18-May-2020 4797.01 5458.26 65.90 13.00 384.76 2540.22
   03:27:41.544.18-May-2020 4797.01 5457.85 65.90 13.00 384.96 2540.22
   03:27:41.744.18-May-2020 4797.01 5458.56 65.90 13.00 385.16 2540.22
   03:27:41.944.18-May-2020 4797.01 5458.56 65.90 13.00 385.36 2540.22
   03:27:42.145.18-May-2020 4797.01 5457.55 65.90 13.00 385.56 2540.22
   03:27:42.345.18-May-2020 4797.01 5456.78 65.90 13.00 385.76 2540.22
   03:27:42.545.18-May-2020 4797.01 5469.90 65.90 13.00 385.96 2540.22
   03:27:42.745.18-May-2020 4797.01 5457.08 65.90 13.00 386.16 2540.22
   03:27:42.945.18-May-2020 4797.01 5457.08 65.90 13.00 386.36 2540.22
   03:27:43.145.18-May-2020 4797.01 5471.99 65.90 13.00 386.56 2540.22
   03:27:43.345.18-May-2020 4797.01 5463.75 65.90 13.00 386.76 2540.22
   03:27:43.545.18-May-2020 4797.01 5459.87 65.90 13.00 386.96 2540.22
   03:27:43.745.18-May-2020 4797.01 5459.73 65.90 13.00 387.16 2540.22
   03:27:43.945.18-May-2020 4797.01 5459.73 65.90 13.00 387.36 2540.22
   03:27:44.145.18-May-2020 4797.01 5473.17 65.90 13.00 387.56 2540.22
   03:27:44.345.18-May-2020 4797.01 5458.34 65.90 13.00 387.76 2540.22
   03:27:44.546.18-May-2020 4797.01 5460.46 65.90 13.00 387.96 2540.22
   03:27:44.746.18-May-2020 4797.01 5461.66 65.90 13.00 388.16 2540.22
   03:27:44.946.18-May-2020 4797.01 5461.66 65.90 13.00 388.36 2540.22
   03:27:45.146.18-May-2020 4797.01 5464.48 65.90 13.00 388.56 2540.22
   03:27:45.346.18-May-2020 4797.01 5458.47 65.90 13.00 388.76 2540.22
   03:27:45.546.18-May-2020 4797.01 5460.44 65.90 13.00 388.96 2540.22
   03:27:45.746.18-May-2020 4797.01 5466.92 65.90 13.00 389.16 2540.22
   03:27:45.946.18-May-2020 4797.01 5466.92 65.90 13.00 389.36 2540.22
   03:27:46.146.18-May-2020 4797.01 5458.77 65.90 13.00 389.56 2540.22
   03:27:46.346.18-May-2020 4797.01 5460.08 65.90 13.00 389.76 2540.22
   03:27:46.546.18-May-2020 4797.01 5459.94 65.90 13.00 389.96 2540.22
   03:27:46.746.18-May-2020 4797.01 5458.51 65.90 13.00 390.16 2540.22
   03:27:46.946.18-May-2020 4797.01 5458.51 65.90 13.00 390.36 2540.22
   03:27:47.147.18-May-2020 4797.01 5467.38 65.90 13.00 390.56 2540.22
   03:27:47.347.18-May-2020 4797.01 5456.20 65.90 13.00 390.76 2540.22
   03:27:47.547.18-May-2020 4797.01 5458.28 65.90 13.00 390.96 2540.22
   03:27:47.747.18-May-2020 4797.01 5463.57 65.90 13.00 391.16 2540.22
   03:27:47.947.18-May-2020 4797.01 5463.57 65.90 13.00 391.36 2540.22
   03:27:48.147.18-May-2020 4797.01 5457.65 65.90 13.00 391.56 2540.22
   03:27:48.347.18-May-2020 4797.01 5458.36 65.90 13.00 391.76 2540.22
   03:27:48.547.18-May-2020 4797.01 5458.33 65.90 13.00 391.96 2540.22
   03:27:48.747.18-May-2020 4797.01 5457.38 65.90 13.00 392.16 2540.22
   03:27:48.947.18-May-2020 4797.01 5457.38 65.90 13.00 392.36 2540.22
   03:27:49.147.18-May-2020 4797.01 5457.15 65.90 13.00 392.56 2540.22
   03:27:49.347.18-May-2020 4797.01 5469.93 65.90 13.00 392.76 2540.22
   03:27:49.548.18-May-2020 4797.01 5457.35 65.90 13.00 392.96 2540.22
   03:27:49.748.18-May-2020 4797.01 5458.21 65.90 13.00 393.16 2540.22
   03:27:49.948.18-May-2020 4797.01 5458.21 65.90 13.00 393.36 2540.22
   03:27:50.148.18-May-2020 4797.01 5461.42 65.90 13.00 393.56 2540.22
   03:27:50.348.18-May-2020 4797.01 5459.34 65.90 13.00 393.76 2540.22
   03:27:50.548.18-May-2020 4797.01 5462.25 65.90 13.00 393.96 2540.22
   03:27:50.748.18-May-2020 4797.01 5464.18 65.90 13.00 394.16 2540.22
   03:27:50.948.18-May-2020 4797.01 5464.18 65.90 13.00 394.36 2540.22
   03:27:51.148.18-May-2020 4797.01 5458.37 65.90 13.00 394.56 2540.22
   03:27:51.348.18-May-2020 4797.01 5460.96 65.90 13.00 394.76 2540.22
   03:27:51.548.18-May-2020 4797.01 5463.85 65.90 13.00 394.96 2540.22
   03:27:51.748.18-May-2020 4797.01 5475.09 65.90 13.00 395.16 2540.22
   03:27:51.949.18-May-2020 4797.01 5475.09 65.90 13.00 395.36 2540.22
   03:27:52.149.18-May-2020 4797.01 5460.43 65.90 13.00 395.56 2540.22
   03:27:52.349.18-May-2020 4797.01 5460.87 65.90 13.00 395.76 2540.22
   03:27:52.549.18-May-2020 4797.01 5465.48 65.90 13.00 395.96 2540.22
   03:27:52.749.18-May-2020 4797.01 5460.08 65.90 13.00 396.16 2540.22
   03:27:52.949.18-May-2020 4797.01 5458.44 65.90 13.00 396.36 2540.22
   03:27:53.149.18-May-2020 4797.01 5459.49 65.90 13.00 396.56 2540.22
   03:27:53.349.18-May-2020 4797.01 5458.35 65.90 13.00 396.76 2540.22
   03:27:53.549.18-May-2020 4797.01 5457.48 65.90 13.00 396.96 2540.22
   03:27:53.749.18-May-2020 4797.01 5467.64 65.90 13.00 397.16 2540.22
   03:27:53.949.18-May-2020 4797.01 5467.64 65.90 13.00 397.36 2540.22
   03:27:54.149.18-May-2020 4797.01 5456.94 65.90 13.00 397.56 2540.22
   03:27:54.349.18-May-2020 4797.01 5457.55 65.90 13.00 397.76 2540.22
   03:27:54.550.18-May-2020 4797.01 5463.44 65.90 13.00 397.96 2540.22
   03:27:54.750.18-May-2020 4797.01 5458.88 65.90 13.00 398.16 2540.22
   03:27:54.950.18-May-2020 4797.01 5456.90 65.90 13.00 398.36 2540.22
   03:27:55.150.18-May-2020 4797.01 5458.14 65.90 13.00 398.56 2540.22
   03:27:55.350.18-May-2020 4797.01 5457.37 65.90 13.00 398.76 2540.22
   03:27:55.550.18-May-2020 4797.01 5456.60 65.90 13.00 398.96 2540.22
   03:27:55.750.18-May-2020 4797.01 5456.09 65.90 13.00 399.16 2540.22
   03:27:55.950.18-May-2020 4797.01 5456.09 65.90 13.00 399.36 2540.22
   03:27:56.150.18-May-2020 4797.01 5465.80 65.90 13.00 399.56 2540.22
   03:27:56.350.18-May-2020 4797.01 5455.25 65.90 13.00 399.76 2540.22
   03:27:56.550.18-May-2020 4797.01 5459.06 65.90 13.00 399.96 2540.22
   03:27:56.750.18-May-2020 4797.01 5474.97 65.90 13.00 400.16 2540.22
   03:27:56.951.18-May-2020 4797.01 5474.97 65.90 13.00 400.36 2540.22
   03:27:57.151.18-May-2020 4797.01 5457.93 65.90 13.00 400.56 2540.22
   03:27:57.351.18-May-2020 4797.01 5463.18 65.89 13.00 400.76 2540.22
   03:27:57.551.18-May-2020 4797.01 5468.33 65.89 13.00 400.96 2540.22
   03:27:57.751.18-May-2020 4797.01 5466.74 65.89 13.00 401.16 2540.22
   03:27:57.951.18-May-2020 4797.01 5466.74 65.89 13.00 401.36 2540.22
   03:27:58.151.18-May-2020 4797.01 5460.24 65.89 13.00 401.56 2540.22
   03:27:58.351.18-May-2020 4797.01 5464.41 65.89 13.00 401.76 2540.22
   03:27:58.551.18-May-2020 4797.01 5461.00 65.89 13.00 401.96 2540.22
   03:27:58.751.18-May-2020 4797.01 5471.93 65.89 13.00 402.16 2540.22
   03:27:58.951.18-May-2020 4797.01 5471.93 65.89 13.00 402.36 2540.22
   03:27:59.151.18-May-2020 4797.01 5459.65 65.89 13.00 402.56 2540.22
   03:27:59.351.18-May-2020 4797.01 5462.86 65.89 13.00 402.76 2540.22
   03:27:59.552.18-May-2020 4797.01 5461.78 65.89 13.00 402.96 2540.22
   03:27:59.752.18-May-2020 4797.01 5459.13 65.89 13.00 403.16 2540.22
   03:27:59.952.18-May-2020 4797.01 5459.13 65.89 13.00 403.36 2540.22
   03:28:00.152.18-May-2020 4797.01 5458.30 65.89 13.00 403.56 2540.22
   03:28:00.352.18-May-2020 4797.01 5456.87 65.89 13.00 403.76 2540.22
   03:28:00.552.18-May-2020 4797.01 5456.86 65.89 13.00 403.96 2540.22
   03:28:00.752.18-May-2020 4797.01 5469.67 65.89 13.00 404.16 2540.22
   03:28:00.952.18-May-2020 4797.01 5469.67 65.89 13.00 404.36 2540.22
   03:28:01.152.18-May-2020 4797.01 5457.40 65.89 13.00 404.56 2540.22
   03:28:01.352.18-May-2020 4797.01 5458.92 65.89 13.00 404.76 2540.22
   03:28:01.552.18-May-2020 4797.01 5461.90 65.89 13.00 404.96 2540.22
   03:28:01.752.18-May-2020 4797.01 5457.85 65.89 13.00 405.16 2540.22
   03:28:01.953.18-May-2020 4797.01 5457.85 65.89 13.00 405.36 2540.22
   03:28:02.153.18-May-2020 4797.01 5457.93 65.89 13.00 405.56 2540.22
   03:28:02.353.18-May-2020 4797.01 5456.35 65.89 13.00 405.76 2540.22
   03:28:02.553.18-May-2020 4797.01 5456.38 65.89 13.00 405.96 2540.22
   03:28:02.753.18-May-2020 4797.01 5456.51 65.89 13.00 406.16 2540.22
   03:28:02.953.18-May-2020 4797.01 5456.51 65.89 13.00 406.36 2540.22
   03:28:03.153.18-May-2020 4797.01 5457.83 65.89 13.00 406.56 2540.22
   03:28:03.353.18-May-2020 4797.01 5457.05 65.89 13.00 406.76 2540.22
