~Version Information
 VERS.                  2.0:   CWLS log ASCII Standard -VERSION 2.0
 WRAP.                   NO:   One line per depth step
~Well Information Block
#MNEM.UNIT     VALUE/NAME     DESCRIPTION
#---------     -----------    ---------------------------
 STRT.S             01:27:41 18-May-20: START TIME 01:27:41 18-May-20
 STOP.S             01:34:42 18-May-20: STOP TIME  01:34:42 18-May-20
 STEP.S                   0.00: STEP TIME
 NULL.                 -999.25: NULL VALUE
 UNIT.                     N/A:  LOGGING EQUIPMENT ID
 DCON.         Sperry Drilling:  DIRECTNL CONTR
 DOE .                     N/A:  DOE NUMBER
 JOBN.        AZ-XX-0906252240:  JOB TICKET NUMB
 MWDS.                     N/A:  MWD SHOP
 PROV.                    Baku:  PROVINCE
 STAT.                    Baku:  STATE NAME
 REGN.                   EESSA:  REGION
 BASE.              Azerbaijan:  LOGGING EQUIPMENT BASE LOCATION
 UWI .                     N/A:  UNIQUE WELL IDENTIFIER
 API .                     N/A:  API NUMBER
 MDS .        Operator Entered:  MAG DATA SOURCE
 WTYP.                Deviated:  WELL TYPE
 COMP.     BP Exploration (Caspian Sea) Ltd.:  COMPANY
 SRVC.          Turan Drilling:  CONTRACTOR
 WELL.           J23 (Slot 07):  WELL NAME
 CTRY.              Azerbaijan:  COUNTRY NAME
 FLD .                     ACG:  FIELD NAME
 PDAT.          Mean Sea Level:  PERMANENT DATUM
 RIG .             West Chirag:  RIG NAME
 SON .        AZ-XX-0906252240:  JOB NUMBER
 FTOP.          Formation Tops:  FORM TOPS DESC
 ILTD.               Lithology:  INTERP LTH DESC
 SVYD.                  Survey:  SURVEY DESC
 DMOD.             Drill Model:  DRILL MOD DESC
 HPTY.       Minimum Curvature:  HOLE POS TYPE
 NREF.                    Grid:  NORTH REFERENCE
 SPUD.               27-Aug-20:  SPUD DATE
 DATE.      00.00.00 19-May-20:  END TIME
 STIM.      03.00.00 25-Mar-20:  START TIME
 DMF .             Drill Floor:  DRILL MEAS FROM
 DFST.                        :  DIST FSL TEXT
 DFWT.                        :  DIST FWL TEXT
 CNTY.                        :  COUNTY
 LOC .                        :  LOCATION
 LMF .             Drill Floor:  LOG MEASURED FROM
 VSNS.m                   9.43:  VERT SEC N/S
 VSEW.m                  -8.91:  VERT SEC E/W
 AGAP.m                  43.00:  AIR GAP
 DEP .m                 354.17:  DEPTH
 APD .m                  43.00:  DEPTH ABOVE PD
 WDMS.m                 169.80:  WD ELEV
 EGL .m                   0.00:  GROUND ELEVATION
 EPD .m                   0.00:  ELEVATION
 AZTC.deg                 6.31:  AZM TOTAL CORR
 GRDC.deg                 0.14:  GRID CORRECTION
 MDEC.deg                 6.45:  MAGNETIC DECL
 MDIP.deg                59.56:  MAGNETIC DIP
 MFLD.nT              50295.00:  MAGNETIC FIELD
 GVFD.g                   1.00:  GRAVITY FIELD
 VSDR.deg               179.88:  VERT SEC DIRECT
 TDD .m                5150.01:  TOTAL DEPTH (DRILLER)
 SDEP.m                 864.00:  START DEPTH
 DFSL.m                   0.00:  DISTANCE FSL
 DFWL.m                   0.00:  DISTANCE FWL
 UTMY.m             4443793.85:  UTM Y
 UTMX.m              519005.06:  UTM X
 WHEW.m                  -8.91:  WELL HEAD E/W
 WHNS.m                   9.43:  WELL HEAD N/S
 LONG.deg                51.22:  LONGITUDE
 LATI.deg                40.13:  LATITUDE
 TVDS.m                  43.00:  TVDSS CORRECTN
 EKB .m                   0.00:  KB ELEVATION
 EDF .m                  43.00:  DF ELEVATION
 TDL .m                 363.00:  TOTAL DEPTH (LOGGER)
 MAGU.                 1850802:  MAGUTM CHECKSUM
 VSC .                       0:  VS TO CLOSURE
~Parameter Information Block
#MNEM.UNIT       Value        Description
#---------     -----------    ---------------------------
 AV  .mps                 2.30:  Ann Velocity 
 AVMX.mps                 4.40:  Max Ann Veloc 
 AZIF.deg               110.24:  Azm, Final 
 BHAT.        Rotary Steerable:  BHA Type 
 BREV.rev               331.00:  Rev Bit Total 
 BROT.°/30m               0.00:  Build Rotating 
 BS  .in                  8.50:  Bit Size 
 BSZ .in                  8.50:  Bit Size 
 BTPL.psig              585.00:  Bit Press Loss 
 CABU.                     Yes:  Customer Abuse 
 COMM.                     tPr:  Run Comments 1 
 TCS .hr                122.75:  Time Ciculation Ended 
 CV  .mps                 2.67:  Crit Velocity 
 CVMX.mps                 3.56:  Max Crit Veloc 
 DD1 .          Rashad Habibov:  Direct Drillr 1 
 DD2 .         Rasim Ibrahimov:  Direct Drillr 2 
 DDSV.               Geo-Pilot:  DD Service 
 DEFF.%                  98.00:  % Det Eff 
 DLRX.°/30m               0.75:  Dogleg Rot Max 
 DLSO.°/30m               1.25:  Dogleg Oriented 
 DLSX.°/30m               2.06:  Dogleg Str Max 
 DRET.      07.45.00 17-May-20:  Drill End Time 
 DRST.      22.50.00 15-May-20:  Drill Start Tim 
 DTIM.hr                 20.75:  Time Drilling 
 EDEP.m                5124.01:  End Depth 
 ENG1.           Eldar Hajiyev:  Engineer 1 
 ENG2.        Marcelo Sandoval:  Engineer 2 
 ENG3.        Davud huseynzada:  Engineer 3 
 ENG4.          Ruslan Safarov:  Engineer 4 
 ETIM.      04.33.00 23-May-20:  End Time 
 FLOI.gpm               450.00:  Flow In 
 FLON.gpm               400.00:  Flow In Min 
 FLOS.cptm                0.00:  Fluid Loss 
 FLOX.gpm               500.00:  Flow In Max 
 FTRO.       Formation Presure:  FTWD Run Obj 
 HFLO.                      No:  High Flow 
 HPRE.                     Yes:  High Pressure 
 HTEM.                      No:  High Temp 
 HYDO.m                   1.80:  Hydro Offset 
 IFIN.deg                75.06:  Inc, Final 
 IMAX.deg                75.38:  Inc Max 
 IMIN.deg                74.69:  Inc Min 
 IMND.m                5027.38:  Inc Min Depth 
 IMXD.m                4771.61:  Inc Max Depth 
 JARR.                      No:  Jarring 
 LETM.      07.45.00 17-May-20:  Log End Time 
 LOST.hr                     0:  Lost Rig Time 
 LSTM.      22.50.00 15-May-20:  Log Start Time 
 MDCL.ppm             42000.00:  Mud Chlorides 
 MDES.     Inversion Oil/Synthetic:  Mud Desc 
 DFD .sg                  1.34:  Mud Density 
 MDMN.sg                  1.34:  Dens Mud Min 
 MDMX.sg                  1.34:  Dens Mud Max 
 MOIL.                       0:  Run Mud Oil % 
 MOWR.                   67:33:  Run Mud OWR 
 MSND.                       0:  Run Mud Sand % 
 MSOL.                     1.8:  Run Mud Solids% 
 DFV .spqt               76.00:  Mud Viscosity 
 MWOD.in                  6.75:  MWD Tool OD 
 MWSI.                      No:  Serv Intrp, MWD 
 OTIM.hr                228.19:  Time Operating 
 PCON.           Look Like New:  Pad Condition 
 PMAX.psia             6164.70:  Press Op, Max 
 PV  .cP                 28.00:  Mud PV 
 RUN .                     900:  Run Number 
 ROPA.m/hr               19.00:  ROP Avg 
 ROPN.m/hr               11.00:  ROP Min 
 ROPX.m/hr               36.00:  ROP Max 
 RPMA.rpm               120.00:  RPM Surface Avg 
 RPMN.rpm               120.00:  RPM Surface Min 
 RPMX.rpm               120.00:  RPM Surface Max 
 RRUN.                    L604:  Rig Run Number 
 RTIM.hr                  7.00:  Time Reaming 
 SAZI.deg               109.27:  Azm, Start 
 SDEP.m                4761.01:  Start Depth 
 SIDD.                      No:  Serv Intrp, DD 
 SINC.deg                75.38:  Inc, Start 
 SPPA.psig             3574.00:  SPP Avg 
 SPPN.psig             3475.00:  SPP Min 
 SPPX.psig             3791.00:  SPP Max 
 STIM.      07.08.48 13-May-20:  Start Time 
 SVCS.                 DD, MWD:  Services 
 SVER.                    9.20:  Sperry Version 
 TDAT.m                 363.00:  Tot Depth Attmp 
 TDDF.                      No:  Trip for DD 
 TDLG.m                 363.00:  Tot Depth Loggd 
 TFF .                      No:  Trip for Fail 
 TQAA.f-kp               20.00:  Torque Abs Avg 
 TQAN.f-kp               18.00:  Torque Abs Min 
 TQAX.f-kp               22.00:  Torque Abs Max 
 TRRT.°/30m              -0.35:  Turn Rotating 
 MRT .                    HCIM:  Maximum Recorded Temperature 
 TTMX.degC               92.16:  Max Tool Temp 
 VS01.                90586518:  Virtual Str1 SN 
 VS02.        AZ90560654Z1W1C6:  Virtual Str2 SN 
 VS03.           AZ90610398F11:  Virtual Str3 SN 
 VS04.                90514975:  Virtual Str4 SN 
 VS05.                90514972:  Virtual Str5 SN 
 VS06.     AZ90603282F11V7D1A6:  Virtual Str6 SN 
 WBMN.klb                 7.00:  WOB Min 
 WOBA.klb                12.00:  WOB Avg 
 WOBX.klb                14.00:  WOB Max 
 YP  .lhf2               32.00:  Yield Point 
~Curve Information Block
#MNEM.UNIT                 API CODE     Curve Description
#---------               -----------    ---------------------------
 TIME.HHMMSS            00 000 000 000:  GT Time & Date
 GTDEPTH.m              00 000 000 000:  GT Depth
 GTPQH.psia             00 000 000 000:  GT HR Quartz Pressure
 GTTQ.degC              00 000 000 000:  GT Quartz Temperature
 GTTN.NONE              00 000 000 000:  GT Test Number
 GTET.sec               00 000 000 000:  GT Elapsed Test Time
 GTTVD.m                00 000 000 000:  GT True Vertical Depth
#Other Information
#
#WARRANTY: Halliburton will use its best efforts to furnish customers with 
#accurate information and interpretations that are part of, and incident to, the services 
#provided.  However, Halliburton cannot and does not warrant the accuracy 
#or correctness of such information and interpretations.  Under no circumstances should any 
#such information or interpretation be relied upon as the sole basis for any drilling, 
#completion, production, or financial decision or any procedure involving any risk to the 
#safety of any drilling venture, drilling rig or its crew or any other third party.  The 
#Customer has full responsibility for all drilling, completion and production operation.  
#Halliburton makes no representations or warranties, either expressed or 
#implied, including, but not limited to, the implied warranties of merchantability or fitness 
#for a particular purpose, with respect to the services rendered.  In no event will 
#Halliburton be liable for failure to obtain any particular results or for 
#any damages, including, but not limited to, indirect, special or consequential damages, 
#resulting from the use of any information or interpretation provided by Halliburton.
#
~A           TIME           GTDEPTH  GTPQH  GTTQ  GTTN   GTET   GTTVD  
# ...
   01:32:35.759.18-May-2020 4854.01 3158.18 66.51 11.00 293.92 2555.10
   01:32:35.959.18-May-2020 4854.01 3158.12 66.51 11.00 294.12 2555.10
   01:32:36.160.18-May-2020 4854.01 3158.12 66.51 11.00 294.32 2555.10
   01:32:36.360.18-May-2020 4854.01 3158.13 66.51 11.00 294.52 2555.10
   01:32:36.560.18-May-2020 4854.01 3158.18 66.51 11.00 294.72 2555.10
   01:32:36.760.18-May-2020 4854.01 3158.14 66.51 11.00 294.92 2555.10
   01:32:36.960.18-May-2020 4854.01 3158.32 66.51 11.00 295.12 2555.10
   01:32:37.160.18-May-2020 4854.01 3158.32 66.51 11.00 295.32 2555.10
   01:32:37.360.18-May-2020 4854.01 3158.08 66.51 11.00 295.52 2555.10
   01:32:37.560.18-May-2020 4854.01 3158.18 66.51 11.00 295.72 2555.10
   01:32:37.760.18-May-2020 4854.01 3158.13 66.51 11.00 295.92 2555.10
   01:32:37.960.18-May-2020 4854.01 3158.10 66.51 11.00 296.12 2555.10
   01:32:38.160.18-May-2020 4854.01 3158.10 66.51 11.00 296.32 2555.10
   01:32:38.360.18-May-2020 4854.01 3158.10 66.51 11.00 296.52 2555.10
   01:32:38.560.18-May-2020 4854.01 3158.12 66.51 11.00 296.72 2555.10
   01:32:38.761.18-May-2020 4854.01 3158.12 66.51 11.00 296.92 2555.10
   01:32:38.961.18-May-2020 4854.01 3158.13 66.51 11.00 297.12 2555.10
   01:32:39.161.18-May-2020 4854.01 3158.13 66.51 11.00 297.32 2555.10
   01:32:39.361.18-May-2020 4854.01 3158.16 66.51 11.00 297.52 2555.10
   01:32:39.561.18-May-2020 4854.01 3158.16 66.51 11.00 297.72 2555.10
   01:32:39.761.18-May-2020 4854.01 3158.10 66.51 11.00 297.92 2555.10
   01:32:39.961.18-May-2020 4854.01 3158.13 66.51 11.00 298.12 2555.10
   01:32:40.161.18-May-2020 4854.01 3158.13 66.51 11.00 298.32 2555.10
   01:32:40.361.18-May-2020 4854.01 3158.12 66.51 11.00 298.52 2555.10
   01:32:40.561.18-May-2020 4854.01 3158.11 66.51 11.00 298.72 2555.10
   01:32:40.761.18-May-2020 4854.01 3158.12 66.51 11.00 298.92 2555.10
   01:32:40.961.18-May-2020 4854.01 3158.11 66.51 11.00 299.12 2555.10
   01:32:41.162.18-May-2020 4854.01 3158.11 66.51 11.00 299.32 2555.10
   01:32:41.362.18-May-2020 4854.01 3158.00 66.51 11.00 299.52 2555.10
   01:32:41.562.18-May-2020 4854.01 3158.10 66.51 11.00 299.72 2555.10
   01:32:41.762.18-May-2020 4854.01 3158.35 66.51 11.00 299.92 2555.10
   01:32:41.962.18-May-2020 4854.01 3158.00 66.51 11.00 300.12 2555.10
   01:32:42.162.18-May-2020 4854.01 3158.00 66.51 11.00 300.32 2555.10
   01:32:42.362.18-May-2020 4854.01 3158.20 66.51 11.00 300.52 2555.10
   01:32:42.562.18-May-2020 4854.01 3158.12 66.51 11.00 300.72 2555.10
   01:32:42.762.18-May-2020 4854.01 3158.31 66.51 11.00 300.92 2555.10
   01:32:42.962.18-May-2020 4854.01 3157.94 66.51 11.00 301.12 2555.10
   01:32:43.162.18-May-2020 4854.01 3157.94 66.51 11.00 301.32 2555.10
   01:32:43.362.18-May-2020 4854.01 3158.21 66.51 11.00 301.52 2555.10
   01:32:43.562.18-May-2020 4854.01 3158.10 66.51 11.00 301.72 2555.10
   01:32:43.763.18-May-2020 4854.01 3158.21 66.51 11.00 301.92 2555.10
   01:32:43.963.18-May-2020 4854.01 3158.08 66.51 11.00 302.12 2555.10
   01:32:44.163.18-May-2020 4854.01 3158.08 66.51 11.00 302.32 2555.10
   01:32:44.363.18-May-2020 4854.01 3158.13 66.51 11.00 302.52 2555.10
   01:32:44.563.18-May-2020 4854.01 3158.12 66.51 11.00 302.72 2555.10
   01:32:44.763.18-May-2020 4854.01 3158.10 66.51 11.00 302.92 2555.10
   01:32:44.963.18-May-2020 4854.01 3158.10 66.51 11.00 303.12 2555.10
   01:32:45.163.18-May-2020 4854.01 3158.10 66.51 11.00 303.32 2555.10
   01:32:45.363.18-May-2020 4854.01 3158.10 66.51 11.00 303.52 2555.10
   01:32:45.563.18-May-2020 4854.01 3158.31 66.51 11.00 303.72 2555.10
   01:32:45.763.18-May-2020 4854.01 3157.93 66.51 11.00 303.92 2555.10
   01:32:45.963.18-May-2020 4854.01 3158.13 66.51 11.00 304.12 2555.10
   01:32:46.164.18-May-2020 4854.01 3158.13 66.51 11.00 304.32 2555.10
   01:32:46.364.18-May-2020 4854.01 3158.12 66.51 11.00 304.52 2555.10
   01:32:46.564.18-May-2020 4854.01 3158.10 66.51 11.00 304.72 2555.10
   01:32:46.764.18-May-2020 4854.01 3158.11 66.51 11.00 304.92 2555.10
   01:32:46.964.18-May-2020 4854.01 3158.11 66.51 11.00 305.12 2555.10
   01:32:47.164.18-May-2020 4854.01 3158.11 66.51 11.00 305.32 2555.10
   01:32:47.364.18-May-2020 4854.01 3158.11 66.51 11.00 305.52 2555.10
   01:32:47.564.18-May-2020 4854.01 3158.11 66.51 11.00 305.72 2555.10
   01:32:47.764.18-May-2020 4854.01 3158.08 66.50 11.00 305.92 2555.10
   01:32:47.964.18-May-2020 4854.01 3158.24 66.50 11.00 306.12 2555.10
   01:32:48.164.18-May-2020 4854.01 3158.24 66.50 11.00 306.32 2555.10
   01:32:48.364.18-May-2020 4854.01 3158.22 66.50 11.00 306.52 2555.10
   01:32:48.565.18-May-2020 4854.01 3158.18 66.50 11.00 306.72 2555.10
   01:32:48.765.18-May-2020 4854.01 3158.05 66.50 11.00 306.92 2555.10
   01:32:48.965.18-May-2020 4854.01 3158.17 66.50 11.00 307.12 2555.10
   01:32:49.165.18-May-2020 4854.01 3158.17 66.50 11.00 307.32 2555.10
   01:32:49.365.18-May-2020 4854.01 3158.29 66.50 11.00 307.52 2555.10
   01:32:49.565.18-May-2020 4854.01 3158.02 66.50 11.00 307.72 2555.10
   01:32:49.765.18-May-2020 4854.01 3158.06 66.50 11.00 307.92 2555.10
   01:32:49.965.18-May-2020 4854.01 3158.29 66.50 11.00 308.12 2555.10
   01:32:50.165.18-May-2020 4854.01 3158.29 66.50 11.00 308.32 2555.10
   01:32:50.365.18-May-2020 4854.01 3158.08 66.50 11.00 308.52 2555.10
   01:32:50.565.18-May-2020 4854.01 3158.19 66.50 11.00 308.72 2555.10
   01:32:50.765.18-May-2020 4854.01 3158.10 66.50 11.00 308.92 2555.10
   01:32:50.965.18-May-2020 4854.01 3158.12 66.50 11.00 309.12 2555.10
   01:32:51.166.18-May-2020 4854.01 3158.12 66.50 11.00 309.32 2555.10
   01:32:51.366.18-May-2020 4854.01 3158.12 66.50 11.00 309.52 2555.10
   01:32:51.566.18-May-2020 4854.01 3158.11 66.50 11.00 309.72 2555.10
   01:32:51.766.18-May-2020 4854.01 3158.11 66.50 11.00 309.92 2555.10
   01:32:51.966.18-May-2020 4854.01 3158.11 66.50 11.00 310.13 2555.10
   01:32:52.166.18-May-2020 4854.01 3158.11 66.50 11.00 310.33 2555.10
   01:32:52.366.18-May-2020 4854.01 3158.05 66.50 11.00 310.53 2555.10
   01:32:52.566.18-May-2020 4854.01 3158.06 66.50 11.00 310.73 2555.10
   01:32:52.766.18-May-2020 4854.01 3158.16 66.50 11.00 310.93 2555.10
   01:32:52.966.18-May-2020 4854.01 3158.14 66.50 11.00 311.13 2555.10
   01:32:53.166.18-May-2020 4854.01 3158.14 66.50 11.00 311.33 2555.10
   01:32:53.366.18-May-2020 4854.01 3158.11 66.50 11.00 311.53 2555.10
   01:32:53.567.18-May-2020 4854.01 3158.10 66.50 11.00 311.73 2555.10
   01:32:53.767.18-May-2020 4854.01 3158.12 66.50 11.00 311.93 2555.10
   01:32:53.967.18-May-2020 4854.01 3158.12 66.50 11.00 312.13 2555.10
   01:32:54.167.18-May-2020 4854.01 3158.12 66.50 11.00 312.33 2555.10
   01:32:54.367.18-May-2020 4854.01 3158.05 66.50 11.00 312.53 2555.10
   01:32:54.567.18-May-2020 4854.01 3158.13 66.50 11.00 312.73 2555.10
   01:32:54.767.18-May-2020 4854.01 3158.15 66.50 11.00 312.93 2555.10
   01:32:54.967.18-May-2020 4854.01 3158.13 66.50 11.00 313.13 2555.10
   01:32:55.167.18-May-2020 4854.01 3158.13 66.50 11.00 313.33 2555.10
   01:32:55.367.18-May-2020 4854.01 3158.13 66.50 11.00 313.53 2555.10
   01:32:55.567.18-May-2020 4854.01 3158.13 66.50 11.00 313.73 2555.10
   01:32:55.767.18-May-2020 4854.01 3158.04 66.50 11.00 313.93 2555.10
   01:32:55.967.18-May-2020 4854.01 3158.16 66.50 11.00 314.13 2555.10
   01:32:56.168.18-May-2020 4854.01 3158.16 66.50 11.00 314.33 2555.10
   01:32:56.368.18-May-2020 4854.01 3158.08 66.50 11.00 314.53 2555.10
   01:32:56.568.18-May-2020 4854.01 3158.33 66.50 11.00 314.73 2555.10
   01:32:56.768.18-May-2020 4854.01 3157.97 66.50 11.00 314.93 2555.10
   01:32:56.968.18-May-2020 4854.01 3158.09 66.50 11.00 315.13 2555.10
   01:32:57.168.18-May-2020 4854.01 3158.09 66.50 11.00 315.33 2555.10
   01:32:57.368.18-May-2020 4854.01 3158.12 66.50 11.00 315.53 2555.10
   01:32:57.568.18-May-2020 4854.01 3158.10 66.50 11.00 315.73 2555.10
   01:32:57.768.18-May-2020 4854.01 3158.12 66.50 11.00 315.93 2555.10
   01:32:57.968.18-May-2020 4854.01 3158.10 66.50 11.00 316.13 2555.10
   01:32:58.168.18-May-2020 4854.01 3158.10 66.50 11.00 316.33 2555.10
