~Version Information
 VERS.                  2.0:   CWLS log ASCII Standard -VERSION 2.0
 WRAP.                   NO:   One line per depth step
~Well Information Block
#MNEM.UNIT     VALUE/NAME     DESCRIPTION
#---------     -----------    ---------------------------
 STRT.S             20:30:46 17-May-20: START TIME 20:30:46 17-May-20
 STOP.S             20:37:50 17-May-20: STOP TIME  20:37:50 17-May-20
 STEP.S                   0.00: STEP TIME
 NULL.                 -999.25: NULL VALUE
 UNIT.                     N/A:  LOGGING EQUIPMENT ID
 DCON.         Sperry Drilling:  DIRECTNL CONTR
 DOE .                     N/A:  DOE NUMBER
 JOBN.        AZ-XX-0906252240:  JOB TICKET NUMB
 MWDS.                     N/A:  MWD SHOP
 PROV.                    Baku:  PROVINCE
 STAT.                    Baku:  STATE NAME
 REGN.                   EESSA:  REGION
 BASE.              Azerbaijan:  LOGGING EQUIPMENT BASE LOCATION
 UWI .                     N/A:  UNIQUE WELL IDENTIFIER
 API .                     N/A:  API NUMBER
 MDS .        Operator Entered:  MAG DATA SOURCE
 WTYP.                Deviated:  WELL TYPE
 COMP.     BP Exploration (Caspian Sea) Ltd.:  COMPANY
 SRVC.          Turan Drilling:  CONTRACTOR
 WELL.           J23 (Slot 07):  WELL NAME
 CTRY.              Azerbaijan:  COUNTRY NAME
 FLD .                     ACG:  FIELD NAME
 PDAT.          Mean Sea Level:  PERMANENT DATUM
 RIG .             West Chirag:  RIG NAME
 SON .        AZ-XX-0906252240:  JOB NUMBER
 FTOP.          Formation Tops:  FORM TOPS DESC
 ILTD.               Lithology:  INTERP LTH DESC
 SVYD.                  Survey:  SURVEY DESC
 DMOD.             Drill Model:  DRILL MOD DESC
 HPTY.       Minimum Curvature:  HOLE POS TYPE
 NREF.                    Grid:  NORTH REFERENCE
 SPUD.               27-Aug-20:  SPUD DATE
 DATE.      00.00.00 19-May-20:  END TIME
 STIM.      03.00.00 25-Mar-20:  START TIME
 DMF .             Drill Floor:  DRILL MEAS FROM
 DFST.                        :  DIST FSL TEXT
 DFWT.                        :  DIST FWL TEXT
 CNTY.                        :  COUNTY
 LOC .                        :  LOCATION
 LMF .             Drill Floor:  LOG MEASURED FROM
 VSNS.m                   9.43:  VERT SEC N/S
 VSEW.m                  -8.91:  VERT SEC E/W
 AGAP.m                  43.00:  AIR GAP
 DEP .m                 354.17:  DEPTH
 APD .m                  43.00:  DEPTH ABOVE PD
 WDMS.m                 169.80:  WD ELEV
 EGL .m                   0.00:  GROUND ELEVATION
 EPD .m                   0.00:  ELEVATION
 AZTC.deg                 6.31:  AZM TOTAL CORR
 GRDC.deg                 0.14:  GRID CORRECTION
 MDEC.deg                 6.45:  MAGNETIC DECL
 MDIP.deg                59.56:  MAGNETIC DIP
 MFLD.nT              50295.00:  MAGNETIC FIELD
 GVFD.g                   1.00:  GRAVITY FIELD
 VSDR.deg               179.88:  VERT SEC DIRECT
 TDD .m                5150.01:  TOTAL DEPTH (DRILLER)
 SDEP.m                 864.00:  START DEPTH
 DFSL.m                   0.00:  DISTANCE FSL
 DFWL.m                   0.00:  DISTANCE FWL
 UTMY.m             4443793.85:  UTM Y
 UTMX.m              519005.06:  UTM X
 WHEW.m                  -8.91:  WELL HEAD E/W
 WHNS.m                   9.43:  WELL HEAD N/S
 LONG.deg                51.22:  LONGITUDE
 LATI.deg                40.13:  LATITUDE
 TVDS.m                  43.00:  TVDSS CORRECTN
 EKB .m                   0.00:  KB ELEVATION
 EDF .m                  43.00:  DF ELEVATION
 TDL .m                 363.00:  TOTAL DEPTH (LOGGER)
 MAGU.                 1850802:  MAGUTM CHECKSUM
 VSC .                       0:  VS TO CLOSURE
~Parameter Information Block
#MNEM.UNIT       Value        Description
#---------     -----------    ---------------------------
 AV  .mps                 2.30:  Ann Velocity 
 AVMX.mps                 4.40:  Max Ann Veloc 
 AZIF.deg               110.24:  Azm, Final 
 BHAT.        Rotary Steerable:  BHA Type 
 BREV.rev               331.00:  Rev Bit Total 
 BROT.°/30m               0.00:  Build Rotating 
 BS  .in                  8.50:  Bit Size 
 BSZ .in                  8.50:  Bit Size 
 BTPL.psig              585.00:  Bit Press Loss 
 CABU.                     Yes:  Customer Abuse 
 TCS .hr                122.75:  Time Ciculation Ended 
 CV  .mps                 2.67:  Crit Velocity 
 CVMX.mps                 3.56:  Max Crit Veloc 
 DD1 .          Rashad Habibov:  Direct Drillr 1 
 DD2 .         Rasim Ibrahimov:  Direct Drillr 2 
 DDSV.               Geo-Pilot:  DD Service 
 DEFF.%                  98.00:  % Det Eff 
 DLRX.°/30m               0.75:  Dogleg Rot Max 
 DLSO.°/30m               1.25:  Dogleg Oriented 
 DLSX.°/30m               2.06:  Dogleg Str Max 
 DRET.      07.45.00 17-May-20:  Drill End Time 
 DRST.      22.50.00 15-May-20:  Drill Start Tim 
 DTIM.hr                 20.75:  Time Drilling 
 EDEP.m                5124.01:  End Depth 
 ENG1.           Eldar Hajiyev:  Engineer 1 
 ENG2.        Marcelo Sandoval:  Engineer 2 
 ENG3.        Davud huseynzada:  Engineer 3 
 ENG4.          Ruslan Safarov:  Engineer 4 
 ETIM.      04.33.00 23-May-20:  End Time 
 FLOI.gpm               450.00:  Flow In 
 FLON.gpm               400.00:  Flow In Min 
 FLOS.cptm                0.00:  Fluid Loss 
 FLOX.gpm               500.00:  Flow In Max 
 FTRO.       Formation Presure:  FTWD Run Obj 
 HFLO.                      No:  High Flow 
 HPRE.                     Yes:  High Pressure 
 HTEM.                      No:  High Temp 
 HYDO.m                   1.80:  Hydro Offset 
 IFIN.deg                75.06:  Inc, Final 
 IMAX.deg                75.38:  Inc Max 
 IMIN.deg                74.69:  Inc Min 
 IMND.m                5027.38:  Inc Min Depth 
 IMXD.m                4771.61:  Inc Max Depth 
 JARR.                      No:  Jarring 
 LETM.      07.45.00 17-May-20:  Log End Time 
 LOST.hr                     0:  Lost Rig Time 
 LSTM.      22.50.00 15-May-20:  Log Start Time 
 MDCL.ppm             42000.00:  Mud Chlorides 
 MDES.     Inversion Oil/Synthetic:  Mud Desc 
 DFD .sg                  1.34:  Mud Density 
 MDMN.sg                  1.34:  Dens Mud Min 
 MDMX.sg                  1.34:  Dens Mud Max 
 MOIL.                       0:  Run Mud Oil % 
 MOWR.                   67:33:  Run Mud OWR 
 MSND.                       0:  Run Mud Sand % 
 MSOL.                     1.8:  Run Mud Solids% 
 DFV .spqt               76.00:  Mud Viscosity 
 MWOD.in                  6.75:  MWD Tool OD 
 MWSI.                      No:  Serv Intrp, MWD 
 OTIM.hr                228.19:  Time Operating 
 PCON.           Look Like New:  Pad Condition 
 PMAX.psia             6164.70:  Press Op, Max 
 PV  .cP                 28.00:  Mud PV 
 RUN .                     900:  Run Number 
 ROPA.m/hr               19.00:  ROP Avg 
 ROPN.m/hr               11.00:  ROP Min 
 ROPX.m/hr               36.00:  ROP Max 
 RPMA.rpm               120.00:  RPM Surface Avg 
 RPMN.rpm               120.00:  RPM Surface Min 
 RPMX.rpm               120.00:  RPM Surface Max 
 RRUN.                    L604:  Rig Run Number 
 RTIM.hr                  7.00:  Time Reaming 
 SAZI.deg               109.27:  Azm, Start 
 SDEP.m                4761.01:  Start Depth 
 SIDD.                      No:  Serv Intrp, DD 
 SINC.deg                75.38:  Inc, Start 
 SPPA.psig             3574.00:  SPP Avg 
 SPPN.psig             3475.00:  SPP Min 
 SPPX.psig             3791.00:  SPP Max 
 STIM.      07.08.48 13-May-20:  Start Time 
 SVCS.                 DD, MWD:  Services 
 SVER.                    9.20:  Sperry Version 
 TDAT.m                 363.00:  Tot Depth Attmp 
 TDDF.                      No:  Trip for DD 
 TDLG.m                 363.00:  Tot Depth Loggd 
 TFF .                      No:  Trip for Fail 
 TQAA.f-kp               20.00:  Torque Abs Avg 
 TQAN.f-kp               18.00:  Torque Abs Min 
 TQAX.f-kp               22.00:  Torque Abs Max 
 TRRT.°/30m              -0.35:  Turn Rotating 
 MRT .                    HCIM:  Maximum Recorded Temperature 
 TTMX.degC               92.16:  Max Tool Temp 
 VS01.                90586518:  Virtual Str1 SN 
 VS02.        AZ90560654Z1W1C6:  Virtual Str2 SN 
 VS03.           AZ90610398F11:  Virtual Str3 SN 
 VS04.                90514975:  Virtual Str4 SN 
 VS05.                90514972:  Virtual Str5 SN 
 VS06.     AZ90603282F11V7D1A6:  Virtual Str6 SN 
 WBMN.klb                 7.00:  WOB Min 
 WOBA.klb                12.00:  WOB Avg 
 WOBX.klb                14.00:  WOB Max 
 YP  .lhf2               32.00:  Yield Point 
~Curve Information Block
#MNEM.UNIT                 API CODE     Curve Description
#---------               -----------    ---------------------------
 TIME.HHMMSS            00 000 000 000:  GT Time & Date
 GTDEPTH.m              00 000 000 000:  GT Depth
 GTPQH.psia             00 000 000 000:  GT HR Quartz Pressure
 GTTQ.degC              00 000 000 000:  GT Quartz Temperature
 GTTN.NONE              00 000 000 000:  GT Test Number
 GTET.sec               00 000 000 000:  GT Elapsed Test Time
 GTTVD.m                00 000 000 000:  GT True Vertical Depth
#Other Information
#
#WARRANTY: Halliburton will use its best efforts to furnish customers with 
#accurate information and interpretations that are part of, and incident to, the services 
#provided.  However, Halliburton cannot and does not warrant the accuracy 
#or correctness of such information and interpretations.  Under no circumstances should any 
#such information or interpretation be relied upon as the sole basis for any drilling, 
#completion, production, or financial decision or any procedure involving any risk to the 
#safety of any drilling venture, drilling rig or its crew or any other third party.  The 
#Customer has full responsibility for all drilling, completion and production operation.  
#Halliburton makes no representations or warranties, either expressed or 
#implied, including, but not limited to, the implied warranties of merchantability or fitness 
#for a particular purpose, with respect to the services rendered.  In no event will 
#Halliburton be liable for failure to obtain any particular results or for 
#any damages, including, but not limited to, indirect, special or consequential damages, 
#resulting from the use of any information or interpretation provided by Halliburton.
#
~A           TIME           GTDEPTH  GTPQH  GTTQ  GTTN  GTET   GTTVD  
# ...
   20:31:32.357.17-May-2020 4971.01 5543.77 68.82 5.00  46.00 2585.16
   20:31:32.557.17-May-2020 4971.01 5098.52 68.82 5.00  46.20 2585.16
   20:31:32.757.17-May-2020 4971.01 4396.51 68.82 5.00  46.40 2585.16
   20:31:32.957.17-May-2020 4971.01 3675.93 68.82 5.00  46.60 2585.16
   20:31:33.157.17-May-2020 4971.01 2880.60 68.82 5.00  46.80 2585.16
   20:31:33.357.17-May-2020 4971.01 2647.43 68.82 5.00  47.00 2585.16
   20:31:33.557.17-May-2020 4971.01 2647.43 68.82 5.00  47.20 2585.16
   20:31:33.757.17-May-2020 4971.01 2885.68 68.82 5.00  47.40 2585.16
   20:31:33.957.17-May-2020 4971.01 2886.59 68.82 5.00  47.60 2585.16
   20:31:34.157.17-May-2020 4971.01 2887.53 68.82 5.00  47.80 2585.16
   20:31:34.357.17-May-2020 4971.01 2886.06 68.82 5.00  48.00 2585.16
   20:31:34.557.17-May-2020 4971.01 2886.06 68.82 5.00  48.20 2585.16
   20:31:34.757.17-May-2020 4971.01 2885.78 68.81 5.00  48.40 2585.16
   20:31:34.957.17-May-2020 4971.01 2885.71 68.81 5.00  48.60 2585.16
   20:31:35.157.17-May-2020 4971.01 2885.77 68.81 5.00  48.80 2585.16
   20:31:35.357.17-May-2020 4971.01 2886.56 68.81 5.00  49.00 2585.16
   20:31:35.557.17-May-2020 4971.01 2888.67 68.80 5.00  49.20 2585.16
   20:31:35.757.17-May-2020 4971.01 2889.47 68.80 5.00  49.40 2585.16
   20:31:35.957.17-May-2020 4971.01 2891.77 68.80 5.00  49.60 2585.16
   20:31:36.157.17-May-2020 4971.01 2890.02 68.80 5.00  49.80 2585.16
   20:31:36.357.17-May-2020 4971.01 2890.04 68.79 5.00  50.00 2585.16
   20:31:36.557.17-May-2020 4971.01 2890.04 68.79 5.00  50.20 2585.16
   20:31:36.757.17-May-2020 4971.01 2888.56 68.79 5.00  50.40 2585.16
   20:31:36.957.17-May-2020 4971.01 2888.41 68.79 5.00  50.60 2585.16
   20:31:37.157.17-May-2020 4971.01 2887.84 68.78 5.00  50.80 2585.16
   20:31:37.357.17-May-2020 4971.01 2888.26 68.78 5.00  51.00 2585.16
   20:31:37.557.17-May-2020 4971.01 2888.26 68.78 5.00  51.20 2585.16
   20:31:37.757.17-May-2020 4971.01 2889.41 68.78 5.00  51.40 2585.16
   20:31:37.957.17-May-2020 4971.01 2889.20 68.77 5.00  51.60 2585.16
   20:31:38.157.17-May-2020 4971.01 2889.01 68.77 5.00  51.80 2585.16
   20:31:38.357.17-May-2020 4971.01 2889.24 68.77 5.00  52.00 2585.16
   20:31:38.557.17-May-2020 4971.01 2889.24 68.77 5.00  52.20 2585.16
   20:31:38.757.17-May-2020 4971.01 2886.03 68.77 5.00  52.40 2585.16
   20:31:38.957.17-May-2020 4971.01 2885.78 68.76 5.00  52.60 2585.16
   20:31:39.157.17-May-2020 4971.01 2886.18 68.76 5.00  52.80 2585.16
   20:31:39.357.17-May-2020 4971.01 2886.14 68.76 5.00  53.00 2585.16
   20:31:39.557.17-May-2020 4971.01 2886.26 68.76 5.00  53.20 2585.16
   20:31:39.757.17-May-2020 4971.01 2886.28 68.76 5.00  53.40 2585.16
   20:31:39.957.17-May-2020 4971.01 2886.39 68.76 5.00  53.60 2585.16
   20:31:40.157.17-May-2020 4971.01 2886.41 68.76 5.00  53.80 2585.16
   20:31:40.357.17-May-2020 4971.01 2886.38 68.75 5.00  54.00 2585.16
   20:31:40.557.17-May-2020 4971.01 2886.44 68.75 5.00  54.20 2585.16
   20:31:40.757.17-May-2020 4971.01 2886.49 68.75 5.00  54.40 2585.16
   20:31:40.957.17-May-2020 4971.01 2886.32 68.75 5.00  54.60 2585.16
   20:31:41.157.17-May-2020 4971.01 2886.48 68.75 5.00  54.80 2585.16
   20:31:41.357.17-May-2020 4971.01 2886.48 68.75 5.00  55.00 2585.16
   20:31:41.557.17-May-2020 4971.01 2886.48 68.75 5.00  55.20 2585.16
   20:31:41.757.17-May-2020 4971.01 2886.60 68.75 5.00  55.40 2585.16
   20:31:41.957.17-May-2020 4971.01 2886.55 68.74 5.00  55.60 2585.16
   20:31:42.157.17-May-2020 4971.01 2892.28 68.74 5.00  55.80 2585.16
   20:31:42.357.17-May-2020 4971.01 2893.12 68.74 5.00  56.00 2585.16
   20:31:42.557.17-May-2020 4971.01 2893.12 68.74 5.00  56.20 2585.16
   20:31:42.757.17-May-2020 4971.01 2893.34 68.74 5.00  56.40 2585.16
   20:31:42.957.17-May-2020 4971.01 2893.52 68.74 5.00  56.60 2585.16
   20:31:43.157.17-May-2020 4971.01 2893.20 68.74 5.00  56.80 2585.16
   20:31:43.357.17-May-2020 4971.01 2893.41 68.74 5.00  57.00 2585.16
   20:31:43.557.17-May-2020 4971.01 2893.41 68.74 5.00  57.20 2585.16
   20:31:43.757.17-May-2020 4971.01 2893.34 68.74 5.00  57.40 2585.16
   20:31:43.957.17-May-2020 4971.01 2893.51 68.74 5.00  57.60 2585.16
   20:31:44.156.17-May-2020 4971.01 2893.57 68.74 5.00  57.80 2585.16
   20:31:44.356.17-May-2020 4971.01 2893.59 68.74 5.00  58.00 2585.16
   20:31:44.556.17-May-2020 4971.01 2893.49 68.73 5.00  58.20 2585.16
   20:31:44.756.17-May-2020 4971.01 2893.54 68.73 5.00  58.40 2585.16
   20:31:44.956.17-May-2020 4971.01 2893.64 68.73 5.00  58.60 2585.16
   20:31:45.156.17-May-2020 4971.01 2893.58 68.73 5.00  58.80 2585.16
   20:31:45.356.17-May-2020 4971.01 2893.77 68.73 5.00  59.00 2585.16
   20:31:45.556.17-May-2020 4971.01 2893.77 68.73 5.00  59.20 2585.16
   20:31:45.756.17-May-2020 4971.01 2893.58 68.73 5.00  59.40 2585.16
   20:31:45.956.17-May-2020 4971.01 2893.67 68.73 5.00  59.60 2585.16
   20:31:46.156.17-May-2020 4971.01 2893.67 68.73 5.00  59.80 2585.16
   20:31:46.356.17-May-2020 4971.01 2893.73 68.73 5.00  60.00 2585.16
   20:31:46.556.17-May-2020 4971.01 2893.73 68.73 5.00  60.20 2585.16
   20:31:46.756.17-May-2020 4971.01 2893.75 68.73 5.00  60.40 2585.16
   20:31:46.956.17-May-2020 4971.01 2893.75 68.73 5.00  60.60 2585.16
   20:31:47.156.17-May-2020 4971.01 2893.75 68.73 5.00  60.80 2585.16
   20:31:47.356.17-May-2020 4971.01 2893.78 68.73 5.00  61.00 2585.16
   20:31:47.556.17-May-2020 4971.01 2893.78 68.73 5.00  61.20 2585.16
   20:31:47.756.17-May-2020 4971.01 2893.60 68.73 5.00  61.40 2585.16
   20:31:47.956.17-May-2020 4971.01 2893.68 68.73 5.00  61.60 2585.16
   20:31:48.156.17-May-2020 4971.01 2893.72 68.73 5.00  61.80 2585.16
   20:31:48.356.17-May-2020 4971.01 2893.79 68.73 5.00  62.00 2585.16
   20:31:48.556.17-May-2020 4971.01 2893.80 68.73 5.00  62.20 2585.16
   20:31:48.756.17-May-2020 4971.01 2893.79 68.73 5.00  62.40 2585.16
   20:31:48.956.17-May-2020 4971.01 2893.82 68.73 5.00  62.60 2585.16
   20:31:49.156.17-May-2020 4971.01 2893.82 68.73 5.00  62.80 2585.16
   20:31:49.356.17-May-2020 4971.01 2893.85 68.73 5.00  63.00 2585.16
   20:31:49.556.17-May-2020 4971.01 2893.85 68.73 5.00  63.20 2585.16
   20:31:49.756.17-May-2020 4971.01 2893.57 68.73 5.00  63.40 2585.16
   20:31:49.956.17-May-2020 4971.01 2893.71 68.73 5.00  63.60 2585.16
   20:31:50.156.17-May-2020 4971.01 2893.83 68.73 5.00  63.80 2585.16
   20:31:50.356.17-May-2020 4971.01 2893.66 68.73 5.00  64.00 2585.16
   20:31:50.556.17-May-2020 4971.01 2893.66 68.73 5.00  64.20 2585.16
   20:31:50.756.17-May-2020 4971.01 2893.79 68.73 5.00  64.40 2585.16
   20:31:50.956.17-May-2020 4971.01 2893.76 68.73 5.00  64.60 2585.16
   20:31:51.156.17-May-2020 4971.01 2893.92 68.73 5.00  64.79 2585.16
   20:31:51.356.17-May-2020 4971.01 2893.63 68.73 5.00  64.99 2585.16
   20:31:51.556.17-May-2020 4971.01 2893.63 68.73 5.00  65.19 2585.16
   20:31:51.756.17-May-2020 4971.01 2893.82 68.73 5.00  65.39 2585.16
   20:31:51.956.17-May-2020 4971.01 2893.87 68.73 5.00  65.59 2585.16
   20:31:52.156.17-May-2020 4971.01 2894.01 68.73 5.00  65.79 2585.16
   20:31:52.356.17-May-2020 4971.01 2893.64 68.73 5.00  65.99 2585.16
   20:31:52.556.17-May-2020 4971.01 2893.64 68.73 5.00  66.19 2585.16
   20:31:52.756.17-May-2020 4971.01 2893.85 68.73 5.00  66.39 2585.16
   20:31:52.956.17-May-2020 4971.01 2893.85 68.73 5.00  66.59 2585.16
   20:31:53.156.17-May-2020 4971.01 2893.93 68.73 5.00  66.79 2585.16
   20:31:53.356.17-May-2020 4971.01 2893.94 68.73 5.00  66.99 2585.16
   20:31:53.556.17-May-2020 4971.01 2893.94 68.73 5.00  67.19 2585.16
   20:31:53.756.17-May-2020 4971.01 2893.97 68.73 5.00  67.39 2585.16
   20:31:53.956.17-May-2020 4971.01 2894.00 68.73 5.00  67.59 2585.16
   20:31:54.156.17-May-2020 4971.01 2894.01 68.73 5.00  67.79 2585.16
   20:31:54.356.17-May-2020 4971.01 2893.97 68.73 5.00  67.99 2585.16
   20:31:54.556.17-May-2020 4971.01 2893.97 68.73 5.00  68.19 2585.16
   20:31:54.756.17-May-2020 4971.01 2893.87 68.73 5.00  68.39 2585.16
   20:31:54.956.17-May-2020 4971.01 2893.91 68.73 5.00  68.59 2585.16
   20:31:55.156.17-May-2020 4971.01 2893.97 68.73 5.00  68.79 2585.16
