~Version Information
 VERS.                  2.0:   CWLS log ASCII Standard -VERSION 2.0
 WRAP.                   NO:   One line per depth step
~Well Information Block
#MNEM.UNIT     VALUE/NAME     DESCRIPTION
#---------     -----------    ---------------------------
 STRT.S             19:37:06 17-May-20: START TIME 19:37:06 17-May-20
 STOP.S             19:44:11 17-May-20: STOP TIME  19:44:11 17-May-20
 STEP.S                   0.00: STEP TIME
 NULL.                 -999.25: NULL VALUE
 UNIT.                     N/A:  LOGGING EQUIPMENT ID
 DCON.         Sperry Drilling:  DIRECTNL CONTR
 DOE .                     N/A:  DOE NUMBER
 JOBN.        AZ-XX-0906252240:  JOB TICKET NUMB
 MWDS.                     N/A:  MWD SHOP
 PROV.                    Baku:  PROVINCE
 STAT.                    Baku:  STATE NAME
 REGN.                   EESSA:  REGION
 BASE.              Azerbaijan:  LOGGING EQUIPMENT BASE LOCATION
 UWI .                     N/A:  UNIQUE WELL IDENTIFIER
 API .                     N/A:  API NUMBER
 MDS .        Operator Entered:  MAG DATA SOURCE
 WTYP.                Deviated:  WELL TYPE
 COMP.     BP Exploration (Caspian Sea) Ltd.:  COMPANY
 SRVC.          Turan Drilling:  CONTRACTOR
 WELL.           J23 (Slot 07):  WELL NAME
 CTRY.              Azerbaijan:  COUNTRY NAME
 FLD .                     ACG:  FIELD NAME
 PDAT.          Mean Sea Level:  PERMANENT DATUM
 RIG .             West Chirag:  RIG NAME
 SON .        AZ-XX-0906252240:  JOB NUMBER
 FTOP.          Formation Tops:  FORM TOPS DESC
 ILTD.               Lithology:  INTERP LTH DESC
 SVYD.                  Survey:  SURVEY DESC
 DMOD.             Drill Model:  DRILL MOD DESC
 HPTY.       Minimum Curvature:  HOLE POS TYPE
 NREF.                    Grid:  NORTH REFERENCE
 SPUD.               27-Aug-20:  SPUD DATE
 DATE.      00.00.00 19-May-20:  END TIME
 STIM.      03.00.00 25-Mar-20:  START TIME
 DMF .             Drill Floor:  DRILL MEAS FROM
 DFST.                        :  DIST FSL TEXT
 DFWT.                        :  DIST FWL TEXT
 CNTY.                        :  COUNTY
 LOC .                        :  LOCATION
 LMF .             Drill Floor:  LOG MEASURED FROM
 VSNS.m                   9.43:  VERT SEC N/S
 VSEW.m                  -8.91:  VERT SEC E/W
 AGAP.m                  43.00:  AIR GAP
 DEP .m                 354.17:  DEPTH
 APD .m                  43.00:  DEPTH ABOVE PD
 WDMS.m                 169.80:  WD ELEV
 EGL .m                   0.00:  GROUND ELEVATION
 EPD .m                   0.00:  ELEVATION
 AZTC.deg                 6.31:  AZM TOTAL CORR
 GRDC.deg                 0.14:  GRID CORRECTION
 MDEC.deg                 6.45:  MAGNETIC DECL
 MDIP.deg                59.56:  MAGNETIC DIP
 MFLD.nT              50295.00:  MAGNETIC FIELD
 GVFD.g                   1.00:  GRAVITY FIELD
 VSDR.deg               179.88:  VERT SEC DIRECT
 TDD .m                5150.01:  TOTAL DEPTH (DRILLER)
 SDEP.m                 864.00:  START DEPTH
 DFSL.m                   0.00:  DISTANCE FSL
 DFWL.m                   0.00:  DISTANCE FWL
 UTMY.m             4443793.85:  UTM Y
 UTMX.m              519005.06:  UTM X
 WHEW.m                  -8.91:  WELL HEAD E/W
 WHNS.m                   9.43:  WELL HEAD N/S
 LONG.deg                51.22:  LONGITUDE
 LATI.deg                40.13:  LATITUDE
 TVDS.m                  43.00:  TVDSS CORRECTN
 EKB .m                   0.00:  KB ELEVATION
 EDF .m                  43.00:  DF ELEVATION
 TDL .m                 363.00:  TOTAL DEPTH (LOGGER)
 MAGU.                 1850802:  MAGUTM CHECKSUM
 VSC .                       0:  VS TO CLOSURE
~Parameter Information Block
#MNEM.UNIT       Value        Description
#---------     -----------    ---------------------------
 AV  .mps                 2.30:  Ann Velocity 
 AVMX.mps                 4.40:  Max Ann Veloc 
 AZIF.deg               110.24:  Azm, Final 
 BHAT.        Rotary Steerable:  BHA Type 
 BREV.rev               331.00:  Rev Bit Total 
 BROT.°/30m               0.00:  Build Rotating 
 BS  .in                  8.50:  Bit Size 
 BSZ .in                  8.50:  Bit Size 
 BTPL.psig              585.00:  Bit Press Loss 
 CABU.                     Yes:  Customer Abuse 
 TCS .hr                122.75:  Time Ciculation Ended 
 CV  .mps                 2.67:  Crit Velocity 
 CVMX.mps                 3.56:  Max Crit Veloc 
 DD1 .          Rashad Habibov:  Direct Drillr 1 
 DD2 .         Rasim Ibrahimov:  Direct Drillr 2 
 DDSV.               Geo-Pilot:  DD Service 
 DEFF.%                  98.00:  % Det Eff 
 DLRX.°/30m               0.75:  Dogleg Rot Max 
 DLSO.°/30m               1.25:  Dogleg Oriented 
 DLSX.°/30m               2.06:  Dogleg Str Max 
 DRET.      07.45.00 17-May-20:  Drill End Time 
 DRST.      22.50.00 15-May-20:  Drill Start Tim 
 DTIM.hr                 20.75:  Time Drilling 
 EDEP.m                5124.01:  End Depth 
 ENG1.           Eldar Hajiyev:  Engineer 1 
 ENG2.        Marcelo Sandoval:  Engineer 2 
 ENG3.        Davud huseynzada:  Engineer 3 
 ENG4.          Ruslan Safarov:  Engineer 4 
 ETIM.      04.33.00 23-May-20:  End Time 
 FLOI.gpm               450.00:  Flow In 
 FLON.gpm               400.00:  Flow In Min 
 FLOS.cptm                0.00:  Fluid Loss 
 FLOX.gpm               500.00:  Flow In Max 
 FTRO.       Formation Presure:  FTWD Run Obj 
 HFLO.                      No:  High Flow 
 HPRE.                     Yes:  High Pressure 
 HTEM.                      No:  High Temp 
 HYDO.m                   1.80:  Hydro Offset 
 IFIN.deg                75.06:  Inc, Final 
 IMAX.deg                75.38:  Inc Max 
 IMIN.deg                74.69:  Inc Min 
 IMND.m                5027.38:  Inc Min Depth 
 IMXD.m                4771.61:  Inc Max Depth 
 JARR.                      No:  Jarring 
 LETM.      07.45.00 17-May-20:  Log End Time 
 LOST.hr                     0:  Lost Rig Time 
 LSTM.      22.50.00 15-May-20:  Log Start Time 
 MDCL.ppm             42000.00:  Mud Chlorides 
 MDES.     Inversion Oil/Synthetic:  Mud Desc 
 DFD .sg                  1.34:  Mud Density 
 MDMN.sg                  1.34:  Dens Mud Min 
 MDMX.sg                  1.34:  Dens Mud Max 
 MOIL.                       0:  Run Mud Oil % 
 MOWR.                   67:33:  Run Mud OWR 
 MSND.                       0:  Run Mud Sand % 
 MSOL.                     1.8:  Run Mud Solids% 
 DFV .spqt               76.00:  Mud Viscosity 
 MWOD.in                  6.75:  MWD Tool OD 
 MWSI.                      No:  Serv Intrp, MWD 
 OTIM.hr                228.19:  Time Operating 
 PCON.           Look Like New:  Pad Condition 
 PMAX.psia             6164.70:  Press Op, Max 
 PV  .cP                 28.00:  Mud PV 
 RUN .                     900:  Run Number 
 ROPA.m/hr               19.00:  ROP Avg 
 ROPN.m/hr               11.00:  ROP Min 
 ROPX.m/hr               36.00:  ROP Max 
 RPMA.rpm               120.00:  RPM Surface Avg 
 RPMN.rpm               120.00:  RPM Surface Min 
 RPMX.rpm               120.00:  RPM Surface Max 
 RRUN.                    L604:  Rig Run Number 
 RTIM.hr                  7.00:  Time Reaming 
 SAZI.deg               109.27:  Azm, Start 
 SDEP.m                4761.01:  Start Depth 
 SIDD.                      No:  Serv Intrp, DD 
 SINC.deg                75.38:  Inc, Start 
 SPPA.psig             3574.00:  SPP Avg 
 SPPN.psig             3475.00:  SPP Min 
 SPPX.psig             3791.00:  SPP Max 
 STIM.      07.08.48 13-May-20:  Start Time 
 SVCS.                 DD, MWD:  Services 
 SVER.                    9.20:  Sperry Version 
 TDAT.m                 363.00:  Tot Depth Attmp 
 TDDF.                      No:  Trip for DD 
 TDLG.m                 363.00:  Tot Depth Loggd 
 TFF .                      No:  Trip for Fail 
 TQAA.f-kp               20.00:  Torque Abs Avg 
 TQAN.f-kp               18.00:  Torque Abs Min 
 TQAX.f-kp               22.00:  Torque Abs Max 
 TRRT.°/30m              -0.35:  Turn Rotating 
 MRT .                    HCIM:  Maximum Recorded Temperature 
 TTMX.degC               92.16:  Max Tool Temp 
 VS01.                90586518:  Virtual Str1 SN 
 VS02.        AZ90560654Z1W1C6:  Virtual Str2 SN 
 VS03.           AZ90610398F11:  Virtual Str3 SN 
 VS04.                90514975:  Virtual Str4 SN 
 VS05.                90514972:  Virtual Str5 SN 
 VS06.     AZ90603282F11V7D1A6:  Virtual Str6 SN 
 WBMN.klb                 7.00:  WOB Min 
 WOBA.klb                12.00:  WOB Avg 
 WOBX.klb                14.00:  WOB Max 
 YP  .lhf2               32.00:  Yield Point 
~Curve Information Block
#MNEM.UNIT                 API CODE     Curve Description
#---------               -----------    ---------------------------
 TIME.HHMMSS            00 000 000 000:  GT Time & Date
 GTDEPTH.m              00 000 000 000:  GT Depth
 GTPQH.psia             00 000 000 000:  GT HR Quartz Pressure
 GTTQ.degC              00 000 000 000:  GT Quartz Temperature
 GTTN.NONE              00 000 000 000:  GT Test Number
 GTET.sec               00 000 000 000:  GT Elapsed Test Time
 GTTVD.m                00 000 000 000:  GT True Vertical Depth
#Other Information
#
#WARRANTY: Halliburton will use its best efforts to furnish customers with 
#accurate information and interpretations that are part of, and incident to, the services 
#provided.  However, Halliburton cannot and does not warrant the accuracy 
#or correctness of such information and interpretations.  Under no circumstances should any 
#such information or interpretation be relied upon as the sole basis for any drilling, 
#completion, production, or financial decision or any procedure involving any risk to the 
#safety of any drilling venture, drilling rig or its crew or any other third party.  The 
#Customer has full responsibility for all drilling, completion and production operation.  
#Halliburton makes no representations or warranties, either expressed or 
#implied, including, but not limited to, the implied warranties of merchantability or fitness 
#for a particular purpose, with respect to the services rendered.  In no event will 
#Halliburton be liable for failure to obtain any particular results or for 
#any damages, including, but not limited to, indirect, special or consequential damages, 
#resulting from the use of any information or interpretation provided by Halliburton.
#
~A           TIME           GTDEPTH  GTPQH  GTTQ  GTTN  GTET   GTTVD  
# ...
   19:43:14.581.17-May-2020 4994.01 2920.34 69.61 4.00 367.97 2591.05
   19:43:14.781.17-May-2020 4994.01 2920.34 69.61 4.00 368.17 2591.05
   19:43:14.981.17-May-2020 4994.01 5481.09 69.61 4.00 368.37 2591.05
   19:43:15.181.17-May-2020 4994.01 5547.92 69.61 4.00 368.57 2591.05
   19:43:15.381.17-May-2020 4994.01 5545.24 69.61 4.00 368.77 2591.05
   19:43:15.581.17-May-2020 4994.01 5544.85 69.61 4.00 368.97 2591.05
   19:43:15.781.17-May-2020 4994.01 5545.07 69.61 4.00 369.17 2591.05
   19:43:15.981.17-May-2020 4994.01 5548.03 69.61 4.00 369.37 2591.05
   19:43:16.181.17-May-2020 4994.01 5556.38 69.62 4.00 369.57 2591.05
   19:43:16.381.17-May-2020 4994.01 5556.28 69.62 4.00 369.77 2591.05
   19:43:16.581.17-May-2020 4994.01 5549.16 69.62 4.00 369.97 2591.05
   19:43:16.781.17-May-2020 4994.01 5549.16 69.62 4.00 370.17 2591.05
   19:43:16.981.17-May-2020 4994.01 5549.61 69.62 4.00 370.37 2591.05
   19:43:17.181.17-May-2020 4994.01 5560.55 69.62 4.00 370.57 2591.05
   19:43:17.381.17-May-2020 4994.01 5556.86 69.62 4.00 370.77 2591.05
   19:43:17.581.17-May-2020 4994.01 5550.95 69.63 4.00 370.97 2591.05
   19:43:17.781.17-May-2020 4994.01 5566.56 69.63 4.00 371.17 2591.05
   19:43:17.981.17-May-2020 4994.01 5557.74 69.63 4.00 371.37 2591.05
   19:43:18.181.17-May-2020 4994.01 5555.37 69.63 4.00 371.57 2591.05
   19:43:18.381.17-May-2020 4994.01 5563.50 69.63 4.00 371.77 2591.05
   19:43:18.581.17-May-2020 4994.01 5558.41 69.63 4.00 371.97 2591.05
   19:43:18.781.17-May-2020 4994.01 5558.41 69.64 4.00 372.17 2591.05
   19:43:18.981.17-May-2020 4994.01 5558.58 69.64 4.00 372.37 2591.05
   19:43:19.181.17-May-2020 4994.01 5554.30 69.64 4.00 372.57 2591.05
   19:43:19.381.17-May-2020 4994.01 5556.46 69.64 4.00 372.77 2591.05
   19:43:19.581.17-May-2020 4994.01 5556.78 69.64 4.00 372.97 2591.05
   19:43:19.781.17-May-2020 4994.01 5556.78 69.64 4.00 373.17 2591.05
   19:43:19.981.17-May-2020 4994.01 5555.31 69.65 4.00 373.37 2591.05
   19:43:20.181.17-May-2020 4994.01 5553.66 69.65 4.00 373.57 2591.05
   19:43:20.381.17-May-2020 4994.01 5553.65 69.65 4.00 373.77 2591.05
   19:43:20.581.17-May-2020 4994.01 5564.13 69.65 4.00 373.97 2591.05
   19:43:20.781.17-May-2020 4994.01 5564.13 69.65 4.00 374.17 2591.05
   19:43:20.981.17-May-2020 4994.01 5553.22 69.66 4.00 374.37 2591.05
   19:43:21.181.17-May-2020 4994.01 5554.06 69.66 4.00 374.57 2591.05
   19:43:21.381.17-May-2020 4994.01 5555.11 69.66 4.00 374.77 2591.05
   19:43:21.581.17-May-2020 4994.01 5554.86 69.66 4.00 374.97 2591.05
   19:43:21.781.17-May-2020 4994.01 5554.86 69.66 4.00 375.17 2591.05
   19:43:21.981.17-May-2020 4994.01 5552.30 69.66 4.00 375.37 2591.05
   19:43:22.181.17-May-2020 4994.01 5551.24 69.66 4.00 375.57 2591.05
   19:43:22.381.17-May-2020 4994.01 5551.48 69.66 4.00 375.77 2591.05
   19:43:22.581.17-May-2020 4994.01 5552.07 69.66 4.00 375.97 2591.05
   19:43:22.781.17-May-2020 4994.01 5552.07 69.66 4.00 376.17 2591.05
   19:43:22.981.17-May-2020 4994.01 5553.14 69.67 4.00 376.37 2591.05
   19:43:23.181.17-May-2020 4994.01 5553.40 69.67 4.00 376.57 2591.05
   19:43:23.381.17-May-2020 4994.01 5555.11 69.67 4.00 376.77 2591.05
   19:43:23.581.17-May-2020 4994.01 5553.62 69.67 4.00 376.97 2591.05
   19:43:23.781.17-May-2020 4994.01 5553.62 69.67 4.00 377.17 2591.05
   19:43:23.981.17-May-2020 4994.01 5551.57 69.67 4.00 377.37 2591.05
   19:43:24.181.17-May-2020 4994.01 5557.36 69.67 4.00 377.57 2591.05
   19:43:24.381.17-May-2020 4994.01 5571.58 69.67 4.00 377.77 2591.05
   19:43:24.581.17-May-2020 4994.01 5551.81 69.67 4.00 377.97 2591.05
   19:43:24.781.17-May-2020 4994.01 5551.81 69.67 4.00 378.17 2591.05
   19:43:24.981.17-May-2020 4994.01 5558.13 69.67 4.00 378.37 2591.05
   19:43:25.181.17-May-2020 4994.01 5564.56 69.67 4.00 378.57 2591.05
   19:43:25.380.17-May-2020 4994.01 5556.26 69.67 4.00 378.77 2591.05
   19:43:25.580.17-May-2020 4994.01 5562.50 69.67 4.00 378.97 2591.05
   19:43:25.780.17-May-2020 4994.01 5562.50 69.67 4.00 379.17 2591.05
   19:43:25.980.17-May-2020 4994.01 5552.09 69.67 4.00 379.37 2591.05
   19:43:26.180.17-May-2020 4994.01 5557.02 69.67 4.00 379.57 2591.05
   19:43:26.380.17-May-2020 4994.01 5557.32 69.67 4.00 379.77 2591.05
   19:43:26.580.17-May-2020 4994.01 5554.61 69.67 4.00 379.97 2591.05
   19:43:26.780.17-May-2020 4994.01 5554.61 69.67 4.00 380.17 2591.05
   19:43:26.980.17-May-2020 4994.01 5553.31 69.67 4.00 380.37 2591.05
   19:43:27.180.17-May-2020 4994.01 5557.09 69.67 4.00 380.57 2591.05
   19:43:27.380.17-May-2020 4994.01 5560.75 69.67 4.00 380.77 2591.05
   19:43:27.580.17-May-2020 4994.01 5560.41 69.67 4.00 380.97 2591.05
   19:43:27.780.17-May-2020 4994.01 5560.41 69.67 4.00 381.17 2591.05
   19:43:27.980.17-May-2020 4994.01 5553.03 69.67 4.00 381.37 2591.05
   19:43:28.180.17-May-2020 4994.01 5555.17 69.67 4.00 381.57 2591.05
   19:43:28.380.17-May-2020 4994.01 5554.90 69.67 4.00 381.77 2591.05
   19:43:28.580.17-May-2020 4994.01 5552.09 69.67 4.00 381.97 2591.05
   19:43:28.780.17-May-2020 4994.01 5552.09 69.67 4.00 382.17 2591.05
   19:43:28.980.17-May-2020 4994.01 5552.21 69.67 4.00 382.37 2591.05
   19:43:29.180.17-May-2020 4994.01 5552.70 69.67 4.00 382.57 2591.05
   19:43:29.380.17-May-2020 4994.01 5552.52 69.67 4.00 382.77 2591.05
   19:43:29.580.17-May-2020 4994.01 5563.24 69.67 4.00 382.97 2591.05
   19:43:29.780.17-May-2020 4994.01 5563.24 69.67 4.00 383.17 2591.05
   19:43:29.980.17-May-2020 4994.01 5553.90 69.67 4.00 383.37 2591.05
   19:43:30.180.17-May-2020 4994.01 5555.86 69.67 4.00 383.57 2591.05
   19:43:30.380.17-May-2020 4994.01 5556.69 69.67 4.00 383.77 2591.05
   19:43:30.580.17-May-2020 4994.01 5563.65 69.67 4.00 383.97 2591.05
   19:43:30.780.17-May-2020 4994.01 5563.65 69.67 4.00 384.17 2591.05
   19:43:30.980.17-May-2020 4994.01 5554.25 69.67 4.00 384.37 2591.05
   19:43:31.180.17-May-2020 4994.01 5568.02 69.67 4.00 384.57 2591.05
   19:43:31.380.17-May-2020 4994.01 5552.84 69.67 4.00 384.77 2591.05
   19:43:31.580.17-May-2020 4994.01 5563.40 69.67 4.00 384.97 2591.05
   19:43:31.780.17-May-2020 4994.01 5563.40 69.67 4.00 385.17 2591.05
   19:43:31.980.17-May-2020 4994.01 5555.30 69.67 4.00 385.37 2591.05
   19:43:32.180.17-May-2020 4994.01 5564.06 69.67 4.00 385.57 2591.05
   19:43:32.380.17-May-2020 4994.01 5564.59 69.67 4.00 385.77 2591.05
   19:43:32.580.17-May-2020 4994.01 5557.70 69.67 4.00 385.97 2591.05
   19:43:32.780.17-May-2020 4994.01 5557.70 69.67 4.00 386.17 2591.05
   19:43:32.980.17-May-2020 4994.01 5556.54 69.67 4.00 386.37 2591.05
   19:43:33.180.17-May-2020 4994.01 5557.05 69.67 4.00 386.57 2591.05
   19:43:33.380.17-May-2020 4994.01 5553.77 69.67 4.00 386.77 2591.05
   19:43:33.580.17-May-2020 4994.01 5554.34 69.67 4.00 386.97 2591.05
   19:43:33.780.17-May-2020 4994.01 5554.34 69.67 4.00 387.17 2591.05
   19:43:33.980.17-May-2020 4994.01 5554.20 69.67 4.00 387.37 2591.05
   19:43:34.180.17-May-2020 4994.01 5564.46 69.67 4.00 387.57 2591.05
   19:43:34.380.17-May-2020 4994.01 5558.41 69.67 4.00 387.77 2591.05
   19:43:34.580.17-May-2020 4994.01 5553.20 69.67 4.00 387.97 2591.05
   19:43:34.780.17-May-2020 4994.01 5553.20 69.67 4.00 388.17 2591.05
   19:43:34.980.17-May-2020 4994.01 5554.88 69.67 4.00 388.37 2591.05
   19:43:35.180.17-May-2020 4994.01 5554.15 69.66 4.00 388.57 2591.05
   19:43:35.380.17-May-2020 4994.01 5552.31 69.66 4.00 388.77 2591.05
   19:43:35.580.17-May-2020 4994.01 5552.78 69.66 4.00 388.97 2591.05
   19:43:35.780.17-May-2020 4994.01 5552.78 69.66 4.00 389.17 2591.05
   19:43:35.980.17-May-2020 4994.01 5552.17 69.66 4.00 389.37 2591.05
   19:43:36.180.17-May-2020 4994.01 5552.68 69.66 4.00 389.57 2591.05
   19:43:36.380.17-May-2020 4994.01 5567.27 69.66 4.00 389.77 2591.05
   19:43:36.580.17-May-2020 4994.01 5549.65 69.66 4.00 389.97 2591.05
   19:43:36.780.17-May-2020 4994.01 5549.65 69.66 4.00 390.17 2591.05
   19:43:36.980.17-May-2020 4994.01 5557.33 69.66 4.00 390.37 2591.05
   19:43:37.180.17-May-2020 4994.01 5553.52 69.66 4.00 390.57 2591.05
   19:43:37.380.17-May-2020 4994.01 5569.64 69.66 4.00 390.77 2591.05
