~Version Information
 VERS.                  2.0:   CWLS log ASCII Standard -VERSION 2.0
 WRAP.                   NO:   One line per depth step
~Well Information Block
#MNEM.UNIT     VALUE/NAME     DESCRIPTION
#---------     -----------    ---------------------------
 STRT.S             22:05:00 17-May-20: START TIME 22:05:00 17-May-20
 STOP.S             22:12:03 17-May-20: STOP TIME  22:12:03 17-May-20
 STEP.S                   0.00: STEP TIME
 NULL.                 -999.25: NULL VALUE
 UNIT.                     N/A:  LOGGING EQUIPMENT ID
 DCON.         Sperry Drilling:  DIRECTNL CONTR
 DOE .                     N/A:  DOE NUMBER
 JOBN.        AZ-XX-0906252240:  JOB TICKET NUMB
 MWDS.                     N/A:  MWD SHOP
 PROV.                    Baku:  PROVINCE
 STAT.                    Baku:  STATE NAME
 REGN.                   EESSA:  REGION
 BASE.              Azerbaijan:  LOGGING EQUIPMENT BASE LOCATION
 UWI .                     N/A:  UNIQUE WELL IDENTIFIER
 API .                     N/A:  API NUMBER
 MDS .        Operator Entered:  MAG DATA SOURCE
 WTYP.                Deviated:  WELL TYPE
 COMP.     BP Exploration (Caspian Sea) Ltd.:  COMPANY
 SRVC.          Turan Drilling:  CONTRACTOR
 WELL.           J23 (Slot 07):  WELL NAME
 CTRY.              Azerbaijan:  COUNTRY NAME
 FLD .                     ACG:  FIELD NAME
 PDAT.          Mean Sea Level:  PERMANENT DATUM
 RIG .             West Chirag:  RIG NAME
 SON .        AZ-XX-0906252240:  JOB NUMBER
 FTOP.          Formation Tops:  FORM TOPS DESC
 ILTD.               Lithology:  INTERP LTH DESC
 SVYD.                  Survey:  SURVEY DESC
 DMOD.             Drill Model:  DRILL MOD DESC
 HPTY.       Minimum Curvature:  HOLE POS TYPE
 NREF.                    Grid:  NORTH REFERENCE
 SPUD.               27-Aug-20:  SPUD DATE
 DATE.      00.00.00 19-May-20:  END TIME
 STIM.      03.00.00 25-Mar-20:  START TIME
 DMF .             Drill Floor:  DRILL MEAS FROM
 DFST.                        :  DIST FSL TEXT
 DFWT.                        :  DIST FWL TEXT
 CNTY.                        :  COUNTY
 LOC .                        :  LOCATION
 LMF .             Drill Floor:  LOG MEASURED FROM
 VSNS.m                   9.43:  VERT SEC N/S
 VSEW.m                  -8.91:  VERT SEC E/W
 AGAP.m                  43.00:  AIR GAP
 DEP .m                 354.17:  DEPTH
 APD .m                  43.00:  DEPTH ABOVE PD
 WDMS.m                 169.80:  WD ELEV
 EGL .m                   0.00:  GROUND ELEVATION
 EPD .m                   0.00:  ELEVATION
 AZTC.deg                 6.31:  AZM TOTAL CORR
 GRDC.deg                 0.14:  GRID CORRECTION
 MDEC.deg                 6.45:  MAGNETIC DECL
 MDIP.deg                59.56:  MAGNETIC DIP
 MFLD.nT              50295.00:  MAGNETIC FIELD
 GVFD.g                   1.00:  GRAVITY FIELD
 VSDR.deg               179.88:  VERT SEC DIRECT
 TDD .m                5150.01:  TOTAL DEPTH (DRILLER)
 SDEP.m                 864.00:  START DEPTH
 DFSL.m                   0.00:  DISTANCE FSL
 DFWL.m                   0.00:  DISTANCE FWL
 UTMY.m             4443793.85:  UTM Y
 UTMX.m              519005.06:  UTM X
 WHEW.m                  -8.91:  WELL HEAD E/W
 WHNS.m                   9.43:  WELL HEAD N/S
 LONG.deg                51.22:  LONGITUDE
 LATI.deg                40.13:  LATITUDE
 TVDS.m                  43.00:  TVDSS CORRECTN
 EKB .m                   0.00:  KB ELEVATION
 EDF .m                  43.00:  DF ELEVATION
 TDL .m                 363.00:  TOTAL DEPTH (LOGGER)
 MAGU.                 1850802:  MAGUTM CHECKSUM
 VSC .                       0:  VS TO CLOSURE
~Parameter Information Block
#MNEM.UNIT       Value        Description
#---------     -----------    ---------------------------
 AV  .mps                 2.30:  Ann Velocity 
 AVMX.mps                 4.40:  Max Ann Veloc 
 AZIF.deg               110.24:  Azm, Final 
 BHAT.        Rotary Steerable:  BHA Type 
 BREV.rev               331.00:  Rev Bit Total 
 BROT.°/30m               0.00:  Build Rotating 
 BS  .in                  8.50:  Bit Size 
 BSZ .in                  8.50:  Bit Size 
 BTPL.psig              585.00:  Bit Press Loss 
 CABU.                     Yes:  Customer Abuse 
 COMM.                     íe:  Run Comments 1 
 TCS .hr                122.75:  Time Ciculation Ended 
 CV  .mps                 2.67:  Crit Velocity 
 CVMX.mps                 3.56:  Max Crit Veloc 
 DD1 .          Rashad Habibov:  Direct Drillr 1 
 DD2 .         Rasim Ibrahimov:  Direct Drillr 2 
 DDSV.               Geo-Pilot:  DD Service 
 DEFF.%                  98.00:  % Det Eff 
 DLRX.°/30m               0.75:  Dogleg Rot Max 
 DLSO.°/30m               1.25:  Dogleg Oriented 
 DLSX.°/30m               2.06:  Dogleg Str Max 
 DRET.      07.45.00 17-May-20:  Drill End Time 
 DRST.      22.50.00 15-May-20:  Drill Start Tim 
 DTIM.hr                 20.75:  Time Drilling 
 EDEP.m                5124.01:  End Depth 
 ENG1.           Eldar Hajiyev:  Engineer 1 
 ENG2.        Marcelo Sandoval:  Engineer 2 
 ENG3.        Davud huseynzada:  Engineer 3 
 ENG4.          Ruslan Safarov:  Engineer 4 
 ETIM.      04.33.00 23-May-20:  End Time 
 FLOI.gpm               450.00:  Flow In 
 FLON.gpm               400.00:  Flow In Min 
 FLOS.cptm                0.00:  Fluid Loss 
 FLOX.gpm               500.00:  Flow In Max 
 FTRO.       Formation Presure:  FTWD Run Obj 
 HFLO.                      No:  High Flow 
 HPRE.                     Yes:  High Pressure 
 HTEM.                      No:  High Temp 
 HYDO.m                   1.80:  Hydro Offset 
 IFIN.deg                75.06:  Inc, Final 
 IMAX.deg                75.38:  Inc Max 
 IMIN.deg                74.69:  Inc Min 
 IMND.m                5027.38:  Inc Min Depth 
 IMXD.m                4771.61:  Inc Max Depth 
 JARR.                      No:  Jarring 
 LETM.      07.45.00 17-May-20:  Log End Time 
 LOST.hr                     0:  Lost Rig Time 
 LSTM.      22.50.00 15-May-20:  Log Start Time 
 MDCL.ppm             42000.00:  Mud Chlorides 
 MDES.     Inversion Oil/Synthetic:  Mud Desc 
 DFD .sg                  1.34:  Mud Density 
 MDMN.sg                  1.34:  Dens Mud Min 
 MDMX.sg                  1.34:  Dens Mud Max 
 MOIL.                       0:  Run Mud Oil % 
 MOWR.                   67:33:  Run Mud OWR 
 MSND.                       0:  Run Mud Sand % 
 MSOL.                     1.8:  Run Mud Solids% 
 DFV .spqt               76.00:  Mud Viscosity 
 MWOD.in                  6.75:  MWD Tool OD 
 MWSI.                      No:  Serv Intrp, MWD 
 OTIM.hr                228.19:  Time Operating 
 PCON.           Look Like New:  Pad Condition 
 PMAX.psia             6164.70:  Press Op, Max 
 PV  .cP                 28.00:  Mud PV 
 RUN .                     900:  Run Number 
 ROPA.m/hr               19.00:  ROP Avg 
 ROPN.m/hr               11.00:  ROP Min 
 ROPX.m/hr               36.00:  ROP Max 
 RPMA.rpm               120.00:  RPM Surface Avg 
 RPMN.rpm               120.00:  RPM Surface Min 
 RPMX.rpm               120.00:  RPM Surface Max 
 RRUN.                    L604:  Rig Run Number 
 RTIM.hr                  7.00:  Time Reaming 
 SAZI.deg               109.27:  Azm, Start 
 SDEP.m                4761.01:  Start Depth 
 SIDD.                      No:  Serv Intrp, DD 
 SINC.deg                75.38:  Inc, Start 
 SPPA.psig             3574.00:  SPP Avg 
 SPPN.psig             3475.00:  SPP Min 
 SPPX.psig             3791.00:  SPP Max 
 STIM.      07.08.48 13-May-20:  Start Time 
 SVCS.                 DD, MWD:  Services 
 SVER.                    9.20:  Sperry Version 
 TDAT.m                 363.00:  Tot Depth Attmp 
 TDDF.                      No:  Trip for DD 
 TDLG.m                 363.00:  Tot Depth Loggd 
 TFF .                      No:  Trip for Fail 
 TQAA.f-kp               20.00:  Torque Abs Avg 
 TQAN.f-kp               18.00:  Torque Abs Min 
 TQAX.f-kp               22.00:  Torque Abs Max 
 TRRT.°/30m              -0.35:  Turn Rotating 
 MRT .                    HCIM:  Maximum Recorded Temperature 
 TTMX.degC               92.16:  Max Tool Temp 
 VS01.                90586518:  Virtual Str1 SN 
 VS02.        AZ90560654Z1W1C6:  Virtual Str2 SN 
 VS03.           AZ90610398F11:  Virtual Str3 SN 
 VS04.                90514975:  Virtual Str4 SN 
 VS05.                90514972:  Virtual Str5 SN 
 VS06.     AZ90603282F11V7D1A6:  Virtual Str6 SN 
 WBMN.klb                 7.00:  WOB Min 
 WOBA.klb                12.00:  WOB Avg 
 WOBX.klb                14.00:  WOB Max 
 YP  .lhf2               32.00:  Yield Point 
~Curve Information Block
#MNEM.UNIT                 API CODE     Curve Description
#---------               -----------    ---------------------------
 TIME.HHMMSS            00 000 000 000:  GT Time & Date
 GTDEPTH.m              00 000 000 000:  GT Depth
 GTPQH.psia             00 000 000 000:  GT HR Quartz Pressure
 GTTQ.degC              00 000 000 000:  GT Quartz Temperature
 GTTN.NONE              00 000 000 000:  GT Test Number
 GTET.sec               00 000 000 000:  GT Elapsed Test Time
 GTTVD.m                00 000 000 000:  GT True Vertical Depth
#Other Information
#
#WARRANTY: Halliburton will use its best efforts to furnish customers with 
#accurate information and interpretations that are part of, and incident to, the services 
#provided.  However, Halliburton cannot and does not warrant the accuracy 
#or correctness of such information and interpretations.  Under no circumstances should any 
#such information or interpretation be relied upon as the sole basis for any drilling, 
#completion, production, or financial decision or any procedure involving any risk to the 
#safety of any drilling venture, drilling rig or its crew or any other third party.  The 
#Customer has full responsibility for all drilling, completion and production operation.  
#Halliburton makes no representations or warranties, either expressed or 
#implied, including, but not limited to, the implied warranties of merchantability or fitness 
#for a particular purpose, with respect to the services rendered.  In no event will 
#Halliburton be liable for failure to obtain any particular results or for 
#any damages, including, but not limited to, indirect, special or consequential damages, 
#resulting from the use of any information or interpretation provided by Halliburton.
#
~A           TIME           GTDEPTH  GTPQH  GTTQ  GTTN  GTET   GTTVD  
   22:05:00.791.17-May-2020 4937.01 5501.54 67.76 7.00   0.00 2576.47
   22:05:00.991.17-May-2020 4937.01 5501.54 67.76 7.00   0.20 2576.47
   22:05:01.192.17-May-2020 4937.01 5502.22 67.76 7.00   0.40 2576.47
   22:05:01.392.17-May-2020 4937.01 5502.58 67.76 7.00   0.60 2576.47
   22:05:01.593.17-May-2020 4937.01 5502.74 67.76 7.00   0.80 2576.47
   22:05:01.793.17-May-2020 4937.01 5502.82 67.76 7.00   1.00 2576.47
   22:05:01.993.17-May-2020 4937.01 5503.32 67.76 7.00   1.20 2576.47
   22:05:02.194.17-May-2020 4937.01 5510.35 67.76 7.00   1.40 2576.47
   22:05:02.394.17-May-2020 4937.01 5506.02 67.76 7.00   1.60 2576.47
   22:05:02.594.17-May-2020 4937.01 5503.48 67.76 7.00   1.80 2576.47
   22:05:02.795.17-May-2020 4937.01 5510.82 67.76 7.00   2.00 2576.47
   22:05:02.995.17-May-2020 4937.01 5516.93 67.76 7.00   2.20 2576.47
   22:05:03.196.17-May-2020 4937.01 5502.17 67.76 7.00   2.40 2576.47
   22:05:03.396.17-May-2020 4937.01 5510.42 67.76 7.00   2.60 2576.47
   22:05:03.596.17-May-2020 4937.01 5507.46 67.76 7.00   2.81 2576.47
   22:05:03.797.17-May-2020 4937.01 5510.39 67.76 7.00   3.01 2576.47
   22:05:03.997.17-May-2020 4937.01 5510.39 67.76 7.00   3.21 2576.47
   22:05:04.197.17-May-2020 4937.01 5506.15 67.76 7.00   3.41 2576.47
   22:05:04.398.17-May-2020 4937.01 5516.13 67.76 7.00   3.61 2576.47
   22:05:04.598.17-May-2020 4937.01 5516.70 67.76 7.00   3.81 2576.47
   22:05:04.798.17-May-2020 4937.01 5509.62 67.76 7.00   4.01 2576.47
   22:05:04.999.17-May-2020 4937.01 5509.62 67.76 7.00   4.21 2576.47
   22:05:05.199.17-May-2020 4937.01 5518.97 67.76 7.00   4.41 2576.47
   22:05:05.400.17-May-2020 4937.01 5512.94 67.76 7.00   4.61 2576.47
   22:05:05.600.17-May-2020 4937.01 5521.85 67.76 7.00   4.81 2576.47
   22:05:05.800.17-May-2020 4937.01 5521.96 67.76 7.00   5.01 2576.47
   22:05:06.001.17-May-2020 4937.01 5515.98 67.76 7.00   5.21 2576.47
   22:05:06.201.17-May-2020 4937.01 5524.77 67.76 7.00   5.41 2576.47
   22:05:06.401.17-May-2020 4937.01 5514.53 67.76 7.00   5.61 2576.47
   22:05:06.602.17-May-2020 4937.01 5518.46 67.76 7.00   5.81 2576.47
   22:05:06.802.17-May-2020 4937.01 5528.67 67.76 7.00   6.01 2576.47
   22:05:07.003.17-May-2020 4937.01 5511.49 67.76 7.00   6.21 2576.47
   22:05:07.203.17-May-2020 4937.01 5525.05 67.76 7.00   6.41 2576.47
   22:05:07.403.17-May-2020 4937.01 5514.39 67.76 7.00   6.61 2576.47
   22:05:07.604.17-May-2020 4937.01 5518.80 67.76 7.00   6.81 2576.47
   22:05:07.804.17-May-2020 4937.01 5515.27 67.76 7.00   7.01 2576.47
   22:05:08.004.17-May-2020 4937.01 5515.27 67.76 7.00   7.21 2576.47
   22:05:08.205.17-May-2020 4937.01 5514.72 67.76 7.00   7.41 2576.47
   22:05:08.405.17-May-2020 4937.01 5515.24 67.76 7.00   7.61 2576.47
   22:05:08.605.17-May-2020 4937.01 5514.58 67.76 7.00   7.81 2576.47
   22:05:08.806.17-May-2020 4937.01 5514.77 67.76 7.00   8.01 2576.47
   22:05:09.006.17-May-2020 4937.01 5519.73 67.76 7.00   8.22 2576.47
   22:05:09.207.17-May-2020 4937.01 5519.56 67.76 7.00   8.42 2576.47
   22:05:09.407.17-May-2020 4937.01 5514.78 67.76 7.00   8.62 2576.47
   22:05:09.607.17-May-2020 4937.01 5524.03 67.76 7.00   8.82 2576.47
   22:05:09.808.17-May-2020 4937.01 5516.10 67.76 7.00   9.02 2576.47
   22:05:10.008.17-May-2020 4937.01 5518.96 67.76 7.00   9.22 2576.47
   22:05:10.208.17-May-2020 4937.01 5517.13 67.76 7.00   9.42 2576.47
   22:05:10.409.17-May-2020 4937.01 5518.14 67.76 7.00   9.62 2576.47
   22:05:10.609.17-May-2020 4937.01 5517.93 67.76 7.00   9.82 2576.47
   22:05:10.809.17-May-2020 4937.01 5518.72 67.76 7.00  10.02 2576.47
   22:05:11.010.17-May-2020 4937.01 5519.07 67.76 7.00  10.22 2576.47
   22:05:11.210.17-May-2020 4937.01 5518.50 67.76 7.00  10.42 2576.47
   22:05:11.411.17-May-2020 4937.01 5532.13 67.76 7.00  10.62 2576.47
   22:05:11.611.17-May-2020 4937.01 5515.01 67.76 7.00  10.82 2576.47
   22:05:11.811.17-May-2020 4937.01 5529.96 67.76 7.00  11.02 2576.47
   22:05:12.012.17-May-2020 4937.01 5518.16 67.76 7.00  11.22 2576.47
   22:05:12.212.17-May-2020 4937.01 5538.79 67.76 7.00  11.42 2576.47
   22:05:12.412.17-May-2020 4937.01 5514.25 67.76 7.00  11.62 2576.47
   22:05:12.613.17-May-2020 4937.01 5529.31 67.76 7.00  11.82 2576.47
   22:05:12.813.17-May-2020 4937.01 5521.32 67.76 7.00  12.02 2576.47
   22:05:13.014.17-May-2020 4937.01 5521.32 67.76 7.00  12.22 2576.47
   22:05:13.214.17-May-2020 4937.01 5524.55 67.76 7.00  12.42 2576.47
   22:05:13.414.17-May-2020 4937.01 5521.72 67.76 7.00  12.62 2576.47
   22:05:13.615.17-May-2020 4937.01 5529.25 67.76 7.00  12.82 2576.47
   22:05:13.815.17-May-2020 4937.01 5522.40 67.76 7.00  13.02 2576.47
   22:05:14.015.17-May-2020 4937.01 5522.40 67.76 7.00  13.22 2576.47
   22:05:14.216.17-May-2020 4937.01 5520.65 67.76 7.00  13.42 2576.47
   22:05:14.416.17-May-2020 4937.01 5532.17 67.76 7.00  13.62 2576.47
   22:05:14.616.17-May-2020 4937.01 5530.75 67.76 7.00  13.83 2576.47
   22:05:14.817.17-May-2020 4937.01 5521.57 67.76 7.00  14.03 2576.47
   22:05:15.017.17-May-2020 4937.01 5531.40 67.76 7.00  14.23 2576.47
   22:05:15.218.17-May-2020 4937.01 5524.51 67.76 7.00  14.43 2576.47
   22:05:15.418.17-May-2020 4937.01 5531.46 67.76 7.00  14.63 2576.47
   22:05:15.618.17-May-2020 4937.01 5520.52 67.76 7.00  14.83 2576.47
   22:05:15.819.17-May-2020 4937.01 5531.61 67.76 7.00  15.03 2576.47
   22:05:16.019.17-May-2020 4937.01 5531.61 67.76 7.00  15.23 2576.47
   22:05:16.219.17-May-2020 4937.01 5531.61 67.76 7.00  15.43 2576.47
   22:05:16.420.17-May-2020 4937.01 5521.52 67.76 7.00  15.63 2576.47
   22:05:16.620.17-May-2020 4937.01 5522.45 67.76 7.00  15.83 2576.47
   22:05:16.821.17-May-2020 4937.01 5521.31 67.76 7.00  16.03 2576.47
   22:05:17.021.17-May-2020 4937.01 5521.31 67.76 7.00  16.23 2576.47
   22:05:17.221.17-May-2020 4937.01 5521.32 67.76 7.00  16.43 2576.47
   22:05:17.422.17-May-2020 4937.01 5532.04 67.76 7.00  16.63 2576.47
   22:05:17.622.17-May-2020 4937.01 5519.94 67.76 7.00  16.83 2576.47
   22:05:17.822.17-May-2020 4937.01 5532.92 67.76 7.00  17.03 2576.47
   22:05:18.023.17-May-2020 4937.01 5520.38 67.76 7.00  17.23 2576.47
   22:05:18.223.17-May-2020 4937.01 5525.89 67.76 7.00  17.43 2576.47
   22:05:18.423.17-May-2020 4937.01 5522.20 67.76 7.00  17.63 2576.47
   22:05:18.624.17-May-2020 4937.01 5523.81 67.76 7.00  17.83 2576.47
   22:05:18.824.17-May-2020 4937.01 5523.62 67.76 7.00  18.03 2576.47
   22:05:19.025.17-May-2020 4937.01 5523.82 67.76 7.00  18.23 2576.47
   22:05:19.225.17-May-2020 4937.01 5523.68 67.76 7.00  18.43 2576.47
   22:05:19.425.17-May-2020 4937.01 5523.29 67.76 7.00  18.63 2576.47
   22:05:19.626.17-May-2020 4937.01 5537.83 67.76 7.00  18.83 2576.47
   22:05:19.826.17-May-2020 4937.01 5518.34 67.76 7.00  19.03 2576.47
   22:05:20.026.17-May-2020 4937.01 5518.34 67.76 7.00  19.24 2576.47
   22:05:20.227.17-May-2020 4937.01 5523.21 67.76 7.00  19.44 2576.47
   22:05:20.427.17-May-2020 4937.01 5532.51 67.76 7.00  19.64 2576.47
   22:05:20.628.17-May-2020 4937.01 5530.39 67.76 7.00  19.84 2576.47
   22:05:20.828.17-May-2020 4937.01 5525.49 67.76 7.00  20.04 2576.47
   22:05:21.028.17-May-2020 4937.01 5525.49 67.76 7.00  20.24 2576.47
   22:05:21.229.17-May-2020 4937.01 5538.36 67.76 7.00  20.44 2576.47
   22:05:21.429.17-May-2020 4937.01 5524.83 67.75 7.00  20.64 2576.47
   22:05:21.629.17-May-2020 4937.01 5530.28 67.76 7.00  20.84 2576.47
   22:05:21.830.17-May-2020 4937.01 5535.20 67.75 7.00  21.04 2576.47
   22:05:22.030.17-May-2020 4937.01 5533.73 67.76 7.00  21.24 2576.47
   22:05:22.230.17-May-2020 4937.01 5526.85 67.75 7.00  21.44 2576.47
   22:05:22.431.17-May-2020 4937.01 5536.29 67.75 7.00  21.64 2576.47
   22:05:22.631.17-May-2020 4937.01 5526.73 67.75 7.00  21.84 2576.47
   22:05:22.832.17-May-2020 4937.01 5528.58 67.75 7.00  22.04 2576.47
   22:05:23.032.17-May-2020 4937.01 5528.58 67.75 7.00  22.24 2576.47
   22:05:23.232.17-May-2020 4937.01 5526.80 67.75 7.00  22.44 2576.47
   22:05:23.433.17-May-2020 4937.01 5525.06 67.75 7.00  22.64 2576.47
   22:05:23.633.17-May-2020 4937.01 5525.85 67.75 7.00  22.84 2576.47
