~Version Information
 VERS.                  2.0:   CWLS log ASCII Standard -VERSION 2.0
 WRAP.                   NO:   One line per depth step
~Well Information Block
#MNEM.UNIT     VALUE/NAME     DESCRIPTION
#---------     -----------    ---------------------------
 STRT.S             16:14:41 17-May-20: START TIME 16:14:41 17-May-20
 STOP.S             16:21:36 17-May-20: STOP TIME  16:21:36 17-May-20
 STEP.S                   0.00: STEP TIME
 NULL.                 -999.25: NULL VALUE
 UNIT.                     N/A:  LOGGING EQUIPMENT ID
 DCON.         Sperry Drilling:  DIRECTNL CONTR
 DOE .                     N/A:  DOE NUMBER
 JOBN.        AZ-XX-0906252240:  JOB TICKET NUMB
 MWDS.                     N/A:  MWD SHOP
 PROV.                    Baku:  PROVINCE
 STAT.                    Baku:  STATE NAME
 REGN.                   EESSA:  REGION
 BASE.              Azerbaijan:  LOGGING EQUIPMENT BASE LOCATION
 UWI .                     N/A:  UNIQUE WELL IDENTIFIER
 API .                     N/A:  API NUMBER
 MDS .        Operator Entered:  MAG DATA SOURCE
 WTYP.                Deviated:  WELL TYPE
 COMP.     BP Exploration (Caspian Sea) Ltd.:  COMPANY
 SRVC.          Turan Drilling:  CONTRACTOR
 WELL.           J23 (Slot 07):  WELL NAME
 CTRY.              Azerbaijan:  COUNTRY NAME
 FLD .                     ACG:  FIELD NAME
 PDAT.          Mean Sea Level:  PERMANENT DATUM
 RIG .             West Chirag:  RIG NAME
 SON .        AZ-XX-0906252240:  JOB NUMBER
 FTOP.          Formation Tops:  FORM TOPS DESC
 ILTD.               Lithology:  INTERP LTH DESC
 SVYD.                  Survey:  SURVEY DESC
 DMOD.             Drill Model:  DRILL MOD DESC
 HPTY.       Minimum Curvature:  HOLE POS TYPE
 NREF.                    Grid:  NORTH REFERENCE
 SPUD.               27-Aug-20:  SPUD DATE
 DATE.      00.00.00 19-May-20:  END TIME
 STIM.      03.00.00 25-Mar-20:  START TIME
 DMF .             Drill Floor:  DRILL MEAS FROM
 DFST.                        :  DIST FSL TEXT
 DFWT.                        :  DIST FWL TEXT
 CNTY.                        :  COUNTY
 LOC .                        :  LOCATION
 LMF .             Drill Floor:  LOG MEASURED FROM
 VSNS.m                   9.43:  VERT SEC N/S
 VSEW.m                  -8.91:  VERT SEC E/W
 AGAP.m                  43.00:  AIR GAP
 DEP .m                 354.17:  DEPTH
 APD .m                  43.00:  DEPTH ABOVE PD
 WDMS.m                 169.80:  WD ELEV
 EGL .m                   0.00:  GROUND ELEVATION
 EPD .m                   0.00:  ELEVATION
 AZTC.deg                 6.31:  AZM TOTAL CORR
 GRDC.deg                 0.14:  GRID CORRECTION
 MDEC.deg                 6.45:  MAGNETIC DECL
 MDIP.deg                59.56:  MAGNETIC DIP
 MFLD.nT              50295.00:  MAGNETIC FIELD
 GVFD.g                   1.00:  GRAVITY FIELD
 VSDR.deg               179.88:  VERT SEC DIRECT
 TDD .m                5150.01:  TOTAL DEPTH (DRILLER)
 SDEP.m                 864.00:  START DEPTH
 DFSL.m                   0.00:  DISTANCE FSL
 DFWL.m                   0.00:  DISTANCE FWL
 UTMY.m             4443793.85:  UTM Y
 UTMX.m              519005.06:  UTM X
 WHEW.m                  -8.91:  WELL HEAD E/W
 WHNS.m                   9.43:  WELL HEAD N/S
 LONG.deg                51.22:  LONGITUDE
 LATI.deg                40.13:  LATITUDE
 TVDS.m                  43.00:  TVDSS CORRECTN
 EKB .m                   0.00:  KB ELEVATION
 EDF .m                  43.00:  DF ELEVATION
 TDL .m                 363.00:  TOTAL DEPTH (LOGGER)
 MAGU.                 1850802:  MAGUTM CHECKSUM
 VSC .                       0:  VS TO CLOSURE
~Parameter Information Block
#MNEM.UNIT       Value        Description
#---------     -----------    ---------------------------
 AV  .mps                 2.30:  Ann Velocity 
 AVMX.mps                 4.40:  Max Ann Veloc 
 AZIF.deg               110.24:  Azm, Final 
 BHAT.        Rotary Steerable:  BHA Type 
 BREV.rev               331.00:  Rev Bit Total 
 BROT.°/30m               0.00:  Build Rotating 
 BS  .in                  8.50:  Bit Size 
 BSZ .in                  8.50:  Bit Size 
 BTPL.psig              585.00:  Bit Press Loss 
 CABU.                     Yes:  Customer Abuse 
 COMM.                     ¿m:  Run Comments 1 
 TCS .hr                122.75:  Time Ciculation Ended 
 CV  .mps                 2.67:  Crit Velocity 
 CVMX.mps                 3.56:  Max Crit Veloc 
 DD1 .          Rashad Habibov:  Direct Drillr 1 
 DD2 .         Rasim Ibrahimov:  Direct Drillr 2 
 DDSV.               Geo-Pilot:  DD Service 
 DEFF.%                  98.00:  % Det Eff 
 DLRX.°/30m               0.75:  Dogleg Rot Max 
 DLSO.°/30m               1.25:  Dogleg Oriented 
 DLSX.°/30m               2.06:  Dogleg Str Max 
 DRET.      07.45.00 17-May-20:  Drill End Time 
 DRST.      22.50.00 15-May-20:  Drill Start Tim 
 DTIM.hr                 20.75:  Time Drilling 
 EDEP.m                5124.01:  End Depth 
 ENG1.           Eldar Hajiyev:  Engineer 1 
 ENG2.        Marcelo Sandoval:  Engineer 2 
 ENG3.        Davud huseynzada:  Engineer 3 
 ENG4.          Ruslan Safarov:  Engineer 4 
 ETIM.      04.33.00 23-May-20:  End Time 
 FLOI.gpm               450.00:  Flow In 
 FLON.gpm               400.00:  Flow In Min 
 FLOS.cptm                0.00:  Fluid Loss 
 FLOX.gpm               500.00:  Flow In Max 
 FTRO.       Formation Presure:  FTWD Run Obj 
 HFLO.                      No:  High Flow 
 HPRE.                     Yes:  High Pressure 
 HTEM.                      No:  High Temp 
 HYDO.m                   1.80:  Hydro Offset 
 IFIN.deg                75.06:  Inc, Final 
 IMAX.deg                75.38:  Inc Max 
 IMIN.deg                74.69:  Inc Min 
 IMND.m                5027.38:  Inc Min Depth 
 IMXD.m                4771.61:  Inc Max Depth 
 JARR.                      No:  Jarring 
 LETM.      07.45.00 17-May-20:  Log End Time 
 LOST.hr                     0:  Lost Rig Time 
 LSTM.      22.50.00 15-May-20:  Log Start Time 
 MDCL.ppm             42000.00:  Mud Chlorides 
 MDES.     Inversion Oil/Synthetic:  Mud Desc 
 DFD .sg                  1.34:  Mud Density 
 MDMN.sg                  1.34:  Dens Mud Min 
 MDMX.sg                  1.34:  Dens Mud Max 
 MOIL.                       0:  Run Mud Oil % 
 MOWR.                   67:33:  Run Mud OWR 
 MSND.                       0:  Run Mud Sand % 
 MSOL.                     1.8:  Run Mud Solids% 
 DFV .spqt               76.00:  Mud Viscosity 
 MWOD.in                  6.75:  MWD Tool OD 
 MWSI.                      No:  Serv Intrp, MWD 
 OTIM.hr                228.19:  Time Operating 
 PCON.           Look Like New:  Pad Condition 
 PMAX.psia             6164.70:  Press Op, Max 
 PV  .cP                 28.00:  Mud PV 
 RUN .                     900:  Run Number 
 ROPA.m/hr               19.00:  ROP Avg 
 ROPN.m/hr               11.00:  ROP Min 
 ROPX.m/hr               36.00:  ROP Max 
 RPMA.rpm               120.00:  RPM Surface Avg 
 RPMN.rpm               120.00:  RPM Surface Min 
 RPMX.rpm               120.00:  RPM Surface Max 
 RRUN.                    L604:  Rig Run Number 
 RTIM.hr                  7.00:  Time Reaming 
 SAZI.deg               109.27:  Azm, Start 
 SDEP.m                4761.01:  Start Depth 
 SIDD.                      No:  Serv Intrp, DD 
 SINC.deg                75.38:  Inc, Start 
 SPPA.psig             3574.00:  SPP Avg 
 SPPN.psig             3475.00:  SPP Min 
 SPPX.psig             3791.00:  SPP Max 
 STIM.      07.08.48 13-May-20:  Start Time 
 SVCS.                 DD, MWD:  Services 
 SVER.                    9.20:  Sperry Version 
 TDAT.m                 363.00:  Tot Depth Attmp 
 TDDF.                      No:  Trip for DD 
 TDLG.m                 363.00:  Tot Depth Loggd 
 TFF .                      No:  Trip for Fail 
 TQAA.f-kp               20.00:  Torque Abs Avg 
 TQAN.f-kp               18.00:  Torque Abs Min 
 TQAX.f-kp               22.00:  Torque Abs Max 
 TRRT.°/30m              -0.35:  Turn Rotating 
 MRT .                    HCIM:  Maximum Recorded Temperature 
 TTMX.degC               92.16:  Max Tool Temp 
 VS01.                90586518:  Virtual Str1 SN 
 VS02.        AZ90560654Z1W1C6:  Virtual Str2 SN 
 VS03.           AZ90610398F11:  Virtual Str3 SN 
 VS04.                90514975:  Virtual Str4 SN 
 VS05.                90514972:  Virtual Str5 SN 
 VS06.     AZ90603282F11V7D1A6:  Virtual Str6 SN 
 WBMN.klb                 7.00:  WOB Min 
 WOBA.klb                12.00:  WOB Avg 
 WOBX.klb                14.00:  WOB Max 
 YP  .lhf2               32.00:  Yield Point 
~Curve Information Block
#MNEM.UNIT                 API CODE     Curve Description
#---------               -----------    ---------------------------
 TIME.HHMMSS            00 000 000 000:  GT Time & Date
 GTDEPTH.m              00 000 000 000:  GT Depth
 GTPQH.psia             00 000 000 000:  GT HR Quartz Pressure
 GTTQ.degC              00 000 000 000:  GT Quartz Temperature
 GTTN.NONE              00 000 000 000:  GT Test Number
 GTET.sec               00 000 000 000:  GT Elapsed Test Time
 GTTVD.m                00 000 000 000:  GT True Vertical Depth
#Other Information
#
#WARRANTY: Halliburton will use its best efforts to furnish customers with 
#accurate information and interpretations that are part of, and incident to, the services 
#provided.  However, Halliburton cannot and does not warrant the accuracy 
#or correctness of such information and interpretations.  Under no circumstances should any 
#such information or interpretation be relied upon as the sole basis for any drilling, 
#completion, production, or financial decision or any procedure involving any risk to the 
#safety of any drilling venture, drilling rig or its crew or any other third party.  The 
#Customer has full responsibility for all drilling, completion and production operation.  
#Halliburton makes no representations or warranties, either expressed or 
#implied, including, but not limited to, the implied warranties of merchantability or fitness 
#for a particular purpose, with respect to the services rendered.  In no event will 
#Halliburton be liable for failure to obtain any particular results or for 
#any damages, including, but not limited to, indirect, special or consequential damages, 
#resulting from the use of any information or interpretation provided by Halliburton.
#
~A           TIME           GTDEPTH  GTPQH  GTTQ  GTTN  GTET   GTTVD  
# ...
   16:15:50.000.17-May-2020 5073.51 2646.09 71.40 2.00  69.00 2611.87
   16:15:50.200.17-May-2020 5073.51 2646.09 71.40 2.00  69.20 2611.87
   16:15:50.400.17-May-2020 5073.51 2645.68 71.40 2.00  69.40 2611.87
   16:15:50.600.17-May-2020 5073.51 2645.72 71.40 2.00  69.60 2611.87
   16:15:50.800.17-May-2020 5073.51 2645.80 71.40 2.00  69.80 2611.87
   16:15:51.000.17-May-2020 5073.51 2645.79 71.40 2.00  70.00 2611.87
   16:15:51.200.17-May-2020 5073.51 2645.79 71.40 2.00  70.20 2611.87
   16:15:51.400.17-May-2020 5073.51 2645.76 71.40 2.00  70.40 2611.87
   16:15:51.600.17-May-2020 5073.51 2645.82 71.40 2.00  70.60 2611.87
   16:15:51.800.17-May-2020 5073.51 2645.85 71.40 2.00  70.80 2611.87
   16:15:52.000.17-May-2020 5073.51 2645.99 71.40 2.00  71.00 2611.87
   16:15:52.200.17-May-2020 5073.51 2645.93 71.40 2.00  71.20 2611.87
   16:15:52.400.17-May-2020 5073.51 2645.70 71.40 2.00  71.40 2611.87
   16:15:52.600.17-May-2020 5073.51 2645.76 71.40 2.00  71.60 2611.87
   16:15:52.800.17-May-2020 5073.51 2645.85 71.40 2.00  71.80 2611.87
   16:15:53.000.17-May-2020 5073.51 2645.82 71.40 2.00  72.00 2611.87
   16:15:53.200.17-May-2020 5073.51 2645.82 71.40 2.00  72.20 2611.87
   16:15:53.400.17-May-2020 5073.51 2645.82 71.40 2.00  72.40 2611.87
   16:15:53.600.17-May-2020 5073.51 2645.85 71.40 2.00  72.60 2611.87
   16:15:53.800.17-May-2020 5073.51 2645.88 71.40 2.00  72.80 2611.87
   16:15:54.000.17-May-2020 5073.51 2645.88 71.40 2.00  73.00 2611.87
   16:15:54.200.17-May-2020 5073.51 2645.88 71.40 2.00  73.20 2611.87
   16:15:54.400.17-May-2020 5073.51 2645.68 71.40 2.00  73.40 2611.87
   16:15:54.600.17-May-2020 5073.51 2645.79 71.40 2.00  73.60 2611.87
   16:15:54.800.17-May-2020 5073.51 2646.24 71.40 2.00  73.80 2611.87
   16:15:55.000.17-May-2020 5073.51 2645.68 71.40 2.00  74.00 2611.87
   16:15:55.200.17-May-2020 5073.51 2645.68 71.40 2.00  74.20 2611.87
   16:15:55.400.17-May-2020 5073.51 2645.85 71.40 2.00  74.40 2611.87
   16:15:55.600.17-May-2020 5073.51 2645.85 71.40 2.00  74.60 2611.87
   16:15:55.800.17-May-2020 5073.51 2645.99 71.40 2.00  74.80 2611.87
   16:15:56.000.17-May-2020 5073.51 2645.88 71.40 2.00  75.00 2611.87
   16:15:56.200.17-May-2020 5073.51 2645.82 71.40 2.00  75.20 2611.87
   16:15:56.400.17-May-2020 5073.51 2645.79 71.40 2.00  75.40 2611.87
   16:15:56.600.17-May-2020 5073.51 2646.20 71.40 2.00  75.60 2611.87
   16:15:56.800.17-May-2020 5073.51 2645.73 71.40 2.00  75.80 2611.87
   16:15:57.000.17-May-2020 5073.51 2645.81 71.40 2.00  76.00 2611.87
   16:15:57.200.17-May-2020 5073.51 2645.81 71.40 2.00  76.20 2611.87
   16:15:57.400.17-May-2020 5073.51 2645.90 71.40 2.00  76.40 2611.87
   16:15:57.600.17-May-2020 5073.51 2645.88 71.40 2.00  76.60 2611.87
   16:15:57.800.17-May-2020 5073.51 2645.89 71.40 2.00  76.80 2611.87
   16:15:58.000.17-May-2020 5073.51 2645.88 71.40 2.00  77.00 2611.87
   16:15:58.200.17-May-2020 5073.51 2645.88 71.40 2.00  77.20 2611.87
   16:15:58.400.17-May-2020 5073.51 2645.96 71.40 2.00  77.40 2611.87
   16:15:58.600.17-May-2020 5073.51 2646.02 71.40 2.00  77.60 2611.87
   16:15:58.800.17-May-2020 5073.51 2646.02 71.40 2.00  77.80 2611.87
   16:15:59.000.17-May-2020 5073.51 2645.81 71.40 2.00  78.00 2611.87
   16:15:59.200.17-May-2020 5073.51 2645.81 71.40 2.00  78.20 2611.87
   16:15:59.400.17-May-2020 5073.51 2646.00 71.40 2.00  78.40 2611.87
   16:15:59.600.17-May-2020 5073.51 2645.93 71.41 2.00  78.60 2611.87
   16:15:59.800.17-May-2020 5073.51 2645.93 71.40 2.00  78.80 2611.87
   16:16:00.000.17-May-2020 5073.51 2645.92 71.40 2.00  79.00 2611.87
   16:16:00.200.17-May-2020 5073.51 2645.95 71.40 2.00  79.20 2611.87
   16:16:00.400.17-May-2020 5073.51 2645.99 71.40 2.00  79.40 2611.87
   16:16:00.600.17-May-2020 5073.51 2646.10 71.40 2.00  79.60 2611.87
   16:16:00.800.17-May-2020 5073.51 2646.06 71.40 2.00  79.80 2611.87
   16:16:01.000.17-May-2020 5073.51 2645.83 71.40 2.00  80.00 2611.87
   16:16:01.200.17-May-2020 5073.51 2645.83 71.40 2.00  80.20 2611.87
   16:16:01.400.17-May-2020 5073.51 2646.10 71.40 2.00  80.40 2611.87
   16:16:01.600.17-May-2020 5073.51 2645.86 71.40 2.00  80.60 2611.87
   16:16:01.800.17-May-2020 5073.51 2645.94 71.40 2.00  80.80 2611.87
   16:16:02.000.17-May-2020 5073.51 2645.95 71.40 2.00  81.00 2611.87
   16:16:02.200.17-May-2020 5073.51 2645.95 71.40 2.00  81.20 2611.87
   16:16:02.400.17-May-2020 5073.51 2646.29 71.40 2.00  81.40 2611.87
   16:16:02.600.17-May-2020 5073.51 2645.85 71.40 2.00  81.60 2611.87
   16:16:02.800.17-May-2020 5073.51 2645.88 71.40 2.00  81.80 2611.87
   16:16:03.000.17-May-2020 5073.51 2646.13 71.40 2.00  82.00 2611.87
   16:16:03.200.17-May-2020 5073.51 2646.13 71.40 2.00  82.20 2611.87
   16:16:03.400.17-May-2020 5073.51 2645.88 71.40 2.00  82.40 2611.87
   16:16:03.600.17-May-2020 5073.51 2645.88 71.40 2.00  82.60 2611.87
   16:16:03.800.17-May-2020 5073.51 2645.96 71.40 2.00  82.80 2611.87
   16:16:04.000.17-May-2020 5073.51 2646.01 71.40 2.00  83.00 2611.87
   16:16:04.200.17-May-2020 5073.51 2645.98 71.40 2.00  83.20 2611.87
   16:16:04.400.17-May-2020 5073.51 2645.97 71.40 2.00  83.40 2611.87
   16:16:04.600.17-May-2020 5073.51 2645.98 71.40 2.00  83.60 2611.87
   16:16:04.800.17-May-2020 5073.51 2646.01 71.40 2.00  83.80 2611.87
   16:16:05.000.17-May-2020 5073.51 2646.03 71.40 2.00  84.00 2611.87
   16:16:05.200.17-May-2020 5073.51 2646.03 71.40 2.00  84.20 2611.87
   16:16:05.400.17-May-2020 5073.51 2645.93 71.40 2.00  84.40 2611.87
   16:16:05.600.17-May-2020 5073.51 2645.92 71.40 2.00  84.60 2611.87
   16:16:05.800.17-May-2020 5073.51 2645.99 71.40 2.00  84.80 2611.87
   16:16:06.000.17-May-2020 5073.51 2646.05 71.40 2.00  85.00 2611.87
   16:16:06.200.17-May-2020 5073.51 2646.05 71.40 2.00  85.20 2611.87
   16:16:06.400.17-May-2020 5073.51 2645.99 71.40 2.00  85.40 2611.87
   16:16:06.600.17-May-2020 5073.51 2646.01 71.40 2.00  85.60 2611.87
   16:16:06.800.17-May-2020 5073.51 2646.03 71.40 2.00  85.80 2611.87
   16:16:07.000.17-May-2020 5073.51 2646.06 71.40 2.00  86.00 2611.87
   16:16:07.200.17-May-2020 5073.51 2646.06 71.40 2.00  86.20 2611.87
   16:16:07.400.17-May-2020 5073.51 2646.13 71.40 2.00  86.40 2611.87
   16:16:07.600.17-May-2020 5073.51 2645.90 71.40 2.00  86.60 2611.87
   16:16:07.800.17-May-2020 5073.51 2646.05 71.40 2.00  86.80 2611.87
   16:16:08.000.17-May-2020 5073.51 2646.22 71.40 2.00  87.00 2611.87
   16:16:08.200.17-May-2020 5073.51 2645.95 71.40 2.00  87.20 2611.87
   16:16:08.400.17-May-2020 5073.51 2645.95 71.40 2.00  87.40 2611.87
   16:16:08.600.17-May-2020 5073.51 2646.06 71.40 2.00  87.60 2611.87
   16:16:08.800.17-May-2020 5073.51 2646.02 71.40 2.00  87.80 2611.87
   16:16:09.000.17-May-2020 5073.51 2646.26 71.40 2.00  88.00 2611.87
   16:16:09.200.17-May-2020 5073.51 2646.26 71.40 2.00  88.20 2611.87
   16:16:09.400.17-May-2020 5073.51 2645.98 71.40 2.00  88.40 2611.87
   16:16:09.600.17-May-2020 5073.51 2646.16 71.40 2.00  88.60 2611.87
   16:16:09.800.17-May-2020 5073.51 2646.13 71.40 2.00  88.80 2611.87
   16:16:10.000.17-May-2020 5073.51 2645.92 71.40 2.00  89.00 2611.87
   16:16:10.200.17-May-2020 5073.51 2645.92 71.40 2.00  89.20 2611.87
   16:16:10.400.17-May-2020 5073.51 2646.07 71.40 2.00  89.40 2611.87
   16:16:10.600.17-May-2020 5073.51 2646.06 71.40 2.00  89.60 2611.87
   16:16:10.800.17-May-2020 5073.51 2646.04 71.40 2.00  89.80 2611.87
   16:16:11.000.17-May-2020 5073.51 2646.02 71.40 2.00  90.00 2611.87
   16:16:11.200.17-May-2020 5073.51 2646.02 71.40 2.00  90.20 2611.87
   16:16:11.400.17-May-2020 5073.51 2646.08 71.40 2.00  90.40 2611.87
   16:16:11.600.17-May-2020 5073.51 2646.08 71.40 2.00  90.60 2611.87
   16:16:11.800.17-May-2020 5073.51 2646.21 71.40 2.00  90.80 2611.87
   16:16:12.000.17-May-2020 5073.51 2646.00 71.40 2.00  91.00 2611.87
   16:16:12.200.17-May-2020 5073.51 2646.01 71.40 2.00  91.20 2611.87
   16:16:12.400.17-May-2020 5073.51 2645.99 71.40 2.00  91.40 2611.87
   16:16:12.600.17-May-2020 5073.51 2646.08 71.40 2.00  91.60 2611.87
   16:16:12.800.17-May-2020 5073.51 2646.03 71.40 2.00  91.80 2611.87
