~Version Information
 VERS.                  2.0:   CWLS log ASCII Standard -VERSION 2.0
 WRAP.                   NO:   One line per depth step
~Well Information Block
#MNEM.UNIT     VALUE/NAME     DESCRIPTION
#---------     -----------    ---------------------------
 STRT.S             22:05:00 17-May-20: START TIME 22:05:00 17-May-20
 STOP.S             22:12:03 17-May-20: STOP TIME  22:12:03 17-May-20
 STEP.S                   0.00: STEP TIME
 NULL.                 -999.25: NULL VALUE
 UNIT.                     N/A:  LOGGING EQUIPMENT ID
 DCON.         Sperry Drilling:  DIRECTNL CONTR
 DOE .                     N/A:  DOE NUMBER
 JOBN.        AZ-XX-0906252240:  JOB TICKET NUMB
 MWDS.                     N/A:  MWD SHOP
 PROV.                    Baku:  PROVINCE
 STAT.                    Baku:  STATE NAME
 REGN.                   EESSA:  REGION
 BASE.              Azerbaijan:  LOGGING EQUIPMENT BASE LOCATION
 UWI .                     N/A:  UNIQUE WELL IDENTIFIER
 API .                     N/A:  API NUMBER
 MDS .        Operator Entered:  MAG DATA SOURCE
 WTYP.                Deviated:  WELL TYPE
 COMP.     BP Exploration (Caspian Sea) Ltd.:  COMPANY
 SRVC.          Turan Drilling:  CONTRACTOR
 WELL.           J23 (Slot 07):  WELL NAME
 CTRY.              Azerbaijan:  COUNTRY NAME
 FLD .                     ACG:  FIELD NAME
 PDAT.          Mean Sea Level:  PERMANENT DATUM
 RIG .             West Chirag:  RIG NAME
 SON .        AZ-XX-0906252240:  JOB NUMBER
 FTOP.          Formation Tops:  FORM TOPS DESC
 ILTD.               Lithology:  INTERP LTH DESC
 SVYD.                  Survey:  SURVEY DESC
 DMOD.             Drill Model:  DRILL MOD DESC
 HPTY.       Minimum Curvature:  HOLE POS TYPE
 NREF.                    Grid:  NORTH REFERENCE
 SPUD.               27-Aug-20:  SPUD DATE
 DATE.      00.00.00 19-May-20:  END TIME
 STIM.      03.00.00 25-Mar-20:  START TIME
 DMF .             Drill Floor:  DRILL MEAS FROM
 DFST.                        :  DIST FSL TEXT
 DFWT.                        :  DIST FWL TEXT
 CNTY.                        :  COUNTY
 LOC .                        :  LOCATION
 LMF .             Drill Floor:  LOG MEASURED FROM
 VSNS.m                   9.43:  VERT SEC N/S
 VSEW.m                  -8.91:  VERT SEC E/W
 AGAP.m                  43.00:  AIR GAP
 DEP .m                 354.17:  DEPTH
 APD .m                  43.00:  DEPTH ABOVE PD
 WDMS.m                 169.80:  WD ELEV
 EGL .m                   0.00:  GROUND ELEVATION
 EPD .m                   0.00:  ELEVATION
 AZTC.deg                 6.31:  AZM TOTAL CORR
 GRDC.deg                 0.14:  GRID CORRECTION
 MDEC.deg                 6.45:  MAGNETIC DECL
 MDIP.deg                59.56:  MAGNETIC DIP
 MFLD.nT              50295.00:  MAGNETIC FIELD
 GVFD.g                   1.00:  GRAVITY FIELD
 VSDR.deg               179.88:  VERT SEC DIRECT
 TDD .m                5150.01:  TOTAL DEPTH (DRILLER)
 SDEP.m                 864.00:  START DEPTH
 DFSL.m                   0.00:  DISTANCE FSL
 DFWL.m                   0.00:  DISTANCE FWL
 UTMY.m             4443793.85:  UTM Y
 UTMX.m              519005.06:  UTM X
 WHEW.m                  -8.91:  WELL HEAD E/W
 WHNS.m                   9.43:  WELL HEAD N/S
 LONG.deg                51.22:  LONGITUDE
 LATI.deg                40.13:  LATITUDE
 TVDS.m                  43.00:  TVDSS CORRECTN
 EKB .m                   0.00:  KB ELEVATION
 EDF .m                  43.00:  DF ELEVATION
 TDL .m                 363.00:  TOTAL DEPTH (LOGGER)
 MAGU.                 1850802:  MAGUTM CHECKSUM
 VSC .                       0:  VS TO CLOSURE
~Parameter Information Block
#MNEM.UNIT       Value        Description
#---------     -----------    ---------------------------
 AV  .mps                 2.30:  Ann Velocity 
 AVMX.mps                 4.40:  Max Ann Veloc 
 AZIF.deg               110.24:  Azm, Final 
 BHAT.        Rotary Steerable:  BHA Type 
 BREV.rev               331.00:  Rev Bit Total 
 BROT.°/30m               0.00:  Build Rotating 
 BS  .in                  8.50:  Bit Size 
 BSZ .in                  8.50:  Bit Size 
 BTPL.psig              585.00:  Bit Press Loss 
 CABU.                     Yes:  Customer Abuse 
 COMM.                     íe:  Run Comments 1 
 TCS .hr                122.75:  Time Ciculation Ended 
 CV  .mps                 2.67:  Crit Velocity 
 CVMX.mps                 3.56:  Max Crit Veloc 
 DD1 .          Rashad Habibov:  Direct Drillr 1 
 DD2 .         Rasim Ibrahimov:  Direct Drillr 2 
 DDSV.               Geo-Pilot:  DD Service 
 DEFF.%                  98.00:  % Det Eff 
 DLRX.°/30m               0.75:  Dogleg Rot Max 
 DLSO.°/30m               1.25:  Dogleg Oriented 
 DLSX.°/30m               2.06:  Dogleg Str Max 
 DRET.      07.45.00 17-May-20:  Drill End Time 
 DRST.      22.50.00 15-May-20:  Drill Start Tim 
 DTIM.hr                 20.75:  Time Drilling 
 EDEP.m                5124.01:  End Depth 
 ENG1.           Eldar Hajiyev:  Engineer 1 
 ENG2.        Marcelo Sandoval:  Engineer 2 
 ENG3.        Davud huseynzada:  Engineer 3 
 ENG4.          Ruslan Safarov:  Engineer 4 
 ETIM.      04.33.00 23-May-20:  End Time 
 FLOI.gpm               450.00:  Flow In 
 FLON.gpm               400.00:  Flow In Min 
 FLOS.cptm                0.00:  Fluid Loss 
 FLOX.gpm               500.00:  Flow In Max 
 FTRO.       Formation Presure:  FTWD Run Obj 
 HFLO.                      No:  High Flow 
 HPRE.                     Yes:  High Pressure 
 HTEM.                      No:  High Temp 
 HYDO.m                   1.80:  Hydro Offset 
 IFIN.deg                75.06:  Inc, Final 
 IMAX.deg                75.38:  Inc Max 
 IMIN.deg                74.69:  Inc Min 
 IMND.m                5027.38:  Inc Min Depth 
 IMXD.m                4771.61:  Inc Max Depth 
 JARR.                      No:  Jarring 
 LETM.      07.45.00 17-May-20:  Log End Time 
 LOST.hr                     0:  Lost Rig Time 
 LSTM.      22.50.00 15-May-20:  Log Start Time 
 MDCL.ppm             42000.00:  Mud Chlorides 
 MDES.     Inversion Oil/Synthetic:  Mud Desc 
 DFD .sg                  1.34:  Mud Density 
 MDMN.sg                  1.34:  Dens Mud Min 
 MDMX.sg                  1.34:  Dens Mud Max 
 MOIL.                       0:  Run Mud Oil % 
 MOWR.                   67:33:  Run Mud OWR 
 MSND.                       0:  Run Mud Sand % 
 MSOL.                     1.8:  Run Mud Solids% 
 DFV .spqt               76.00:  Mud Viscosity 
 MWOD.in                  6.75:  MWD Tool OD 
 MWSI.                      No:  Serv Intrp, MWD 
 OTIM.hr                228.19:  Time Operating 
 PCON.           Look Like New:  Pad Condition 
 PMAX.psia             6164.70:  Press Op, Max 
 PV  .cP                 28.00:  Mud PV 
 RUN .                     900:  Run Number 
 ROPA.m/hr               19.00:  ROP Avg 
 ROPN.m/hr               11.00:  ROP Min 
 ROPX.m/hr               36.00:  ROP Max 
 RPMA.rpm               120.00:  RPM Surface Avg 
 RPMN.rpm               120.00:  RPM Surface Min 
 RPMX.rpm               120.00:  RPM Surface Max 
 RRUN.                    L604:  Rig Run Number 
 RTIM.hr                  7.00:  Time Reaming 
 SAZI.deg               109.27:  Azm, Start 
 SDEP.m                4761.01:  Start Depth 
 SIDD.                      No:  Serv Intrp, DD 
 SINC.deg                75.38:  Inc, Start 
 SPPA.psig             3574.00:  SPP Avg 
 SPPN.psig             3475.00:  SPP Min 
 SPPX.psig             3791.00:  SPP Max 
 STIM.      07.08.48 13-May-20:  Start Time 
 SVCS.                 DD, MWD:  Services 
 SVER.                    9.20:  Sperry Version 
 TDAT.m                 363.00:  Tot Depth Attmp 
 TDDF.                      No:  Trip for DD 
 TDLG.m                 363.00:  Tot Depth Loggd 
 TFF .                      No:  Trip for Fail 
 TQAA.f-kp               20.00:  Torque Abs Avg 
 TQAN.f-kp               18.00:  Torque Abs Min 
 TQAX.f-kp               22.00:  Torque Abs Max 
 TRRT.°/30m              -0.35:  Turn Rotating 
 MRT .                    HCIM:  Maximum Recorded Temperature 
 TTMX.degC               92.16:  Max Tool Temp 
 VS01.                90586518:  Virtual Str1 SN 
 VS02.        AZ90560654Z1W1C6:  Virtual Str2 SN 
 VS03.           AZ90610398F11:  Virtual Str3 SN 
 VS04.                90514975:  Virtual Str4 SN 
 VS05.                90514972:  Virtual Str5 SN 
 VS06.     AZ90603282F11V7D1A6:  Virtual Str6 SN 
 WBMN.klb                 7.00:  WOB Min 
 WOBA.klb                12.00:  WOB Avg 
 WOBX.klb                14.00:  WOB Max 
 YP  .lhf2               32.00:  Yield Point 
~Curve Information Block
#MNEM.UNIT                 API CODE     Curve Description
#---------               -----------    ---------------------------
 TIME.HHMMSS            00 000 000 000:  GT Time & Date
 GTDEPTH.m              00 000 000 000:  GT Depth
 GTPQH.psia             00 000 000 000:  GT HR Quartz Pressure
 GTTQ.degC              00 000 000 000:  GT Quartz Temperature
 GTTN.NONE              00 000 000 000:  GT Test Number
 GTET.sec               00 000 000 000:  GT Elapsed Test Time
 GTTVD.m                00 000 000 000:  GT True Vertical Depth
#Other Information
#
#WARRANTY: Halliburton will use its best efforts to furnish customers with 
#accurate information and interpretations that are part of, and incident to, the services 
#provided.  However, Halliburton cannot and does not warrant the accuracy 
#or correctness of such information and interpretations.  Under no circumstances should any 
#such information or interpretation be relied upon as the sole basis for any drilling, 
#completion, production, or financial decision or any procedure involving any risk to the 
#safety of any drilling venture, drilling rig or its crew or any other third party.  The 
#Customer has full responsibility for all drilling, completion and production operation.  
#Halliburton makes no representations or warranties, either expressed or 
#implied, including, but not limited to, the implied warranties of merchantability or fitness 
#for a particular purpose, with respect to the services rendered.  In no event will 
#Halliburton be liable for failure to obtain any particular results or for 
#any damages, including, but not limited to, indirect, special or consequential damages, 
#resulting from the use of any information or interpretation provided by Halliburton.
#
~A           TIME           GTDEPTH  GTPQH  GTTQ  GTTN  GTET   GTTVD  
# ...
   22:05:46.876.17-May-2020 4937.01 2914.20 67.74 7.00  46.08 2576.47
   22:05:47.076.17-May-2020 4937.01 2916.78 67.74 7.00  46.28 2576.47
   22:05:47.276.17-May-2020 4937.01 2918.16 67.74 7.00  46.49 2576.47
   22:05:47.477.17-May-2020 4937.01 2916.23 67.74 7.00  46.69 2576.47
   22:05:47.677.17-May-2020 4937.01 2917.30 67.74 7.00  46.89 2576.47
   22:05:47.877.17-May-2020 4937.01 2917.10 67.74 7.00  47.09 2576.47
   22:05:48.078.17-May-2020 4937.01 2917.10 67.74 7.00  47.29 2576.47
   22:05:48.278.17-May-2020 4937.01 2916.54 67.73 7.00  47.49 2576.47
   22:05:48.479.17-May-2020 4937.01 2921.13 67.73 7.00  47.69 2576.47
   22:05:48.679.17-May-2020 4937.01 2923.74 67.73 7.00  47.89 2576.47
   22:05:48.879.17-May-2020 4937.01 2922.00 67.73 7.00  48.09 2576.47
   22:05:49.080.17-May-2020 4937.01 2922.00 67.73 7.00  48.29 2576.47
   22:05:49.280.17-May-2020 4937.01 2924.94 67.72 7.00  48.49 2576.47
   22:05:49.480.17-May-2020 4937.01 2925.09 67.72 7.00  48.69 2576.47
   22:05:49.681.17-May-2020 4937.01 2922.51 67.72 7.00  48.89 2576.47
   22:05:49.881.17-May-2020 4937.01 2921.34 67.72 7.00  49.09 2576.47
   22:05:50.082.17-May-2020 4937.01 2921.34 67.71 7.00  49.29 2576.47
   22:05:50.282.17-May-2020 4937.01 2923.64 67.71 7.00  49.49 2576.47
   22:05:50.482.17-May-2020 4937.01 2923.34 67.71 7.00  49.69 2576.47
   22:05:50.683.17-May-2020 4937.01 2926.48 67.71 7.00  49.89 2576.47
   22:05:50.883.17-May-2020 4937.01 2920.70 67.70 7.00  50.09 2576.47
   22:05:51.083.17-May-2020 4937.01 2922.57 67.70 7.00  50.29 2576.47
   22:05:51.284.17-May-2020 4937.01 2921.69 67.70 7.00  50.49 2576.47
   22:05:51.484.17-May-2020 4937.01 2920.89 67.70 7.00  50.69 2576.47
   22:05:51.684.17-May-2020 4937.01 2919.90 67.70 7.00  50.89 2576.47
   22:05:51.885.17-May-2020 4937.01 2919.52 67.69 7.00  51.09 2576.47
   22:05:52.085.17-May-2020 4937.01 2919.52 67.69 7.00  51.29 2576.47
   22:05:52.286.17-May-2020 4937.01 2920.28 67.69 7.00  51.49 2576.47
   22:05:52.486.17-May-2020 4937.01 2919.41 67.69 7.00  51.69 2576.47
   22:05:52.686.17-May-2020 4937.01 2918.51 67.69 7.00  51.90 2576.47
   22:05:52.887.17-May-2020 4937.01 2917.95 67.69 7.00  52.10 2576.47
   22:05:53.087.17-May-2020 4937.01 2917.95 67.69 7.00  52.30 2576.47
   22:05:53.287.17-May-2020 4937.01 2917.10 67.68 7.00  52.50 2576.47
   22:05:53.488.17-May-2020 4937.01 2916.45 67.68 7.00  52.70 2576.47
   22:05:53.688.17-May-2020 4937.01 2917.03 67.68 7.00  52.90 2576.47
   22:05:53.889.17-May-2020 4937.01 2917.29 67.68 7.00  53.10 2576.47
   22:05:54.089.17-May-2020 4937.01 2917.29 67.68 7.00  53.30 2576.47
   22:05:54.289.17-May-2020 4937.01 2917.84 67.68 7.00  53.50 2576.47
   22:05:54.490.17-May-2020 4937.01 2916.83 67.68 7.00  53.70 2576.47
   22:05:54.690.17-May-2020 4937.01 2915.71 67.68 7.00  53.90 2576.47
   22:05:54.890.17-May-2020 4937.01 2915.22 67.68 7.00  54.10 2576.47
   22:05:55.091.17-May-2020 4937.01 2914.98 67.67 7.00  54.30 2576.47
   22:05:55.291.17-May-2020 4937.01 2915.93 67.67 7.00  54.50 2576.47
   22:05:55.491.17-May-2020 4937.01 2929.76 67.67 7.00  54.70 2576.47
   22:05:55.692.17-May-2020 4937.01 2930.80 67.67 7.00  54.90 2576.47
   22:05:55.892.17-May-2020 4937.01 2930.73 67.67 7.00  55.10 2576.47
   22:05:56.093.17-May-2020 4937.01 2930.73 67.67 7.00  55.30 2576.47
   22:05:56.293.17-May-2020 4937.01 2930.97 67.67 7.00  55.50 2576.47
   22:05:56.493.17-May-2020 4937.01 2931.13 67.67 7.00  55.70 2576.47
   22:05:56.694.17-May-2020 4937.01 2931.10 67.67 7.00  55.90 2576.47
   22:05:56.894.17-May-2020 4937.01 2931.09 67.67 7.00  56.10 2576.47
   22:05:57.094.17-May-2020 4937.01 2931.09 67.67 7.00  56.30 2576.47
   22:05:57.295.17-May-2020 4937.01 2931.23 67.67 7.00  56.50 2576.47
   22:05:57.495.17-May-2020 4937.01 2931.12 67.67 7.00  56.70 2576.47
   22:05:57.695.17-May-2020 4937.01 2931.32 67.67 7.00  56.90 2576.47
   22:05:57.896.17-May-2020 4937.01 2931.26 67.67 7.00  57.10 2576.47
   22:05:58.096.17-May-2020 4937.01 2931.26 67.67 7.00  57.31 2576.47
   22:05:58.297.17-May-2020 4937.01 2931.35 67.67 7.00  57.51 2576.47
   22:05:58.497.17-May-2020 4937.01 2931.40 67.67 7.00  57.71 2576.47
   22:05:58.697.17-May-2020 4937.01 2931.43 67.66 7.00  57.91 2576.47
   22:05:58.898.17-May-2020 4937.01 2931.44 67.66 7.00  58.11 2576.47
   22:05:59.098.17-May-2020 4937.01 2931.47 67.66 7.00  58.31 2576.47
   22:05:59.298.17-May-2020 4937.01 2931.49 67.66 7.00  58.51 2576.47
   22:05:59.499.17-May-2020 4937.01 2931.34 67.66 7.00  58.71 2576.47
   22:05:59.699.17-May-2020 4937.01 2931.33 67.66 7.00  58.91 2576.47
   22:05:59.900.17-May-2020 4937.01 2931.42 67.66 7.00  59.11 2576.47
   22:06:00.100.17-May-2020 4937.01 2931.42 67.66 7.00  59.31 2576.47
   22:06:00.300.17-May-2020 4937.01 2931.50 67.66 7.00  59.51 2576.47
   22:06:00.501.17-May-2020 4937.01 2931.53 67.66 7.00  59.71 2576.47
   22:06:00.701.17-May-2020 4937.01 2931.56 67.66 7.00  59.91 2576.47
   22:06:00.901.17-May-2020 4937.01 2931.57 67.66 7.00  60.11 2576.47
   22:06:01.102.17-May-2020 4937.01 2931.57 67.66 7.00  60.31 2576.47
   22:06:01.302.17-May-2020 4937.01 2931.61 67.66 7.00  60.51 2576.47
   22:06:01.502.17-May-2020 4937.01 2931.55 67.66 7.00  60.71 2576.47
   22:06:01.703.17-May-2020 4937.01 2931.38 67.66 7.00  60.91 2576.47
   22:06:01.903.17-May-2020 4937.01 2931.58 67.66 7.00  61.11 2576.47
   22:06:02.104.17-May-2020 4937.01 2931.56 67.66 7.00  61.31 2576.47
   22:06:02.304.17-May-2020 4937.01 2931.47 67.66 7.00  61.51 2576.47
   22:06:02.504.17-May-2020 4937.01 2931.48 67.66 7.00  61.71 2576.47
   22:06:02.705.17-May-2020 4937.01 2931.55 67.66 7.00  61.91 2576.47
   22:06:02.905.17-May-2020 4937.01 2931.60 67.66 7.00  62.11 2576.47
   22:06:03.105.17-May-2020 4937.01 2931.60 67.66 7.00  62.31 2576.47
   22:06:03.306.17-May-2020 4937.01 2931.41 67.66 7.00  62.51 2576.47
   22:06:03.506.17-May-2020 4937.01 2931.63 67.66 7.00  62.72 2576.47
   22:06:03.707.17-May-2020 4937.01 2931.55 67.66 7.00  62.92 2576.47
   22:06:03.907.17-May-2020 4937.01 2931.65 67.66 7.00  63.12 2576.47
   22:06:04.107.17-May-2020 4937.01 2931.65 67.66 7.00  63.32 2576.47
   22:06:04.308.17-May-2020 4937.01 2931.66 67.66 7.00  63.52 2576.47
   22:06:04.508.17-May-2020 4937.01 2931.59 67.66 7.00  63.72 2576.47
   22:06:04.708.17-May-2020 4937.01 2931.68 67.66 7.00  63.92 2576.47
   22:06:04.909.17-May-2020 4937.01 2931.70 67.66 7.00  64.12 2576.47
   22:06:05.109.17-May-2020 4937.01 2931.75 67.66 7.00  64.32 2576.47
   22:06:05.309.17-May-2020 4937.01 2931.76 67.66 7.00  64.52 2576.47
   22:06:05.510.17-May-2020 4937.01 2931.78 67.66 7.00  64.72 2576.47
   22:06:05.710.17-May-2020 4937.01 2931.79 67.66 7.00  64.92 2576.47
   22:06:05.911.17-May-2020 4937.01 2931.80 67.66 7.00  65.12 2576.47
   22:06:06.111.17-May-2020 4937.01 2931.80 67.66 7.00  65.32 2576.47
   22:06:06.311.17-May-2020 4937.01 2931.60 67.66 7.00  65.52 2576.47
   22:06:06.512.17-May-2020 4937.01 2931.67 67.66 7.00  65.72 2576.47
   22:06:06.712.17-May-2020 4937.01 2931.71 67.66 7.00  65.92 2576.47
   22:06:06.912.17-May-2020 4937.01 2931.76 67.66 7.00  66.12 2576.47
   22:06:07.113.17-May-2020 4937.01 2931.79 67.66 7.00  66.32 2576.47
   22:06:07.313.17-May-2020 4937.01 2931.83 67.66 7.00  66.52 2576.47
   22:06:07.514.17-May-2020 4937.01 2931.84 67.66 7.00  66.72 2576.47
   22:06:07.714.17-May-2020 4937.01 2931.86 67.66 7.00  66.92 2576.47
   22:06:07.914.17-May-2020 4937.01 2931.87 67.66 7.00  67.12 2576.47
   22:06:08.115.17-May-2020 4937.01 2931.87 67.66 7.00  67.32 2576.47
   22:06:08.315.17-May-2020 4937.01 2931.62 67.66 7.00  67.52 2576.47
   22:06:08.515.17-May-2020 4937.01 2931.79 67.66 7.00  67.72 2576.47
   22:06:08.716.17-May-2020 4937.01 2931.71 67.66 7.00  67.92 2576.47
   22:06:08.916.17-May-2020 4937.01 2931.76 67.66 7.00  68.12 2576.47
   22:06:09.116.17-May-2020 4937.01 2931.76 67.66 7.00  68.33 2576.47
   22:06:09.317.17-May-2020 4937.01 2931.76 67.66 7.00  68.53 2576.47
   22:06:09.517.17-May-2020 4937.01 2931.75 67.66 7.00  68.73 2576.47
   22:06:09.718.17-May-2020 4937.01 2931.83 67.66 7.00  68.93 2576.47
