~Version Information
 VERS.                  2.0:   CWLS log ASCII Standard -VERSION 2.0
 WRAP.                   NO:   One line per depth step
~Well Information Block
#MNEM.UNIT     VALUE/NAME     DESCRIPTION
#---------     -----------    ---------------------------
 STRT.S             23:36:46 17-May-20: START TIME 23:36:46 17-May-20
 STOP.S             23:44:24 17-May-20: STOP TIME  23:44:24 17-May-20
 STEP.S                   0.00: STEP TIME
 NULL.                 -999.25: NULL VALUE
 UNIT.                     N/A:  LOGGING EQUIPMENT ID
 DCON.         Sperry Drilling:  DIRECTNL CONTR
 DOE .                     N/A:  DOE NUMBER
 JOBN.        AZ-XX-0906252240:  JOB TICKET NUMB
 MWDS.                     N/A:  MWD SHOP
 PROV.                    Baku:  PROVINCE
 STAT.                    Baku:  STATE NAME
 REGN.                   EESSA:  REGION
 BASE.              Azerbaijan:  LOGGING EQUIPMENT BASE LOCATION
 UWI .                     N/A:  UNIQUE WELL IDENTIFIER
 API .                     N/A:  API NUMBER
 MDS .        Operator Entered:  MAG DATA SOURCE
 WTYP.                Deviated:  WELL TYPE
 COMP.     BP Exploration (Caspian Sea) Ltd.:  COMPANY
 SRVC.          Turan Drilling:  CONTRACTOR
 WELL.           J23 (Slot 07):  WELL NAME
 CTRY.              Azerbaijan:  COUNTRY NAME
 FLD .                     ACG:  FIELD NAME
 PDAT.          Mean Sea Level:  PERMANENT DATUM
 RIG .             West Chirag:  RIG NAME
 SON .        AZ-XX-0906252240:  JOB NUMBER
 FTOP.          Formation Tops:  FORM TOPS DESC
 ILTD.               Lithology:  INTERP LTH DESC
 SVYD.                  Survey:  SURVEY DESC
 DMOD.             Drill Model:  DRILL MOD DESC
 HPTY.       Minimum Curvature:  HOLE POS TYPE
 NREF.                    Grid:  NORTH REFERENCE
 SPUD.               27-Aug-20:  SPUD DATE
 DATE.      00.00.00 19-May-20:  END TIME
 STIM.      03.00.00 25-Mar-20:  START TIME
 DMF .             Drill Floor:  DRILL MEAS FROM
 DFST.                        :  DIST FSL TEXT
 DFWT.                        :  DIST FWL TEXT
 CNTY.                        :  COUNTY
 LOC .                        :  LOCATION
 LMF .             Drill Floor:  LOG MEASURED FROM
 VSNS.m                   9.43:  VERT SEC N/S
 VSEW.m                  -8.91:  VERT SEC E/W
 AGAP.m                  43.00:  AIR GAP
 DEP .m                 354.17:  DEPTH
 APD .m                  43.00:  DEPTH ABOVE PD
 WDMS.m                 169.80:  WD ELEV
 EGL .m                   0.00:  GROUND ELEVATION
 EPD .m                   0.00:  ELEVATION
 AZTC.deg                 6.31:  AZM TOTAL CORR
 GRDC.deg                 0.14:  GRID CORRECTION
 MDEC.deg                 6.45:  MAGNETIC DECL
 MDIP.deg                59.56:  MAGNETIC DIP
 MFLD.nT              50295.00:  MAGNETIC FIELD
 GVFD.g                   1.00:  GRAVITY FIELD
 VSDR.deg               179.88:  VERT SEC DIRECT
 TDD .m                5150.01:  TOTAL DEPTH (DRILLER)
 SDEP.m                 864.00:  START DEPTH
 DFSL.m                   0.00:  DISTANCE FSL
 DFWL.m                   0.00:  DISTANCE FWL
 UTMY.m             4443793.85:  UTM Y
 UTMX.m              519005.06:  UTM X
 WHEW.m                  -8.91:  WELL HEAD E/W
 WHNS.m                   9.43:  WELL HEAD N/S
 LONG.deg                51.22:  LONGITUDE
 LATI.deg                40.13:  LATITUDE
 TVDS.m                  43.00:  TVDSS CORRECTN
 EKB .m                   0.00:  KB ELEVATION
 EDF .m                  43.00:  DF ELEVATION
 TDL .m                 363.00:  TOTAL DEPTH (LOGGER)
 MAGU.                 1850802:  MAGUTM CHECKSUM
 VSC .                       0:  VS TO CLOSURE
~Parameter Information Block
#MNEM.UNIT       Value        Description
#---------     -----------    ---------------------------
 AV  .mps                 2.30:  Ann Velocity 
 AVMX.mps                 4.40:  Max Ann Veloc 
 AZIF.deg               110.24:  Azm, Final 
 BHAT.        Rotary Steerable:  BHA Type 
 BREV.rev               331.00:  Rev Bit Total 
 BROT.°/30m               0.00:  Build Rotating 
 BS  .in                  8.50:  Bit Size 
 BSZ .in                  8.50:  Bit Size 
 BTPL.psig              585.00:  Bit Press Loss 
 CABU.                     Yes:  Customer Abuse 
 TCS .hr                122.75:  Time Ciculation Ended 
 CV  .mps                 2.67:  Crit Velocity 
 CVMX.mps                 3.56:  Max Crit Veloc 
 DD1 .          Rashad Habibov:  Direct Drillr 1 
 DD2 .         Rasim Ibrahimov:  Direct Drillr 2 
 DDSV.               Geo-Pilot:  DD Service 
 DEFF.%                  98.00:  % Det Eff 
 DLRX.°/30m               0.75:  Dogleg Rot Max 
 DLSO.°/30m               1.25:  Dogleg Oriented 
 DLSX.°/30m               2.06:  Dogleg Str Max 
 DRET.      07.45.00 17-May-20:  Drill End Time 
 DRST.      22.50.00 15-May-20:  Drill Start Tim 
 DTIM.hr                 20.75:  Time Drilling 
 EDEP.m                5124.01:  End Depth 
 ENG1.           Eldar Hajiyev:  Engineer 1 
 ENG2.        Marcelo Sandoval:  Engineer 2 
 ENG3.        Davud huseynzada:  Engineer 3 
 ENG4.          Ruslan Safarov:  Engineer 4 
 ETIM.      04.33.00 23-May-20:  End Time 
 FLOI.gpm               450.00:  Flow In 
 FLON.gpm               400.00:  Flow In Min 
 FLOS.cptm                0.00:  Fluid Loss 
 FLOX.gpm               500.00:  Flow In Max 
 FTRO.       Formation Presure:  FTWD Run Obj 
 HFLO.                      No:  High Flow 
 HPRE.                     Yes:  High Pressure 
 HTEM.                      No:  High Temp 
 HYDO.m                   1.80:  Hydro Offset 
 IFIN.deg                75.06:  Inc, Final 
 IMAX.deg                75.38:  Inc Max 
 IMIN.deg                74.69:  Inc Min 
 IMND.m                5027.38:  Inc Min Depth 
 IMXD.m                4771.61:  Inc Max Depth 
 JARR.                      No:  Jarring 
 LETM.      07.45.00 17-May-20:  Log End Time 
 LOST.hr                     0:  Lost Rig Time 
 LSTM.      22.50.00 15-May-20:  Log Start Time 
 MDCL.ppm             42000.00:  Mud Chlorides 
 MDES.     Inversion Oil/Synthetic:  Mud Desc 
 DFD .sg                  1.34:  Mud Density 
 MDMN.sg                  1.34:  Dens Mud Min 
 MDMX.sg                  1.34:  Dens Mud Max 
 MOIL.                       0:  Run Mud Oil % 
 MOWR.                   67:33:  Run Mud OWR 
 MSND.                       0:  Run Mud Sand % 
 MSOL.                     1.8:  Run Mud Solids% 
 DFV .spqt               76.00:  Mud Viscosity 
 MWOD.in                  6.75:  MWD Tool OD 
 MWSI.                      No:  Serv Intrp, MWD 
 OTIM.hr                228.19:  Time Operating 
 PCON.           Look Like New:  Pad Condition 
 PMAX.psia             6164.70:  Press Op, Max 
 PV  .cP                 28.00:  Mud PV 
 RUN .                     900:  Run Number 
 ROPA.m/hr               19.00:  ROP Avg 
 ROPN.m/hr               11.00:  ROP Min 
 ROPX.m/hr               36.00:  ROP Max 
 RPMA.rpm               120.00:  RPM Surface Avg 
 RPMN.rpm               120.00:  RPM Surface Min 
 RPMX.rpm               120.00:  RPM Surface Max 
 RRUN.                    L604:  Rig Run Number 
 RTIM.hr                  7.00:  Time Reaming 
 SAZI.deg               109.27:  Azm, Start 
 SDEP.m                4761.01:  Start Depth 
 SIDD.                      No:  Serv Intrp, DD 
 SINC.deg                75.38:  Inc, Start 
 SPPA.psig             3574.00:  SPP Avg 
 SPPN.psig             3475.00:  SPP Min 
 SPPX.psig             3791.00:  SPP Max 
 STIM.      07.08.48 13-May-20:  Start Time 
 SVCS.                 DD, MWD:  Services 
 SVER.                    9.20:  Sperry Version 
 TDAT.m                 363.00:  Tot Depth Attmp 
 TDDF.                      No:  Trip for DD 
 TDLG.m                 363.00:  Tot Depth Loggd 
 TFF .                      No:  Trip for Fail 
 TQAA.f-kp               20.00:  Torque Abs Avg 
 TQAN.f-kp               18.00:  Torque Abs Min 
 TQAX.f-kp               22.00:  Torque Abs Max 
 TRRT.°/30m              -0.35:  Turn Rotating 
 MRT .                    HCIM:  Maximum Recorded Temperature 
 TTMX.degC               92.16:  Max Tool Temp 
 VS01.                90586518:  Virtual Str1 SN 
 VS02.        AZ90560654Z1W1C6:  Virtual Str2 SN 
 VS03.           AZ90610398F11:  Virtual Str3 SN 
 VS04.                90514975:  Virtual Str4 SN 
 VS05.                90514972:  Virtual Str5 SN 
 VS06.     AZ90603282F11V7D1A6:  Virtual Str6 SN 
 WBMN.klb                 7.00:  WOB Min 
 WOBA.klb                12.00:  WOB Avg 
 WOBX.klb                14.00:  WOB Max 
 YP  .lhf2               32.00:  Yield Point 
~Curve Information Block
#MNEM.UNIT                 API CODE     Curve Description
#---------               -----------    ---------------------------
 TIME.HHMMSS            00 000 000 000:  GT Time & Date
 GTDEPTH.m              00 000 000 000:  GT Depth
 GTPQH.psia             00 000 000 000:  GT HR Quartz Pressure
 GTTQ.degC              00 000 000 000:  GT Quartz Temperature
 GTTN.NONE              00 000 000 000:  GT Test Number
 GTET.sec               00 000 000 000:  GT Elapsed Test Time
 GTTVD.m                00 000 000 000:  GT True Vertical Depth
#Other Information
#
#WARRANTY: Halliburton will use its best efforts to furnish customers with 
#accurate information and interpretations that are part of, and incident to, the services 
#provided.  However, Halliburton cannot and does not warrant the accuracy 
#or correctness of such information and interpretations.  Under no circumstances should any 
#such information or interpretation be relied upon as the sole basis for any drilling, 
#completion, production, or financial decision or any procedure involving any risk to the 
#safety of any drilling venture, drilling rig or its crew or any other third party.  The 
#Customer has full responsibility for all drilling, completion and production operation.  
#Halliburton makes no representations or warranties, either expressed or 
#implied, including, but not limited to, the implied warranties of merchantability or fitness 
#for a particular purpose, with respect to the services rendered.  In no event will 
#Halliburton be liable for failure to obtain any particular results or for 
#any damages, including, but not limited to, indirect, special or consequential damages, 
#resulting from the use of any information or interpretation provided by Halliburton.
#
~A           TIME           GTDEPTH  GTPQH  GTTQ  GTTN  GTET   GTTVD  
# ...
   23:39:49.978.17-May-2020 4902.01 2966.39 66.28 9.00 183.91 2567.50
   23:39:50.178.17-May-2020 4902.01 2966.39 66.28 9.00 184.11 2567.50
   23:39:50.377.17-May-2020 4902.01 2988.27 66.28 9.00 184.31 2567.50
   23:39:50.577.17-May-2020 4902.01 2998.50 66.29 9.00 184.51 2567.50
   23:39:50.777.17-May-2020 4902.01 3008.34 66.29 9.00 184.71 2567.50
   23:39:50.977.17-May-2020 4902.01 3018.01 66.29 9.00 184.91 2567.50
   23:39:51.177.17-May-2020 4902.01 3018.01 66.29 9.00 185.11 2567.50
   23:39:51.377.17-May-2020 4902.01 3036.36 66.29 9.00 185.30 2567.50
   23:39:51.577.17-May-2020 4902.01 3042.68 66.29 9.00 185.50 2567.50
   23:39:51.777.17-May-2020 4902.01 3050.70 66.29 9.00 185.70 2567.50
   23:39:51.977.17-May-2020 4902.01 3059.65 66.29 9.00 185.90 2567.50
   23:39:52.176.17-May-2020 4902.01 3059.65 66.29 9.00 186.10 2567.50
   23:39:52.376.17-May-2020 4902.01 3075.65 66.29 9.00 186.30 2567.50
   23:39:52.576.17-May-2020 4902.01 3083.11 66.30 9.00 186.50 2567.50
   23:39:52.776.17-May-2020 4902.01 3090.73 66.30 9.00 186.70 2567.50
   23:39:52.976.17-May-2020 4902.01 3097.76 66.30 9.00 186.90 2567.50
   23:39:53.176.17-May-2020 4902.01 3097.76 66.30 9.00 187.10 2567.50
   23:39:53.376.17-May-2020 4902.01 3111.55 66.30 9.00 187.30 2567.50
   23:39:53.576.17-May-2020 4902.01 3116.36 66.30 9.00 187.50 2567.50
   23:39:53.776.17-May-2020 4902.01 3122.19 66.30 9.00 187.70 2567.50
   23:39:53.976.17-May-2020 4902.01 3129.04 66.30 9.00 187.90 2567.50
   23:39:54.175.17-May-2020 4902.01 3129.04 66.30 9.00 188.10 2567.50
   23:39:54.375.17-May-2020 4902.01 3140.16 66.30 9.00 188.30 2567.50
   23:39:54.575.17-May-2020 4902.01 3145.80 66.30 9.00 188.50 2567.50
   23:39:54.775.17-May-2020 4902.01 3152.72 66.30 9.00 188.70 2567.50
   23:39:54.975.17-May-2020 4902.01 3158.71 66.30 9.00 188.90 2567.50
   23:39:55.175.17-May-2020 4902.01 3158.71 66.30 9.00 189.10 2567.50
   23:39:55.375.17-May-2020 4902.01 3169.40 66.31 9.00 189.30 2567.50
   23:39:55.575.17-May-2020 4902.01 3175.15 66.31 9.00 189.50 2567.50
   23:39:55.775.17-May-2020 4902.01 3180.75 66.31 9.00 189.70 2567.50
   23:39:55.975.17-May-2020 4902.01 3185.58 66.31 9.00 189.90 2567.50
   23:39:56.174.17-May-2020 4902.01 3185.58 66.31 9.00 190.10 2567.50
   23:39:56.374.17-May-2020 4902.01 3195.61 66.31 9.00 190.30 2567.50
   23:39:56.574.17-May-2020 4902.01 3200.33 66.31 9.00 190.50 2567.50
   23:39:56.774.17-May-2020 4902.01 3205.21 66.31 9.00 190.70 2567.50
   23:39:56.974.17-May-2020 4902.01 3209.45 66.31 9.00 190.90 2567.50
   23:39:57.174.17-May-2020 4902.01 3209.45 66.31 9.00 191.10 2567.50
   23:39:57.374.17-May-2020 4902.01 3218.19 66.31 9.00 191.30 2567.50
   23:39:57.574.17-May-2020 4902.01 3222.39 66.31 9.00 191.50 2567.50
   23:39:57.774.17-May-2020 4902.01 3226.61 66.31 9.00 191.70 2567.50
   23:39:57.974.17-May-2020 4902.01 3229.43 66.31 9.00 191.90 2567.50
   23:39:58.173.17-May-2020 4902.01 3229.43 66.31 9.00 192.10 2567.50
   23:39:58.373.17-May-2020 4902.01 3237.19 66.31 9.00 192.30 2567.50
   23:39:58.573.17-May-2020 4902.01 3241.01 66.31 9.00 192.50 2567.50
   23:39:58.773.17-May-2020 4902.01 3245.08 66.31 9.00 192.70 2567.50
   23:39:58.973.17-May-2020 4902.01 3248.94 66.31 9.00 192.90 2567.50
   23:39:59.173.17-May-2020 4902.01 3248.94 66.31 9.00 193.10 2567.50
   23:39:59.373.17-May-2020 4902.01 3256.04 66.31 9.00 193.30 2567.50
   23:39:59.573.17-May-2020 4902.01 3259.47 66.31 9.00 193.50 2567.50
   23:39:59.773.17-May-2020 4902.01 3262.86 66.31 9.00 193.70 2567.50
   23:39:59.972.17-May-2020 4902.01 3266.15 66.31 9.00 193.90 2567.50
   23:40:00.172.17-May-2020 4902.01 3266.15 66.31 9.00 194.10 2567.50
   23:40:00.372.17-May-2020 4902.01 3270.33 66.31 9.00 194.30 2567.50
   23:40:00.572.17-May-2020 4902.01 3274.42 66.32 9.00 194.50 2567.50
   23:40:00.772.17-May-2020 4902.01 3276.07 66.32 9.00 194.70 2567.50
   23:40:00.972.17-May-2020 4902.01 3278.78 66.32 9.00 194.90 2567.50
   23:40:01.172.17-May-2020 4902.01 3278.78 66.32 9.00 195.10 2567.50
   23:40:01.372.17-May-2020 4902.01 3284.05 66.32 9.00 195.30 2567.50
   23:40:01.572.17-May-2020 4902.01 3286.52 66.32 9.00 195.50 2567.50
   23:40:01.772.17-May-2020 4902.01 3289.61 66.32 9.00 195.70 2567.50
   23:40:01.971.17-May-2020 4902.01 3292.67 66.32 9.00 195.90 2567.50
   23:40:02.171.17-May-2020 4902.01 3292.67 66.32 9.00 196.10 2567.50
   23:40:02.371.17-May-2020 4902.01 3297.00 66.32 9.00 196.30 2567.50
   23:40:02.571.17-May-2020 4902.01 3299.02 66.32 9.00 196.50 2567.50
   23:40:02.771.17-May-2020 4902.01 3302.41 66.32 9.00 196.70 2567.50
   23:40:02.971.17-May-2020 4902.01 3305.38 66.32 9.00 196.90 2567.50
   23:40:03.171.17-May-2020 4902.01 3305.38 66.32 9.00 197.10 2567.50
   23:40:03.371.17-May-2020 4902.01 3311.08 66.32 9.00 197.30 2567.50
   23:40:03.571.17-May-2020 4902.01 3314.12 66.32 9.00 197.50 2567.50
   23:40:03.771.17-May-2020 4902.01 3316.52 66.32 9.00 197.70 2567.50
   23:40:03.970.17-May-2020 4902.01 3319.24 66.32 9.00 197.90 2567.50
   23:40:04.170.17-May-2020 4902.01 3319.24 66.32 9.00 198.10 2567.50
   23:40:04.370.17-May-2020 4902.01 3323.22 66.32 9.00 198.30 2567.50
   23:40:04.570.17-May-2020 4902.01 3325.16 66.32 9.00 198.50 2567.50
   23:40:04.770.17-May-2020 4902.01 3327.16 66.32 9.00 198.70 2567.50
   23:40:04.970.17-May-2020 4902.01 3329.94 66.32 9.00 198.90 2567.50
   23:40:05.170.17-May-2020 4902.01 3329.94 66.32 9.00 199.10 2567.50
   23:40:05.370.17-May-2020 4902.01 3335.17 66.32 9.00 199.30 2567.50
   23:40:05.570.17-May-2020 4902.01 3337.33 66.32 9.00 199.50 2567.50
   23:40:05.770.17-May-2020 4902.01 3339.83 66.32 9.00 199.70 2567.50
   23:40:05.969.17-May-2020 4902.01 3342.23 66.32 9.00 199.90 2567.50
   23:40:06.169.17-May-2020 4902.01 3342.23 66.32 9.00 200.10 2567.50
   23:40:06.369.17-May-2020 4902.01 3346.85 66.32 9.00 200.30 2567.50
   23:40:06.569.17-May-2020 4902.01 3347.27 66.32 9.00 200.50 2567.50
   23:40:06.769.17-May-2020 4902.01 3348.41 66.32 9.00 200.70 2567.50
   23:40:06.969.17-May-2020 4902.01 3351.15 66.32 9.00 200.90 2567.50
   23:40:07.169.17-May-2020 4902.01 3351.15 66.32 9.00 201.10 2567.50
   23:40:07.369.17-May-2020 4902.01 3355.94 66.32 9.00 201.30 2567.50
   23:40:07.569.17-May-2020 4902.01 3356.23 66.32 9.00 201.50 2567.50
   23:40:07.768.17-May-2020 4902.01 3358.57 66.32 9.00 201.70 2567.50
   23:40:07.968.17-May-2020 4902.01 3360.37 66.32 9.00 201.90 2567.50
   23:40:08.168.17-May-2020 4902.01 3360.37 66.32 9.00 202.10 2567.50
   23:40:08.368.17-May-2020 4902.01 3362.80 66.32 9.00 202.30 2567.50
   23:40:08.568.17-May-2020 4902.01 3363.96 66.32 9.00 202.50 2567.50
   23:40:08.768.17-May-2020 4902.01 3366.51 66.32 9.00 202.70 2567.50
   23:40:08.968.17-May-2020 4902.01 3368.54 66.32 9.00 202.90 2567.50
   23:40:09.168.17-May-2020 4902.01 3368.54 66.32 9.00 203.10 2567.50
   23:40:09.368.17-May-2020 4902.01 3371.02 66.32 9.00 203.30 2567.50
   23:40:09.568.17-May-2020 4902.01 3372.80 66.32 9.00 203.50 2567.50
   23:40:09.767.17-May-2020 4902.01 3374.65 66.32 9.00 203.70 2567.50
   23:40:09.967.17-May-2020 4902.01 3376.43 66.32 9.00 203.90 2567.50
   23:40:10.167.17-May-2020 4902.01 3376.43 66.32 9.00 204.10 2567.50
   23:40:10.367.17-May-2020 4902.01 3380.81 66.32 9.00 204.30 2567.50
   23:40:10.567.17-May-2020 4902.01 3382.87 66.32 9.00 204.50 2567.50
   23:40:10.767.17-May-2020 4902.01 3384.71 66.32 9.00 204.69 2567.50
   23:40:10.967.17-May-2020 4902.01 3386.22 66.32 9.00 204.89 2567.50
   23:40:11.167.17-May-2020 4902.01 3386.22 66.32 9.00 205.09 2567.50
   23:40:11.367.17-May-2020 4902.01 3389.73 66.32 9.00 205.29 2567.50
   23:40:11.567.17-May-2020 4902.01 3389.70 66.32 9.00 205.49 2567.50
   23:40:11.766.17-May-2020 4902.01 3390.99 66.32 9.00 205.69 2567.50
   23:40:11.966.17-May-2020 4902.01 3393.23 66.32 9.00 205.89 2567.50
   23:40:12.166.17-May-2020 4902.01 3393.23 66.32 9.00 206.09 2567.50
   23:40:12.366.17-May-2020 4902.01 3397.12 66.32 9.00 206.29 2567.50
   23:40:12.566.17-May-2020 4902.01 3398.64 66.32 9.00 206.49 2567.50
   23:40:12.766.17-May-2020 4902.01 3400.60 66.32 9.00 206.69 2567.50
