~Version Information
 VERS.                  2.0:   CWLS log ASCII Standard -VERSION 2.0
 WRAP.                   NO:   One line per depth step
~Well Information Block
#MNEM.UNIT     VALUE/NAME     DESCRIPTION
#---------     -----------    ---------------------------
 STRT.S             23:36:46 17-May-20: START TIME 23:36:46 17-May-20
 STOP.S             23:44:24 17-May-20: STOP TIME  23:44:24 17-May-20
 STEP.S                   0.00: STEP TIME
 NULL.                 -999.25: NULL VALUE
 UNIT.                     N/A:  LOGGING EQUIPMENT ID
 DCON.         Sperry Drilling:  DIRECTNL CONTR
 DOE .                     N/A:  DOE NUMBER
 JOBN.        AZ-XX-0906252240:  JOB TICKET NUMB
 MWDS.                     N/A:  MWD SHOP
 PROV.                    Baku:  PROVINCE
 STAT.                    Baku:  STATE NAME
 REGN.                   EESSA:  REGION
 BASE.              Azerbaijan:  LOGGING EQUIPMENT BASE LOCATION
 UWI .                     N/A:  UNIQUE WELL IDENTIFIER
 API .                     N/A:  API NUMBER
 MDS .        Operator Entered:  MAG DATA SOURCE
 WTYP.                Deviated:  WELL TYPE
 COMP.     BP Exploration (Caspian Sea) Ltd.:  COMPANY
 SRVC.          Turan Drilling:  CONTRACTOR
 WELL.           J23 (Slot 07):  WELL NAME
 CTRY.              Azerbaijan:  COUNTRY NAME
 FLD .                     ACG:  FIELD NAME
 PDAT.          Mean Sea Level:  PERMANENT DATUM
 RIG .             West Chirag:  RIG NAME
 SON .        AZ-XX-0906252240:  JOB NUMBER
 FTOP.          Formation Tops:  FORM TOPS DESC
 ILTD.               Lithology:  INTERP LTH DESC
 SVYD.                  Survey:  SURVEY DESC
 DMOD.             Drill Model:  DRILL MOD DESC
 HPTY.       Minimum Curvature:  HOLE POS TYPE
 NREF.                    Grid:  NORTH REFERENCE
 SPUD.               27-Aug-20:  SPUD DATE
 DATE.      00.00.00 19-May-20:  END TIME
 STIM.      03.00.00 25-Mar-20:  START TIME
 DMF .             Drill Floor:  DRILL MEAS FROM
 DFST.                        :  DIST FSL TEXT
 DFWT.                        :  DIST FWL TEXT
 CNTY.                        :  COUNTY
 LOC .                        :  LOCATION
 LMF .             Drill Floor:  LOG MEASURED FROM
 VSNS.m                   9.43:  VERT SEC N/S
 VSEW.m                  -8.91:  VERT SEC E/W
 AGAP.m                  43.00:  AIR GAP
 DEP .m                 354.17:  DEPTH
 APD .m                  43.00:  DEPTH ABOVE PD
 WDMS.m                 169.80:  WD ELEV
 EGL .m                   0.00:  GROUND ELEVATION
 EPD .m                   0.00:  ELEVATION
 AZTC.deg                 6.31:  AZM TOTAL CORR
 GRDC.deg                 0.14:  GRID CORRECTION
 MDEC.deg                 6.45:  MAGNETIC DECL
 MDIP.deg                59.56:  MAGNETIC DIP
 MFLD.nT              50295.00:  MAGNETIC FIELD
 GVFD.g                   1.00:  GRAVITY FIELD
 VSDR.deg               179.88:  VERT SEC DIRECT
 TDD .m                5150.01:  TOTAL DEPTH (DRILLER)
 SDEP.m                 864.00:  START DEPTH
 DFSL.m                   0.00:  DISTANCE FSL
 DFWL.m                   0.00:  DISTANCE FWL
 UTMY.m             4443793.85:  UTM Y
 UTMX.m              519005.06:  UTM X
 WHEW.m                  -8.91:  WELL HEAD E/W
 WHNS.m                   9.43:  WELL HEAD N/S
 LONG.deg                51.22:  LONGITUDE
 LATI.deg                40.13:  LATITUDE
 TVDS.m                  43.00:  TVDSS CORRECTN
 EKB .m                   0.00:  KB ELEVATION
 EDF .m                  43.00:  DF ELEVATION
 TDL .m                 363.00:  TOTAL DEPTH (LOGGER)
 MAGU.                 1850802:  MAGUTM CHECKSUM
 VSC .                       0:  VS TO CLOSURE
~Parameter Information Block
#MNEM.UNIT       Value        Description
#---------     -----------    ---------------------------
 AV  .mps                 2.30:  Ann Velocity 
 AVMX.mps                 4.40:  Max Ann Veloc 
 AZIF.deg               110.24:  Azm, Final 
 BHAT.        Rotary Steerable:  BHA Type 
 BREV.rev               331.00:  Rev Bit Total 
 BROT.°/30m               0.00:  Build Rotating 
 BS  .in                  8.50:  Bit Size 
 BSZ .in                  8.50:  Bit Size 
 BTPL.psig              585.00:  Bit Press Loss 
 CABU.                     Yes:  Customer Abuse 
 TCS .hr                122.75:  Time Ciculation Ended 
 CV  .mps                 2.67:  Crit Velocity 
 CVMX.mps                 3.56:  Max Crit Veloc 
 DD1 .          Rashad Habibov:  Direct Drillr 1 
 DD2 .         Rasim Ibrahimov:  Direct Drillr 2 
 DDSV.               Geo-Pilot:  DD Service 
 DEFF.%                  98.00:  % Det Eff 
 DLRX.°/30m               0.75:  Dogleg Rot Max 
 DLSO.°/30m               1.25:  Dogleg Oriented 
 DLSX.°/30m               2.06:  Dogleg Str Max 
 DRET.      07.45.00 17-May-20:  Drill End Time 
 DRST.      22.50.00 15-May-20:  Drill Start Tim 
 DTIM.hr                 20.75:  Time Drilling 
 EDEP.m                5124.01:  End Depth 
 ENG1.           Eldar Hajiyev:  Engineer 1 
 ENG2.        Marcelo Sandoval:  Engineer 2 
 ENG3.        Davud huseynzada:  Engineer 3 
 ENG4.          Ruslan Safarov:  Engineer 4 
 ETIM.      04.33.00 23-May-20:  End Time 
 FLOI.gpm               450.00:  Flow In 
 FLON.gpm               400.00:  Flow In Min 
 FLOS.cptm                0.00:  Fluid Loss 
 FLOX.gpm               500.00:  Flow In Max 
 FTRO.       Formation Presure:  FTWD Run Obj 
 HFLO.                      No:  High Flow 
 HPRE.                     Yes:  High Pressure 
 HTEM.                      No:  High Temp 
 HYDO.m                   1.80:  Hydro Offset 
 IFIN.deg                75.06:  Inc, Final 
 IMAX.deg                75.38:  Inc Max 
 IMIN.deg                74.69:  Inc Min 
 IMND.m                5027.38:  Inc Min Depth 
 IMXD.m                4771.61:  Inc Max Depth 
 JARR.                      No:  Jarring 
 LETM.      07.45.00 17-May-20:  Log End Time 
 LOST.hr                     0:  Lost Rig Time 
 LSTM.      22.50.00 15-May-20:  Log Start Time 
 MDCL.ppm             42000.00:  Mud Chlorides 
 MDES.     Inversion Oil/Synthetic:  Mud Desc 
 DFD .sg                  1.34:  Mud Density 
 MDMN.sg                  1.34:  Dens Mud Min 
 MDMX.sg                  1.34:  Dens Mud Max 
 MOIL.                       0:  Run Mud Oil % 
 MOWR.                   67:33:  Run Mud OWR 
 MSND.                       0:  Run Mud Sand % 
 MSOL.                     1.8:  Run Mud Solids% 
 DFV .spqt               76.00:  Mud Viscosity 
 MWOD.in                  6.75:  MWD Tool OD 
 MWSI.                      No:  Serv Intrp, MWD 
 OTIM.hr                228.19:  Time Operating 
 PCON.           Look Like New:  Pad Condition 
 PMAX.psia             6164.70:  Press Op, Max 
 PV  .cP                 28.00:  Mud PV 
 RUN .                     900:  Run Number 
 ROPA.m/hr               19.00:  ROP Avg 
 ROPN.m/hr               11.00:  ROP Min 
 ROPX.m/hr               36.00:  ROP Max 
 RPMA.rpm               120.00:  RPM Surface Avg 
 RPMN.rpm               120.00:  RPM Surface Min 
 RPMX.rpm               120.00:  RPM Surface Max 
 RRUN.                    L604:  Rig Run Number 
 RTIM.hr                  7.00:  Time Reaming 
 SAZI.deg               109.27:  Azm, Start 
 SDEP.m                4761.01:  Start Depth 
 SIDD.                      No:  Serv Intrp, DD 
 SINC.deg                75.38:  Inc, Start 
 SPPA.psig             3574.00:  SPP Avg 
 SPPN.psig             3475.00:  SPP Min 
 SPPX.psig             3791.00:  SPP Max 
 STIM.      07.08.48 13-May-20:  Start Time 
 SVCS.                 DD, MWD:  Services 
 SVER.                    9.20:  Sperry Version 
 TDAT.m                 363.00:  Tot Depth Attmp 
 TDDF.                      No:  Trip for DD 
 TDLG.m                 363.00:  Tot Depth Loggd 
 TFF .                      No:  Trip for Fail 
 TQAA.f-kp               20.00:  Torque Abs Avg 
 TQAN.f-kp               18.00:  Torque Abs Min 
 TQAX.f-kp               22.00:  Torque Abs Max 
 TRRT.°/30m              -0.35:  Turn Rotating 
 MRT .                    HCIM:  Maximum Recorded Temperature 
 TTMX.degC               92.16:  Max Tool Temp 
 VS01.                90586518:  Virtual Str1 SN 
 VS02.        AZ90560654Z1W1C6:  Virtual Str2 SN 
 VS03.           AZ90610398F11:  Virtual Str3 SN 
 VS04.                90514975:  Virtual Str4 SN 
 VS05.                90514972:  Virtual Str5 SN 
 VS06.     AZ90603282F11V7D1A6:  Virtual Str6 SN 
 WBMN.klb                 7.00:  WOB Min 
 WOBA.klb                12.00:  WOB Avg 
 WOBX.klb                14.00:  WOB Max 
 YP  .lhf2               32.00:  Yield Point 
~Curve Information Block
#MNEM.UNIT                 API CODE     Curve Description
#---------               -----------    ---------------------------
 TIME.HHMMSS            00 000 000 000:  GT Time & Date
 GTDEPTH.m              00 000 000 000:  GT Depth
 GTPQH.psia             00 000 000 000:  GT HR Quartz Pressure
 GTTQ.degC              00 000 000 000:  GT Quartz Temperature
 GTTN.NONE              00 000 000 000:  GT Test Number
 GTET.sec               00 000 000 000:  GT Elapsed Test Time
 GTTVD.m                00 000 000 000:  GT True Vertical Depth
#Other Information
#
#WARRANTY: Halliburton will use its best efforts to furnish customers with 
#accurate information and interpretations that are part of, and incident to, the services 
#provided.  However, Halliburton cannot and does not warrant the accuracy 
#or correctness of such information and interpretations.  Under no circumstances should any 
#such information or interpretation be relied upon as the sole basis for any drilling, 
#completion, production, or financial decision or any procedure involving any risk to the 
#safety of any drilling venture, drilling rig or its crew or any other third party.  The 
#Customer has full responsibility for all drilling, completion and production operation.  
#Halliburton makes no representations or warranties, either expressed or 
#implied, including, but not limited to, the implied warranties of merchantability or fitness 
#for a particular purpose, with respect to the services rendered.  In no event will 
#Halliburton be liable for failure to obtain any particular results or for 
#any damages, including, but not limited to, indirect, special or consequential damages, 
#resulting from the use of any information or interpretation provided by Halliburton.
#
~A           TIME           GTDEPTH  GTPQH  GTTQ  GTTN  GTET   GTTVD  
# ...
   23:40:35.954.17-May-2020 4902.01 3504.85 66.31 9.00 229.88 2567.50
   23:40:36.154.17-May-2020 4902.01 3504.85 66.31 9.00 230.08 2567.50
   23:40:36.354.17-May-2020 4902.01 3506.60 66.31 9.00 230.28 2567.50
   23:40:36.554.17-May-2020 4902.01 3507.49 66.31 9.00 230.48 2567.50
   23:40:36.754.17-May-2020 4902.01 3508.68 66.31 9.00 230.68 2567.50
   23:40:36.954.17-May-2020 4902.01 3509.47 66.31 9.00 230.88 2567.50
   23:40:37.153.17-May-2020 4902.01 3509.47 66.31 9.00 231.08 2567.50
   23:40:37.353.17-May-2020 4902.01 3511.44 66.31 9.00 231.28 2567.50
   23:40:37.553.17-May-2020 4902.01 3512.42 66.31 9.00 231.48 2567.50
   23:40:37.753.17-May-2020 4902.01 3513.52 66.31 9.00 231.68 2567.50
   23:40:37.953.17-May-2020 4902.01 3513.25 66.31 9.00 231.88 2567.50
   23:40:38.153.17-May-2020 4902.01 3513.25 66.31 9.00 232.08 2567.50
   23:40:38.353.17-May-2020 4902.01 3513.70 66.31 9.00 232.28 2567.50
   23:40:38.553.17-May-2020 4902.01 3514.71 66.31 9.00 232.48 2567.50
   23:40:38.753.17-May-2020 4902.01 3515.72 66.31 9.00 232.68 2567.50
   23:40:38.952.17-May-2020 4902.01 3516.70 66.31 9.00 232.88 2567.50
   23:40:39.152.17-May-2020 4902.01 3516.70 66.31 9.00 233.08 2567.50
   23:40:39.352.17-May-2020 4902.01 3518.40 66.31 9.00 233.28 2567.50
   23:40:39.552.17-May-2020 4902.01 3519.21 66.31 9.00 233.48 2567.50
   23:40:39.752.17-May-2020 4902.01 3519.99 66.31 9.00 233.68 2567.50
   23:40:39.952.17-May-2020 4902.01 3520.65 66.31 9.00 233.88 2567.50
   23:40:40.152.17-May-2020 4902.01 3520.65 66.31 9.00 234.08 2567.50
   23:40:40.352.17-May-2020 4902.01 3520.15 66.31 9.00 234.28 2567.50
   23:40:40.552.17-May-2020 4902.01 3520.96 66.31 9.00 234.48 2567.50
   23:40:40.752.17-May-2020 4902.01 3521.60 66.31 9.00 234.68 2567.50
   23:40:40.951.17-May-2020 4902.01 3522.78 66.31 9.00 234.88 2567.50
   23:40:41.151.17-May-2020 4902.01 3522.78 66.31 9.00 235.08 2567.50
   23:40:41.351.17-May-2020 4902.01 3522.20 66.31 9.00 235.28 2567.50
   23:40:41.551.17-May-2020 4902.01 3522.60 66.31 9.00 235.48 2567.50
   23:40:41.751.17-May-2020 4902.01 3522.32 66.31 9.00 235.68 2567.50
   23:40:41.951.17-May-2020 4902.01 3522.82 66.31 9.00 235.88 2567.50
   23:40:42.151.17-May-2020 4902.01 3522.82 66.31 9.00 236.08 2567.50
   23:40:42.351.17-May-2020 4902.01 3526.02 66.31 9.00 236.28 2567.50
   23:40:42.551.17-May-2020 4902.01 3527.68 66.31 9.00 236.48 2567.50
   23:40:42.751.17-May-2020 4902.01 3527.86 66.31 9.00 236.68 2567.50
   23:40:42.950.17-May-2020 4902.01 3529.00 66.31 9.00 236.88 2567.50
   23:40:43.150.17-May-2020 4902.01 3529.00 66.31 9.00 237.08 2567.50
   23:40:43.350.17-May-2020 4902.01 3530.93 66.31 9.00 237.28 2567.50
   23:40:43.550.17-May-2020 4902.01 3531.82 66.31 9.00 237.48 2567.50
   23:40:43.750.17-May-2020 4902.01 3532.59 66.31 9.00 237.68 2567.50
   23:40:43.950.17-May-2020 4902.01 3533.29 66.31 9.00 237.88 2567.50
   23:40:44.150.17-May-2020 4902.01 3533.29 66.31 9.00 238.08 2567.50
   23:40:44.350.17-May-2020 4902.01 3534.75 66.31 9.00 238.28 2567.50
   23:40:44.550.17-May-2020 4902.01 3535.44 66.31 9.00 238.48 2567.50
   23:40:44.750.17-May-2020 4902.01 3536.07 66.31 9.00 238.68 2567.50
   23:40:44.949.17-May-2020 4902.01 3535.89 66.31 9.00 238.88 2567.50
   23:40:45.149.17-May-2020 4902.01 3535.89 66.31 9.00 239.08 2567.50
   23:40:45.349.17-May-2020 4902.01 3537.48 66.31 9.00 239.28 2567.50
   23:40:45.549.17-May-2020 4902.01 3538.11 66.31 9.00 239.48 2567.50
   23:40:45.749.17-May-2020 4902.01 3538.96 66.31 9.00 239.68 2567.50
   23:40:45.949.17-May-2020 4902.01 3539.35 66.31 9.00 239.88 2567.50
   23:40:46.149.17-May-2020 4902.01 3539.35 66.31 9.00 240.08 2567.50
   23:40:46.349.17-May-2020 4902.01 3540.53 66.31 9.00 240.28 2567.50
   23:40:46.549.17-May-2020 4902.01 3541.09 66.31 9.00 240.48 2567.50
   23:40:46.748.17-May-2020 4902.01 3541.61 66.31 9.00 240.68 2567.50
   23:40:46.948.17-May-2020 4902.01 3541.23 66.30 9.00 240.88 2567.50
   23:40:47.148.17-May-2020 4902.01 3541.23 66.30 9.00 241.08 2567.50
   23:40:47.348.17-May-2020 4902.01 3541.78 66.31 9.00 241.28 2567.50
   23:40:47.548.17-May-2020 4902.01 3542.75 66.30 9.00 241.48 2567.50
   23:40:47.748.17-May-2020 4902.01 3543.36 66.30 9.00 241.68 2567.50
   23:40:47.948.17-May-2020 4902.01 3543.97 66.30 9.00 241.88 2567.50
   23:40:48.148.17-May-2020 4902.01 3543.97 66.30 9.00 242.08 2567.50
   23:40:48.348.17-May-2020 4902.01 3543.22 66.30 9.00 242.28 2567.50
   23:40:48.548.17-May-2020 4902.01 3544.25 66.30 9.00 242.48 2567.50
   23:40:48.747.17-May-2020 4902.01 3544.28 66.30 9.00 242.68 2567.50
   23:40:48.947.17-May-2020 4902.01 3543.11 66.30 9.00 242.88 2567.50
   23:40:49.147.17-May-2020 4902.01 3543.11 66.30 9.00 243.08 2567.50
   23:40:49.347.17-May-2020 4902.01 3544.64 66.30 9.00 243.28 2567.50
   23:40:49.547.17-May-2020 4902.01 3543.23 66.30 9.00 243.48 2567.50
   23:40:49.747.17-May-2020 4902.01 3543.32 66.30 9.00 243.67 2567.50
   23:40:49.947.17-May-2020 4902.01 3544.34 66.30 9.00 243.87 2567.50
   23:40:50.147.17-May-2020 4902.01 3544.34 66.30 9.00 244.07 2567.50
   23:40:50.347.17-May-2020 4902.01 3546.01 66.30 9.00 244.27 2567.50
   23:40:50.547.17-May-2020 4902.01 3546.39 66.30 9.00 244.47 2567.50
   23:40:50.746.17-May-2020 4902.01 3547.35 66.30 9.00 244.67 2567.50
   23:40:50.946.17-May-2020 4902.01 3547.95 66.30 9.00 244.87 2567.50
   23:40:51.146.17-May-2020 4902.01 3547.95 66.30 9.00 245.07 2567.50
   23:40:51.346.17-May-2020 4902.01 3549.26 66.30 9.00 245.27 2567.50
   23:40:51.546.17-May-2020 4902.01 3548.28 66.30 9.00 245.47 2567.50
   23:40:51.746.17-May-2020 4902.01 3548.31 66.30 9.00 245.67 2567.50
   23:40:51.946.17-May-2020 4902.01 3548.88 66.30 9.00 245.87 2567.50
   23:40:52.146.17-May-2020 4902.01 3548.88 66.30 9.00 246.07 2567.50
   23:40:52.346.17-May-2020 4902.01 3550.37 66.30 9.00 246.27 2567.50
   23:40:52.546.17-May-2020 4902.01 3551.07 66.30 9.00 246.47 2567.50
   23:40:52.745.17-May-2020 4902.01 3551.60 66.30 9.00 246.67 2567.50
   23:40:52.945.17-May-2020 4902.01 3552.26 66.30 9.00 246.87 2567.50
   23:40:53.145.17-May-2020 4902.01 3552.26 66.30 9.00 247.07 2567.50
   23:40:53.345.17-May-2020 4902.01 3553.40 66.30 9.00 247.27 2567.50
   23:40:53.545.17-May-2020 4902.01 3553.86 66.30 9.00 247.47 2567.50
   23:40:53.745.17-May-2020 4902.01 3552.75 66.30 9.00 247.67 2567.50
   23:40:53.945.17-May-2020 4902.01 3552.64 66.30 9.00 247.87 2567.50
   23:40:54.145.17-May-2020 4902.01 3552.64 66.30 9.00 248.07 2567.50
   23:40:54.345.17-May-2020 4902.01 3554.31 66.30 9.00 248.27 2567.50
   23:40:54.544.17-May-2020 4902.01 3553.48 66.30 9.00 248.47 2567.50
   23:40:54.744.17-May-2020 4902.01 3553.76 66.30 9.00 248.67 2567.50
   23:40:54.944.17-May-2020 4902.01 3554.81 66.30 9.00 248.87 2567.50
   23:40:55.144.17-May-2020 4902.01 3554.81 66.30 9.00 249.07 2567.50
   23:40:55.344.17-May-2020 4902.01 3556.66 66.30 9.00 249.27 2567.50
   23:40:55.544.17-May-2020 4902.01 3555.75 66.30 9.00 249.47 2567.50
   23:40:55.744.17-May-2020 4902.01 3555.34 66.30 9.00 249.67 2567.50
   23:40:55.944.17-May-2020 4902.01 3555.63 66.30 9.00 249.87 2567.50
   23:40:56.144.17-May-2020 4902.01 3555.63 66.30 9.00 250.07 2567.50
   23:40:56.344.17-May-2020 4902.01 3557.33 66.30 9.00 250.27 2567.50
   23:40:56.543.17-May-2020 4902.01 3557.68 66.30 9.00 250.47 2567.50
   23:40:56.743.17-May-2020 4902.01 3556.14 66.30 9.00 250.67 2567.50
   23:40:56.943.17-May-2020 4902.01 3556.30 66.30 9.00 250.87 2567.50
   23:40:57.143.17-May-2020 4902.01 3556.30 66.30 9.00 251.07 2567.50
   23:40:57.343.17-May-2020 4902.01 3558.17 66.30 9.00 251.27 2567.50
   23:40:57.543.17-May-2020 4902.01 3559.03 66.30 9.00 251.47 2567.50
   23:40:57.743.17-May-2020 4902.01 3559.44 66.30 9.00 251.67 2567.50
   23:40:57.943.17-May-2020 4902.01 3560.32 66.30 9.00 251.87 2567.50
   23:40:58.143.17-May-2020 4902.01 3560.32 66.30 9.00 252.07 2567.50
   23:40:58.343.17-May-2020 4902.01 3561.55 66.30 9.00 252.27 2567.50
   23:40:58.542.17-May-2020 4902.01 3562.26 66.30 9.00 252.47 2567.50
   23:40:58.742.17-May-2020 4902.01 3561.11 66.30 9.00 252.67 2567.50
