~Version Information
 VERS.                  2.0:   CWLS log ASCII Standard -VERSION 2.0
 WRAP.                   NO:   One line per depth step
~Well Information Block
#MNEM.UNIT     VALUE/NAME     DESCRIPTION
#---------     -----------    ---------------------------
 STRT.S             22:05:00 17-May-20: START TIME 22:05:00 17-May-20
 STOP.S             22:12:03 17-May-20: STOP TIME  22:12:03 17-May-20
 STEP.S                   0.00: STEP TIME
 NULL.                 -999.25: NULL VALUE
 UNIT.                     N/A:  LOGGING EQUIPMENT ID
 DCON.         Sperry Drilling:  DIRECTNL CONTR
 DOE .                     N/A:  DOE NUMBER
 JOBN.        AZ-XX-0906252240:  JOB TICKET NUMB
 MWDS.                     N/A:  MWD SHOP
 PROV.                    Baku:  PROVINCE
 STAT.                    Baku:  STATE NAME
 REGN.                   EESSA:  REGION
 BASE.              Azerbaijan:  LOGGING EQUIPMENT BASE LOCATION
 UWI .                     N/A:  UNIQUE WELL IDENTIFIER
 API .                     N/A:  API NUMBER
 MDS .        Operator Entered:  MAG DATA SOURCE
 WTYP.                Deviated:  WELL TYPE
 COMP.     BP Exploration (Caspian Sea) Ltd.:  COMPANY
 SRVC.          Turan Drilling:  CONTRACTOR
 WELL.           J23 (Slot 07):  WELL NAME
 CTRY.              Azerbaijan:  COUNTRY NAME
 FLD .                     ACG:  FIELD NAME
 PDAT.          Mean Sea Level:  PERMANENT DATUM
 RIG .             West Chirag:  RIG NAME
 SON .        AZ-XX-0906252240:  JOB NUMBER
 FTOP.          Formation Tops:  FORM TOPS DESC
 ILTD.               Lithology:  INTERP LTH DESC
 SVYD.                  Survey:  SURVEY DESC
 DMOD.             Drill Model:  DRILL MOD DESC
 HPTY.       Minimum Curvature:  HOLE POS TYPE
 NREF.                    Grid:  NORTH REFERENCE
 SPUD.               27-Aug-20:  SPUD DATE
 DATE.      00.00.00 19-May-20:  END TIME
 STIM.      03.00.00 25-Mar-20:  START TIME
 DMF .             Drill Floor:  DRILL MEAS FROM
 DFST.                        :  DIST FSL TEXT
 DFWT.                        :  DIST FWL TEXT
 CNTY.                        :  COUNTY
 LOC .                        :  LOCATION
 LMF .             Drill Floor:  LOG MEASURED FROM
 VSNS.m                   9.43:  VERT SEC N/S
 VSEW.m                  -8.91:  VERT SEC E/W
 AGAP.m                  43.00:  AIR GAP
 DEP .m                 354.17:  DEPTH
 APD .m                  43.00:  DEPTH ABOVE PD
 WDMS.m                 169.80:  WD ELEV
 EGL .m                   0.00:  GROUND ELEVATION
 EPD .m                   0.00:  ELEVATION
 AZTC.deg                 6.31:  AZM TOTAL CORR
 GRDC.deg                 0.14:  GRID CORRECTION
 MDEC.deg                 6.45:  MAGNETIC DECL
 MDIP.deg                59.56:  MAGNETIC DIP
 MFLD.nT              50295.00:  MAGNETIC FIELD
 GVFD.g                   1.00:  GRAVITY FIELD
 VSDR.deg               179.88:  VERT SEC DIRECT
 TDD .m                5150.01:  TOTAL DEPTH (DRILLER)
 SDEP.m                 864.00:  START DEPTH
 DFSL.m                   0.00:  DISTANCE FSL
 DFWL.m                   0.00:  DISTANCE FWL
 UTMY.m             4443793.85:  UTM Y
 UTMX.m              519005.06:  UTM X
 WHEW.m                  -8.91:  WELL HEAD E/W
 WHNS.m                   9.43:  WELL HEAD N/S
 LONG.deg                51.22:  LONGITUDE
 LATI.deg                40.13:  LATITUDE
 TVDS.m                  43.00:  TVDSS CORRECTN
 EKB .m                   0.00:  KB ELEVATION
 EDF .m                  43.00:  DF ELEVATION
 TDL .m                 363.00:  TOTAL DEPTH (LOGGER)
 MAGU.                 1850802:  MAGUTM CHECKSUM
 VSC .                       0:  VS TO CLOSURE
~Parameter Information Block
#MNEM.UNIT       Value        Description
#---------     -----------    ---------------------------
 AV  .mps                 2.30:  Ann Velocity 
 AVMX.mps                 4.40:  Max Ann Veloc 
 AZIF.deg               110.24:  Azm, Final 
 BHAT.        Rotary Steerable:  BHA Type 
 BREV.rev               331.00:  Rev Bit Total 
 BROT.°/30m               0.00:  Build Rotating 
 BS  .in                  8.50:  Bit Size 
 BSZ .in                  8.50:  Bit Size 
 BTPL.psig              585.00:  Bit Press Loss 
 CABU.                     Yes:  Customer Abuse 
 COMM.                     íe:  Run Comments 1 
 TCS .hr                122.75:  Time Ciculation Ended 
 CV  .mps                 2.67:  Crit Velocity 
 CVMX.mps                 3.56:  Max Crit Veloc 
 DD1 .          Rashad Habibov:  Direct Drillr 1 
 DD2 .         Rasim Ibrahimov:  Direct Drillr 2 
 DDSV.               Geo-Pilot:  DD Service 
 DEFF.%                  98.00:  % Det Eff 
 DLRX.°/30m               0.75:  Dogleg Rot Max 
 DLSO.°/30m               1.25:  Dogleg Oriented 
 DLSX.°/30m               2.06:  Dogleg Str Max 
 DRET.      07.45.00 17-May-20:  Drill End Time 
 DRST.      22.50.00 15-May-20:  Drill Start Tim 
 DTIM.hr                 20.75:  Time Drilling 
 EDEP.m                5124.01:  End Depth 
 ENG1.           Eldar Hajiyev:  Engineer 1 
 ENG2.        Marcelo Sandoval:  Engineer 2 
 ENG3.        Davud huseynzada:  Engineer 3 
 ENG4.          Ruslan Safarov:  Engineer 4 
 ETIM.      04.33.00 23-May-20:  End Time 
 FLOI.gpm               450.00:  Flow In 
 FLON.gpm               400.00:  Flow In Min 
 FLOS.cptm                0.00:  Fluid Loss 
 FLOX.gpm               500.00:  Flow In Max 
 FTRO.       Formation Presure:  FTWD Run Obj 
 HFLO.                      No:  High Flow 
 HPRE.                     Yes:  High Pressure 
 HTEM.                      No:  High Temp 
 HYDO.m                   1.80:  Hydro Offset 
 IFIN.deg                75.06:  Inc, Final 
 IMAX.deg                75.38:  Inc Max 
 IMIN.deg                74.69:  Inc Min 
 IMND.m                5027.38:  Inc Min Depth 
 IMXD.m                4771.61:  Inc Max Depth 
 JARR.                      No:  Jarring 
 LETM.      07.45.00 17-May-20:  Log End Time 
 LOST.hr                     0:  Lost Rig Time 
 LSTM.      22.50.00 15-May-20:  Log Start Time 
 MDCL.ppm             42000.00:  Mud Chlorides 
 MDES.     Inversion Oil/Synthetic:  Mud Desc 
 DFD .sg                  1.34:  Mud Density 
 MDMN.sg                  1.34:  Dens Mud Min 
 MDMX.sg                  1.34:  Dens Mud Max 
 MOIL.                       0:  Run Mud Oil % 
 MOWR.                   67:33:  Run Mud OWR 
 MSND.                       0:  Run Mud Sand % 
 MSOL.                     1.8:  Run Mud Solids% 
 DFV .spqt               76.00:  Mud Viscosity 
 MWOD.in                  6.75:  MWD Tool OD 
 MWSI.                      No:  Serv Intrp, MWD 
 OTIM.hr                228.19:  Time Operating 
 PCON.           Look Like New:  Pad Condition 
 PMAX.psia             6164.70:  Press Op, Max 
 PV  .cP                 28.00:  Mud PV 
 RUN .                     900:  Run Number 
 ROPA.m/hr               19.00:  ROP Avg 
 ROPN.m/hr               11.00:  ROP Min 
 ROPX.m/hr               36.00:  ROP Max 
 RPMA.rpm               120.00:  RPM Surface Avg 
 RPMN.rpm               120.00:  RPM Surface Min 
 RPMX.rpm               120.00:  RPM Surface Max 
 RRUN.                    L604:  Rig Run Number 
 RTIM.hr                  7.00:  Time Reaming 
 SAZI.deg               109.27:  Azm, Start 
 SDEP.m                4761.01:  Start Depth 
 SIDD.                      No:  Serv Intrp, DD 
 SINC.deg                75.38:  Inc, Start 
 SPPA.psig             3574.00:  SPP Avg 
 SPPN.psig             3475.00:  SPP Min 
 SPPX.psig             3791.00:  SPP Max 
 STIM.      07.08.48 13-May-20:  Start Time 
 SVCS.                 DD, MWD:  Services 
 SVER.                    9.20:  Sperry Version 
 TDAT.m                 363.00:  Tot Depth Attmp 
 TDDF.                      No:  Trip for DD 
 TDLG.m                 363.00:  Tot Depth Loggd 
 TFF .                      No:  Trip for Fail 
 TQAA.f-kp               20.00:  Torque Abs Avg 
 TQAN.f-kp               18.00:  Torque Abs Min 
 TQAX.f-kp               22.00:  Torque Abs Max 
 TRRT.°/30m              -0.35:  Turn Rotating 
 MRT .                    HCIM:  Maximum Recorded Temperature 
 TTMX.degC               92.16:  Max Tool Temp 
 VS01.                90586518:  Virtual Str1 SN 
 VS02.        AZ90560654Z1W1C6:  Virtual Str2 SN 
 VS03.           AZ90610398F11:  Virtual Str3 SN 
 VS04.                90514975:  Virtual Str4 SN 
 VS05.                90514972:  Virtual Str5 SN 
 VS06.     AZ90603282F11V7D1A6:  Virtual Str6 SN 
 WBMN.klb                 7.00:  WOB Min 
 WOBA.klb                12.00:  WOB Avg 
 WOBX.klb                14.00:  WOB Max 
 YP  .lhf2               32.00:  Yield Point 
~Curve Information Block
#MNEM.UNIT                 API CODE     Curve Description
#---------               -----------    ---------------------------
 TIME.HHMMSS            00 000 000 000:  GT Time & Date
 GTDEPTH.m              00 000 000 000:  GT Depth
 GTPQH.psia             00 000 000 000:  GT HR Quartz Pressure
 GTTQ.degC              00 000 000 000:  GT Quartz Temperature
 GTTN.NONE              00 000 000 000:  GT Test Number
 GTET.sec               00 000 000 000:  GT Elapsed Test Time
 GTTVD.m                00 000 000 000:  GT True Vertical Depth
#Other Information
#
#WARRANTY: Halliburton will use its best efforts to furnish customers with 
#accurate information and interpretations that are part of, and incident to, the services 
#provided.  However, Halliburton cannot and does not warrant the accuracy 
#or correctness of such information and interpretations.  Under no circumstances should any 
#such information or interpretation be relied upon as the sole basis for any drilling, 
#completion, production, or financial decision or any procedure involving any risk to the 
#safety of any drilling venture, drilling rig or its crew or any other third party.  The 
#Customer has full responsibility for all drilling, completion and production operation.  
#Halliburton makes no representations or warranties, either expressed or 
#implied, including, but not limited to, the implied warranties of merchantability or fitness 
#for a particular purpose, with respect to the services rendered.  In no event will 
#Halliburton be liable for failure to obtain any particular results or for 
#any damages, including, but not limited to, indirect, special or consequential damages, 
#resulting from the use of any information or interpretation provided by Halliburton.
#
~A           TIME           GTDEPTH  GTPQH  GTTQ  GTTN  GTET   GTTVD  
# ...
   22:06:56.002.17-May-2020 4937.01 2932.17 67.67 7.00 115.21 2576.47
   22:06:56.203.17-May-2020 4937.01 2932.17 67.67 7.00 115.41 2576.47
   22:06:56.403.17-May-2020 4937.01 2932.19 67.67 7.00 115.61 2576.47
   22:06:56.604.17-May-2020 4937.01 2932.30 67.67 7.00 115.81 2576.47
   22:06:56.804.17-May-2020 4937.01 2932.04 67.67 7.00 116.01 2576.47
   22:06:57.004.17-May-2020 4937.01 2932.18 67.67 7.00 116.21 2576.47
   22:06:57.205.17-May-2020 4937.01 2932.13 67.67 7.00 116.41 2576.47
   22:06:57.405.17-May-2020 4937.01 2932.23 67.67 7.00 116.61 2576.47
   22:06:57.605.17-May-2020 4937.01 2932.06 67.67 7.00 116.81 2576.47
   22:06:57.806.17-May-2020 4937.01 2932.21 67.67 7.00 117.01 2576.47
   22:06:58.006.17-May-2020 4937.01 2932.10 67.67 7.00 117.21 2576.47
   22:06:58.206.17-May-2020 4937.01 2932.10 67.67 7.00 117.42 2576.47
   22:06:58.407.17-May-2020 4937.01 2932.24 67.67 7.00 117.62 2576.47
   22:06:58.607.17-May-2020 4937.01 2932.03 67.67 7.00 117.82 2576.47
   22:06:58.808.17-May-2020 4937.01 2932.18 67.67 7.00 118.02 2576.47
   22:06:59.008.17-May-2020 4937.01 2932.08 67.67 7.00 118.22 2576.47
   22:06:59.208.17-May-2020 4937.01 2932.15 67.67 7.00 118.42 2576.47
   22:06:59.409.17-May-2020 4937.01 2932.25 67.67 7.00 118.62 2576.47
   22:06:59.609.17-May-2020 4937.01 2932.02 67.67 7.00 118.82 2576.47
   22:06:59.809.17-May-2020 4937.01 2932.19 67.67 7.00 119.02 2576.47
   22:07:00.010.17-May-2020 4937.01 2932.10 67.67 7.00 119.22 2576.47
   22:07:00.210.17-May-2020 4937.01 2932.10 67.67 7.00 119.42 2576.47
   22:07:00.411.17-May-2020 4937.01 2932.13 67.67 7.00 119.62 2576.47
   22:07:00.611.17-May-2020 4937.01 2932.15 67.67 7.00 119.82 2576.47
   22:07:00.811.17-May-2020 4937.01 2932.15 67.67 7.00 120.02 2576.47
   22:07:01.012.17-May-2020 4937.01 2932.18 67.67 7.00 120.22 2576.47
   22:07:01.212.17-May-2020 4937.01 2932.18 67.67 7.00 120.42 2576.47
   22:07:01.412.17-May-2020 4937.01 2932.19 67.67 7.00 120.62 2576.47
   22:07:01.613.17-May-2020 4937.01 2932.14 67.67 7.00 120.82 2576.47
   22:07:01.813.17-May-2020 4937.01 2932.16 67.67 7.00 121.02 2576.47
   22:07:02.013.17-May-2020 4937.01 2932.21 67.67 7.00 121.22 2576.47
   22:07:02.214.17-May-2020 4937.01 2932.21 67.67 7.00 121.42 2576.47
   22:07:02.414.17-May-2020 4937.01 2932.15 67.67 7.00 121.62 2576.47
   22:07:02.615.17-May-2020 4937.01 2932.15 67.67 7.00 121.82 2576.47
   22:07:02.815.17-May-2020 4937.01 2932.16 67.67 7.00 122.02 2576.47
   22:07:03.015.17-May-2020 4937.01 2932.17 67.67 7.00 122.22 2576.47
   22:07:03.216.17-May-2020 4937.01 2932.17 67.67 7.00 122.42 2576.47
   22:07:03.416.17-May-2020 4937.01 2932.19 67.67 7.00 122.62 2576.47
   22:07:03.616.17-May-2020 4937.01 2932.29 67.67 7.00 122.83 2576.47
   22:07:03.817.17-May-2020 4937.01 2932.05 67.67 7.00 123.03 2576.47
   22:07:04.017.17-May-2020 4937.01 2932.20 67.67 7.00 123.23 2576.47
   22:07:04.218.17-May-2020 4937.01 2932.20 67.67 7.00 123.43 2576.47
   22:07:04.418.17-May-2020 4937.01 2932.17 67.67 7.00 123.63 2576.47
   22:07:04.618.17-May-2020 4937.01 2932.15 67.67 7.00 123.83 2576.47
   22:07:04.819.17-May-2020 4937.01 2932.18 67.67 7.00 124.03 2576.47
   22:07:05.019.17-May-2020 4937.01 2932.11 67.67 7.00 124.23 2576.47
   22:07:05.219.17-May-2020 4937.01 2932.11 67.67 7.00 124.43 2576.47
   22:07:05.420.17-May-2020 4937.01 2932.15 67.67 7.00 124.63 2576.47
   22:07:05.620.17-May-2020 4937.01 2932.13 67.67 7.00 124.83 2576.47
   22:07:05.820.17-May-2020 4937.01 2932.20 67.67 7.00 125.03 2576.47
   22:07:06.021.17-May-2020 4937.01 2932.10 67.67 7.00 125.23 2576.47
   22:07:06.221.17-May-2020 4937.01 2932.10 67.67 7.00 125.43 2576.47
   22:07:06.422.17-May-2020 4937.01 2932.23 67.67 7.00 125.63 2576.47
   22:07:06.622.17-May-2020 4937.01 2932.06 67.67 7.00 125.83 2576.47
   22:07:06.822.17-May-2020 4937.01 2932.21 67.67 7.00 126.03 2576.47
   22:07:07.023.17-May-2020 4937.01 2932.10 67.67 7.00 126.23 2576.47
   22:07:07.223.17-May-2020 4937.01 2932.14 67.67 7.00 126.43 2576.47
   22:07:07.423.17-May-2020 4937.01 2932.13 67.67 7.00 126.63 2576.47
   22:07:07.624.17-May-2020 4937.01 2932.15 67.67 7.00 126.83 2576.47
   22:07:07.824.17-May-2020 4937.01 2932.16 67.67 7.00 127.03 2576.47
   22:07:08.024.17-May-2020 4937.01 2932.17 67.67 7.00 127.23 2576.47
   22:07:08.225.17-May-2020 4937.01 2932.17 67.67 7.00 127.43 2576.47
   22:07:08.425.17-May-2020 4937.01 2932.20 67.67 7.00 127.63 2576.47
   22:07:08.626.17-May-2020 4937.01 2932.20 67.67 7.00 127.83 2576.47
   22:07:08.826.17-May-2020 4937.01 2932.13 67.67 7.00 128.03 2576.47
   22:07:09.026.17-May-2020 4937.01 2932.17 67.67 7.00 128.24 2576.47
   22:07:09.227.17-May-2020 4937.01 2932.17 67.67 7.00 128.44 2576.47
   22:07:09.427.17-May-2020 4937.01 2932.16 67.67 7.00 128.64 2576.47
   22:07:09.627.17-May-2020 4937.01 2932.16 67.67 7.00 128.84 2576.47
   22:07:09.828.17-May-2020 4937.01 2932.17 67.67 7.00 129.04 2576.47
   22:07:10.028.17-May-2020 4937.01 2932.17 67.67 7.00 129.24 2576.47
   22:07:10.229.17-May-2020 4937.01 2932.17 67.67 7.00 129.44 2576.47
   22:07:10.429.17-May-2020 4937.01 2932.19 67.67 7.00 129.64 2576.47
   22:07:10.629.17-May-2020 4937.01 2932.27 67.67 7.00 129.84 2576.47
   22:07:10.830.17-May-2020 4937.01 2932.07 67.67 7.00 130.04 2576.47
   22:07:11.030.17-May-2020 4937.01 2932.23 67.67 7.00 130.24 2576.47
   22:07:11.230.17-May-2020 4937.01 2932.15 67.67 7.00 130.44 2576.47
   22:07:11.431.17-May-2020 4937.01 2932.18 67.67 7.00 130.64 2576.47
   22:07:11.631.17-May-2020 4937.01 2932.12 67.67 7.00 130.84 2576.47
   22:07:11.831.17-May-2020 4937.01 2932.15 67.67 7.00 131.04 2576.47
   22:07:12.032.17-May-2020 4937.01 2932.14 67.67 7.00 131.24 2576.47
   22:07:12.232.17-May-2020 4937.01 2932.15 67.67 7.00 131.44 2576.47
   22:07:12.433.17-May-2020 4937.01 2932.18 67.67 7.00 131.64 2576.47
   22:07:12.633.17-May-2020 4937.01 2932.14 67.67 7.00 131.84 2576.47
   22:07:12.833.17-May-2020 4937.01 2932.16 67.67 7.00 132.04 2576.47
   22:07:13.034.17-May-2020 4937.01 2932.13 67.67 7.00 132.24 2576.47
   22:07:13.234.17-May-2020 4937.01 2932.13 67.67 7.00 132.44 2576.47
   22:07:13.434.17-May-2020 4937.01 2932.14 67.67 7.00 132.64 2576.47
   22:07:13.635.17-May-2020 4937.01 2932.16 67.67 7.00 132.84 2576.47
   22:07:13.835.17-May-2020 4937.01 2932.19 67.67 7.00 133.04 2576.47
   22:07:14.036.17-May-2020 4937.01 2932.12 67.67 7.00 133.24 2576.47
   22:07:14.236.17-May-2020 4937.01 2932.12 67.67 7.00 133.44 2576.47
   22:07:14.436.17-May-2020 4937.01 2932.14 67.67 7.00 133.65 2576.47
   22:07:14.637.17-May-2020 4937.01 2932.15 67.67 7.00 133.85 2576.47
   22:07:14.837.17-May-2020 4937.01 2932.16 67.67 7.00 134.05 2576.47
   22:07:15.037.17-May-2020 4937.01 2932.17 67.67 7.00 134.25 2576.47
   22:07:15.238.17-May-2020 4937.01 2932.17 67.67 7.00 134.45 2576.47
   22:07:15.438.17-May-2020 4937.01 2932.29 67.67 7.00 134.65 2576.47
   22:07:15.638.17-May-2020 4937.01 2932.05 67.67 7.00 134.85 2576.47
   22:07:15.839.17-May-2020 4937.01 2932.17 67.67 7.00 135.05 2576.47
   22:07:16.039.17-May-2020 4937.01 2932.13 67.67 7.00 135.25 2576.47
   22:07:16.240.17-May-2020 4937.01 2932.13 67.67 7.00 135.45 2576.47
   22:07:16.440.17-May-2020 4937.01 2932.14 67.67 7.00 135.65 2576.47
   22:07:16.640.17-May-2020 4937.01 2932.16 67.67 7.00 135.85 2576.47
   22:07:16.841.17-May-2020 4937.01 2932.16 67.67 7.00 136.05 2576.47
   22:07:17.041.17-May-2020 4937.01 2932.16 67.67 7.00 136.25 2576.47
   22:07:17.241.17-May-2020 4937.01 2932.16 67.67 7.00 136.45 2576.47
   22:07:17.442.17-May-2020 4937.01 2932.19 67.67 7.00 136.65 2576.47
   22:07:17.642.17-May-2020 4937.01 2932.15 67.67 7.00 136.85 2576.47
   22:07:17.842.17-May-2020 4937.01 2932.17 67.67 7.00 137.05 2576.47
   22:07:18.043.17-May-2020 4937.01 2932.20 67.67 7.00 137.25 2576.47
   22:07:18.243.17-May-2020 4937.01 2932.20 67.67 7.00 137.45 2576.47
   22:07:18.444.17-May-2020 4937.01 2932.04 67.67 7.00 137.65 2576.47
   22:07:18.644.17-May-2020 4937.01 2932.17 67.67 7.00 137.85 2576.47
   22:07:18.844.17-May-2020 4937.01 2932.12 67.67 7.00 138.05 2576.47
