~Version Information
 VERS.                  2.0:   CWLS log ASCII Standard -VERSION 2.0
 WRAP.                   NO:   One line per depth step
~Well Information Block
#MNEM.UNIT     VALUE/NAME     DESCRIPTION
#---------     -----------    ---------------------------
 STRT.S             00:24:31 18-May-20: START TIME 00:24:31 18-May-20
 STOP.S             00:32:03 18-May-20: STOP TIME  00:32:03 18-May-20
 STEP.S                   0.00: STEP TIME
 NULL.                 -999.25: NULL VALUE
 UNIT.                     N/A:  LOGGING EQUIPMENT ID
 DCON.         Sperry Drilling:  DIRECTNL CONTR
 DOE .                     N/A:  DOE NUMBER
 JOBN.        AZ-XX-0906252240:  JOB TICKET NUMB
 MWDS.                     N/A:  MWD SHOP
 PROV.                    Baku:  PROVINCE
 STAT.                    Baku:  STATE NAME
 REGN.                   EESSA:  REGION
 BASE.              Azerbaijan:  LOGGING EQUIPMENT BASE LOCATION
 UWI .                     N/A:  UNIQUE WELL IDENTIFIER
 API .                     N/A:  API NUMBER
 MDS .        Operator Entered:  MAG DATA SOURCE
 WTYP.                Deviated:  WELL TYPE
 COMP.     BP Exploration (Caspian Sea) Ltd.:  COMPANY
 SRVC.          Turan Drilling:  CONTRACTOR
 WELL.           J23 (Slot 07):  WELL NAME
 CTRY.              Azerbaijan:  COUNTRY NAME
 FLD .                     ACG:  FIELD NAME
 PDAT.          Mean Sea Level:  PERMANENT DATUM
 RIG .             West Chirag:  RIG NAME
 SON .        AZ-XX-0906252240:  JOB NUMBER
 FTOP.          Formation Tops:  FORM TOPS DESC
 ILTD.               Lithology:  INTERP LTH DESC
 SVYD.                  Survey:  SURVEY DESC
 DMOD.             Drill Model:  DRILL MOD DESC
 HPTY.       Minimum Curvature:  HOLE POS TYPE
 NREF.                    Grid:  NORTH REFERENCE
 SPUD.               27-Aug-20:  SPUD DATE
 DATE.      00.00.00 19-May-20:  END TIME
 STIM.      03.00.00 25-Mar-20:  START TIME
 DMF .             Drill Floor:  DRILL MEAS FROM
 DFST.                        :  DIST FSL TEXT
 DFWT.                        :  DIST FWL TEXT
 CNTY.                        :  COUNTY
 LOC .                        :  LOCATION
 LMF .             Drill Floor:  LOG MEASURED FROM
 VSNS.m                   9.43:  VERT SEC N/S
 VSEW.m                  -8.91:  VERT SEC E/W
 AGAP.m                  43.00:  AIR GAP
 DEP .m                 354.17:  DEPTH
 APD .m                  43.00:  DEPTH ABOVE PD
 WDMS.m                 169.80:  WD ELEV
 EGL .m                   0.00:  GROUND ELEVATION
 EPD .m                   0.00:  ELEVATION
 AZTC.deg                 6.31:  AZM TOTAL CORR
 GRDC.deg                 0.14:  GRID CORRECTION
 MDEC.deg                 6.45:  MAGNETIC DECL
 MDIP.deg                59.56:  MAGNETIC DIP
 MFLD.nT              50295.00:  MAGNETIC FIELD
 GVFD.g                   1.00:  GRAVITY FIELD
 VSDR.deg               179.88:  VERT SEC DIRECT
 TDD .m                5150.01:  TOTAL DEPTH (DRILLER)
 SDEP.m                 864.00:  START DEPTH
 DFSL.m                   0.00:  DISTANCE FSL
 DFWL.m                   0.00:  DISTANCE FWL
 UTMY.m             4443793.85:  UTM Y
 UTMX.m              519005.06:  UTM X
 WHEW.m                  -8.91:  WELL HEAD E/W
 WHNS.m                   9.43:  WELL HEAD N/S
 LONG.deg                51.22:  LONGITUDE
 LATI.deg                40.13:  LATITUDE
 TVDS.m                  43.00:  TVDSS CORRECTN
 EKB .m                   0.00:  KB ELEVATION
 EDF .m                  43.00:  DF ELEVATION
 TDL .m                 363.00:  TOTAL DEPTH (LOGGER)
 MAGU.                 1850802:  MAGUTM CHECKSUM
 VSC .                       0:  VS TO CLOSURE
~Parameter Information Block
#MNEM.UNIT       Value        Description
#---------     -----------    ---------------------------
 AV  .mps                 2.30:  Ann Velocity 
 AVMX.mps                 4.40:  Max Ann Veloc 
 AZIF.deg               110.24:  Azm, Final 
 BHAT.        Rotary Steerable:  BHA Type 
 BREV.rev               331.00:  Rev Bit Total 
 BROT.°/30m               0.00:  Build Rotating 
 BS  .in                  8.50:  Bit Size 
 BSZ .in                  8.50:  Bit Size 
 BTPL.psig              585.00:  Bit Press Loss 
 CABU.                     Yes:  Customer Abuse 
 COMM.                     ô®q:  Run Comments 1 
 TCS .hr                122.75:  Time Ciculation Ended 
 CV  .mps                 2.67:  Crit Velocity 
 CVMX.mps                 3.56:  Max Crit Veloc 
 DD1 .          Rashad Habibov:  Direct Drillr 1 
 DD2 .         Rasim Ibrahimov:  Direct Drillr 2 
 DDSV.               Geo-Pilot:  DD Service 
 DEFF.%                  98.00:  % Det Eff 
 DLRX.°/30m               0.75:  Dogleg Rot Max 
 DLSO.°/30m               1.25:  Dogleg Oriented 
 DLSX.°/30m               2.06:  Dogleg Str Max 
 DRET.      07.45.00 17-May-20:  Drill End Time 
 DRST.      22.50.00 15-May-20:  Drill Start Tim 
 DTIM.hr                 20.75:  Time Drilling 
 EDEP.m                5124.01:  End Depth 
 ENG1.           Eldar Hajiyev:  Engineer 1 
 ENG2.        Marcelo Sandoval:  Engineer 2 
 ENG3.        Davud huseynzada:  Engineer 3 
 ENG4.          Ruslan Safarov:  Engineer 4 
 ETIM.      04.33.00 23-May-20:  End Time 
 FLOI.gpm               450.00:  Flow In 
 FLON.gpm               400.00:  Flow In Min 
 FLOS.cptm                0.00:  Fluid Loss 
 FLOX.gpm               500.00:  Flow In Max 
 FTRO.       Formation Presure:  FTWD Run Obj 
 HFLO.                      No:  High Flow 
 HPRE.                     Yes:  High Pressure 
 HTEM.                      No:  High Temp 
 HYDO.m                   1.80:  Hydro Offset 
 IFIN.deg                75.06:  Inc, Final 
 IMAX.deg                75.38:  Inc Max 
 IMIN.deg                74.69:  Inc Min 
 IMND.m                5027.38:  Inc Min Depth 
 IMXD.m                4771.61:  Inc Max Depth 
 JARR.                      No:  Jarring 
 LETM.      07.45.00 17-May-20:  Log End Time 
 LOST.hr                     0:  Lost Rig Time 
 LSTM.      22.50.00 15-May-20:  Log Start Time 
 MDCL.ppm             42000.00:  Mud Chlorides 
 MDES.     Inversion Oil/Synthetic:  Mud Desc 
 DFD .sg                  1.34:  Mud Density 
 MDMN.sg                  1.34:  Dens Mud Min 
 MDMX.sg                  1.34:  Dens Mud Max 
 MOIL.                       0:  Run Mud Oil % 
 MOWR.                   67:33:  Run Mud OWR 
 MSND.                       0:  Run Mud Sand % 
 MSOL.                     1.8:  Run Mud Solids% 
 DFV .spqt               76.00:  Mud Viscosity 
 MWOD.in                  6.75:  MWD Tool OD 
 MWSI.                      No:  Serv Intrp, MWD 
 OTIM.hr                228.19:  Time Operating 
 PCON.           Look Like New:  Pad Condition 
 PMAX.psia             6164.70:  Press Op, Max 
 PV  .cP                 28.00:  Mud PV 
 RUN .                     900:  Run Number 
 ROPA.m/hr               19.00:  ROP Avg 
 ROPN.m/hr               11.00:  ROP Min 
 ROPX.m/hr               36.00:  ROP Max 
 RPMA.rpm               120.00:  RPM Surface Avg 
 RPMN.rpm               120.00:  RPM Surface Min 
 RPMX.rpm               120.00:  RPM Surface Max 
 RRUN.                    L604:  Rig Run Number 
 RTIM.hr                  7.00:  Time Reaming 
 SAZI.deg               109.27:  Azm, Start 
 SDEP.m                4761.01:  Start Depth 
 SIDD.                      No:  Serv Intrp, DD 
 SINC.deg                75.38:  Inc, Start 
 SPPA.psig             3574.00:  SPP Avg 
 SPPN.psig             3475.00:  SPP Min 
 SPPX.psig             3791.00:  SPP Max 
 STIM.      07.08.48 13-May-20:  Start Time 
 SVCS.                 DD, MWD:  Services 
 SVER.                    9.20:  Sperry Version 
 TDAT.m                 363.00:  Tot Depth Attmp 
 TDDF.                      No:  Trip for DD 
 TDLG.m                 363.00:  Tot Depth Loggd 
 TFF .                      No:  Trip for Fail 
 TQAA.f-kp               20.00:  Torque Abs Avg 
 TQAN.f-kp               18.00:  Torque Abs Min 
 TQAX.f-kp               22.00:  Torque Abs Max 
 TRRT.°/30m              -0.35:  Turn Rotating 
 MRT .                    HCIM:  Maximum Recorded Temperature 
 TTMX.degC               92.16:  Max Tool Temp 
 VS01.                90586518:  Virtual Str1 SN 
 VS02.        AZ90560654Z1W1C6:  Virtual Str2 SN 
 VS03.           AZ90610398F11:  Virtual Str3 SN 
 VS04.                90514975:  Virtual Str4 SN 
 VS05.                90514972:  Virtual Str5 SN 
 VS06.     AZ90603282F11V7D1A6:  Virtual Str6 SN 
 WBMN.klb                 7.00:  WOB Min 
 WOBA.klb                12.00:  WOB Avg 
 WOBX.klb                14.00:  WOB Max 
 YP  .lhf2               32.00:  Yield Point 
~Curve Information Block
#MNEM.UNIT                 API CODE     Curve Description
#---------               -----------    ---------------------------
 TIME.HHMMSS            00 000 000 000:  GT Time & Date
 GTDEPTH.m              00 000 000 000:  GT Depth
 GTPQH.psia             00 000 000 000:  GT HR Quartz Pressure
 GTTQ.degC              00 000 000 000:  GT Quartz Temperature
 GTTN.NONE              00 000 000 000:  GT Test Number
 GTET.sec               00 000 000 000:  GT Elapsed Test Time
 GTTVD.m                00 000 000 000:  GT True Vertical Depth
#Other Information
#
#WARRANTY: Halliburton will use its best efforts to furnish customers with 
#accurate information and interpretations that are part of, and incident to, the services 
#provided.  However, Halliburton cannot and does not warrant the accuracy 
#or correctness of such information and interpretations.  Under no circumstances should any 
#such information or interpretation be relied upon as the sole basis for any drilling, 
#completion, production, or financial decision or any procedure involving any risk to the 
#safety of any drilling venture, drilling rig or its crew or any other third party.  The 
#Customer has full responsibility for all drilling, completion and production operation.  
#Halliburton makes no representations or warranties, either expressed or 
#implied, including, but not limited to, the implied warranties of merchantability or fitness 
#for a particular purpose, with respect to the services rendered.  In no event will 
#Halliburton be liable for failure to obtain any particular results or for 
#any damages, including, but not limited to, indirect, special or consequential damages, 
#resulting from the use of any information or interpretation provided by Halliburton.
#
~A           TIME           GTDEPTH  GTPQH  GTTQ  GTTN   GTET   GTTVD  
# ...
   00:29:47.840.18-May-2020 4886.01 3643.75 66.40 10.00 316.53 2563.39
   00:29:48.040.18-May-2020 4886.01 3643.76 66.40 10.00 316.73 2563.39
   00:29:48.240.18-May-2020 4886.01 3643.54 66.40 10.00 316.93 2563.39
   00:29:48.440.18-May-2020 4886.01 3643.54 66.40 10.00 317.13 2563.39
   00:29:48.640.18-May-2020 4886.01 3643.54 66.40 10.00 317.33 2563.39
   00:29:48.840.18-May-2020 4886.01 3643.58 66.40 10.00 317.53 2563.39
   00:29:49.040.18-May-2020 4886.01 3643.55 66.40 10.00 317.73 2563.39
   00:29:49.240.18-May-2020 4886.01 3643.57 66.40 10.00 317.93 2563.39
   00:29:49.440.18-May-2020 4886.01 3643.57 66.40 10.00 318.13 2563.39
   00:29:49.641.18-May-2020 4886.01 3643.57 66.40 10.00 318.33 2563.39
   00:29:49.841.18-May-2020 4886.01 3643.63 66.40 10.00 318.53 2563.39
   00:29:50.041.18-May-2020 4886.01 3643.51 66.40 10.00 318.73 2563.39
   00:29:50.241.18-May-2020 4886.01 3643.67 66.40 10.00 318.93 2563.39
   00:29:50.441.18-May-2020 4886.01 3643.56 66.40 10.00 319.13 2563.39
   00:29:50.641.18-May-2020 4886.01 3643.64 66.40 10.00 319.33 2563.39
   00:29:50.841.18-May-2020 4886.01 3643.50 66.40 10.00 319.53 2563.39
   00:29:51.041.18-May-2020 4886.01 3643.62 66.40 10.00 319.73 2563.39
   00:29:51.241.18-May-2020 4886.01 3643.55 66.40 10.00 319.93 2563.39
   00:29:51.441.18-May-2020 4886.01 3643.57 66.40 10.00 320.13 2563.39
   00:29:51.641.18-May-2020 4886.01 3643.57 66.40 10.00 320.33 2563.39
   00:29:51.841.18-May-2020 4886.01 3643.29 66.40 10.00 320.53 2563.39
   00:29:52.042.18-May-2020 4886.01 3643.84 66.40 10.00 320.73 2563.39
   00:29:52.242.18-May-2020 4886.01 3643.71 66.40 10.00 320.93 2563.39
   00:29:52.442.18-May-2020 4886.01 3643.67 66.40 10.00 321.13 2563.39
   00:29:52.642.18-May-2020 4886.01 3643.67 66.40 10.00 321.33 2563.39
   00:29:52.842.18-May-2020 4886.01 3643.81 66.40 10.00 321.53 2563.39
   00:29:53.042.18-May-2020 4886.01 3643.64 66.40 10.00 321.73 2563.39
   00:29:53.242.18-May-2020 4886.01 3643.68 66.40 10.00 321.93 2563.39
   00:29:53.442.18-May-2020 4886.01 3643.23 66.40 10.00 322.13 2563.39
   00:29:53.642.18-May-2020 4886.01 3643.23 66.40 10.00 322.33 2563.39
   00:29:53.842.18-May-2020 4886.01 3643.59 66.40 10.00 322.53 2563.39
   00:29:54.042.18-May-2020 4886.01 3643.60 66.40 10.00 322.73 2563.39
   00:29:54.242.18-May-2020 4886.01 3643.55 66.40 10.00 322.93 2563.39
   00:29:54.442.18-May-2020 4886.01 3643.52 66.40 10.00 323.13 2563.39
   00:29:54.643.18-May-2020 4886.01 3643.52 66.40 10.00 323.33 2563.39
   00:29:54.843.18-May-2020 4886.01 3643.77 66.40 10.00 323.53 2563.39
   00:29:55.043.18-May-2020 4886.01 3643.54 66.40 10.00 323.73 2563.39
   00:29:55.243.18-May-2020 4886.01 3643.65 66.40 10.00 323.93 2563.39
   00:29:55.443.18-May-2020 4886.01 3643.50 66.40 10.00 324.13 2563.39
   00:29:55.643.18-May-2020 4886.01 3643.50 66.40 10.00 324.33 2563.39
   00:29:55.843.18-May-2020 4886.01 3643.57 66.40 10.00 324.53 2563.39
   00:29:56.043.18-May-2020 4886.01 3643.57 66.40 10.00 324.73 2563.39
   00:29:56.243.18-May-2020 4886.01 3643.58 66.40 10.00 324.93 2563.39
   00:29:56.443.18-May-2020 4886.01 3643.55 66.40 10.00 325.13 2563.39
   00:29:56.643.18-May-2020 4886.01 3643.85 66.40 10.00 325.33 2563.39
   00:29:56.843.18-May-2020 4886.01 3643.34 66.40 10.00 325.53 2563.39
   00:29:57.044.18-May-2020 4886.01 3643.73 66.40 10.00 325.73 2563.39
   00:29:57.244.18-May-2020 4886.01 3643.58 66.40 10.00 325.93 2563.39
   00:29:57.444.18-May-2020 4886.01 3643.59 66.40 10.00 326.13 2563.39
   00:29:57.644.18-May-2020 4886.01 3643.59 66.40 10.00 326.33 2563.39
   00:29:57.844.18-May-2020 4886.01 3643.62 66.40 10.00 326.53 2563.39
   00:29:58.044.18-May-2020 4886.01 3643.56 66.40 10.00 326.73 2563.39
   00:29:58.244.18-May-2020 4886.01 3643.59 66.40 10.00 326.93 2563.39
   00:29:58.444.18-May-2020 4886.01 3643.56 66.40 10.00 327.13 2563.39
   00:29:58.644.18-May-2020 4886.01 3643.38 66.40 10.00 327.33 2563.39
   00:29:58.844.18-May-2020 4886.01 3643.85 66.40 10.00 327.53 2563.39
   00:29:59.044.18-May-2020 4886.01 3643.71 66.40 10.00 327.73 2563.39
   00:29:59.244.18-May-2020 4886.01 3643.56 66.40 10.00 327.93 2563.39
   00:29:59.444.18-May-2020 4886.01 3643.30 66.40 10.00 328.13 2563.39
   00:29:59.645.18-May-2020 4886.01 3643.88 66.40 10.00 328.33 2563.39
   00:29:59.845.18-May-2020 4886.01 3643.73 66.40 10.00 328.53 2563.39
   00:30:00.045.18-May-2020 4886.01 3643.53 66.40 10.00 328.73 2563.39
   00:30:00.245.18-May-2020 4886.01 3643.45 66.40 10.00 328.93 2563.39
   00:30:00.445.18-May-2020 4886.01 3643.67 66.40 10.00 329.13 2563.39
   00:30:00.645.18-May-2020 4886.01 3643.67 66.40 10.00 329.33 2563.39
   00:30:00.845.18-May-2020 4886.01 3643.59 66.40 10.00 329.53 2563.39
   00:30:01.045.18-May-2020 4886.01 3643.65 66.40 10.00 329.73 2563.39
   00:30:01.245.18-May-2020 4886.01 3643.77 66.40 10.00 329.93 2563.39
   00:30:01.445.18-May-2020 4886.01 3643.34 66.40 10.00 330.13 2563.39
   00:30:01.645.18-May-2020 4886.01 3643.34 66.40 10.00 330.33 2563.39
   00:30:01.845.18-May-2020 4886.01 3643.58 66.40 10.00 330.53 2563.39
   00:30:02.046.18-May-2020 4886.01 3643.63 66.40 10.00 330.73 2563.39
   00:30:02.246.18-May-2020 4886.01 3643.48 66.40 10.00 330.93 2563.39
   00:30:02.446.18-May-2020 4886.01 3643.64 66.40 10.00 331.13 2563.39
   00:30:02.646.18-May-2020 4886.01 3643.64 66.40 10.00 331.33 2563.39
   00:30:02.846.18-May-2020 4886.01 3643.59 66.40 10.00 331.53 2563.39
   00:30:03.046.18-May-2020 4886.01 3643.54 66.40 10.00 331.73 2563.39
   00:30:03.246.18-May-2020 4886.01 3643.29 66.40 10.00 331.93 2563.39
   00:30:03.446.18-May-2020 4886.01 3643.84 66.40 10.00 332.13 2563.39
   00:30:03.646.18-May-2020 4886.01 3643.84 66.40 10.00 332.33 2563.39
   00:30:03.846.18-May-2020 4886.01 3643.67 66.40 10.00 332.53 2563.39
   00:30:04.046.18-May-2020 4886.01 3643.50 66.40 10.00 332.73 2563.39
   00:30:04.246.18-May-2020 4886.01 3643.61 66.40 10.00 332.93 2563.39
   00:30:04.447.18-May-2020 4886.01 3643.52 66.40 10.00 333.13 2563.39
   00:30:04.647.18-May-2020 4886.01 3643.52 66.40 10.00 333.33 2563.39
   00:30:04.847.18-May-2020 4886.01 3643.57 66.40 10.00 333.53 2563.39
   00:30:05.047.18-May-2020 4886.01 3643.59 66.40 10.00 333.73 2563.39
   00:30:05.247.18-May-2020 4886.01 3643.53 66.40 10.00 333.93 2563.39
   00:30:05.447.18-May-2020 4886.01 3643.60 66.40 10.00 334.13 2563.39
   00:30:05.647.18-May-2020 4886.01 3643.60 66.40 10.00 334.33 2563.39
   00:30:05.847.18-May-2020 4886.01 3643.69 66.40 10.00 334.53 2563.39
   00:30:06.047.18-May-2020 4886.01 3643.58 66.40 10.00 334.73 2563.39
   00:30:06.247.18-May-2020 4886.01 3643.52 66.40 10.00 334.94 2563.39
   00:30:06.447.18-May-2020 4886.01 3643.64 66.40 10.00 335.14 2563.39
   00:30:06.647.18-May-2020 4886.01 3643.74 66.40 10.00 335.34 2563.39
   00:30:06.847.18-May-2020 4886.01 3643.51 66.40 10.00 335.54 2563.39
   00:30:07.048.18-May-2020 4886.01 3643.88 66.40 10.00 335.74 2563.39
   00:30:07.248.18-May-2020 4886.01 3643.26 66.40 10.00 335.94 2563.39
   00:30:07.448.18-May-2020 4886.01 3643.74 66.40 10.00 336.14 2563.39
   00:30:07.648.18-May-2020 4886.01 3643.74 66.40 10.00 336.34 2563.39
   00:30:07.848.18-May-2020 4886.01 3643.53 66.40 10.00 336.54 2563.39
   00:30:08.048.18-May-2020 4886.01 3643.59 66.40 10.00 336.74 2563.39
   00:30:08.248.18-May-2020 4886.01 3643.63 66.40 10.00 336.94 2563.39
   00:30:08.448.18-May-2020 4886.01 3643.70 66.40 10.00 337.14 2563.39
   00:30:08.648.18-May-2020 4886.01 3643.70 66.40 10.00 337.34 2563.39
   00:30:08.848.18-May-2020 4886.01 3643.59 66.40 10.00 337.54 2563.39
   00:30:09.048.18-May-2020 4886.01 3643.50 66.40 10.00 337.74 2563.39
   00:30:09.248.18-May-2020 4886.01 3643.61 66.40 10.00 337.94 2563.39
   00:30:09.449.18-May-2020 4886.01 3643.54 66.40 10.00 338.14 2563.39
   00:30:09.649.18-May-2020 4886.01 3643.54 66.40 10.00 338.34 2563.39
   00:30:09.849.18-May-2020 4886.01 3643.53 66.40 10.00 338.54 2563.39
   00:30:10.049.18-May-2020 4886.01 3643.34 66.40 10.00 338.74 2563.39
   00:30:10.249.18-May-2020 4886.01 3643.86 66.40 10.00 338.94 2563.39
