~Version Information
 VERS.                  2.0:   CWLS log ASCII Standard -VERSION 2.0
 WRAP.                   NO:   One line per depth step
~Well Information Block
#MNEM.UNIT     VALUE/NAME     DESCRIPTION
#---------     -----------    ---------------------------
 STRT.S             16:14:41 17-May-20: START TIME 16:14:41 17-May-20
 STOP.S             16:21:36 17-May-20: STOP TIME  16:21:36 17-May-20
 STEP.S                   0.00: STEP TIME
 NULL.                 -999.25: NULL VALUE
 UNIT.                     N/A:  LOGGING EQUIPMENT ID
 DCON.         Sperry Drilling:  DIRECTNL CONTR
 DOE .                     N/A:  DOE NUMBER
 JOBN.        AZ-XX-0906252240:  JOB TICKET NUMB
 MWDS.                     N/A:  MWD SHOP
 PROV.                    Baku:  PROVINCE
 STAT.                    Baku:  STATE NAME
 REGN.                   EESSA:  REGION
 BASE.              Azerbaijan:  LOGGING EQUIPMENT BASE LOCATION
 UWI .                     N/A:  UNIQUE WELL IDENTIFIER
 API .                     N/A:  API NUMBER
 MDS .        Operator Entered:  MAG DATA SOURCE
 WTYP.                Deviated:  WELL TYPE
 COMP.     BP Exploration (Caspian Sea) Ltd.:  COMPANY
 SRVC.          Turan Drilling:  CONTRACTOR
 WELL.           J23 (Slot 07):  WELL NAME
 CTRY.              Azerbaijan:  COUNTRY NAME
 FLD .                     ACG:  FIELD NAME
 PDAT.          Mean Sea Level:  PERMANENT DATUM
 RIG .             West Chirag:  RIG NAME
 SON .        AZ-XX-0906252240:  JOB NUMBER
 FTOP.          Formation Tops:  FORM TOPS DESC
 ILTD.               Lithology:  INTERP LTH DESC
 SVYD.                  Survey:  SURVEY DESC
 DMOD.             Drill Model:  DRILL MOD DESC
 HPTY.       Minimum Curvature:  HOLE POS TYPE
 NREF.                    Grid:  NORTH REFERENCE
 SPUD.               27-Aug-20:  SPUD DATE
 DATE.      00.00.00 19-May-20:  END TIME
 STIM.      03.00.00 25-Mar-20:  START TIME
 DMF .             Drill Floor:  DRILL MEAS FROM
 DFST.                        :  DIST FSL TEXT
 DFWT.                        :  DIST FWL TEXT
 CNTY.                        :  COUNTY
 LOC .                        :  LOCATION
 LMF .             Drill Floor:  LOG MEASURED FROM
 VSNS.m                   9.43:  VERT SEC N/S
 VSEW.m                  -8.91:  VERT SEC E/W
 AGAP.m                  43.00:  AIR GAP
 DEP .m                 354.17:  DEPTH
 APD .m                  43.00:  DEPTH ABOVE PD
 WDMS.m                 169.80:  WD ELEV
 EGL .m                   0.00:  GROUND ELEVATION
 EPD .m                   0.00:  ELEVATION
 AZTC.deg                 6.31:  AZM TOTAL CORR
 GRDC.deg                 0.14:  GRID CORRECTION
 MDEC.deg                 6.45:  MAGNETIC DECL
 MDIP.deg                59.56:  MAGNETIC DIP
 MFLD.nT              50295.00:  MAGNETIC FIELD
 GVFD.g                   1.00:  GRAVITY FIELD
 VSDR.deg               179.88:  VERT SEC DIRECT
 TDD .m                5150.01:  TOTAL DEPTH (DRILLER)
 SDEP.m                 864.00:  START DEPTH
 DFSL.m                   0.00:  DISTANCE FSL
 DFWL.m                   0.00:  DISTANCE FWL
 UTMY.m             4443793.85:  UTM Y
 UTMX.m              519005.06:  UTM X
 WHEW.m                  -8.91:  WELL HEAD E/W
 WHNS.m                   9.43:  WELL HEAD N/S
 LONG.deg                51.22:  LONGITUDE
 LATI.deg                40.13:  LATITUDE
 TVDS.m                  43.00:  TVDSS CORRECTN
 EKB .m                   0.00:  KB ELEVATION
 EDF .m                  43.00:  DF ELEVATION
 TDL .m                 363.00:  TOTAL DEPTH (LOGGER)
 MAGU.                 1850802:  MAGUTM CHECKSUM
 VSC .                       0:  VS TO CLOSURE
~Parameter Information Block
#MNEM.UNIT       Value        Description
#---------     -----------    ---------------------------
 AV  .mps                 2.30:  Ann Velocity 
 AVMX.mps                 4.40:  Max Ann Veloc 
 AZIF.deg               110.24:  Azm, Final 
 BHAT.        Rotary Steerable:  BHA Type 
 BREV.rev               331.00:  Rev Bit Total 
 BROT.°/30m               0.00:  Build Rotating 
 BS  .in                  8.50:  Bit Size 
 BSZ .in                  8.50:  Bit Size 
 BTPL.psig              585.00:  Bit Press Loss 
 CABU.                     Yes:  Customer Abuse 
 COMM.                     ¿m:  Run Comments 1 
 TCS .hr                122.75:  Time Ciculation Ended 
 CV  .mps                 2.67:  Crit Velocity 
 CVMX.mps                 3.56:  Max Crit Veloc 
 DD1 .          Rashad Habibov:  Direct Drillr 1 
 DD2 .         Rasim Ibrahimov:  Direct Drillr 2 
 DDSV.               Geo-Pilot:  DD Service 
 DEFF.%                  98.00:  % Det Eff 
 DLRX.°/30m               0.75:  Dogleg Rot Max 
 DLSO.°/30m               1.25:  Dogleg Oriented 
 DLSX.°/30m               2.06:  Dogleg Str Max 
 DRET.      07.45.00 17-May-20:  Drill End Time 
 DRST.      22.50.00 15-May-20:  Drill Start Tim 
 DTIM.hr                 20.75:  Time Drilling 
 EDEP.m                5124.01:  End Depth 
 ENG1.           Eldar Hajiyev:  Engineer 1 
 ENG2.        Marcelo Sandoval:  Engineer 2 
 ENG3.        Davud huseynzada:  Engineer 3 
 ENG4.          Ruslan Safarov:  Engineer 4 
 ETIM.      04.33.00 23-May-20:  End Time 
 FLOI.gpm               450.00:  Flow In 
 FLON.gpm               400.00:  Flow In Min 
 FLOS.cptm                0.00:  Fluid Loss 
 FLOX.gpm               500.00:  Flow In Max 
 FTRO.       Formation Presure:  FTWD Run Obj 
 HFLO.                      No:  High Flow 
 HPRE.                     Yes:  High Pressure 
 HTEM.                      No:  High Temp 
 HYDO.m                   1.80:  Hydro Offset 
 IFIN.deg                75.06:  Inc, Final 
 IMAX.deg                75.38:  Inc Max 
 IMIN.deg                74.69:  Inc Min 
 IMND.m                5027.38:  Inc Min Depth 
 IMXD.m                4771.61:  Inc Max Depth 
 JARR.                      No:  Jarring 
 LETM.      07.45.00 17-May-20:  Log End Time 
 LOST.hr                     0:  Lost Rig Time 
 LSTM.      22.50.00 15-May-20:  Log Start Time 
 MDCL.ppm             42000.00:  Mud Chlorides 
 MDES.     Inversion Oil/Synthetic:  Mud Desc 
 DFD .sg                  1.34:  Mud Density 
 MDMN.sg                  1.34:  Dens Mud Min 
 MDMX.sg                  1.34:  Dens Mud Max 
 MOIL.                       0:  Run Mud Oil % 
 MOWR.                   67:33:  Run Mud OWR 
 MSND.                       0:  Run Mud Sand % 
 MSOL.                     1.8:  Run Mud Solids% 
 DFV .spqt               76.00:  Mud Viscosity 
 MWOD.in                  6.75:  MWD Tool OD 
 MWSI.                      No:  Serv Intrp, MWD 
 OTIM.hr                228.19:  Time Operating 
 PCON.           Look Like New:  Pad Condition 
 PMAX.psia             6164.70:  Press Op, Max 
 PV  .cP                 28.00:  Mud PV 
 RUN .                     900:  Run Number 
 ROPA.m/hr               19.00:  ROP Avg 
 ROPN.m/hr               11.00:  ROP Min 
 ROPX.m/hr               36.00:  ROP Max 
 RPMA.rpm               120.00:  RPM Surface Avg 
 RPMN.rpm               120.00:  RPM Surface Min 
 RPMX.rpm               120.00:  RPM Surface Max 
 RRUN.                    L604:  Rig Run Number 
 RTIM.hr                  7.00:  Time Reaming 
 SAZI.deg               109.27:  Azm, Start 
 SDEP.m                4761.01:  Start Depth 
 SIDD.                      No:  Serv Intrp, DD 
 SINC.deg                75.38:  Inc, Start 
 SPPA.psig             3574.00:  SPP Avg 
 SPPN.psig             3475.00:  SPP Min 
 SPPX.psig             3791.00:  SPP Max 
 STIM.      07.08.48 13-May-20:  Start Time 
 SVCS.                 DD, MWD:  Services 
 SVER.                    9.20:  Sperry Version 
 TDAT.m                 363.00:  Tot Depth Attmp 
 TDDF.                      No:  Trip for DD 
 TDLG.m                 363.00:  Tot Depth Loggd 
 TFF .                      No:  Trip for Fail 
 TQAA.f-kp               20.00:  Torque Abs Avg 
 TQAN.f-kp               18.00:  Torque Abs Min 
 TQAX.f-kp               22.00:  Torque Abs Max 
 TRRT.°/30m              -0.35:  Turn Rotating 
 MRT .                    HCIM:  Maximum Recorded Temperature 
 TTMX.degC               92.16:  Max Tool Temp 
 VS01.                90586518:  Virtual Str1 SN 
 VS02.        AZ90560654Z1W1C6:  Virtual Str2 SN 
 VS03.           AZ90610398F11:  Virtual Str3 SN 
 VS04.                90514975:  Virtual Str4 SN 
 VS05.                90514972:  Virtual Str5 SN 
 VS06.     AZ90603282F11V7D1A6:  Virtual Str6 SN 
 WBMN.klb                 7.00:  WOB Min 
 WOBA.klb                12.00:  WOB Avg 
 WOBX.klb                14.00:  WOB Max 
 YP  .lhf2               32.00:  Yield Point 
~Curve Information Block
#MNEM.UNIT                 API CODE     Curve Description
#---------               -----------    ---------------------------
 TIME.HHMMSS            00 000 000 000:  GT Time & Date
 GTDEPTH.m              00 000 000 000:  GT Depth
 GTPQH.psia             00 000 000 000:  GT HR Quartz Pressure
 GTTQ.degC              00 000 000 000:  GT Quartz Temperature
 GTTN.NONE              00 000 000 000:  GT Test Number
 GTET.sec               00 000 000 000:  GT Elapsed Test Time
 GTTVD.m                00 000 000 000:  GT True Vertical Depth
#Other Information
#
#WARRANTY: Halliburton will use its best efforts to furnish customers with 
#accurate information and interpretations that are part of, and incident to, the services 
#provided.  However, Halliburton cannot and does not warrant the accuracy 
#or correctness of such information and interpretations.  Under no circumstances should any 
#such information or interpretation be relied upon as the sole basis for any drilling, 
#completion, production, or financial decision or any procedure involving any risk to the 
#safety of any drilling venture, drilling rig or its crew or any other third party.  The 
#Customer has full responsibility for all drilling, completion and production operation.  
#Halliburton makes no representations or warranties, either expressed or 
#implied, including, but not limited to, the implied warranties of merchantability or fitness 
#for a particular purpose, with respect to the services rendered.  In no event will 
#Halliburton be liable for failure to obtain any particular results or for 
#any damages, including, but not limited to, indirect, special or consequential damages, 
#resulting from the use of any information or interpretation provided by Halliburton.
#
~A           TIME           GTDEPTH  GTPQH  GTTQ  GTTN  GTET   GTTVD  
# ...
   16:20:49.000.17-May-2020 5073.51 5632.20 71.27 2.00 368.00 2611.87
   16:20:49.200.17-May-2020 5073.51 5632.20 71.27 2.00 368.20 2611.87
   16:20:49.400.17-May-2020 5073.51 5615.68 71.27 2.00 368.40 2611.87
   16:20:49.600.17-May-2020 5073.51 5613.25 71.27 2.00 368.60 2611.87
   16:20:49.800.17-May-2020 5073.51 5619.77 71.27 2.00 368.80 2611.87
   16:20:50.000.17-May-2020 5073.51 5630.54 71.27 2.00 369.00 2611.87
   16:20:50.200.17-May-2020 5073.51 5630.54 71.27 2.00 369.20 2611.87
   16:20:50.400.17-May-2020 5073.51 5618.42 71.27 2.00 369.40 2611.87
   16:20:50.600.17-May-2020 5073.51 5613.95 71.27 2.00 369.60 2611.87
   16:20:50.800.17-May-2020 5073.51 5619.24 71.27 2.00 369.80 2611.87
   16:20:51.000.17-May-2020 5073.51 5635.43 71.27 2.00 370.00 2611.87
   16:20:51.200.17-May-2020 5073.51 5635.43 71.27 2.00 370.20 2611.87
   16:20:51.400.17-May-2020 5073.51 5614.74 71.27 2.00 370.40 2611.87
   16:20:51.600.17-May-2020 5073.51 5613.13 71.27 2.00 370.60 2611.87
   16:20:51.800.17-May-2020 5073.51 5632.97 71.28 2.00 370.80 2611.87
   16:20:52.000.17-May-2020 5073.51 5630.80 71.28 2.00 371.00 2611.87
   16:20:52.200.17-May-2020 5073.51 5619.05 71.28 2.00 371.20 2611.87
   16:20:52.400.17-May-2020 5073.51 5614.90 71.28 2.00 371.40 2611.87
   16:20:52.600.17-May-2020 5073.51 5618.33 71.28 2.00 371.60 2611.87
   16:20:52.800.17-May-2020 5073.51 5624.18 71.28 2.00 371.80 2611.87
   16:20:53.000.17-May-2020 5073.51 5618.56 71.28 2.00 372.00 2611.87
   16:20:53.200.17-May-2020 5073.51 5618.56 71.28 2.00 372.20 2611.87
   16:20:53.400.17-May-2020 5073.51 5615.81 71.28 2.00 372.40 2611.87
   16:20:53.600.17-May-2020 5073.51 5617.70 71.28 2.00 372.60 2611.87
   16:20:53.800.17-May-2020 5073.51 5618.62 71.28 2.00 372.80 2611.87
   16:20:54.000.17-May-2020 5073.51 5629.01 71.28 2.00 373.00 2611.87
   16:20:54.200.17-May-2020 5073.51 5629.01 71.28 2.00 373.20 2611.87
   16:20:54.400.17-May-2020 5073.51 5614.46 71.28 2.00 373.40 2611.87
   16:20:54.600.17-May-2020 5073.51 5613.69 71.28 2.00 373.60 2611.87
   16:20:54.800.17-May-2020 5073.51 5621.48 71.28 2.00 373.80 2611.87
   16:20:55.000.17-May-2020 5073.51 5617.71 71.28 2.00 374.00 2611.87
   16:20:55.200.17-May-2020 5073.51 5617.71 71.28 2.00 374.20 2611.87
   16:20:55.400.17-May-2020 5073.51 5615.30 71.28 2.00 374.40 2611.87
   16:20:55.600.17-May-2020 5073.51 5616.24 71.28 2.00 374.60 2611.87
   16:20:55.800.17-May-2020 5073.51 5616.68 71.28 2.00 374.80 2611.87
   16:20:56.000.17-May-2020 5073.51 5615.07 71.28 2.00 375.00 2611.87
   16:20:56.200.17-May-2020 5073.51 5631.21 71.28 2.00 375.20 2611.87
   16:20:56.400.17-May-2020 5073.51 5624.70 71.28 2.00 375.40 2611.87
   16:20:56.600.17-May-2020 5073.51 5616.36 71.28 2.00 375.60 2611.87
   16:20:56.800.17-May-2020 5073.51 5612.47 71.28 2.00 375.80 2611.87
   16:20:57.000.17-May-2020 5073.51 5621.81 71.28 2.00 376.00 2611.87
   16:20:57.200.17-May-2020 5073.51 5621.81 71.28 2.00 376.20 2611.87
   16:20:57.400.17-May-2020 5073.51 5623.92 71.28 2.00 376.40 2611.87
   16:20:57.600.17-May-2020 5073.51 5613.98 71.27 2.00 376.60 2611.87
   16:20:57.800.17-May-2020 5073.51 5613.33 71.27 2.00 376.80 2611.87
   16:20:58.000.17-May-2020 5073.51 5625.05 71.27 2.00 377.00 2611.87
   16:20:58.200.17-May-2020 5073.51 5625.05 71.27 2.00 377.20 2611.87
   16:20:58.400.17-May-2020 5073.51 5624.49 71.27 2.00 377.40 2611.87
   16:20:58.600.17-May-2020 5073.51 5615.06 71.27 2.00 377.60 2611.87
   16:20:58.800.17-May-2020 5073.51 5615.86 71.27 2.00 377.80 2611.87
   16:20:59.000.17-May-2020 5073.51 5639.35 71.27 2.00 378.00 2611.87
   16:20:59.200.17-May-2020 5073.51 5639.35 71.27 2.00 378.20 2611.87
   16:20:59.400.17-May-2020 5073.51 5616.63 71.27 2.00 378.40 2611.87
   16:20:59.600.17-May-2020 5073.51 5612.91 71.27 2.00 378.60 2611.87
   16:20:59.800.17-May-2020 5073.51 5619.81 71.27 2.00 378.80 2611.87
   16:21:00.000.17-May-2020 5073.51 5621.23 71.27 2.00 379.00 2611.87
   16:21:00.200.17-May-2020 5073.51 5616.97 71.27 2.00 379.20 2611.87
   16:21:00.400.17-May-2020 5073.51 5616.43 71.27 2.00 379.40 2611.87
   16:21:00.600.17-May-2020 5073.51 5615.56 71.27 2.00 379.60 2611.87
   16:21:00.800.17-May-2020 5073.51 5617.43 71.27 2.00 379.80 2611.87
   16:21:01.000.17-May-2020 5073.51 5625.85 71.27 2.00 380.00 2611.87
   16:21:01.200.17-May-2020 5073.51 5625.85 71.27 2.00 380.20 2611.87
   16:21:01.400.17-May-2020 5073.51 5615.72 71.27 2.00 380.40 2611.87
   16:21:01.600.17-May-2020 5073.51 5612.74 71.27 2.00 380.60 2611.87
   16:21:01.800.17-May-2020 5073.51 5616.37 71.27 2.00 380.80 2611.87
   16:21:02.000.17-May-2020 5073.51 5619.70 71.27 2.00 381.00 2611.87
   16:21:02.200.17-May-2020 5073.51 5619.70 71.27 2.00 381.20 2611.87
   16:21:02.400.17-May-2020 5073.51 5614.92 71.27 2.00 381.40 2611.87
   16:21:02.600.17-May-2020 5073.51 5614.35 71.27 2.00 381.60 2611.87
   16:21:02.800.17-May-2020 5073.51 5616.02 71.27 2.00 381.80 2611.87
   16:21:03.000.17-May-2020 5073.51 5614.88 71.27 2.00 382.00 2611.87
   16:21:03.200.17-May-2020 5073.51 5614.88 71.27 2.00 382.20 2611.87
   16:21:03.400.17-May-2020 5073.51 5628.65 71.26 2.00 382.40 2611.87
   16:21:03.600.17-May-2020 5073.51 5621.48 71.26 2.00 382.60 2611.87
   16:21:03.800.17-May-2020 5073.51 5614.37 71.26 2.00 382.80 2611.87
   16:21:04.000.17-May-2020 5073.51 5613.76 71.26 2.00 383.00 2611.87
   16:21:04.200.17-May-2020 5073.51 5613.76 71.26 2.00 383.20 2611.87
   16:21:04.400.17-May-2020 5073.51 5627.47 71.26 2.00 383.40 2611.87
   16:21:04.600.17-May-2020 5073.51 5616.65 71.26 2.00 383.60 2611.87
   16:21:04.800.17-May-2020 5073.51 5612.80 71.26 2.00 383.80 2611.87
   16:21:05.000.17-May-2020 5073.51 5616.54 71.26 2.00 384.00 2611.87
   16:21:05.200.17-May-2020 5073.51 5616.54 71.26 2.00 384.20 2611.87
   16:21:05.400.17-May-2020 5073.51 5622.23 71.26 2.00 384.40 2611.87
   16:21:05.600.17-May-2020 5073.51 5616.96 71.26 2.00 384.60 2611.87
   16:21:05.800.17-May-2020 5073.51 5613.33 71.26 2.00 384.80 2611.87
   16:21:06.000.17-May-2020 5073.51 5629.41 71.26 2.00 385.00 2611.87
   16:21:06.200.17-May-2020 5073.51 5629.41 71.26 2.00 385.20 2611.87
   16:21:06.400.17-May-2020 5073.51 5617.82 71.26 2.00 385.40 2611.87
   16:21:06.600.17-May-2020 5073.51 5614.26 71.26 2.00 385.60 2611.87
   16:21:06.800.17-May-2020 5073.51 5616.11 71.26 2.00 385.80 2611.87
   16:21:07.000.17-May-2020 5073.51 5622.39 71.26 2.00 386.00 2611.87
   16:21:07.200.17-May-2020 5073.51 5622.39 71.26 2.00 386.20 2611.87
   16:21:07.400.17-May-2020 5073.51 5615.30 71.26 2.00 386.40 2611.87
   16:21:07.600.17-May-2020 5073.51 5614.88 71.26 2.00 386.60 2611.87
   16:21:07.800.17-May-2020 5073.51 5616.65 71.26 2.00 386.80 2611.87
   16:21:08.000.17-May-2020 5073.51 5619.51 71.26 2.00 387.00 2611.87
   16:21:08.200.17-May-2020 5073.51 5626.97 71.26 2.00 387.20 2611.87
   16:21:08.400.17-May-2020 5073.51 5620.79 71.25 2.00 387.40 2611.87
   16:21:08.600.17-May-2020 5073.51 5613.20 71.25 2.00 387.60 2611.87
   16:21:08.800.17-May-2020 5073.51 5613.62 71.25 2.00 387.80 2611.87
   16:21:09.000.17-May-2020 5073.51 5621.25 71.25 2.00 388.00 2611.87
   16:21:09.200.17-May-2020 5073.51 5621.25 71.25 2.00 388.20 2611.87
   16:21:09.400.17-May-2020 5073.51 5615.62 71.25 2.00 388.40 2611.87
   16:21:09.600.17-May-2020 5073.51 5614.32 71.25 2.00 388.60 2611.87
   16:21:09.800.17-May-2020 5073.51 5615.82 71.25 2.00 388.80 2611.87
   16:21:10.000.17-May-2020 5073.51 5616.22 71.25 2.00 389.00 2611.87
   16:21:10.200.17-May-2020 5073.51 5616.22 71.25 2.00 389.20 2611.87
   16:21:10.400.17-May-2020 5073.51 5629.31 71.25 2.00 389.40 2611.87
   16:21:10.600.17-May-2020 5073.51 5624.36 71.25 2.00 389.60 2611.87
   16:21:10.800.17-May-2020 5073.51 5615.48 71.25 2.00 389.80 2611.87
   16:21:11.000.17-May-2020 5073.51 5612.38 71.25 2.00 390.00 2611.87
   16:21:11.200.17-May-2020 5073.51 5612.38 71.25 2.00 390.20 2611.87
   16:21:11.400.17-May-2020 5073.51 5632.01 71.25 2.00 390.40 2611.87
   16:21:11.600.17-May-2020 5073.51 5623.28 71.25 2.00 390.60 2611.87
   16:21:11.800.17-May-2020 5073.51 5613.63 71.25 2.00 390.80 2611.87
