~Version Information
 VERS.                  2.0:   CWLS log ASCII Standard -VERSION 2.0
 WRAP.                   NO:   One line per depth step
~Well Information Block
#MNEM.UNIT     VALUE/NAME     DESCRIPTION
#---------     -----------    ---------------------------
 STRT.S             12:13:26 20-May-20: START TIME 12:13:26 20-May-20
 STOP.S             12:20:31 20-May-20: STOP TIME  12:20:31 20-May-20
 STEP.S                   0.00: STEP TIME
 NULL.                 -999.25: NULL VALUE
 UNIT.                     N/A:  LOGGING EQUIPMENT ID
 DCON.         Sperry Drilling:  DIRECTNL CONTR
 DOE .                     N/A:  DOE NUMBER
 JOBN.        AZ-XX-0906252240:  JOB TICKET NUMB
 MWDS.                     N/A:  MWD SHOP
 PROV.                    Baku:  PROVINCE
 STAT.                    Baku:  STATE NAME
 REGN.                   EESSA:  REGION
 BASE.              Azerbaijan:  LOGGING EQUIPMENT BASE LOCATION
 UWI .                     N/A:  UNIQUE WELL IDENTIFIER
 API .                     N/A:  API NUMBER
 MDS .        Operator Entered:  MAG DATA SOURCE
 WTYP.                Deviated:  WELL TYPE
 COMP.     BP Exploration (Caspian Sea) Ltd.:  COMPANY
 SRVC.          Turan Drilling:  CONTRACTOR
 WELL.           J23 (Slot 07):  WELL NAME
 CTRY.              Azerbaijan:  COUNTRY NAME
 FLD .                     ACG:  FIELD NAME
 PDAT.          Mean Sea Level:  PERMANENT DATUM
 RIG .             West Chirag:  RIG NAME
 SON .        AZ-XX-0906252240:  JOB NUMBER
 FTOP.          Formation Tops:  FORM TOPS DESC
 ILTD.               Lithology:  INTERP LTH DESC
 SVYD.                  Survey:  SURVEY DESC
 DMOD.             Drill Model:  DRILL MOD DESC
 HPTY.       Minimum Curvature:  HOLE POS TYPE
 NREF.                    Grid:  NORTH REFERENCE
 SPUD.               27-Aug-20:  SPUD DATE
 DATE.      00.00.00 19-May-20:  END TIME
 STIM.      03.00.00 25-Mar-20:  START TIME
 DMF .             Drill Floor:  DRILL MEAS FROM
 DFST.                        :  DIST FSL TEXT
 DFWT.                        :  DIST FWL TEXT
 CNTY.                        :  COUNTY
 LOC .                        :  LOCATION
 LMF .             Drill Floor:  LOG MEASURED FROM
 VSNS.m                   9.43:  VERT SEC N/S
 VSEW.m                  -8.91:  VERT SEC E/W
 AGAP.m                  43.00:  AIR GAP
 DEP .m                 354.17:  DEPTH
 APD .m                  43.00:  DEPTH ABOVE PD
 WDMS.m                 169.80:  WD ELEV
 EGL .m                   0.00:  GROUND ELEVATION
 EPD .m                   0.00:  ELEVATION
 AZTC.deg                 6.31:  AZM TOTAL CORR
 GRDC.deg                 0.14:  GRID CORRECTION
 MDEC.deg                 6.45:  MAGNETIC DECL
 MDIP.deg                59.56:  MAGNETIC DIP
 MFLD.nT              50295.00:  MAGNETIC FIELD
 GVFD.g                   1.00:  GRAVITY FIELD
 VSDR.deg               179.88:  VERT SEC DIRECT
 TDD .m                5150.01:  TOTAL DEPTH (DRILLER)
 SDEP.m                 864.00:  START DEPTH
 DFSL.m                   0.00:  DISTANCE FSL
 DFWL.m                   0.00:  DISTANCE FWL
 UTMY.m             4443793.85:  UTM Y
 UTMX.m              519005.06:  UTM X
 WHEW.m                  -8.91:  WELL HEAD E/W
 WHNS.m                   9.43:  WELL HEAD N/S
 LONG.deg                51.22:  LONGITUDE
 LATI.deg                40.13:  LATITUDE
 TVDS.m                  43.00:  TVDSS CORRECTN
 EKB .m                   0.00:  KB ELEVATION
 EDF .m                  43.00:  DF ELEVATION
 TDL .m                 363.00:  TOTAL DEPTH (LOGGER)
 MAGU.                 1850802:  MAGUTM CHECKSUM
 VSC .                       0:  VS TO CLOSURE
~Parameter Information Block
#MNEM.UNIT       Value        Description
#---------     -----------    ---------------------------
 AV  .mps                 2.30:  Ann Velocity 
 AVMX.mps                 4.40:  Max Ann Veloc 
 AZIF.deg               110.24:  Azm, Final 
 BHAT.        Rotary Steerable:  BHA Type 
 BREV.rev               331.00:  Rev Bit Total 
 BROT.°/30m               0.00:  Build Rotating 
 BS  .in                  8.50:  Bit Size 
 BSZ .in                  8.50:  Bit Size 
 BTPL.psig              585.00:  Bit Press Loss 
 CABU.                     Yes:  Customer Abuse 
 COMM.                     моЊ:  Run Comments 1 
 TCS .hr                122.75:  Time Ciculation Ended 
 CV  .mps                 2.67:  Crit Velocity 
 CVMX.mps                 3.56:  Max Crit Veloc 
 DD1 .          Rashad Habibov:  Direct Drillr 1 
 DD2 .         Rasim Ibrahimov:  Direct Drillr 2 
 DDSV.               Geo-Pilot:  DD Service 
 DEFF.%                  98.00:  % Det Eff 
 DLRX.°/30m               0.75:  Dogleg Rot Max 
 DLSO.°/30m               1.25:  Dogleg Oriented 
 DLSX.°/30m               2.06:  Dogleg Str Max 
 DRET.      07.45.00 17-May-20:  Drill End Time 
 DRST.      22.50.00 15-May-20:  Drill Start Tim 
 DTIM.hr                 20.75:  Time Drilling 
 EDEP.m                5124.01:  End Depth 
 ENG1.           Eldar Hajiyev:  Engineer 1 
 ENG2.        Marcelo Sandoval:  Engineer 2 
 ENG3.        Davud huseynzada:  Engineer 3 
 ENG4.          Ruslan Safarov:  Engineer 4 
 ETIM.      04.33.00 23-May-20:  End Time 
 FLOI.gpm               450.00:  Flow In 
 FLON.gpm               400.00:  Flow In Min 
 FLOS.cptm                0.00:  Fluid Loss 
 FLOX.gpm               500.00:  Flow In Max 
 FTRO.       Formation Presure:  FTWD Run Obj 
 HFLO.                      No:  High Flow 
 HPRE.                     Yes:  High Pressure 
 HTEM.                      No:  High Temp 
 HYDO.m                   1.80:  Hydro Offset 
 IFIN.deg                75.06:  Inc, Final 
 IMAX.deg                75.38:  Inc Max 
 IMIN.deg                74.69:  Inc Min 
 IMND.m                5027.38:  Inc Min Depth 
 IMXD.m                4771.61:  Inc Max Depth 
 JARR.                      No:  Jarring 
 LETM.      07.45.00 17-May-20:  Log End Time 
 LOST.hr                     0:  Lost Rig Time 
 LSTM.      22.50.00 15-May-20:  Log Start Time 
 MDCL.ppm             42000.00:  Mud Chlorides 
 MDES.     Inversion Oil/Synthetic:  Mud Desc 
 DFD .sg                  1.34:  Mud Density 
 MDMN.sg                  1.34:  Dens Mud Min 
 MDMX.sg                  1.34:  Dens Mud Max 
 MOIL.                       0:  Run Mud Oil % 
 MOWR.                   67:33:  Run Mud OWR 
 MSND.                       0:  Run Mud Sand % 
 MSOL.                     1.8:  Run Mud Solids% 
 DFV .spqt               76.00:  Mud Viscosity 
 MWOD.in                  6.75:  MWD Tool OD 
 MWSI.                      No:  Serv Intrp, MWD 
 OTIM.hr                228.19:  Time Operating 
 PCON.           Look Like New:  Pad Condition 
 PMAX.psia             6164.70:  Press Op, Max 
 PV  .cP                 28.00:  Mud PV 
 RUN .                     900:  Run Number 
 ROPA.m/hr               19.00:  ROP Avg 
 ROPN.m/hr               11.00:  ROP Min 
 ROPX.m/hr               36.00:  ROP Max 
 RPMA.rpm               120.00:  RPM Surface Avg 
 RPMN.rpm               120.00:  RPM Surface Min 
 RPMX.rpm               120.00:  RPM Surface Max 
 RRUN.                    L604:  Rig Run Number 
 RTIM.hr                  7.00:  Time Reaming 
 SAZI.deg               109.27:  Azm, Start 
 SDEP.m                4761.01:  Start Depth 
 SIDD.                      No:  Serv Intrp, DD 
 SINC.deg                75.38:  Inc, Start 
 SPPA.psig             3574.00:  SPP Avg 
 SPPN.psig             3475.00:  SPP Min 
 SPPX.psig             3791.00:  SPP Max 
 STIM.      07.08.48 13-May-20:  Start Time 
 SVCS.                 DD, MWD:  Services 
 SVER.                    9.20:  Sperry Version 
 TDAT.m                 363.00:  Tot Depth Attmp 
 TDDF.                      No:  Trip for DD 
 TDLG.m                 363.00:  Tot Depth Loggd 
 TFF .                      No:  Trip for Fail 
 TQAA.f-kp               20.00:  Torque Abs Avg 
 TQAN.f-kp               18.00:  Torque Abs Min 
 TQAX.f-kp               22.00:  Torque Abs Max 
 TRRT.°/30m              -0.35:  Turn Rotating 
 MRT .                    HCIM:  Maximum Recorded Temperature 
 TTMX.degC               92.16:  Max Tool Temp 
 VS01.                90586518:  Virtual Str1 SN 
 VS02.        AZ90560654Z1W1C6:  Virtual Str2 SN 
 VS03.           AZ90610398F11:  Virtual Str3 SN 
 VS04.                90514975:  Virtual Str4 SN 
 VS05.                90514972:  Virtual Str5 SN 
 VS06.     AZ90603282F11V7D1A6:  Virtual Str6 SN 
 WBMN.klb                 7.00:  WOB Min 
 WOBA.klb                12.00:  WOB Avg 
 WOBX.klb                14.00:  WOB Max 
 YP  .lhf2               32.00:  Yield Point 
~Curve Information Block
#MNEM.UNIT                 API CODE     Curve Description
#---------               -----------    ---------------------------
 TIME.HHMMSS            00 000 000 000:  GT Time & Date
 GTDEPTH.m              00 000 000 000:  GT Depth
 GTPQH.psia             00 000 000 000:  GT HR Quartz Pressure
 GTTQ.degC              00 000 000 000:  GT Quartz Temperature
 GTTN.NONE              00 000 000 000:  GT Test Number
 GTET.sec               00 000 000 000:  GT Elapsed Test Time
 GTTVD.m                00 000 000 000:  GT True Vertical Depth
#Other Information
#
#WARRANTY: Halliburton will use its best efforts to furnish customers with 
#accurate information and interpretations that are part of, and incident to, the services 
#provided.  However, Halliburton cannot and does not warrant the accuracy 
#or correctness of such information and interpretations.  Under no circumstances should any 
#such information or interpretation be relied upon as the sole basis for any drilling, 
#completion, production, or financial decision or any procedure involving any risk to the 
#safety of any drilling venture, drilling rig or its crew or any other third party.  The 
#Customer has full responsibility for all drilling, completion and production operation.  
#Halliburton makes no representations or warranties, either expressed or 
#implied, including, but not limited to, the implied warranties of merchantability or fitness 
#for a particular purpose, with respect to the services rendered.  In no event will 
#Halliburton be liable for failure to obtain any particular results or for 
#any damages, including, but not limited to, indirect, special or consequential damages, 
#resulting from the use of any information or interpretation provided by Halliburton.
#
~A           TIME           GTDEPTH  GTPQH  GTTQ  GTTN   GTET   GTTVD  
# ...
   12:15:42.344.20-May-2020 4766.51 5485.78 69.43 15.00 135.64 2532.42
   12:15:42.544.20-May-2020 4766.51 5486.19 69.43 15.00 135.84 2532.42
   12:15:42.744.20-May-2020 4766.51 5485.63 69.43 15.00 136.04 2532.42
   12:15:42.944.20-May-2020 4766.51 5485.63 69.43 15.00 136.24 2532.42
   12:15:43.144.20-May-2020 4766.51 5488.55 69.43 15.00 136.44 2532.42
   12:15:43.344.20-May-2020 4766.51 5487.48 69.43 15.00 136.64 2532.42
   12:15:43.544.20-May-2020 4766.51 5486.63 69.43 15.00 136.84 2532.42
   12:15:43.745.20-May-2020 4766.51 5496.30 69.43 15.00 137.04 2532.42
   12:15:43.945.20-May-2020 4766.51 5496.30 69.43 15.00 137.24 2532.42
   12:15:44.145.20-May-2020 4766.51 5487.94 69.43 15.00 137.44 2532.42
   12:15:44.345.20-May-2020 4766.51 5487.37 69.43 15.00 137.64 2532.42
   12:15:44.545.20-May-2020 4766.51 5487.29 69.43 15.00 137.84 2532.42
   12:15:44.745.20-May-2020 4766.51 5503.16 69.43 15.00 138.04 2532.42
   12:15:44.945.20-May-2020 4766.51 5503.16 69.43 15.00 138.24 2532.42
   12:15:45.145.20-May-2020 4766.51 5487.64 69.43 15.00 138.44 2532.42
   12:15:45.345.20-May-2020 4766.51 5487.49 69.43 15.00 138.64 2532.42
   12:15:45.545.20-May-2020 4766.51 5488.80 69.43 15.00 138.84 2532.42
   12:15:45.745.20-May-2020 4766.51 5489.23 69.43 15.00 139.04 2532.42
   12:15:45.945.20-May-2020 4766.51 5487.29 69.43 15.00 139.24 2532.42
   12:15:46.145.20-May-2020 4766.51 5486.78 69.42 15.00 139.44 2532.42
   12:15:46.345.20-May-2020 4766.51 5487.01 69.42 15.00 139.64 2532.42
   12:15:46.545.20-May-2020 4766.51 5486.45 69.42 15.00 139.84 2532.42
   12:15:46.746.20-May-2020 4766.51 5497.78 69.42 15.00 140.04 2532.42
   12:15:46.946.20-May-2020 4766.51 5497.78 69.42 15.00 140.24 2532.42
   12:15:47.146.20-May-2020 4766.51 5486.41 69.42 15.00 140.44 2532.42
   12:15:47.346.20-May-2020 4766.51 5486.24 69.42 15.00 140.64 2532.42
   12:15:47.546.20-May-2020 4766.51 5486.65 69.42 15.00 140.85 2532.42
   12:15:47.746.20-May-2020 4766.51 5488.96 69.42 15.00 141.05 2532.42
   12:15:47.946.20-May-2020 4766.51 5488.96 69.42 15.00 141.25 2532.42
   12:15:48.146.20-May-2020 4766.51 5486.57 69.42 15.00 141.45 2532.42
   12:15:48.346.20-May-2020 4766.51 5487.05 69.42 15.00 141.65 2532.42
   12:15:48.546.20-May-2020 4766.51 5486.69 69.42 15.00 141.85 2532.42
   12:15:48.746.20-May-2020 4766.51 5486.03 69.42 15.00 142.05 2532.42
   12:15:48.946.20-May-2020 4766.51 5486.03 69.42 15.00 142.25 2532.42
   12:15:49.146.20-May-2020 4766.51 5489.68 69.42 15.00 142.45 2532.42
   12:15:49.346.20-May-2020 4766.51 5486.40 69.42 15.00 142.65 2532.42
   12:15:49.546.20-May-2020 4766.51 5486.23 69.42 15.00 142.85 2532.42
   12:15:49.746.20-May-2020 4766.51 5493.39 69.42 15.00 143.05 2532.42
   12:15:49.947.20-May-2020 4766.51 5493.39 69.42 15.00 143.25 2532.42
   12:15:50.147.20-May-2020 4766.51 5488.08 69.42 15.00 143.45 2532.42
   12:15:50.347.20-May-2020 4766.51 5487.17 69.42 15.00 143.65 2532.42
   12:15:50.547.20-May-2020 4766.51 5486.97 69.42 15.00 143.85 2532.42
   12:15:50.747.20-May-2020 4766.51 5502.88 69.42 15.00 144.05 2532.42
   12:15:50.947.20-May-2020 4766.51 5502.88 69.42 15.00 144.25 2532.42
   12:15:51.147.20-May-2020 4766.51 5487.69 69.42 15.00 144.45 2532.42
   12:15:51.347.20-May-2020 4766.51 5487.52 69.42 15.00 144.65 2532.42
   12:15:51.547.20-May-2020 4766.51 5496.46 69.42 15.00 144.85 2532.42
   12:15:51.747.20-May-2020 4766.51 5494.56 69.41 15.00 145.05 2532.42
   12:15:51.947.20-May-2020 4766.51 5494.56 69.41 15.00 145.25 2532.42
   12:15:52.147.20-May-2020 4766.51 5487.90 69.41 15.00 145.45 2532.42
   12:15:52.347.20-May-2020 4766.51 5487.46 69.41 15.00 145.65 2532.42
   12:15:52.547.20-May-2020 4766.51 5490.39 69.41 15.00 145.85 2532.42
   12:15:52.747.20-May-2020 4766.51 5487.81 69.41 15.00 146.05 2532.42
   12:15:52.947.20-May-2020 4766.51 5486.87 69.41 15.00 146.25 2532.42
   12:15:53.148.20-May-2020 4766.51 5487.06 69.41 15.00 146.45 2532.42
   12:15:53.348.20-May-2020 4766.51 5486.79 69.41 15.00 146.65 2532.42
   12:15:53.548.20-May-2020 4766.51 5489.48 69.41 15.00 146.85 2532.42
   12:15:53.748.20-May-2020 4766.51 5494.71 69.41 15.00 147.05 2532.42
   12:15:53.948.20-May-2020 4766.51 5486.46 69.41 15.00 147.25 2532.42
   12:15:54.148.20-May-2020 4766.51 5486.62 69.41 15.00 147.45 2532.42
   12:15:54.348.20-May-2020 4766.51 5485.98 69.41 15.00 147.65 2532.42
   12:15:54.548.20-May-2020 4766.51 5488.47 69.41 15.00 147.85 2532.42
   12:15:54.748.20-May-2020 4766.51 5487.50 69.41 15.00 148.05 2532.42
   12:15:54.948.20-May-2020 4766.51 5487.50 69.41 15.00 148.25 2532.42
   12:15:55.148.20-May-2020 4766.51 5486.74 69.41 15.00 148.45 2532.42
   12:15:55.348.20-May-2020 4766.51 5486.74 69.41 15.00 148.65 2532.42
   12:15:55.548.20-May-2020 4766.51 5486.05 69.41 15.00 148.85 2532.42
   12:15:55.748.20-May-2020 4766.51 5485.69 69.41 15.00 149.05 2532.42
   12:15:55.948.20-May-2020 4766.51 5485.69 69.41 15.00 149.25 2532.42
   12:15:56.149.20-May-2020 4766.51 5485.80 69.41 15.00 149.45 2532.42
   12:15:56.349.20-May-2020 4766.51 5486.09 69.41 15.00 149.65 2532.42
   12:15:56.549.20-May-2020 4766.51 5485.65 69.41 15.00 149.85 2532.42
   12:15:56.749.20-May-2020 4766.51 5500.10 69.41 15.00 150.05 2532.42
   12:15:56.949.20-May-2020 4766.51 5500.10 69.41 15.00 150.25 2532.42
   12:15:57.149.20-May-2020 4766.51 5487.49 69.41 15.00 150.45 2532.42
   12:15:57.349.20-May-2020 4766.51 5486.53 69.41 15.00 150.65 2532.42
   12:15:57.549.20-May-2020 4766.51 5492.82 69.40 15.00 150.85 2532.42
   12:15:57.749.20-May-2020 4766.51 5497.14 69.40 15.00 151.05 2532.42
   12:15:57.949.20-May-2020 4766.51 5487.87 69.40 15.00 151.25 2532.42
   12:15:58.149.20-May-2020 4766.51 5487.60 69.40 15.00 151.45 2532.42
   12:15:58.349.20-May-2020 4766.51 5488.25 69.40 15.00 151.65 2532.42
   12:15:58.549.20-May-2020 4766.51 5501.61 69.40 15.00 151.85 2532.42
   12:15:58.749.20-May-2020 4766.51 5488.81 69.40 15.00 152.05 2532.42
   12:15:58.949.20-May-2020 4766.51 5488.81 69.40 15.00 152.25 2532.42
   12:15:59.149.20-May-2020 4766.51 5487.39 69.40 15.00 152.45 2532.42
   12:15:59.350.20-May-2020 4766.51 5489.31 69.40 15.00 152.65 2532.42
   12:15:59.550.20-May-2020 4766.51 5488.60 69.40 15.00 152.85 2532.42
   12:15:59.750.20-May-2020 4766.51 5483.25 69.40 15.00 153.05 2532.42
   12:15:59.950.20-May-2020 4766.51 5483.25 69.40 15.00 153.25 2532.42
   12:16:00.150.20-May-2020 4766.51 5481.48 69.40 15.00 153.45 2532.42
   12:16:00.350.20-May-2020 4766.51 5480.57 69.40 15.00 153.65 2532.42
   12:16:00.550.20-May-2020 4766.51 5493.43 69.40 15.00 153.85 2532.42
   12:16:00.750.20-May-2020 4766.51 5479.12 69.40 15.00 154.05 2532.42
   12:16:00.950.20-May-2020 4766.51 5479.12 69.40 15.00 154.25 2532.42
   12:16:01.150.20-May-2020 4766.51 5478.86 69.40 15.00 154.45 2532.42
   12:16:01.350.20-May-2020 4766.51 5479.51 69.40 15.00 154.65 2532.42
   12:16:01.550.20-May-2020 4766.51 5480.59 69.40 15.00 154.85 2532.42
   12:16:01.750.20-May-2020 4766.51 5478.87 69.40 15.00 155.05 2532.42
   12:16:01.950.20-May-2020 4766.51 5478.87 69.40 15.00 155.25 2532.42
   12:16:02.150.20-May-2020 4766.51 5480.77 69.40 15.00 155.45 2532.42
   12:16:02.350.20-May-2020 4766.51 5480.17 69.40 15.00 155.65 2532.42
   12:16:02.551.20-May-2020 4766.51 5479.38 69.40 15.00 155.85 2532.42
   12:16:02.751.20-May-2020 4766.51 5489.74 69.40 15.00 156.05 2532.42
   12:16:02.951.20-May-2020 4766.51 5489.74 69.40 15.00 156.25 2532.42
   12:16:03.151.20-May-2020 4766.51 5480.05 69.40 15.00 156.45 2532.42
   12:16:03.351.20-May-2020 4766.51 5480.04 69.39 15.00 156.65 2532.42
   12:16:03.551.20-May-2020 4766.51 5491.09 69.39 15.00 156.85 2532.42
   12:16:03.751.20-May-2020 4766.51 5485.88 69.39 15.00 157.05 2532.42
   12:16:03.951.20-May-2020 4766.51 5485.88 69.39 15.00 157.25 2532.42
   12:16:04.151.20-May-2020 4766.51 5480.83 69.39 15.00 157.45 2532.42
   12:16:04.351.20-May-2020 4766.51 5482.50 69.39 15.00 157.65 2532.42
   12:16:04.551.20-May-2020 4766.51 5495.22 69.39 15.00 157.85 2532.42
   12:16:04.751.20-May-2020 4766.51 5481.02 69.39 15.00 158.05 2532.42
