~Version Information
 VERS.                  2.0:   CWLS log ASCII Standard -VERSION 2.0
 WRAP.                   NO:   One line per depth step
~Well Information Block
#MNEM.UNIT     VALUE/NAME     DESCRIPTION
#---------     -----------    ---------------------------
 STRT.S             19:37:06 17-May-20: START TIME 19:37:06 17-May-20
 STOP.S             19:44:11 17-May-20: STOP TIME  19:44:11 17-May-20
 STEP.S                   0.00: STEP TIME
 NULL.                 -999.25: NULL VALUE
 UNIT.                     N/A:  LOGGING EQUIPMENT ID
 DCON.         Sperry Drilling:  DIRECTNL CONTR
 DOE .                     N/A:  DOE NUMBER
 JOBN.        AZ-XX-0906252240:  JOB TICKET NUMB
 MWDS.                     N/A:  MWD SHOP
 PROV.                    Baku:  PROVINCE
 STAT.                    Baku:  STATE NAME
 REGN.                   EESSA:  REGION
 BASE.              Azerbaijan:  LOGGING EQUIPMENT BASE LOCATION
 UWI .                     N/A:  UNIQUE WELL IDENTIFIER
 API .                     N/A:  API NUMBER
 MDS .        Operator Entered:  MAG DATA SOURCE
 WTYP.                Deviated:  WELL TYPE
 COMP.     BP Exploration (Caspian Sea) Ltd.:  COMPANY
 SRVC.          Turan Drilling:  CONTRACTOR
 WELL.           J23 (Slot 07):  WELL NAME
 CTRY.              Azerbaijan:  COUNTRY NAME
 FLD .                     ACG:  FIELD NAME
 PDAT.          Mean Sea Level:  PERMANENT DATUM
 RIG .             West Chirag:  RIG NAME
 SON .        AZ-XX-0906252240:  JOB NUMBER
 FTOP.          Formation Tops:  FORM TOPS DESC
 ILTD.               Lithology:  INTERP LTH DESC
 SVYD.                  Survey:  SURVEY DESC
 DMOD.             Drill Model:  DRILL MOD DESC
 HPTY.       Minimum Curvature:  HOLE POS TYPE
 NREF.                    Grid:  NORTH REFERENCE
 SPUD.               27-Aug-20:  SPUD DATE
 DATE.      00.00.00 19-May-20:  END TIME
 STIM.      03.00.00 25-Mar-20:  START TIME
 DMF .             Drill Floor:  DRILL MEAS FROM
 DFST.                        :  DIST FSL TEXT
 DFWT.                        :  DIST FWL TEXT
 CNTY.                        :  COUNTY
 LOC .                        :  LOCATION
 LMF .             Drill Floor:  LOG MEASURED FROM
 VSNS.m                   9.43:  VERT SEC N/S
 VSEW.m                  -8.91:  VERT SEC E/W
 AGAP.m                  43.00:  AIR GAP
 DEP .m                 354.17:  DEPTH
 APD .m                  43.00:  DEPTH ABOVE PD
 WDMS.m                 169.80:  WD ELEV
 EGL .m                   0.00:  GROUND ELEVATION
 EPD .m                   0.00:  ELEVATION
 AZTC.deg                 6.31:  AZM TOTAL CORR
 GRDC.deg                 0.14:  GRID CORRECTION
 MDEC.deg                 6.45:  MAGNETIC DECL
 MDIP.deg                59.56:  MAGNETIC DIP
 MFLD.nT              50295.00:  MAGNETIC FIELD
 GVFD.g                   1.00:  GRAVITY FIELD
 VSDR.deg               179.88:  VERT SEC DIRECT
 TDD .m                5150.01:  TOTAL DEPTH (DRILLER)
 SDEP.m                 864.00:  START DEPTH
 DFSL.m                   0.00:  DISTANCE FSL
 DFWL.m                   0.00:  DISTANCE FWL
 UTMY.m             4443793.85:  UTM Y
 UTMX.m              519005.06:  UTM X
 WHEW.m                  -8.91:  WELL HEAD E/W
 WHNS.m                   9.43:  WELL HEAD N/S
 LONG.deg                51.22:  LONGITUDE
 LATI.deg                40.13:  LATITUDE
 TVDS.m                  43.00:  TVDSS CORRECTN
 EKB .m                   0.00:  KB ELEVATION
 EDF .m                  43.00:  DF ELEVATION
 TDL .m                 363.00:  TOTAL DEPTH (LOGGER)
 MAGU.                 1850802:  MAGUTM CHECKSUM
 VSC .                       0:  VS TO CLOSURE
~Parameter Information Block
#MNEM.UNIT       Value        Description
#---------     -----------    ---------------------------
 AV  .mps                 2.30:  Ann Velocity 
 AVMX.mps                 4.40:  Max Ann Veloc 
 AZIF.deg               110.24:  Azm, Final 
 BHAT.        Rotary Steerable:  BHA Type 
 BREV.rev               331.00:  Rev Bit Total 
 BROT.°/30m               0.00:  Build Rotating 
 BS  .in                  8.50:  Bit Size 
 BSZ .in                  8.50:  Bit Size 
 BTPL.psig              585.00:  Bit Press Loss 
 CABU.                     Yes:  Customer Abuse 
 TCS .hr                122.75:  Time Ciculation Ended 
 CV  .mps                 2.67:  Crit Velocity 
 CVMX.mps                 3.56:  Max Crit Veloc 
 DD1 .          Rashad Habibov:  Direct Drillr 1 
 DD2 .         Rasim Ibrahimov:  Direct Drillr 2 
 DDSV.               Geo-Pilot:  DD Service 
 DEFF.%                  98.00:  % Det Eff 
 DLRX.°/30m               0.75:  Dogleg Rot Max 
 DLSO.°/30m               1.25:  Dogleg Oriented 
 DLSX.°/30m               2.06:  Dogleg Str Max 
 DRET.      07.45.00 17-May-20:  Drill End Time 
 DRST.      22.50.00 15-May-20:  Drill Start Tim 
 DTIM.hr                 20.75:  Time Drilling 
 EDEP.m                5124.01:  End Depth 
 ENG1.           Eldar Hajiyev:  Engineer 1 
 ENG2.        Marcelo Sandoval:  Engineer 2 
 ENG3.        Davud huseynzada:  Engineer 3 
 ENG4.          Ruslan Safarov:  Engineer 4 
 ETIM.      04.33.00 23-May-20:  End Time 
 FLOI.gpm               450.00:  Flow In 
 FLON.gpm               400.00:  Flow In Min 
 FLOS.cptm                0.00:  Fluid Loss 
 FLOX.gpm               500.00:  Flow In Max 
 FTRO.       Formation Presure:  FTWD Run Obj 
 HFLO.                      No:  High Flow 
 HPRE.                     Yes:  High Pressure 
 HTEM.                      No:  High Temp 
 HYDO.m                   1.80:  Hydro Offset 
 IFIN.deg                75.06:  Inc, Final 
 IMAX.deg                75.38:  Inc Max 
 IMIN.deg                74.69:  Inc Min 
 IMND.m                5027.38:  Inc Min Depth 
 IMXD.m                4771.61:  Inc Max Depth 
 JARR.                      No:  Jarring 
 LETM.      07.45.00 17-May-20:  Log End Time 
 LOST.hr                     0:  Lost Rig Time 
 LSTM.      22.50.00 15-May-20:  Log Start Time 
 MDCL.ppm             42000.00:  Mud Chlorides 
 MDES.     Inversion Oil/Synthetic:  Mud Desc 
 DFD .sg                  1.34:  Mud Density 
 MDMN.sg                  1.34:  Dens Mud Min 
 MDMX.sg                  1.34:  Dens Mud Max 
 MOIL.                       0:  Run Mud Oil % 
 MOWR.                   67:33:  Run Mud OWR 
 MSND.                       0:  Run Mud Sand % 
 MSOL.                     1.8:  Run Mud Solids% 
 DFV .spqt               76.00:  Mud Viscosity 
 MWOD.in                  6.75:  MWD Tool OD 
 MWSI.                      No:  Serv Intrp, MWD 
 OTIM.hr                228.19:  Time Operating 
 PCON.           Look Like New:  Pad Condition 
 PMAX.psia             6164.70:  Press Op, Max 
 PV  .cP                 28.00:  Mud PV 
 RUN .                     900:  Run Number 
 ROPA.m/hr               19.00:  ROP Avg 
 ROPN.m/hr               11.00:  ROP Min 
 ROPX.m/hr               36.00:  ROP Max 
 RPMA.rpm               120.00:  RPM Surface Avg 
 RPMN.rpm               120.00:  RPM Surface Min 
 RPMX.rpm               120.00:  RPM Surface Max 
 RRUN.                    L604:  Rig Run Number 
 RTIM.hr                  7.00:  Time Reaming 
 SAZI.deg               109.27:  Azm, Start 
 SDEP.m                4761.01:  Start Depth 
 SIDD.                      No:  Serv Intrp, DD 
 SINC.deg                75.38:  Inc, Start 
 SPPA.psig             3574.00:  SPP Avg 
 SPPN.psig             3475.00:  SPP Min 
 SPPX.psig             3791.00:  SPP Max 
 STIM.      07.08.48 13-May-20:  Start Time 
 SVCS.                 DD, MWD:  Services 
 SVER.                    9.20:  Sperry Version 
 TDAT.m                 363.00:  Tot Depth Attmp 
 TDDF.                      No:  Trip for DD 
 TDLG.m                 363.00:  Tot Depth Loggd 
 TFF .                      No:  Trip for Fail 
 TQAA.f-kp               20.00:  Torque Abs Avg 
 TQAN.f-kp               18.00:  Torque Abs Min 
 TQAX.f-kp               22.00:  Torque Abs Max 
 TRRT.°/30m              -0.35:  Turn Rotating 
 MRT .                    HCIM:  Maximum Recorded Temperature 
 TTMX.degC               92.16:  Max Tool Temp 
 VS01.                90586518:  Virtual Str1 SN 
 VS02.        AZ90560654Z1W1C6:  Virtual Str2 SN 
 VS03.           AZ90610398F11:  Virtual Str3 SN 
 VS04.                90514975:  Virtual Str4 SN 
 VS05.                90514972:  Virtual Str5 SN 
 VS06.     AZ90603282F11V7D1A6:  Virtual Str6 SN 
 WBMN.klb                 7.00:  WOB Min 
 WOBA.klb                12.00:  WOB Avg 
 WOBX.klb                14.00:  WOB Max 
 YP  .lhf2               32.00:  Yield Point 
~Curve Information Block
#MNEM.UNIT                 API CODE     Curve Description
#---------               -----------    ---------------------------
 TIME.HHMMSS            00 000 000 000:  GT Time & Date
 GTDEPTH.m              00 000 000 000:  GT Depth
 GTPQH.psia             00 000 000 000:  GT HR Quartz Pressure
 GTTQ.degC              00 000 000 000:  GT Quartz Temperature
 GTTN.NONE              00 000 000 000:  GT Test Number
 GTET.sec               00 000 000 000:  GT Elapsed Test Time
 GTTVD.m                00 000 000 000:  GT True Vertical Depth
#Other Information
#
#WARRANTY: Halliburton will use its best efforts to furnish customers with 
#accurate information and interpretations that are part of, and incident to, the services 
#provided.  However, Halliburton cannot and does not warrant the accuracy 
#or correctness of such information and interpretations.  Under no circumstances should any 
#such information or interpretation be relied upon as the sole basis for any drilling, 
#completion, production, or financial decision or any procedure involving any risk to the 
#safety of any drilling venture, drilling rig or its crew or any other third party.  The 
#Customer has full responsibility for all drilling, completion and production operation.  
#Halliburton makes no representations or warranties, either expressed or 
#implied, including, but not limited to, the implied warranties of merchantability or fitness 
#for a particular purpose, with respect to the services rendered.  In no event will 
#Halliburton be liable for failure to obtain any particular results or for 
#any damages, including, but not limited to, indirect, special or consequential damages, 
#resulting from the use of any information or interpretation provided by Halliburton.
#
~A           TIME           GTDEPTH  GTPQH  GTTQ  GTTN  GTET   GTTVD  
# ...
   19:43:37.580.17-May-2020 4994.01 5552.89 69.66 4.00 390.97 2591.05
   19:43:37.780.17-May-2020 4994.01 5552.89 69.66 4.00 391.17 2591.05
   19:43:37.980.17-May-2020 4994.01 5559.52 69.66 4.00 391.37 2591.05
   19:43:38.180.17-May-2020 4994.01 5562.10 69.66 4.00 391.57 2591.05
   19:43:38.379.17-May-2020 4994.01 5564.03 69.66 4.00 391.77 2591.05
   19:43:38.579.17-May-2020 4994.01 5555.59 69.66 4.00 391.97 2591.05
   19:43:38.779.17-May-2020 4994.01 5555.59 69.66 4.00 392.17 2591.05
   19:43:38.979.17-May-2020 4994.01 5560.84 69.66 4.00 392.37 2591.05
   19:43:39.179.17-May-2020 4994.01 5563.32 69.66 4.00 392.57 2591.05
   19:43:39.379.17-May-2020 4994.01 5561.99 69.66 4.00 392.77 2591.05
   19:43:39.579.17-May-2020 4994.01 5556.68 69.66 4.00 392.97 2591.05
   19:43:39.779.17-May-2020 4994.01 5556.68 69.66 4.00 393.17 2591.05
   19:43:39.979.17-May-2020 4994.01 5556.67 69.66 4.00 393.37 2591.05
   19:43:40.179.17-May-2020 4994.01 5556.02 69.66 4.00 393.57 2591.05
   19:43:40.379.17-May-2020 4994.01 5553.02 69.66 4.00 393.77 2591.05
   19:43:40.579.17-May-2020 4994.01 5553.79 69.66 4.00 393.97 2591.05
   19:43:40.779.17-May-2020 4994.01 5553.79 69.66 4.00 394.17 2591.05
   19:43:40.979.17-May-2020 4994.01 5553.05 69.65 4.00 394.37 2591.05
   19:43:41.179.17-May-2020 4994.01 5562.90 69.65 4.00 394.57 2591.05
   19:43:41.379.17-May-2020 4994.01 5558.53 69.65 4.00 394.77 2591.05
   19:43:41.579.17-May-2020 4994.01 5552.02 69.65 4.00 394.97 2591.05
   19:43:41.779.17-May-2020 4994.01 5552.02 69.65 4.00 395.17 2591.05
   19:43:41.979.17-May-2020 4994.01 5554.48 69.65 4.00 395.37 2591.05
   19:43:42.179.17-May-2020 4994.01 5553.74 69.65 4.00 395.57 2591.05
   19:43:42.379.17-May-2020 4994.01 5551.65 69.65 4.00 395.77 2591.05
   19:43:42.579.17-May-2020 4994.01 5552.52 69.65 4.00 395.97 2591.05
   19:43:42.779.17-May-2020 4994.01 5552.52 69.65 4.00 396.17 2591.05
   19:43:42.979.17-May-2020 4994.01 5551.91 69.65 4.00 396.37 2591.05
   19:43:43.179.17-May-2020 4994.01 5551.45 69.65 4.00 396.57 2591.05
   19:43:43.379.17-May-2020 4994.01 5566.06 69.65 4.00 396.77 2591.05
   19:43:43.579.17-May-2020 4994.01 5551.24 69.65 4.00 396.97 2591.05
   19:43:43.779.17-May-2020 4994.01 5555.71 69.65 4.00 397.17 2591.05
   19:43:43.979.17-May-2020 4994.01 5556.58 69.65 4.00 397.37 2591.05
   19:43:44.179.17-May-2020 4994.01 5553.60 69.65 4.00 397.57 2591.05
   19:43:44.379.17-May-2020 4994.01 5565.28 69.65 4.00 397.77 2591.05
   19:43:44.579.17-May-2020 4994.01 5558.33 69.65 4.00 397.97 2591.05
   19:43:44.779.17-May-2020 4994.01 5558.33 69.65 4.00 398.17 2591.05
   19:43:44.979.17-May-2020 4994.01 5564.77 69.65 4.00 398.37 2591.05
   19:43:45.179.17-May-2020 4994.01 5556.57 69.65 4.00 398.57 2591.05
   19:43:45.379.17-May-2020 4994.01 5562.09 69.65 4.00 398.77 2591.05
   19:43:45.579.17-May-2020 4994.01 5557.95 69.65 4.00 398.97 2591.05
   19:43:45.779.17-May-2020 4994.01 5557.95 69.65 4.00 399.17 2591.05
   19:43:45.979.17-May-2020 4994.01 5568.31 69.65 4.00 399.37 2591.05
   19:43:46.179.17-May-2020 4994.01 5564.06 69.64 4.00 399.57 2591.05
   19:43:46.379.17-May-2020 4994.01 5554.71 69.64 4.00 399.77 2591.05
   19:43:46.579.17-May-2020 4994.01 5556.37 69.64 4.00 399.97 2591.05
   19:43:46.779.17-May-2020 4994.01 5556.37 69.64 4.00 400.17 2591.05
   19:43:46.979.17-May-2020 4994.01 5556.37 69.64 4.00 400.37 2591.05
   19:43:47.179.17-May-2020 4994.01 5553.52 69.64 4.00 400.57 2591.05
   19:43:47.379.17-May-2020 4994.01 5554.01 69.64 4.00 400.77 2591.05
   19:43:47.579.17-May-2020 4994.01 5553.60 69.64 4.00 400.97 2591.05
   19:43:47.779.17-May-2020 4994.01 5553.60 69.64 4.00 401.17 2591.05
   19:43:47.979.17-May-2020 4994.01 5567.29 69.64 4.00 401.37 2591.05
   19:43:48.179.17-May-2020 4994.01 5552.94 69.64 4.00 401.57 2591.05
   19:43:48.379.17-May-2020 4994.01 5554.30 69.64 4.00 401.77 2591.05
   19:43:48.579.17-May-2020 4994.01 5555.33 69.64 4.00 401.97 2591.05
   19:43:48.779.17-May-2020 4994.01 5555.33 69.64 4.00 402.17 2591.05
   19:43:48.979.17-May-2020 4994.01 5554.27 69.64 4.00 402.37 2591.05
   19:43:49.179.17-May-2020 4994.01 5552.85 69.64 4.00 402.57 2591.05
   19:43:49.379.17-May-2020 4994.01 5552.74 69.64 4.00 402.77 2591.05
   19:43:49.579.17-May-2020 4994.01 5551.79 69.64 4.00 402.97 2591.05
   19:43:49.779.17-May-2020 4994.01 5551.79 69.64 4.00 403.17 2591.05
   19:43:49.979.17-May-2020 4994.01 5552.45 69.64 4.00 403.37 2591.05
   19:43:50.179.17-May-2020 4994.01 5565.36 69.64 4.00 403.57 2591.05
   19:43:50.379.17-May-2020 4994.01 5548.59 69.64 4.00 403.77 2591.05
   19:43:50.579.17-May-2020 4994.01 5558.40 69.64 4.00 403.97 2591.05
   19:43:50.779.17-May-2020 4994.01 5558.40 69.64 4.00 404.17 2591.05
   19:43:50.979.17-May-2020 4994.01 5551.66 69.64 4.00 404.37 2591.05
   19:43:51.178.17-May-2020 4994.01 5569.91 69.64 4.00 404.57 2591.05
   19:43:51.378.17-May-2020 4994.01 5553.30 69.64 4.00 404.77 2591.05
   19:43:51.578.17-May-2020 4994.01 5556.32 69.64 4.00 404.97 2591.05
   19:43:51.778.17-May-2020 4994.01 5556.32 69.64 4.00 405.17 2591.05
   19:43:51.978.17-May-2020 4994.01 5561.64 69.63 4.00 405.37 2591.05
   19:43:52.178.17-May-2020 4994.01 5564.17 69.63 4.00 405.57 2591.05
   19:43:52.378.17-May-2020 4994.01 5555.09 69.63 4.00 405.77 2591.05
   19:43:52.578.17-May-2020 4994.01 5554.53 69.63 4.00 405.97 2591.05
   19:43:52.778.17-May-2020 4994.01 5554.53 69.63 4.00 406.17 2591.05
   19:43:52.978.17-May-2020 4994.01 5557.95 69.63 4.00 406.37 2591.05
   19:43:53.178.17-May-2020 4994.01 5557.31 69.63 4.00 406.57 2591.05
   19:43:53.378.17-May-2020 4994.01 5558.14 69.63 4.00 406.77 2591.05
   19:43:53.578.17-May-2020 4994.01 5555.29 69.63 4.00 406.97 2591.05
   19:43:53.778.17-May-2020 4994.01 5555.29 69.63 4.00 407.17 2591.05
   19:43:53.978.17-May-2020 4994.01 5554.53 69.63 4.00 407.37 2591.05
   19:43:54.178.17-May-2020 4994.01 5554.30 69.63 4.00 407.57 2591.05
   19:43:54.378.17-May-2020 4994.01 5553.27 69.63 4.00 407.77 2591.05
   19:43:54.578.17-May-2020 4994.01 5553.55 69.63 4.00 407.97 2591.05
   19:43:54.778.17-May-2020 4994.01 5553.55 69.63 4.00 408.17 2591.05
   19:43:54.978.17-May-2020 4994.01 5549.12 69.63 4.00 408.37 2591.05
   19:43:55.178.17-May-2020 4994.01 5557.58 69.63 4.00 408.57 2591.05
   19:43:55.378.17-May-2020 4994.01 5556.41 69.63 4.00 408.77 2591.05
   19:43:55.578.17-May-2020 4994.01 5551.29 69.63 4.00 408.97 2591.05
   19:43:55.778.17-May-2020 4994.01 5551.29 69.63 4.00 409.17 2591.05
   19:43:55.978.17-May-2020 4994.01 5553.49 69.63 4.00 409.37 2591.05
   19:43:56.178.17-May-2020 4994.01 5552.28 69.63 4.00 409.57 2591.05
   19:43:56.378.17-May-2020 4994.01 5551.92 69.63 4.00 409.77 2591.05
   19:43:56.578.17-May-2020 4994.01 5551.87 69.63 4.00 409.97 2591.05
   19:43:56.778.17-May-2020 4994.01 5551.87 69.63 4.00 410.17 2591.05
   19:43:56.978.17-May-2020 4994.01 5560.37 69.63 4.00 410.37 2591.05
   19:43:57.178.17-May-2020 4994.01 5552.75 69.63 4.00 410.57 2591.05
   19:43:57.378.17-May-2020 4994.01 5558.77 69.63 4.00 410.77 2591.05
   19:43:57.578.17-May-2020 4994.01 5557.28 69.63 4.00 410.97 2591.05
   19:43:57.778.17-May-2020 4994.01 5557.28 69.63 4.00 411.17 2591.05
   19:43:57.978.17-May-2020 4994.01 5569.49 69.63 4.00 411.37 2591.05
   19:43:58.178.17-May-2020 4994.01 5551.61 69.62 4.00 411.57 2591.05
   19:43:58.378.17-May-2020 4994.01 5558.52 69.62 4.00 411.77 2591.05
   19:43:58.578.17-May-2020 4994.01 5557.92 69.62 4.00 411.97 2591.05
   19:43:58.778.17-May-2020 4994.01 5557.92 69.62 4.00 412.17 2591.05
   19:43:58.978.17-May-2020 4994.01 5562.18 69.62 4.00 412.37 2591.05
   19:43:59.178.17-May-2020 4994.01 5555.68 69.62 4.00 412.57 2591.05
   19:43:59.378.17-May-2020 4994.01 5556.11 69.62 4.00 412.77 2591.05
   19:43:59.578.17-May-2020 4994.01 5570.83 69.62 4.00 412.97 2591.05
   19:43:59.778.17-May-2020 4994.01 5570.83 69.62 4.00 413.17 2591.05
   19:43:59.978.17-May-2020 4994.01 5561.38 69.62 4.00 413.37 2591.05
   19:44:00.178.17-May-2020 4994.01 5559.51 69.62 4.00 413.57 2591.05
   19:44:00.378.17-May-2020 4994.01 5552.94 69.62 4.00 413.77 2591.05
