~Version Information
 VERS.                  2.0:   CWLS log ASCII Standard -VERSION 2.0
 WRAP.                   NO:   One line per depth step
~Well Information Block
#MNEM.UNIT     VALUE/NAME     DESCRIPTION
#---------     -----------    ---------------------------
 STRT.S             12:13:26 20-May-20: START TIME 12:13:26 20-May-20
 STOP.S             12:20:31 20-May-20: STOP TIME  12:20:31 20-May-20
 STEP.S                   0.00: STEP TIME
 NULL.                 -999.25: NULL VALUE
 UNIT.                     N/A:  LOGGING EQUIPMENT ID
 DCON.         Sperry Drilling:  DIRECTNL CONTR
 DOE .                     N/A:  DOE NUMBER
 JOBN.        AZ-XX-0906252240:  JOB TICKET NUMB
 MWDS.                     N/A:  MWD SHOP
 PROV.                    Baku:  PROVINCE
 STAT.                    Baku:  STATE NAME
 REGN.                   EESSA:  REGION
 BASE.              Azerbaijan:  LOGGING EQUIPMENT BASE LOCATION
 UWI .                     N/A:  UNIQUE WELL IDENTIFIER
 API .                     N/A:  API NUMBER
 MDS .        Operator Entered:  MAG DATA SOURCE
 WTYP.                Deviated:  WELL TYPE
 COMP.     BP Exploration (Caspian Sea) Ltd.:  COMPANY
 SRVC.          Turan Drilling:  CONTRACTOR
 WELL.           J23 (Slot 07):  WELL NAME
 CTRY.              Azerbaijan:  COUNTRY NAME
 FLD .                     ACG:  FIELD NAME
 PDAT.          Mean Sea Level:  PERMANENT DATUM
 RIG .             West Chirag:  RIG NAME
 SON .        AZ-XX-0906252240:  JOB NUMBER
 FTOP.          Formation Tops:  FORM TOPS DESC
 ILTD.               Lithology:  INTERP LTH DESC
 SVYD.                  Survey:  SURVEY DESC
 DMOD.             Drill Model:  DRILL MOD DESC
 HPTY.       Minimum Curvature:  HOLE POS TYPE
 NREF.                    Grid:  NORTH REFERENCE
 SPUD.               27-Aug-20:  SPUD DATE
 DATE.      00.00.00 19-May-20:  END TIME
 STIM.      03.00.00 25-Mar-20:  START TIME
 DMF .             Drill Floor:  DRILL MEAS FROM
 DFST.                        :  DIST FSL TEXT
 DFWT.                        :  DIST FWL TEXT
 CNTY.                        :  COUNTY
 LOC .                        :  LOCATION
 LMF .             Drill Floor:  LOG MEASURED FROM
 VSNS.m                   9.43:  VERT SEC N/S
 VSEW.m                  -8.91:  VERT SEC E/W
 AGAP.m                  43.00:  AIR GAP
 DEP .m                 354.17:  DEPTH
 APD .m                  43.00:  DEPTH ABOVE PD
 WDMS.m                 169.80:  WD ELEV
 EGL .m                   0.00:  GROUND ELEVATION
 EPD .m                   0.00:  ELEVATION
 AZTC.deg                 6.31:  AZM TOTAL CORR
 GRDC.deg                 0.14:  GRID CORRECTION
 MDEC.deg                 6.45:  MAGNETIC DECL
 MDIP.deg                59.56:  MAGNETIC DIP
 MFLD.nT              50295.00:  MAGNETIC FIELD
 GVFD.g                   1.00:  GRAVITY FIELD
 VSDR.deg               179.88:  VERT SEC DIRECT
 TDD .m                5150.01:  TOTAL DEPTH (DRILLER)
 SDEP.m                 864.00:  START DEPTH
 DFSL.m                   0.00:  DISTANCE FSL
 DFWL.m                   0.00:  DISTANCE FWL
 UTMY.m             4443793.85:  UTM Y
 UTMX.m              519005.06:  UTM X
 WHEW.m                  -8.91:  WELL HEAD E/W
 WHNS.m                   9.43:  WELL HEAD N/S
 LONG.deg                51.22:  LONGITUDE
 LATI.deg                40.13:  LATITUDE
 TVDS.m                  43.00:  TVDSS CORRECTN
 EKB .m                   0.00:  KB ELEVATION
 EDF .m                  43.00:  DF ELEVATION
 TDL .m                 363.00:  TOTAL DEPTH (LOGGER)
 MAGU.                 1850802:  MAGUTM CHECKSUM
 VSC .                       0:  VS TO CLOSURE
~Parameter Information Block
#MNEM.UNIT       Value        Description
#---------     -----------    ---------------------------
 AV  .mps                 2.30:  Ann Velocity 
 AVMX.mps                 4.40:  Max Ann Veloc 
 AZIF.deg               110.24:  Azm, Final 
 BHAT.        Rotary Steerable:  BHA Type 
 BREV.rev               331.00:  Rev Bit Total 
 BROT.°/30m               0.00:  Build Rotating 
 BS  .in                  8.50:  Bit Size 
 BSZ .in                  8.50:  Bit Size 
 BTPL.psig              585.00:  Bit Press Loss 
 CABU.                     Yes:  Customer Abuse 
 COMM.                     моЊ:  Run Comments 1 
 TCS .hr                122.75:  Time Ciculation Ended 
 CV  .mps                 2.67:  Crit Velocity 
 CVMX.mps                 3.56:  Max Crit Veloc 
 DD1 .          Rashad Habibov:  Direct Drillr 1 
 DD2 .         Rasim Ibrahimov:  Direct Drillr 2 
 DDSV.               Geo-Pilot:  DD Service 
 DEFF.%                  98.00:  % Det Eff 
 DLRX.°/30m               0.75:  Dogleg Rot Max 
 DLSO.°/30m               1.25:  Dogleg Oriented 
 DLSX.°/30m               2.06:  Dogleg Str Max 
 DRET.      07.45.00 17-May-20:  Drill End Time 
 DRST.      22.50.00 15-May-20:  Drill Start Tim 
 DTIM.hr                 20.75:  Time Drilling 
 EDEP.m                5124.01:  End Depth 
 ENG1.           Eldar Hajiyev:  Engineer 1 
 ENG2.        Marcelo Sandoval:  Engineer 2 
 ENG3.        Davud huseynzada:  Engineer 3 
 ENG4.          Ruslan Safarov:  Engineer 4 
 ETIM.      04.33.00 23-May-20:  End Time 
 FLOI.gpm               450.00:  Flow In 
 FLON.gpm               400.00:  Flow In Min 
 FLOS.cptm                0.00:  Fluid Loss 
 FLOX.gpm               500.00:  Flow In Max 
 FTRO.       Formation Presure:  FTWD Run Obj 
 HFLO.                      No:  High Flow 
 HPRE.                     Yes:  High Pressure 
 HTEM.                      No:  High Temp 
 HYDO.m                   1.80:  Hydro Offset 
 IFIN.deg                75.06:  Inc, Final 
 IMAX.deg                75.38:  Inc Max 
 IMIN.deg                74.69:  Inc Min 
 IMND.m                5027.38:  Inc Min Depth 
 IMXD.m                4771.61:  Inc Max Depth 
 JARR.                      No:  Jarring 
 LETM.      07.45.00 17-May-20:  Log End Time 
 LOST.hr                     0:  Lost Rig Time 
 LSTM.      22.50.00 15-May-20:  Log Start Time 
 MDCL.ppm             42000.00:  Mud Chlorides 
 MDES.     Inversion Oil/Synthetic:  Mud Desc 
 DFD .sg                  1.34:  Mud Density 
 MDMN.sg                  1.34:  Dens Mud Min 
 MDMX.sg                  1.34:  Dens Mud Max 
 MOIL.                       0:  Run Mud Oil % 
 MOWR.                   67:33:  Run Mud OWR 
 MSND.                       0:  Run Mud Sand % 
 MSOL.                     1.8:  Run Mud Solids% 
 DFV .spqt               76.00:  Mud Viscosity 
 MWOD.in                  6.75:  MWD Tool OD 
 MWSI.                      No:  Serv Intrp, MWD 
 OTIM.hr                228.19:  Time Operating 
 PCON.           Look Like New:  Pad Condition 
 PMAX.psia             6164.70:  Press Op, Max 
 PV  .cP                 28.00:  Mud PV 
 RUN .                     900:  Run Number 
 ROPA.m/hr               19.00:  ROP Avg 
 ROPN.m/hr               11.00:  ROP Min 
 ROPX.m/hr               36.00:  ROP Max 
 RPMA.rpm               120.00:  RPM Surface Avg 
 RPMN.rpm               120.00:  RPM Surface Min 
 RPMX.rpm               120.00:  RPM Surface Max 
 RRUN.                    L604:  Rig Run Number 
 RTIM.hr                  7.00:  Time Reaming 
 SAZI.deg               109.27:  Azm, Start 
 SDEP.m                4761.01:  Start Depth 
 SIDD.                      No:  Serv Intrp, DD 
 SINC.deg                75.38:  Inc, Start 
 SPPA.psig             3574.00:  SPP Avg 
 SPPN.psig             3475.00:  SPP Min 
 SPPX.psig             3791.00:  SPP Max 
 STIM.      07.08.48 13-May-20:  Start Time 
 SVCS.                 DD, MWD:  Services 
 SVER.                    9.20:  Sperry Version 
 TDAT.m                 363.00:  Tot Depth Attmp 
 TDDF.                      No:  Trip for DD 
 TDLG.m                 363.00:  Tot Depth Loggd 
 TFF .                      No:  Trip for Fail 
 TQAA.f-kp               20.00:  Torque Abs Avg 
 TQAN.f-kp               18.00:  Torque Abs Min 
 TQAX.f-kp               22.00:  Torque Abs Max 
 TRRT.°/30m              -0.35:  Turn Rotating 
 MRT .                    HCIM:  Maximum Recorded Temperature 
 TTMX.degC               92.16:  Max Tool Temp 
 VS01.                90586518:  Virtual Str1 SN 
 VS02.        AZ90560654Z1W1C6:  Virtual Str2 SN 
 VS03.           AZ90610398F11:  Virtual Str3 SN 
 VS04.                90514975:  Virtual Str4 SN 
 VS05.                90514972:  Virtual Str5 SN 
 VS06.     AZ90603282F11V7D1A6:  Virtual Str6 SN 
 WBMN.klb                 7.00:  WOB Min 
 WOBA.klb                12.00:  WOB Avg 
 WOBX.klb                14.00:  WOB Max 
 YP  .lhf2               32.00:  Yield Point 
~Curve Information Block
#MNEM.UNIT                 API CODE     Curve Description
#---------               -----------    ---------------------------
 TIME.HHMMSS            00 000 000 000:  GT Time & Date
 GTDEPTH.m              00 000 000 000:  GT Depth
 GTPQH.psia             00 000 000 000:  GT HR Quartz Pressure
 GTTQ.degC              00 000 000 000:  GT Quartz Temperature
 GTTN.NONE              00 000 000 000:  GT Test Number
 GTET.sec               00 000 000 000:  GT Elapsed Test Time
 GTTVD.m                00 000 000 000:  GT True Vertical Depth
#Other Information
#
#WARRANTY: Halliburton will use its best efforts to furnish customers with 
#accurate information and interpretations that are part of, and incident to, the services 
#provided.  However, Halliburton cannot and does not warrant the accuracy 
#or correctness of such information and interpretations.  Under no circumstances should any 
#such information or interpretation be relied upon as the sole basis for any drilling, 
#completion, production, or financial decision or any procedure involving any risk to the 
#safety of any drilling venture, drilling rig or its crew or any other third party.  The 
#Customer has full responsibility for all drilling, completion and production operation.  
#Halliburton makes no representations or warranties, either expressed or 
#implied, including, but not limited to, the implied warranties of merchantability or fitness 
#for a particular purpose, with respect to the services rendered.  In no event will 
#Halliburton be liable for failure to obtain any particular results or for 
#any damages, including, but not limited to, indirect, special or consequential damages, 
#resulting from the use of any information or interpretation provided by Halliburton.
#
~A           TIME           GTDEPTH  GTPQH  GTTQ  GTTN   GTET   GTTVD  
# ...
   12:19:28.416.20-May-2020 4766.51 5480.91 69.08 15.00 361.72 2532.42
   12:19:28.616.20-May-2020 4766.51 5488.89 69.08 15.00 361.92 2532.42
   12:19:28.817.20-May-2020 4766.51 5485.40 69.08 15.00 362.12 2532.42
   12:19:29.017.20-May-2020 4766.51 5485.40 69.08 15.00 362.32 2532.42
   12:19:29.217.20-May-2020 4766.51 5481.13 69.08 15.00 362.52 2532.42
   12:19:29.417.20-May-2020 4766.51 5480.70 69.08 15.00 362.72 2532.42
   12:19:29.617.20-May-2020 4766.51 5483.55 69.08 15.00 362.92 2532.42
   12:19:29.817.20-May-2020 4766.51 5481.69 69.08 15.00 363.12 2532.42
   12:19:30.017.20-May-2020 4766.51 5481.69 69.08 15.00 363.32 2532.42
   12:19:30.217.20-May-2020 4766.51 5481.51 69.08 15.00 363.52 2532.42
   12:19:30.417.20-May-2020 4766.51 5481.17 69.08 15.00 363.72 2532.42
   12:19:30.617.20-May-2020 4766.51 5480.41 69.08 15.00 363.92 2532.42
   12:19:30.817.20-May-2020 4766.51 5483.57 69.08 15.00 364.12 2532.42
   12:19:31.017.20-May-2020 4766.51 5483.57 69.08 15.00 364.32 2532.42
   12:19:31.217.20-May-2020 4766.51 5481.08 69.08 15.00 364.52 2532.42
   12:19:31.417.20-May-2020 4766.51 5480.91 69.08 15.00 364.72 2532.42
   12:19:31.617.20-May-2020 4766.51 5485.83 69.08 15.00 364.92 2532.42
   12:19:31.817.20-May-2020 4766.51 5491.20 69.08 15.00 365.12 2532.42
   12:19:32.018.20-May-2020 4766.51 5491.20 69.08 15.00 365.32 2532.42
   12:19:32.218.20-May-2020 4766.51 5482.40 69.08 15.00 365.52 2532.42
   12:19:32.418.20-May-2020 4766.51 5483.40 69.08 15.00 365.72 2532.42
   12:19:32.618.20-May-2020 4766.51 5496.20 69.08 15.00 365.92 2532.42
   12:19:32.818.20-May-2020 4766.51 5483.63 69.07 15.00 366.12 2532.42
   12:19:33.018.20-May-2020 4766.51 5483.63 69.07 15.00 366.32 2532.42
   12:19:33.218.20-May-2020 4766.51 5482.09 69.07 15.00 366.52 2532.42
   12:19:33.418.20-May-2020 4766.51 5495.70 69.07 15.00 366.72 2532.42
   12:19:33.618.20-May-2020 4766.51 5485.65 69.07 15.00 366.92 2532.42
   12:19:33.818.20-May-2020 4766.51 5482.78 69.07 15.00 367.12 2532.42
   12:19:34.018.20-May-2020 4766.51 5482.42 69.07 15.00 367.32 2532.42
   12:19:34.218.20-May-2020 4766.51 5483.78 69.07 15.00 367.52 2532.42
   12:19:34.418.20-May-2020 4766.51 5485.42 69.07 15.00 367.72 2532.42
   12:19:34.618.20-May-2020 4766.51 5481.83 69.07 15.00 367.92 2532.42
   12:19:34.818.20-May-2020 4766.51 5480.75 69.07 15.00 368.12 2532.42
   12:19:35.019.20-May-2020 4766.51 5480.75 69.07 15.00 368.32 2532.42
   12:19:35.219.20-May-2020 4766.51 5480.67 69.07 15.00 368.52 2532.42
   12:19:35.419.20-May-2020 4766.51 5487.44 69.07 15.00 368.72 2532.42
   12:19:35.619.20-May-2020 4766.51 5486.30 69.07 15.00 368.92 2532.42
   12:19:35.819.20-May-2020 4766.51 5481.23 69.07 15.00 369.12 2532.42
   12:19:36.019.20-May-2020 4766.51 5481.23 69.07 15.00 369.32 2532.42
   12:19:36.219.20-May-2020 4766.51 5480.38 69.07 15.00 369.52 2532.42
   12:19:36.419.20-May-2020 4766.51 5483.00 69.07 15.00 369.72 2532.42
   12:19:36.619.20-May-2020 4766.51 5481.30 69.07 15.00 369.92 2532.42
   12:19:36.819.20-May-2020 4766.51 5480.63 69.07 15.00 370.12 2532.42
   12:19:37.019.20-May-2020 4766.51 5480.63 69.07 15.00 370.32 2532.42
   12:19:37.219.20-May-2020 4766.51 5481.09 69.07 15.00 370.52 2532.42
   12:19:37.419.20-May-2020 4766.51 5480.39 69.07 15.00 370.72 2532.42
   12:19:37.619.20-May-2020 4766.51 5482.18 69.07 15.00 370.92 2532.42
   12:19:37.819.20-May-2020 4766.51 5490.35 69.07 15.00 371.12 2532.42
   12:19:38.019.20-May-2020 4766.51 5480.54 69.07 15.00 371.32 2532.42
   12:19:38.220.20-May-2020 4766.51 5480.43 69.07 15.00 371.52 2532.42
   12:19:38.420.20-May-2020 4766.51 5481.45 69.07 15.00 371.72 2532.42
   12:19:38.620.20-May-2020 4766.51 5493.99 69.07 15.00 371.92 2532.42
   12:19:38.820.20-May-2020 4766.51 5482.64 69.07 15.00 372.12 2532.42
   12:19:39.020.20-May-2020 4766.51 5482.64 69.07 15.00 372.32 2532.42
   12:19:39.220.20-May-2020 4766.51 5481.04 69.07 15.00 372.52 2532.42
   12:19:39.420.20-May-2020 4766.51 5496.39 69.07 15.00 372.72 2532.42
   12:19:39.620.20-May-2020 4766.51 5484.86 69.07 15.00 372.92 2532.42
   12:19:39.820.20-May-2020 4766.51 5482.00 69.06 15.00 373.12 2532.42
   12:19:40.020.20-May-2020 4766.51 5482.00 69.06 15.00 373.32 2532.42
   12:19:40.220.20-May-2020 4766.51 5482.36 69.06 15.00 373.52 2532.42
   12:19:40.420.20-May-2020 4766.51 5497.41 69.06 15.00 373.72 2532.42
   12:19:40.620.20-May-2020 4766.51 5482.74 69.06 15.00 373.92 2532.42
   12:19:40.820.20-May-2020 4766.51 5481.97 69.06 15.00 374.12 2532.42
   12:19:41.020.20-May-2020 4766.51 5481.97 69.06 15.00 374.32 2532.42
   12:19:41.220.20-May-2020 4766.51 5482.56 69.06 15.00 374.52 2532.42
   12:19:41.421.20-May-2020 4766.51 5482.44 69.06 15.00 374.72 2532.42
   12:19:41.621.20-May-2020 4766.51 5481.01 69.06 15.00 374.92 2532.42
   12:19:41.821.20-May-2020 4766.51 5480.57 69.06 15.00 375.12 2532.42
   12:19:42.021.20-May-2020 4766.51 5480.76 69.06 15.00 375.32 2532.42
   12:19:42.221.20-May-2020 4766.51 5480.10 69.06 15.00 375.52 2532.42
   12:19:42.421.20-May-2020 4766.51 5492.30 69.06 15.00 375.72 2532.42
   12:19:42.621.20-May-2020 4766.51 5481.27 69.06 15.00 375.92 2532.42
   12:19:42.821.20-May-2020 4766.51 5480.38 69.06 15.00 376.12 2532.42
   12:19:43.021.20-May-2020 4766.51 5480.38 69.06 15.00 376.32 2532.42
   12:19:43.221.20-May-2020 4766.51 5480.38 69.06 15.00 376.52 2532.42
   12:19:43.421.20-May-2020 4766.51 5482.36 69.06 15.00 376.72 2532.42
   12:19:43.621.20-May-2020 4766.51 5480.81 69.06 15.00 376.92 2532.42
   12:19:43.821.20-May-2020 4766.51 5480.48 69.06 15.00 377.12 2532.42
   12:19:44.021.20-May-2020 4766.51 5480.48 69.06 15.00 377.32 2532.42
   12:19:44.221.20-May-2020 4766.51 5480.24 69.06 15.00 377.52 2532.42
   12:19:44.422.20-May-2020 4766.51 5479.59 69.06 15.00 377.72 2532.42
   12:19:44.622.20-May-2020 4766.51 5488.93 69.06 15.00 377.92 2532.42
   12:19:44.822.20-May-2020 4766.51 5483.80 69.06 15.00 378.12 2532.42
   12:19:45.022.20-May-2020 4766.51 5483.80 69.06 15.00 378.32 2532.42
   12:19:45.222.20-May-2020 4766.51 5479.89 69.06 15.00 378.52 2532.42
   12:19:45.422.20-May-2020 4766.51 5491.22 69.06 15.00 378.72 2532.42
   12:19:45.622.20-May-2020 4766.51 5485.70 69.06 15.00 378.92 2532.42
   12:19:45.822.20-May-2020 4766.51 5481.79 69.06 15.00 379.12 2532.42
   12:19:46.022.20-May-2020 4766.51 5481.79 69.06 15.00 379.32 2532.42
   12:19:46.222.20-May-2020 4766.51 5485.77 69.06 15.00 379.52 2532.42
   12:19:46.422.20-May-2020 4766.51 5493.41 69.06 15.00 379.72 2532.42
   12:19:46.622.20-May-2020 4766.51 5482.60 69.06 15.00 379.92 2532.42
   12:19:46.822.20-May-2020 4766.51 5481.91 69.06 15.00 380.12 2532.42
   12:19:47.022.20-May-2020 4766.51 5481.91 69.06 15.00 380.32 2532.42
   12:19:47.222.20-May-2020 4766.51 5496.95 69.05 15.00 380.52 2532.42
   12:19:47.422.20-May-2020 4766.51 5483.53 69.05 15.00 380.72 2532.42
   12:19:47.623.20-May-2020 4766.51 5482.34 69.05 15.00 380.92 2532.42
   12:19:47.823.20-May-2020 4766.51 5481.62 69.05 15.00 381.12 2532.42
   12:19:48.023.20-May-2020 4766.51 5481.62 69.05 15.00 381.32 2532.42
   12:19:48.223.20-May-2020 4766.51 5482.65 69.05 15.00 381.52 2532.42
   12:19:48.423.20-May-2020 4766.51 5480.89 69.05 15.00 381.72 2532.42
   12:19:48.623.20-May-2020 4766.51 5480.47 69.05 15.00 381.92 2532.42
   12:19:48.823.20-May-2020 4766.51 5480.71 69.05 15.00 382.12 2532.42
   12:19:49.023.20-May-2020 4766.51 5480.71 69.05 15.00 382.32 2532.42
   12:19:49.223.20-May-2020 4766.51 5492.65 69.05 15.00 382.52 2532.42
   12:19:49.423.20-May-2020 4766.51 5481.09 69.05 15.00 382.72 2532.42
   12:19:49.623.20-May-2020 4766.51 5480.88 69.05 15.00 382.92 2532.42
   12:19:49.823.20-May-2020 4766.51 5480.22 69.05 15.00 383.12 2532.42
   12:19:50.023.20-May-2020 4766.51 5480.22 69.05 15.00 383.32 2532.42
   12:19:50.223.20-May-2020 4766.51 5482.20 69.05 15.00 383.52 2532.42
   12:19:50.423.20-May-2020 4766.51 5480.63 69.05 15.00 383.72 2532.42
   12:19:50.623.20-May-2020 4766.51 5480.38 69.05 15.00 383.92 2532.42
   12:19:50.824.20-May-2020 4766.51 5480.89 69.05 15.00 384.12 2532.42
