~Version Information
 VERS.                  2.0:   CWLS log ASCII Standard -VERSION 2.0
 WRAP.                   NO:   One line per depth step
~Well Information Block
#MNEM.UNIT     VALUE/NAME     DESCRIPTION
#---------     -----------    ---------------------------
 STRT.S             22:05:00 17-May-20: START TIME 22:05:00 17-May-20
 STOP.S             22:12:03 17-May-20: STOP TIME  22:12:03 17-May-20
 STEP.S                   0.00: STEP TIME
 NULL.                 -999.25: NULL VALUE
 UNIT.                     N/A:  LOGGING EQUIPMENT ID
 DCON.         Sperry Drilling:  DIRECTNL CONTR
 DOE .                     N/A:  DOE NUMBER
 JOBN.        AZ-XX-0906252240:  JOB TICKET NUMB
 MWDS.                     N/A:  MWD SHOP
 PROV.                    Baku:  PROVINCE
 STAT.                    Baku:  STATE NAME
 REGN.                   EESSA:  REGION
 BASE.              Azerbaijan:  LOGGING EQUIPMENT BASE LOCATION
 UWI .                     N/A:  UNIQUE WELL IDENTIFIER
 API .                     N/A:  API NUMBER
 MDS .        Operator Entered:  MAG DATA SOURCE
 WTYP.                Deviated:  WELL TYPE
 COMP.     BP Exploration (Caspian Sea) Ltd.:  COMPANY
 SRVC.          Turan Drilling:  CONTRACTOR
 WELL.           J23 (Slot 07):  WELL NAME
 CTRY.              Azerbaijan:  COUNTRY NAME
 FLD .                     ACG:  FIELD NAME
 PDAT.          Mean Sea Level:  PERMANENT DATUM
 RIG .             West Chirag:  RIG NAME
 SON .        AZ-XX-0906252240:  JOB NUMBER
 FTOP.          Formation Tops:  FORM TOPS DESC
 ILTD.               Lithology:  INTERP LTH DESC
 SVYD.                  Survey:  SURVEY DESC
 DMOD.             Drill Model:  DRILL MOD DESC
 HPTY.       Minimum Curvature:  HOLE POS TYPE
 NREF.                    Grid:  NORTH REFERENCE
 SPUD.               27-Aug-20:  SPUD DATE
 DATE.      00.00.00 19-May-20:  END TIME
 STIM.      03.00.00 25-Mar-20:  START TIME
 DMF .             Drill Floor:  DRILL MEAS FROM
 DFST.                        :  DIST FSL TEXT
 DFWT.                        :  DIST FWL TEXT
 CNTY.                        :  COUNTY
 LOC .                        :  LOCATION
 LMF .             Drill Floor:  LOG MEASURED FROM
 VSNS.m                   9.43:  VERT SEC N/S
 VSEW.m                  -8.91:  VERT SEC E/W
 AGAP.m                  43.00:  AIR GAP
 DEP .m                 354.17:  DEPTH
 APD .m                  43.00:  DEPTH ABOVE PD
 WDMS.m                 169.80:  WD ELEV
 EGL .m                   0.00:  GROUND ELEVATION
 EPD .m                   0.00:  ELEVATION
 AZTC.deg                 6.31:  AZM TOTAL CORR
 GRDC.deg                 0.14:  GRID CORRECTION
 MDEC.deg                 6.45:  MAGNETIC DECL
 MDIP.deg                59.56:  MAGNETIC DIP
 MFLD.nT              50295.00:  MAGNETIC FIELD
 GVFD.g                   1.00:  GRAVITY FIELD
 VSDR.deg               179.88:  VERT SEC DIRECT
 TDD .m                5150.01:  TOTAL DEPTH (DRILLER)
 SDEP.m                 864.00:  START DEPTH
 DFSL.m                   0.00:  DISTANCE FSL
 DFWL.m                   0.00:  DISTANCE FWL
 UTMY.m             4443793.85:  UTM Y
 UTMX.m              519005.06:  UTM X
 WHEW.m                  -8.91:  WELL HEAD E/W
 WHNS.m                   9.43:  WELL HEAD N/S
 LONG.deg                51.22:  LONGITUDE
 LATI.deg                40.13:  LATITUDE
 TVDS.m                  43.00:  TVDSS CORRECTN
 EKB .m                   0.00:  KB ELEVATION
 EDF .m                  43.00:  DF ELEVATION
 TDL .m                 363.00:  TOTAL DEPTH (LOGGER)
 MAGU.                 1850802:  MAGUTM CHECKSUM
 VSC .                       0:  VS TO CLOSURE
~Parameter Information Block
#MNEM.UNIT       Value        Description
#---------     -----------    ---------------------------
 AV  .mps                 2.30:  Ann Velocity 
 AVMX.mps                 4.40:  Max Ann Veloc 
 AZIF.deg               110.24:  Azm, Final 
 BHAT.        Rotary Steerable:  BHA Type 
 BREV.rev               331.00:  Rev Bit Total 
 BROT.°/30m               0.00:  Build Rotating 
 BS  .in                  8.50:  Bit Size 
 BSZ .in                  8.50:  Bit Size 
 BTPL.psig              585.00:  Bit Press Loss 
 CABU.                     Yes:  Customer Abuse 
 COMM.                     íe:  Run Comments 1 
 TCS .hr                122.75:  Time Ciculation Ended 
 CV  .mps                 2.67:  Crit Velocity 
 CVMX.mps                 3.56:  Max Crit Veloc 
 DD1 .          Rashad Habibov:  Direct Drillr 1 
 DD2 .         Rasim Ibrahimov:  Direct Drillr 2 
 DDSV.               Geo-Pilot:  DD Service 
 DEFF.%                  98.00:  % Det Eff 
 DLRX.°/30m               0.75:  Dogleg Rot Max 
 DLSO.°/30m               1.25:  Dogleg Oriented 
 DLSX.°/30m               2.06:  Dogleg Str Max 
 DRET.      07.45.00 17-May-20:  Drill End Time 
 DRST.      22.50.00 15-May-20:  Drill Start Tim 
 DTIM.hr                 20.75:  Time Drilling 
 EDEP.m                5124.01:  End Depth 
 ENG1.           Eldar Hajiyev:  Engineer 1 
 ENG2.        Marcelo Sandoval:  Engineer 2 
 ENG3.        Davud huseynzada:  Engineer 3 
 ENG4.          Ruslan Safarov:  Engineer 4 
 ETIM.      04.33.00 23-May-20:  End Time 
 FLOI.gpm               450.00:  Flow In 
 FLON.gpm               400.00:  Flow In Min 
 FLOS.cptm                0.00:  Fluid Loss 
 FLOX.gpm               500.00:  Flow In Max 
 FTRO.       Formation Presure:  FTWD Run Obj 
 HFLO.                      No:  High Flow 
 HPRE.                     Yes:  High Pressure 
 HTEM.                      No:  High Temp 
 HYDO.m                   1.80:  Hydro Offset 
 IFIN.deg                75.06:  Inc, Final 
 IMAX.deg                75.38:  Inc Max 
 IMIN.deg                74.69:  Inc Min 
 IMND.m                5027.38:  Inc Min Depth 
 IMXD.m                4771.61:  Inc Max Depth 
 JARR.                      No:  Jarring 
 LETM.      07.45.00 17-May-20:  Log End Time 
 LOST.hr                     0:  Lost Rig Time 
 LSTM.      22.50.00 15-May-20:  Log Start Time 
 MDCL.ppm             42000.00:  Mud Chlorides 
 MDES.     Inversion Oil/Synthetic:  Mud Desc 
 DFD .sg                  1.34:  Mud Density 
 MDMN.sg                  1.34:  Dens Mud Min 
 MDMX.sg                  1.34:  Dens Mud Max 
 MOIL.                       0:  Run Mud Oil % 
 MOWR.                   67:33:  Run Mud OWR 
 MSND.                       0:  Run Mud Sand % 
 MSOL.                     1.8:  Run Mud Solids% 
 DFV .spqt               76.00:  Mud Viscosity 
 MWOD.in                  6.75:  MWD Tool OD 
 MWSI.                      No:  Serv Intrp, MWD 
 OTIM.hr                228.19:  Time Operating 
 PCON.           Look Like New:  Pad Condition 
 PMAX.psia             6164.70:  Press Op, Max 
 PV  .cP                 28.00:  Mud PV 
 RUN .                     900:  Run Number 
 ROPA.m/hr               19.00:  ROP Avg 
 ROPN.m/hr               11.00:  ROP Min 
 ROPX.m/hr               36.00:  ROP Max 
 RPMA.rpm               120.00:  RPM Surface Avg 
 RPMN.rpm               120.00:  RPM Surface Min 
 RPMX.rpm               120.00:  RPM Surface Max 
 RRUN.                    L604:  Rig Run Number 
 RTIM.hr                  7.00:  Time Reaming 
 SAZI.deg               109.27:  Azm, Start 
 SDEP.m                4761.01:  Start Depth 
 SIDD.                      No:  Serv Intrp, DD 
 SINC.deg                75.38:  Inc, Start 
 SPPA.psig             3574.00:  SPP Avg 
 SPPN.psig             3475.00:  SPP Min 
 SPPX.psig             3791.00:  SPP Max 
 STIM.      07.08.48 13-May-20:  Start Time 
 SVCS.                 DD, MWD:  Services 
 SVER.                    9.20:  Sperry Version 
 TDAT.m                 363.00:  Tot Depth Attmp 
 TDDF.                      No:  Trip for DD 
 TDLG.m                 363.00:  Tot Depth Loggd 
 TFF .                      No:  Trip for Fail 
 TQAA.f-kp               20.00:  Torque Abs Avg 
 TQAN.f-kp               18.00:  Torque Abs Min 
 TQAX.f-kp               22.00:  Torque Abs Max 
 TRRT.°/30m              -0.35:  Turn Rotating 
 MRT .                    HCIM:  Maximum Recorded Temperature 
 TTMX.degC               92.16:  Max Tool Temp 
 VS01.                90586518:  Virtual Str1 SN 
 VS02.        AZ90560654Z1W1C6:  Virtual Str2 SN 
 VS03.           AZ90610398F11:  Virtual Str3 SN 
 VS04.                90514975:  Virtual Str4 SN 
 VS05.                90514972:  Virtual Str5 SN 
 VS06.     AZ90603282F11V7D1A6:  Virtual Str6 SN 
 WBMN.klb                 7.00:  WOB Min 
 WOBA.klb                12.00:  WOB Avg 
 WOBX.klb                14.00:  WOB Max 
 YP  .lhf2               32.00:  Yield Point 
~Curve Information Block
#MNEM.UNIT                 API CODE     Curve Description
#---------               -----------    ---------------------------
 TIME.HHMMSS            00 000 000 000:  GT Time & Date
 GTDEPTH.m              00 000 000 000:  GT Depth
 GTPQH.psia             00 000 000 000:  GT HR Quartz Pressure
 GTTQ.degC              00 000 000 000:  GT Quartz Temperature
 GTTN.NONE              00 000 000 000:  GT Test Number
 GTET.sec               00 000 000 000:  GT Elapsed Test Time
 GTTVD.m                00 000 000 000:  GT True Vertical Depth
#Other Information
#
#WARRANTY: Halliburton will use its best efforts to furnish customers with 
#accurate information and interpretations that are part of, and incident to, the services 
#provided.  However, Halliburton cannot and does not warrant the accuracy 
#or correctness of such information and interpretations.  Under no circumstances should any 
#such information or interpretation be relied upon as the sole basis for any drilling, 
#completion, production, or financial decision or any procedure involving any risk to the 
#safety of any drilling venture, drilling rig or its crew or any other third party.  The 
#Customer has full responsibility for all drilling, completion and production operation.  
#Halliburton makes no representations or warranties, either expressed or 
#implied, including, but not limited to, the implied warranties of merchantability or fitness 
#for a particular purpose, with respect to the services rendered.  In no event will 
#Halliburton be liable for failure to obtain any particular results or for 
#any damages, including, but not limited to, indirect, special or consequential damages, 
#resulting from the use of any information or interpretation provided by Halliburton.
#
~A           TIME           GTDEPTH  GTPQH  GTTQ  GTTN  GTET   GTTVD  
# ...
   22:11:32.510.17-May-2020 4937.01 5538.15 67.66 7.00 391.72 2576.47
   22:11:32.710.17-May-2020 4937.01 5538.15 67.66 7.00 391.92 2576.47
   22:11:32.910.17-May-2020 4937.01 5552.26 67.66 7.00 392.12 2576.47
   22:11:33.111.17-May-2020 4937.01 5532.46 67.66 7.00 392.32 2576.47
   22:11:33.311.17-May-2020 4937.01 5547.83 67.66 7.00 392.52 2576.47
   22:11:33.511.17-May-2020 4937.01 5537.95 67.66 7.00 392.72 2576.47
   22:11:33.712.17-May-2020 4937.01 5537.95 67.66 7.00 392.92 2576.47
   22:11:33.912.17-May-2020 4937.01 5551.30 67.66 7.00 393.12 2576.47
   22:11:34.113.17-May-2020 4937.01 5537.14 67.66 7.00 393.32 2576.47
   22:11:34.313.17-May-2020 4937.01 5550.47 67.66 7.00 393.52 2576.47
   22:11:34.513.17-May-2020 4937.01 5551.71 67.66 7.00 393.72 2576.47
   22:11:34.714.17-May-2020 4937.01 5551.71 67.66 7.00 393.92 2576.47
   22:11:34.914.17-May-2020 4937.01 5544.81 67.66 7.00 394.12 2576.47
   22:11:35.114.17-May-2020 4937.01 5544.27 67.66 7.00 394.32 2576.47
   22:11:35.315.17-May-2020 4937.01 5553.91 67.66 7.00 394.52 2576.47
   22:11:35.515.17-May-2020 4937.01 5539.87 67.66 7.00 394.72 2576.47
   22:11:35.715.17-May-2020 4937.01 5545.23 67.66 7.00 394.92 2576.47
   22:11:35.916.17-May-2020 4937.01 5547.47 67.66 7.00 395.12 2576.47
   22:11:36.116.17-May-2020 4937.01 5542.31 67.66 7.00 395.33 2576.47
   22:11:36.317.17-May-2020 4937.01 5543.07 67.66 7.00 395.53 2576.47
   22:11:36.517.17-May-2020 4937.01 5541.31 67.66 7.00 395.73 2576.47
   22:11:36.717.17-May-2020 4937.01 5541.31 67.66 7.00 395.93 2576.47
   22:11:36.918.17-May-2020 4937.01 5540.19 67.66 7.00 396.13 2576.47
   22:11:37.118.17-May-2020 4937.01 5540.05 67.66 7.00 396.33 2576.47
   22:11:37.318.17-May-2020 4937.01 5545.51 67.66 7.00 396.53 2576.47
   22:11:37.519.17-May-2020 4937.01 5544.10 67.66 7.00 396.73 2576.47
   22:11:37.719.17-May-2020 4937.01 5544.10 67.66 7.00 396.93 2576.47
   22:11:37.920.17-May-2020 4937.01 5547.50 67.66 7.00 397.13 2576.47
   22:11:38.120.17-May-2020 4937.01 5539.47 67.65 7.00 397.33 2576.47
   22:11:38.320.17-May-2020 4937.01 5541.87 67.65 7.00 397.53 2576.47
   22:11:38.521.17-May-2020 4937.01 5539.29 67.65 7.00 397.73 2576.47
   22:11:38.721.17-May-2020 4937.01 5539.29 67.65 7.00 397.93 2576.47
   22:11:38.921.17-May-2020 4937.01 5538.72 67.65 7.00 398.13 2576.47
   22:11:39.122.17-May-2020 4937.01 5539.01 67.65 7.00 398.33 2576.47
   22:11:39.322.17-May-2020 4937.01 5538.99 67.65 7.00 398.53 2576.47
   22:11:39.522.17-May-2020 4937.01 5537.91 67.65 7.00 398.73 2576.47
   22:11:39.723.17-May-2020 4937.01 5549.01 67.65 7.00 398.93 2576.47
   22:11:39.923.17-May-2020 4937.01 5536.25 67.65 7.00 399.13 2576.47
   22:11:40.124.17-May-2020 4937.01 5550.12 67.65 7.00 399.33 2576.47
   22:11:40.324.17-May-2020 4937.01 5537.32 67.65 7.00 399.53 2576.47
   22:11:40.524.17-May-2020 4937.01 5546.81 67.65 7.00 399.73 2576.47
   22:11:40.725.17-May-2020 4937.01 5546.81 67.65 7.00 399.93 2576.47
   22:11:40.925.17-May-2020 4937.01 5538.77 67.65 7.00 400.13 2576.47
   22:11:41.125.17-May-2020 4937.01 5548.82 67.65 7.00 400.33 2576.47
   22:11:41.326.17-May-2020 4937.01 5549.94 67.65 7.00 400.53 2576.47
   22:11:41.526.17-May-2020 4937.01 5541.30 67.65 7.00 400.74 2576.47
   22:11:41.727.17-May-2020 4937.01 5541.30 67.65 7.00 400.94 2576.47
   22:11:41.927.17-May-2020 4937.01 5554.67 67.65 7.00 401.14 2576.47
   22:11:42.127.17-May-2020 4937.01 5537.82 67.65 7.00 401.34 2576.47
   22:11:42.328.17-May-2020 4937.01 5548.65 67.65 7.00 401.54 2576.47
   22:11:42.528.17-May-2020 4937.01 5543.80 67.65 7.00 401.74 2576.47
   22:11:42.728.17-May-2020 4937.01 5543.80 67.65 7.00 401.94 2576.47
   22:11:42.929.17-May-2020 4937.01 5542.92 67.65 7.00 402.14 2576.47
   22:11:43.129.17-May-2020 4937.01 5541.55 67.65 7.00 402.34 2576.47
   22:11:43.329.17-May-2020 4937.01 5541.05 67.65 7.00 402.54 2576.47
   22:11:43.530.17-May-2020 4937.01 5540.46 67.65 7.00 402.74 2576.47
   22:11:43.730.17-May-2020 4937.01 5540.46 67.65 7.00 402.94 2576.47
   22:11:43.931.17-May-2020 4937.01 5550.82 67.65 7.00 403.14 2576.47
   22:11:44.131.17-May-2020 4937.01 5539.42 67.65 7.00 403.34 2576.47
   22:11:44.331.17-May-2020 4937.01 5541.47 67.65 7.00 403.54 2576.47
   22:11:44.532.17-May-2020 4937.01 5545.77 67.65 7.00 403.74 2576.47
   22:11:44.732.17-May-2020 4937.01 5545.77 67.65 7.00 403.94 2576.47
   22:11:44.932.17-May-2020 4937.01 5541.06 67.65 7.00 404.14 2576.47
   22:11:45.133.17-May-2020 4937.01 5539.11 67.65 7.00 404.34 2576.47
   22:11:45.333.17-May-2020 4937.01 5539.26 67.65 7.00 404.54 2576.47
   22:11:45.533.17-May-2020 4937.01 5538.13 67.65 7.00 404.74 2576.47
   22:11:45.734.17-May-2020 4937.01 5538.13 67.65 7.00 404.94 2576.47
   22:11:45.934.17-May-2020 4937.01 5538.22 67.65 7.00 405.14 2576.47
   22:11:46.135.17-May-2020 4937.01 5540.65 67.65 7.00 405.34 2576.47
   22:11:46.335.17-May-2020 4937.01 5545.59 67.65 7.00 405.54 2576.47
   22:11:46.535.17-May-2020 4937.01 5536.91 67.65 7.00 405.74 2576.47
   22:11:46.736.17-May-2020 4937.01 5536.91 67.65 7.00 405.94 2576.47
   22:11:46.936.17-May-2020 4937.01 5538.20 67.64 7.00 406.14 2576.47
   22:11:47.136.17-May-2020 4937.01 5545.81 67.64 7.00 406.35 2576.47
   22:11:47.337.17-May-2020 4937.01 5545.72 67.64 7.00 406.55 2576.47
   22:11:47.537.17-May-2020 4937.01 5538.94 67.64 7.00 406.75 2576.47
   22:11:47.738.17-May-2020 4937.01 5548.38 67.64 7.00 406.95 2576.47
   22:11:47.938.17-May-2020 4937.01 5549.48 67.64 7.00 407.15 2576.47
   22:11:48.138.17-May-2020 4937.01 5540.70 67.64 7.00 407.35 2576.47
   22:11:48.339.17-May-2020 4937.01 5551.20 67.64 7.00 407.55 2576.47
   22:11:48.539.17-May-2020 4937.01 5538.45 67.64 7.00 407.75 2576.47
   22:11:48.739.17-May-2020 4937.01 5538.45 67.64 7.00 407.95 2576.47
   22:11:48.940.17-May-2020 4937.01 5537.59 67.64 7.00 408.15 2576.47
   22:11:49.140.17-May-2020 4937.01 5552.69 67.64 7.00 408.35 2576.47
   22:11:49.340.17-May-2020 4937.01 5538.85 67.64 7.00 408.55 2576.47
   22:11:49.541.17-May-2020 4937.01 5544.08 67.64 7.00 408.75 2576.47
   22:11:49.741.17-May-2020 4937.01 5544.08 67.64 7.00 408.95 2576.47
   22:11:49.942.17-May-2020 4937.01 5540.42 67.64 7.00 409.15 2576.47
   22:11:50.142.17-May-2020 4937.01 5539.27 67.64 7.00 409.35 2576.47
   22:11:50.342.17-May-2020 4937.01 5539.81 67.64 7.00 409.55 2576.47
   22:11:50.543.17-May-2020 4937.01 5539.33 67.64 7.00 409.75 2576.47
   22:11:50.743.17-May-2020 4937.01 5539.33 67.64 7.00 409.95 2576.47
   22:11:50.943.17-May-2020 4937.01 5533.32 67.64 7.00 410.15 2576.47
   22:11:51.144.17-May-2020 4937.01 5548.41 67.64 7.00 410.35 2576.47
   22:11:51.344.17-May-2020 4937.01 5536.57 67.64 7.00 410.55 2576.47
   22:11:51.545.17-May-2020 4937.01 5541.53 67.64 7.00 410.75 2576.47
   22:11:51.745.17-May-2020 4937.01 5538.05 67.64 7.00 410.95 2576.47
   22:11:51.945.17-May-2020 4937.01 5538.31 67.64 7.00 411.15 2576.47
   22:11:52.146.17-May-2020 4937.01 5537.73 67.64 7.00 411.35 2576.47
   22:11:52.346.17-May-2020 4937.01 5538.14 67.64 7.00 411.55 2576.47
   22:11:52.546.17-May-2020 4937.01 5537.70 67.64 7.00 411.76 2576.47
   22:11:52.747.17-May-2020 4937.01 5537.70 67.64 7.00 411.96 2576.47
   22:11:52.947.17-May-2020 4937.01 5550.60 67.64 7.00 412.16 2576.47
   22:11:53.147.17-May-2020 4937.01 5533.56 67.64 7.00 412.36 2576.47
   22:11:53.348.17-May-2020 4937.01 5543.34 67.64 7.00 412.56 2576.47
   22:11:53.548.17-May-2020 4937.01 5541.63 67.64 7.00 412.76 2576.47
   22:11:53.749.17-May-2020 4937.01 5541.63 67.64 7.00 412.96 2576.47
   22:11:53.949.17-May-2020 4937.01 5554.91 67.64 7.00 413.16 2576.47
   22:11:54.149.17-May-2020 4937.01 5534.12 67.64 7.00 413.36 2576.47
   22:11:54.350.17-May-2020 4937.01 5545.93 67.64 7.00 413.56 2576.47
   22:11:54.550.17-May-2020 4937.01 5555.01 67.64 7.00 413.76 2576.47
   22:11:54.750.17-May-2020 4937.01 5555.01 67.64 7.00 413.96 2576.47
   22:11:54.951.17-May-2020 4937.01 5547.53 67.64 7.00 414.16 2576.47
   22:11:55.151.17-May-2020 4937.01 5541.45 67.64 7.00 414.36 2576.47
   22:11:55.352.17-May-2020 4937.01 5556.11 67.64 7.00 414.56 2576.47
