~Version Information
 VERS.                  2.0:   CWLS log ASCII Standard -VERSION 2.0
 WRAP.                   NO:   One line per depth step
~Well Information Block
#MNEM.UNIT     VALUE/NAME     DESCRIPTION
#---------     -----------    ---------------------------
 STRT.S             22:49:31 17-May-20: START TIME 22:49:31 17-May-20
 STOP.S             22:56:24 17-May-20: STOP TIME  22:56:24 17-May-20
 STEP.S                   0.00: STEP TIME
 NULL.                 -999.25: NULL VALUE
 UNIT.                     N/A:  LOGGING EQUIPMENT ID
 DCON.         Sperry Drilling:  DIRECTNL CONTR
 DOE .                     N/A:  DOE NUMBER
 JOBN.        AZ-XX-0906252240:  JOB TICKET NUMB
 MWDS.                     N/A:  MWD SHOP
 PROV.                    Baku:  PROVINCE
 STAT.                    Baku:  STATE NAME
 REGN.                   EESSA:  REGION
 BASE.              Azerbaijan:  LOGGING EQUIPMENT BASE LOCATION
 UWI .                     N/A:  UNIQUE WELL IDENTIFIER
 API .                     N/A:  API NUMBER
 MDS .        Operator Entered:  MAG DATA SOURCE
 WTYP.                Deviated:  WELL TYPE
 COMP.     BP Exploration (Caspian Sea) Ltd.:  COMPANY
 SRVC.          Turan Drilling:  CONTRACTOR
 WELL.           J23 (Slot 07):  WELL NAME
 CTRY.              Azerbaijan:  COUNTRY NAME
 FLD .                     ACG:  FIELD NAME
 PDAT.          Mean Sea Level:  PERMANENT DATUM
 RIG .             West Chirag:  RIG NAME
 SON .        AZ-XX-0906252240:  JOB NUMBER
 FTOP.          Formation Tops:  FORM TOPS DESC
 ILTD.               Lithology:  INTERP LTH DESC
 SVYD.                  Survey:  SURVEY DESC
 DMOD.             Drill Model:  DRILL MOD DESC
 HPTY.       Minimum Curvature:  HOLE POS TYPE
 NREF.                    Grid:  NORTH REFERENCE
 SPUD.               27-Aug-20:  SPUD DATE
 DATE.      00.00.00 19-May-20:  END TIME
 STIM.      03.00.00 25-Mar-20:  START TIME
 DMF .             Drill Floor:  DRILL MEAS FROM
 DFST.                        :  DIST FSL TEXT
 DFWT.                        :  DIST FWL TEXT
 CNTY.                        :  COUNTY
 LOC .                        :  LOCATION
 LMF .             Drill Floor:  LOG MEASURED FROM
 VSNS.m                   9.43:  VERT SEC N/S
 VSEW.m                  -8.91:  VERT SEC E/W
 AGAP.m                  43.00:  AIR GAP
 DEP .m                 354.17:  DEPTH
 APD .m                  43.00:  DEPTH ABOVE PD
 WDMS.m                 169.80:  WD ELEV
 EGL .m                   0.00:  GROUND ELEVATION
 EPD .m                   0.00:  ELEVATION
 AZTC.deg                 6.31:  AZM TOTAL CORR
 GRDC.deg                 0.14:  GRID CORRECTION
 MDEC.deg                 6.45:  MAGNETIC DECL
 MDIP.deg                59.56:  MAGNETIC DIP
 MFLD.nT              50295.00:  MAGNETIC FIELD
 GVFD.g                   1.00:  GRAVITY FIELD
 VSDR.deg               179.88:  VERT SEC DIRECT
 TDD .m                5150.01:  TOTAL DEPTH (DRILLER)
 SDEP.m                 864.00:  START DEPTH
 DFSL.m                   0.00:  DISTANCE FSL
 DFWL.m                   0.00:  DISTANCE FWL
 UTMY.m             4443793.85:  UTM Y
 UTMX.m              519005.06:  UTM X
 WHEW.m                  -8.91:  WELL HEAD E/W
 WHNS.m                   9.43:  WELL HEAD N/S
 LONG.deg                51.22:  LONGITUDE
 LATI.deg                40.13:  LATITUDE
 TVDS.m                  43.00:  TVDSS CORRECTN
 EKB .m                   0.00:  KB ELEVATION
 EDF .m                  43.00:  DF ELEVATION
 TDL .m                 363.00:  TOTAL DEPTH (LOGGER)
 MAGU.                 1850802:  MAGUTM CHECKSUM
 VSC .                       0:  VS TO CLOSURE
~Parameter Information Block
#MNEM.UNIT       Value        Description
#---------     -----------    ---------------------------
 AV  .mps                 2.30:  Ann Velocity 
 AVMX.mps                 4.40:  Max Ann Veloc 
 AZIF.deg               110.24:  Azm, Final 
 BHAT.        Rotary Steerable:  BHA Type 
 BREV.rev               331.00:  Rev Bit Total 
 BROT.°/30m               0.00:  Build Rotating 
 BS  .in                  8.50:  Bit Size 
 BSZ .in                  8.50:  Bit Size 
 BTPL.psig              585.00:  Bit Press Loss 
 CABU.                     Yes:  Customer Abuse 
 COMM.                     ¼´€:  Run Comments 1 
 TCS .hr                122.75:  Time Ciculation Ended 
 CV  .mps                 2.67:  Crit Velocity 
 CVMX.mps                 3.56:  Max Crit Veloc 
 DD1 .          Rashad Habibov:  Direct Drillr 1 
 DD2 .         Rasim Ibrahimov:  Direct Drillr 2 
 DDSV.               Geo-Pilot:  DD Service 
 DEFF.%                  98.00:  % Det Eff 
 DLRX.°/30m               0.75:  Dogleg Rot Max 
 DLSO.°/30m               1.25:  Dogleg Oriented 
 DLSX.°/30m               2.06:  Dogleg Str Max 
 DRET.      07.45.00 17-May-20:  Drill End Time 
 DRST.      22.50.00 15-May-20:  Drill Start Tim 
 DTIM.hr                 20.75:  Time Drilling 
 EDEP.m                5124.01:  End Depth 
 ENG1.           Eldar Hajiyev:  Engineer 1 
 ENG2.        Marcelo Sandoval:  Engineer 2 
 ENG3.        Davud huseynzada:  Engineer 3 
 ENG4.          Ruslan Safarov:  Engineer 4 
 ETIM.      04.33.00 23-May-20:  End Time 
 FLOI.gpm               450.00:  Flow In 
 FLON.gpm               400.00:  Flow In Min 
 FLOS.cptm                0.00:  Fluid Loss 
 FLOX.gpm               500.00:  Flow In Max 
 FTRO.       Formation Presure:  FTWD Run Obj 
 HFLO.                      No:  High Flow 
 HPRE.                     Yes:  High Pressure 
 HTEM.                      No:  High Temp 
 HYDO.m                   1.80:  Hydro Offset 
 IFIN.deg                75.06:  Inc, Final 
 IMAX.deg                75.38:  Inc Max 
 IMIN.deg                74.69:  Inc Min 
 IMND.m                5027.38:  Inc Min Depth 
 IMXD.m                4771.61:  Inc Max Depth 
 JARR.                      No:  Jarring 
 LETM.      07.45.00 17-May-20:  Log End Time 
 LOST.hr                     0:  Lost Rig Time 
 LSTM.      22.50.00 15-May-20:  Log Start Time 
 MDCL.ppm             42000.00:  Mud Chlorides 
 MDES.     Inversion Oil/Synthetic:  Mud Desc 
 DFD .sg                  1.34:  Mud Density 
 MDMN.sg                  1.34:  Dens Mud Min 
 MDMX.sg                  1.34:  Dens Mud Max 
 MOIL.                       0:  Run Mud Oil % 
 MOWR.                   67:33:  Run Mud OWR 
 MSND.                       0:  Run Mud Sand % 
 MSOL.                     1.8:  Run Mud Solids% 
 DFV .spqt               76.00:  Mud Viscosity 
 MWOD.in                  6.75:  MWD Tool OD 
 MWSI.                      No:  Serv Intrp, MWD 
 OTIM.hr                228.19:  Time Operating 
 PCON.           Look Like New:  Pad Condition 
 PMAX.psia             6164.70:  Press Op, Max 
 PV  .cP                 28.00:  Mud PV 
 RUN .                     900:  Run Number 
 ROPA.m/hr               19.00:  ROP Avg 
 ROPN.m/hr               11.00:  ROP Min 
 ROPX.m/hr               36.00:  ROP Max 
 RPMA.rpm               120.00:  RPM Surface Avg 
 RPMN.rpm               120.00:  RPM Surface Min 
 RPMX.rpm               120.00:  RPM Surface Max 
 RRUN.                    L604:  Rig Run Number 
 RTIM.hr                  7.00:  Time Reaming 
 SAZI.deg               109.27:  Azm, Start 
 SDEP.m                4761.01:  Start Depth 
 SIDD.                      No:  Serv Intrp, DD 
 SINC.deg                75.38:  Inc, Start 
 SPPA.psig             3574.00:  SPP Avg 
 SPPN.psig             3475.00:  SPP Min 
 SPPX.psig             3791.00:  SPP Max 
 STIM.      07.08.48 13-May-20:  Start Time 
 SVCS.                 DD, MWD:  Services 
 SVER.                    9.20:  Sperry Version 
 TDAT.m                 363.00:  Tot Depth Attmp 
 TDDF.                      No:  Trip for DD 
 TDLG.m                 363.00:  Tot Depth Loggd 
 TFF .                      No:  Trip for Fail 
 TQAA.f-kp               20.00:  Torque Abs Avg 
 TQAN.f-kp               18.00:  Torque Abs Min 
 TQAX.f-kp               22.00:  Torque Abs Max 
 TRRT.°/30m              -0.35:  Turn Rotating 
 MRT .                    HCIM:  Maximum Recorded Temperature 
 TTMX.degC               92.16:  Max Tool Temp 
 VS01.                90586518:  Virtual Str1 SN 
 VS02.        AZ90560654Z1W1C6:  Virtual Str2 SN 
 VS03.           AZ90610398F11:  Virtual Str3 SN 
 VS04.                90514975:  Virtual Str4 SN 
 VS05.                90514972:  Virtual Str5 SN 
 VS06.     AZ90603282F11V7D1A6:  Virtual Str6 SN 
 WBMN.klb                 7.00:  WOB Min 
 WOBA.klb                12.00:  WOB Avg 
 WOBX.klb                14.00:  WOB Max 
 YP  .lhf2               32.00:  Yield Point 
~Curve Information Block
#MNEM.UNIT                 API CODE     Curve Description
#---------               -----------    ---------------------------
 TIME.HHMMSS            00 000 000 000:  GT Time & Date
 GTDEPTH.m              00 000 000 000:  GT Depth
 GTPQH.psia             00 000 000 000:  GT HR Quartz Pressure
 GTTQ.degC              00 000 000 000:  GT Quartz Temperature
 GTTN.NONE              00 000 000 000:  GT Test Number
 GTET.sec               00 000 000 000:  GT Elapsed Test Time
 GTTVD.m                00 000 000 000:  GT True Vertical Depth
#Other Information
#
#WARRANTY: Halliburton will use its best efforts to furnish customers with 
#accurate information and interpretations that are part of, and incident to, the services 
#provided.  However, Halliburton cannot and does not warrant the accuracy 
#or correctness of such information and interpretations.  Under no circumstances should any 
#such information or interpretation be relied upon as the sole basis for any drilling, 
#completion, production, or financial decision or any procedure involving any risk to the 
#safety of any drilling venture, drilling rig or its crew or any other third party.  The 
#Customer has full responsibility for all drilling, completion and production operation.  
#Halliburton makes no representations or warranties, either expressed or 
#implied, including, but not limited to, the implied warranties of merchantability or fitness 
#for a particular purpose, with respect to the services rendered.  In no event will 
#Halliburton be liable for failure to obtain any particular results or for 
#any damages, including, but not limited to, indirect, special or consequential damages, 
#resulting from the use of any information or interpretation provided by Halliburton.
#
~A           TIME           GTDEPTH  GTPQH  GTTQ  GTTN  GTET   GTTVD  
# ...
   22:52:35.432.17-May-2020 4908.51   67.78 67.18 8.00 183.91 2569.17
   22:52:35.632.17-May-2020 4908.51   67.92 67.18 8.00 184.11 2569.17
   22:52:35.832.17-May-2020 4908.51   68.11 67.18 8.00 184.31 2569.17
   22:52:36.032.17-May-2020 4908.51   68.33 67.18 8.00 184.51 2569.17
   22:52:36.232.17-May-2020 4908.51   68.45 67.18 8.00 184.71 2569.17
   22:52:36.432.17-May-2020 4908.51   68.60 67.18 8.00 184.91 2569.17
   22:52:36.632.17-May-2020 4908.51   68.77 67.18 8.00 185.11 2569.17
   22:52:36.832.17-May-2020 4908.51   69.00 67.18 8.00 185.30 2569.17
   22:52:37.031.17-May-2020 4908.51   69.12 67.18 8.00 185.50 2569.17
   22:52:37.231.17-May-2020 4908.51   69.27 67.18 8.00 185.70 2569.17
   22:52:37.431.17-May-2020 4908.51   69.45 67.18 8.00 185.90 2569.17
   22:52:37.631.17-May-2020 4908.51   69.45 67.18 8.00 186.10 2569.17
   22:52:37.831.17-May-2020 4908.51   69.85 67.18 8.00 186.30 2569.17
   22:52:38.031.17-May-2020 4908.51   69.98 67.18 8.00 186.50 2569.17
   22:52:38.231.17-May-2020 4908.51   70.13 67.18 8.00 186.70 2569.17
   22:52:38.431.17-May-2020 4908.51   70.31 67.18 8.00 186.90 2569.17
   22:52:38.631.17-May-2020 4908.51   70.31 67.18 8.00 187.10 2569.17
   22:52:38.830.17-May-2020 4908.51   70.65 67.18 8.00 187.30 2569.17
   22:52:39.030.17-May-2020 4908.51   70.82 67.18 8.00 187.50 2569.17
   22:52:39.230.17-May-2020 4908.51   71.00 67.18 8.00 187.70 2569.17
   22:52:39.430.17-May-2020 4908.51   71.18 67.18 8.00 187.90 2569.17
   22:52:39.630.17-May-2020 4908.51   71.35 67.18 8.00 188.10 2569.17
   22:52:39.830.17-May-2020 4908.51   71.60 67.18 8.00 188.30 2569.17
   22:52:40.030.17-May-2020 4908.51   71.74 67.18 8.00 188.50 2569.17
   22:52:40.230.17-May-2020 4908.51   71.89 67.18 8.00 188.70 2569.17
   22:52:40.430.17-May-2020 4908.51   72.07 67.18 8.00 188.90 2569.17
   22:52:40.630.17-May-2020 4908.51   72.24 67.18 8.00 189.10 2569.17
   22:52:40.829.17-May-2020 4908.51   72.42 67.18 8.00 189.30 2569.17
   22:52:41.029.17-May-2020 4908.51   72.60 67.18 8.00 189.50 2569.17
   22:52:41.229.17-May-2020 4908.51   72.78 67.18 8.00 189.70 2569.17
   22:52:41.429.17-May-2020 4908.51   72.95 67.18 8.00 189.90 2569.17
   22:52:41.629.17-May-2020 4908.51   72.95 67.18 8.00 190.10 2569.17
   22:52:41.829.17-May-2020 4908.51   73.36 67.18 8.00 190.30 2569.17
   22:52:42.029.17-May-2020 4908.51   73.55 67.18 8.00 190.50 2569.17
   22:52:42.229.17-May-2020 4908.51   73.69 67.18 8.00 190.70 2569.17
   22:52:42.429.17-May-2020 4908.51   73.90 67.18 8.00 190.90 2569.17
   22:52:42.629.17-May-2020 4908.51   73.90 67.18 8.00 191.10 2569.17
   22:52:42.828.17-May-2020 4908.51   74.25 67.18 8.00 191.30 2569.17
   22:52:43.028.17-May-2020 4908.51   74.43 67.18 8.00 191.50 2569.17
   22:52:43.228.17-May-2020 4908.51   74.63 67.18 8.00 191.70 2569.17
   22:52:43.428.17-May-2020 4908.51   74.86 67.18 8.00 191.90 2569.17
   22:52:43.628.17-May-2020 4908.51   75.00 67.18 8.00 192.10 2569.17
   22:52:43.828.17-May-2020 4908.51   75.17 67.18 8.00 192.30 2569.17
   22:52:44.028.17-May-2020 4908.51   75.36 67.18 8.00 192.50 2569.17
   22:52:44.228.17-May-2020 4908.51   75.57 67.18 8.00 192.70 2569.17
   22:52:44.428.17-May-2020 4908.51   75.78 67.18 8.00 192.90 2569.17
   22:52:44.628.17-May-2020 4908.51   75.93 67.18 8.00 193.10 2569.17
   22:52:44.827.17-May-2020 4908.51   76.12 67.18 8.00 193.30 2569.17
   22:52:45.027.17-May-2020 4908.51   76.30 67.18 8.00 193.50 2569.17
   22:52:45.227.17-May-2020 4908.51   76.49 67.18 8.00 193.70 2569.17
   22:52:45.427.17-May-2020 4908.51   76.68 67.18 8.00 193.90 2569.17
   22:52:45.627.17-May-2020 4908.51   76.68 67.18 8.00 194.10 2569.17
   22:52:45.827.17-May-2020 4908.51   77.06 67.18 8.00 194.30 2569.17
   22:52:46.027.17-May-2020 4908.51   77.26 67.18 8.00 194.50 2569.17
   22:52:46.227.17-May-2020 4908.51   77.47 67.18 8.00 194.70 2569.17
   22:52:46.427.17-May-2020 4908.51   77.71 67.18 8.00 194.90 2569.17
   22:52:46.626.17-May-2020 4908.51   77.71 67.18 8.00 195.10 2569.17
   22:52:46.826.17-May-2020 4908.51   78.05 67.18 8.00 195.30 2569.17
   22:52:47.026.17-May-2020 4908.51   78.24 67.18 8.00 195.50 2569.17
   22:52:47.226.17-May-2020 4908.51   78.44 67.18 8.00 195.70 2569.17
   22:52:47.426.17-May-2020 4908.51   78.63 67.18 8.00 195.90 2569.17
   22:52:47.626.17-May-2020 4908.51   78.83 67.18 8.00 196.10 2569.17
   22:52:47.826.17-May-2020 4908.51   79.03 67.18 8.00 196.30 2569.17
   22:52:48.026.17-May-2020 4908.51   79.24 67.18 8.00 196.50 2569.17
   22:52:48.226.17-May-2020 4908.51   79.44 67.18 8.00 196.70 2569.17
   22:52:48.426.17-May-2020 4908.51   79.70 67.18 8.00 196.90 2569.17
   22:52:48.625.17-May-2020 4908.51   79.85 67.18 8.00 197.10 2569.17
   22:52:48.825.17-May-2020 4908.51   80.04 67.18 8.00 197.30 2569.17
   22:52:49.025.17-May-2020 4908.51   80.30 67.18 8.00 197.50 2569.17
   22:52:49.225.17-May-2020 4908.51   80.47 67.18 8.00 197.70 2569.17
   22:52:49.425.17-May-2020 4908.51   80.65 67.18 8.00 197.90 2569.17
   22:52:49.625.17-May-2020 4908.51   80.65 67.18 8.00 198.10 2569.17
   22:52:49.825.17-May-2020 4908.51   81.10 67.18 8.00 198.30 2569.17
   22:52:50.025.17-May-2020 4908.51   81.31 67.18 8.00 198.50 2569.17
   22:52:50.225.17-May-2020 4908.51   81.48 67.18 8.00 198.70 2569.17
   22:52:50.425.17-May-2020 4908.51   81.73 67.18 8.00 198.90 2569.17
   22:52:50.624.17-May-2020 4908.51   81.73 67.18 8.00 199.10 2569.17
   22:52:50.824.17-May-2020 4908.51   82.12 67.18 8.00 199.30 2569.17
   22:52:51.024.17-May-2020 4908.51   82.34 67.18 8.00 199.50 2569.17
   22:52:51.224.17-May-2020 4908.51   82.55 67.18 8.00 199.70 2569.17
   22:52:51.424.17-May-2020 4908.51   82.77 67.18 8.00 199.90 2569.17
   22:52:51.624.17-May-2020 4908.51   82.99 67.18 8.00 200.10 2569.17
   22:52:51.824.17-May-2020 4908.51   83.20 67.18 8.00 200.30 2569.17
   22:52:52.024.17-May-2020 4908.51   83.42 67.18 8.00 200.50 2569.17
   22:52:52.224.17-May-2020 4908.51   83.63 67.18 8.00 200.70 2569.17
   22:52:52.424.17-May-2020 4908.51   83.87 67.18 8.00 200.90 2569.17
   22:52:52.623.17-May-2020 4908.51   84.12 67.18 8.00 201.10 2569.17
   22:52:52.823.17-May-2020 4908.51   84.29 67.18 8.00 201.30 2569.17
   22:52:53.023.17-May-2020 4908.51   84.52 67.18 8.00 201.50 2569.17
   22:52:53.223.17-May-2020 4908.51   84.74 67.18 8.00 201.70 2569.17
   22:52:53.423.17-May-2020 4908.51   84.96 67.18 8.00 201.90 2569.17
   22:52:53.623.17-May-2020 4908.51   84.96 67.18 8.00 202.10 2569.17
   22:52:53.823.17-May-2020 4908.51   85.40 67.18 8.00 202.30 2569.17
   22:52:54.023.17-May-2020 4908.51   85.62 67.18 8.00 202.50 2569.17
   22:52:54.223.17-May-2020 4908.51   85.85 67.18 8.00 202.70 2569.17
   22:52:54.422.17-May-2020 4908.51   86.08 67.18 8.00 202.90 2569.17
   22:52:54.622.17-May-2020 4908.51   86.08 67.18 8.00 203.10 2569.17
   22:52:54.822.17-May-2020 4908.51   86.53 67.18 8.00 203.30 2569.17
   22:52:55.022.17-May-2020 4908.51   86.76 67.18 8.00 203.50 2569.17
   22:52:55.222.17-May-2020 4908.51   87.04 67.18 8.00 203.70 2569.17
   22:52:55.422.17-May-2020 4908.51   87.25 67.18 8.00 203.90 2569.17
   22:52:55.622.17-May-2020 4908.51   87.46 67.18 8.00 204.10 2569.17
   22:52:55.822.17-May-2020 4908.51   87.69 67.18 8.00 204.30 2569.17
   22:52:56.022.17-May-2020 4908.51   87.95 67.18 8.00 204.50 2569.17
   22:52:56.222.17-May-2020 4908.51   88.22 67.18 8.00 204.69 2569.17
   22:52:56.421.17-May-2020 4908.51   88.41 67.18 8.00 204.89 2569.17
   22:52:56.621.17-May-2020 4908.51   88.66 67.18 8.00 205.09 2569.17
   22:52:56.821.17-May-2020 4908.51   88.96 67.18 8.00 205.29 2569.17
   22:52:57.021.17-May-2020 4908.51   89.15 67.18 8.00 205.49 2569.17
   22:52:57.221.17-May-2020 4908.51   89.39 67.18 8.00 205.69 2569.17
   22:52:57.421.17-May-2020 4908.51   89.63 67.18 8.00 205.89 2569.17
   22:52:57.621.17-May-2020 4908.51   89.63 67.18 8.00 206.09 2569.17
   22:52:57.821.17-May-2020 4908.51   90.12 67.18 8.00 206.29 2569.17
   22:52:58.021.17-May-2020 4908.51   90.36 67.18 8.00 206.49 2569.17
   22:52:58.221.17-May-2020 4908.51   90.61 67.18 8.00 206.69 2569.17
