~Version Information
 VERS.                  2.0:   CWLS log ASCII Standard -VERSION 2.0
 WRAP.                   NO:   One line per depth step
~Well Information Block
#MNEM.UNIT     VALUE/NAME     DESCRIPTION
#---------     -----------    ---------------------------
 STRT.S             21:13:20 18-May-20: START TIME 21:13:20 18-May-20
 STOP.S             21:20:25 18-May-20: STOP TIME  21:20:25 18-May-20
 STEP.S                   0.00: STEP TIME
 NULL.                 -999.25: NULL VALUE
 UNIT.                     N/A:  LOGGING EQUIPMENT ID
 DCON.         Sperry Drilling:  DIRECTNL CONTR
 DOE .                     N/A:  DOE NUMBER
 JOBN.        AZ-XX-0906252240:  JOB TICKET NUMB
 MWDS.                     N/A:  MWD SHOP
 PROV.                    Baku:  PROVINCE
 STAT.                    Baku:  STATE NAME
 REGN.                   EESSA:  REGION
 BASE.              Azerbaijan:  LOGGING EQUIPMENT BASE LOCATION
 UWI .                     N/A:  UNIQUE WELL IDENTIFIER
 API .                     N/A:  API NUMBER
 MDS .        Operator Entered:  MAG DATA SOURCE
 WTYP.                Deviated:  WELL TYPE
 COMP.     BP Exploration (Caspian Sea) Ltd.:  COMPANY
 SRVC.          Turan Drilling:  CONTRACTOR
 WELL.           J23 (Slot 07):  WELL NAME
 CTRY.              Azerbaijan:  COUNTRY NAME
 FLD .                     ACG:  FIELD NAME
 PDAT.          Mean Sea Level:  PERMANENT DATUM
 RIG .             West Chirag:  RIG NAME
 SON .        AZ-XX-0906252240:  JOB NUMBER
 FTOP.          Formation Tops:  FORM TOPS DESC
 ILTD.               Lithology:  INTERP LTH DESC
 SVYD.                  Survey:  SURVEY DESC
 DMOD.             Drill Model:  DRILL MOD DESC
 HPTY.       Minimum Curvature:  HOLE POS TYPE
 NREF.                    Grid:  NORTH REFERENCE
 SPUD.               27-Aug-20:  SPUD DATE
 DATE.      00.00.00 19-May-20:  END TIME
 STIM.      03.00.00 25-Mar-20:  START TIME
 DMF .             Drill Floor:  DRILL MEAS FROM
 DFST.                        :  DIST FSL TEXT
 DFWT.                        :  DIST FWL TEXT
 CNTY.                        :  COUNTY
 LOC .                        :  LOCATION
 LMF .             Drill Floor:  LOG MEASURED FROM
 VSNS.m                   9.43:  VERT SEC N/S
 VSEW.m                  -8.91:  VERT SEC E/W
 AGAP.m                  43.00:  AIR GAP
 DEP .m                 354.17:  DEPTH
 APD .m                  43.00:  DEPTH ABOVE PD
 WDMS.m                 169.80:  WD ELEV
 EGL .m                   0.00:  GROUND ELEVATION
 EPD .m                   0.00:  ELEVATION
 AZTC.deg                 6.31:  AZM TOTAL CORR
 GRDC.deg                 0.14:  GRID CORRECTION
 MDEC.deg                 6.45:  MAGNETIC DECL
 MDIP.deg                59.56:  MAGNETIC DIP
 MFLD.nT              50295.00:  MAGNETIC FIELD
 GVFD.g                   1.00:  GRAVITY FIELD
 VSDR.deg               179.88:  VERT SEC DIRECT
 TDD .m                5150.01:  TOTAL DEPTH (DRILLER)
 SDEP.m                 864.00:  START DEPTH
 DFSL.m                   0.00:  DISTANCE FSL
 DFWL.m                   0.00:  DISTANCE FWL
 UTMY.m             4443793.85:  UTM Y
 UTMX.m              519005.06:  UTM X
 WHEW.m                  -8.91:  WELL HEAD E/W
 WHNS.m                   9.43:  WELL HEAD N/S
 LONG.deg                51.22:  LONGITUDE
 LATI.deg                40.13:  LATITUDE
 TVDS.m                  43.00:  TVDSS CORRECTN
 EKB .m                   0.00:  KB ELEVATION
 EDF .m                  43.00:  DF ELEVATION
 TDL .m                 363.00:  TOTAL DEPTH (LOGGER)
 MAGU.                 1850802:  MAGUTM CHECKSUM
 VSC .                       0:  VS TO CLOSURE
~Parameter Information Block
#MNEM.UNIT       Value        Description
#---------     -----------    ---------------------------
 AV  .mps                 2.30:  Ann Velocity 
 AVMX.mps                 4.40:  Max Ann Veloc 
 AZIF.deg               110.24:  Azm, Final 
 BHAT.        Rotary Steerable:  BHA Type 
 BREV.rev               331.00:  Rev Bit Total 
 BROT.°/30m               0.00:  Build Rotating 
 BS  .in                  8.50:  Bit Size 
 BSZ .in                  8.50:  Bit Size 
 BTPL.psig              585.00:  Bit Press Loss 
 CABU.                     Yes:  Customer Abuse 
 TCS .hr                122.75:  Time Ciculation Ended 
 CV  .mps                 2.67:  Crit Velocity 
 CVMX.mps                 3.56:  Max Crit Veloc 
 DD1 .          Rashad Habibov:  Direct Drillr 1 
 DD2 .         Rasim Ibrahimov:  Direct Drillr 2 
 DDSV.               Geo-Pilot:  DD Service 
 DEFF.%                  98.00:  % Det Eff 
 DLRX.°/30m               0.75:  Dogleg Rot Max 
 DLSO.°/30m               1.25:  Dogleg Oriented 
 DLSX.°/30m               2.06:  Dogleg Str Max 
 DRET.      07.45.00 17-May-20:  Drill End Time 
 DRST.      22.50.00 15-May-20:  Drill Start Tim 
 DTIM.hr                 20.75:  Time Drilling 
 EDEP.m                5124.01:  End Depth 
 ENG1.           Eldar Hajiyev:  Engineer 1 
 ENG2.        Marcelo Sandoval:  Engineer 2 
 ENG3.        Davud huseynzada:  Engineer 3 
 ENG4.          Ruslan Safarov:  Engineer 4 
 ETIM.      04.33.00 23-May-20:  End Time 
 FLOI.gpm               450.00:  Flow In 
 FLON.gpm               400.00:  Flow In Min 
 FLOS.cptm                0.00:  Fluid Loss 
 FLOX.gpm               500.00:  Flow In Max 
 FTRO.       Formation Presure:  FTWD Run Obj 
 HFLO.                      No:  High Flow 
 HPRE.                     Yes:  High Pressure 
 HTEM.                      No:  High Temp 
 HYDO.m                   1.80:  Hydro Offset 
 IFIN.deg                75.06:  Inc, Final 
 IMAX.deg                75.38:  Inc Max 
 IMIN.deg                74.69:  Inc Min 
 IMND.m                5027.38:  Inc Min Depth 
 IMXD.m                4771.61:  Inc Max Depth 
 JARR.                      No:  Jarring 
 LETM.      07.45.00 17-May-20:  Log End Time 
 LOST.hr                     0:  Lost Rig Time 
 LSTM.      22.50.00 15-May-20:  Log Start Time 
 MDCL.ppm             42000.00:  Mud Chlorides 
 MDES.     Inversion Oil/Synthetic:  Mud Desc 
 DFD .sg                  1.34:  Mud Density 
 MDMN.sg                  1.34:  Dens Mud Min 
 MDMX.sg                  1.34:  Dens Mud Max 
 MOIL.                       0:  Run Mud Oil % 
 MOWR.                   67:33:  Run Mud OWR 
 MSND.                       0:  Run Mud Sand % 
 MSOL.                     1.8:  Run Mud Solids% 
 DFV .spqt               76.00:  Mud Viscosity 
 MWOD.in                  6.75:  MWD Tool OD 
 MWSI.                      No:  Serv Intrp, MWD 
 OTIM.hr                228.19:  Time Operating 
 PCON.           Look Like New:  Pad Condition 
 PMAX.psia             6164.70:  Press Op, Max 
 PV  .cP                 28.00:  Mud PV 
 RUN .                     900:  Run Number 
 ROPA.m/hr               19.00:  ROP Avg 
 ROPN.m/hr               11.00:  ROP Min 
 ROPX.m/hr               36.00:  ROP Max 
 RPMA.rpm               120.00:  RPM Surface Avg 
 RPMN.rpm               120.00:  RPM Surface Min 
 RPMX.rpm               120.00:  RPM Surface Max 
 RRUN.                    L604:  Rig Run Number 
 RTIM.hr                  7.00:  Time Reaming 
 SAZI.deg               109.27:  Azm, Start 
 SDEP.m                4761.01:  Start Depth 
 SIDD.                      No:  Serv Intrp, DD 
 SINC.deg                75.38:  Inc, Start 
 SPPA.psig             3574.00:  SPP Avg 
 SPPN.psig             3475.00:  SPP Min 
 SPPX.psig             3791.00:  SPP Max 
 STIM.      07.08.48 13-May-20:  Start Time 
 SVCS.                 DD, MWD:  Services 
 SVER.                    9.20:  Sperry Version 
 TDAT.m                 363.00:  Tot Depth Attmp 
 TDDF.                      No:  Trip for DD 
 TDLG.m                 363.00:  Tot Depth Loggd 
 TFF .                      No:  Trip for Fail 
 TQAA.f-kp               20.00:  Torque Abs Avg 
 TQAN.f-kp               18.00:  Torque Abs Min 
 TQAX.f-kp               22.00:  Torque Abs Max 
 TRRT.°/30m              -0.35:  Turn Rotating 
 MRT .                    HCIM:  Maximum Recorded Temperature 
 TTMX.degC               92.16:  Max Tool Temp 
 VS01.                90586518:  Virtual Str1 SN 
 VS02.        AZ90560654Z1W1C6:  Virtual Str2 SN 
 VS03.           AZ90610398F11:  Virtual Str3 SN 
 VS04.                90514975:  Virtual Str4 SN 
 VS05.                90514972:  Virtual Str5 SN 
 VS06.     AZ90603282F11V7D1A6:  Virtual Str6 SN 
 WBMN.klb                 7.00:  WOB Min 
 WOBA.klb                12.00:  WOB Avg 
 WOBX.klb                14.00:  WOB Max 
 YP  .lhf2               32.00:  Yield Point 
~Curve Information Block
#MNEM.UNIT                 API CODE     Curve Description
#---------               -----------    ---------------------------
 TIME.HHMMSS            00 000 000 000:  GT Time & Date
 GTDEPTH.m              00 000 000 000:  GT Depth
 GTPQH.psia             00 000 000 000:  GT HR Quartz Pressure
 GTTQ.degC              00 000 000 000:  GT Quartz Temperature
 GTTN.NONE              00 000 000 000:  GT Test Number
 GTET.sec               00 000 000 000:  GT Elapsed Test Time
 GTTVD.m                00 000 000 000:  GT True Vertical Depth
#Other Information
#
#WARRANTY: Halliburton will use its best efforts to furnish customers with 
#accurate information and interpretations that are part of, and incident to, the services 
#provided.  However, Halliburton cannot and does not warrant the accuracy 
#or correctness of such information and interpretations.  Under no circumstances should any 
#such information or interpretation be relied upon as the sole basis for any drilling, 
#completion, production, or financial decision or any procedure involving any risk to the 
#safety of any drilling venture, drilling rig or its crew or any other third party.  The 
#Customer has full responsibility for all drilling, completion and production operation.  
#Halliburton makes no representations or warranties, either expressed or 
#implied, including, but not limited to, the implied warranties of merchantability or fitness 
#for a particular purpose, with respect to the services rendered.  In no event will 
#Halliburton be liable for failure to obtain any particular results or for 
#any damages, including, but not limited to, indirect, special or consequential damages, 
#resulting from the use of any information or interpretation provided by Halliburton.
#
~A           TIME           GTDEPTH  GTPQH  GTTQ  GTTN   GTET   GTTVD  
# ...
   21:16:21.313.18-May-2020 4766.01 5474.17 60.62 14.00 180.85 2532.29
   21:16:21.513.18-May-2020 4766.01 5485.30 60.62 14.00 181.05 2532.29
   21:16:21.714.18-May-2020 4766.01 5485.30 60.62 14.00 181.25 2532.29
   21:16:21.914.18-May-2020 4766.01 5474.40 60.62 14.00 181.45 2532.29
   21:16:22.114.18-May-2020 4766.01 5475.20 60.62 14.00 181.65 2532.29
   21:16:22.314.18-May-2020 4766.01 5477.35 60.62 14.00 181.85 2532.29
   21:16:22.514.18-May-2020 4766.01 5475.21 60.62 14.00 182.05 2532.29
   21:16:22.714.18-May-2020 4766.01 5487.71 60.62 14.00 182.25 2532.29
   21:16:22.914.18-May-2020 4766.01 5471.64 60.62 14.00 182.45 2532.29
   21:16:23.114.18-May-2020 4766.01 5475.65 60.62 14.00 182.65 2532.29
   21:16:23.314.18-May-2020 4766.01 5473.34 60.62 14.00 182.85 2532.29
   21:16:23.514.18-May-2020 4766.01 5482.54 60.62 14.00 183.05 2532.29
   21:16:23.714.18-May-2020 4766.01 5482.54 60.62 14.00 183.25 2532.29
   21:16:23.914.18-May-2020 4766.01 5474.02 60.62 14.00 183.45 2532.29
   21:16:24.114.18-May-2020 4766.01 5474.19 60.62 14.00 183.65 2532.29
   21:16:24.314.18-May-2020 4766.01 5475.55 60.62 14.00 183.85 2532.29
   21:16:24.514.18-May-2020 4766.01 5474.51 60.62 14.00 184.05 2532.29
   21:16:24.714.18-May-2020 4766.01 5474.51 60.62 14.00 184.25 2532.29
   21:16:24.914.18-May-2020 4766.01 5483.63 60.62 14.00 184.45 2532.29
   21:16:25.114.18-May-2020 4766.01 5473.64 60.62 14.00 184.65 2532.29
   21:16:25.314.18-May-2020 4766.01 5473.37 60.62 14.00 184.85 2532.29
   21:16:25.515.18-May-2020 4766.01 5472.87 60.62 14.00 185.05 2532.29
   21:16:25.715.18-May-2020 4766.01 5494.60 60.62 14.00 185.25 2532.29
   21:16:25.915.18-May-2020 4766.01 5474.30 60.62 14.00 185.45 2532.29
   21:16:26.115.18-May-2020 4766.01 5474.92 60.62 14.00 185.65 2532.29
   21:16:26.315.18-May-2020 4766.01 5473.31 60.62 14.00 185.85 2532.29
   21:16:26.515.18-May-2020 4766.01 5498.44 60.62 14.00 186.05 2532.29
   21:16:26.715.18-May-2020 4766.01 5476.95 60.62 14.00 186.25 2532.29
   21:16:26.915.18-May-2020 4766.01 5474.99 60.62 14.00 186.45 2532.29
   21:16:27.115.18-May-2020 4766.01 5474.18 60.62 14.00 186.65 2532.29
   21:16:27.315.18-May-2020 4766.01 5499.93 60.62 14.00 186.85 2532.29
   21:16:27.515.18-May-2020 4766.01 5477.94 60.62 14.00 187.05 2532.29
   21:16:27.715.18-May-2020 4766.01 5475.04 60.62 14.00 187.25 2532.29
   21:16:27.915.18-May-2020 4766.01 5474.00 60.62 14.00 187.45 2532.29
   21:16:28.115.18-May-2020 4766.01 5487.13 60.62 14.00 187.65 2532.29
   21:16:28.315.18-May-2020 4766.01 5480.38 60.62 14.00 187.85 2532.29
   21:16:28.515.18-May-2020 4766.01 5474.90 60.62 14.00 188.05 2532.29
   21:16:28.715.18-May-2020 4766.01 5474.90 60.62 14.00 188.25 2532.29
   21:16:28.915.18-May-2020 4766.01 5476.81 60.62 14.00 188.45 2532.29
   21:16:29.115.18-May-2020 4766.01 5475.89 60.62 14.00 188.65 2532.29
   21:16:29.316.18-May-2020 4766.01 5481.40 60.62 14.00 188.85 2532.29
   21:16:29.516.18-May-2020 4766.01 5473.94 60.62 14.00 189.05 2532.29
   21:16:29.716.18-May-2020 4766.01 5473.94 60.62 14.00 189.25 2532.29
   21:16:29.916.18-May-2020 4766.01 5472.21 60.62 14.00 189.45 2532.29
   21:16:30.116.18-May-2020 4766.01 5476.99 60.62 14.00 189.65 2532.29
   21:16:30.316.18-May-2020 4766.01 5475.16 60.62 14.00 189.85 2532.29
   21:16:30.516.18-May-2020 4766.01 5471.78 60.62 14.00 190.05 2532.29
   21:16:30.716.18-May-2020 4766.01 5471.92 60.62 14.00 190.25 2532.29
   21:16:30.916.18-May-2020 4766.01 5472.62 60.62 14.00 190.45 2532.29
   21:16:31.116.18-May-2020 4766.01 5471.79 60.62 14.00 190.65 2532.29
   21:16:31.316.18-May-2020 4766.01 5469.97 60.62 14.00 190.85 2532.29
   21:16:31.516.18-May-2020 4766.01 5473.94 60.62 14.00 191.05 2532.29
   21:16:31.716.18-May-2020 4766.01 5473.94 60.62 14.00 191.25 2532.29
   21:16:31.916.18-May-2020 4766.01 5470.34 60.62 14.00 191.45 2532.29
   21:16:32.116.18-May-2020 4766.01 5471.62 60.62 14.00 191.65 2532.29
   21:16:32.316.18-May-2020 4766.01 5483.07 60.62 14.00 191.85 2532.29
   21:16:32.516.18-May-2020 4766.01 5480.71 60.62 14.00 192.05 2532.29
   21:16:32.716.18-May-2020 4766.01 5480.71 60.62 14.00 192.25 2532.29
   21:16:32.917.18-May-2020 4766.01 5471.48 60.62 14.00 192.45 2532.29
   21:16:33.117.18-May-2020 4766.01 5483.49 60.62 14.00 192.65 2532.29
   21:16:33.317.18-May-2020 4766.01 5486.17 60.62 14.00 192.85 2532.29
   21:16:33.517.18-May-2020 4766.01 5472.34 60.62 14.00 193.05 2532.29
   21:16:33.717.18-May-2020 4766.01 5472.34 60.62 14.00 193.25 2532.29
   21:16:33.917.18-May-2020 4766.01 5484.40 60.62 14.00 193.45 2532.29
   21:16:34.117.18-May-2020 4766.01 5487.95 60.62 14.00 193.65 2532.29
   21:16:34.317.18-May-2020 4766.01 5473.62 60.62 14.00 193.85 2532.29
   21:16:34.517.18-May-2020 4766.01 5473.17 60.62 14.00 194.05 2532.29
   21:16:34.717.18-May-2020 4766.01 5479.42 60.62 14.00 194.25 2532.29
   21:16:34.917.18-May-2020 4766.01 5484.26 60.62 14.00 194.45 2532.29
   21:16:35.117.18-May-2020 4766.01 5474.94 60.62 14.00 194.65 2532.29
   21:16:35.317.18-May-2020 4766.01 5474.65 60.62 14.00 194.85 2532.29
   21:16:35.517.18-May-2020 4766.01 5476.85 60.62 14.00 195.05 2532.29
   21:16:35.717.18-May-2020 4766.01 5476.85 60.62 14.00 195.25 2532.29
   21:16:35.917.18-May-2020 4766.01 5477.98 60.62 14.00 195.45 2532.29
   21:16:36.117.18-May-2020 4766.01 5485.93 60.62 14.00 195.65 2532.29
   21:16:36.317.18-May-2020 4766.01 5476.14 60.62 14.00 195.85 2532.29
   21:16:36.517.18-May-2020 4766.01 5478.07 60.62 14.00 196.05 2532.29
   21:16:36.718.18-May-2020 4766.01 5478.07 60.62 14.00 196.25 2532.29
   21:16:36.918.18-May-2020 4766.01 5485.73 60.62 14.00 196.45 2532.29
   21:16:37.118.18-May-2020 4766.01 5478.17 60.62 14.00 196.65 2532.29
   21:16:37.318.18-May-2020 4766.01 5478.09 60.62 14.00 196.85 2532.29
   21:16:37.518.18-May-2020 4766.01 5479.50 60.62 14.00 197.05 2532.29
   21:16:37.718.18-May-2020 4766.01 5479.50 60.62 14.00 197.25 2532.29
   21:16:37.918.18-May-2020 4766.01 5478.23 60.62 14.00 197.45 2532.29
   21:16:38.118.18-May-2020 4766.01 5478.00 60.62 14.00 197.65 2532.29
   21:16:38.318.18-May-2020 4766.01 5491.84 60.62 14.00 197.85 2532.29
   21:16:38.518.18-May-2020 4766.01 5475.92 60.62 14.00 198.05 2532.29
   21:16:38.718.18-May-2020 4766.01 5475.92 60.62 14.00 198.25 2532.29
   21:16:38.918.18-May-2020 4766.01 5486.52 60.62 14.00 198.45 2532.29
   21:16:39.118.18-May-2020 4766.01 5489.80 60.62 14.00 198.65 2532.29
   21:16:39.318.18-May-2020 4766.01 5478.81 60.62 14.00 198.85 2532.29
   21:16:39.518.18-May-2020 4766.01 5477.40 60.62 14.00 199.05 2532.29
   21:16:39.718.18-May-2020 4766.01 5477.40 60.62 14.00 199.25 2532.29
   21:16:39.918.18-May-2020 4766.01 5489.45 60.62 14.00 199.45 2532.29
   21:16:40.118.18-May-2020 4766.01 5487.40 60.62 14.00 199.65 2532.29
   21:16:40.318.18-May-2020 4766.01 5477.82 60.62 14.00 199.85 2532.29
   21:16:40.519.18-May-2020 4766.01 5482.06 60.62 14.00 200.05 2532.29
   21:16:40.719.18-May-2020 4766.01 5482.06 60.62 14.00 200.25 2532.29
   21:16:40.919.18-May-2020 4766.01 5485.35 60.62 14.00 200.45 2532.29
   21:16:41.119.18-May-2020 4766.01 5480.37 60.62 14.00 200.65 2532.29
   21:16:41.319.18-May-2020 4766.01 5480.61 60.62 14.00 200.85 2532.29
   21:16:41.519.18-May-2020 4766.01 5491.60 60.62 14.00 201.05 2532.29
   21:16:41.719.18-May-2020 4766.01 5491.60 60.62 14.00 201.25 2532.29
   21:16:41.919.18-May-2020 4766.01 5479.69 60.62 14.00 201.45 2532.29
   21:16:42.119.18-May-2020 4766.01 5481.17 60.62 14.00 201.65 2532.29
   21:16:42.319.18-May-2020 4766.01 5483.28 60.62 14.00 201.85 2532.29
   21:16:42.519.18-May-2020 4766.01 5480.52 60.62 14.00 202.05 2532.29
   21:16:42.719.18-May-2020 4766.01 5493.05 60.62 14.00 202.25 2532.29
   21:16:42.919.18-May-2020 4766.01 5477.54 60.62 14.00 202.45 2532.29
   21:16:43.119.18-May-2020 4766.01 5481.37 60.62 14.00 202.65 2532.29
   21:16:43.319.18-May-2020 4766.01 5479.14 60.62 14.00 202.85 2532.29
   21:16:43.519.18-May-2020 4766.01 5489.03 60.62 14.00 203.05 2532.29
   21:16:43.719.18-May-2020 4766.01 5489.03 60.62 14.00 203.25 2532.29
