~Version Information
 VERS.                  2.0:   CWLS log ASCII Standard -VERSION 2.0
 WRAP.                   NO:   One line per depth step
~Well Information Block
#MNEM.UNIT     VALUE/NAME     DESCRIPTION
#---------     -----------    ---------------------------
 STRT.S             19:37:06 17-May-20: START TIME 19:37:06 17-May-20
 STOP.S             19:44:11 17-May-20: STOP TIME  19:44:11 17-May-20
 STEP.S                   0.00: STEP TIME
 NULL.                 -999.25: NULL VALUE
 UNIT.                     N/A:  LOGGING EQUIPMENT ID
 DCON.         Sperry Drilling:  DIRECTNL CONTR
 DOE .                     N/A:  DOE NUMBER
 JOBN.        AZ-XX-0906252240:  JOB TICKET NUMB
 MWDS.                     N/A:  MWD SHOP
 PROV.                    Baku:  PROVINCE
 STAT.                    Baku:  STATE NAME
 REGN.                   EESSA:  REGION
 BASE.              Azerbaijan:  LOGGING EQUIPMENT BASE LOCATION
 UWI .                     N/A:  UNIQUE WELL IDENTIFIER
 API .                     N/A:  API NUMBER
 MDS .        Operator Entered:  MAG DATA SOURCE
 WTYP.                Deviated:  WELL TYPE
 COMP.     BP Exploration (Caspian Sea) Ltd.:  COMPANY
 SRVC.          Turan Drilling:  CONTRACTOR
 WELL.           J23 (Slot 07):  WELL NAME
 CTRY.              Azerbaijan:  COUNTRY NAME
 FLD .                     ACG:  FIELD NAME
 PDAT.          Mean Sea Level:  PERMANENT DATUM
 RIG .             West Chirag:  RIG NAME
 SON .        AZ-XX-0906252240:  JOB NUMBER
 FTOP.          Formation Tops:  FORM TOPS DESC
 ILTD.               Lithology:  INTERP LTH DESC
 SVYD.                  Survey:  SURVEY DESC
 DMOD.             Drill Model:  DRILL MOD DESC
 HPTY.       Minimum Curvature:  HOLE POS TYPE
 NREF.                    Grid:  NORTH REFERENCE
 SPUD.               27-Aug-20:  SPUD DATE
 DATE.      00.00.00 19-May-20:  END TIME
 STIM.      03.00.00 25-Mar-20:  START TIME
 DMF .             Drill Floor:  DRILL MEAS FROM
 DFST.                        :  DIST FSL TEXT
 DFWT.                        :  DIST FWL TEXT
 CNTY.                        :  COUNTY
 LOC .                        :  LOCATION
 LMF .             Drill Floor:  LOG MEASURED FROM
 VSNS.m                   9.43:  VERT SEC N/S
 VSEW.m                  -8.91:  VERT SEC E/W
 AGAP.m                  43.00:  AIR GAP
 DEP .m                 354.17:  DEPTH
 APD .m                  43.00:  DEPTH ABOVE PD
 WDMS.m                 169.80:  WD ELEV
 EGL .m                   0.00:  GROUND ELEVATION
 EPD .m                   0.00:  ELEVATION
 AZTC.deg                 6.31:  AZM TOTAL CORR
 GRDC.deg                 0.14:  GRID CORRECTION
 MDEC.deg                 6.45:  MAGNETIC DECL
 MDIP.deg                59.56:  MAGNETIC DIP
 MFLD.nT              50295.00:  MAGNETIC FIELD
 GVFD.g                   1.00:  GRAVITY FIELD
 VSDR.deg               179.88:  VERT SEC DIRECT
 TDD .m                5150.01:  TOTAL DEPTH (DRILLER)
 SDEP.m                 864.00:  START DEPTH
 DFSL.m                   0.00:  DISTANCE FSL
 DFWL.m                   0.00:  DISTANCE FWL
 UTMY.m             4443793.85:  UTM Y
 UTMX.m              519005.06:  UTM X
 WHEW.m                  -8.91:  WELL HEAD E/W
 WHNS.m                   9.43:  WELL HEAD N/S
 LONG.deg                51.22:  LONGITUDE
 LATI.deg                40.13:  LATITUDE
 TVDS.m                  43.00:  TVDSS CORRECTN
 EKB .m                   0.00:  KB ELEVATION
 EDF .m                  43.00:  DF ELEVATION
 TDL .m                 363.00:  TOTAL DEPTH (LOGGER)
 MAGU.                 1850802:  MAGUTM CHECKSUM
 VSC .                       0:  VS TO CLOSURE
~Parameter Information Block
#MNEM.UNIT       Value        Description
#---------     -----------    ---------------------------
 AV  .mps                 2.30:  Ann Velocity 
 AVMX.mps                 4.40:  Max Ann Veloc 
 AZIF.deg               110.24:  Azm, Final 
 BHAT.        Rotary Steerable:  BHA Type 
 BREV.rev               331.00:  Rev Bit Total 
 BROT.°/30m               0.00:  Build Rotating 
 BS  .in                  8.50:  Bit Size 
 BSZ .in                  8.50:  Bit Size 
 BTPL.psig              585.00:  Bit Press Loss 
 CABU.                     Yes:  Customer Abuse 
 TCS .hr                122.75:  Time Ciculation Ended 
 CV  .mps                 2.67:  Crit Velocity 
 CVMX.mps                 3.56:  Max Crit Veloc 
 DD1 .          Rashad Habibov:  Direct Drillr 1 
 DD2 .         Rasim Ibrahimov:  Direct Drillr 2 
 DDSV.               Geo-Pilot:  DD Service 
 DEFF.%                  98.00:  % Det Eff 
 DLRX.°/30m               0.75:  Dogleg Rot Max 
 DLSO.°/30m               1.25:  Dogleg Oriented 
 DLSX.°/30m               2.06:  Dogleg Str Max 
 DRET.      07.45.00 17-May-20:  Drill End Time 
 DRST.      22.50.00 15-May-20:  Drill Start Tim 
 DTIM.hr                 20.75:  Time Drilling 
 EDEP.m                5124.01:  End Depth 
 ENG1.           Eldar Hajiyev:  Engineer 1 
 ENG2.        Marcelo Sandoval:  Engineer 2 
 ENG3.        Davud huseynzada:  Engineer 3 
 ENG4.          Ruslan Safarov:  Engineer 4 
 ETIM.      04.33.00 23-May-20:  End Time 
 FLOI.gpm               450.00:  Flow In 
 FLON.gpm               400.00:  Flow In Min 
 FLOS.cptm                0.00:  Fluid Loss 
 FLOX.gpm               500.00:  Flow In Max 
 FTRO.       Formation Presure:  FTWD Run Obj 
 HFLO.                      No:  High Flow 
 HPRE.                     Yes:  High Pressure 
 HTEM.                      No:  High Temp 
 HYDO.m                   1.80:  Hydro Offset 
 IFIN.deg                75.06:  Inc, Final 
 IMAX.deg                75.38:  Inc Max 
 IMIN.deg                74.69:  Inc Min 
 IMND.m                5027.38:  Inc Min Depth 
 IMXD.m                4771.61:  Inc Max Depth 
 JARR.                      No:  Jarring 
 LETM.      07.45.00 17-May-20:  Log End Time 
 LOST.hr                     0:  Lost Rig Time 
 LSTM.      22.50.00 15-May-20:  Log Start Time 
 MDCL.ppm             42000.00:  Mud Chlorides 
 MDES.     Inversion Oil/Synthetic:  Mud Desc 
 DFD .sg                  1.34:  Mud Density 
 MDMN.sg                  1.34:  Dens Mud Min 
 MDMX.sg                  1.34:  Dens Mud Max 
 MOIL.                       0:  Run Mud Oil % 
 MOWR.                   67:33:  Run Mud OWR 
 MSND.                       0:  Run Mud Sand % 
 MSOL.                     1.8:  Run Mud Solids% 
 DFV .spqt               76.00:  Mud Viscosity 
 MWOD.in                  6.75:  MWD Tool OD 
 MWSI.                      No:  Serv Intrp, MWD 
 OTIM.hr                228.19:  Time Operating 
 PCON.           Look Like New:  Pad Condition 
 PMAX.psia             6164.70:  Press Op, Max 
 PV  .cP                 28.00:  Mud PV 
 RUN .                     900:  Run Number 
 ROPA.m/hr               19.00:  ROP Avg 
 ROPN.m/hr               11.00:  ROP Min 
 ROPX.m/hr               36.00:  ROP Max 
 RPMA.rpm               120.00:  RPM Surface Avg 
 RPMN.rpm               120.00:  RPM Surface Min 
 RPMX.rpm               120.00:  RPM Surface Max 
 RRUN.                    L604:  Rig Run Number 
 RTIM.hr                  7.00:  Time Reaming 
 SAZI.deg               109.27:  Azm, Start 
 SDEP.m                4761.01:  Start Depth 
 SIDD.                      No:  Serv Intrp, DD 
 SINC.deg                75.38:  Inc, Start 
 SPPA.psig             3574.00:  SPP Avg 
 SPPN.psig             3475.00:  SPP Min 
 SPPX.psig             3791.00:  SPP Max 
 STIM.      07.08.48 13-May-20:  Start Time 
 SVCS.                 DD, MWD:  Services 
 SVER.                    9.20:  Sperry Version 
 TDAT.m                 363.00:  Tot Depth Attmp 
 TDDF.                      No:  Trip for DD 
 TDLG.m                 363.00:  Tot Depth Loggd 
 TFF .                      No:  Trip for Fail 
 TQAA.f-kp               20.00:  Torque Abs Avg 
 TQAN.f-kp               18.00:  Torque Abs Min 
 TQAX.f-kp               22.00:  Torque Abs Max 
 TRRT.°/30m              -0.35:  Turn Rotating 
 MRT .                    HCIM:  Maximum Recorded Temperature 
 TTMX.degC               92.16:  Max Tool Temp 
 VS01.                90586518:  Virtual Str1 SN 
 VS02.        AZ90560654Z1W1C6:  Virtual Str2 SN 
 VS03.           AZ90610398F11:  Virtual Str3 SN 
 VS04.                90514975:  Virtual Str4 SN 
 VS05.                90514972:  Virtual Str5 SN 
 VS06.     AZ90603282F11V7D1A6:  Virtual Str6 SN 
 WBMN.klb                 7.00:  WOB Min 
 WOBA.klb                12.00:  WOB Avg 
 WOBX.klb                14.00:  WOB Max 
 YP  .lhf2               32.00:  Yield Point 
~Curve Information Block
#MNEM.UNIT                 API CODE     Curve Description
#---------               -----------    ---------------------------
 TIME.HHMMSS            00 000 000 000:  GT Time & Date
 GTDEPTH.m              00 000 000 000:  GT Depth
 GTPQH.psia             00 000 000 000:  GT HR Quartz Pressure
 GTTQ.degC              00 000 000 000:  GT Quartz Temperature
 GTTN.NONE              00 000 000 000:  GT Test Number
 GTET.sec               00 000 000 000:  GT Elapsed Test Time
 GTTVD.m                00 000 000 000:  GT True Vertical Depth
#Other Information
#
#WARRANTY: Halliburton will use its best efforts to furnish customers with 
#accurate information and interpretations that are part of, and incident to, the services 
#provided.  However, Halliburton cannot and does not warrant the accuracy 
#or correctness of such information and interpretations.  Under no circumstances should any 
#such information or interpretation be relied upon as the sole basis for any drilling, 
#completion, production, or financial decision or any procedure involving any risk to the 
#safety of any drilling venture, drilling rig or its crew or any other third party.  The 
#Customer has full responsibility for all drilling, completion and production operation.  
#Halliburton makes no representations or warranties, either expressed or 
#implied, including, but not limited to, the implied warranties of merchantability or fitness 
#for a particular purpose, with respect to the services rendered.  In no event will 
#Halliburton be liable for failure to obtain any particular results or for 
#any damages, including, but not limited to, indirect, special or consequential damages, 
#resulting from the use of any information or interpretation provided by Halliburton.
#
~A           TIME           GTDEPTH  GTPQH  GTTQ  GTTN  GTET   GTTVD  
   19:37:06.610.17-May-2020 4994.01 5525.08 70.02 4.00   0.00 2591.05
   19:37:06.810.17-May-2020 4994.01 5525.08 70.02 4.00   0.20 2591.05
   19:37:07.010.17-May-2020 4994.01 5524.18 70.02 4.00   0.40 2591.05
   19:37:07.210.17-May-2020 4994.01 5525.13 70.02 4.00   0.60 2591.05
   19:37:07.410.17-May-2020 4994.01 5524.59 70.02 4.00   0.80 2591.05
   19:37:07.610.17-May-2020 4994.01 5524.91 70.02 4.00   1.00 2591.05
   19:37:07.810.17-May-2020 4994.01 5524.91 70.02 4.00   1.20 2591.05
   19:37:08.010.17-May-2020 4994.01 5525.77 70.02 4.00   1.40 2591.05
   19:37:08.210.17-May-2020 4994.01 5525.00 70.02 4.00   1.60 2591.05
   19:37:08.410.17-May-2020 4994.01 5525.11 70.02 4.00   1.80 2591.05
   19:37:08.610.17-May-2020 4994.01 5526.10 70.02 4.00   2.00 2591.05
   19:37:08.810.17-May-2020 4994.01 5526.10 70.02 4.00   2.20 2591.05
   19:37:09.010.17-May-2020 4994.01 5526.63 70.02 4.00   2.40 2591.05
   19:37:09.210.17-May-2020 4994.01 5526.56 70.02 4.00   2.60 2591.05
   19:37:09.410.17-May-2020 4994.01 5527.20 70.02 4.00   2.80 2591.05
   19:37:09.610.17-May-2020 4994.01 5528.07 70.02 4.00   3.00 2591.05
   19:37:09.810.17-May-2020 4994.01 5528.07 70.02 4.00   3.20 2591.05
   19:37:10.009.17-May-2020 4994.01 5538.30 70.02 4.00   3.40 2591.05
   19:37:10.209.17-May-2020 4994.01 5535.34 70.02 4.00   3.60 2591.05
   19:37:10.409.17-May-2020 4994.01 5530.45 70.02 4.00   3.80 2591.05
   19:37:10.609.17-May-2020 4994.01 5533.17 70.02 4.00   4.00 2591.05
   19:37:10.809.17-May-2020 4994.01 5533.17 70.02 4.00   4.20 2591.05
   19:37:11.009.17-May-2020 4994.01 5534.85 70.02 4.00   4.40 2591.05
   19:37:11.209.17-May-2020 4994.01 5534.44 70.02 4.00   4.60 2591.05
   19:37:11.409.17-May-2020 4994.01 5535.12 70.02 4.00   4.80 2591.05
   19:37:11.609.17-May-2020 4994.01 5534.49 70.02 4.00   5.00 2591.05
   19:37:11.809.17-May-2020 4994.01 5534.49 70.02 4.00   5.20 2591.05
   19:37:12.009.17-May-2020 4994.01 5536.34 70.01 4.00   5.40 2591.05
   19:37:12.209.17-May-2020 4994.01 5549.17 70.01 4.00   5.60 2591.05
   19:37:12.409.17-May-2020 4994.01 5534.38 70.01 4.00   5.80 2591.05
   19:37:12.609.17-May-2020 4994.01 5538.18 70.01 4.00   6.00 2591.05
   19:37:12.809.17-May-2020 4994.01 5538.18 70.01 4.00   6.20 2591.05
   19:37:13.009.17-May-2020 4994.01 5550.61 70.01 4.00   6.40 2591.05
   19:37:13.209.17-May-2020 4994.01 5534.28 70.01 4.00   6.60 2591.05
   19:37:13.409.17-May-2020 4994.01 5539.55 70.01 4.00   6.80 2591.05
   19:37:13.609.17-May-2020 4994.01 5540.53 70.01 4.00   7.00 2591.05
   19:37:13.809.17-May-2020 4994.01 5540.53 70.01 4.00   7.20 2591.05
   19:37:14.009.17-May-2020 4994.01 5534.16 70.01 4.00   7.40 2591.05
   19:37:14.209.17-May-2020 4994.01 5542.84 70.01 4.00   7.60 2591.05
   19:37:14.409.17-May-2020 4994.01 5542.04 70.01 4.00   7.80 2591.05
   19:37:14.609.17-May-2020 4994.01 5549.14 70.01 4.00   8.00 2591.05
   19:37:14.809.17-May-2020 4994.01 5549.14 70.01 4.00   8.20 2591.05
   19:37:15.009.17-May-2020 4994.01 5549.14 70.01 4.00   8.40 2591.05
   19:37:15.209.17-May-2020 4994.01 5552.65 70.01 4.00   8.60 2591.05
   19:37:15.409.17-May-2020 4994.01 5535.47 70.01 4.00   8.80 2591.05
   19:37:15.609.17-May-2020 4994.01 5545.99 70.01 4.00   9.00 2591.05
   19:37:15.809.17-May-2020 4994.01 5545.99 70.01 4.00   9.20 2591.05
   19:37:16.009.17-May-2020 4994.01 5537.49 70.01 4.00   9.40 2591.05
   19:37:16.209.17-May-2020 4994.01 5553.99 70.01 4.00   9.60 2591.05
   19:37:16.409.17-May-2020 4994.01 5541.17 70.01 4.00   9.80 2591.05
   19:37:16.609.17-May-2020 4994.01 5542.48 70.01 4.00  10.00 2591.05
   19:37:16.809.17-May-2020 4994.01 5542.48 70.01 4.00  10.20 2591.05
   19:37:17.009.17-May-2020 4994.01 5539.29 70.01 4.00  10.40 2591.05
   19:37:17.209.17-May-2020 4994.01 5549.73 70.01 4.00  10.60 2591.05
   19:37:17.409.17-May-2020 4994.01 5559.12 70.01 4.00  10.80 2591.05
   19:37:17.609.17-May-2020 4994.01 5538.88 70.01 4.00  11.00 2591.05
   19:37:17.809.17-May-2020 4994.01 5538.88 70.01 4.00  11.20 2591.05
   19:37:18.009.17-May-2020 4994.01 5553.16 70.01 4.00  11.40 2591.05
   19:37:18.209.17-May-2020 4994.01 5548.81 70.01 4.00  11.60 2591.05
   19:37:18.409.17-May-2020 4994.01 5553.57 70.01 4.00  11.80 2591.05
   19:37:18.609.17-May-2020 4994.01 5548.36 70.01 4.00  12.00 2591.05
   19:37:18.809.17-May-2020 4994.01 5548.36 70.01 4.00  12.20 2591.05
   19:37:19.009.17-May-2020 4994.01 5556.70 70.01 4.00  12.40 2591.05
   19:37:19.209.17-May-2020 4994.01 5545.99 70.01 4.00  12.60 2591.05
   19:37:19.409.17-May-2020 4994.01 5551.63 70.01 4.00  12.80 2591.05
   19:37:19.609.17-May-2020 4994.01 5550.65 70.01 4.00  13.00 2591.05
   19:37:19.809.17-May-2020 4994.01 5543.87 70.01 4.00  13.20 2591.05
   19:37:20.009.17-May-2020 4994.01 5548.24 70.01 4.00  13.40 2591.05
   19:37:20.209.17-May-2020 4994.01 5547.61 70.01 4.00  13.60 2591.05
   19:37:20.409.17-May-2020 4994.01 5544.97 70.00 4.00  13.80 2591.05
   19:37:20.609.17-May-2020 4994.01 5545.43 70.00 4.00  14.00 2591.05
   19:37:20.809.17-May-2020 4994.01 5545.43 70.00 4.00  14.20 2591.05
   19:37:21.009.17-May-2020 4994.01 5546.05 70.00 4.00  14.40 2591.05
   19:37:21.209.17-May-2020 4994.01 5544.95 70.00 4.00  14.60 2591.05
   19:37:21.409.17-May-2020 4994.01 5556.68 70.00 4.00  14.80 2591.05
   19:37:21.609.17-May-2020 4994.01 5547.70 70.00 4.00  15.00 2591.05
   19:37:21.809.17-May-2020 4994.01 5547.70 70.00 4.00  15.20 2591.05
   19:37:22.009.17-May-2020 4994.01 5549.01 70.00 4.00  15.40 2591.05
   19:37:22.209.17-May-2020 4994.01 5546.77 70.00 4.00  15.60 2591.05
   19:37:22.409.17-May-2020 4994.01 5547.27 70.00 4.00  15.80 2591.05
   19:37:22.609.17-May-2020 4994.01 5546.14 70.00 4.00  16.00 2591.05
   19:37:22.809.17-May-2020 4994.01 5546.14 70.00 4.00  16.20 2591.05
   19:37:23.008.17-May-2020 4994.01 5544.27 70.00 4.00  16.40 2591.05
   19:37:23.208.17-May-2020 4994.01 5544.61 70.00 4.00  16.60 2591.05
   19:37:23.408.17-May-2020 4994.01 5545.42 70.00 4.00  16.80 2591.05
   19:37:23.608.17-May-2020 4994.01 5555.86 70.00 4.00  17.00 2591.05
   19:37:23.808.17-May-2020 4994.01 5555.86 70.00 4.00  17.20 2591.05
   19:37:24.008.17-May-2020 4994.01 5550.76 70.00 4.00  17.40 2591.05
   19:37:24.208.17-May-2020 4994.01 5549.28 70.00 4.00  17.60 2591.05
   19:37:24.408.17-May-2020 4994.01 5547.51 70.00 4.00  17.80 2591.05
   19:37:24.608.17-May-2020 4994.01 5551.03 70.00 4.00  18.00 2591.05
   19:37:24.808.17-May-2020 4994.01 5551.03 70.00 4.00  18.20 2591.05
   19:37:25.008.17-May-2020 4994.01 5548.44 70.00 4.00  18.40 2591.05
   19:37:25.208.17-May-2020 4994.01 5543.97 70.00 4.00  18.60 2591.05
   19:37:25.408.17-May-2020 4994.01 5557.90 70.00 4.00  18.80 2591.05
   19:37:25.608.17-May-2020 4994.01 5551.67 70.00 4.00  19.00 2591.05
   19:37:25.808.17-May-2020 4994.01 5551.67 70.00 4.00  19.20 2591.05
   19:37:26.008.17-May-2020 4994.01 5548.27 70.00 4.00  19.40 2591.05
   19:37:26.208.17-May-2020 4994.01 5562.22 70.00 4.00  19.60 2591.05
   19:37:26.408.17-May-2020 4994.01 5544.32 70.00 4.00  19.80 2591.05
   19:37:26.608.17-May-2020 4994.01 5549.54 70.00 4.00  20.00 2591.05
   19:37:26.808.17-May-2020 4994.01 5549.54 70.00 4.00  20.20 2591.05
   19:37:27.008.17-May-2020 4994.01 5543.13 70.00 4.00  20.40 2591.05
   19:37:27.208.17-May-2020 4994.01 5552.57 70.00 4.00  20.60 2591.05
   19:37:27.408.17-May-2020 4994.01 5550.76 70.00 4.00  20.80 2591.05
   19:37:27.608.17-May-2020 4994.01 5558.67 70.00 4.00  21.00 2591.05
   19:37:27.808.17-May-2020 4994.01 5558.67 70.00 4.00  21.20 2591.05
   19:37:28.008.17-May-2020 4994.01 5549.52 70.00 4.00  21.40 2591.05
   19:37:28.208.17-May-2020 4994.01 5550.28 70.00 4.00  21.60 2591.05
   19:37:28.408.17-May-2020 4994.01 5547.13 69.99 4.00  21.80 2591.05
   19:37:28.608.17-May-2020 4994.01 5547.50 69.99 4.00  22.00 2591.05
   19:37:28.808.17-May-2020 4994.01 5547.50 69.99 4.00  22.20 2591.05
   19:37:29.008.17-May-2020 4994.01 5547.10 69.99 4.00  22.40 2591.05
   19:37:29.208.17-May-2020 4994.01 5546.02 69.99 4.00  22.60 2591.05
   19:37:29.408.17-May-2020 4994.01 5545.76 69.99 4.00  22.80 2591.05
