~Version Information
 VERS.                  2.0:   CWLS log ASCII Standard -VERSION 2.0
 WRAP.                   NO:   One line per depth step
~Well Information Block
#MNEM.UNIT     VALUE/NAME     DESCRIPTION
#---------     -----------    ---------------------------
 STRT.S             22:49:31 17-May-20: START TIME 22:49:31 17-May-20
 STOP.S             22:56:24 17-May-20: STOP TIME  22:56:24 17-May-20
 STEP.S                   0.00: STEP TIME
 NULL.                 -999.25: NULL VALUE
 UNIT.                     N/A:  LOGGING EQUIPMENT ID
 DCON.         Sperry Drilling:  DIRECTNL CONTR
 DOE .                     N/A:  DOE NUMBER
 JOBN.        AZ-XX-0906252240:  JOB TICKET NUMB
 MWDS.                     N/A:  MWD SHOP
 PROV.                    Baku:  PROVINCE
 STAT.                    Baku:  STATE NAME
 REGN.                   EESSA:  REGION
 BASE.              Azerbaijan:  LOGGING EQUIPMENT BASE LOCATION
 UWI .                     N/A:  UNIQUE WELL IDENTIFIER
 API .                     N/A:  API NUMBER
 MDS .        Operator Entered:  MAG DATA SOURCE
 WTYP.                Deviated:  WELL TYPE
 COMP.     BP Exploration (Caspian Sea) Ltd.:  COMPANY
 SRVC.          Turan Drilling:  CONTRACTOR
 WELL.           J23 (Slot 07):  WELL NAME
 CTRY.              Azerbaijan:  COUNTRY NAME
 FLD .                     ACG:  FIELD NAME
 PDAT.          Mean Sea Level:  PERMANENT DATUM
 RIG .             West Chirag:  RIG NAME
 SON .        AZ-XX-0906252240:  JOB NUMBER
 FTOP.          Formation Tops:  FORM TOPS DESC
 ILTD.               Lithology:  INTERP LTH DESC
 SVYD.                  Survey:  SURVEY DESC
 DMOD.             Drill Model:  DRILL MOD DESC
 HPTY.       Minimum Curvature:  HOLE POS TYPE
 NREF.                    Grid:  NORTH REFERENCE
 SPUD.               27-Aug-20:  SPUD DATE
 DATE.      00.00.00 19-May-20:  END TIME
 STIM.      03.00.00 25-Mar-20:  START TIME
 DMF .             Drill Floor:  DRILL MEAS FROM
 DFST.                        :  DIST FSL TEXT
 DFWT.                        :  DIST FWL TEXT
 CNTY.                        :  COUNTY
 LOC .                        :  LOCATION
 LMF .             Drill Floor:  LOG MEASURED FROM
 VSNS.m                   9.43:  VERT SEC N/S
 VSEW.m                  -8.91:  VERT SEC E/W
 AGAP.m                  43.00:  AIR GAP
 DEP .m                 354.17:  DEPTH
 APD .m                  43.00:  DEPTH ABOVE PD
 WDMS.m                 169.80:  WD ELEV
 EGL .m                   0.00:  GROUND ELEVATION
 EPD .m                   0.00:  ELEVATION
 AZTC.deg                 6.31:  AZM TOTAL CORR
 GRDC.deg                 0.14:  GRID CORRECTION
 MDEC.deg                 6.45:  MAGNETIC DECL
 MDIP.deg                59.56:  MAGNETIC DIP
 MFLD.nT              50295.00:  MAGNETIC FIELD
 GVFD.g                   1.00:  GRAVITY FIELD
 VSDR.deg               179.88:  VERT SEC DIRECT
 TDD .m                5150.01:  TOTAL DEPTH (DRILLER)
 SDEP.m                 864.00:  START DEPTH
 DFSL.m                   0.00:  DISTANCE FSL
 DFWL.m                   0.00:  DISTANCE FWL
 UTMY.m             4443793.85:  UTM Y
 UTMX.m              519005.06:  UTM X
 WHEW.m                  -8.91:  WELL HEAD E/W
 WHNS.m                   9.43:  WELL HEAD N/S
 LONG.deg                51.22:  LONGITUDE
 LATI.deg                40.13:  LATITUDE
 TVDS.m                  43.00:  TVDSS CORRECTN
 EKB .m                   0.00:  KB ELEVATION
 EDF .m                  43.00:  DF ELEVATION
 TDL .m                 363.00:  TOTAL DEPTH (LOGGER)
 MAGU.                 1850802:  MAGUTM CHECKSUM
 VSC .                       0:  VS TO CLOSURE
~Parameter Information Block
#MNEM.UNIT       Value        Description
#---------     -----------    ---------------------------
 AV  .mps                 2.30:  Ann Velocity 
 AVMX.mps                 4.40:  Max Ann Veloc 
 AZIF.deg               110.24:  Azm, Final 
 BHAT.        Rotary Steerable:  BHA Type 
 BREV.rev               331.00:  Rev Bit Total 
 BROT.°/30m               0.00:  Build Rotating 
 BS  .in                  8.50:  Bit Size 
 BSZ .in                  8.50:  Bit Size 
 BTPL.psig              585.00:  Bit Press Loss 
 CABU.                     Yes:  Customer Abuse 
 COMM.                     ¼´€:  Run Comments 1 
 TCS .hr                122.75:  Time Ciculation Ended 
 CV  .mps                 2.67:  Crit Velocity 
 CVMX.mps                 3.56:  Max Crit Veloc 
 DD1 .          Rashad Habibov:  Direct Drillr 1 
 DD2 .         Rasim Ibrahimov:  Direct Drillr 2 
 DDSV.               Geo-Pilot:  DD Service 
 DEFF.%                  98.00:  % Det Eff 
 DLRX.°/30m               0.75:  Dogleg Rot Max 
 DLSO.°/30m               1.25:  Dogleg Oriented 
 DLSX.°/30m               2.06:  Dogleg Str Max 
 DRET.      07.45.00 17-May-20:  Drill End Time 
 DRST.      22.50.00 15-May-20:  Drill Start Tim 
 DTIM.hr                 20.75:  Time Drilling 
 EDEP.m                5124.01:  End Depth 
 ENG1.           Eldar Hajiyev:  Engineer 1 
 ENG2.        Marcelo Sandoval:  Engineer 2 
 ENG3.        Davud huseynzada:  Engineer 3 
 ENG4.          Ruslan Safarov:  Engineer 4 
 ETIM.      04.33.00 23-May-20:  End Time 
 FLOI.gpm               450.00:  Flow In 
 FLON.gpm               400.00:  Flow In Min 
 FLOS.cptm                0.00:  Fluid Loss 
 FLOX.gpm               500.00:  Flow In Max 
 FTRO.       Formation Presure:  FTWD Run Obj 
 HFLO.                      No:  High Flow 
 HPRE.                     Yes:  High Pressure 
 HTEM.                      No:  High Temp 
 HYDO.m                   1.80:  Hydro Offset 
 IFIN.deg                75.06:  Inc, Final 
 IMAX.deg                75.38:  Inc Max 
 IMIN.deg                74.69:  Inc Min 
 IMND.m                5027.38:  Inc Min Depth 
 IMXD.m                4771.61:  Inc Max Depth 
 JARR.                      No:  Jarring 
 LETM.      07.45.00 17-May-20:  Log End Time 
 LOST.hr                     0:  Lost Rig Time 
 LSTM.      22.50.00 15-May-20:  Log Start Time 
 MDCL.ppm             42000.00:  Mud Chlorides 
 MDES.     Inversion Oil/Synthetic:  Mud Desc 
 DFD .sg                  1.34:  Mud Density 
 MDMN.sg                  1.34:  Dens Mud Min 
 MDMX.sg                  1.34:  Dens Mud Max 
 MOIL.                       0:  Run Mud Oil % 
 MOWR.                   67:33:  Run Mud OWR 
 MSND.                       0:  Run Mud Sand % 
 MSOL.                     1.8:  Run Mud Solids% 
 DFV .spqt               76.00:  Mud Viscosity 
 MWOD.in                  6.75:  MWD Tool OD 
 MWSI.                      No:  Serv Intrp, MWD 
 OTIM.hr                228.19:  Time Operating 
 PCON.           Look Like New:  Pad Condition 
 PMAX.psia             6164.70:  Press Op, Max 
 PV  .cP                 28.00:  Mud PV 
 RUN .                     900:  Run Number 
 ROPA.m/hr               19.00:  ROP Avg 
 ROPN.m/hr               11.00:  ROP Min 
 ROPX.m/hr               36.00:  ROP Max 
 RPMA.rpm               120.00:  RPM Surface Avg 
 RPMN.rpm               120.00:  RPM Surface Min 
 RPMX.rpm               120.00:  RPM Surface Max 
 RRUN.                    L604:  Rig Run Number 
 RTIM.hr                  7.00:  Time Reaming 
 SAZI.deg               109.27:  Azm, Start 
 SDEP.m                4761.01:  Start Depth 
 SIDD.                      No:  Serv Intrp, DD 
 SINC.deg                75.38:  Inc, Start 
 SPPA.psig             3574.00:  SPP Avg 
 SPPN.psig             3475.00:  SPP Min 
 SPPX.psig             3791.00:  SPP Max 
 STIM.      07.08.48 13-May-20:  Start Time 
 SVCS.                 DD, MWD:  Services 
 SVER.                    9.20:  Sperry Version 
 TDAT.m                 363.00:  Tot Depth Attmp 
 TDDF.                      No:  Trip for DD 
 TDLG.m                 363.00:  Tot Depth Loggd 
 TFF .                      No:  Trip for Fail 
 TQAA.f-kp               20.00:  Torque Abs Avg 
 TQAN.f-kp               18.00:  Torque Abs Min 
 TQAX.f-kp               22.00:  Torque Abs Max 
 TRRT.°/30m              -0.35:  Turn Rotating 
 MRT .                    HCIM:  Maximum Recorded Temperature 
 TTMX.degC               92.16:  Max Tool Temp 
 VS01.                90586518:  Virtual Str1 SN 
 VS02.        AZ90560654Z1W1C6:  Virtual Str2 SN 
 VS03.           AZ90610398F11:  Virtual Str3 SN 
 VS04.                90514975:  Virtual Str4 SN 
 VS05.                90514972:  Virtual Str5 SN 
 VS06.     AZ90603282F11V7D1A6:  Virtual Str6 SN 
 WBMN.klb                 7.00:  WOB Min 
 WOBA.klb                12.00:  WOB Avg 
 WOBX.klb                14.00:  WOB Max 
 YP  .lhf2               32.00:  Yield Point 
~Curve Information Block
#MNEM.UNIT                 API CODE     Curve Description
#---------               -----------    ---------------------------
 TIME.HHMMSS            00 000 000 000:  GT Time & Date
 GTDEPTH.m              00 000 000 000:  GT Depth
 GTPQH.psia             00 000 000 000:  GT HR Quartz Pressure
 GTTQ.degC              00 000 000 000:  GT Quartz Temperature
 GTTN.NONE              00 000 000 000:  GT Test Number
 GTET.sec               00 000 000 000:  GT Elapsed Test Time
 GTTVD.m                00 000 000 000:  GT True Vertical Depth
#Other Information
#
#WARRANTY: Halliburton will use its best efforts to furnish customers with 
#accurate information and interpretations that are part of, and incident to, the services 
#provided.  However, Halliburton cannot and does not warrant the accuracy 
#or correctness of such information and interpretations.  Under no circumstances should any 
#such information or interpretation be relied upon as the sole basis for any drilling, 
#completion, production, or financial decision or any procedure involving any risk to the 
#safety of any drilling venture, drilling rig or its crew or any other third party.  The 
#Customer has full responsibility for all drilling, completion and production operation.  
#Halliburton makes no representations or warranties, either expressed or 
#implied, including, but not limited to, the implied warranties of merchantability or fitness 
#for a particular purpose, with respect to the services rendered.  In no event will 
#Halliburton be liable for failure to obtain any particular results or for 
#any damages, including, but not limited to, indirect, special or consequential damages, 
#resulting from the use of any information or interpretation provided by Halliburton.
#
~A           TIME           GTDEPTH  GTPQH  GTTQ  GTTN  GTET   GTTVD  
# ...
   22:51:26.468.17-May-2020 4908.51  112.06 67.18 8.00 114.94 2569.17
   22:51:26.668.17-May-2020 4908.51  112.06 67.18 8.00 115.14 2569.17
   22:51:26.867.17-May-2020 4908.51  112.82 67.18 8.00 115.34 2569.17
   22:51:27.067.17-May-2020 4908.51  113.20 67.18 8.00 115.54 2569.17
   22:51:27.267.17-May-2020 4908.51  113.58 67.18 8.00 115.74 2569.17
   22:51:27.467.17-May-2020 4908.51  113.97 67.18 8.00 115.94 2569.17
   22:51:27.667.17-May-2020 4908.51  114.40 67.18 8.00 116.14 2569.17
   22:51:27.867.17-May-2020 4908.51  114.75 67.18 8.00 116.34 2569.17
   22:51:28.067.17-May-2020 4908.51  115.14 67.18 8.00 116.54 2569.17
   22:51:28.267.17-May-2020 4908.51  115.54 67.18 8.00 116.74 2569.17
   22:51:28.467.17-May-2020 4908.51  115.94 67.18 8.00 116.94 2569.17
   22:51:28.666.17-May-2020 4908.51  116.35 67.18 8.00 117.14 2569.17
   22:51:28.866.17-May-2020 4908.51  116.75 67.18 8.00 117.34 2569.17
   22:51:29.066.17-May-2020 4908.51  117.17 67.18 8.00 117.54 2569.17
   22:51:29.266.17-May-2020 4908.51  117.58 67.18 8.00 117.74 2569.17
   22:51:29.466.17-May-2020 4908.51  118.00 67.18 8.00 117.94 2569.17
   22:51:29.666.17-May-2020 4908.51  118.00 67.18 8.00 118.14 2569.17
   22:51:29.866.17-May-2020 4908.51  118.85 67.18 8.00 118.34 2569.17
   22:51:30.066.17-May-2020 4908.51  119.28 67.18 8.00 118.54 2569.17
   22:51:30.266.17-May-2020 4908.51  119.73 67.18 8.00 118.74 2569.17
   22:51:30.466.17-May-2020 4908.51  120.20 67.18 8.00 118.94 2569.17
   22:51:30.665.17-May-2020 4908.51  120.20 67.18 8.00 119.14 2569.17
   22:51:30.865.17-May-2020 4908.51  121.07 67.18 8.00 119.34 2569.17
   22:51:31.065.17-May-2020 4908.51  121.54 67.18 8.00 119.54 2569.17
   22:51:31.265.17-May-2020 4908.51  122.03 67.18 8.00 119.74 2569.17
   22:51:31.465.17-May-2020 4908.51  122.48 67.18 8.00 119.94 2569.17
   22:51:31.665.17-May-2020 4908.51  122.95 67.18 8.00 120.14 2569.17
   22:51:31.865.17-May-2020 4908.51  123.45 67.18 8.00 120.34 2569.17
   22:51:32.065.17-May-2020 4908.51  123.93 67.18 8.00 120.54 2569.17
   22:51:32.265.17-May-2020 4908.51  124.41 67.18 8.00 120.74 2569.17
   22:51:32.465.17-May-2020 4908.51  124.91 67.18 8.00 120.94 2569.17
   22:51:32.664.17-May-2020 4908.51  125.41 67.18 8.00 121.14 2569.17
   22:51:32.864.17-May-2020 4908.51  125.91 67.18 8.00 121.34 2569.17
   22:51:33.064.17-May-2020 4908.51  126.42 67.18 8.00 121.54 2569.17
   22:51:33.264.17-May-2020 4908.51  126.93 67.18 8.00 121.74 2569.17
   22:51:33.464.17-May-2020 4908.51  127.45 67.18 8.00 121.94 2569.17
   22:51:33.664.17-May-2020 4908.51  127.45 67.18 8.00 122.14 2569.17
   22:51:33.864.17-May-2020 4908.51  128.51 67.18 8.00 122.34 2569.17
   22:51:34.064.17-May-2020 4908.51  129.06 67.18 8.00 122.54 2569.17
   22:51:34.264.17-May-2020 4908.51  129.57 67.18 8.00 122.74 2569.17
   22:51:34.464.17-May-2020 4908.51  130.12 67.18 8.00 122.94 2569.17
   22:51:34.663.17-May-2020 4908.51  130.12 67.18 8.00 123.14 2569.17
   22:51:34.863.17-May-2020 4908.51  131.22 67.18 8.00 123.34 2569.17
   22:51:35.063.17-May-2020 4908.51  131.78 67.18 8.00 123.54 2569.17
   22:51:35.263.17-May-2020 4908.51  132.35 67.18 8.00 123.74 2569.17
   22:51:35.463.17-May-2020 4908.51  132.91 67.18 8.00 123.94 2569.17
   22:51:35.663.17-May-2020 4908.51  133.48 67.18 8.00 124.14 2569.17
   22:51:35.863.17-May-2020 4908.51  134.07 67.18 8.00 124.34 2569.17
   22:51:36.063.17-May-2020 4908.51  134.68 67.18 8.00 124.54 2569.17
   22:51:36.263.17-May-2020 4908.51  135.25 67.18 8.00 124.74 2569.17
   22:51:36.462.17-May-2020 4908.51  135.85 67.18 8.00 124.94 2569.17
   22:51:36.662.17-May-2020 4908.51  136.48 67.18 8.00 125.14 2569.17
   22:51:36.862.17-May-2020 4908.51  137.09 67.18 8.00 125.34 2569.17
   22:51:37.062.17-May-2020 4908.51  137.70 67.18 8.00 125.54 2569.17
   22:51:37.262.17-May-2020 4908.51  138.33 67.18 8.00 125.74 2569.17
   22:51:37.462.17-May-2020 4908.51  138.96 67.18 8.00 125.94 2569.17
   22:51:37.662.17-May-2020 4908.51  138.96 67.18 8.00 126.14 2569.17
   22:51:37.862.17-May-2020 4908.51  140.26 67.18 8.00 126.34 2569.17
   22:51:38.062.17-May-2020 4908.51  140.89 67.18 8.00 126.54 2569.17
   22:51:38.262.17-May-2020 4908.51  141.55 67.18 8.00 126.73 2569.17
   22:51:38.461.17-May-2020 4908.51  142.23 67.18 8.00 126.93 2569.17
   22:51:38.661.17-May-2020 4908.51  142.23 67.18 8.00 127.13 2569.17
   22:51:38.861.17-May-2020 4908.51  143.58 67.18 8.00 127.33 2569.17
   22:51:39.061.17-May-2020 4908.51  144.26 67.18 8.00 127.53 2569.17
   22:51:39.261.17-May-2020 4908.51  144.96 67.18 8.00 127.73 2569.17
   22:51:39.461.17-May-2020 4908.51  145.67 67.18 8.00 127.93 2569.17
   22:51:39.661.17-May-2020 4908.51  146.38 67.18 8.00 128.13 2569.17
   22:51:39.861.17-May-2020 4908.51  147.10 67.18 8.00 128.33 2569.17
   22:51:40.061.17-May-2020 4908.51  147.82 67.18 8.00 128.53 2569.17
   22:51:40.261.17-May-2020 4908.51  148.58 67.18 8.00 128.73 2569.17
   22:51:40.460.17-May-2020 4908.51  149.32 67.18 8.00 128.93 2569.17
   22:51:40.660.17-May-2020 4908.51  150.11 67.18 8.00 129.13 2569.17
   22:51:40.860.17-May-2020 4908.51  150.88 67.18 8.00 129.33 2569.17
   22:51:41.060.17-May-2020 4908.51  151.68 67.18 8.00 129.53 2569.17
   22:51:41.260.17-May-2020 4908.51  152.49 67.18 8.00 129.73 2569.17
   22:51:41.460.17-May-2020 4908.51  153.29 67.18 8.00 129.93 2569.17
   22:51:41.660.17-May-2020 4908.51  153.29 67.18 8.00 130.13 2569.17
   22:51:41.860.17-May-2020 4908.51  154.93 67.18 8.00 130.33 2569.17
   22:51:42.060.17-May-2020 4908.51  155.77 67.18 8.00 130.53 2569.17
   22:51:42.260.17-May-2020 4908.51  156.61 67.18 8.00 130.73 2569.17
   22:51:42.459.17-May-2020 4908.51  157.44 67.18 8.00 130.93 2569.17
   22:51:42.659.17-May-2020 4908.51  157.44 67.18 8.00 131.13 2569.17
   22:51:42.859.17-May-2020 4908.51  159.22 67.18 8.00 131.33 2569.17
   22:51:43.059.17-May-2020 4908.51  160.11 67.18 8.00 131.53 2569.17
   22:51:43.259.17-May-2020 4908.51  161.02 67.18 8.00 131.73 2569.17
   22:51:43.459.17-May-2020 4908.51  161.98 67.18 8.00 131.93 2569.17
   22:51:43.659.17-May-2020 4908.51  162.96 67.18 8.00 132.13 2569.17
   22:51:43.859.17-May-2020 4908.51  163.95 67.18 8.00 132.33 2569.17
   22:51:44.059.17-May-2020 4908.51  164.99 67.18 8.00 132.53 2569.17
   22:51:44.258.17-May-2020 4908.51  166.06 67.18 8.00 132.73 2569.17
   22:51:44.458.17-May-2020 4908.51  167.12 67.18 8.00 132.93 2569.17
   22:51:44.658.17-May-2020 4908.51  168.16 67.18 8.00 133.13 2569.17
   22:51:44.858.17-May-2020 4908.51  169.18 67.18 8.00 133.33 2569.17
   22:51:45.058.17-May-2020 4908.51  170.26 67.18 8.00 133.53 2569.17
   22:51:45.258.17-May-2020 4908.51  171.34 67.18 8.00 133.73 2569.17
   22:51:45.458.17-May-2020 4908.51  172.39 67.18 8.00 133.93 2569.17
   22:51:45.658.17-May-2020 4908.51  172.39 67.18 8.00 134.13 2569.17
   22:51:45.858.17-May-2020 4908.51  174.55 67.18 8.00 134.33 2569.17
   22:51:46.058.17-May-2020 4908.51  175.62 67.18 8.00 134.53 2569.17
   22:51:46.257.17-May-2020 4908.51  176.70 67.18 8.00 134.73 2569.17
   22:51:46.457.17-May-2020 4908.51  177.74 67.18 8.00 134.93 2569.17
   22:51:46.657.17-May-2020 4908.51  177.74 67.18 8.00 135.13 2569.17
   22:51:46.857.17-May-2020 4908.51  179.85 67.18 8.00 135.33 2569.17
   22:51:47.057.17-May-2020 4908.51  180.92 67.18 8.00 135.53 2569.17
   22:51:47.257.17-May-2020 4908.51  182.02 67.18 8.00 135.73 2569.17
   22:51:47.457.17-May-2020 4908.51  183.13 67.18 8.00 135.93 2569.17
   22:51:47.657.17-May-2020 4908.51  184.23 67.18 8.00 136.13 2569.17
   22:51:47.857.17-May-2020 4908.51  185.35 67.18 8.00 136.33 2569.17
   22:51:48.057.17-May-2020 4908.51  186.47 67.18 8.00 136.53 2569.17
   22:51:48.256.17-May-2020 4908.51  187.61 67.18 8.00 136.73 2569.17
   22:51:48.456.17-May-2020 4908.51  188.77 67.18 8.00 136.93 2569.17
   22:51:48.656.17-May-2020 4908.51  189.97 67.18 8.00 137.13 2569.17
   22:51:48.856.17-May-2020 4908.51  191.22 67.18 8.00 137.33 2569.17
   22:51:49.056.17-May-2020 4908.51  192.45 67.18 8.00 137.53 2569.17
   22:51:49.256.17-May-2020 4908.51  193.77 67.19 8.00 137.73 2569.17
