~Version Information
 VERS.                  2.0:   CWLS log ASCII Standard -VERSION 2.0
 WRAP.                   NO:   One line per depth step
~Well Information Block
#MNEM.UNIT     VALUE/NAME     DESCRIPTION
#---------     -----------    ---------------------------
 STRT.S             03:21:16 18-May-20: START TIME 03:21:16 18-May-20
 STOP.S             03:28:29 18-May-20: STOP TIME  03:28:29 18-May-20
 STEP.S                   0.00: STEP TIME
 NULL.                 -999.25: NULL VALUE
 UNIT.                     N/A:  LOGGING EQUIPMENT ID
 DCON.         Sperry Drilling:  DIRECTNL CONTR
 DOE .                     N/A:  DOE NUMBER
 JOBN.        AZ-XX-0906252240:  JOB TICKET NUMB
 MWDS.                     N/A:  MWD SHOP
 PROV.                    Baku:  PROVINCE
 STAT.                    Baku:  STATE NAME
 REGN.                   EESSA:  REGION
 BASE.              Azerbaijan:  LOGGING EQUIPMENT BASE LOCATION
 UWI .                     N/A:  UNIQUE WELL IDENTIFIER
 API .                     N/A:  API NUMBER
 MDS .        Operator Entered:  MAG DATA SOURCE
 WTYP.                Deviated:  WELL TYPE
 COMP.     BP Exploration (Caspian Sea) Ltd.:  COMPANY
 SRVC.          Turan Drilling:  CONTRACTOR
 WELL.           J23 (Slot 07):  WELL NAME
 CTRY.              Azerbaijan:  COUNTRY NAME
 FLD .                     ACG:  FIELD NAME
 PDAT.          Mean Sea Level:  PERMANENT DATUM
 RIG .             West Chirag:  RIG NAME
 SON .        AZ-XX-0906252240:  JOB NUMBER
 FTOP.          Formation Tops:  FORM TOPS DESC
 ILTD.               Lithology:  INTERP LTH DESC
 SVYD.                  Survey:  SURVEY DESC
 DMOD.             Drill Model:  DRILL MOD DESC
 HPTY.       Minimum Curvature:  HOLE POS TYPE
 NREF.                    Grid:  NORTH REFERENCE
 SPUD.               27-Aug-20:  SPUD DATE
 DATE.      00.00.00 19-May-20:  END TIME
 STIM.      03.00.00 25-Mar-20:  START TIME
 DMF .             Drill Floor:  DRILL MEAS FROM
 DFST.                        :  DIST FSL TEXT
 DFWT.                        :  DIST FWL TEXT
 CNTY.                        :  COUNTY
 LOC .                        :  LOCATION
 LMF .             Drill Floor:  LOG MEASURED FROM
 VSNS.m                   9.43:  VERT SEC N/S
 VSEW.m                  -8.91:  VERT SEC E/W
 AGAP.m                  43.00:  AIR GAP
 DEP .m                 354.17:  DEPTH
 APD .m                  43.00:  DEPTH ABOVE PD
 WDMS.m                 169.80:  WD ELEV
 EGL .m                   0.00:  GROUND ELEVATION
 EPD .m                   0.00:  ELEVATION
 AZTC.deg                 6.31:  AZM TOTAL CORR
 GRDC.deg                 0.14:  GRID CORRECTION
 MDEC.deg                 6.45:  MAGNETIC DECL
 MDIP.deg                59.56:  MAGNETIC DIP
 MFLD.nT              50295.00:  MAGNETIC FIELD
 GVFD.g                   1.00:  GRAVITY FIELD
 VSDR.deg               179.88:  VERT SEC DIRECT
 TDD .m                5150.01:  TOTAL DEPTH (DRILLER)
 SDEP.m                 864.00:  START DEPTH
 DFSL.m                   0.00:  DISTANCE FSL
 DFWL.m                   0.00:  DISTANCE FWL
 UTMY.m             4443793.85:  UTM Y
 UTMX.m              519005.06:  UTM X
 WHEW.m                  -8.91:  WELL HEAD E/W
 WHNS.m                   9.43:  WELL HEAD N/S
 LONG.deg                51.22:  LONGITUDE
 LATI.deg                40.13:  LATITUDE
 TVDS.m                  43.00:  TVDSS CORRECTN
 EKB .m                   0.00:  KB ELEVATION
 EDF .m                  43.00:  DF ELEVATION
 TDL .m                 363.00:  TOTAL DEPTH (LOGGER)
 MAGU.                 1850802:  MAGUTM CHECKSUM
 VSC .                       0:  VS TO CLOSURE
~Parameter Information Block
#MNEM.UNIT       Value        Description
#---------     -----------    ---------------------------
 AV  .mps                 2.30:  Ann Velocity 
 AVMX.mps                 4.40:  Max Ann Veloc 
 AZIF.deg               110.24:  Azm, Final 
 BHAT.        Rotary Steerable:  BHA Type 
 BREV.rev               331.00:  Rev Bit Total 
 BROT.°/30m               0.00:  Build Rotating 
 BS  .in                  8.50:  Bit Size 
 BSZ .in                  8.50:  Bit Size 
 BTPL.psig              585.00:  Bit Press Loss 
 CABU.                     Yes:  Customer Abuse 
 TCS .hr                122.75:  Time Ciculation Ended 
 CV  .mps                 2.67:  Crit Velocity 
 CVMX.mps                 3.56:  Max Crit Veloc 
 DD1 .          Rashad Habibov:  Direct Drillr 1 
 DD2 .         Rasim Ibrahimov:  Direct Drillr 2 
 DDSV.               Geo-Pilot:  DD Service 
 DEFF.%                  98.00:  % Det Eff 
 DLRX.°/30m               0.75:  Dogleg Rot Max 
 DLSO.°/30m               1.25:  Dogleg Oriented 
 DLSX.°/30m               2.06:  Dogleg Str Max 
 DRET.      07.45.00 17-May-20:  Drill End Time 
 DRST.      22.50.00 15-May-20:  Drill Start Tim 
 DTIM.hr                 20.75:  Time Drilling 
 EDEP.m                5124.01:  End Depth 
 ENG1.           Eldar Hajiyev:  Engineer 1 
 ENG2.        Marcelo Sandoval:  Engineer 2 
 ENG3.        Davud huseynzada:  Engineer 3 
 ENG4.          Ruslan Safarov:  Engineer 4 
 ETIM.      04.33.00 23-May-20:  End Time 
 FLOI.gpm               450.00:  Flow In 
 FLON.gpm               400.00:  Flow In Min 
 FLOS.cptm                0.00:  Fluid Loss 
 FLOX.gpm               500.00:  Flow In Max 
 FTRO.       Formation Presure:  FTWD Run Obj 
 HFLO.                      No:  High Flow 
 HPRE.                     Yes:  High Pressure 
 HTEM.                      No:  High Temp 
 HYDO.m                   1.80:  Hydro Offset 
 IFIN.deg                75.06:  Inc, Final 
 IMAX.deg                75.38:  Inc Max 
 IMIN.deg                74.69:  Inc Min 
 IMND.m                5027.38:  Inc Min Depth 
 IMXD.m                4771.61:  Inc Max Depth 
 JARR.                      No:  Jarring 
 LETM.      07.45.00 17-May-20:  Log End Time 
 LOST.hr                     0:  Lost Rig Time 
 LSTM.      22.50.00 15-May-20:  Log Start Time 
 MDCL.ppm             42000.00:  Mud Chlorides 
 MDES.     Inversion Oil/Synthetic:  Mud Desc 
 DFD .sg                  1.34:  Mud Density 
 MDMN.sg                  1.34:  Dens Mud Min 
 MDMX.sg                  1.34:  Dens Mud Max 
 MOIL.                       0:  Run Mud Oil % 
 MOWR.                   67:33:  Run Mud OWR 
 MSND.                       0:  Run Mud Sand % 
 MSOL.                     1.8:  Run Mud Solids% 
 DFV .spqt               76.00:  Mud Viscosity 
 MWOD.in                  6.75:  MWD Tool OD 
 MWSI.                      No:  Serv Intrp, MWD 
 OTIM.hr                228.19:  Time Operating 
 PCON.           Look Like New:  Pad Condition 
 PMAX.psia             6164.70:  Press Op, Max 
 PV  .cP                 28.00:  Mud PV 
 RUN .                     900:  Run Number 
 ROPA.m/hr               19.00:  ROP Avg 
 ROPN.m/hr               11.00:  ROP Min 
 ROPX.m/hr               36.00:  ROP Max 
 RPMA.rpm               120.00:  RPM Surface Avg 
 RPMN.rpm               120.00:  RPM Surface Min 
 RPMX.rpm               120.00:  RPM Surface Max 
 RRUN.                    L604:  Rig Run Number 
 RTIM.hr                  7.00:  Time Reaming 
 SAZI.deg               109.27:  Azm, Start 
 SDEP.m                4761.01:  Start Depth 
 SIDD.                      No:  Serv Intrp, DD 
 SINC.deg                75.38:  Inc, Start 
 SPPA.psig             3574.00:  SPP Avg 
 SPPN.psig             3475.00:  SPP Min 
 SPPX.psig             3791.00:  SPP Max 
 STIM.      07.08.48 13-May-20:  Start Time 
 SVCS.                 DD, MWD:  Services 
 SVER.                    9.20:  Sperry Version 
 TDAT.m                 363.00:  Tot Depth Attmp 
 TDDF.                      No:  Trip for DD 
 TDLG.m                 363.00:  Tot Depth Loggd 
 TFF .                      No:  Trip for Fail 
 TQAA.f-kp               20.00:  Torque Abs Avg 
 TQAN.f-kp               18.00:  Torque Abs Min 
 TQAX.f-kp               22.00:  Torque Abs Max 
 TRRT.°/30m              -0.35:  Turn Rotating 
 MRT .                    HCIM:  Maximum Recorded Temperature 
 TTMX.degC               92.16:  Max Tool Temp 
 VS01.                90586518:  Virtual Str1 SN 
 VS02.        AZ90560654Z1W1C6:  Virtual Str2 SN 
 VS03.           AZ90610398F11:  Virtual Str3 SN 
 VS04.                90514975:  Virtual Str4 SN 
 VS05.                90514972:  Virtual Str5 SN 
 VS06.     AZ90603282F11V7D1A6:  Virtual Str6 SN 
 WBMN.klb                 7.00:  WOB Min 
 WOBA.klb                12.00:  WOB Avg 
 WOBX.klb                14.00:  WOB Max 
 YP  .lhf2               32.00:  Yield Point 
~Curve Information Block
#MNEM.UNIT                 API CODE     Curve Description
#---------               -----------    ---------------------------
 TIME.HHMMSS            00 000 000 000:  GT Time & Date
 GTDEPTH.m              00 000 000 000:  GT Depth
 GTPQH.psia             00 000 000 000:  GT HR Quartz Pressure
 GTTQ.degC              00 000 000 000:  GT Quartz Temperature
 GTTN.NONE              00 000 000 000:  GT Test Number
 GTET.sec               00 000 000 000:  GT Elapsed Test Time
 GTTVD.m                00 000 000 000:  GT True Vertical Depth
#Other Information
#
#WARRANTY: Halliburton will use its best efforts to furnish customers with 
#accurate information and interpretations that are part of, and incident to, the services 
#provided.  However, Halliburton cannot and does not warrant the accuracy 
#or correctness of such information and interpretations.  Under no circumstances should any 
#such information or interpretation be relied upon as the sole basis for any drilling, 
#completion, production, or financial decision or any procedure involving any risk to the 
#safety of any drilling venture, drilling rig or its crew or any other third party.  The 
#Customer has full responsibility for all drilling, completion and production operation.  
#Halliburton makes no representations or warranties, either expressed or 
#implied, including, but not limited to, the implied warranties of merchantability or fitness 
#for a particular purpose, with respect to the services rendered.  In no event will 
#Halliburton be liable for failure to obtain any particular results or for 
#any damages, including, but not limited to, indirect, special or consequential damages, 
#resulting from the use of any information or interpretation provided by Halliburton.
#
~A           TIME           GTDEPTH  GTPQH  GTTQ  GTTN   GTET   GTTVD  
# ...
   03:22:47.026.18-May-2020 4797.01 3817.21 65.98 13.00  90.44 2540.22
   03:22:47.226.18-May-2020 4797.01 3817.13 65.98 13.00  90.64 2540.22
   03:22:47.426.18-May-2020 4797.01 3816.20 65.98 13.00  90.84 2540.22
   03:22:47.626.18-May-2020 4797.01 3818.38 65.98 13.00  91.04 2540.22
   03:22:47.826.18-May-2020 4797.01 3818.38 65.98 13.00  91.24 2540.22
   03:22:48.026.18-May-2020 4797.01 3817.04 65.98 13.00  91.44 2540.22
   03:22:48.226.18-May-2020 4797.01 3817.48 65.98 13.00  91.64 2540.22
   03:22:48.426.18-May-2020 4797.01 3817.35 65.98 13.00  91.84 2540.22
   03:22:48.626.18-May-2020 4797.01 3817.16 65.98 13.00  92.04 2540.22
   03:22:48.826.18-May-2020 4797.01 3817.16 65.98 13.00  92.24 2540.22
   03:22:49.026.18-May-2020 4797.01 3817.28 65.98 13.00  92.44 2540.22
   03:22:49.226.18-May-2020 4797.01 3817.17 65.98 13.00  92.64 2540.22
   03:22:49.427.18-May-2020 4797.01 3817.22 65.98 13.00  92.84 2540.22
   03:22:49.627.18-May-2020 4797.01 3817.20 65.98 13.00  93.04 2540.22
   03:22:49.827.18-May-2020 4797.01 3817.20 65.98 13.00  93.24 2540.22
   03:22:50.027.18-May-2020 4797.01 3817.07 65.98 13.00  93.44 2540.22
   03:22:50.227.18-May-2020 4797.01 3817.35 65.98 13.00  93.64 2540.22
   03:22:50.427.18-May-2020 4797.01 3817.45 65.98 13.00  93.84 2540.22
   03:22:50.627.18-May-2020 4797.01 3816.89 65.98 13.00  94.04 2540.22
   03:22:50.827.18-May-2020 4797.01 3816.89 65.98 13.00  94.24 2540.22
   03:22:51.027.18-May-2020 4797.01 3817.22 65.98 13.00  94.44 2540.22
   03:22:51.227.18-May-2020 4797.01 3817.35 65.98 13.00  94.64 2540.22
   03:22:51.427.18-May-2020 4797.01 3816.74 65.98 13.00  94.84 2540.22
   03:22:51.627.18-May-2020 4797.01 3818.77 65.98 13.00  95.04 2540.22
   03:22:51.827.18-May-2020 4797.01 3818.77 65.98 13.00  95.24 2540.22
   03:22:52.028.18-May-2020 4797.01 3817.13 65.98 13.00  95.44 2540.22
   03:22:52.228.18-May-2020 4797.01 3817.88 65.97 13.00  95.64 2540.22
   03:22:52.428.18-May-2020 4797.01 3817.55 65.98 13.00  95.84 2540.22
   03:22:52.628.18-May-2020 4797.01 3817.19 65.97 13.00  96.04 2540.22
   03:22:52.828.18-May-2020 4797.01 3817.49 65.97 13.00  96.24 2540.22
   03:22:53.028.18-May-2020 4797.01 3817.54 65.97 13.00  96.44 2540.22
   03:22:53.228.18-May-2020 4797.01 3817.33 65.97 13.00  96.64 2540.22
   03:22:53.428.18-May-2020 4797.01 3817.29 65.97 13.00  96.84 2540.22
   03:22:53.628.18-May-2020 4797.01 3817.34 65.97 13.00  97.04 2540.22
   03:22:53.828.18-May-2020 4797.01 3817.28 65.97 13.00  97.24 2540.22
   03:22:54.028.18-May-2020 4797.01 3817.30 65.97 13.00  97.44 2540.22
   03:22:54.228.18-May-2020 4797.01 3816.39 65.97 13.00  97.64 2540.22
   03:22:54.429.18-May-2020 4797.01 3818.44 65.97 13.00  97.84 2540.22
   03:22:54.629.18-May-2020 4797.01 3817.34 65.97 13.00  98.04 2540.22
   03:22:54.829.18-May-2020 4797.01 3817.34 65.97 13.00  98.24 2540.22
   03:22:55.029.18-May-2020 4797.01 3817.59 65.97 13.00  98.44 2540.22
   03:22:55.229.18-May-2020 4797.01 3817.47 65.97 13.00  98.64 2540.22
   03:22:55.429.18-May-2020 4797.01 3817.34 65.97 13.00  98.84 2540.22
   03:22:55.629.18-May-2020 4797.01 3817.30 65.97 13.00  99.04 2540.22
   03:22:55.829.18-May-2020 4797.01 3817.30 65.97 13.00  99.24 2540.22
   03:22:56.029.18-May-2020 4797.01 3817.27 65.97 13.00  99.44 2540.22
   03:22:56.229.18-May-2020 4797.01 3817.38 65.97 13.00  99.64 2540.22
   03:22:56.429.18-May-2020 4797.01 3817.15 65.97 13.00  99.84 2540.22
   03:22:56.629.18-May-2020 4797.01 3817.80 65.97 13.00 100.04 2540.22
   03:22:56.829.18-May-2020 4797.01 3817.80 65.97 13.00 100.24 2540.22
   03:22:57.030.18-May-2020 4797.01 3817.44 65.97 13.00 100.44 2540.22
   03:22:57.230.18-May-2020 4797.01 3817.63 65.97 13.00 100.64 2540.22
   03:22:57.430.18-May-2020 4797.01 3816.74 65.97 13.00 100.84 2540.22
   03:22:57.630.18-May-2020 4797.01 3818.27 65.97 13.00 101.04 2540.22
   03:22:57.830.18-May-2020 4797.01 3818.27 65.97 13.00 101.24 2540.22
   03:22:58.030.18-May-2020 4797.01 3817.35 65.97 13.00 101.44 2540.22
   03:22:58.230.18-May-2020 4797.01 3816.63 65.97 13.00 101.64 2540.22
   03:22:58.430.18-May-2020 4797.01 3818.77 65.97 13.00 101.84 2540.22
   03:22:58.630.18-May-2020 4797.01 3817.39 65.97 13.00 102.04 2540.22
   03:22:58.830.18-May-2020 4797.01 3817.39 65.97 13.00 102.24 2540.22
   03:22:59.030.18-May-2020 4797.01 3817.78 65.97 13.00 102.44 2540.22
   03:22:59.230.18-May-2020 4797.01 3817.76 65.97 13.00 102.64 2540.22
   03:22:59.431.18-May-2020 4797.01 3817.34 65.97 13.00 102.84 2540.22
   03:22:59.631.18-May-2020 4797.01 3817.57 65.97 13.00 103.04 2540.22
   03:22:59.831.18-May-2020 4797.01 3817.57 65.97 13.00 103.24 2540.22
   03:23:00.031.18-May-2020 4797.01 3817.42 65.97 13.00 103.44 2540.22
   03:23:00.231.18-May-2020 4797.01 3817.43 65.97 13.00 103.64 2540.22
   03:23:00.431.18-May-2020 4797.01 3817.41 65.97 13.00 103.84 2540.22
   03:23:00.631.18-May-2020 4797.01 3817.40 65.97 13.00 104.04 2540.22
   03:23:00.831.18-May-2020 4797.01 3817.40 65.97 13.00 104.24 2540.22
   03:23:01.031.18-May-2020 4797.01 3816.61 65.97 13.00 104.44 2540.22
   03:23:01.231.18-May-2020 4797.01 3818.35 65.97 13.00 104.64 2540.22
   03:23:01.431.18-May-2020 4797.01 3817.52 65.97 13.00 104.84 2540.22
   03:23:01.631.18-May-2020 4797.01 3817.31 65.97 13.00 105.04 2540.22
   03:23:01.832.18-May-2020 4797.01 3817.31 65.97 13.00 105.24 2540.22
   03:23:02.032.18-May-2020 4797.01 3817.59 65.97 13.00 105.44 2540.22
   03:23:02.232.18-May-2020 4797.01 3817.43 65.97 13.00 105.64 2540.22
   03:23:02.432.18-May-2020 4797.01 3817.43 65.97 13.00 105.84 2540.22
   03:23:02.632.18-May-2020 4797.01 3817.47 65.97 13.00 106.04 2540.22
   03:23:02.832.18-May-2020 4797.01 3817.47 65.97 13.00 106.24 2540.22
   03:23:03.032.18-May-2020 4797.01 3817.45 65.97 13.00 106.44 2540.22
   03:23:03.232.18-May-2020 4797.01 3817.00 65.97 13.00 106.64 2540.22
   03:23:03.432.18-May-2020 4797.01 3818.17 65.97 13.00 106.84 2540.22
   03:23:03.632.18-May-2020 4797.01 3817.32 65.97 13.00 107.04 2540.22
   03:23:03.832.18-May-2020 4797.01 3817.32 65.97 13.00 107.24 2540.22
   03:23:04.032.18-May-2020 4797.01 3817.73 65.97 13.00 107.44 2540.22
   03:23:04.232.18-May-2020 4797.01 3816.58 65.97 13.00 107.64 2540.22
   03:23:04.433.18-May-2020 4797.01 3818.61 65.97 13.00 107.84 2540.22
   03:23:04.633.18-May-2020 4797.01 3817.30 65.97 13.00 108.04 2540.22
   03:23:04.833.18-May-2020 4797.01 3817.30 65.97 13.00 108.24 2540.22
   03:23:05.033.18-May-2020 4797.01 3816.88 65.97 13.00 108.44 2540.22
   03:23:05.233.18-May-2020 4797.01 3818.70 65.97 13.00 108.64 2540.22
   03:23:05.433.18-May-2020 4797.01 3817.56 65.97 13.00 108.84 2540.22
   03:23:05.633.18-May-2020 4797.01 3817.35 65.97 13.00 109.04 2540.22
   03:23:05.833.18-May-2020 4797.01 3817.35 65.97 13.00 109.24 2540.22
   03:23:06.033.18-May-2020 4797.01 3817.99 65.97 13.00 109.44 2540.22
   03:23:06.233.18-May-2020 4797.01 3817.46 65.97 13.00 109.64 2540.22
   03:23:06.433.18-May-2020 4797.01 3817.65 65.97 13.00 109.84 2540.22
   03:23:06.633.18-May-2020 4797.01 3817.89 65.97 13.00 110.04 2540.22
   03:23:06.834.18-May-2020 4797.01 3817.89 65.97 13.00 110.24 2540.22
   03:23:07.034.18-May-2020 4797.01 3817.56 65.97 13.00 110.44 2540.22
   03:23:07.234.18-May-2020 4797.01 3817.54 65.97 13.00 110.64 2540.22
   03:23:07.434.18-May-2020 4797.01 3817.52 65.97 13.00 110.84 2540.22
   03:23:07.634.18-May-2020 4797.01 3817.51 65.97 13.00 111.04 2540.22
   03:23:07.834.18-May-2020 4797.01 3817.51 65.97 13.00 111.24 2540.22
   03:23:08.034.18-May-2020 4797.01 3818.24 65.97 13.00 111.44 2540.22
   03:23:08.234.18-May-2020 4797.01 3817.65 65.97 13.00 111.65 2540.22
   03:23:08.434.18-May-2020 4797.01 3817.43 65.97 13.00 111.85 2540.22
   03:23:08.634.18-May-2020 4797.01 3817.76 65.97 13.00 112.05 2540.22
   03:23:08.834.18-May-2020 4797.01 3817.76 65.97 13.00 112.25 2540.22
   03:23:09.034.18-May-2020 4797.01 3817.56 65.97 13.00 112.45 2540.22
   03:23:09.234.18-May-2020 4797.01 3817.54 65.97 13.00 112.65 2540.22
   03:23:09.435.18-May-2020 4797.01 3817.59 65.97 13.00 112.85 2540.22
