~Version Information
 VERS.                  2.0:   CWLS log ASCII Standard -VERSION 2.0
 WRAP.                   NO:   One line per depth step
~Well Information Block
#MNEM.UNIT     VALUE/NAME     DESCRIPTION
#---------     -----------    ---------------------------
 STRT.S             14:38:44 17-May-20: START TIME 14:38:44 17-May-20
 STOP.S             14:45:36 17-May-20: STOP TIME  14:45:36 17-May-20
 STEP.S                   0.00: STEP TIME
 NULL.                 -999.25: NULL VALUE
 UNIT.                     N/A:  LOGGING EQUIPMENT ID
 DCON.         Sperry Drilling:  DIRECTNL CONTR
 DOE .                     N/A:  DOE NUMBER
 JOBN.        AZ-XX-0906252240:  JOB TICKET NUMB
 MWDS.                     N/A:  MWD SHOP
 PROV.                    Baku:  PROVINCE
 STAT.                    Baku:  STATE NAME
 REGN.                   EESSA:  REGION
 BASE.              Azerbaijan:  LOGGING EQUIPMENT BASE LOCATION
 UWI .                     N/A:  UNIQUE WELL IDENTIFIER
 API .                     N/A:  API NUMBER
 MDS .        Operator Entered:  MAG DATA SOURCE
 WTYP.                Deviated:  WELL TYPE
 COMP.     BP Exploration (Caspian Sea) Ltd.:  COMPANY
 SRVC.          Turan Drilling:  CONTRACTOR
 WELL.           J23 (Slot 07):  WELL NAME
 CTRY.              Azerbaijan:  COUNTRY NAME
 FLD .                     ACG:  FIELD NAME
 PDAT.          Mean Sea Level:  PERMANENT DATUM
 RIG .             West Chirag:  RIG NAME
 SON .        AZ-XX-0906252240:  JOB NUMBER
 FTOP.          Formation Tops:  FORM TOPS DESC
 ILTD.               Lithology:  INTERP LTH DESC
 SVYD.                  Survey:  SURVEY DESC
 DMOD.             Drill Model:  DRILL MOD DESC
 HPTY.       Minimum Curvature:  HOLE POS TYPE
 NREF.                    Grid:  NORTH REFERENCE
 SPUD.               27-Aug-20:  SPUD DATE
 DATE.      00.00.00 19-May-20:  END TIME
 STIM.      03.00.00 25-Mar-20:  START TIME
 DMF .             Drill Floor:  DRILL MEAS FROM
 DFST.                        :  DIST FSL TEXT
 DFWT.                        :  DIST FWL TEXT
 CNTY.                        :  COUNTY
 LOC .                        :  LOCATION
 LMF .             Drill Floor:  LOG MEASURED FROM
 VSNS.m                   9.43:  VERT SEC N/S
 VSEW.m                  -8.91:  VERT SEC E/W
 AGAP.m                  43.00:  AIR GAP
 DEP .m                 354.17:  DEPTH
 APD .m                  43.00:  DEPTH ABOVE PD
 WDMS.m                 169.80:  WD ELEV
 EGL .m                   0.00:  GROUND ELEVATION
 EPD .m                   0.00:  ELEVATION
 AZTC.deg                 6.31:  AZM TOTAL CORR
 GRDC.deg                 0.14:  GRID CORRECTION
 MDEC.deg                 6.45:  MAGNETIC DECL
 MDIP.deg                59.56:  MAGNETIC DIP
 MFLD.nT              50295.00:  MAGNETIC FIELD
 GVFD.g                   1.00:  GRAVITY FIELD
 VSDR.deg               179.88:  VERT SEC DIRECT
 TDD .m                5150.01:  TOTAL DEPTH (DRILLER)
 SDEP.m                 864.00:  START DEPTH
 DFSL.m                   0.00:  DISTANCE FSL
 DFWL.m                   0.00:  DISTANCE FWL
 UTMY.m             4443793.85:  UTM Y
 UTMX.m              519005.06:  UTM X
 WHEW.m                  -8.91:  WELL HEAD E/W
 WHNS.m                   9.43:  WELL HEAD N/S
 LONG.deg                51.22:  LONGITUDE
 LATI.deg                40.13:  LATITUDE
 TVDS.m                  43.00:  TVDSS CORRECTN
 EKB .m                   0.00:  KB ELEVATION
 EDF .m                  43.00:  DF ELEVATION
 TDL .m                 363.00:  TOTAL DEPTH (LOGGER)
 MAGU.                 1850802:  MAGUTM CHECKSUM
 VSC .                       0:  VS TO CLOSURE
~Parameter Information Block
#MNEM.UNIT       Value        Description
#---------     -----------    ---------------------------
 AV  .mps                 2.30:  Ann Velocity 
 AVMX.mps                 4.40:  Max Ann Veloc 
 AZIF.deg               110.24:  Azm, Final 
 BHAT.        Rotary Steerable:  BHA Type 
 BREV.rev               331.00:  Rev Bit Total 
 BROT.°/30m               0.00:  Build Rotating 
 BS  .in                  8.50:  Bit Size 
 BSZ .in                  8.50:  Bit Size 
 BTPL.psig              585.00:  Bit Press Loss 
 CABU.                     Yes:  Customer Abuse 
 COMM.                     ÔF[:  Run Comments 1 
 TCS .hr                122.75:  Time Ciculation Ended 
 CV  .mps                 2.67:  Crit Velocity 
 CVMX.mps                 3.56:  Max Crit Veloc 
 DD1 .          Rashad Habibov:  Direct Drillr 1 
 DD2 .         Rasim Ibrahimov:  Direct Drillr 2 
 DDSV.               Geo-Pilot:  DD Service 
 DEFF.%                  98.00:  % Det Eff 
 DLRX.°/30m               0.75:  Dogleg Rot Max 
 DLSO.°/30m               1.25:  Dogleg Oriented 
 DLSX.°/30m               2.06:  Dogleg Str Max 
 DRET.      07.45.00 17-May-20:  Drill End Time 
 DRST.      22.50.00 15-May-20:  Drill Start Tim 
 DTIM.hr                 20.75:  Time Drilling 
 EDEP.m                5124.01:  End Depth 
 ENG1.           Eldar Hajiyev:  Engineer 1 
 ENG2.        Marcelo Sandoval:  Engineer 2 
 ENG3.        Davud huseynzada:  Engineer 3 
 ENG4.          Ruslan Safarov:  Engineer 4 
 ETIM.      04.33.00 23-May-20:  End Time 
 FLOI.gpm               450.00:  Flow In 
 FLON.gpm               400.00:  Flow In Min 
 FLOS.cptm                0.00:  Fluid Loss 
 FLOX.gpm               500.00:  Flow In Max 
 FTRO.       Formation Presure:  FTWD Run Obj 
 HFLO.                      No:  High Flow 
 HPRE.                     Yes:  High Pressure 
 HTEM.                      No:  High Temp 
 HYDO.m                   1.80:  Hydro Offset 
 IFIN.deg                75.06:  Inc, Final 
 IMAX.deg                75.38:  Inc Max 
 IMIN.deg                74.69:  Inc Min 
 IMND.m                5027.38:  Inc Min Depth 
 IMXD.m                4771.61:  Inc Max Depth 
 JARR.                      No:  Jarring 
 LETM.      07.45.00 17-May-20:  Log End Time 
 LOST.hr                     0:  Lost Rig Time 
 LSTM.      22.50.00 15-May-20:  Log Start Time 
 MDCL.ppm             42000.00:  Mud Chlorides 
 MDES.     Inversion Oil/Synthetic:  Mud Desc 
 DFD .sg                  1.34:  Mud Density 
 MDMN.sg                  1.34:  Dens Mud Min 
 MDMX.sg                  1.34:  Dens Mud Max 
 MOIL.                       0:  Run Mud Oil % 
 MOWR.                   67:33:  Run Mud OWR 
 MSND.                       0:  Run Mud Sand % 
 MSOL.                     1.8:  Run Mud Solids% 
 DFV .spqt               76.00:  Mud Viscosity 
 MWOD.in                  6.75:  MWD Tool OD 
 MWSI.                      No:  Serv Intrp, MWD 
 OTIM.hr                228.19:  Time Operating 
 PCON.           Look Like New:  Pad Condition 
 PMAX.psia             6164.70:  Press Op, Max 
 PV  .cP                 28.00:  Mud PV 
 RUN .                     900:  Run Number 
 ROPA.m/hr               19.00:  ROP Avg 
 ROPN.m/hr               11.00:  ROP Min 
 ROPX.m/hr               36.00:  ROP Max 
 RPMA.rpm               120.00:  RPM Surface Avg 
 RPMN.rpm               120.00:  RPM Surface Min 
 RPMX.rpm               120.00:  RPM Surface Max 
 RRUN.                    L604:  Rig Run Number 
 RTIM.hr                  7.00:  Time Reaming 
 SAZI.deg               109.27:  Azm, Start 
 SDEP.m                4761.01:  Start Depth 
 SIDD.                      No:  Serv Intrp, DD 
 SINC.deg                75.38:  Inc, Start 
 SPPA.psig             3574.00:  SPP Avg 
 SPPN.psig             3475.00:  SPP Min 
 SPPX.psig             3791.00:  SPP Max 
 STIM.      07.08.48 13-May-20:  Start Time 
 SVCS.                 DD, MWD:  Services 
 SVER.                    9.20:  Sperry Version 
 TDAT.m                 363.00:  Tot Depth Attmp 
 TDDF.                      No:  Trip for DD 
 TDLG.m                 363.00:  Tot Depth Loggd 
 TFF .                      No:  Trip for Fail 
 TQAA.f-kp               20.00:  Torque Abs Avg 
 TQAN.f-kp               18.00:  Torque Abs Min 
 TQAX.f-kp               22.00:  Torque Abs Max 
 TRRT.°/30m              -0.35:  Turn Rotating 
 MRT .                    HCIM:  Maximum Recorded Temperature 
 TTMX.degC               92.16:  Max Tool Temp 
 VS01.                90586518:  Virtual Str1 SN 
 VS02.        AZ90560654Z1W1C6:  Virtual Str2 SN 
 VS03.           AZ90610398F11:  Virtual Str3 SN 
 VS04.                90514975:  Virtual Str4 SN 
 VS05.                90514972:  Virtual Str5 SN 
 VS06.     AZ90603282F11V7D1A6:  Virtual Str6 SN 
 WBMN.klb                 7.00:  WOB Min 
 WOBA.klb                12.00:  WOB Avg 
 WOBX.klb                14.00:  WOB Max 
 YP  .lhf2               32.00:  Yield Point 
~Curve Information Block
#MNEM.UNIT                 API CODE     Curve Description
#---------               -----------    ---------------------------
 TIME.HHMMSS            00 000 000 000:  GT Time & Date
 GTDEPTH.m              00 000 000 000:  GT Depth
 GTPQH.psia             00 000 000 000:  GT HR Quartz Pressure
 GTTQ.degC              00 000 000 000:  GT Quartz Temperature
 GTTN.NONE              00 000 000 000:  GT Test Number
 GTET.sec               00 000 000 000:  GT Elapsed Test Time
 GTTVD.m                00 000 000 000:  GT True Vertical Depth
#Other Information
#
#WARRANTY: Halliburton will use its best efforts to furnish customers with 
#accurate information and interpretations that are part of, and incident to, the services 
#provided.  However, Halliburton cannot and does not warrant the accuracy 
#or correctness of such information and interpretations.  Under no circumstances should any 
#such information or interpretation be relied upon as the sole basis for any drilling, 
#completion, production, or financial decision or any procedure involving any risk to the 
#safety of any drilling venture, drilling rig or its crew or any other third party.  The 
#Customer has full responsibility for all drilling, completion and production operation.  
#Halliburton makes no representations or warranties, either expressed or 
#implied, including, but not limited to, the implied warranties of merchantability or fitness 
#for a particular purpose, with respect to the services rendered.  In no event will 
#Halliburton be liable for failure to obtain any particular results or for 
#any damages, including, but not limited to, indirect, special or consequential damages, 
#resulting from the use of any information or interpretation provided by Halliburton.
#
~A           TIME           GTDEPTH  GTPQH  GTTQ  GTTN  GTET   GTTVD  
# ...
   14:42:57.000.17-May-2020 5087.01 2631.37 72.24 1.00 253.00 2615.39
   14:42:57.200.17-May-2020 5087.01 2631.37 72.24 1.00 253.20 2615.39
   14:42:57.400.17-May-2020 5087.01 2634.03 72.24 1.00 253.40 2615.39
   14:42:57.600.17-May-2020 5087.01 2630.52 72.24 1.00 253.60 2615.39
   14:42:57.800.17-May-2020 5087.01 2629.51 72.24 1.00 253.80 2615.39
   14:42:58.000.17-May-2020 5087.01 2629.41 72.24 1.00 254.00 2615.39
   14:42:58.200.17-May-2020 5087.01 2629.03 72.24 1.00 254.20 2615.39
   14:42:58.400.17-May-2020 5087.01 2631.42 72.24 1.00 254.40 2615.39
   14:42:58.600.17-May-2020 5087.01 2628.33 72.24 1.00 254.60 2615.39
   14:42:58.800.17-May-2020 5087.01 2629.42 72.24 1.00 254.80 2615.39
   14:42:59.000.17-May-2020 5087.01 2629.24 72.24 1.00 255.00 2615.39
   14:42:59.200.17-May-2020 5087.01 2632.43 72.24 1.00 255.20 2615.39
   14:42:59.400.17-May-2020 5087.01 2628.51 72.24 1.00 255.40 2615.39
   14:42:59.600.17-May-2020 5087.01 2629.57 72.23 1.00 255.60 2615.39
   14:42:59.800.17-May-2020 5087.01 2629.86 72.23 1.00 255.80 2615.39
   14:43:00.000.17-May-2020 5087.01 2630.22 72.23 1.00 256.00 2615.39
   14:43:00.200.17-May-2020 5087.01 2630.22 72.23 1.00 256.20 2615.39
   14:43:00.400.17-May-2020 5087.01 2629.78 72.23 1.00 256.40 2615.39
   14:43:00.600.17-May-2020 5087.01 2629.97 72.23 1.00 256.60 2615.39
   14:43:00.800.17-May-2020 5087.01 2629.90 72.23 1.00 256.80 2615.39
   14:43:01.000.17-May-2020 5087.01 2630.09 72.23 1.00 257.00 2615.39
   14:43:01.200.17-May-2020 5087.01 2630.09 72.23 1.00 257.20 2615.39
   14:43:01.400.17-May-2020 5087.01 2629.01 72.23 1.00 257.40 2615.39
   14:43:01.600.17-May-2020 5087.01 2629.71 72.23 1.00 257.60 2615.39
   14:43:01.800.17-May-2020 5087.01 2628.81 72.23 1.00 257.80 2615.39
   14:43:02.000.17-May-2020 5087.01 2630.69 72.23 1.00 258.00 2615.39
   14:43:02.200.17-May-2020 5087.01 2630.69 72.23 1.00 258.20 2615.39
   14:43:02.400.17-May-2020 5087.01 2633.20 72.23 1.00 258.40 2615.39
   14:43:02.600.17-May-2020 5087.01 2634.46 72.23 1.00 258.60 2615.39
   14:43:02.800.17-May-2020 5087.01 2630.83 72.23 1.00 258.80 2615.39
   14:43:03.000.17-May-2020 5087.01 2631.45 72.23 1.00 259.00 2615.39
   14:43:03.200.17-May-2020 5087.01 2631.45 72.23 1.00 259.20 2615.39
   14:43:03.400.17-May-2020 5087.01 2632.11 72.23 1.00 259.40 2615.39
   14:43:03.600.17-May-2020 5087.01 2659.48 72.23 1.00 259.60 2615.39
   14:43:03.800.17-May-2020 5087.01 2745.03 72.23 1.00 259.80 2615.39
   14:43:04.000.17-May-2020 5087.01 2762.27 72.23 1.00 260.00 2615.39
   14:43:04.200.17-May-2020 5087.01 2762.66 72.23 1.00 260.20 2615.39
   14:43:04.400.17-May-2020 5087.01 2762.71 72.23 1.00 260.40 2615.39
   14:43:04.600.17-May-2020 5087.01 2763.55 72.23 1.00 260.60 2615.39
   14:43:04.800.17-May-2020 5087.01 2764.45 72.23 1.00 260.80 2615.39
   14:43:05.000.17-May-2020 5087.01 2765.70 72.23 1.00 261.00 2615.39
   14:43:05.200.17-May-2020 5087.01 2765.70 72.23 1.00 261.20 2615.39
   14:43:05.400.17-May-2020 5087.01 2764.39 72.23 1.00 261.40 2615.39
   14:43:05.600.17-May-2020 5087.01 2766.16 72.23 1.00 261.60 2615.39
   14:43:05.800.17-May-2020 5087.01 2764.97 72.23 1.00 261.80 2615.39
   14:43:06.000.17-May-2020 5087.01 2764.88 72.23 1.00 262.00 2615.39
   14:43:06.200.17-May-2020 5087.01 2764.88 72.23 1.00 262.20 2615.39
   14:43:06.400.17-May-2020 5087.01 2765.42 72.23 1.00 262.40 2615.39
   14:43:06.600.17-May-2020 5087.01 2765.27 72.23 1.00 262.60 2615.39
   14:43:06.800.17-May-2020 5087.01 2765.50 72.23 1.00 262.80 2615.39
   14:43:07.000.17-May-2020 5087.01 2765.71 72.23 1.00 263.00 2615.39
   14:43:07.200.17-May-2020 5087.01 2765.71 72.23 1.00 263.20 2615.39
   14:43:07.400.17-May-2020 5087.01 2765.66 72.23 1.00 263.40 2615.39
   14:43:07.600.17-May-2020 5087.01 2766.35 72.23 1.00 263.60 2615.39
   14:43:07.800.17-May-2020 5087.01 2766.78 72.23 1.00 263.80 2615.39
   14:43:08.000.17-May-2020 5087.01 2765.88 72.23 1.00 264.00 2615.39
   14:43:08.200.17-May-2020 5087.01 2765.95 72.23 1.00 264.20 2615.39
   14:43:08.400.17-May-2020 5087.01 2766.22 72.23 1.00 264.40 2615.39
   14:43:08.600.17-May-2020 5087.01 2766.26 72.23 1.00 264.60 2615.39
   14:43:08.800.17-May-2020 5087.01 2766.13 72.23 1.00 264.80 2615.39
   14:43:09.000.17-May-2020 5087.01 2766.17 72.23 1.00 265.00 2615.39
   14:43:09.200.17-May-2020 5087.01 2766.21 72.23 1.00 265.20 2615.39
   14:43:09.400.17-May-2020 5087.01 2766.28 72.23 1.00 265.40 2615.39
   14:43:09.600.17-May-2020 5087.01 2766.46 72.23 1.00 265.60 2615.39
   14:43:09.800.17-May-2020 5087.01 2767.48 72.23 1.00 265.80 2615.39
   14:43:10.000.17-May-2020 5087.01 2766.41 72.23 1.00 266.00 2615.39
   14:43:10.200.17-May-2020 5087.01 2766.41 72.23 1.00 266.20 2615.39
   14:43:10.400.17-May-2020 5087.01 2767.89 72.23 1.00 266.40 2615.39
   14:43:10.600.17-May-2020 5087.01 2766.84 72.23 1.00 266.60 2615.39
   14:43:10.800.17-May-2020 5087.01 2766.32 72.23 1.00 266.80 2615.39
   14:43:11.000.17-May-2020 5087.01 2766.61 72.23 1.00 267.00 2615.39
   14:43:11.200.17-May-2020 5087.01 2766.61 72.23 1.00 267.20 2615.39
   14:43:11.400.17-May-2020 5087.01 2766.70 72.23 1.00 267.40 2615.39
   14:43:11.600.17-May-2020 5087.01 2766.36 72.23 1.00 267.60 2615.39
   14:43:11.800.17-May-2020 5087.01 2766.52 72.23 1.00 267.80 2615.39
   14:43:12.000.17-May-2020 5087.01 2766.73 72.23 1.00 268.00 2615.39
   14:43:12.200.17-May-2020 5087.01 2767.73 72.23 1.00 268.20 2615.39
   14:43:12.400.17-May-2020 5087.01 2766.63 72.23 1.00 268.40 2615.39
   14:43:12.600.17-May-2020 5087.01 2766.52 72.23 1.00 268.60 2615.39
   14:43:12.800.17-May-2020 5087.01 2766.66 72.23 1.00 268.80 2615.39
   14:43:13.000.17-May-2020 5087.01 2766.96 72.23 1.00 269.00 2615.39
   14:43:13.200.17-May-2020 5087.01 2766.65 72.23 1.00 269.20 2615.39
   14:43:13.400.17-May-2020 5087.01 2766.67 72.23 1.00 269.40 2615.39
   14:43:13.600.17-May-2020 5087.01 2766.64 72.23 1.00 269.60 2615.39
   14:43:13.800.17-May-2020 5087.01 2766.72 72.23 1.00 269.80 2615.39
   14:43:14.000.17-May-2020 5087.01 2766.72 72.23 1.00 270.00 2615.39
   14:43:14.200.17-May-2020 5087.01 2766.72 72.23 1.00 270.20 2615.39
   14:43:14.400.17-May-2020 5087.01 2767.57 72.23 1.00 270.40 2615.39
   14:43:14.600.17-May-2020 5087.01 2766.75 72.23 1.00 270.60 2615.39
   14:43:14.800.17-May-2020 5087.01 2766.76 72.23 1.00 270.80 2615.39
   14:43:15.000.17-May-2020 5087.01 2767.07 72.23 1.00 271.00 2615.39
   14:43:15.200.17-May-2020 5087.01 2767.07 72.23 1.00 271.20 2615.39
   14:43:15.400.17-May-2020 5087.01 2766.79 72.22 1.00 271.40 2615.39
   14:43:15.600.17-May-2020 5087.01 2766.78 72.22 1.00 271.60 2615.39
   14:43:15.800.17-May-2020 5087.01 2766.86 72.22 1.00 271.80 2615.39
   14:43:16.000.17-May-2020 5087.01 2766.89 72.22 1.00 272.00 2615.39
   14:43:16.200.17-May-2020 5087.01 2766.79 72.22 1.00 272.20 2615.39
   14:43:16.400.17-May-2020 5087.01 2768.06 72.22 1.00 272.40 2615.39
   14:43:16.600.17-May-2020 5087.01 2766.90 72.22 1.00 272.60 2615.39
   14:43:16.800.17-May-2020 5087.01 2766.84 72.22 1.00 272.80 2615.39
   14:43:17.000.17-May-2020 5087.01 2767.06 72.22 1.00 273.00 2615.39
   14:43:17.200.17-May-2020 5087.01 2767.06 72.22 1.00 273.20 2615.39
   14:43:17.400.17-May-2020 5087.01 2767.60 72.22 1.00 273.40 2615.39
   14:43:17.600.17-May-2020 5087.01 2766.86 72.22 1.00 273.60 2615.39
   14:43:17.800.17-May-2020 5087.01 2766.98 72.22 1.00 273.80 2615.39
   14:43:18.000.17-May-2020 5087.01 2767.19 72.22 1.00 274.00 2615.39
   14:43:18.200.17-May-2020 5087.01 2767.19 72.22 1.00 274.20 2615.39
   14:43:18.400.17-May-2020 5087.01 2767.51 72.22 1.00 274.40 2615.39
   14:43:18.600.17-May-2020 5087.01 2767.14 72.22 1.00 274.60 2615.39
   14:43:18.800.17-May-2020 5087.01 2768.15 72.22 1.00 274.80 2615.39
   14:43:19.000.17-May-2020 5087.01 2768.08 72.22 1.00 275.00 2615.39
   14:43:19.200.17-May-2020 5087.01 2768.08 72.22 1.00 275.20 2615.39
   14:43:19.400.17-May-2020 5087.01 2767.04 72.22 1.00 275.40 2615.39
   14:43:19.600.17-May-2020 5087.01 2767.42 72.22 1.00 275.60 2615.39
   14:43:19.800.17-May-2020 5087.01 2767.12 72.22 1.00 275.80 2615.39
