~Version Information
 VERS.                  2.0:   CWLS log ASCII Standard -VERSION 2.0
 WRAP.                   NO:   One line per depth step
~Well Information Block
#MNEM.UNIT     VALUE/NAME     DESCRIPTION
#---------     -----------    ---------------------------
 STRT.S             23:36:46 17-May-20: START TIME 23:36:46 17-May-20
 STOP.S             23:44:24 17-May-20: STOP TIME  23:44:24 17-May-20
 STEP.S                   0.00: STEP TIME
 NULL.                 -999.25: NULL VALUE
 UNIT.                     N/A:  LOGGING EQUIPMENT ID
 DCON.         Sperry Drilling:  DIRECTNL CONTR
 DOE .                     N/A:  DOE NUMBER
 JOBN.        AZ-XX-0906252240:  JOB TICKET NUMB
 MWDS.                     N/A:  MWD SHOP
 PROV.                    Baku:  PROVINCE
 STAT.                    Baku:  STATE NAME
 REGN.                   EESSA:  REGION
 BASE.              Azerbaijan:  LOGGING EQUIPMENT BASE LOCATION
 UWI .                     N/A:  UNIQUE WELL IDENTIFIER
 API .                     N/A:  API NUMBER
 MDS .        Operator Entered:  MAG DATA SOURCE
 WTYP.                Deviated:  WELL TYPE
 COMP.     BP Exploration (Caspian Sea) Ltd.:  COMPANY
 SRVC.          Turan Drilling:  CONTRACTOR
 WELL.           J23 (Slot 07):  WELL NAME
 CTRY.              Azerbaijan:  COUNTRY NAME
 FLD .                     ACG:  FIELD NAME
 PDAT.          Mean Sea Level:  PERMANENT DATUM
 RIG .             West Chirag:  RIG NAME
 SON .        AZ-XX-0906252240:  JOB NUMBER
 FTOP.          Formation Tops:  FORM TOPS DESC
 ILTD.               Lithology:  INTERP LTH DESC
 SVYD.                  Survey:  SURVEY DESC
 DMOD.             Drill Model:  DRILL MOD DESC
 HPTY.       Minimum Curvature:  HOLE POS TYPE
 NREF.                    Grid:  NORTH REFERENCE
 SPUD.               27-Aug-20:  SPUD DATE
 DATE.      00.00.00 19-May-20:  END TIME
 STIM.      03.00.00 25-Mar-20:  START TIME
 DMF .             Drill Floor:  DRILL MEAS FROM
 DFST.                        :  DIST FSL TEXT
 DFWT.                        :  DIST FWL TEXT
 CNTY.                        :  COUNTY
 LOC .                        :  LOCATION
 LMF .             Drill Floor:  LOG MEASURED FROM
 VSNS.m                   9.43:  VERT SEC N/S
 VSEW.m                  -8.91:  VERT SEC E/W
 AGAP.m                  43.00:  AIR GAP
 DEP .m                 354.17:  DEPTH
 APD .m                  43.00:  DEPTH ABOVE PD
 WDMS.m                 169.80:  WD ELEV
 EGL .m                   0.00:  GROUND ELEVATION
 EPD .m                   0.00:  ELEVATION
 AZTC.deg                 6.31:  AZM TOTAL CORR
 GRDC.deg                 0.14:  GRID CORRECTION
 MDEC.deg                 6.45:  MAGNETIC DECL
 MDIP.deg                59.56:  MAGNETIC DIP
 MFLD.nT              50295.00:  MAGNETIC FIELD
 GVFD.g                   1.00:  GRAVITY FIELD
 VSDR.deg               179.88:  VERT SEC DIRECT
 TDD .m                5150.01:  TOTAL DEPTH (DRILLER)
 SDEP.m                 864.00:  START DEPTH
 DFSL.m                   0.00:  DISTANCE FSL
 DFWL.m                   0.00:  DISTANCE FWL
 UTMY.m             4443793.85:  UTM Y
 UTMX.m              519005.06:  UTM X
 WHEW.m                  -8.91:  WELL HEAD E/W
 WHNS.m                   9.43:  WELL HEAD N/S
 LONG.deg                51.22:  LONGITUDE
 LATI.deg                40.13:  LATITUDE
 TVDS.m                  43.00:  TVDSS CORRECTN
 EKB .m                   0.00:  KB ELEVATION
 EDF .m                  43.00:  DF ELEVATION
 TDL .m                 363.00:  TOTAL DEPTH (LOGGER)
 MAGU.                 1850802:  MAGUTM CHECKSUM
 VSC .                       0:  VS TO CLOSURE
~Parameter Information Block
#MNEM.UNIT       Value        Description
#---------     -----------    ---------------------------
 AV  .mps                 2.30:  Ann Velocity 
 AVMX.mps                 4.40:  Max Ann Veloc 
 AZIF.deg               110.24:  Azm, Final 
 BHAT.        Rotary Steerable:  BHA Type 
 BREV.rev               331.00:  Rev Bit Total 
 BROT.°/30m               0.00:  Build Rotating 
 BS  .in                  8.50:  Bit Size 
 BSZ .in                  8.50:  Bit Size 
 BTPL.psig              585.00:  Bit Press Loss 
 CABU.                     Yes:  Customer Abuse 
 TCS .hr                122.75:  Time Ciculation Ended 
 CV  .mps                 2.67:  Crit Velocity 
 CVMX.mps                 3.56:  Max Crit Veloc 
 DD1 .          Rashad Habibov:  Direct Drillr 1 
 DD2 .         Rasim Ibrahimov:  Direct Drillr 2 
 DDSV.               Geo-Pilot:  DD Service 
 DEFF.%                  98.00:  % Det Eff 
 DLRX.°/30m               0.75:  Dogleg Rot Max 
 DLSO.°/30m               1.25:  Dogleg Oriented 
 DLSX.°/30m               2.06:  Dogleg Str Max 
 DRET.      07.45.00 17-May-20:  Drill End Time 
 DRST.      22.50.00 15-May-20:  Drill Start Tim 
 DTIM.hr                 20.75:  Time Drilling 
 EDEP.m                5124.01:  End Depth 
 ENG1.           Eldar Hajiyev:  Engineer 1 
 ENG2.        Marcelo Sandoval:  Engineer 2 
 ENG3.        Davud huseynzada:  Engineer 3 
 ENG4.          Ruslan Safarov:  Engineer 4 
 ETIM.      04.33.00 23-May-20:  End Time 
 FLOI.gpm               450.00:  Flow In 
 FLON.gpm               400.00:  Flow In Min 
 FLOS.cptm                0.00:  Fluid Loss 
 FLOX.gpm               500.00:  Flow In Max 
 FTRO.       Formation Presure:  FTWD Run Obj 
 HFLO.                      No:  High Flow 
 HPRE.                     Yes:  High Pressure 
 HTEM.                      No:  High Temp 
 HYDO.m                   1.80:  Hydro Offset 
 IFIN.deg                75.06:  Inc, Final 
 IMAX.deg                75.38:  Inc Max 
 IMIN.deg                74.69:  Inc Min 
 IMND.m                5027.38:  Inc Min Depth 
 IMXD.m                4771.61:  Inc Max Depth 
 JARR.                      No:  Jarring 
 LETM.      07.45.00 17-May-20:  Log End Time 
 LOST.hr                     0:  Lost Rig Time 
 LSTM.      22.50.00 15-May-20:  Log Start Time 
 MDCL.ppm             42000.00:  Mud Chlorides 
 MDES.     Inversion Oil/Synthetic:  Mud Desc 
 DFD .sg                  1.34:  Mud Density 
 MDMN.sg                  1.34:  Dens Mud Min 
 MDMX.sg                  1.34:  Dens Mud Max 
 MOIL.                       0:  Run Mud Oil % 
 MOWR.                   67:33:  Run Mud OWR 
 MSND.                       0:  Run Mud Sand % 
 MSOL.                     1.8:  Run Mud Solids% 
 DFV .spqt               76.00:  Mud Viscosity 
 MWOD.in                  6.75:  MWD Tool OD 
 MWSI.                      No:  Serv Intrp, MWD 
 OTIM.hr                228.19:  Time Operating 
 PCON.           Look Like New:  Pad Condition 
 PMAX.psia             6164.70:  Press Op, Max 
 PV  .cP                 28.00:  Mud PV 
 RUN .                     900:  Run Number 
 ROPA.m/hr               19.00:  ROP Avg 
 ROPN.m/hr               11.00:  ROP Min 
 ROPX.m/hr               36.00:  ROP Max 
 RPMA.rpm               120.00:  RPM Surface Avg 
 RPMN.rpm               120.00:  RPM Surface Min 
 RPMX.rpm               120.00:  RPM Surface Max 
 RRUN.                    L604:  Rig Run Number 
 RTIM.hr                  7.00:  Time Reaming 
 SAZI.deg               109.27:  Azm, Start 
 SDEP.m                4761.01:  Start Depth 
 SIDD.                      No:  Serv Intrp, DD 
 SINC.deg                75.38:  Inc, Start 
 SPPA.psig             3574.00:  SPP Avg 
 SPPN.psig             3475.00:  SPP Min 
 SPPX.psig             3791.00:  SPP Max 
 STIM.      07.08.48 13-May-20:  Start Time 
 SVCS.                 DD, MWD:  Services 
 SVER.                    9.20:  Sperry Version 
 TDAT.m                 363.00:  Tot Depth Attmp 
 TDDF.                      No:  Trip for DD 
 TDLG.m                 363.00:  Tot Depth Loggd 
 TFF .                      No:  Trip for Fail 
 TQAA.f-kp               20.00:  Torque Abs Avg 
 TQAN.f-kp               18.00:  Torque Abs Min 
 TQAX.f-kp               22.00:  Torque Abs Max 
 TRRT.°/30m              -0.35:  Turn Rotating 
 MRT .                    HCIM:  Maximum Recorded Temperature 
 TTMX.degC               92.16:  Max Tool Temp 
 VS01.                90586518:  Virtual Str1 SN 
 VS02.        AZ90560654Z1W1C6:  Virtual Str2 SN 
 VS03.           AZ90610398F11:  Virtual Str3 SN 
 VS04.                90514975:  Virtual Str4 SN 
 VS05.                90514972:  Virtual Str5 SN 
 VS06.     AZ90603282F11V7D1A6:  Virtual Str6 SN 
 WBMN.klb                 7.00:  WOB Min 
 WOBA.klb                12.00:  WOB Avg 
 WOBX.klb                14.00:  WOB Max 
 YP  .lhf2               32.00:  Yield Point 
~Curve Information Block
#MNEM.UNIT                 API CODE     Curve Description
#---------               -----------    ---------------------------
 TIME.HHMMSS            00 000 000 000:  GT Time & Date
 GTDEPTH.m              00 000 000 000:  GT Depth
 GTPQH.psia             00 000 000 000:  GT HR Quartz Pressure
 GTTQ.degC              00 000 000 000:  GT Quartz Temperature
 GTTN.NONE              00 000 000 000:  GT Test Number
 GTET.sec               00 000 000 000:  GT Elapsed Test Time
 GTTVD.m                00 000 000 000:  GT True Vertical Depth
#Other Information
#
#WARRANTY: Halliburton will use its best efforts to furnish customers with 
#accurate information and interpretations that are part of, and incident to, the services 
#provided.  However, Halliburton cannot and does not warrant the accuracy 
#or correctness of such information and interpretations.  Under no circumstances should any 
#such information or interpretation be relied upon as the sole basis for any drilling, 
#completion, production, or financial decision or any procedure involving any risk to the 
#safety of any drilling venture, drilling rig or its crew or any other third party.  The 
#Customer has full responsibility for all drilling, completion and production operation.  
#Halliburton makes no representations or warranties, either expressed or 
#implied, including, but not limited to, the implied warranties of merchantability or fitness 
#for a particular purpose, with respect to the services rendered.  In no event will 
#Halliburton be liable for failure to obtain any particular results or for 
#any damages, including, but not limited to, indirect, special or consequential damages, 
#resulting from the use of any information or interpretation provided by Halliburton.
#
~A           TIME           GTDEPTH  GTPQH  GTTQ  GTTN  GTET   GTTVD  
# ...
   23:43:39.860.17-May-2020 4902.01 5513.25 66.31 9.00 413.79 2567.50
   23:43:40.060.17-May-2020 4902.01 5513.25 66.31 9.00 413.99 2567.50
   23:43:40.259.17-May-2020 4902.01 5507.01 66.31 9.00 414.19 2567.50
   23:43:40.459.17-May-2020 4902.01 5498.54 66.31 9.00 414.39 2567.50
   23:43:40.659.17-May-2020 4902.01 5517.17 66.31 9.00 414.59 2567.50
   23:43:40.859.17-May-2020 4902.01 5491.11 66.31 9.00 414.79 2567.50
   23:43:41.059.17-May-2020 4902.01 5491.11 66.31 9.00 414.99 2567.50
   23:43:41.259.17-May-2020 4902.01 5497.79 66.31 9.00 415.19 2567.50
   23:43:41.459.17-May-2020 4902.01 5504.42 66.31 9.00 415.39 2567.50
   23:43:41.659.17-May-2020 4902.01 5511.54 66.31 9.00 415.59 2567.50
   23:43:41.859.17-May-2020 4902.01 5495.76 66.31 9.00 415.79 2567.50
   23:43:42.059.17-May-2020 4902.01 5495.76 66.31 9.00 415.99 2567.50
   23:43:42.258.17-May-2020 4902.01 5512.57 66.31 9.00 416.19 2567.50
   23:43:42.458.17-May-2020 4902.01 5499.95 66.31 9.00 416.39 2567.50
   23:43:42.658.17-May-2020 4902.01 5508.65 66.31 9.00 416.59 2567.50
   23:43:42.858.17-May-2020 4902.01 5501.76 66.31 9.00 416.79 2567.50
   23:43:43.058.17-May-2020 4902.01 5501.76 66.31 9.00 416.99 2567.50
   23:43:43.258.17-May-2020 4902.01 5499.80 66.31 9.00 417.19 2567.50
   23:43:43.458.17-May-2020 4902.01 5501.99 66.31 9.00 417.39 2567.50
   23:43:43.658.17-May-2020 4902.01 5498.79 66.31 9.00 417.59 2567.50
   23:43:43.858.17-May-2020 4902.01 5499.88 66.31 9.00 417.79 2567.50
   23:43:44.057.17-May-2020 4902.01 5499.88 66.31 9.00 417.99 2567.50
   23:43:44.257.17-May-2020 4902.01 5515.21 66.31 9.00 418.19 2567.50
   23:43:44.457.17-May-2020 4902.01 5490.45 66.31 9.00 418.39 2567.50
   23:43:44.657.17-May-2020 4902.01 5506.57 66.31 9.00 418.59 2567.50
   23:43:44.857.17-May-2020 4902.01 5498.73 66.31 9.00 418.79 2567.50
   23:43:45.057.17-May-2020 4902.01 5498.73 66.31 9.00 418.98 2567.50
   23:43:45.257.17-May-2020 4902.01 5498.00 66.31 9.00 419.18 2567.50
   23:43:45.457.17-May-2020 4902.01 5499.73 66.31 9.00 419.38 2567.50
   23:43:45.657.17-May-2020 4902.01 5497.37 66.31 9.00 419.58 2567.50
   23:43:45.857.17-May-2020 4902.01 5498.16 66.31 9.00 419.78 2567.50
   23:43:46.056.17-May-2020 4902.01 5498.16 66.31 9.00 419.98 2567.50
   23:43:46.256.17-May-2020 4902.01 5497.44 66.31 9.00 420.18 2567.50
   23:43:46.456.17-May-2020 4902.01 5508.43 66.30 9.00 420.38 2567.50
   23:43:46.656.17-May-2020 4902.01 5495.47 66.30 9.00 420.58 2567.50
   23:43:46.856.17-May-2020 4902.01 5501.43 66.30 9.00 420.78 2567.50
   23:43:47.056.17-May-2020 4902.01 5501.43 66.30 9.00 420.98 2567.50
   23:43:47.256.17-May-2020 4902.01 5509.03 66.30 9.00 421.18 2567.50
   23:43:47.456.17-May-2020 4902.01 5500.82 66.30 9.00 421.38 2567.50
   23:43:47.656.17-May-2020 4902.01 5502.20 66.30 9.00 421.58 2567.50
   23:43:47.856.17-May-2020 4902.01 5505.79 66.30 9.00 421.78 2567.50
   23:43:48.055.17-May-2020 4902.01 5505.79 66.30 9.00 421.98 2567.50
   23:43:48.255.17-May-2020 4902.01 5518.12 66.30 9.00 422.18 2567.50
   23:43:48.455.17-May-2020 4902.01 5493.06 66.30 9.00 422.38 2567.50
   23:43:48.655.17-May-2020 4902.01 5506.67 66.30 9.00 422.58 2567.50
   23:43:48.855.17-May-2020 4902.01 5502.00 66.30 9.00 422.78 2567.50
   23:43:49.055.17-May-2020 4902.01 5502.00 66.30 9.00 422.98 2567.50
   23:43:49.255.17-May-2020 4902.01 5493.10 66.30 9.00 423.18 2567.50
   23:43:49.455.17-May-2020 4902.01 5509.76 66.30 9.00 423.38 2567.50
   23:43:49.655.17-May-2020 4902.01 5501.28 66.30 9.00 423.58 2567.50
   23:43:49.855.17-May-2020 4902.01 5504.08 66.30 9.00 423.78 2567.50
   23:43:50.054.17-May-2020 4902.01 5504.08 66.30 9.00 423.98 2567.50
   23:43:50.254.17-May-2020 4902.01 5501.85 66.30 9.00 424.18 2567.50
   23:43:50.454.17-May-2020 4902.01 5499.09 66.30 9.00 424.38 2567.50
   23:43:50.654.17-May-2020 4902.01 5499.92 66.30 9.00 424.58 2567.50
   23:43:50.854.17-May-2020 4902.01 5498.69 66.30 9.00 424.78 2567.50
   23:43:51.054.17-May-2020 4902.01 5498.69 66.30 9.00 424.98 2567.50
   23:43:51.254.17-May-2020 4902.01 5494.65 66.30 9.00 425.18 2567.50
   23:43:51.454.17-May-2020 4902.01 5503.03 66.30 9.00 425.38 2567.50
   23:43:51.654.17-May-2020 4902.01 5502.32 66.30 9.00 425.58 2567.50
   23:43:51.853.17-May-2020 4902.01 5499.04 66.30 9.00 425.78 2567.50
   23:43:52.053.17-May-2020 4902.01 5499.04 66.30 9.00 425.98 2567.50
   23:43:52.253.17-May-2020 4902.01 5498.42 66.30 9.00 426.18 2567.50
   23:43:52.453.17-May-2020 4902.01 5497.88 66.30 9.00 426.38 2567.50
   23:43:52.653.17-May-2020 4902.01 5497.94 66.30 9.00 426.58 2567.50
   23:43:52.853.17-May-2020 4902.01 5498.31 66.30 9.00 426.78 2567.50
   23:43:53.053.17-May-2020 4902.01 5498.31 66.30 9.00 426.98 2567.50
   23:43:53.253.17-May-2020 4902.01 5502.43 66.30 9.00 427.18 2567.50
   23:43:53.453.17-May-2020 4902.01 5502.68 66.30 9.00 427.38 2567.50
   23:43:53.653.17-May-2020 4902.01 5497.68 66.30 9.00 427.58 2567.50
   23:43:53.852.17-May-2020 4902.01 5507.14 66.30 9.00 427.78 2567.50
   23:43:54.052.17-May-2020 4902.01 5507.14 66.30 9.00 427.98 2567.50
   23:43:54.252.17-May-2020 4902.01 5509.34 66.30 9.00 428.18 2567.50
   23:43:54.452.17-May-2020 4902.01 5496.87 66.30 9.00 428.38 2567.50
   23:43:54.652.17-May-2020 4902.01 5509.37 66.30 9.00 428.58 2567.50
   23:43:54.852.17-May-2020 4902.01 5497.19 66.30 9.00 428.78 2567.50
   23:43:55.052.17-May-2020 4902.01 5497.19 66.30 9.00 428.98 2567.50
   23:43:55.252.17-May-2020 4902.01 5497.10 66.30 9.00 429.18 2567.50
   23:43:55.452.17-May-2020 4902.01 5503.80 66.30 9.00 429.38 2567.50
   23:43:55.652.17-May-2020 4902.01 5504.92 66.30 9.00 429.58 2567.50
   23:43:55.851.17-May-2020 4902.01 5512.88 66.30 9.00 429.78 2567.50
   23:43:56.051.17-May-2020 4902.01 5512.88 66.30 9.00 429.98 2567.50
   23:43:56.251.17-May-2020 4902.01 5505.17 66.30 9.00 430.18 2567.50
   23:43:56.451.17-May-2020 4902.01 5504.64 66.30 9.00 430.38 2567.50
   23:43:56.651.17-May-2020 4902.01 5500.61 66.30 9.00 430.58 2567.50
   23:43:56.851.17-May-2020 4902.01 5502.69 66.30 9.00 430.78 2567.50
   23:43:57.051.17-May-2020 4902.01 5502.69 66.30 9.00 430.98 2567.50
   23:43:57.251.17-May-2020 4902.01 5499.98 66.30 9.00 431.18 2567.50
   23:43:57.451.17-May-2020 4902.01 5499.02 66.30 9.00 431.38 2567.50
   23:43:57.651.17-May-2020 4902.01 5499.18 66.30 9.00 431.58 2567.50
   23:43:57.850.17-May-2020 4902.01 5504.69 66.30 9.00 431.78 2567.50
   23:43:58.050.17-May-2020 4902.01 5504.69 66.30 9.00 431.98 2567.50
   23:43:58.250.17-May-2020 4902.01 5498.88 66.30 9.00 432.18 2567.50
   23:43:58.450.17-May-2020 4902.01 5506.24 66.30 9.00 432.38 2567.50
   23:43:58.650.17-May-2020 4902.01 5497.54 66.30 9.00 432.58 2567.50
   23:43:58.850.17-May-2020 4902.01 5501.78 66.30 9.00 432.78 2567.50
   23:43:59.050.17-May-2020 4902.01 5501.78 66.30 9.00 432.98 2567.50
   23:43:59.250.17-May-2020 4902.01 5499.25 66.30 9.00 433.18 2567.50
   23:43:59.450.17-May-2020 4902.01 5497.89 66.30 9.00 433.38 2567.50
   23:43:59.649.17-May-2020 4902.01 5498.54 66.30 9.00 433.58 2567.50
   23:43:59.849.17-May-2020 4902.01 5496.87 66.30 9.00 433.78 2567.50
   23:44:00.049.17-May-2020 4902.01 5496.87 66.30 9.00 433.98 2567.50
   23:44:00.249.17-May-2020 4902.01 5508.98 66.30 9.00 434.18 2567.50
   23:44:00.449.17-May-2020 4902.01 5494.66 66.30 9.00 434.38 2567.50
   23:44:00.649.17-May-2020 4902.01 5508.82 66.30 9.00 434.58 2567.50
   23:44:00.849.17-May-2020 4902.01 5498.47 66.30 9.00 434.78 2567.50
   23:44:01.049.17-May-2020 4902.01 5498.47 66.30 9.00 434.98 2567.50
   23:44:01.249.17-May-2020 4902.01 5495.27 66.30 9.00 435.18 2567.50
   23:44:01.449.17-May-2020 4902.01 5510.69 66.30 9.00 435.38 2567.50
   23:44:01.648.17-May-2020 4902.01 5496.66 66.30 9.00 435.58 2567.50
   23:44:01.848.17-May-2020 4902.01 5507.75 66.30 9.00 435.78 2567.50
   23:44:02.048.17-May-2020 4902.01 5507.75 66.30 9.00 435.98 2567.50
   23:44:02.248.17-May-2020 4902.01 5500.33 66.30 9.00 436.18 2567.50
   23:44:02.448.17-May-2020 4902.01 5511.67 66.30 9.00 436.38 2567.50
   23:44:02.648.17-May-2020 4902.01 5506.52 66.30 9.00 436.58 2567.50
