~Version Information
 VERS.                  2.0:   CWLS log ASCII Standard -VERSION 2.0
 WRAP.                   NO:   One line per depth step
~Well Information Block
#MNEM.UNIT     VALUE/NAME     DESCRIPTION
#---------     -----------    ---------------------------
 STRT.S             22:49:31 17-May-20: START TIME 22:49:31 17-May-20
 STOP.S             22:56:24 17-May-20: STOP TIME  22:56:24 17-May-20
 STEP.S                   0.00: STEP TIME
 NULL.                 -999.25: NULL VALUE
 UNIT.                     N/A:  LOGGING EQUIPMENT ID
 DCON.         Sperry Drilling:  DIRECTNL CONTR
 DOE .                     N/A:  DOE NUMBER
 JOBN.        AZ-XX-0906252240:  JOB TICKET NUMB
 MWDS.                     N/A:  MWD SHOP
 PROV.                    Baku:  PROVINCE
 STAT.                    Baku:  STATE NAME
 REGN.                   EESSA:  REGION
 BASE.              Azerbaijan:  LOGGING EQUIPMENT BASE LOCATION
 UWI .                     N/A:  UNIQUE WELL IDENTIFIER
 API .                     N/A:  API NUMBER
 MDS .        Operator Entered:  MAG DATA SOURCE
 WTYP.                Deviated:  WELL TYPE
 COMP.     BP Exploration (Caspian Sea) Ltd.:  COMPANY
 SRVC.          Turan Drilling:  CONTRACTOR
 WELL.           J23 (Slot 07):  WELL NAME
 CTRY.              Azerbaijan:  COUNTRY NAME
 FLD .                     ACG:  FIELD NAME
 PDAT.          Mean Sea Level:  PERMANENT DATUM
 RIG .             West Chirag:  RIG NAME
 SON .        AZ-XX-0906252240:  JOB NUMBER
 FTOP.          Formation Tops:  FORM TOPS DESC
 ILTD.               Lithology:  INTERP LTH DESC
 SVYD.                  Survey:  SURVEY DESC
 DMOD.             Drill Model:  DRILL MOD DESC
 HPTY.       Minimum Curvature:  HOLE POS TYPE
 NREF.                    Grid:  NORTH REFERENCE
 SPUD.               27-Aug-20:  SPUD DATE
 DATE.      00.00.00 19-May-20:  END TIME
 STIM.      03.00.00 25-Mar-20:  START TIME
 DMF .             Drill Floor:  DRILL MEAS FROM
 DFST.                        :  DIST FSL TEXT
 DFWT.                        :  DIST FWL TEXT
 CNTY.                        :  COUNTY
 LOC .                        :  LOCATION
 LMF .             Drill Floor:  LOG MEASURED FROM
 VSNS.m                   9.43:  VERT SEC N/S
 VSEW.m                  -8.91:  VERT SEC E/W
 AGAP.m                  43.00:  AIR GAP
 DEP .m                 354.17:  DEPTH
 APD .m                  43.00:  DEPTH ABOVE PD
 WDMS.m                 169.80:  WD ELEV
 EGL .m                   0.00:  GROUND ELEVATION
 EPD .m                   0.00:  ELEVATION
 AZTC.deg                 6.31:  AZM TOTAL CORR
 GRDC.deg                 0.14:  GRID CORRECTION
 MDEC.deg                 6.45:  MAGNETIC DECL
 MDIP.deg                59.56:  MAGNETIC DIP
 MFLD.nT              50295.00:  MAGNETIC FIELD
 GVFD.g                   1.00:  GRAVITY FIELD
 VSDR.deg               179.88:  VERT SEC DIRECT
 TDD .m                5150.01:  TOTAL DEPTH (DRILLER)
 SDEP.m                 864.00:  START DEPTH
 DFSL.m                   0.00:  DISTANCE FSL
 DFWL.m                   0.00:  DISTANCE FWL
 UTMY.m             4443793.85:  UTM Y
 UTMX.m              519005.06:  UTM X
 WHEW.m                  -8.91:  WELL HEAD E/W
 WHNS.m                   9.43:  WELL HEAD N/S
 LONG.deg                51.22:  LONGITUDE
 LATI.deg                40.13:  LATITUDE
 TVDS.m                  43.00:  TVDSS CORRECTN
 EKB .m                   0.00:  KB ELEVATION
 EDF .m                  43.00:  DF ELEVATION
 TDL .m                 363.00:  TOTAL DEPTH (LOGGER)
 MAGU.                 1850802:  MAGUTM CHECKSUM
 VSC .                       0:  VS TO CLOSURE
~Parameter Information Block
#MNEM.UNIT       Value        Description
#---------     -----------    ---------------------------
 AV  .mps                 2.30:  Ann Velocity 
 AVMX.mps                 4.40:  Max Ann Veloc 
 AZIF.deg               110.24:  Azm, Final 
 BHAT.        Rotary Steerable:  BHA Type 
 BREV.rev               331.00:  Rev Bit Total 
 BROT.°/30m               0.00:  Build Rotating 
 BS  .in                  8.50:  Bit Size 
 BSZ .in                  8.50:  Bit Size 
 BTPL.psig              585.00:  Bit Press Loss 
 CABU.                     Yes:  Customer Abuse 
 COMM.                     ¼´€:  Run Comments 1 
 TCS .hr                122.75:  Time Ciculation Ended 
 CV  .mps                 2.67:  Crit Velocity 
 CVMX.mps                 3.56:  Max Crit Veloc 
 DD1 .          Rashad Habibov:  Direct Drillr 1 
 DD2 .         Rasim Ibrahimov:  Direct Drillr 2 
 DDSV.               Geo-Pilot:  DD Service 
 DEFF.%                  98.00:  % Det Eff 
 DLRX.°/30m               0.75:  Dogleg Rot Max 
 DLSO.°/30m               1.25:  Dogleg Oriented 
 DLSX.°/30m               2.06:  Dogleg Str Max 
 DRET.      07.45.00 17-May-20:  Drill End Time 
 DRST.      22.50.00 15-May-20:  Drill Start Tim 
 DTIM.hr                 20.75:  Time Drilling 
 EDEP.m                5124.01:  End Depth 
 ENG1.           Eldar Hajiyev:  Engineer 1 
 ENG2.        Marcelo Sandoval:  Engineer 2 
 ENG3.        Davud huseynzada:  Engineer 3 
 ENG4.          Ruslan Safarov:  Engineer 4 
 ETIM.      04.33.00 23-May-20:  End Time 
 FLOI.gpm               450.00:  Flow In 
 FLON.gpm               400.00:  Flow In Min 
 FLOS.cptm                0.00:  Fluid Loss 
 FLOX.gpm               500.00:  Flow In Max 
 FTRO.       Formation Presure:  FTWD Run Obj 
 HFLO.                      No:  High Flow 
 HPRE.                     Yes:  High Pressure 
 HTEM.                      No:  High Temp 
 HYDO.m                   1.80:  Hydro Offset 
 IFIN.deg                75.06:  Inc, Final 
 IMAX.deg                75.38:  Inc Max 
 IMIN.deg                74.69:  Inc Min 
 IMND.m                5027.38:  Inc Min Depth 
 IMXD.m                4771.61:  Inc Max Depth 
 JARR.                      No:  Jarring 
 LETM.      07.45.00 17-May-20:  Log End Time 
 LOST.hr                     0:  Lost Rig Time 
 LSTM.      22.50.00 15-May-20:  Log Start Time 
 MDCL.ppm             42000.00:  Mud Chlorides 
 MDES.     Inversion Oil/Synthetic:  Mud Desc 
 DFD .sg                  1.34:  Mud Density 
 MDMN.sg                  1.34:  Dens Mud Min 
 MDMX.sg                  1.34:  Dens Mud Max 
 MOIL.                       0:  Run Mud Oil % 
 MOWR.                   67:33:  Run Mud OWR 
 MSND.                       0:  Run Mud Sand % 
 MSOL.                     1.8:  Run Mud Solids% 
 DFV .spqt               76.00:  Mud Viscosity 
 MWOD.in                  6.75:  MWD Tool OD 
 MWSI.                      No:  Serv Intrp, MWD 
 OTIM.hr                228.19:  Time Operating 
 PCON.           Look Like New:  Pad Condition 
 PMAX.psia             6164.70:  Press Op, Max 
 PV  .cP                 28.00:  Mud PV 
 RUN .                     900:  Run Number 
 ROPA.m/hr               19.00:  ROP Avg 
 ROPN.m/hr               11.00:  ROP Min 
 ROPX.m/hr               36.00:  ROP Max 
 RPMA.rpm               120.00:  RPM Surface Avg 
 RPMN.rpm               120.00:  RPM Surface Min 
 RPMX.rpm               120.00:  RPM Surface Max 
 RRUN.                    L604:  Rig Run Number 
 RTIM.hr                  7.00:  Time Reaming 
 SAZI.deg               109.27:  Azm, Start 
 SDEP.m                4761.01:  Start Depth 
 SIDD.                      No:  Serv Intrp, DD 
 SINC.deg                75.38:  Inc, Start 
 SPPA.psig             3574.00:  SPP Avg 
 SPPN.psig             3475.00:  SPP Min 
 SPPX.psig             3791.00:  SPP Max 
 STIM.      07.08.48 13-May-20:  Start Time 
 SVCS.                 DD, MWD:  Services 
 SVER.                    9.20:  Sperry Version 
 TDAT.m                 363.00:  Tot Depth Attmp 
 TDDF.                      No:  Trip for DD 
 TDLG.m                 363.00:  Tot Depth Loggd 
 TFF .                      No:  Trip for Fail 
 TQAA.f-kp               20.00:  Torque Abs Avg 
 TQAN.f-kp               18.00:  Torque Abs Min 
 TQAX.f-kp               22.00:  Torque Abs Max 
 TRRT.°/30m              -0.35:  Turn Rotating 
 MRT .                    HCIM:  Maximum Recorded Temperature 
 TTMX.degC               92.16:  Max Tool Temp 
 VS01.                90586518:  Virtual Str1 SN 
 VS02.        AZ90560654Z1W1C6:  Virtual Str2 SN 
 VS03.           AZ90610398F11:  Virtual Str3 SN 
 VS04.                90514975:  Virtual Str4 SN 
 VS05.                90514972:  Virtual Str5 SN 
 VS06.     AZ90603282F11V7D1A6:  Virtual Str6 SN 
 WBMN.klb                 7.00:  WOB Min 
 WOBA.klb                12.00:  WOB Avg 
 WOBX.klb                14.00:  WOB Max 
 YP  .lhf2               32.00:  Yield Point 
~Curve Information Block
#MNEM.UNIT                 API CODE     Curve Description
#---------               -----------    ---------------------------
 TIME.HHMMSS            00 000 000 000:  GT Time & Date
 GTDEPTH.m              00 000 000 000:  GT Depth
 GTPQH.psia             00 000 000 000:  GT HR Quartz Pressure
 GTTQ.degC              00 000 000 000:  GT Quartz Temperature
 GTTN.NONE              00 000 000 000:  GT Test Number
 GTET.sec               00 000 000 000:  GT Elapsed Test Time
 GTTVD.m                00 000 000 000:  GT True Vertical Depth
#Other Information
#
#WARRANTY: Halliburton will use its best efforts to furnish customers with 
#accurate information and interpretations that are part of, and incident to, the services 
#provided.  However, Halliburton cannot and does not warrant the accuracy 
#or correctness of such information and interpretations.  Under no circumstances should any 
#such information or interpretation be relied upon as the sole basis for any drilling, 
#completion, production, or financial decision or any procedure involving any risk to the 
#safety of any drilling venture, drilling rig or its crew or any other third party.  The 
#Customer has full responsibility for all drilling, completion and production operation.  
#Halliburton makes no representations or warranties, either expressed or 
#implied, including, but not limited to, the implied warranties of merchantability or fitness 
#for a particular purpose, with respect to the services rendered.  In no event will 
#Halliburton be liable for failure to obtain any particular results or for 
#any damages, including, but not limited to, indirect, special or consequential damages, 
#resulting from the use of any information or interpretation provided by Halliburton.
#
~A           TIME           GTDEPTH  GTPQH  GTTQ  GTTN  GTET   GTTVD  
# ...
   22:51:49.456.17-May-2020 4908.51  195.03 67.18 8.00 137.93 2569.17
   22:51:49.656.17-May-2020 4908.51  195.03 67.18 8.00 138.13 2569.17
   22:51:49.856.17-May-2020 4908.51  197.57 67.19 8.00 138.33 2569.17
   22:51:50.056.17-May-2020 4908.51  198.90 67.19 8.00 138.53 2569.17
   22:51:50.255.17-May-2020 4908.51  200.26 67.19 8.00 138.73 2569.17
   22:51:50.455.17-May-2020 4908.51  201.63 67.19 8.00 138.93 2569.17
   22:51:50.655.17-May-2020 4908.51  201.63 67.19 8.00 139.13 2569.17
   22:51:50.855.17-May-2020 4908.51  204.36 67.19 8.00 139.33 2569.17
   22:51:51.055.17-May-2020 4908.51  205.74 67.19 8.00 139.53 2569.17
   22:51:51.255.17-May-2020 4908.51  207.16 67.19 8.00 139.73 2569.17
   22:51:51.455.17-May-2020 4908.51  208.63 67.19 8.00 139.93 2569.17
   22:51:51.655.17-May-2020 4908.51  210.07 67.19 8.00 140.13 2569.17
   22:51:51.855.17-May-2020 4908.51  211.53 67.19 8.00 140.33 2569.17
   22:51:52.054.17-May-2020 4908.51  213.04 67.19 8.00 140.53 2569.17
   22:51:52.254.17-May-2020 4908.51  214.54 67.19 8.00 140.73 2569.17
   22:51:52.454.17-May-2020 4908.51  216.06 67.19 8.00 140.93 2569.17
   22:51:52.654.17-May-2020 4908.51  217.57 67.19 8.00 141.13 2569.17
   22:51:52.854.17-May-2020 4908.51  219.11 67.19 8.00 141.33 2569.17
   22:51:53.054.17-May-2020 4908.51  220.69 67.19 8.00 141.53 2569.17
   22:51:53.254.17-May-2020 4908.51  222.27 67.19 8.00 141.73 2569.17
   22:51:53.454.17-May-2020 4908.51  223.85 67.19 8.00 141.93 2569.17
   22:51:53.654.17-May-2020 4908.51  223.85 67.19 8.00 142.13 2569.17
   22:51:53.854.17-May-2020 4908.51  227.10 67.19 8.00 142.33 2569.17
   22:51:54.053.17-May-2020 4908.51  228.79 67.19 8.00 142.53 2569.17
   22:51:54.253.17-May-2020 4908.51  230.49 67.19 8.00 142.73 2569.17
   22:51:54.453.17-May-2020 4908.51  232.23 67.19 8.00 142.93 2569.17
   22:51:54.653.17-May-2020 4908.51  232.23 67.19 8.00 143.13 2569.17
   22:51:54.853.17-May-2020 4908.51  235.78 67.19 8.00 143.33 2569.17
   22:51:55.053.17-May-2020 4908.51  237.61 67.19 8.00 143.53 2569.17
   22:51:55.253.17-May-2020 4908.51  239.48 67.19 8.00 143.73 2569.17
   22:51:55.453.17-May-2020 4908.51  241.40 67.19 8.00 143.93 2569.17
   22:51:55.653.17-May-2020 4908.51  243.36 67.19 8.00 144.13 2569.17
   22:51:55.853.17-May-2020 4908.51  245.28 67.19 8.00 144.33 2569.17
   22:51:56.052.17-May-2020 4908.51  247.31 67.19 8.00 144.53 2569.17
   22:51:56.252.17-May-2020 4908.51  249.35 67.19 8.00 144.73 2569.17
   22:51:56.452.17-May-2020 4908.51  251.41 67.19 8.00 144.93 2569.17
   22:51:56.652.17-May-2020 4908.51  253.51 67.19 8.00 145.13 2569.17
   22:51:56.852.17-May-2020 4908.51  255.56 67.19 8.00 145.33 2569.17
   22:51:57.052.17-May-2020 4908.51  257.82 67.19 8.00 145.53 2569.17
   22:51:57.252.17-May-2020 4908.51  259.99 67.19 8.00 145.73 2569.17
   22:51:57.452.17-May-2020 4908.51  262.20 67.19 8.00 145.93 2569.17
   22:51:57.652.17-May-2020 4908.51  262.20 67.19 8.00 146.13 2569.17
   22:51:57.852.17-May-2020 4908.51  266.75 67.19 8.00 146.32 2569.17
   22:51:58.051.17-May-2020 4908.51  269.08 67.19 8.00 146.52 2569.17
   22:51:58.251.17-May-2020 4908.51  270.55 67.19 8.00 146.72 2569.17
   22:51:58.451.17-May-2020 4908.51  272.58 67.19 8.00 146.92 2569.17
   22:51:58.651.17-May-2020 4908.51  272.58 67.19 8.00 147.12 2569.17
   22:51:58.851.17-May-2020 4908.51  277.35 67.19 8.00 147.32 2569.17
   22:51:59.051.17-May-2020 4908.51  279.40 67.19 8.00 147.52 2569.17
   22:51:59.251.17-May-2020 4908.51  280.88 67.19 8.00 147.72 2569.17
   22:51:59.451.17-May-2020 4908.51  278.72 67.19 8.00 147.92 2569.17
   22:51:59.651.17-May-2020 4908.51  263.55 67.19 8.00 148.12 2569.17
   22:51:59.850.17-May-2020 4908.51  242.53 67.19 8.00 148.32 2569.17
   22:52:00.050.17-May-2020 4908.51  221.95 67.19 8.00 148.52 2569.17
   22:52:00.250.17-May-2020 4908.51  203.19 67.19 8.00 148.72 2569.17
   22:52:00.450.17-May-2020 4908.51  186.69 67.19 8.00 148.92 2569.17
   22:52:00.650.17-May-2020 4908.51  172.99 67.19 8.00 149.12 2569.17
   22:52:00.850.17-May-2020 4908.51  162.89 67.19 8.00 149.32 2569.17
   22:52:01.050.17-May-2020 4908.51  152.68 67.19 8.00 149.52 2569.17
   22:52:01.250.17-May-2020 4908.51  143.13 67.19 8.00 149.72 2569.17
   22:52:01.450.17-May-2020 4908.51  134.59 67.19 8.00 149.92 2569.17
   22:52:01.650.17-May-2020 4908.51  134.59 67.19 8.00 150.12 2569.17
   22:52:01.849.17-May-2020 4908.51  120.02 67.19 8.00 150.32 2569.17
   22:52:02.049.17-May-2020 4908.51  113.89 67.19 8.00 150.52 2569.17
   22:52:02.249.17-May-2020 4908.51  108.29 67.19 8.00 150.72 2569.17
   22:52:02.449.17-May-2020 4908.51  103.22 67.19 8.00 150.92 2569.17
   22:52:02.649.17-May-2020 4908.51  103.22 67.19 8.00 151.12 2569.17
   22:52:02.849.17-May-2020 4908.51   94.53 67.19 8.00 151.32 2569.17
   22:52:03.049.17-May-2020 4908.51   90.78 67.19 8.00 151.52 2569.17
   22:52:03.249.17-May-2020 4908.51   87.35 67.19 8.00 151.72 2569.17
   22:52:03.449.17-May-2020 4908.51   84.11 67.19 8.00 151.92 2569.17
   22:52:03.649.17-May-2020 4908.51   81.13 67.19 8.00 152.12 2569.17
   22:52:03.848.17-May-2020 4908.51   78.42 67.19 8.00 152.32 2569.17
   22:52:04.048.17-May-2020 4908.51   75.86 67.19 8.00 152.52 2569.17
   22:52:04.248.17-May-2020 4908.51   73.51 67.19 8.00 152.72 2569.17
   22:52:04.448.17-May-2020 4908.51   71.30 67.19 8.00 152.92 2569.17
   22:52:04.648.17-May-2020 4908.51   69.23 67.19 8.00 153.12 2569.17
   22:52:04.848.17-May-2020 4908.51   67.28 67.19 8.00 153.32 2569.17
   22:52:05.048.17-May-2020 4908.51   65.45 67.19 8.00 153.52 2569.17
   22:52:05.248.17-May-2020 4908.51   63.76 67.19 8.00 153.72 2569.17
   22:52:05.448.17-May-2020 4908.51   62.17 67.19 8.00 153.92 2569.17
   22:52:05.648.17-May-2020 4908.51   62.17 67.19 8.00 154.12 2569.17
   22:52:05.847.17-May-2020 4908.51   59.27 67.19 8.00 154.32 2569.17
   22:52:06.047.17-May-2020 4908.51   57.94 67.19 8.00 154.52 2569.17
   22:52:06.247.17-May-2020 4908.51   56.67 67.19 8.00 154.72 2569.17
   22:52:06.447.17-May-2020 4908.51   55.46 67.19 8.00 154.92 2569.17
   22:52:06.647.17-May-2020 4908.51   55.46 67.19 8.00 155.12 2569.17
   22:52:06.847.17-May-2020 4908.51   53.23 67.19 8.00 155.32 2569.17
   22:52:07.047.17-May-2020 4908.51   52.20 67.18 8.00 155.52 2569.17
   22:52:07.247.17-May-2020 4908.51   51.20 67.18 8.00 155.72 2569.17
   22:52:07.447.17-May-2020 4908.51   50.26 67.18 8.00 155.92 2569.17
   22:52:07.646.17-May-2020 4908.51   49.38 67.18 8.00 156.12 2569.17
   22:52:07.846.17-May-2020 4908.51   48.54 67.18 8.00 156.32 2569.17
   22:52:08.046.17-May-2020 4908.51   47.77 67.18 8.00 156.52 2569.17
   22:52:08.246.17-May-2020 4908.51   47.03 67.18 8.00 156.72 2569.17
   22:52:08.446.17-May-2020 4908.51   46.73 67.18 8.00 156.92 2569.17
   22:52:08.646.17-May-2020 4908.51   46.83 67.18 8.00 157.12 2569.17
   22:52:08.846.17-May-2020 4908.51   46.96 67.18 8.00 157.32 2569.17
   22:52:09.046.17-May-2020 4908.51   47.08 67.18 8.00 157.52 2569.17
   22:52:09.246.17-May-2020 4908.51   47.21 67.18 8.00 157.72 2569.17
   22:52:09.446.17-May-2020 4908.51   47.32 67.18 8.00 157.92 2569.17
   22:52:09.645.17-May-2020 4908.51   47.32 67.18 8.00 158.12 2569.17
   22:52:09.845.17-May-2020 4908.51   47.60 67.18 8.00 158.32 2569.17
   22:52:10.045.17-May-2020 4908.51   47.74 67.18 8.00 158.52 2569.17
   22:52:10.245.17-May-2020 4908.51   47.87 67.18 8.00 158.72 2569.17
   22:52:10.445.17-May-2020 4908.51   48.05 67.18 8.00 158.92 2569.17
   22:52:10.645.17-May-2020 4908.51   48.05 67.18 8.00 159.12 2569.17
   22:52:10.845.17-May-2020 4908.51   48.34 67.18 8.00 159.32 2569.17
   22:52:11.045.17-May-2020 4908.51   48.50 67.18 8.00 159.52 2569.17
   22:52:11.245.17-May-2020 4908.51   48.67 67.18 8.00 159.72 2569.17
   22:52:11.445.17-May-2020 4908.51   48.85 67.18 8.00 159.92 2569.17
   22:52:11.644.17-May-2020 4908.51   48.99 67.18 8.00 160.12 2569.17
   22:52:11.844.17-May-2020 4908.51   49.16 67.18 8.00 160.32 2569.17
   22:52:12.044.17-May-2020 4908.51   49.32 67.18 8.00 160.52 2569.17
   22:52:12.244.17-May-2020 4908.51   49.53 67.18 8.00 160.72 2569.17
