~Version Information
 VERS.                  2.0:   CWLS log ASCII Standard -VERSION 2.0
 WRAP.                   NO:   One line per depth step
~Well Information Block
#MNEM.UNIT     VALUE/NAME     DESCRIPTION
#---------     -----------    ---------------------------
 STRT.S             21:13:20 18-May-20: START TIME 21:13:20 18-May-20
 STOP.S             21:20:25 18-May-20: STOP TIME  21:20:25 18-May-20
 STEP.S                   0.00: STEP TIME
 NULL.                 -999.25: NULL VALUE
 UNIT.                     N/A:  LOGGING EQUIPMENT ID
 DCON.         Sperry Drilling:  DIRECTNL CONTR
 DOE .                     N/A:  DOE NUMBER
 JOBN.        AZ-XX-0906252240:  JOB TICKET NUMB
 MWDS.                     N/A:  MWD SHOP
 PROV.                    Baku:  PROVINCE
 STAT.                    Baku:  STATE NAME
 REGN.                   EESSA:  REGION
 BASE.              Azerbaijan:  LOGGING EQUIPMENT BASE LOCATION
 UWI .                     N/A:  UNIQUE WELL IDENTIFIER
 API .                     N/A:  API NUMBER
 MDS .        Operator Entered:  MAG DATA SOURCE
 WTYP.                Deviated:  WELL TYPE
 COMP.     BP Exploration (Caspian Sea) Ltd.:  COMPANY
 SRVC.          Turan Drilling:  CONTRACTOR
 WELL.           J23 (Slot 07):  WELL NAME
 CTRY.              Azerbaijan:  COUNTRY NAME
 FLD .                     ACG:  FIELD NAME
 PDAT.          Mean Sea Level:  PERMANENT DATUM
 RIG .             West Chirag:  RIG NAME
 SON .        AZ-XX-0906252240:  JOB NUMBER
 FTOP.          Formation Tops:  FORM TOPS DESC
 ILTD.               Lithology:  INTERP LTH DESC
 SVYD.                  Survey:  SURVEY DESC
 DMOD.             Drill Model:  DRILL MOD DESC
 HPTY.       Minimum Curvature:  HOLE POS TYPE
 NREF.                    Grid:  NORTH REFERENCE
 SPUD.               27-Aug-20:  SPUD DATE
 DATE.      00.00.00 19-May-20:  END TIME
 STIM.      03.00.00 25-Mar-20:  START TIME
 DMF .             Drill Floor:  DRILL MEAS FROM
 DFST.                        :  DIST FSL TEXT
 DFWT.                        :  DIST FWL TEXT
 CNTY.                        :  COUNTY
 LOC .                        :  LOCATION
 LMF .             Drill Floor:  LOG MEASURED FROM
 VSNS.m                   9.43:  VERT SEC N/S
 VSEW.m                  -8.91:  VERT SEC E/W
 AGAP.m                  43.00:  AIR GAP
 DEP .m                 354.17:  DEPTH
 APD .m                  43.00:  DEPTH ABOVE PD
 WDMS.m                 169.80:  WD ELEV
 EGL .m                   0.00:  GROUND ELEVATION
 EPD .m                   0.00:  ELEVATION
 AZTC.deg                 6.31:  AZM TOTAL CORR
 GRDC.deg                 0.14:  GRID CORRECTION
 MDEC.deg                 6.45:  MAGNETIC DECL
 MDIP.deg                59.56:  MAGNETIC DIP
 MFLD.nT              50295.00:  MAGNETIC FIELD
 GVFD.g                   1.00:  GRAVITY FIELD
 VSDR.deg               179.88:  VERT SEC DIRECT
 TDD .m                5150.01:  TOTAL DEPTH (DRILLER)
 SDEP.m                 864.00:  START DEPTH
 DFSL.m                   0.00:  DISTANCE FSL
 DFWL.m                   0.00:  DISTANCE FWL
 UTMY.m             4443793.85:  UTM Y
 UTMX.m              519005.06:  UTM X
 WHEW.m                  -8.91:  WELL HEAD E/W
 WHNS.m                   9.43:  WELL HEAD N/S
 LONG.deg                51.22:  LONGITUDE
 LATI.deg                40.13:  LATITUDE
 TVDS.m                  43.00:  TVDSS CORRECTN
 EKB .m                   0.00:  KB ELEVATION
 EDF .m                  43.00:  DF ELEVATION
 TDL .m                 363.00:  TOTAL DEPTH (LOGGER)
 MAGU.                 1850802:  MAGUTM CHECKSUM
 VSC .                       0:  VS TO CLOSURE
~Parameter Information Block
#MNEM.UNIT       Value        Description
#---------     -----------    ---------------------------
 AV  .mps                 2.30:  Ann Velocity 
 AVMX.mps                 4.40:  Max Ann Veloc 
 AZIF.deg               110.24:  Azm, Final 
 BHAT.        Rotary Steerable:  BHA Type 
 BREV.rev               331.00:  Rev Bit Total 
 BROT.°/30m               0.00:  Build Rotating 
 BS  .in                  8.50:  Bit Size 
 BSZ .in                  8.50:  Bit Size 
 BTPL.psig              585.00:  Bit Press Loss 
 CABU.                     Yes:  Customer Abuse 
 TCS .hr                122.75:  Time Ciculation Ended 
 CV  .mps                 2.67:  Crit Velocity 
 CVMX.mps                 3.56:  Max Crit Veloc 
 DD1 .          Rashad Habibov:  Direct Drillr 1 
 DD2 .         Rasim Ibrahimov:  Direct Drillr 2 
 DDSV.               Geo-Pilot:  DD Service 
 DEFF.%                  98.00:  % Det Eff 
 DLRX.°/30m               0.75:  Dogleg Rot Max 
 DLSO.°/30m               1.25:  Dogleg Oriented 
 DLSX.°/30m               2.06:  Dogleg Str Max 
 DRET.      07.45.00 17-May-20:  Drill End Time 
 DRST.      22.50.00 15-May-20:  Drill Start Tim 
 DTIM.hr                 20.75:  Time Drilling 
 EDEP.m                5124.01:  End Depth 
 ENG1.           Eldar Hajiyev:  Engineer 1 
 ENG2.        Marcelo Sandoval:  Engineer 2 
 ENG3.        Davud huseynzada:  Engineer 3 
 ENG4.          Ruslan Safarov:  Engineer 4 
 ETIM.      04.33.00 23-May-20:  End Time 
 FLOI.gpm               450.00:  Flow In 
 FLON.gpm               400.00:  Flow In Min 
 FLOS.cptm                0.00:  Fluid Loss 
 FLOX.gpm               500.00:  Flow In Max 
 FTRO.       Formation Presure:  FTWD Run Obj 
 HFLO.                      No:  High Flow 
 HPRE.                     Yes:  High Pressure 
 HTEM.                      No:  High Temp 
 HYDO.m                   1.80:  Hydro Offset 
 IFIN.deg                75.06:  Inc, Final 
 IMAX.deg                75.38:  Inc Max 
 IMIN.deg                74.69:  Inc Min 
 IMND.m                5027.38:  Inc Min Depth 
 IMXD.m                4771.61:  Inc Max Depth 
 JARR.                      No:  Jarring 
 LETM.      07.45.00 17-May-20:  Log End Time 
 LOST.hr                     0:  Lost Rig Time 
 LSTM.      22.50.00 15-May-20:  Log Start Time 
 MDCL.ppm             42000.00:  Mud Chlorides 
 MDES.     Inversion Oil/Synthetic:  Mud Desc 
 DFD .sg                  1.34:  Mud Density 
 MDMN.sg                  1.34:  Dens Mud Min 
 MDMX.sg                  1.34:  Dens Mud Max 
 MOIL.                       0:  Run Mud Oil % 
 MOWR.                   67:33:  Run Mud OWR 
 MSND.                       0:  Run Mud Sand % 
 MSOL.                     1.8:  Run Mud Solids% 
 DFV .spqt               76.00:  Mud Viscosity 
 MWOD.in                  6.75:  MWD Tool OD 
 MWSI.                      No:  Serv Intrp, MWD 
 OTIM.hr                228.19:  Time Operating 
 PCON.           Look Like New:  Pad Condition 
 PMAX.psia             6164.70:  Press Op, Max 
 PV  .cP                 28.00:  Mud PV 
 RUN .                     900:  Run Number 
 ROPA.m/hr               19.00:  ROP Avg 
 ROPN.m/hr               11.00:  ROP Min 
 ROPX.m/hr               36.00:  ROP Max 
 RPMA.rpm               120.00:  RPM Surface Avg 
 RPMN.rpm               120.00:  RPM Surface Min 
 RPMX.rpm               120.00:  RPM Surface Max 
 RRUN.                    L604:  Rig Run Number 
 RTIM.hr                  7.00:  Time Reaming 
 SAZI.deg               109.27:  Azm, Start 
 SDEP.m                4761.01:  Start Depth 
 SIDD.                      No:  Serv Intrp, DD 
 SINC.deg                75.38:  Inc, Start 
 SPPA.psig             3574.00:  SPP Avg 
 SPPN.psig             3475.00:  SPP Min 
 SPPX.psig             3791.00:  SPP Max 
 STIM.      07.08.48 13-May-20:  Start Time 
 SVCS.                 DD, MWD:  Services 
 SVER.                    9.20:  Sperry Version 
 TDAT.m                 363.00:  Tot Depth Attmp 
 TDDF.                      No:  Trip for DD 
 TDLG.m                 363.00:  Tot Depth Loggd 
 TFF .                      No:  Trip for Fail 
 TQAA.f-kp               20.00:  Torque Abs Avg 
 TQAN.f-kp               18.00:  Torque Abs Min 
 TQAX.f-kp               22.00:  Torque Abs Max 
 TRRT.°/30m              -0.35:  Turn Rotating 
 MRT .                    HCIM:  Maximum Recorded Temperature 
 TTMX.degC               92.16:  Max Tool Temp 
 VS01.                90586518:  Virtual Str1 SN 
 VS02.        AZ90560654Z1W1C6:  Virtual Str2 SN 
 VS03.           AZ90610398F11:  Virtual Str3 SN 
 VS04.                90514975:  Virtual Str4 SN 
 VS05.                90514972:  Virtual Str5 SN 
 VS06.     AZ90603282F11V7D1A6:  Virtual Str6 SN 
 WBMN.klb                 7.00:  WOB Min 
 WOBA.klb                12.00:  WOB Avg 
 WOBX.klb                14.00:  WOB Max 
 YP  .lhf2               32.00:  Yield Point 
~Curve Information Block
#MNEM.UNIT                 API CODE     Curve Description
#---------               -----------    ---------------------------
 TIME.HHMMSS            00 000 000 000:  GT Time & Date
 GTDEPTH.m              00 000 000 000:  GT Depth
 GTPQH.psia             00 000 000 000:  GT HR Quartz Pressure
 GTTQ.degC              00 000 000 000:  GT Quartz Temperature
 GTTN.NONE              00 000 000 000:  GT Test Number
 GTET.sec               00 000 000 000:  GT Elapsed Test Time
 GTTVD.m                00 000 000 000:  GT True Vertical Depth
#Other Information
#
#WARRANTY: Halliburton will use its best efforts to furnish customers with 
#accurate information and interpretations that are part of, and incident to, the services 
#provided.  However, Halliburton cannot and does not warrant the accuracy 
#or correctness of such information and interpretations.  Under no circumstances should any 
#such information or interpretation be relied upon as the sole basis for any drilling, 
#completion, production, or financial decision or any procedure involving any risk to the 
#safety of any drilling venture, drilling rig or its crew or any other third party.  The 
#Customer has full responsibility for all drilling, completion and production operation.  
#Halliburton makes no representations or warranties, either expressed or 
#implied, including, but not limited to, the implied warranties of merchantability or fitness 
#for a particular purpose, with respect to the services rendered.  In no event will 
#Halliburton be liable for failure to obtain any particular results or for 
#any damages, including, but not limited to, indirect, special or consequential damages, 
#resulting from the use of any information or interpretation provided by Halliburton.
#
~A           TIME           GTDEPTH  GTPQH  GTTQ  GTTN   GTET   GTTVD  
# ...
   21:18:36.949.18-May-2020 4766.01 5511.62 60.62 14.00 316.48 2532.29
   21:18:37.149.18-May-2020 4766.01 5521.87 60.62 14.00 316.68 2532.29
   21:18:37.350.18-May-2020 4766.01 5513.02 60.62 14.00 316.88 2532.29
   21:18:37.550.18-May-2020 4766.01 5512.77 60.62 14.00 317.08 2532.29
   21:18:37.750.18-May-2020 4766.01 5512.77 60.62 14.00 317.28 2532.29
   21:18:37.950.18-May-2020 4766.01 5514.24 60.62 14.00 317.48 2532.29
   21:18:38.150.18-May-2020 4766.01 5512.77 60.62 14.00 317.68 2532.29
   21:18:38.350.18-May-2020 4766.01 5512.62 60.62 14.00 317.88 2532.29
   21:18:38.550.18-May-2020 4766.01 5525.84 60.62 14.00 318.08 2532.29
   21:18:38.750.18-May-2020 4766.01 5512.57 60.62 14.00 318.28 2532.29
   21:18:38.950.18-May-2020 4766.01 5515.22 60.62 14.00 318.48 2532.29
   21:18:39.150.18-May-2020 4766.01 5514.84 60.62 14.00 318.68 2532.29
   21:18:39.350.18-May-2020 4766.01 5528.81 60.62 14.00 318.88 2532.29
   21:18:39.550.18-May-2020 4766.01 5527.46 60.62 14.00 319.08 2532.29
   21:18:39.750.18-May-2020 4766.01 5527.46 60.62 14.00 319.28 2532.29
   21:18:39.950.18-May-2020 4766.01 5518.85 60.62 14.00 319.48 2532.29
   21:18:40.150.18-May-2020 4766.01 5536.90 60.62 14.00 319.68 2532.29
   21:18:40.350.18-May-2020 4766.01 5527.30 60.62 14.00 319.88 2532.29
   21:18:40.550.18-May-2020 4766.01 5522.12 60.62 14.00 320.08 2532.29
   21:18:40.750.18-May-2020 4766.01 5522.12 60.62 14.00 320.29 2532.29
   21:18:40.951.18-May-2020 4766.01 5530.38 60.62 14.00 320.49 2532.29
   21:18:41.151.18-May-2020 4766.01 5525.53 60.62 14.00 320.69 2532.29
   21:18:41.351.18-May-2020 4766.01 5521.66 60.62 14.00 320.89 2532.29
   21:18:41.551.18-May-2020 4766.01 5532.32 60.62 14.00 321.09 2532.29
   21:18:41.751.18-May-2020 4766.01 5532.32 60.62 14.00 321.29 2532.29
   21:18:41.951.18-May-2020 4766.01 5522.97 60.62 14.00 321.49 2532.29
   21:18:42.151.18-May-2020 4766.01 5522.99 60.62 14.00 321.69 2532.29
   21:18:42.351.18-May-2020 4766.01 5525.40 60.62 14.00 321.89 2532.29
   21:18:42.551.18-May-2020 4766.01 5523.71 60.62 14.00 322.09 2532.29
   21:18:42.751.18-May-2020 4766.01 5537.05 60.62 14.00 322.29 2532.29
   21:18:42.951.18-May-2020 4766.01 5519.36 60.62 14.00 322.49 2532.29
   21:18:43.151.18-May-2020 4766.01 5523.94 60.62 14.00 322.69 2532.29
   21:18:43.351.18-May-2020 4766.01 5521.81 60.62 14.00 322.89 2532.29
   21:18:43.551.18-May-2020 4766.01 5531.40 60.62 14.00 323.09 2532.29
   21:18:43.751.18-May-2020 4766.01 5531.40 60.62 14.00 323.29 2532.29
   21:18:43.951.18-May-2020 4766.01 5521.62 60.62 14.00 323.49 2532.29
   21:18:44.151.18-May-2020 4766.01 5521.19 60.62 14.00 323.69 2532.29
   21:18:44.351.18-May-2020 4766.01 5522.67 60.62 14.00 323.89 2532.29
   21:18:44.551.18-May-2020 4766.01 5520.97 60.62 14.00 324.09 2532.29
   21:18:44.752.18-May-2020 4766.01 5520.97 60.62 14.00 324.29 2532.29
   21:18:44.952.18-May-2020 4766.01 5529.46 60.62 14.00 324.49 2532.29
   21:18:45.152.18-May-2020 4766.01 5515.59 60.62 14.00 324.69 2532.29
   21:18:45.352.18-May-2020 4766.01 5513.49 60.62 14.00 324.89 2532.29
   21:18:45.552.18-May-2020 4766.01 5512.98 60.62 14.00 325.09 2532.29
   21:18:45.752.18-May-2020 4766.01 5512.98 60.62 14.00 325.29 2532.29
   21:18:45.952.18-May-2020 4766.01 5528.69 60.62 14.00 325.49 2532.29
   21:18:46.152.18-May-2020 4766.01 5507.80 60.62 14.00 325.69 2532.29
   21:18:46.352.18-May-2020 4766.01 5512.46 60.62 14.00 325.89 2532.29
   21:18:46.552.18-May-2020 4766.01 5525.91 60.62 14.00 326.09 2532.29
   21:18:46.752.18-May-2020 4766.01 5520.91 60.62 14.00 326.29 2532.29
   21:18:46.952.18-May-2020 4766.01 5513.68 60.62 14.00 326.49 2532.29
   21:18:47.152.18-May-2020 4766.01 5510.53 60.62 14.00 326.69 2532.29
   21:18:47.352.18-May-2020 4766.01 5523.27 60.62 14.00 326.89 2532.29
   21:18:47.552.18-May-2020 4766.01 5528.63 60.62 14.00 327.09 2532.29
   21:18:47.752.18-May-2020 4766.01 5528.63 60.62 14.00 327.29 2532.29
   21:18:47.952.18-May-2020 4766.01 5513.08 60.62 14.00 327.49 2532.29
   21:18:48.152.18-May-2020 4766.01 5515.97 60.62 14.00 327.69 2532.29
   21:18:48.352.18-May-2020 4766.01 5524.74 60.62 14.00 327.89 2532.29
   21:18:48.553.18-May-2020 4766.01 5513.20 60.62 14.00 328.09 2532.29
   21:18:48.753.18-May-2020 4766.01 5513.20 60.62 14.00 328.29 2532.29
   21:18:48.953.18-May-2020 4766.01 5514.05 60.62 14.00 328.49 2532.29
   21:18:49.153.18-May-2020 4766.01 5515.25 60.62 14.00 328.69 2532.29
   21:18:49.353.18-May-2020 4766.01 5511.18 60.62 14.00 328.89 2532.29
   21:18:49.553.18-May-2020 4766.01 5524.76 60.62 14.00 329.09 2532.29
   21:18:49.753.18-May-2020 4766.01 5524.76 60.62 14.00 329.29 2532.29
   21:18:49.953.18-May-2020 4766.01 5511.84 60.62 14.00 329.49 2532.29
   21:18:50.153.18-May-2020 4766.01 5509.31 60.62 14.00 329.69 2532.29
   21:18:50.353.18-May-2020 4766.01 5519.19 60.62 14.00 329.89 2532.29
   21:18:50.553.18-May-2020 4766.01 5510.56 60.62 14.00 330.09 2532.29
   21:18:50.753.18-May-2020 4766.01 5510.23 60.62 14.00 330.29 2532.29
   21:18:50.953.18-May-2020 4766.01 5510.78 60.62 14.00 330.49 2532.29
   21:18:51.153.18-May-2020 4766.01 5512.25 60.62 14.00 330.69 2532.29
   21:18:51.353.18-May-2020 4766.01 5510.84 60.62 14.00 330.89 2532.29
   21:18:51.553.18-May-2020 4766.01 5510.92 60.62 14.00 331.09 2532.29
   21:18:51.753.18-May-2020 4766.01 5510.92 60.62 14.00 331.29 2532.29
   21:18:51.953.18-May-2020 4766.01 5509.73 60.62 14.00 331.49 2532.29
   21:18:52.153.18-May-2020 4766.01 5512.30 60.62 14.00 331.69 2532.29
   21:18:52.354.18-May-2020 4766.01 5511.41 60.62 14.00 331.89 2532.29
   21:18:52.554.18-May-2020 4766.01 5528.12 60.62 14.00 332.09 2532.29
   21:18:52.754.18-May-2020 4766.01 5528.12 60.62 14.00 332.29 2532.29
   21:18:52.954.18-May-2020 4766.01 5512.37 60.62 14.00 332.49 2532.29
   21:18:53.154.18-May-2020 4766.01 5512.17 60.62 14.00 332.69 2532.29
   21:18:53.354.18-May-2020 4766.01 5533.31 60.62 14.00 332.89 2532.29
   21:18:53.554.18-May-2020 4766.01 5515.55 60.62 14.00 333.09 2532.29
   21:18:53.754.18-May-2020 4766.01 5515.55 60.62 14.00 333.29 2532.29
   21:18:53.954.18-May-2020 4766.01 5510.34 60.62 14.00 333.49 2532.29
   21:18:54.154.18-May-2020 4766.01 5523.64 60.62 14.00 333.69 2532.29
   21:18:54.354.18-May-2020 4766.01 5525.20 60.62 14.00 333.89 2532.29
   21:18:54.554.18-May-2020 4766.01 5508.94 60.62 14.00 334.09 2532.29
   21:18:54.754.18-May-2020 4766.01 5510.24 60.62 14.00 334.29 2532.29
   21:18:54.954.18-May-2020 4766.01 5512.57 60.62 14.00 334.49 2532.29
   21:18:55.154.18-May-2020 4766.01 5519.10 60.62 14.00 334.69 2532.29
   21:18:55.354.18-May-2020 4766.01 5507.78 60.62 14.00 334.89 2532.29
   21:18:55.554.18-May-2020 4766.01 5507.20 60.62 14.00 335.09 2532.29
   21:18:55.754.18-May-2020 4766.01 5507.20 60.62 14.00 335.29 2532.29
   21:18:55.954.18-May-2020 4766.01 5508.37 60.62 14.00 335.49 2532.29
   21:18:56.155.18-May-2020 4766.01 5505.16 60.62 14.00 335.69 2532.29
   21:18:56.355.18-May-2020 4766.01 5519.17 60.62 14.00 335.89 2532.29
   21:18:56.555.18-May-2020 4766.01 5504.72 60.62 14.00 336.09 2532.29
   21:18:56.755.18-May-2020 4766.01 5504.72 60.62 14.00 336.29 2532.29
   21:18:56.955.18-May-2020 4766.01 5507.34 60.62 14.00 336.49 2532.29
   21:18:57.155.18-May-2020 4766.01 5517.82 60.62 14.00 336.69 2532.29
   21:18:57.355.18-May-2020 4766.01 5509.25 60.62 14.00 336.89 2532.29
   21:18:57.555.18-May-2020 4766.01 5509.82 60.62 14.00 337.09 2532.29
   21:18:57.755.18-May-2020 4766.01 5509.82 60.62 14.00 337.29 2532.29
   21:18:57.955.18-May-2020 4766.01 5512.66 60.62 14.00 337.49 2532.29
   21:18:58.155.18-May-2020 4766.01 5510.48 60.62 14.00 337.69 2532.29
   21:18:58.355.18-May-2020 4766.01 5510.48 60.62 14.00 337.89 2532.29
   21:18:58.555.18-May-2020 4766.01 5524.98 60.62 14.00 338.09 2532.29
   21:18:58.755.18-May-2020 4766.01 5507.46 60.62 14.00 338.29 2532.29
   21:18:58.955.18-May-2020 4766.01 5510.85 60.62 14.00 338.49 2532.29
   21:18:59.155.18-May-2020 4766.01 5509.41 60.62 14.00 338.69 2532.29
   21:18:59.355.18-May-2020 4766.01 5525.55 60.62 14.00 338.89 2532.29
