~Version Information
 VERS.                  2.0:   CWLS log ASCII Standard -VERSION 2.0
 WRAP.                   NO:   One line per depth step
~Well Information Block
#MNEM.UNIT     VALUE/NAME     DESCRIPTION
#---------     -----------    ---------------------------
 STRT.S             21:13:20 18-May-20: START TIME 21:13:20 18-May-20
 STOP.S             21:20:25 18-May-20: STOP TIME  21:20:25 18-May-20
 STEP.S                   0.00: STEP TIME
 NULL.                 -999.25: NULL VALUE
 UNIT.                     N/A:  LOGGING EQUIPMENT ID
 DCON.         Sperry Drilling:  DIRECTNL CONTR
 DOE .                     N/A:  DOE NUMBER
 JOBN.        AZ-XX-0906252240:  JOB TICKET NUMB
 MWDS.                     N/A:  MWD SHOP
 PROV.                    Baku:  PROVINCE
 STAT.                    Baku:  STATE NAME
 REGN.                   EESSA:  REGION
 BASE.              Azerbaijan:  LOGGING EQUIPMENT BASE LOCATION
 UWI .                     N/A:  UNIQUE WELL IDENTIFIER
 API .                     N/A:  API NUMBER
 MDS .        Operator Entered:  MAG DATA SOURCE
 WTYP.                Deviated:  WELL TYPE
 COMP.     BP Exploration (Caspian Sea) Ltd.:  COMPANY
 SRVC.          Turan Drilling:  CONTRACTOR
 WELL.           J23 (Slot 07):  WELL NAME
 CTRY.              Azerbaijan:  COUNTRY NAME
 FLD .                     ACG:  FIELD NAME
 PDAT.          Mean Sea Level:  PERMANENT DATUM
 RIG .             West Chirag:  RIG NAME
 SON .        AZ-XX-0906252240:  JOB NUMBER
 FTOP.          Formation Tops:  FORM TOPS DESC
 ILTD.               Lithology:  INTERP LTH DESC
 SVYD.                  Survey:  SURVEY DESC
 DMOD.             Drill Model:  DRILL MOD DESC
 HPTY.       Minimum Curvature:  HOLE POS TYPE
 NREF.                    Grid:  NORTH REFERENCE
 SPUD.               27-Aug-20:  SPUD DATE
 DATE.      00.00.00 19-May-20:  END TIME
 STIM.      03.00.00 25-Mar-20:  START TIME
 DMF .             Drill Floor:  DRILL MEAS FROM
 DFST.                        :  DIST FSL TEXT
 DFWT.                        :  DIST FWL TEXT
 CNTY.                        :  COUNTY
 LOC .                        :  LOCATION
 LMF .             Drill Floor:  LOG MEASURED FROM
 VSNS.m                   9.43:  VERT SEC N/S
 VSEW.m                  -8.91:  VERT SEC E/W
 AGAP.m                  43.00:  AIR GAP
 DEP .m                 354.17:  DEPTH
 APD .m                  43.00:  DEPTH ABOVE PD
 WDMS.m                 169.80:  WD ELEV
 EGL .m                   0.00:  GROUND ELEVATION
 EPD .m                   0.00:  ELEVATION
 AZTC.deg                 6.31:  AZM TOTAL CORR
 GRDC.deg                 0.14:  GRID CORRECTION
 MDEC.deg                 6.45:  MAGNETIC DECL
 MDIP.deg                59.56:  MAGNETIC DIP
 MFLD.nT              50295.00:  MAGNETIC FIELD
 GVFD.g                   1.00:  GRAVITY FIELD
 VSDR.deg               179.88:  VERT SEC DIRECT
 TDD .m                5150.01:  TOTAL DEPTH (DRILLER)
 SDEP.m                 864.00:  START DEPTH
 DFSL.m                   0.00:  DISTANCE FSL
 DFWL.m                   0.00:  DISTANCE FWL
 UTMY.m             4443793.85:  UTM Y
 UTMX.m              519005.06:  UTM X
 WHEW.m                  -8.91:  WELL HEAD E/W
 WHNS.m                   9.43:  WELL HEAD N/S
 LONG.deg                51.22:  LONGITUDE
 LATI.deg                40.13:  LATITUDE
 TVDS.m                  43.00:  TVDSS CORRECTN
 EKB .m                   0.00:  KB ELEVATION
 EDF .m                  43.00:  DF ELEVATION
 TDL .m                 363.00:  TOTAL DEPTH (LOGGER)
 MAGU.                 1850802:  MAGUTM CHECKSUM
 VSC .                       0:  VS TO CLOSURE
~Parameter Information Block
#MNEM.UNIT       Value        Description
#---------     -----------    ---------------------------
 AV  .mps                 2.30:  Ann Velocity 
 AVMX.mps                 4.40:  Max Ann Veloc 
 AZIF.deg               110.24:  Azm, Final 
 BHAT.        Rotary Steerable:  BHA Type 
 BREV.rev               331.00:  Rev Bit Total 
 BROT.°/30m               0.00:  Build Rotating 
 BS  .in                  8.50:  Bit Size 
 BSZ .in                  8.50:  Bit Size 
 BTPL.psig              585.00:  Bit Press Loss 
 CABU.                     Yes:  Customer Abuse 
 TCS .hr                122.75:  Time Ciculation Ended 
 CV  .mps                 2.67:  Crit Velocity 
 CVMX.mps                 3.56:  Max Crit Veloc 
 DD1 .          Rashad Habibov:  Direct Drillr 1 
 DD2 .         Rasim Ibrahimov:  Direct Drillr 2 
 DDSV.               Geo-Pilot:  DD Service 
 DEFF.%                  98.00:  % Det Eff 
 DLRX.°/30m               0.75:  Dogleg Rot Max 
 DLSO.°/30m               1.25:  Dogleg Oriented 
 DLSX.°/30m               2.06:  Dogleg Str Max 
 DRET.      07.45.00 17-May-20:  Drill End Time 
 DRST.      22.50.00 15-May-20:  Drill Start Tim 
 DTIM.hr                 20.75:  Time Drilling 
 EDEP.m                5124.01:  End Depth 
 ENG1.           Eldar Hajiyev:  Engineer 1 
 ENG2.        Marcelo Sandoval:  Engineer 2 
 ENG3.        Davud huseynzada:  Engineer 3 
 ENG4.          Ruslan Safarov:  Engineer 4 
 ETIM.      04.33.00 23-May-20:  End Time 
 FLOI.gpm               450.00:  Flow In 
 FLON.gpm               400.00:  Flow In Min 
 FLOS.cptm                0.00:  Fluid Loss 
 FLOX.gpm               500.00:  Flow In Max 
 FTRO.       Formation Presure:  FTWD Run Obj 
 HFLO.                      No:  High Flow 
 HPRE.                     Yes:  High Pressure 
 HTEM.                      No:  High Temp 
 HYDO.m                   1.80:  Hydro Offset 
 IFIN.deg                75.06:  Inc, Final 
 IMAX.deg                75.38:  Inc Max 
 IMIN.deg                74.69:  Inc Min 
 IMND.m                5027.38:  Inc Min Depth 
 IMXD.m                4771.61:  Inc Max Depth 
 JARR.                      No:  Jarring 
 LETM.      07.45.00 17-May-20:  Log End Time 
 LOST.hr                     0:  Lost Rig Time 
 LSTM.      22.50.00 15-May-20:  Log Start Time 
 MDCL.ppm             42000.00:  Mud Chlorides 
 MDES.     Inversion Oil/Synthetic:  Mud Desc 
 DFD .sg                  1.34:  Mud Density 
 MDMN.sg                  1.34:  Dens Mud Min 
 MDMX.sg                  1.34:  Dens Mud Max 
 MOIL.                       0:  Run Mud Oil % 
 MOWR.                   67:33:  Run Mud OWR 
 MSND.                       0:  Run Mud Sand % 
 MSOL.                     1.8:  Run Mud Solids% 
 DFV .spqt               76.00:  Mud Viscosity 
 MWOD.in                  6.75:  MWD Tool OD 
 MWSI.                      No:  Serv Intrp, MWD 
 OTIM.hr                228.19:  Time Operating 
 PCON.           Look Like New:  Pad Condition 
 PMAX.psia             6164.70:  Press Op, Max 
 PV  .cP                 28.00:  Mud PV 
 RUN .                     900:  Run Number 
 ROPA.m/hr               19.00:  ROP Avg 
 ROPN.m/hr               11.00:  ROP Min 
 ROPX.m/hr               36.00:  ROP Max 
 RPMA.rpm               120.00:  RPM Surface Avg 
 RPMN.rpm               120.00:  RPM Surface Min 
 RPMX.rpm               120.00:  RPM Surface Max 
 RRUN.                    L604:  Rig Run Number 
 RTIM.hr                  7.00:  Time Reaming 
 SAZI.deg               109.27:  Azm, Start 
 SDEP.m                4761.01:  Start Depth 
 SIDD.                      No:  Serv Intrp, DD 
 SINC.deg                75.38:  Inc, Start 
 SPPA.psig             3574.00:  SPP Avg 
 SPPN.psig             3475.00:  SPP Min 
 SPPX.psig             3791.00:  SPP Max 
 STIM.      07.08.48 13-May-20:  Start Time 
 SVCS.                 DD, MWD:  Services 
 SVER.                    9.20:  Sperry Version 
 TDAT.m                 363.00:  Tot Depth Attmp 
 TDDF.                      No:  Trip for DD 
 TDLG.m                 363.00:  Tot Depth Loggd 
 TFF .                      No:  Trip for Fail 
 TQAA.f-kp               20.00:  Torque Abs Avg 
 TQAN.f-kp               18.00:  Torque Abs Min 
 TQAX.f-kp               22.00:  Torque Abs Max 
 TRRT.°/30m              -0.35:  Turn Rotating 
 MRT .                    HCIM:  Maximum Recorded Temperature 
 TTMX.degC               92.16:  Max Tool Temp 
 VS01.                90586518:  Virtual Str1 SN 
 VS02.        AZ90560654Z1W1C6:  Virtual Str2 SN 
 VS03.           AZ90610398F11:  Virtual Str3 SN 
 VS04.                90514975:  Virtual Str4 SN 
 VS05.                90514972:  Virtual Str5 SN 
 VS06.     AZ90603282F11V7D1A6:  Virtual Str6 SN 
 WBMN.klb                 7.00:  WOB Min 
 WOBA.klb                12.00:  WOB Avg 
 WOBX.klb                14.00:  WOB Max 
 YP  .lhf2               32.00:  Yield Point 
~Curve Information Block
#MNEM.UNIT                 API CODE     Curve Description
#---------               -----------    ---------------------------
 TIME.HHMMSS            00 000 000 000:  GT Time & Date
 GTDEPTH.m              00 000 000 000:  GT Depth
 GTPQH.psia             00 000 000 000:  GT HR Quartz Pressure
 GTTQ.degC              00 000 000 000:  GT Quartz Temperature
 GTTN.NONE              00 000 000 000:  GT Test Number
 GTET.sec               00 000 000 000:  GT Elapsed Test Time
 GTTVD.m                00 000 000 000:  GT True Vertical Depth
#Other Information
#
#WARRANTY: Halliburton will use its best efforts to furnish customers with 
#accurate information and interpretations that are part of, and incident to, the services 
#provided.  However, Halliburton cannot and does not warrant the accuracy 
#or correctness of such information and interpretations.  Under no circumstances should any 
#such information or interpretation be relied upon as the sole basis for any drilling, 
#completion, production, or financial decision or any procedure involving any risk to the 
#safety of any drilling venture, drilling rig or its crew or any other third party.  The 
#Customer has full responsibility for all drilling, completion and production operation.  
#Halliburton makes no representations or warranties, either expressed or 
#implied, including, but not limited to, the implied warranties of merchantability or fitness 
#for a particular purpose, with respect to the services rendered.  In no event will 
#Halliburton be liable for failure to obtain any particular results or for 
#any damages, including, but not limited to, indirect, special or consequential damages, 
#resulting from the use of any information or interpretation provided by Halliburton.
#
~A           TIME           GTDEPTH  GTPQH  GTTQ  GTTN   GTET   GTTVD  
# ...
   21:19:22.161.18-May-2020 4766.01 5534.05 60.62 14.00 361.70 2532.29
   21:19:22.362.18-May-2020 4766.01 5528.21 60.62 14.00 361.90 2532.29
   21:19:22.562.18-May-2020 4766.01 5533.00 60.62 14.00 362.10 2532.29
   21:19:22.762.18-May-2020 4766.01 5533.00 60.62 14.00 362.30 2532.29
   21:19:22.962.18-May-2020 4766.01 5538.55 60.62 14.00 362.50 2532.29
   21:19:23.162.18-May-2020 4766.01 5538.12 60.62 14.00 362.70 2532.29
   21:19:23.362.18-May-2020 4766.01 5540.91 60.62 14.00 362.90 2532.29
   21:19:23.562.18-May-2020 4766.01 5549.03 60.62 14.00 363.10 2532.29
   21:19:23.762.18-May-2020 4766.01 5549.03 60.62 14.00 363.30 2532.29
   21:19:23.962.18-May-2020 4766.01 5537.85 60.62 14.00 363.50 2532.29
   21:19:24.162.18-May-2020 4766.01 5538.31 60.62 14.00 363.70 2532.29
   21:19:24.362.18-May-2020 4766.01 5541.99 60.62 14.00 363.90 2532.29
   21:19:24.562.18-May-2020 4766.01 5554.71 60.62 14.00 364.10 2532.29
   21:19:24.762.18-May-2020 4766.01 5554.71 60.62 14.00 364.30 2532.29
   21:19:24.962.18-May-2020 4766.01 5535.86 60.62 14.00 364.50 2532.29
   21:19:25.162.18-May-2020 4766.01 5536.60 60.62 14.00 364.70 2532.29
   21:19:25.362.18-May-2020 4766.01 5558.50 60.62 14.00 364.90 2532.29
   21:19:25.562.18-May-2020 4766.01 5532.74 60.62 14.00 365.10 2532.29
   21:19:25.762.18-May-2020 4766.01 5535.20 60.62 14.00 365.30 2532.29
   21:19:25.962.18-May-2020 4766.01 5535.89 60.62 14.00 365.50 2532.29
   21:19:26.163.18-May-2020 4766.01 5563.15 60.62 14.00 365.70 2532.29
   21:19:26.363.18-May-2020 4766.01 5532.97 60.62 14.00 365.90 2532.29
   21:19:26.563.18-May-2020 4766.01 5536.08 60.62 14.00 366.10 2532.29
   21:19:26.763.18-May-2020 4766.01 5535.51 60.62 14.00 366.30 2532.29
   21:19:26.963.18-May-2020 4766.01 5551.60 60.62 14.00 366.50 2532.29
   21:19:27.163.18-May-2020 4766.01 5536.82 60.62 14.00 366.70 2532.29
   21:19:27.363.18-May-2020 4766.01 5535.35 60.62 14.00 366.90 2532.29
   21:19:27.563.18-May-2020 4766.01 5532.44 60.62 14.00 367.10 2532.29
   21:19:27.763.18-May-2020 4766.01 5532.44 60.62 14.00 367.30 2532.29
   21:19:27.963.18-May-2020 4766.01 5531.80 60.62 14.00 367.50 2532.29
   21:19:28.163.18-May-2020 4766.01 5542.69 60.62 14.00 367.70 2532.29
   21:19:28.363.18-May-2020 4766.01 5522.51 60.62 14.00 367.90 2532.29
   21:19:28.563.18-May-2020 4766.01 5528.14 60.62 14.00 368.10 2532.29
   21:19:28.763.18-May-2020 4766.01 5528.14 60.62 14.00 368.30 2532.29
   21:19:28.963.18-May-2020 4766.01 5533.89 60.62 14.00 368.50 2532.29
   21:19:29.163.18-May-2020 4766.01 5522.69 60.62 14.00 368.70 2532.29
   21:19:29.363.18-May-2020 4766.01 5522.59 60.62 14.00 368.90 2532.29
   21:19:29.563.18-May-2020 4766.01 5523.16 60.62 14.00 369.10 2532.29
   21:19:29.763.18-May-2020 4766.01 5523.13 60.62 14.00 369.30 2532.29
   21:19:29.964.18-May-2020 4766.01 5519.48 60.62 14.00 369.50 2532.29
   21:19:30.164.18-May-2020 4766.01 5518.97 60.62 14.00 369.70 2532.29
   21:19:30.364.18-May-2020 4766.01 5527.09 60.62 14.00 369.90 2532.29
   21:19:30.564.18-May-2020 4766.01 5520.88 60.62 14.00 370.10 2532.29
   21:19:30.764.18-May-2020 4766.01 5520.88 60.62 14.00 370.30 2532.29
   21:19:30.964.18-May-2020 4766.01 5518.69 60.62 14.00 370.50 2532.29
   21:19:31.164.18-May-2020 4766.01 5523.73 60.62 14.00 370.70 2532.29
   21:19:31.364.18-May-2020 4766.01 5532.98 60.62 14.00 370.90 2532.29
   21:19:31.564.18-May-2020 4766.01 5520.77 60.62 14.00 371.10 2532.29
   21:19:31.764.18-May-2020 4766.01 5520.77 60.62 14.00 371.30 2532.29
   21:19:31.964.18-May-2020 4766.01 5532.20 60.62 14.00 371.50 2532.29
   21:19:32.164.18-May-2020 4766.01 5530.81 60.62 14.00 371.70 2532.29
   21:19:32.364.18-May-2020 4766.01 5526.78 60.62 14.00 371.90 2532.29
   21:19:32.564.18-May-2020 4766.01 5524.11 60.62 14.00 372.10 2532.29
   21:19:32.764.18-May-2020 4766.01 5524.11 60.62 14.00 372.30 2532.29
   21:19:32.964.18-May-2020 4766.01 5528.14 60.62 14.00 372.50 2532.29
   21:19:33.164.18-May-2020 4766.01 5526.89 60.62 14.00 372.70 2532.29
   21:19:33.364.18-May-2020 4766.01 5524.36 60.62 14.00 372.90 2532.29
   21:19:33.564.18-May-2020 4766.01 5537.57 60.62 14.00 373.10 2532.29
   21:19:33.765.18-May-2020 4766.01 5529.08 60.62 14.00 373.30 2532.29
   21:19:33.965.18-May-2020 4766.01 5524.09 60.62 14.00 373.50 2532.29
   21:19:34.165.18-May-2020 4766.01 5524.11 60.62 14.00 373.70 2532.29
   21:19:34.365.18-May-2020 4766.01 5526.38 60.62 14.00 373.90 2532.29
   21:19:34.565.18-May-2020 4766.01 5524.59 60.62 14.00 374.10 2532.29
   21:19:34.765.18-May-2020 4766.01 5524.59 60.62 14.00 374.30 2532.29
   21:19:34.965.18-May-2020 4766.01 5521.83 60.62 14.00 374.50 2532.29
   21:19:35.165.18-May-2020 4766.01 5522.35 60.62 14.00 374.70 2532.29
   21:19:35.365.18-May-2020 4766.01 5520.87 60.62 14.00 374.90 2532.29
   21:19:35.565.18-May-2020 4766.01 5526.38 60.62 14.00 375.10 2532.29
   21:19:35.765.18-May-2020 4766.01 5526.38 60.62 14.00 375.30 2532.29
   21:19:35.965.18-May-2020 4766.01 5520.30 60.62 14.00 375.50 2532.29
   21:19:36.165.18-May-2020 4766.01 5520.30 60.62 14.00 375.70 2532.29
   21:19:36.365.18-May-2020 4766.01 5521.14 60.62 14.00 375.90 2532.29
   21:19:36.565.18-May-2020 4766.01 5520.65 60.62 14.00 376.10 2532.29
   21:19:36.765.18-May-2020 4766.01 5520.65 60.62 14.00 376.30 2532.29
   21:19:36.965.18-May-2020 4766.01 5523.50 60.62 14.00 376.50 2532.29
   21:19:37.165.18-May-2020 4766.01 5525.67 60.62 14.00 376.70 2532.29
   21:19:37.365.18-May-2020 4766.01 5518.56 60.62 14.00 376.90 2532.29
   21:19:37.566.18-May-2020 4766.01 5519.11 60.62 14.00 377.10 2532.29
   21:19:37.766.18-May-2020 4766.01 5519.11 60.62 14.00 377.30 2532.29
   21:19:37.966.18-May-2020 4766.01 5539.31 60.62 14.00 377.50 2532.29
   21:19:38.166.18-May-2020 4766.01 5516.27 60.62 14.00 377.70 2532.29
   21:19:38.366.18-May-2020 4766.01 5519.32 60.62 14.00 377.90 2532.29
   21:19:38.566.18-May-2020 4766.01 5521.33 60.62 14.00 378.10 2532.29
   21:19:38.766.18-May-2020 4766.01 5521.33 60.62 14.00 378.30 2532.29
   21:19:38.966.18-May-2020 4766.01 5518.01 60.62 14.00 378.50 2532.29
   21:19:39.166.18-May-2020 4766.01 5519.07 60.62 14.00 378.70 2532.29
   21:19:39.366.18-May-2020 4766.01 5520.87 60.62 14.00 378.90 2532.29
   21:19:39.566.18-May-2020 4766.01 5534.01 60.62 14.00 379.10 2532.29
   21:19:39.766.18-May-2020 4766.01 5534.01 60.62 14.00 379.30 2532.29
   21:19:39.966.18-May-2020 4766.01 5517.64 60.62 14.00 379.50 2532.29
   21:19:40.166.18-May-2020 4766.01 5521.79 60.62 14.00 379.70 2532.29
   21:19:40.366.18-May-2020 4766.01 5524.74 60.62 14.00 379.90 2532.29
   21:19:40.566.18-May-2020 4766.01 5530.10 60.62 14.00 380.10 2532.29
   21:19:40.766.18-May-2020 4766.01 5530.10 60.62 14.00 380.30 2532.29
   21:19:40.966.18-May-2020 4766.01 5520.75 60.62 14.00 380.50 2532.29
   21:19:41.166.18-May-2020 4766.01 5521.82 60.62 14.00 380.70 2532.29
   21:19:41.367.18-May-2020 4766.01 5521.89 60.62 14.00 380.90 2532.29
   21:19:41.567.18-May-2020 4766.01 5520.08 60.62 14.00 381.10 2532.29
   21:19:41.767.18-May-2020 4766.01 5533.83 60.62 14.00 381.30 2532.29
   21:19:41.967.18-May-2020 4766.01 5517.13 60.62 14.00 381.50 2532.29
   21:19:42.167.18-May-2020 4766.01 5521.04 60.62 14.00 381.70 2532.29
   21:19:42.367.18-May-2020 4766.01 5519.36 60.62 14.00 381.90 2532.29
   21:19:42.567.18-May-2020 4766.01 5531.08 60.62 14.00 382.10 2532.29
   21:19:42.767.18-May-2020 4766.01 5531.08 60.62 14.00 382.30 2532.29
   21:19:42.967.18-May-2020 4766.01 5523.81 60.62 14.00 382.50 2532.29
   21:19:43.167.18-May-2020 4766.01 5524.68 60.62 14.00 382.70 2532.29
   21:19:43.367.18-May-2020 4766.01 5527.65 60.62 14.00 382.90 2532.29
   21:19:43.567.18-May-2020 4766.01 5529.70 60.62 14.00 383.10 2532.29
   21:19:43.767.18-May-2020 4766.01 5529.70 60.62 14.00 383.30 2532.29
   21:19:43.967.18-May-2020 4766.01 5540.28 60.62 14.00 383.50 2532.29
   21:19:44.167.18-May-2020 4766.01 5525.85 60.62 14.00 383.70 2532.29
   21:19:44.367.18-May-2020 4766.01 5529.80 60.62 14.00 383.90 2532.29
   21:19:44.567.18-May-2020 4766.01 5528.23 60.62 14.00 384.10 2532.29
