~Version Information
 VERS.                  2.0:   CWLS log ASCII Standard -VERSION 2.0
 WRAP.                   NO:   One line per depth step
~Well Information Block
#MNEM.UNIT     VALUE/NAME     DESCRIPTION
#---------     -----------    ---------------------------
 STRT.S             03:21:16 18-May-20: START TIME 03:21:16 18-May-20
 STOP.S             03:28:29 18-May-20: STOP TIME  03:28:29 18-May-20
 STEP.S                   0.00: STEP TIME
 NULL.                 -999.25: NULL VALUE
 UNIT.                     N/A:  LOGGING EQUIPMENT ID
 DCON.         Sperry Drilling:  DIRECTNL CONTR
 DOE .                     N/A:  DOE NUMBER
 JOBN.        AZ-XX-0906252240:  JOB TICKET NUMB
 MWDS.                     N/A:  MWD SHOP
 PROV.                    Baku:  PROVINCE
 STAT.                    Baku:  STATE NAME
 REGN.                   EESSA:  REGION
 BASE.              Azerbaijan:  LOGGING EQUIPMENT BASE LOCATION
 UWI .                     N/A:  UNIQUE WELL IDENTIFIER
 API .                     N/A:  API NUMBER
 MDS .        Operator Entered:  MAG DATA SOURCE
 WTYP.                Deviated:  WELL TYPE
 COMP.     BP Exploration (Caspian Sea) Ltd.:  COMPANY
 SRVC.          Turan Drilling:  CONTRACTOR
 WELL.           J23 (Slot 07):  WELL NAME
 CTRY.              Azerbaijan:  COUNTRY NAME
 FLD .                     ACG:  FIELD NAME
 PDAT.          Mean Sea Level:  PERMANENT DATUM
 RIG .             West Chirag:  RIG NAME
 SON .        AZ-XX-0906252240:  JOB NUMBER
 FTOP.          Formation Tops:  FORM TOPS DESC
 ILTD.               Lithology:  INTERP LTH DESC
 SVYD.                  Survey:  SURVEY DESC
 DMOD.             Drill Model:  DRILL MOD DESC
 HPTY.       Minimum Curvature:  HOLE POS TYPE
 NREF.                    Grid:  NORTH REFERENCE
 SPUD.               27-Aug-20:  SPUD DATE
 DATE.      00.00.00 19-May-20:  END TIME
 STIM.      03.00.00 25-Mar-20:  START TIME
 DMF .             Drill Floor:  DRILL MEAS FROM
 DFST.                        :  DIST FSL TEXT
 DFWT.                        :  DIST FWL TEXT
 CNTY.                        :  COUNTY
 LOC .                        :  LOCATION
 LMF .             Drill Floor:  LOG MEASURED FROM
 VSNS.m                   9.43:  VERT SEC N/S
 VSEW.m                  -8.91:  VERT SEC E/W
 AGAP.m                  43.00:  AIR GAP
 DEP .m                 354.17:  DEPTH
 APD .m                  43.00:  DEPTH ABOVE PD
 WDMS.m                 169.80:  WD ELEV
 EGL .m                   0.00:  GROUND ELEVATION
 EPD .m                   0.00:  ELEVATION
 AZTC.deg                 6.31:  AZM TOTAL CORR
 GRDC.deg                 0.14:  GRID CORRECTION
 MDEC.deg                 6.45:  MAGNETIC DECL
 MDIP.deg                59.56:  MAGNETIC DIP
 MFLD.nT              50295.00:  MAGNETIC FIELD
 GVFD.g                   1.00:  GRAVITY FIELD
 VSDR.deg               179.88:  VERT SEC DIRECT
 TDD .m                5150.01:  TOTAL DEPTH (DRILLER)
 SDEP.m                 864.00:  START DEPTH
 DFSL.m                   0.00:  DISTANCE FSL
 DFWL.m                   0.00:  DISTANCE FWL
 UTMY.m             4443793.85:  UTM Y
 UTMX.m              519005.06:  UTM X
 WHEW.m                  -8.91:  WELL HEAD E/W
 WHNS.m                   9.43:  WELL HEAD N/S
 LONG.deg                51.22:  LONGITUDE
 LATI.deg                40.13:  LATITUDE
 TVDS.m                  43.00:  TVDSS CORRECTN
 EKB .m                   0.00:  KB ELEVATION
 EDF .m                  43.00:  DF ELEVATION
 TDL .m                 363.00:  TOTAL DEPTH (LOGGER)
 MAGU.                 1850802:  MAGUTM CHECKSUM
 VSC .                       0:  VS TO CLOSURE
~Parameter Information Block
#MNEM.UNIT       Value        Description
#---------     -----------    ---------------------------
 AV  .mps                 2.30:  Ann Velocity 
 AVMX.mps                 4.40:  Max Ann Veloc 
 AZIF.deg               110.24:  Azm, Final 
 BHAT.        Rotary Steerable:  BHA Type 
 BREV.rev               331.00:  Rev Bit Total 
 BROT.°/30m               0.00:  Build Rotating 
 BS  .in                  8.50:  Bit Size 
 BSZ .in                  8.50:  Bit Size 
 BTPL.psig              585.00:  Bit Press Loss 
 CABU.                     Yes:  Customer Abuse 
 TCS .hr                122.75:  Time Ciculation Ended 
 CV  .mps                 2.67:  Crit Velocity 
 CVMX.mps                 3.56:  Max Crit Veloc 
 DD1 .          Rashad Habibov:  Direct Drillr 1 
 DD2 .         Rasim Ibrahimov:  Direct Drillr 2 
 DDSV.               Geo-Pilot:  DD Service 
 DEFF.%                  98.00:  % Det Eff 
 DLRX.°/30m               0.75:  Dogleg Rot Max 
 DLSO.°/30m               1.25:  Dogleg Oriented 
 DLSX.°/30m               2.06:  Dogleg Str Max 
 DRET.      07.45.00 17-May-20:  Drill End Time 
 DRST.      22.50.00 15-May-20:  Drill Start Tim 
 DTIM.hr                 20.75:  Time Drilling 
 EDEP.m                5124.01:  End Depth 
 ENG1.           Eldar Hajiyev:  Engineer 1 
 ENG2.        Marcelo Sandoval:  Engineer 2 
 ENG3.        Davud huseynzada:  Engineer 3 
 ENG4.          Ruslan Safarov:  Engineer 4 
 ETIM.      04.33.00 23-May-20:  End Time 
 FLOI.gpm               450.00:  Flow In 
 FLON.gpm               400.00:  Flow In Min 
 FLOS.cptm                0.00:  Fluid Loss 
 FLOX.gpm               500.00:  Flow In Max 
 FTRO.       Formation Presure:  FTWD Run Obj 
 HFLO.                      No:  High Flow 
 HPRE.                     Yes:  High Pressure 
 HTEM.                      No:  High Temp 
 HYDO.m                   1.80:  Hydro Offset 
 IFIN.deg                75.06:  Inc, Final 
 IMAX.deg                75.38:  Inc Max 
 IMIN.deg                74.69:  Inc Min 
 IMND.m                5027.38:  Inc Min Depth 
 IMXD.m                4771.61:  Inc Max Depth 
 JARR.                      No:  Jarring 
 LETM.      07.45.00 17-May-20:  Log End Time 
 LOST.hr                     0:  Lost Rig Time 
 LSTM.      22.50.00 15-May-20:  Log Start Time 
 MDCL.ppm             42000.00:  Mud Chlorides 
 MDES.     Inversion Oil/Synthetic:  Mud Desc 
 DFD .sg                  1.34:  Mud Density 
 MDMN.sg                  1.34:  Dens Mud Min 
 MDMX.sg                  1.34:  Dens Mud Max 
 MOIL.                       0:  Run Mud Oil % 
 MOWR.                   67:33:  Run Mud OWR 
 MSND.                       0:  Run Mud Sand % 
 MSOL.                     1.8:  Run Mud Solids% 
 DFV .spqt               76.00:  Mud Viscosity 
 MWOD.in                  6.75:  MWD Tool OD 
 MWSI.                      No:  Serv Intrp, MWD 
 OTIM.hr                228.19:  Time Operating 
 PCON.           Look Like New:  Pad Condition 
 PMAX.psia             6164.70:  Press Op, Max 
 PV  .cP                 28.00:  Mud PV 
 RUN .                     900:  Run Number 
 ROPA.m/hr               19.00:  ROP Avg 
 ROPN.m/hr               11.00:  ROP Min 
 ROPX.m/hr               36.00:  ROP Max 
 RPMA.rpm               120.00:  RPM Surface Avg 
 RPMN.rpm               120.00:  RPM Surface Min 
 RPMX.rpm               120.00:  RPM Surface Max 
 RRUN.                    L604:  Rig Run Number 
 RTIM.hr                  7.00:  Time Reaming 
 SAZI.deg               109.27:  Azm, Start 
 SDEP.m                4761.01:  Start Depth 
 SIDD.                      No:  Serv Intrp, DD 
 SINC.deg                75.38:  Inc, Start 
 SPPA.psig             3574.00:  SPP Avg 
 SPPN.psig             3475.00:  SPP Min 
 SPPX.psig             3791.00:  SPP Max 
 STIM.      07.08.48 13-May-20:  Start Time 
 SVCS.                 DD, MWD:  Services 
 SVER.                    9.20:  Sperry Version 
 TDAT.m                 363.00:  Tot Depth Attmp 
 TDDF.                      No:  Trip for DD 
 TDLG.m                 363.00:  Tot Depth Loggd 
 TFF .                      No:  Trip for Fail 
 TQAA.f-kp               20.00:  Torque Abs Avg 
 TQAN.f-kp               18.00:  Torque Abs Min 
 TQAX.f-kp               22.00:  Torque Abs Max 
 TRRT.°/30m              -0.35:  Turn Rotating 
 MRT .                    HCIM:  Maximum Recorded Temperature 
 TTMX.degC               92.16:  Max Tool Temp 
 VS01.                90586518:  Virtual Str1 SN 
 VS02.        AZ90560654Z1W1C6:  Virtual Str2 SN 
 VS03.           AZ90610398F11:  Virtual Str3 SN 
 VS04.                90514975:  Virtual Str4 SN 
 VS05.                90514972:  Virtual Str5 SN 
 VS06.     AZ90603282F11V7D1A6:  Virtual Str6 SN 
 WBMN.klb                 7.00:  WOB Min 
 WOBA.klb                12.00:  WOB Avg 
 WOBX.klb                14.00:  WOB Max 
 YP  .lhf2               32.00:  Yield Point 
~Curve Information Block
#MNEM.UNIT                 API CODE     Curve Description
#---------               -----------    ---------------------------
 TIME.HHMMSS            00 000 000 000:  GT Time & Date
 GTDEPTH.m              00 000 000 000:  GT Depth
 GTPQH.psia             00 000 000 000:  GT HR Quartz Pressure
 GTTQ.degC              00 000 000 000:  GT Quartz Temperature
 GTTN.NONE              00 000 000 000:  GT Test Number
 GTET.sec               00 000 000 000:  GT Elapsed Test Time
 GTTVD.m                00 000 000 000:  GT True Vertical Depth
#Other Information
#
#WARRANTY: Halliburton will use its best efforts to furnish customers with 
#accurate information and interpretations that are part of, and incident to, the services 
#provided.  However, Halliburton cannot and does not warrant the accuracy 
#or correctness of such information and interpretations.  Under no circumstances should any 
#such information or interpretation be relied upon as the sole basis for any drilling, 
#completion, production, or financial decision or any procedure involving any risk to the 
#safety of any drilling venture, drilling rig or its crew or any other third party.  The 
#Customer has full responsibility for all drilling, completion and production operation.  
#Halliburton makes no representations or warranties, either expressed or 
#implied, including, but not limited to, the implied warranties of merchantability or fitness 
#for a particular purpose, with respect to the services rendered.  In no event will 
#Halliburton be liable for failure to obtain any particular results or for 
#any damages, including, but not limited to, indirect, special or consequential damages, 
#resulting from the use of any information or interpretation provided by Halliburton.
#
~A           TIME           GTDEPTH  GTPQH  GTTQ  GTTN   GTET   GTTVD  
# ...
   03:26:33.117.18-May-2020 4797.01 3817.77 65.89 13.00 316.53 2540.22
   03:26:33.317.18-May-2020 4797.01 3817.54 65.89 13.00 316.73 2540.22
   03:26:33.517.18-May-2020 4797.01 3817.46 65.89 13.00 316.93 2540.22
   03:26:33.717.18-May-2020 4797.01 3817.46 65.89 13.00 317.13 2540.22
   03:26:33.917.18-May-2020 4797.01 3817.46 65.89 13.00 317.33 2540.22
   03:26:34.117.18-May-2020 4797.01 3817.42 65.89 13.00 317.53 2540.22
   03:26:34.317.18-May-2020 4797.01 3816.98 65.89 13.00 317.73 2540.22
   03:26:34.517.18-May-2020 4797.01 3817.73 65.89 13.00 317.93 2540.22
   03:26:34.717.18-May-2020 4797.01 3817.50 65.89 13.00 318.13 2540.22
   03:26:34.917.18-May-2020 4797.01 3817.50 65.89 13.00 318.33 2540.22
   03:26:35.118.18-May-2020 4797.01 3817.71 65.89 13.00 318.53 2540.22
   03:26:35.318.18-May-2020 4797.01 3817.51 65.89 13.00 318.73 2540.22
   03:26:35.518.18-May-2020 4797.01 3817.34 65.89 13.00 318.93 2540.22
   03:26:35.718.18-May-2020 4797.01 3817.39 65.89 13.00 319.13 2540.22
   03:26:35.918.18-May-2020 4797.01 3817.39 65.89 13.00 319.33 2540.22
   03:26:36.118.18-May-2020 4797.01 3817.61 65.89 13.00 319.53 2540.22
   03:26:36.318.18-May-2020 4797.01 3817.09 65.89 13.00 319.73 2540.22
   03:26:36.518.18-May-2020 4797.01 3818.00 65.89 13.00 319.93 2540.22
   03:26:36.718.18-May-2020 4797.01 3817.35 65.89 13.00 320.13 2540.22
   03:26:36.918.18-May-2020 4797.01 3817.35 65.89 13.00 320.33 2540.22
   03:26:37.118.18-May-2020 4797.01 3818.22 65.89 13.00 320.53 2540.22
   03:26:37.318.18-May-2020 4797.01 3817.47 65.89 13.00 320.73 2540.22
   03:26:37.518.18-May-2020 4797.01 3817.45 65.89 13.00 320.93 2540.22
   03:26:37.719.18-May-2020 4797.01 3817.84 65.89 13.00 321.13 2540.22
   03:26:37.919.18-May-2020 4797.01 3817.84 65.89 13.00 321.33 2540.22
   03:26:38.119.18-May-2020 4797.01 3817.54 65.89 13.00 321.53 2540.22
   03:26:38.319.18-May-2020 4797.01 3817.57 65.89 13.00 321.73 2540.22
   03:26:38.519.18-May-2020 4797.01 3817.59 65.89 13.00 321.93 2540.22
   03:26:38.719.18-May-2020 4797.01 3817.47 65.89 13.00 322.13 2540.22
   03:26:38.919.18-May-2020 4797.01 3817.47 65.89 13.00 322.33 2540.22
   03:26:39.119.18-May-2020 4797.01 3816.55 65.89 13.00 322.53 2540.22
   03:26:39.319.18-May-2020 4797.01 3818.30 65.89 13.00 322.73 2540.22
   03:26:39.519.18-May-2020 4797.01 3817.39 65.89 13.00 322.93 2540.22
   03:26:39.719.18-May-2020 4797.01 3817.47 65.89 13.00 323.13 2540.22
   03:26:39.919.18-May-2020 4797.01 3817.47 65.89 13.00 323.33 2540.22
   03:26:40.120.18-May-2020 4797.01 3817.61 65.89 13.00 323.53 2540.22
   03:26:40.320.18-May-2020 4797.01 3817.54 65.89 13.00 323.73 2540.22
   03:26:40.520.18-May-2020 4797.01 3817.51 65.89 13.00 323.93 2540.22
   03:26:40.720.18-May-2020 4797.01 3817.54 65.89 13.00 324.13 2540.22
   03:26:40.920.18-May-2020 4797.01 3817.54 65.89 13.00 324.33 2540.22
   03:26:41.120.18-May-2020 4797.01 3817.27 65.89 13.00 324.53 2540.22
   03:26:41.320.18-May-2020 4797.01 3817.54 65.89 13.00 324.73 2540.22
   03:26:41.520.18-May-2020 4797.01 3817.58 65.89 13.00 324.93 2540.22
   03:26:41.720.18-May-2020 4797.01 3817.42 65.89 13.00 325.13 2540.22
   03:26:41.920.18-May-2020 4797.01 3817.42 65.89 13.00 325.33 2540.22
   03:26:42.120.18-May-2020 4797.01 3817.74 65.89 13.00 325.53 2540.22
   03:26:42.320.18-May-2020 4797.01 3817.25 65.89 13.00 325.73 2540.22
   03:26:42.521.18-May-2020 4797.01 3817.44 65.89 13.00 325.93 2540.22
   03:26:42.721.18-May-2020 4797.01 3817.44 65.89 13.00 326.13 2540.22
   03:26:42.921.18-May-2020 4797.01 3817.44 65.89 13.00 326.33 2540.22
   03:26:43.121.18-May-2020 4797.01 3816.86 65.89 13.00 326.53 2540.22
   03:26:43.321.18-May-2020 4797.01 3818.19 65.89 13.00 326.73 2540.22
   03:26:43.521.18-May-2020 4797.01 3817.41 65.89 13.00 326.93 2540.22
   03:26:43.721.18-May-2020 4797.01 3816.91 65.89 13.00 327.13 2540.22
   03:26:43.921.18-May-2020 4797.01 3816.91 65.89 13.00 327.33 2540.22
   03:26:44.121.18-May-2020 4797.01 3817.56 65.89 13.00 327.53 2540.22
   03:26:44.321.18-May-2020 4797.01 3817.53 65.89 13.00 327.73 2540.22
   03:26:44.521.18-May-2020 4797.01 3817.86 65.89 13.00 327.93 2540.22
   03:26:44.721.18-May-2020 4797.01 3817.85 65.89 13.00 328.13 2540.22
   03:26:44.921.18-May-2020 4797.01 3817.85 65.89 13.00 328.33 2540.22
   03:26:45.122.18-May-2020 4797.01 3817.66 65.89 13.00 328.53 2540.22
   03:26:45.322.18-May-2020 4797.01 3817.65 65.89 13.00 328.73 2540.22
   03:26:45.522.18-May-2020 4797.01 3817.54 65.89 13.00 328.93 2540.22
   03:26:45.722.18-May-2020 4797.01 3817.56 65.89 13.00 329.13 2540.22
   03:26:45.922.18-May-2020 4797.01 3817.56 65.89 13.00 329.33 2540.22
   03:26:46.122.18-May-2020 4797.01 3818.17 65.89 13.00 329.53 2540.22
   03:26:46.322.18-May-2020 4797.01 3817.51 65.89 13.00 329.73 2540.22
   03:26:46.522.18-May-2020 4797.01 3817.43 65.89 13.00 329.93 2540.22
   03:26:46.722.18-May-2020 4797.01 3817.94 65.89 13.00 330.13 2540.22
   03:26:46.922.18-May-2020 4797.01 3817.94 65.89 13.00 330.33 2540.22
   03:26:47.122.18-May-2020 4797.01 3817.65 65.88 13.00 330.53 2540.22
   03:26:47.322.18-May-2020 4797.01 3817.62 65.88 13.00 330.73 2540.22
   03:26:47.523.18-May-2020 4797.01 3817.60 65.88 13.00 330.93 2540.22
   03:26:47.723.18-May-2020 4797.01 3817.52 65.88 13.00 331.13 2540.22
   03:26:47.923.18-May-2020 4797.01 3817.52 65.88 13.00 331.33 2540.22
   03:26:48.123.18-May-2020 4797.01 3817.28 65.88 13.00 331.53 2540.22
   03:26:48.323.18-May-2020 4797.01 3817.65 65.88 13.00 331.73 2540.22
   03:26:48.523.18-May-2020 4797.01 3817.51 65.88 13.00 331.93 2540.22
   03:26:48.723.18-May-2020 4797.01 3817.76 65.88 13.00 332.13 2540.22
   03:26:48.923.18-May-2020 4797.01 3817.76 65.88 13.00 332.33 2540.22
   03:26:49.123.18-May-2020 4797.01 3817.21 65.88 13.00 332.53 2540.22
   03:26:49.323.18-May-2020 4797.01 3817.51 65.88 13.00 332.73 2540.22
   03:26:49.523.18-May-2020 4797.01 3817.47 65.88 13.00 332.93 2540.22
   03:26:49.723.18-May-2020 4797.01 3817.68 65.88 13.00 333.13 2540.22
   03:26:49.923.18-May-2020 4797.01 3817.68 65.88 13.00 333.33 2540.22
   03:26:50.124.18-May-2020 4797.01 3818.39 65.88 13.00 333.53 2540.22
   03:26:50.324.18-May-2020 4797.01 3817.59 65.88 13.00 333.73 2540.22
   03:26:50.524.18-May-2020 4797.01 3817.09 65.88 13.00 333.93 2540.22
   03:26:50.724.18-May-2020 4797.01 3817.79 65.88 13.00 334.13 2540.22
   03:26:50.924.18-May-2020 4797.01 3817.79 65.88 13.00 334.33 2540.22
   03:26:51.124.18-May-2020 4797.01 3817.61 65.88 13.00 334.53 2540.22
   03:26:51.324.18-May-2020 4797.01 3817.90 65.88 13.00 334.73 2540.22
   03:26:51.524.18-May-2020 4797.01 3817.91 65.88 13.00 334.94 2540.22
   03:26:51.724.18-May-2020 4797.01 3817.74 65.88 13.00 335.14 2540.22
   03:26:51.924.18-May-2020 4797.01 3817.74 65.88 13.00 335.34 2540.22
   03:26:52.124.18-May-2020 4797.01 3817.73 65.88 13.00 335.54 2540.22
   03:26:52.324.18-May-2020 4797.01 3817.62 65.88 13.00 335.74 2540.22
   03:26:52.525.18-May-2020 4797.01 3817.62 65.88 13.00 335.94 2540.22
   03:26:52.725.18-May-2020 4797.01 3816.57 65.88 13.00 336.14 2540.22
   03:26:52.925.18-May-2020 4797.01 3818.10 65.88 13.00 336.34 2540.22
   03:26:53.125.18-May-2020 4797.01 3817.57 65.88 13.00 336.54 2540.22
   03:26:53.325.18-May-2020 4797.01 3817.46 65.88 13.00 336.74 2540.22
   03:26:53.525.18-May-2020 4797.01 3817.94 65.88 13.00 336.94 2540.22
   03:26:53.725.18-May-2020 4797.01 3817.78 65.88 13.00 337.14 2540.22
   03:26:53.925.18-May-2020 4797.01 3817.78 65.88 13.00 337.34 2540.22
   03:26:54.125.18-May-2020 4797.01 3817.68 65.88 13.00 337.54 2540.22
   03:26:54.325.18-May-2020 4797.01 3817.63 65.88 13.00 337.74 2540.22
   03:26:54.525.18-May-2020 4797.01 3817.58 65.88 13.00 337.94 2540.22
   03:26:54.725.18-May-2020 4797.01 3817.65 65.88 13.00 338.14 2540.22
   03:26:54.926.18-May-2020 4797.01 3817.65 65.88 13.00 338.34 2540.22
   03:26:55.126.18-May-2020 4797.01 3817.66 65.88 13.00 338.54 2540.22
   03:26:55.326.18-May-2020 4797.01 3817.55 65.88 13.00 338.74 2540.22
   03:26:55.526.18-May-2020 4797.01 3817.76 65.88 13.00 338.94 2540.22
