~Version Information
 VERS.                  2.0:   CWLS log ASCII Standard -VERSION 2.0
 WRAP.                   NO:   One line per depth step
~Well Information Block
#MNEM.UNIT     VALUE/NAME     DESCRIPTION
#---------     -----------    ---------------------------
 STRT.S             17:25:16 17-May-20: START TIME 17:25:16 17-May-20
 STOP.S             17:32:20 17-May-20: STOP TIME  17:32:20 17-May-20
 STEP.S                   0.00: STEP TIME
 NULL.                 -999.25: NULL VALUE
 UNIT.                     N/A:  LOGGING EQUIPMENT ID
 DCON.         Sperry Drilling:  DIRECTNL CONTR
 DOE .                     N/A:  DOE NUMBER
 JOBN.        AZ-XX-0906252240:  JOB TICKET NUMB
 MWDS.                     N/A:  MWD SHOP
 PROV.                    Baku:  PROVINCE
 STAT.                    Baku:  STATE NAME
 REGN.                   EESSA:  REGION
 BASE.              Azerbaijan:  LOGGING EQUIPMENT BASE LOCATION
 UWI .                     N/A:  UNIQUE WELL IDENTIFIER
 API .                     N/A:  API NUMBER
 MDS .        Operator Entered:  MAG DATA SOURCE
 WTYP.                Deviated:  WELL TYPE
 COMP.     BP Exploration (Caspian Sea) Ltd.:  COMPANY
 SRVC.          Turan Drilling:  CONTRACTOR
 WELL.           J23 (Slot 07):  WELL NAME
 CTRY.              Azerbaijan:  COUNTRY NAME
 FLD .                     ACG:  FIELD NAME
 PDAT.          Mean Sea Level:  PERMANENT DATUM
 RIG .             West Chirag:  RIG NAME
 SON .        AZ-XX-0906252240:  JOB NUMBER
 FTOP.          Formation Tops:  FORM TOPS DESC
 ILTD.               Lithology:  INTERP LTH DESC
 SVYD.                  Survey:  SURVEY DESC
 DMOD.             Drill Model:  DRILL MOD DESC
 HPTY.       Minimum Curvature:  HOLE POS TYPE
 NREF.                    Grid:  NORTH REFERENCE
 SPUD.               27-Aug-20:  SPUD DATE
 DATE.      00.00.00 19-May-20:  END TIME
 STIM.      03.00.00 25-Mar-20:  START TIME
 DMF .             Drill Floor:  DRILL MEAS FROM
 DFST.                        :  DIST FSL TEXT
 DFWT.                        :  DIST FWL TEXT
 CNTY.                        :  COUNTY
 LOC .                        :  LOCATION
 LMF .             Drill Floor:  LOG MEASURED FROM
 VSNS.m                   9.43:  VERT SEC N/S
 VSEW.m                  -8.91:  VERT SEC E/W
 AGAP.m                  43.00:  AIR GAP
 DEP .m                 354.17:  DEPTH
 APD .m                  43.00:  DEPTH ABOVE PD
 WDMS.m                 169.80:  WD ELEV
 EGL .m                   0.00:  GROUND ELEVATION
 EPD .m                   0.00:  ELEVATION
 AZTC.deg                 6.31:  AZM TOTAL CORR
 GRDC.deg                 0.14:  GRID CORRECTION
 MDEC.deg                 6.45:  MAGNETIC DECL
 MDIP.deg                59.56:  MAGNETIC DIP
 MFLD.nT              50295.00:  MAGNETIC FIELD
 GVFD.g                   1.00:  GRAVITY FIELD
 VSDR.deg               179.88:  VERT SEC DIRECT
 TDD .m                5150.01:  TOTAL DEPTH (DRILLER)
 SDEP.m                 864.00:  START DEPTH
 DFSL.m                   0.00:  DISTANCE FSL
 DFWL.m                   0.00:  DISTANCE FWL
 UTMY.m             4443793.85:  UTM Y
 UTMX.m              519005.06:  UTM X
 WHEW.m                  -8.91:  WELL HEAD E/W
 WHNS.m                   9.43:  WELL HEAD N/S
 LONG.deg                51.22:  LONGITUDE
 LATI.deg                40.13:  LATITUDE
 TVDS.m                  43.00:  TVDSS CORRECTN
 EKB .m                   0.00:  KB ELEVATION
 EDF .m                  43.00:  DF ELEVATION
 TDL .m                 363.00:  TOTAL DEPTH (LOGGER)
 MAGU.                 1850802:  MAGUTM CHECKSUM
 VSC .                       0:  VS TO CLOSURE
~Parameter Information Block
#MNEM.UNIT       Value        Description
#---------     -----------    ---------------------------
 AV  .mps                 2.30:  Ann Velocity 
 AVMX.mps                 4.40:  Max Ann Veloc 
 AZIF.deg               110.24:  Azm, Final 
 BHAT.        Rotary Steerable:  BHA Type 
 BREV.rev               331.00:  Rev Bit Total 
 BROT.°/30m               0.00:  Build Rotating 
 BS  .in                  8.50:  Bit Size 
 BSZ .in                  8.50:  Bit Size 
 BTPL.psig              585.00:  Bit Press Loss 
 CABU.                     Yes:  Customer Abuse 
 COMM.                     |n\:  Run Comments 1 
 TCS .hr                122.75:  Time Ciculation Ended 
 CV  .mps                 2.67:  Crit Velocity 
 CVMX.mps                 3.56:  Max Crit Veloc 
 DD1 .          Rashad Habibov:  Direct Drillr 1 
 DD2 .         Rasim Ibrahimov:  Direct Drillr 2 
 DDSV.               Geo-Pilot:  DD Service 
 DEFF.%                  98.00:  % Det Eff 
 DLRX.°/30m               0.75:  Dogleg Rot Max 
 DLSO.°/30m               1.25:  Dogleg Oriented 
 DLSX.°/30m               2.06:  Dogleg Str Max 
 DRET.      07.45.00 17-May-20:  Drill End Time 
 DRST.      22.50.00 15-May-20:  Drill Start Tim 
 DTIM.hr                 20.75:  Time Drilling 
 EDEP.m                5124.01:  End Depth 
 ENG1.           Eldar Hajiyev:  Engineer 1 
 ENG2.        Marcelo Sandoval:  Engineer 2 
 ENG3.        Davud huseynzada:  Engineer 3 
 ENG4.          Ruslan Safarov:  Engineer 4 
 ETIM.      04.33.00 23-May-20:  End Time 
 FLOI.gpm               450.00:  Flow In 
 FLON.gpm               400.00:  Flow In Min 
 FLOS.cptm                0.00:  Fluid Loss 
 FLOX.gpm               500.00:  Flow In Max 
 FTRO.       Formation Presure:  FTWD Run Obj 
 HFLO.                      No:  High Flow 
 HPRE.                     Yes:  High Pressure 
 HTEM.                      No:  High Temp 
 HYDO.m                   1.80:  Hydro Offset 
 IFIN.deg                75.06:  Inc, Final 
 IMAX.deg                75.38:  Inc Max 
 IMIN.deg                74.69:  Inc Min 
 IMND.m                5027.38:  Inc Min Depth 
 IMXD.m                4771.61:  Inc Max Depth 
 JARR.                      No:  Jarring 
 LETM.      07.45.00 17-May-20:  Log End Time 
 LOST.hr                     0:  Lost Rig Time 
 LSTM.      22.50.00 15-May-20:  Log Start Time 
 MDCL.ppm             42000.00:  Mud Chlorides 
 MDES.     Inversion Oil/Synthetic:  Mud Desc 
 DFD .sg                  1.34:  Mud Density 
 MDMN.sg                  1.34:  Dens Mud Min 
 MDMX.sg                  1.34:  Dens Mud Max 
 MOIL.                       0:  Run Mud Oil % 
 MOWR.                   67:33:  Run Mud OWR 
 MSND.                       0:  Run Mud Sand % 
 MSOL.                     1.8:  Run Mud Solids% 
 DFV .spqt               76.00:  Mud Viscosity 
 MWOD.in                  6.75:  MWD Tool OD 
 MWSI.                      No:  Serv Intrp, MWD 
 OTIM.hr                228.19:  Time Operating 
 PCON.           Look Like New:  Pad Condition 
 PMAX.psia             6164.70:  Press Op, Max 
 PV  .cP                 28.00:  Mud PV 
 RUN .                     900:  Run Number 
 ROPA.m/hr               19.00:  ROP Avg 
 ROPN.m/hr               11.00:  ROP Min 
 ROPX.m/hr               36.00:  ROP Max 
 RPMA.rpm               120.00:  RPM Surface Avg 
 RPMN.rpm               120.00:  RPM Surface Min 
 RPMX.rpm               120.00:  RPM Surface Max 
 RRUN.                    L604:  Rig Run Number 
 RTIM.hr                  7.00:  Time Reaming 
 SAZI.deg               109.27:  Azm, Start 
 SDEP.m                4761.01:  Start Depth 
 SIDD.                      No:  Serv Intrp, DD 
 SINC.deg                75.38:  Inc, Start 
 SPPA.psig             3574.00:  SPP Avg 
 SPPN.psig             3475.00:  SPP Min 
 SPPX.psig             3791.00:  SPP Max 
 STIM.      07.08.48 13-May-20:  Start Time 
 SVCS.                 DD, MWD:  Services 
 SVER.                    9.20:  Sperry Version 
 TDAT.m                 363.00:  Tot Depth Attmp 
 TDDF.                      No:  Trip for DD 
 TDLG.m                 363.00:  Tot Depth Loggd 
 TFF .                      No:  Trip for Fail 
 TQAA.f-kp               20.00:  Torque Abs Avg 
 TQAN.f-kp               18.00:  Torque Abs Min 
 TQAX.f-kp               22.00:  Torque Abs Max 
 TRRT.°/30m              -0.35:  Turn Rotating 
 MRT .                    HCIM:  Maximum Recorded Temperature 
 TTMX.degC               92.16:  Max Tool Temp 
 VS01.                90586518:  Virtual Str1 SN 
 VS02.        AZ90560654Z1W1C6:  Virtual Str2 SN 
 VS03.           AZ90610398F11:  Virtual Str3 SN 
 VS04.                90514975:  Virtual Str4 SN 
 VS05.                90514972:  Virtual Str5 SN 
 VS06.     AZ90603282F11V7D1A6:  Virtual Str6 SN 
 WBMN.klb                 7.00:  WOB Min 
 WOBA.klb                12.00:  WOB Avg 
 WOBX.klb                14.00:  WOB Max 
 YP  .lhf2               32.00:  Yield Point 
~Curve Information Block
#MNEM.UNIT                 API CODE     Curve Description
#---------               -----------    ---------------------------
 TIME.HHMMSS            00 000 000 000:  GT Time & Date
 GTDEPTH.m              00 000 000 000:  GT Depth
 GTPQH.psia             00 000 000 000:  GT HR Quartz Pressure
 GTTQ.degC              00 000 000 000:  GT Quartz Temperature
 GTTN.NONE              00 000 000 000:  GT Test Number
 GTET.sec               00 000 000 000:  GT Elapsed Test Time
 GTTVD.m                00 000 000 000:  GT True Vertical Depth
#Other Information
#
#WARRANTY: Halliburton will use its best efforts to furnish customers with 
#accurate information and interpretations that are part of, and incident to, the services 
#provided.  However, Halliburton cannot and does not warrant the accuracy 
#or correctness of such information and interpretations.  Under no circumstances should any 
#such information or interpretation be relied upon as the sole basis for any drilling, 
#completion, production, or financial decision or any procedure involving any risk to the 
#safety of any drilling venture, drilling rig or its crew or any other third party.  The 
#Customer has full responsibility for all drilling, completion and production operation.  
#Halliburton makes no representations or warranties, either expressed or 
#implied, including, but not limited to, the implied warranties of merchantability or fitness 
#for a particular purpose, with respect to the services rendered.  In no event will 
#Halliburton be liable for failure to obtain any particular results or for 
#any damages, including, but not limited to, indirect, special or consequential damages, 
#resulting from the use of any information or interpretation provided by Halliburton.
#
~A           TIME           GTDEPTH  GTPQH  GTTQ  GTTN  GTET   GTTVD  
# ...
   17:31:24.663.17-May-2020 5032.01 5575.32 70.42 3.00 368.34 2600.96
   17:31:24.863.17-May-2020 5032.01 5575.32 70.42 3.00 368.54 2600.96
   17:31:25.063.17-May-2020 5032.01 5577.73 70.42 3.00 368.74 2600.96
   17:31:25.264.17-May-2020 5032.01 5577.04 70.42 3.00 368.95 2600.96
   17:31:25.464.17-May-2020 5032.01 5577.53 70.42 3.00 369.15 2600.96
   17:31:25.664.17-May-2020 5032.01 5577.08 70.42 3.00 369.35 2600.96
   17:31:25.864.17-May-2020 5032.01 5577.08 70.42 3.00 369.55 2600.96
   17:31:26.064.17-May-2020 5032.01 5576.96 70.43 3.00 369.75 2600.96
   17:31:26.264.17-May-2020 5032.01 5593.68 70.43 3.00 369.95 2600.96
   17:31:26.465.17-May-2020 5032.01 5584.10 70.43 3.00 370.15 2600.96
   17:31:26.665.17-May-2020 5032.01 5580.15 70.43 3.00 370.35 2600.96
   17:31:26.865.17-May-2020 5032.01 5580.15 70.43 3.00 370.55 2600.96
   17:31:27.065.17-May-2020 5032.01 5579.95 70.44 3.00 370.75 2600.96
   17:31:27.265.17-May-2020 5032.01 5584.15 70.44 3.00 370.95 2600.96
   17:31:27.466.17-May-2020 5032.01 5582.09 70.44 3.00 371.15 2600.96
   17:31:27.666.17-May-2020 5032.01 5579.60 70.44 3.00 371.35 2600.96
   17:31:27.866.17-May-2020 5032.01 5579.60 70.44 3.00 371.55 2600.96
   17:31:28.066.17-May-2020 5032.01 5580.18 70.45 3.00 371.75 2600.96
   17:31:28.266.17-May-2020 5032.01 5592.25 70.45 3.00 371.95 2600.96
   17:31:28.467.17-May-2020 5032.01 5584.80 70.45 3.00 372.15 2600.96
   17:31:28.667.17-May-2020 5032.01 5586.58 70.45 3.00 372.35 2600.96
   17:31:28.867.17-May-2020 5032.01 5581.67 70.46 3.00 372.55 2600.96
   17:31:29.067.17-May-2020 5032.01 5588.77 70.46 3.00 372.75 2600.96
   17:31:29.267.17-May-2020 5032.01 5596.00 70.46 3.00 372.95 2600.96
   17:31:29.467.17-May-2020 5032.01 5582.04 70.46 3.00 373.15 2600.96
   17:31:29.668.17-May-2020 5032.01 5583.19 70.46 3.00 373.35 2600.96
   17:31:29.868.17-May-2020 5032.01 5583.19 70.46 3.00 373.55 2600.96
   17:31:30.068.17-May-2020 5032.01 5586.25 70.47 3.00 373.75 2600.96
   17:31:30.268.17-May-2020 5032.01 5587.87 70.47 3.00 373.95 2600.96
   17:31:30.468.17-May-2020 5032.01 5580.25 70.47 3.00 374.15 2600.96
   17:31:30.669.17-May-2020 5032.01 5595.83 70.47 3.00 374.35 2600.96
   17:31:30.869.17-May-2020 5032.01 5595.83 70.47 3.00 374.55 2600.96
   17:31:31.069.17-May-2020 5032.01 5585.05 70.47 3.00 374.75 2600.96
   17:31:31.269.17-May-2020 5032.01 5583.96 70.48 3.00 374.95 2600.96
   17:31:31.469.17-May-2020 5032.01 5583.68 70.48 3.00 375.15 2600.96
   17:31:31.670.17-May-2020 5032.01 5585.47 70.48 3.00 375.35 2600.96
   17:31:31.870.17-May-2020 5032.01 5585.47 70.48 3.00 375.55 2600.96
   17:31:32.070.17-May-2020 5032.01 5583.63 70.48 3.00 375.75 2600.96
   17:31:32.270.17-May-2020 5032.01 5583.06 70.48 3.00 375.95 2600.96
   17:31:32.470.17-May-2020 5032.01 5582.03 70.48 3.00 376.15 2600.96
   17:31:32.670.17-May-2020 5032.01 5595.55 70.48 3.00 376.35 2600.96
   17:31:32.871.17-May-2020 5032.01 5586.33 70.48 3.00 376.55 2600.96
   17:31:33.071.17-May-2020 5032.01 5585.67 70.48 3.00 376.75 2600.96
   17:31:33.271.17-May-2020 5032.01 5579.27 70.49 3.00 376.95 2600.96
   17:31:33.471.17-May-2020 5032.01 5581.06 70.49 3.00 377.15 2600.96
   17:31:33.671.17-May-2020 5032.01 5586.15 70.49 3.00 377.35 2600.96
   17:31:33.872.17-May-2020 5032.01 5586.15 70.49 3.00 377.55 2600.96
   17:31:34.072.17-May-2020 5032.01 5581.25 70.49 3.00 377.75 2600.96
   17:31:34.272.17-May-2020 5032.01 5580.67 70.49 3.00 377.95 2600.96
   17:31:34.472.17-May-2020 5032.01 5580.70 70.49 3.00 378.15 2600.96
   17:31:34.672.17-May-2020 5032.01 5581.20 70.49 3.00 378.35 2600.96
   17:31:34.873.17-May-2020 5032.01 5581.20 70.49 3.00 378.55 2600.96
   17:31:35.073.17-May-2020 5032.01 5587.09 70.49 3.00 378.75 2600.96
   17:31:35.273.17-May-2020 5032.01 5589.04 70.49 3.00 378.95 2600.96
   17:31:35.473.17-May-2020 5032.01 5578.89 70.49 3.00 379.15 2600.96
   17:31:35.673.17-May-2020 5032.01 5581.67 70.49 3.00 379.35 2600.96
   17:31:35.873.17-May-2020 5032.01 5581.67 70.49 3.00 379.55 2600.96
   17:31:36.074.17-May-2020 5032.01 5588.34 70.49 3.00 379.76 2600.96
   17:31:36.274.17-May-2020 5032.01 5584.35 70.49 3.00 379.96 2600.96
   17:31:36.474.17-May-2020 5032.01 5581.21 70.49 3.00 380.16 2600.96
   17:31:36.674.17-May-2020 5032.01 5589.53 70.49 3.00 380.36 2600.96
   17:31:36.874.17-May-2020 5032.01 5592.09 70.49 3.00 380.56 2600.96
   17:31:37.075.17-May-2020 5032.01 5592.70 70.49 3.00 380.76 2600.96
   17:31:37.275.17-May-2020 5032.01 5579.85 70.49 3.00 380.96 2600.96
   17:31:37.475.17-May-2020 5032.01 5581.55 70.49 3.00 381.16 2600.96
   17:31:37.675.17-May-2020 5032.01 5588.55 70.49 3.00 381.36 2600.96
   17:31:37.875.17-May-2020 5032.01 5588.55 70.49 3.00 381.56 2600.96
   17:31:38.076.17-May-2020 5032.01 5593.53 70.49 3.00 381.76 2600.96
   17:31:38.276.17-May-2020 5032.01 5581.67 70.49 3.00 381.96 2600.96
   17:31:38.476.17-May-2020 5032.01 5584.47 70.49 3.00 382.16 2600.96
   17:31:38.676.17-May-2020 5032.01 5587.44 70.49 3.00 382.36 2600.96
   17:31:38.876.17-May-2020 5032.01 5587.44 70.49 3.00 382.56 2600.96
   17:31:39.076.17-May-2020 5032.01 5582.72 70.49 3.00 382.76 2600.96
   17:31:39.277.17-May-2020 5032.01 5581.23 70.49 3.00 382.96 2600.96
   17:31:39.477.17-May-2020 5032.01 5582.21 70.49 3.00 383.16 2600.96
   17:31:39.677.17-May-2020 5032.01 5582.57 70.49 3.00 383.36 2600.96
   17:31:39.877.17-May-2020 5032.01 5582.57 70.49 3.00 383.56 2600.96
   17:31:40.077.17-May-2020 5032.01 5588.21 70.49 3.00 383.76 2600.96
   17:31:40.278.17-May-2020 5032.01 5581.49 70.49 3.00 383.96 2600.96
   17:31:40.478.17-May-2020 5032.01 5581.96 70.49 3.00 384.16 2600.96
   17:31:40.678.17-May-2020 5032.01 5582.48 70.49 3.00 384.36 2600.96
   17:31:40.878.17-May-2020 5032.01 5582.48 70.49 3.00 384.56 2600.96
   17:31:41.078.17-May-2020 5032.01 5582.28 70.49 3.00 384.76 2600.96
   17:31:41.279.17-May-2020 5032.01 5580.29 70.49 3.00 384.96 2600.96
   17:31:41.479.17-May-2020 5032.01 5580.98 70.49 3.00 385.16 2600.96
   17:31:41.679.17-May-2020 5032.01 5581.48 70.49 3.00 385.36 2600.96
   17:31:41.879.17-May-2020 5032.01 5581.48 70.49 3.00 385.56 2600.96
   17:31:42.079.17-May-2020 5032.01 5596.22 70.49 3.00 385.76 2600.96
   17:31:42.279.17-May-2020 5032.01 5585.92 70.49 3.00 385.96 2600.96
   17:31:42.480.17-May-2020 5032.01 5584.93 70.49 3.00 386.16 2600.96
   17:31:42.680.17-May-2020 5032.01 5581.61 70.49 3.00 386.36 2600.96
   17:31:42.880.17-May-2020 5032.01 5581.61 70.49 3.00 386.56 2600.96
   17:31:43.080.17-May-2020 5032.01 5595.12 70.49 3.00 386.76 2600.96
   17:31:43.280.17-May-2020 5032.01 5593.03 70.49 3.00 386.96 2600.96
   17:31:43.481.17-May-2020 5032.01 5580.12 70.48 3.00 387.16 2600.96
   17:31:43.681.17-May-2020 5032.01 5583.13 70.48 3.00 387.36 2600.96
   17:31:43.881.17-May-2020 5032.01 5583.13 70.48 3.00 387.56 2600.96
   17:31:44.081.17-May-2020 5032.01 5586.92 70.48 3.00 387.76 2600.96
   17:31:44.281.17-May-2020 5032.01 5589.41 70.48 3.00 387.96 2600.96
   17:31:44.482.17-May-2020 5032.01 5581.45 70.48 3.00 388.16 2600.96
   17:31:44.682.17-May-2020 5032.01 5583.52 70.48 3.00 388.36 2600.96
   17:31:44.882.17-May-2020 5032.01 5583.52 70.48 3.00 388.56 2600.96
   17:31:45.082.17-May-2020 5032.01 5591.97 70.48 3.00 388.76 2600.96
   17:31:45.282.17-May-2020 5032.01 5592.46 70.48 3.00 388.96 2600.96
   17:31:45.482.17-May-2020 5032.01 5581.79 70.48 3.00 389.16 2600.96
   17:31:45.683.17-May-2020 5032.01 5583.96 70.48 3.00 389.36 2600.96
   17:31:45.883.17-May-2020 5032.01 5583.96 70.48 3.00 389.56 2600.96
   17:31:46.083.17-May-2020 5032.01 5583.71 70.48 3.00 389.76 2600.96
   17:31:46.283.17-May-2020 5032.01 5583.35 70.48 3.00 389.96 2600.96
   17:31:46.483.17-May-2020 5032.01 5582.24 70.48 3.00 390.16 2600.96
   17:31:46.684.17-May-2020 5032.01 5582.30 70.48 3.00 390.37 2600.96
   17:31:46.884.17-May-2020 5032.01 5582.30 70.48 3.00 390.57 2600.96
   17:31:47.084.17-May-2020 5032.01 5591.55 70.48 3.00 390.77 2600.96
   17:31:47.284.17-May-2020 5032.01 5590.44 70.48 3.00 390.97 2600.96
   17:31:47.484.17-May-2020 5032.01 5580.69 70.48 3.00 391.17 2600.96
