~Version Information
 VERS.                  2.0:   CWLS log ASCII Standard -VERSION 2.0
 WRAP.                   NO:   One line per depth step
~Well Information Block
#MNEM.UNIT     VALUE/NAME     DESCRIPTION
#---------     -----------    ---------------------------
 STRT.S             02:13:59 18-May-20: START TIME 02:13:59 18-May-20
 STOP.S             02:21:38 18-May-20: STOP TIME  02:21:38 18-May-20
 STEP.S                   0.00: STEP TIME
 NULL.                 -999.25: NULL VALUE
 UNIT.                     N/A:  LOGGING EQUIPMENT ID
 DCON.         Sperry Drilling:  DIRECTNL CONTR
 DOE .                     N/A:  DOE NUMBER
 JOBN.        AZ-XX-0906252240:  JOB TICKET NUMB
 MWDS.                     N/A:  MWD SHOP
 PROV.                    Baku:  PROVINCE
 STAT.                    Baku:  STATE NAME
 REGN.                   EESSA:  REGION
 BASE.              Azerbaijan:  LOGGING EQUIPMENT BASE LOCATION
 UWI .                     N/A:  UNIQUE WELL IDENTIFIER
 API .                     N/A:  API NUMBER
 MDS .        Operator Entered:  MAG DATA SOURCE
 WTYP.                Deviated:  WELL TYPE
 COMP.     BP Exploration (Caspian Sea) Ltd.:  COMPANY
 SRVC.          Turan Drilling:  CONTRACTOR
 WELL.           J23 (Slot 07):  WELL NAME
 CTRY.              Azerbaijan:  COUNTRY NAME
 FLD .                     ACG:  FIELD NAME
 PDAT.          Mean Sea Level:  PERMANENT DATUM
 RIG .             West Chirag:  RIG NAME
 SON .        AZ-XX-0906252240:  JOB NUMBER
 FTOP.          Formation Tops:  FORM TOPS DESC
 ILTD.               Lithology:  INTERP LTH DESC
 SVYD.                  Survey:  SURVEY DESC
 DMOD.             Drill Model:  DRILL MOD DESC
 HPTY.       Minimum Curvature:  HOLE POS TYPE
 NREF.                    Grid:  NORTH REFERENCE
 SPUD.               27-Aug-20:  SPUD DATE
 DATE.      00.00.00 19-May-20:  END TIME
 STIM.      03.00.00 25-Mar-20:  START TIME
 DMF .             Drill Floor:  DRILL MEAS FROM
 DFST.                        :  DIST FSL TEXT
 DFWT.                        :  DIST FWL TEXT
 CNTY.                        :  COUNTY
 LOC .                        :  LOCATION
 LMF .             Drill Floor:  LOG MEASURED FROM
 VSNS.m                   9.43:  VERT SEC N/S
 VSEW.m                  -8.91:  VERT SEC E/W
 AGAP.m                  43.00:  AIR GAP
 DEP .m                 354.17:  DEPTH
 APD .m                  43.00:  DEPTH ABOVE PD
 WDMS.m                 169.80:  WD ELEV
 EGL .m                   0.00:  GROUND ELEVATION
 EPD .m                   0.00:  ELEVATION
 AZTC.deg                 6.31:  AZM TOTAL CORR
 GRDC.deg                 0.14:  GRID CORRECTION
 MDEC.deg                 6.45:  MAGNETIC DECL
 MDIP.deg                59.56:  MAGNETIC DIP
 MFLD.nT              50295.00:  MAGNETIC FIELD
 GVFD.g                   1.00:  GRAVITY FIELD
 VSDR.deg               179.88:  VERT SEC DIRECT
 TDD .m                5150.01:  TOTAL DEPTH (DRILLER)
 SDEP.m                 864.00:  START DEPTH
 DFSL.m                   0.00:  DISTANCE FSL
 DFWL.m                   0.00:  DISTANCE FWL
 UTMY.m             4443793.85:  UTM Y
 UTMX.m              519005.06:  UTM X
 WHEW.m                  -8.91:  WELL HEAD E/W
 WHNS.m                   9.43:  WELL HEAD N/S
 LONG.deg                51.22:  LONGITUDE
 LATI.deg                40.13:  LATITUDE
 TVDS.m                  43.00:  TVDSS CORRECTN
 EKB .m                   0.00:  KB ELEVATION
 EDF .m                  43.00:  DF ELEVATION
 TDL .m                 363.00:  TOTAL DEPTH (LOGGER)
 MAGU.                 1850802:  MAGUTM CHECKSUM
 VSC .                       0:  VS TO CLOSURE
~Parameter Information Block
#MNEM.UNIT       Value        Description
#---------     -----------    ---------------------------
 AV  .mps                 2.30:  Ann Velocity 
 AVMX.mps                 4.40:  Max Ann Veloc 
 AZIF.deg               110.24:  Azm, Final 
 BHAT.        Rotary Steerable:  BHA Type 
 BREV.rev               331.00:  Rev Bit Total 
 BROT.°/30m               0.00:  Build Rotating 
 BS  .in                  8.50:  Bit Size 
 BSZ .in                  8.50:  Bit Size 
 BTPL.psig              585.00:  Bit Press Loss 
 CABU.                     Yes:  Customer Abuse 
 COMM.                     ü9U:  Run Comments 1 
 TCS .hr                122.75:  Time Ciculation Ended 
 CV  .mps                 2.67:  Crit Velocity 
 CVMX.mps                 3.56:  Max Crit Veloc 
 DD1 .          Rashad Habibov:  Direct Drillr 1 
 DD2 .         Rasim Ibrahimov:  Direct Drillr 2 
 DDSV.               Geo-Pilot:  DD Service 
 DEFF.%                  98.00:  % Det Eff 
 DLRX.°/30m               0.75:  Dogleg Rot Max 
 DLSO.°/30m               1.25:  Dogleg Oriented 
 DLSX.°/30m               2.06:  Dogleg Str Max 
 DRET.      07.45.00 17-May-20:  Drill End Time 
 DRST.      22.50.00 15-May-20:  Drill Start Tim 
 DTIM.hr                 20.75:  Time Drilling 
 EDEP.m                5124.01:  End Depth 
 ENG1.           Eldar Hajiyev:  Engineer 1 
 ENG2.        Marcelo Sandoval:  Engineer 2 
 ENG3.        Davud huseynzada:  Engineer 3 
 ENG4.          Ruslan Safarov:  Engineer 4 
 ETIM.      04.33.00 23-May-20:  End Time 
 FLOI.gpm               450.00:  Flow In 
 FLON.gpm               400.00:  Flow In Min 
 FLOS.cptm                0.00:  Fluid Loss 
 FLOX.gpm               500.00:  Flow In Max 
 FTRO.       Formation Presure:  FTWD Run Obj 
 HFLO.                      No:  High Flow 
 HPRE.                     Yes:  High Pressure 
 HTEM.                      No:  High Temp 
 HYDO.m                   1.80:  Hydro Offset 
 IFIN.deg                75.06:  Inc, Final 
 IMAX.deg                75.38:  Inc Max 
 IMIN.deg                74.69:  Inc Min 
 IMND.m                5027.38:  Inc Min Depth 
 IMXD.m                4771.61:  Inc Max Depth 
 JARR.                      No:  Jarring 
 LETM.      07.45.00 17-May-20:  Log End Time 
 LOST.hr                     0:  Lost Rig Time 
 LSTM.      22.50.00 15-May-20:  Log Start Time 
 MDCL.ppm             42000.00:  Mud Chlorides 
 MDES.     Inversion Oil/Synthetic:  Mud Desc 
 DFD .sg                  1.34:  Mud Density 
 MDMN.sg                  1.34:  Dens Mud Min 
 MDMX.sg                  1.34:  Dens Mud Max 
 MOIL.                       0:  Run Mud Oil % 
 MOWR.                   67:33:  Run Mud OWR 
 MSND.                       0:  Run Mud Sand % 
 MSOL.                     1.8:  Run Mud Solids% 
 DFV .spqt               76.00:  Mud Viscosity 
 MWOD.in                  6.75:  MWD Tool OD 
 MWSI.                      No:  Serv Intrp, MWD 
 OTIM.hr                228.19:  Time Operating 
 PCON.           Look Like New:  Pad Condition 
 PMAX.psia             6164.70:  Press Op, Max 
 PV  .cP                 28.00:  Mud PV 
 RUN .                     900:  Run Number 
 ROPA.m/hr               19.00:  ROP Avg 
 ROPN.m/hr               11.00:  ROP Min 
 ROPX.m/hr               36.00:  ROP Max 
 RPMA.rpm               120.00:  RPM Surface Avg 
 RPMN.rpm               120.00:  RPM Surface Min 
 RPMX.rpm               120.00:  RPM Surface Max 
 RRUN.                    L604:  Rig Run Number 
 RTIM.hr                  7.00:  Time Reaming 
 SAZI.deg               109.27:  Azm, Start 
 SDEP.m                4761.01:  Start Depth 
 SIDD.                      No:  Serv Intrp, DD 
 SINC.deg                75.38:  Inc, Start 
 SPPA.psig             3574.00:  SPP Avg 
 SPPN.psig             3475.00:  SPP Min 
 SPPX.psig             3791.00:  SPP Max 
 STIM.      07.08.48 13-May-20:  Start Time 
 SVCS.                 DD, MWD:  Services 
 SVER.                    9.20:  Sperry Version 
 TDAT.m                 363.00:  Tot Depth Attmp 
 TDDF.                      No:  Trip for DD 
 TDLG.m                 363.00:  Tot Depth Loggd 
 TFF .                      No:  Trip for Fail 
 TQAA.f-kp               20.00:  Torque Abs Avg 
 TQAN.f-kp               18.00:  Torque Abs Min 
 TQAX.f-kp               22.00:  Torque Abs Max 
 TRRT.°/30m              -0.35:  Turn Rotating 
 MRT .                    HCIM:  Maximum Recorded Temperature 
 TTMX.degC               92.16:  Max Tool Temp 
 VS01.                90586518:  Virtual Str1 SN 
 VS02.        AZ90560654Z1W1C6:  Virtual Str2 SN 
 VS03.           AZ90610398F11:  Virtual Str3 SN 
 VS04.                90514975:  Virtual Str4 SN 
 VS05.                90514972:  Virtual Str5 SN 
 VS06.     AZ90603282F11V7D1A6:  Virtual Str6 SN 
 WBMN.klb                 7.00:  WOB Min 
 WOBA.klb                12.00:  WOB Avg 
 WOBX.klb                14.00:  WOB Max 
 YP  .lhf2               32.00:  Yield Point 
~Curve Information Block
#MNEM.UNIT                 API CODE     Curve Description
#---------               -----------    ---------------------------
 TIME.HHMMSS            00 000 000 000:  GT Time & Date
 GTDEPTH.m              00 000 000 000:  GT Depth
 GTPQH.psia             00 000 000 000:  GT HR Quartz Pressure
 GTTQ.degC              00 000 000 000:  GT Quartz Temperature
 GTTN.NONE              00 000 000 000:  GT Test Number
 GTET.sec               00 000 000 000:  GT Elapsed Test Time
 GTTVD.m                00 000 000 000:  GT True Vertical Depth
#Other Information
#
#WARRANTY: Halliburton will use its best efforts to furnish customers with 
#accurate information and interpretations that are part of, and incident to, the services 
#provided.  However, Halliburton cannot and does not warrant the accuracy 
#or correctness of such information and interpretations.  Under no circumstances should any 
#such information or interpretation be relied upon as the sole basis for any drilling, 
#completion, production, or financial decision or any procedure involving any risk to the 
#safety of any drilling venture, drilling rig or its crew or any other third party.  The 
#Customer has full responsibility for all drilling, completion and production operation.  
#Halliburton makes no representations or warranties, either expressed or 
#implied, including, but not limited to, the implied warranties of merchantability or fitness 
#for a particular purpose, with respect to the services rendered.  In no event will 
#Halliburton be liable for failure to obtain any particular results or for 
#any damages, including, but not limited to, indirect, special or consequential damages, 
#resulting from the use of any information or interpretation provided by Halliburton.
#
~A           TIME           GTDEPTH  GTPQH  GTTQ  GTTN   GTET   GTTVD  
# ...
   02:15:07.789.18-May-2020 4832.01 2681.63 66.03 12.00  67.83 2549.35
   02:15:07.989.18-May-2020 4832.01 2681.70 66.03 12.00  68.03 2549.35
   02:15:08.189.18-May-2020 4832.01 2681.70 66.03 12.00  68.23 2549.35
   02:15:08.389.18-May-2020 4832.01 2681.80 66.03 12.00  68.43 2549.35
   02:15:08.589.18-May-2020 4832.01 2681.65 66.03 12.00  68.63 2549.35
   02:15:08.789.18-May-2020 4832.01 2681.65 66.03 12.00  68.83 2549.35
   02:15:08.989.18-May-2020 4832.01 2681.74 66.03 12.00  69.03 2549.35
   02:15:09.189.18-May-2020 4832.01 2681.74 66.03 12.00  69.23 2549.35
   02:15:09.389.18-May-2020 4832.01 2681.70 66.03 12.00  69.43 2549.35
   02:15:09.589.18-May-2020 4832.01 2681.68 66.03 12.00  69.63 2549.35
   02:15:09.789.18-May-2020 4832.01 2681.73 66.03 12.00  69.83 2549.35
   02:15:09.989.18-May-2020 4832.01 2681.78 66.03 12.00  70.03 2549.35
   02:15:10.189.18-May-2020 4832.01 2681.78 66.03 12.00  70.23 2549.35
   02:15:10.390.18-May-2020 4832.01 2681.81 66.03 12.00  70.43 2549.35
   02:15:10.590.18-May-2020 4832.01 2681.84 66.03 12.00  70.63 2549.35
   02:15:10.790.18-May-2020 4832.01 2681.86 66.03 12.00  70.83 2549.35
   02:15:10.990.18-May-2020 4832.01 2681.86 66.03 12.00  71.03 2549.35
   02:15:11.190.18-May-2020 4832.01 2681.86 66.03 12.00  71.23 2549.35
   02:15:11.390.18-May-2020 4832.01 2681.89 66.03 12.00  71.43 2549.35
   02:15:11.590.18-May-2020 4832.01 2681.73 66.03 12.00  71.63 2549.35
   02:15:11.790.18-May-2020 4832.01 2681.73 66.03 12.00  71.83 2549.35
   02:15:11.990.18-May-2020 4832.01 2681.82 66.03 12.00  72.03 2549.35
   02:15:12.190.18-May-2020 4832.01 2681.82 66.03 12.00  72.23 2549.35
   02:15:12.390.18-May-2020 4832.01 2681.85 66.03 12.00  72.43 2549.35
   02:15:12.590.18-May-2020 4832.01 2681.88 66.03 12.00  72.63 2549.35
   02:15:12.791.18-May-2020 4832.01 2681.90 66.03 12.00  72.83 2549.35
   02:15:12.991.18-May-2020 4832.01 2681.92 66.03 12.00  73.03 2549.35
   02:15:13.191.18-May-2020 4832.01 2681.92 66.03 12.00  73.23 2549.35
   02:15:13.391.18-May-2020 4832.01 2681.97 66.03 12.00  73.43 2549.35
   02:15:13.591.18-May-2020 4832.01 2681.77 66.03 12.00  73.63 2549.35
   02:15:13.791.18-May-2020 4832.01 2681.78 66.03 12.00  73.83 2549.35
   02:15:13.991.18-May-2020 4832.01 2681.84 66.03 12.00  74.03 2549.35
   02:15:14.191.18-May-2020 4832.01 2681.84 66.03 12.00  74.23 2549.35
   02:15:14.391.18-May-2020 4832.01 2681.78 66.03 12.00  74.43 2549.35
   02:15:14.591.18-May-2020 4832.01 2681.79 66.03 12.00  74.63 2549.35
   02:15:14.791.18-May-2020 4832.01 2681.85 66.03 12.00  74.83 2549.35
   02:15:14.991.18-May-2020 4832.01 2681.87 66.03 12.00  75.03 2549.35
   02:15:15.192.18-May-2020 4832.01 2681.87 66.03 12.00  75.23 2549.35
   02:15:15.392.18-May-2020 4832.01 2681.82 66.03 12.00  75.43 2549.35
   02:15:15.592.18-May-2020 4832.01 2681.80 66.03 12.00  75.63 2549.35
   02:15:15.792.18-May-2020 4832.01 2681.87 66.03 12.00  75.83 2549.35
   02:15:15.992.18-May-2020 4832.01 2681.95 66.03 12.00  76.03 2549.35
   02:15:16.192.18-May-2020 4832.01 2681.95 66.03 12.00  76.23 2549.35
   02:15:16.392.18-May-2020 4832.01 2681.83 66.03 12.00  76.43 2549.35
   02:15:16.592.18-May-2020 4832.01 2681.87 66.03 12.00  76.63 2549.35
   02:15:16.792.18-May-2020 4832.01 2681.90 66.03 12.00  76.83 2549.35
   02:15:16.992.18-May-2020 4832.01 2681.91 66.03 12.00  77.03 2549.35
   02:15:17.192.18-May-2020 4832.01 2681.91 66.03 12.00  77.23 2549.35
   02:15:17.392.18-May-2020 4832.01 2681.97 66.03 12.00  77.43 2549.35
   02:15:17.592.18-May-2020 4832.01 2681.97 66.03 12.00  77.63 2549.35
   02:15:17.793.18-May-2020 4832.01 2681.99 66.03 12.00  77.83 2549.35
   02:15:17.993.18-May-2020 4832.01 2681.99 66.03 12.00  78.03 2549.35
   02:15:18.193.18-May-2020 4832.01 2681.99 66.03 12.00  78.23 2549.35
   02:15:18.393.18-May-2020 4832.01 2681.84 66.03 12.00  78.43 2549.35
   02:15:18.593.18-May-2020 4832.01 2681.87 66.03 12.00  78.63 2549.35
   02:15:18.793.18-May-2020 4832.01 2681.94 66.03 12.00  78.83 2549.35
   02:15:18.993.18-May-2020 4832.01 2681.92 66.03 12.00  79.03 2549.35
   02:15:19.193.18-May-2020 4832.01 2681.92 66.03 12.00  79.23 2549.35
   02:15:19.393.18-May-2020 4832.01 2681.98 66.03 12.00  79.43 2549.35
   02:15:19.593.18-May-2020 4832.01 2681.99 66.03 12.00  79.63 2549.35
   02:15:19.793.18-May-2020 4832.01 2682.02 66.03 12.00  79.83 2549.35
   02:15:19.993.18-May-2020 4832.01 2682.02 66.03 12.00  80.03 2549.35
   02:15:20.194.18-May-2020 4832.01 2682.02 66.03 12.00  80.23 2549.35
   02:15:20.394.18-May-2020 4832.01 2681.88 66.03 12.00  80.43 2549.35
   02:15:20.594.18-May-2020 4832.01 2681.88 66.03 12.00  80.63 2549.35
   02:15:20.794.18-May-2020 4832.01 2681.94 66.03 12.00  80.83 2549.35
   02:15:20.994.18-May-2020 4832.01 2682.01 66.03 12.00  81.03 2549.35
   02:15:21.194.18-May-2020 4832.01 2682.01 66.03 12.00  81.23 2549.35
   02:15:21.394.18-May-2020 4832.01 2681.88 66.03 12.00  81.43 2549.35
   02:15:21.594.18-May-2020 4832.01 2681.96 66.03 12.00  81.63 2549.35
   02:15:21.794.18-May-2020 4832.01 2681.95 66.03 12.00  81.83 2549.35
   02:15:21.994.18-May-2020 4832.01 2682.04 66.03 12.00  82.03 2549.35
   02:15:22.194.18-May-2020 4832.01 2682.04 66.03 12.00  82.23 2549.35
   02:15:22.394.18-May-2020 4832.01 2681.89 66.03 12.00  82.43 2549.35
   02:15:22.594.18-May-2020 4832.01 2681.97 66.03 12.00  82.63 2549.35
   02:15:22.795.18-May-2020 4832.01 2682.02 66.03 12.00  82.83 2549.35
   02:15:22.995.18-May-2020 4832.01 2681.90 66.03 12.00  83.03 2549.35
   02:15:23.195.18-May-2020 4832.01 2681.90 66.03 12.00  83.23 2549.35
   02:15:23.395.18-May-2020 4832.01 2681.95 66.03 12.00  83.43 2549.35
   02:15:23.595.18-May-2020 4832.01 2681.98 66.03 12.00  83.63 2549.35
   02:15:23.795.18-May-2020 4832.01 2681.98 66.03 12.00  83.83 2549.35
   02:15:23.995.18-May-2020 4832.01 2682.01 66.03 12.00  84.03 2549.35
   02:15:24.195.18-May-2020 4832.01 2682.01 66.03 12.00  84.23 2549.35
   02:15:24.395.18-May-2020 4832.01 2682.03 66.03 12.00  84.43 2549.35
   02:15:24.595.18-May-2020 4832.01 2682.04 66.03 12.00  84.63 2549.35
   02:15:24.795.18-May-2020 4832.01 2682.06 66.03 12.00  84.83 2549.35
   02:15:24.995.18-May-2020 4832.01 2682.04 66.03 12.00  85.03 2549.35
   02:15:25.196.18-May-2020 4832.01 2682.04 66.03 12.00  85.23 2549.35
   02:15:25.396.18-May-2020 4832.01 2681.95 66.03 12.00  85.43 2549.35
   02:15:25.596.18-May-2020 4832.01 2682.01 66.03 12.00  85.63 2549.35
   02:15:25.796.18-May-2020 4832.01 2681.98 66.03 12.00  85.83 2549.35
   02:15:25.996.18-May-2020 4832.01 2682.01 66.03 12.00  86.03 2549.35
   02:15:26.196.18-May-2020 4832.01 2682.01 66.03 12.00  86.23 2549.35
   02:15:26.396.18-May-2020 4832.01 2682.04 66.03 12.00  86.43 2549.35
   02:15:26.596.18-May-2020 4832.01 2682.06 66.03 12.00  86.63 2549.35
   02:15:26.796.18-May-2020 4832.01 2682.07 66.03 12.00  86.84 2549.35
   02:15:26.996.18-May-2020 4832.01 2682.08 66.03 12.00  87.04 2549.35
   02:15:27.196.18-May-2020 4832.01 2682.08 66.03 12.00  87.24 2549.35
   02:15:27.396.18-May-2020 4832.01 2681.91 66.03 12.00  87.44 2549.35
   02:15:27.597.18-May-2020 4832.01 2682.01 66.03 12.00  87.64 2549.35
   02:15:27.797.18-May-2020 4832.01 2682.03 66.03 12.00  87.84 2549.35
   02:15:27.997.18-May-2020 4832.01 2681.93 66.03 12.00  88.04 2549.35
   02:15:28.197.18-May-2020 4832.01 2681.93 66.03 12.00  88.24 2549.35
   02:15:28.397.18-May-2020 4832.01 2682.01 66.03 12.00  88.44 2549.35
   02:15:28.597.18-May-2020 4832.01 2682.00 66.03 12.00  88.64 2549.35
   02:15:28.797.18-May-2020 4832.01 2682.03 66.03 12.00  88.84 2549.35
   02:15:28.997.18-May-2020 4832.01 2681.95 66.03 12.00  89.04 2549.35
   02:15:29.197.18-May-2020 4832.01 2681.96 66.03 12.00  89.24 2549.35
   02:15:29.397.18-May-2020 4832.01 2682.03 66.03 12.00  89.44 2549.35
   02:15:29.597.18-May-2020 4832.01 2682.05 66.03 12.00  89.64 2549.35
   02:15:29.797.18-May-2020 4832.01 2681.95 66.03 12.00  89.84 2549.35
   02:15:29.997.18-May-2020 4832.01 2681.94 66.03 12.00  90.04 2549.35
   02:15:30.198.18-May-2020 4832.01 2681.94 66.03 12.00  90.24 2549.35
