~Version Information
 VERS.                  2.0:   CWLS log ASCII Standard -VERSION 2.0
 WRAP.                   NO:   One line per depth step
~Well Information Block
#MNEM.UNIT     VALUE/NAME     DESCRIPTION
#---------     -----------    ---------------------------
 STRT.S             20:30:46 17-May-20: START TIME 20:30:46 17-May-20
 STOP.S             20:37:50 17-May-20: STOP TIME  20:37:50 17-May-20
 STEP.S                   0.00: STEP TIME
 NULL.                 -999.25: NULL VALUE
 UNIT.                     N/A:  LOGGING EQUIPMENT ID
 DCON.         Sperry Drilling:  DIRECTNL CONTR
 DOE .                     N/A:  DOE NUMBER
 JOBN.        AZ-XX-0906252240:  JOB TICKET NUMB
 MWDS.                     N/A:  MWD SHOP
 PROV.                    Baku:  PROVINCE
 STAT.                    Baku:  STATE NAME
 REGN.                   EESSA:  REGION
 BASE.              Azerbaijan:  LOGGING EQUIPMENT BASE LOCATION
 UWI .                     N/A:  UNIQUE WELL IDENTIFIER
 API .                     N/A:  API NUMBER
 MDS .        Operator Entered:  MAG DATA SOURCE
 WTYP.                Deviated:  WELL TYPE
 COMP.     BP Exploration (Caspian Sea) Ltd.:  COMPANY
 SRVC.          Turan Drilling:  CONTRACTOR
 WELL.           J23 (Slot 07):  WELL NAME
 CTRY.              Azerbaijan:  COUNTRY NAME
 FLD .                     ACG:  FIELD NAME
 PDAT.          Mean Sea Level:  PERMANENT DATUM
 RIG .             West Chirag:  RIG NAME
 SON .        AZ-XX-0906252240:  JOB NUMBER
 FTOP.          Formation Tops:  FORM TOPS DESC
 ILTD.               Lithology:  INTERP LTH DESC
 SVYD.                  Survey:  SURVEY DESC
 DMOD.             Drill Model:  DRILL MOD DESC
 HPTY.       Minimum Curvature:  HOLE POS TYPE
 NREF.                    Grid:  NORTH REFERENCE
 SPUD.               27-Aug-20:  SPUD DATE
 DATE.      00.00.00 19-May-20:  END TIME
 STIM.      03.00.00 25-Mar-20:  START TIME
 DMF .             Drill Floor:  DRILL MEAS FROM
 DFST.                        :  DIST FSL TEXT
 DFWT.                        :  DIST FWL TEXT
 CNTY.                        :  COUNTY
 LOC .                        :  LOCATION
 LMF .             Drill Floor:  LOG MEASURED FROM
 VSNS.m                   9.43:  VERT SEC N/S
 VSEW.m                  -8.91:  VERT SEC E/W
 AGAP.m                  43.00:  AIR GAP
 DEP .m                 354.17:  DEPTH
 APD .m                  43.00:  DEPTH ABOVE PD
 WDMS.m                 169.80:  WD ELEV
 EGL .m                   0.00:  GROUND ELEVATION
 EPD .m                   0.00:  ELEVATION
 AZTC.deg                 6.31:  AZM TOTAL CORR
 GRDC.deg                 0.14:  GRID CORRECTION
 MDEC.deg                 6.45:  MAGNETIC DECL
 MDIP.deg                59.56:  MAGNETIC DIP
 MFLD.nT              50295.00:  MAGNETIC FIELD
 GVFD.g                   1.00:  GRAVITY FIELD
 VSDR.deg               179.88:  VERT SEC DIRECT
 TDD .m                5150.01:  TOTAL DEPTH (DRILLER)
 SDEP.m                 864.00:  START DEPTH
 DFSL.m                   0.00:  DISTANCE FSL
 DFWL.m                   0.00:  DISTANCE FWL
 UTMY.m             4443793.85:  UTM Y
 UTMX.m              519005.06:  UTM X
 WHEW.m                  -8.91:  WELL HEAD E/W
 WHNS.m                   9.43:  WELL HEAD N/S
 LONG.deg                51.22:  LONGITUDE
 LATI.deg                40.13:  LATITUDE
 TVDS.m                  43.00:  TVDSS CORRECTN
 EKB .m                   0.00:  KB ELEVATION
 EDF .m                  43.00:  DF ELEVATION
 TDL .m                 363.00:  TOTAL DEPTH (LOGGER)
 MAGU.                 1850802:  MAGUTM CHECKSUM
 VSC .                       0:  VS TO CLOSURE
~Parameter Information Block
#MNEM.UNIT       Value        Description
#---------     -----------    ---------------------------
 AV  .mps                 2.30:  Ann Velocity 
 AVMX.mps                 4.40:  Max Ann Veloc 
 AZIF.deg               110.24:  Azm, Final 
 BHAT.        Rotary Steerable:  BHA Type 
 BREV.rev               331.00:  Rev Bit Total 
 BROT.°/30m               0.00:  Build Rotating 
 BS  .in                  8.50:  Bit Size 
 BSZ .in                  8.50:  Bit Size 
 BTPL.psig              585.00:  Bit Press Loss 
 CABU.                     Yes:  Customer Abuse 
 TCS .hr                122.75:  Time Ciculation Ended 
 CV  .mps                 2.67:  Crit Velocity 
 CVMX.mps                 3.56:  Max Crit Veloc 
 DD1 .          Rashad Habibov:  Direct Drillr 1 
 DD2 .         Rasim Ibrahimov:  Direct Drillr 2 
 DDSV.               Geo-Pilot:  DD Service 
 DEFF.%                  98.00:  % Det Eff 
 DLRX.°/30m               0.75:  Dogleg Rot Max 
 DLSO.°/30m               1.25:  Dogleg Oriented 
 DLSX.°/30m               2.06:  Dogleg Str Max 
 DRET.      07.45.00 17-May-20:  Drill End Time 
 DRST.      22.50.00 15-May-20:  Drill Start Tim 
 DTIM.hr                 20.75:  Time Drilling 
 EDEP.m                5124.01:  End Depth 
 ENG1.           Eldar Hajiyev:  Engineer 1 
 ENG2.        Marcelo Sandoval:  Engineer 2 
 ENG3.        Davud huseynzada:  Engineer 3 
 ENG4.          Ruslan Safarov:  Engineer 4 
 ETIM.      04.33.00 23-May-20:  End Time 
 FLOI.gpm               450.00:  Flow In 
 FLON.gpm               400.00:  Flow In Min 
 FLOS.cptm                0.00:  Fluid Loss 
 FLOX.gpm               500.00:  Flow In Max 
 FTRO.       Formation Presure:  FTWD Run Obj 
 HFLO.                      No:  High Flow 
 HPRE.                     Yes:  High Pressure 
 HTEM.                      No:  High Temp 
 HYDO.m                   1.80:  Hydro Offset 
 IFIN.deg                75.06:  Inc, Final 
 IMAX.deg                75.38:  Inc Max 
 IMIN.deg                74.69:  Inc Min 
 IMND.m                5027.38:  Inc Min Depth 
 IMXD.m                4771.61:  Inc Max Depth 
 JARR.                      No:  Jarring 
 LETM.      07.45.00 17-May-20:  Log End Time 
 LOST.hr                     0:  Lost Rig Time 
 LSTM.      22.50.00 15-May-20:  Log Start Time 
 MDCL.ppm             42000.00:  Mud Chlorides 
 MDES.     Inversion Oil/Synthetic:  Mud Desc 
 DFD .sg                  1.34:  Mud Density 
 MDMN.sg                  1.34:  Dens Mud Min 
 MDMX.sg                  1.34:  Dens Mud Max 
 MOIL.                       0:  Run Mud Oil % 
 MOWR.                   67:33:  Run Mud OWR 
 MSND.                       0:  Run Mud Sand % 
 MSOL.                     1.8:  Run Mud Solids% 
 DFV .spqt               76.00:  Mud Viscosity 
 MWOD.in                  6.75:  MWD Tool OD 
 MWSI.                      No:  Serv Intrp, MWD 
 OTIM.hr                228.19:  Time Operating 
 PCON.           Look Like New:  Pad Condition 
 PMAX.psia             6164.70:  Press Op, Max 
 PV  .cP                 28.00:  Mud PV 
 RUN .                     900:  Run Number 
 ROPA.m/hr               19.00:  ROP Avg 
 ROPN.m/hr               11.00:  ROP Min 
 ROPX.m/hr               36.00:  ROP Max 
 RPMA.rpm               120.00:  RPM Surface Avg 
 RPMN.rpm               120.00:  RPM Surface Min 
 RPMX.rpm               120.00:  RPM Surface Max 
 RRUN.                    L604:  Rig Run Number 
 RTIM.hr                  7.00:  Time Reaming 
 SAZI.deg               109.27:  Azm, Start 
 SDEP.m                4761.01:  Start Depth 
 SIDD.                      No:  Serv Intrp, DD 
 SINC.deg                75.38:  Inc, Start 
 SPPA.psig             3574.00:  SPP Avg 
 SPPN.psig             3475.00:  SPP Min 
 SPPX.psig             3791.00:  SPP Max 
 STIM.      07.08.48 13-May-20:  Start Time 
 SVCS.                 DD, MWD:  Services 
 SVER.                    9.20:  Sperry Version 
 TDAT.m                 363.00:  Tot Depth Attmp 
 TDDF.                      No:  Trip for DD 
 TDLG.m                 363.00:  Tot Depth Loggd 
 TFF .                      No:  Trip for Fail 
 TQAA.f-kp               20.00:  Torque Abs Avg 
 TQAN.f-kp               18.00:  Torque Abs Min 
 TQAX.f-kp               22.00:  Torque Abs Max 
 TRRT.°/30m              -0.35:  Turn Rotating 
 MRT .                    HCIM:  Maximum Recorded Temperature 
 TTMX.degC               92.16:  Max Tool Temp 
 VS01.                90586518:  Virtual Str1 SN 
 VS02.        AZ90560654Z1W1C6:  Virtual Str2 SN 
 VS03.           AZ90610398F11:  Virtual Str3 SN 
 VS04.                90514975:  Virtual Str4 SN 
 VS05.                90514972:  Virtual Str5 SN 
 VS06.     AZ90603282F11V7D1A6:  Virtual Str6 SN 
 WBMN.klb                 7.00:  WOB Min 
 WOBA.klb                12.00:  WOB Avg 
 WOBX.klb                14.00:  WOB Max 
 YP  .lhf2               32.00:  Yield Point 
~Curve Information Block
#MNEM.UNIT                 API CODE     Curve Description
#---------               -----------    ---------------------------
 TIME.HHMMSS            00 000 000 000:  GT Time & Date
 GTDEPTH.m              00 000 000 000:  GT Depth
 GTPQH.psia             00 000 000 000:  GT HR Quartz Pressure
 GTTQ.degC              00 000 000 000:  GT Quartz Temperature
 GTTN.NONE              00 000 000 000:  GT Test Number
 GTET.sec               00 000 000 000:  GT Elapsed Test Time
 GTTVD.m                00 000 000 000:  GT True Vertical Depth
#Other Information
#
#WARRANTY: Halliburton will use its best efforts to furnish customers with 
#accurate information and interpretations that are part of, and incident to, the services 
#provided.  However, Halliburton cannot and does not warrant the accuracy 
#or correctness of such information and interpretations.  Under no circumstances should any 
#such information or interpretation be relied upon as the sole basis for any drilling, 
#completion, production, or financial decision or any procedure involving any risk to the 
#safety of any drilling venture, drilling rig or its crew or any other third party.  The 
#Customer has full responsibility for all drilling, completion and production operation.  
#Halliburton makes no representations or warranties, either expressed or 
#implied, including, but not limited to, the implied warranties of merchantability or fitness 
#for a particular purpose, with respect to the services rendered.  In no event will 
#Halliburton be liable for failure to obtain any particular results or for 
#any damages, including, but not limited to, indirect, special or consequential damages, 
#resulting from the use of any information or interpretation provided by Halliburton.
#
~A           TIME           GTDEPTH  GTPQH  GTTQ  GTTN  GTET   GTTVD  
# ...
   20:36:08.336.17-May-2020 4971.01 2894.04 68.66 5.00 321.98 2585.16
   20:36:08.536.17-May-2020 4971.01 2894.04 68.66 5.00 322.18 2585.16
   20:36:08.736.17-May-2020 4971.01 2894.04 68.66 5.00 322.38 2585.16
   20:36:08.936.17-May-2020 4971.01 2894.04 68.66 5.00 322.58 2585.16
   20:36:09.136.17-May-2020 4971.01 2894.05 68.66 5.00 322.78 2585.16
   20:36:09.336.17-May-2020 4971.01 2894.09 68.66 5.00 322.98 2585.16
   20:36:09.536.17-May-2020 4971.01 2894.09 68.66 5.00 323.18 2585.16
   20:36:09.736.17-May-2020 4971.01 2894.07 68.66 5.00 323.38 2585.16
   20:36:09.936.17-May-2020 4971.01 2894.04 68.66 5.00 323.57 2585.16
   20:36:10.136.17-May-2020 4971.01 2894.07 68.66 5.00 323.77 2585.16
   20:36:10.336.17-May-2020 4971.01 2894.05 68.66 5.00 323.97 2585.16
   20:36:10.536.17-May-2020 4971.01 2894.05 68.66 5.00 324.17 2585.16
   20:36:10.736.17-May-2020 4971.01 2894.05 68.66 5.00 324.37 2585.16
   20:36:10.936.17-May-2020 4971.01 2894.05 68.66 5.00 324.57 2585.16
   20:36:11.136.17-May-2020 4971.01 2894.06 68.66 5.00 324.77 2585.16
   20:36:11.336.17-May-2020 4971.01 2894.19 68.66 5.00 324.97 2585.16
   20:36:11.536.17-May-2020 4971.01 2894.19 68.66 5.00 325.17 2585.16
   20:36:11.736.17-May-2020 4971.01 2894.06 68.66 5.00 325.37 2585.16
   20:36:11.936.17-May-2020 4971.01 2894.07 68.66 5.00 325.57 2585.16
   20:36:12.136.17-May-2020 4971.01 2894.07 68.66 5.00 325.77 2585.16
   20:36:12.336.17-May-2020 4971.01 2894.12 68.66 5.00 325.97 2585.16
   20:36:12.536.17-May-2020 4971.01 2894.12 68.66 5.00 326.17 2585.16
   20:36:12.736.17-May-2020 4971.01 2894.01 68.66 5.00 326.37 2585.16
   20:36:12.936.17-May-2020 4971.01 2894.20 68.66 5.00 326.57 2585.16
   20:36:13.136.17-May-2020 4971.01 2893.97 68.66 5.00 326.77 2585.16
   20:36:13.336.17-May-2020 4971.01 2894.05 68.66 5.00 326.97 2585.16
   20:36:13.536.17-May-2020 4971.01 2894.05 68.66 5.00 327.17 2585.16
   20:36:13.736.17-May-2020 4971.01 2894.06 68.66 5.00 327.37 2585.16
   20:36:13.936.17-May-2020 4971.01 2894.09 68.65 5.00 327.57 2585.16
   20:36:14.136.17-May-2020 4971.01 2894.08 68.65 5.00 327.77 2585.16
   20:36:14.336.17-May-2020 4971.01 2894.08 68.65 5.00 327.97 2585.16
   20:36:14.536.17-May-2020 4971.01 2894.08 68.65 5.00 328.17 2585.16
   20:36:14.736.17-May-2020 4971.01 2894.07 68.65 5.00 328.37 2585.16
   20:36:14.936.17-May-2020 4971.01 2894.06 68.65 5.00 328.57 2585.16
   20:36:15.136.17-May-2020 4971.01 2894.04 68.65 5.00 328.77 2585.16
   20:36:15.336.17-May-2020 4971.01 2894.05 68.65 5.00 328.97 2585.16
   20:36:15.536.17-May-2020 4971.01 2894.05 68.65 5.00 329.17 2585.16
   20:36:15.736.17-May-2020 4971.01 2894.05 68.65 5.00 329.37 2585.16
   20:36:15.935.17-May-2020 4971.01 2894.14 68.65 5.00 329.57 2585.16
   20:36:16.135.17-May-2020 4971.01 2894.00 68.65 5.00 329.77 2585.16
   20:36:16.335.17-May-2020 4971.01 2894.09 68.65 5.00 329.97 2585.16
   20:36:16.535.17-May-2020 4971.01 2894.09 68.65 5.00 330.17 2585.16
   20:36:16.735.17-May-2020 4971.01 2894.01 68.65 5.00 330.37 2585.16
   20:36:16.935.17-May-2020 4971.01 2894.05 68.65 5.00 330.57 2585.16
   20:36:17.135.17-May-2020 4971.01 2894.04 68.65 5.00 330.77 2585.16
   20:36:17.335.17-May-2020 4971.01 2894.05 68.65 5.00 330.97 2585.16
   20:36:17.535.17-May-2020 4971.01 2894.05 68.65 5.00 331.17 2585.16
   20:36:17.735.17-May-2020 4971.01 2894.05 68.65 5.00 331.37 2585.16
   20:36:17.935.17-May-2020 4971.01 2894.04 68.65 5.00 331.57 2585.16
   20:36:18.135.17-May-2020 4971.01 2894.07 68.65 5.00 331.77 2585.16
   20:36:18.335.17-May-2020 4971.01 2894.09 68.65 5.00 331.97 2585.16
   20:36:18.535.17-May-2020 4971.01 2894.09 68.65 5.00 332.17 2585.16
   20:36:18.735.17-May-2020 4971.01 2894.18 68.65 5.00 332.37 2585.16
   20:36:18.935.17-May-2020 4971.01 2893.99 68.65 5.00 332.57 2585.16
   20:36:19.135.17-May-2020 4971.01 2894.07 68.65 5.00 332.77 2585.16
   20:36:19.335.17-May-2020 4971.01 2894.06 68.65 5.00 332.97 2585.16
   20:36:19.535.17-May-2020 4971.01 2894.06 68.65 5.00 333.17 2585.16
   20:36:19.735.17-May-2020 4971.01 2894.07 68.65 5.00 333.37 2585.16
   20:36:19.935.17-May-2020 4971.01 2894.12 68.65 5.00 333.57 2585.16
   20:36:20.135.17-May-2020 4971.01 2894.08 68.65 5.00 333.77 2585.16
   20:36:20.335.17-May-2020 4971.01 2894.02 68.65 5.00 333.97 2585.16
   20:36:20.535.17-May-2020 4971.01 2894.18 68.65 5.00 334.17 2585.16
   20:36:20.735.17-May-2020 4971.01 2894.00 68.65 5.00 334.37 2585.16
   20:36:20.935.17-May-2020 4971.01 2894.07 68.65 5.00 334.57 2585.16
   20:36:21.135.17-May-2020 4971.01 2894.08 68.65 5.00 334.77 2585.16
   20:36:21.335.17-May-2020 4971.01 2894.02 68.65 5.00 334.97 2585.16
   20:36:21.535.17-May-2020 4971.01 2894.02 68.65 5.00 335.17 2585.16
   20:36:21.735.17-May-2020 4971.01 2894.04 68.65 5.00 335.37 2585.16
   20:36:21.935.17-May-2020 4971.01 2894.05 68.65 5.00 335.57 2585.16
   20:36:22.135.17-May-2020 4971.01 2894.05 68.65 5.00 335.77 2585.16
   20:36:22.335.17-May-2020 4971.01 2894.04 68.65 5.00 335.97 2585.16
   20:36:22.535.17-May-2020 4971.01 2894.04 68.65 5.00 336.17 2585.16
   20:36:22.735.17-May-2020 4971.01 2894.17 68.65 5.00 336.37 2585.16
   20:36:22.935.17-May-2020 4971.01 2893.97 68.65 5.00 336.57 2585.16
   20:36:23.135.17-May-2020 4971.01 2894.06 68.65 5.00 336.77 2585.16
   20:36:23.335.17-May-2020 4971.01 2894.05 68.65 5.00 336.97 2585.16
   20:36:23.535.17-May-2020 4971.01 2894.05 68.65 5.00 337.17 2585.16
   20:36:23.735.17-May-2020 4971.01 2894.05 68.65 5.00 337.37 2585.16
   20:36:23.935.17-May-2020 4971.01 2894.04 68.65 5.00 337.57 2585.16
   20:36:24.135.17-May-2020 4971.01 2894.05 68.65 5.00 337.77 2585.16
   20:36:24.335.17-May-2020 4971.01 2894.04 68.65 5.00 337.97 2585.16
   20:36:24.535.17-May-2020 4971.01 2894.04 68.65 5.00 338.17 2585.16
   20:36:24.735.17-May-2020 4971.01 2894.16 68.65 5.00 338.37 2585.16
   20:36:24.935.17-May-2020 4971.01 2893.97 68.65 5.00 338.57 2585.16
   20:36:25.135.17-May-2020 4971.01 2894.08 68.65 5.00 338.77 2585.16
   20:36:25.335.17-May-2020 4971.01 2894.08 68.65 5.00 338.97 2585.16
   20:36:25.535.17-May-2020 4971.01 2894.08 68.65 5.00 339.17 2585.16
   20:36:25.735.17-May-2020 4971.01 2894.08 68.65 5.00 339.37 2585.16
   20:36:25.935.17-May-2020 4971.01 2894.07 68.65 5.00 339.57 2585.16
   20:36:26.135.17-May-2020 4971.01 2894.06 68.65 5.00 339.77 2585.16
   20:36:26.335.17-May-2020 4971.01 2894.20 68.65 5.00 339.97 2585.16
   20:36:26.535.17-May-2020 4971.01 2894.20 68.65 5.00 340.17 2585.16
   20:36:26.735.17-May-2020 4971.01 2894.08 68.65 5.00 340.37 2585.16
   20:36:26.935.17-May-2020 4971.01 2894.08 68.65 5.00 340.57 2585.16
   20:36:27.135.17-May-2020 4971.01 2894.03 68.65 5.00 340.77 2585.16
   20:36:27.335.17-May-2020 4971.01 2894.18 68.65 5.00 340.97 2585.16
   20:36:27.535.17-May-2020 4971.01 2894.18 68.65 5.00 341.17 2585.16
   20:36:27.735.17-May-2020 4971.01 2894.07 68.65 5.00 341.37 2585.16
   20:36:27.935.17-May-2020 4971.01 2894.06 68.65 5.00 341.57 2585.16
   20:36:28.135.17-May-2020 4971.01 2894.06 68.65 5.00 341.77 2585.16
   20:36:28.335.17-May-2020 4971.01 2894.06 68.65 5.00 341.97 2585.16
   20:36:28.535.17-May-2020 4971.01 2894.04 68.65 5.00 342.17 2585.16
   20:36:28.735.17-May-2020 4971.01 2894.05 68.65 5.00 342.37 2585.16
   20:36:28.934.17-May-2020 4971.01 2894.04 68.65 5.00 342.57 2585.16
   20:36:29.134.17-May-2020 4971.01 2894.04 68.65 5.00 342.77 2585.16
   20:36:29.334.17-May-2020 4971.01 2894.05 68.65 5.00 342.97 2585.16
   20:36:29.534.17-May-2020 4971.01 2894.05 68.65 5.00 343.17 2585.16
   20:36:29.734.17-May-2020 4971.01 2894.11 68.65 5.00 343.37 2585.16
   20:36:29.934.17-May-2020 4971.01 2894.08 68.65 5.00 343.57 2585.16
   20:36:30.134.17-May-2020 4971.01 2894.02 68.65 5.00 343.77 2585.16
   20:36:30.334.17-May-2020 4971.01 2894.06 68.65 5.00 343.97 2585.16
   20:36:30.534.17-May-2020 4971.01 2894.06 68.65 5.00 344.17 2585.16
   20:36:30.734.17-May-2020 4971.01 2894.04 68.65 5.00 344.37 2585.16
   20:36:30.934.17-May-2020 4971.01 2894.04 68.65 5.00 344.57 2585.16
   20:36:31.134.17-May-2020 4971.01 2894.04 68.65 5.00 344.77 2585.16
