~Version Information
 VERS.                  2.0:   CWLS log ASCII Standard -VERSION 2.0
 WRAP.                   NO:   One line per depth step
~Well Information Block
#MNEM.UNIT     VALUE/NAME     DESCRIPTION
#---------     -----------    ---------------------------
 STRT.S             01:27:41 18-May-20: START TIME 01:27:41 18-May-20
 STOP.S             01:34:42 18-May-20: STOP TIME  01:34:42 18-May-20
 STEP.S                   0.00: STEP TIME
 NULL.                 -999.25: NULL VALUE
 UNIT.                     N/A:  LOGGING EQUIPMENT ID
 DCON.         Sperry Drilling:  DIRECTNL CONTR
 DOE .                     N/A:  DOE NUMBER
 JOBN.        AZ-XX-0906252240:  JOB TICKET NUMB
 MWDS.                     N/A:  MWD SHOP
 PROV.                    Baku:  PROVINCE
 STAT.                    Baku:  STATE NAME
 REGN.                   EESSA:  REGION
 BASE.              Azerbaijan:  LOGGING EQUIPMENT BASE LOCATION
 UWI .                     N/A:  UNIQUE WELL IDENTIFIER
 API .                     N/A:  API NUMBER
 MDS .        Operator Entered:  MAG DATA SOURCE
 WTYP.                Deviated:  WELL TYPE
 COMP.     BP Exploration (Caspian Sea) Ltd.:  COMPANY
 SRVC.          Turan Drilling:  CONTRACTOR
 WELL.           J23 (Slot 07):  WELL NAME
 CTRY.              Azerbaijan:  COUNTRY NAME
 FLD .                     ACG:  FIELD NAME
 PDAT.          Mean Sea Level:  PERMANENT DATUM
 RIG .             West Chirag:  RIG NAME
 SON .        AZ-XX-0906252240:  JOB NUMBER
 FTOP.          Formation Tops:  FORM TOPS DESC
 ILTD.               Lithology:  INTERP LTH DESC
 SVYD.                  Survey:  SURVEY DESC
 DMOD.             Drill Model:  DRILL MOD DESC
 HPTY.       Minimum Curvature:  HOLE POS TYPE
 NREF.                    Grid:  NORTH REFERENCE
 SPUD.               27-Aug-20:  SPUD DATE
 DATE.      00.00.00 19-May-20:  END TIME
 STIM.      03.00.00 25-Mar-20:  START TIME
 DMF .             Drill Floor:  DRILL MEAS FROM
 DFST.                        :  DIST FSL TEXT
 DFWT.                        :  DIST FWL TEXT
 CNTY.                        :  COUNTY
 LOC .                        :  LOCATION
 LMF .             Drill Floor:  LOG MEASURED FROM
 VSNS.m                   9.43:  VERT SEC N/S
 VSEW.m                  -8.91:  VERT SEC E/W
 AGAP.m                  43.00:  AIR GAP
 DEP .m                 354.17:  DEPTH
 APD .m                  43.00:  DEPTH ABOVE PD
 WDMS.m                 169.80:  WD ELEV
 EGL .m                   0.00:  GROUND ELEVATION
 EPD .m                   0.00:  ELEVATION
 AZTC.deg                 6.31:  AZM TOTAL CORR
 GRDC.deg                 0.14:  GRID CORRECTION
 MDEC.deg                 6.45:  MAGNETIC DECL
 MDIP.deg                59.56:  MAGNETIC DIP
 MFLD.nT              50295.00:  MAGNETIC FIELD
 GVFD.g                   1.00:  GRAVITY FIELD
 VSDR.deg               179.88:  VERT SEC DIRECT
 TDD .m                5150.01:  TOTAL DEPTH (DRILLER)
 SDEP.m                 864.00:  START DEPTH
 DFSL.m                   0.00:  DISTANCE FSL
 DFWL.m                   0.00:  DISTANCE FWL
 UTMY.m             4443793.85:  UTM Y
 UTMX.m              519005.06:  UTM X
 WHEW.m                  -8.91:  WELL HEAD E/W
 WHNS.m                   9.43:  WELL HEAD N/S
 LONG.deg                51.22:  LONGITUDE
 LATI.deg                40.13:  LATITUDE
 TVDS.m                  43.00:  TVDSS CORRECTN
 EKB .m                   0.00:  KB ELEVATION
 EDF .m                  43.00:  DF ELEVATION
 TDL .m                 363.00:  TOTAL DEPTH (LOGGER)
 MAGU.                 1850802:  MAGUTM CHECKSUM
 VSC .                       0:  VS TO CLOSURE
~Parameter Information Block
#MNEM.UNIT       Value        Description
#---------     -----------    ---------------------------
 AV  .mps                 2.30:  Ann Velocity 
 AVMX.mps                 4.40:  Max Ann Veloc 
 AZIF.deg               110.24:  Azm, Final 
 BHAT.        Rotary Steerable:  BHA Type 
 BREV.rev               331.00:  Rev Bit Total 
 BROT.°/30m               0.00:  Build Rotating 
 BS  .in                  8.50:  Bit Size 
 BSZ .in                  8.50:  Bit Size 
 BTPL.psig              585.00:  Bit Press Loss 
 CABU.                     Yes:  Customer Abuse 
 COMM.                     tPr:  Run Comments 1 
 TCS .hr                122.75:  Time Ciculation Ended 
 CV  .mps                 2.67:  Crit Velocity 
 CVMX.mps                 3.56:  Max Crit Veloc 
 DD1 .          Rashad Habibov:  Direct Drillr 1 
 DD2 .         Rasim Ibrahimov:  Direct Drillr 2 
 DDSV.               Geo-Pilot:  DD Service 
 DEFF.%                  98.00:  % Det Eff 
 DLRX.°/30m               0.75:  Dogleg Rot Max 
 DLSO.°/30m               1.25:  Dogleg Oriented 
 DLSX.°/30m               2.06:  Dogleg Str Max 
 DRET.      07.45.00 17-May-20:  Drill End Time 
 DRST.      22.50.00 15-May-20:  Drill Start Tim 
 DTIM.hr                 20.75:  Time Drilling 
 EDEP.m                5124.01:  End Depth 
 ENG1.           Eldar Hajiyev:  Engineer 1 
 ENG2.        Marcelo Sandoval:  Engineer 2 
 ENG3.        Davud huseynzada:  Engineer 3 
 ENG4.          Ruslan Safarov:  Engineer 4 
 ETIM.      04.33.00 23-May-20:  End Time 
 FLOI.gpm               450.00:  Flow In 
 FLON.gpm               400.00:  Flow In Min 
 FLOS.cptm                0.00:  Fluid Loss 
 FLOX.gpm               500.00:  Flow In Max 
 FTRO.       Formation Presure:  FTWD Run Obj 
 HFLO.                      No:  High Flow 
 HPRE.                     Yes:  High Pressure 
 HTEM.                      No:  High Temp 
 HYDO.m                   1.80:  Hydro Offset 
 IFIN.deg                75.06:  Inc, Final 
 IMAX.deg                75.38:  Inc Max 
 IMIN.deg                74.69:  Inc Min 
 IMND.m                5027.38:  Inc Min Depth 
 IMXD.m                4771.61:  Inc Max Depth 
 JARR.                      No:  Jarring 
 LETM.      07.45.00 17-May-20:  Log End Time 
 LOST.hr                     0:  Lost Rig Time 
 LSTM.      22.50.00 15-May-20:  Log Start Time 
 MDCL.ppm             42000.00:  Mud Chlorides 
 MDES.     Inversion Oil/Synthetic:  Mud Desc 
 DFD .sg                  1.34:  Mud Density 
 MDMN.sg                  1.34:  Dens Mud Min 
 MDMX.sg                  1.34:  Dens Mud Max 
 MOIL.                       0:  Run Mud Oil % 
 MOWR.                   67:33:  Run Mud OWR 
 MSND.                       0:  Run Mud Sand % 
 MSOL.                     1.8:  Run Mud Solids% 
 DFV .spqt               76.00:  Mud Viscosity 
 MWOD.in                  6.75:  MWD Tool OD 
 MWSI.                      No:  Serv Intrp, MWD 
 OTIM.hr                228.19:  Time Operating 
 PCON.           Look Like New:  Pad Condition 
 PMAX.psia             6164.70:  Press Op, Max 
 PV  .cP                 28.00:  Mud PV 
 RUN .                     900:  Run Number 
 ROPA.m/hr               19.00:  ROP Avg 
 ROPN.m/hr               11.00:  ROP Min 
 ROPX.m/hr               36.00:  ROP Max 
 RPMA.rpm               120.00:  RPM Surface Avg 
 RPMN.rpm               120.00:  RPM Surface Min 
 RPMX.rpm               120.00:  RPM Surface Max 
 RRUN.                    L604:  Rig Run Number 
 RTIM.hr                  7.00:  Time Reaming 
 SAZI.deg               109.27:  Azm, Start 
 SDEP.m                4761.01:  Start Depth 
 SIDD.                      No:  Serv Intrp, DD 
 SINC.deg                75.38:  Inc, Start 
 SPPA.psig             3574.00:  SPP Avg 
 SPPN.psig             3475.00:  SPP Min 
 SPPX.psig             3791.00:  SPP Max 
 STIM.      07.08.48 13-May-20:  Start Time 
 SVCS.                 DD, MWD:  Services 
 SVER.                    9.20:  Sperry Version 
 TDAT.m                 363.00:  Tot Depth Attmp 
 TDDF.                      No:  Trip for DD 
 TDLG.m                 363.00:  Tot Depth Loggd 
 TFF .                      No:  Trip for Fail 
 TQAA.f-kp               20.00:  Torque Abs Avg 
 TQAN.f-kp               18.00:  Torque Abs Min 
 TQAX.f-kp               22.00:  Torque Abs Max 
 TRRT.°/30m              -0.35:  Turn Rotating 
 MRT .                    HCIM:  Maximum Recorded Temperature 
 TTMX.degC               92.16:  Max Tool Temp 
 VS01.                90586518:  Virtual Str1 SN 
 VS02.        AZ90560654Z1W1C6:  Virtual Str2 SN 
 VS03.           AZ90610398F11:  Virtual Str3 SN 
 VS04.                90514975:  Virtual Str4 SN 
 VS05.                90514972:  Virtual Str5 SN 
 VS06.     AZ90603282F11V7D1A6:  Virtual Str6 SN 
 WBMN.klb                 7.00:  WOB Min 
 WOBA.klb                12.00:  WOB Avg 
 WOBX.klb                14.00:  WOB Max 
 YP  .lhf2               32.00:  Yield Point 
~Curve Information Block
#MNEM.UNIT                 API CODE     Curve Description
#---------               -----------    ---------------------------
 TIME.HHMMSS            00 000 000 000:  GT Time & Date
 GTDEPTH.m              00 000 000 000:  GT Depth
 GTPQH.psia             00 000 000 000:  GT HR Quartz Pressure
 GTTQ.degC              00 000 000 000:  GT Quartz Temperature
 GTTN.NONE              00 000 000 000:  GT Test Number
 GTET.sec               00 000 000 000:  GT Elapsed Test Time
 GTTVD.m                00 000 000 000:  GT True Vertical Depth
#Other Information
#
#WARRANTY: Halliburton will use its best efforts to furnish customers with 
#accurate information and interpretations that are part of, and incident to, the services 
#provided.  However, Halliburton cannot and does not warrant the accuracy 
#or correctness of such information and interpretations.  Under no circumstances should any 
#such information or interpretation be relied upon as the sole basis for any drilling, 
#completion, production, or financial decision or any procedure involving any risk to the 
#safety of any drilling venture, drilling rig or its crew or any other third party.  The 
#Customer has full responsibility for all drilling, completion and production operation.  
#Halliburton makes no representations or warranties, either expressed or 
#implied, including, but not limited to, the implied warranties of merchantability or fitness 
#for a particular purpose, with respect to the services rendered.  In no event will 
#Halliburton be liable for failure to obtain any particular results or for 
#any damages, including, but not limited to, indirect, special or consequential damages, 
#resulting from the use of any information or interpretation provided by Halliburton.
#
~A           TIME           GTDEPTH  GTPQH  GTTQ  GTTN   GTET   GTTVD  
# ...
   01:28:04.450.18-May-2020 4854.01 5486.60 66.64 11.00  22.61 2555.10
   01:28:04.650.18-May-2020 4854.01 5497.51 66.64 11.00  22.81 2555.10
   01:28:04.850.18-May-2020 4854.01 5482.46 66.64 11.00  23.01 2555.10
   01:28:05.050.18-May-2020 4854.01 5482.46 66.64 11.00  23.21 2555.10
   01:28:05.250.18-May-2020 4854.01 5488.12 66.64 11.00  23.41 2555.10
   01:28:05.450.18-May-2020 4854.01 5497.76 66.63 11.00  23.61 2555.10
   01:28:05.650.18-May-2020 4854.01 5488.40 66.64 11.00  23.81 2555.10
   01:28:05.850.18-May-2020 4854.01 5484.67 66.63 11.00  24.01 2555.10
   01:28:06.051.18-May-2020 4854.01 5484.67 66.63 11.00  24.21 2555.10
   01:28:06.251.18-May-2020 4854.01 5488.62 66.63 11.00  24.41 2555.10
   01:28:06.451.18-May-2020 4854.01 5486.22 66.63 11.00  24.61 2555.10
   01:28:06.651.18-May-2020 4854.01 5486.09 66.63 11.00  24.81 2555.10
   01:28:06.851.18-May-2020 4854.01 5485.35 66.63 11.00  25.01 2555.10
   01:28:07.051.18-May-2020 4854.01 5485.35 66.63 11.00  25.21 2555.10
   01:28:07.251.18-May-2020 4854.01 5485.02 66.63 11.00  25.41 2555.10
   01:28:07.451.18-May-2020 4854.01 5498.27 66.63 11.00  25.61 2555.10
   01:28:07.651.18-May-2020 4854.01 5479.51 66.63 11.00  25.81 2555.10
   01:28:07.851.18-May-2020 4854.01 5486.50 66.63 11.00  26.01 2555.10
   01:28:08.051.18-May-2020 4854.01 5486.50 66.63 11.00  26.21 2555.10
   01:28:08.251.18-May-2020 4854.01 5486.86 66.63 11.00  26.41 2555.10
   01:28:08.452.18-May-2020 4854.01 5485.13 66.63 11.00  26.61 2555.10
   01:28:08.652.18-May-2020 4854.01 5485.22 66.63 11.00  26.81 2555.10
   01:28:08.852.18-May-2020 4854.01 5484.48 66.63 11.00  27.01 2555.10
   01:28:09.052.18-May-2020 4854.01 5484.48 66.63 11.00  27.21 2555.10
   01:28:09.252.18-May-2020 4854.01 5484.39 66.63 11.00  27.41 2555.10
   01:28:09.452.18-May-2020 4854.01 5483.88 66.63 11.00  27.61 2555.10
   01:28:09.652.18-May-2020 4854.01 5493.76 66.63 11.00  27.81 2555.10
   01:28:09.852.18-May-2020 4854.01 5483.67 66.63 11.00  28.01 2555.10
   01:28:10.052.18-May-2020 4854.01 5483.67 66.63 11.00  28.21 2555.10
   01:28:10.252.18-May-2020 4854.01 5489.60 66.63 11.00  28.41 2555.10
   01:28:10.452.18-May-2020 4854.01 5499.66 66.63 11.00  28.61 2555.10
   01:28:10.652.18-May-2020 4854.01 5484.40 66.63 11.00  28.81 2555.10
   01:28:10.853.18-May-2020 4854.01 5489.94 66.63 11.00  29.01 2555.10
   01:28:11.053.18-May-2020 4854.01 5489.94 66.63 11.00  29.21 2555.10
   01:28:11.253.18-May-2020 4854.01 5490.43 66.63 11.00  29.41 2555.10
   01:28:11.453.18-May-2020 4854.01 5495.97 66.63 11.00  29.61 2555.10
   01:28:11.653.18-May-2020 4854.01 5492.21 66.63 11.00  29.81 2555.10
   01:28:11.853.18-May-2020 4854.01 5488.44 66.63 11.00  30.01 2555.10
   01:28:12.053.18-May-2020 4854.01 5488.44 66.63 11.00  30.21 2555.10
   01:28:12.253.18-May-2020 4854.01 5501.71 66.63 11.00  30.41 2555.10
   01:28:12.453.18-May-2020 4854.01 5491.44 66.63 11.00  30.61 2555.10
   01:28:12.653.18-May-2020 4854.01 5487.95 66.63 11.00  30.81 2555.10
   01:28:12.853.18-May-2020 4854.01 5492.37 66.63 11.00  31.01 2555.10
   01:28:13.053.18-May-2020 4854.01 5492.37 66.63 11.00  31.21 2555.10
   01:28:13.253.18-May-2020 4854.01 5489.07 66.63 11.00  31.41 2555.10
   01:28:13.454.18-May-2020 4854.01 5488.73 66.63 11.00  31.61 2555.10
   01:28:13.654.18-May-2020 4854.01 5488.16 66.63 11.00  31.81 2555.10
   01:28:13.854.18-May-2020 4854.01 5488.25 66.63 11.00  32.01 2555.10
   01:28:14.054.18-May-2020 4854.01 5488.25 66.63 11.00  32.21 2555.10
   01:28:14.254.18-May-2020 4854.01 5487.02 66.63 11.00  32.41 2555.10
   01:28:14.454.18-May-2020 4854.01 5496.84 66.63 11.00  32.61 2555.10
   01:28:14.654.18-May-2020 4854.01 5485.88 66.63 11.00  32.81 2555.10
   01:28:14.854.18-May-2020 4854.01 5490.10 66.63 11.00  33.01 2555.10
   01:28:15.054.18-May-2020 4854.01 5490.10 66.63 11.00  33.21 2555.10
   01:28:15.254.18-May-2020 4854.01 5488.48 66.63 11.00  33.41 2555.10
   01:28:15.454.18-May-2020 4854.01 5488.79 66.63 11.00  33.61 2555.10
   01:28:15.654.18-May-2020 4854.01 5488.24 66.63 11.00  33.81 2555.10
   01:28:15.855.18-May-2020 4854.01 5487.75 66.63 11.00  34.01 2555.10
   01:28:16.055.18-May-2020 4854.01 5487.75 66.63 11.00  34.21 2555.10
   01:28:16.255.18-May-2020 4854.01 5486.78 66.63 11.00  34.41 2555.10
   01:28:16.455.18-May-2020 4854.01 5487.00 66.63 11.00  34.61 2555.10
   01:28:16.655.18-May-2020 4854.01 5486.75 66.63 11.00  34.81 2555.10
   01:28:16.855.18-May-2020 4854.01 5497.72 66.63 11.00  35.01 2555.10
   01:28:17.055.18-May-2020 4854.01 5497.72 66.63 11.00  35.21 2555.10
   01:28:17.255.18-May-2020 4854.01 5486.32 66.63 11.00  35.41 2555.10
   01:28:17.455.18-May-2020 4854.01 5491.47 66.63 11.00  35.61 2555.10
   01:28:17.655.18-May-2020 4854.01 5503.76 66.63 11.00  35.81 2555.10
   01:28:17.855.18-May-2020 4854.01 5487.85 66.63 11.00  36.01 2555.10
   01:28:18.055.18-May-2020 4854.01 5487.85 66.63 11.00  36.21 2555.10
   01:28:18.255.18-May-2020 4854.01 5492.69 66.63 11.00  36.41 2555.10
   01:28:18.456.18-May-2020 4854.01 5503.38 66.63 11.00  36.61 2555.10
   01:28:18.656.18-May-2020 4854.01 5510.76 66.63 11.00  36.81 2555.10
   01:28:18.856.18-May-2020 4854.01 5549.23 66.63 11.00  37.01 2555.10
   01:28:19.056.18-May-2020 4854.01 5549.23 66.63 11.00  37.22 2555.10
   01:28:19.256.18-May-2020 4854.01 5567.85 66.63 11.00  37.42 2555.10
   01:28:19.456.18-May-2020 4854.01 5580.01 66.63 11.00  37.62 2555.10
   01:28:19.656.18-May-2020 4854.01 5592.46 66.63 11.00  37.82 2555.10
   01:28:19.856.18-May-2020 4854.01 5613.58 66.63 11.00  38.02 2555.10
   01:28:20.056.18-May-2020 4854.01 5613.58 66.63 11.00  38.22 2555.10
   01:28:20.256.18-May-2020 4854.01 5649.46 66.63 11.00  38.42 2555.10
   01:28:20.456.18-May-2020 4854.01 5660.27 66.63 11.00  38.62 2555.10
   01:28:20.656.18-May-2020 4854.01 5663.25 66.63 11.00  38.82 2555.10
   01:28:20.857.18-May-2020 4854.01 5661.76 66.63 11.00  39.02 2555.10
   01:28:21.057.18-May-2020 4854.01 5661.76 66.63 11.00  39.22 2555.10
   01:28:21.257.18-May-2020 4854.01 5655.74 66.63 11.00  39.42 2555.10
   01:28:21.457.18-May-2020 4854.01 5655.49 66.63 11.00  39.62 2555.10
   01:28:21.657.18-May-2020 4854.01 5654.60 66.63 11.00  39.82 2555.10
   01:28:21.857.18-May-2020 4854.01 5653.14 66.63 11.00  40.02 2555.10
   01:28:22.057.18-May-2020 4854.01 5653.14 66.63 11.00  40.22 2555.10
   01:28:22.257.18-May-2020 4854.01 5650.63 66.63 11.00  40.42 2555.10
   01:28:22.457.18-May-2020 4854.01 5649.63 66.63 11.00  40.62 2555.10
   01:28:22.657.18-May-2020 4854.01 5648.52 66.63 11.00  40.82 2555.10
   01:28:22.857.18-May-2020 4854.01 5646.72 66.63 11.00  41.02 2555.10
   01:28:23.057.18-May-2020 4854.01 5646.72 66.63 11.00  41.22 2555.10
   01:28:23.258.18-May-2020 4854.01 5643.73 66.63 11.00  41.42 2555.10
   01:28:23.458.18-May-2020 4854.01 5644.54 66.63 11.00  41.62 2555.10
   01:28:23.658.18-May-2020 4854.01 5644.25 66.63 11.00  41.82 2555.10
   01:28:23.858.18-May-2020 4854.01 5644.34 66.63 11.00  42.02 2555.10
   01:28:24.058.18-May-2020 4854.01 5644.34 66.63 11.00  42.22 2555.10
   01:28:24.258.18-May-2020 4854.01 5645.89 66.63 11.00  42.42 2555.10
   01:28:24.458.18-May-2020 4854.01 5646.98 66.63 11.00  42.62 2555.10
   01:28:24.658.18-May-2020 4854.01 5648.43 66.63 11.00  42.82 2555.10
   01:28:24.858.18-May-2020 4854.01 5456.75 66.63 11.00  43.02 2555.10
   01:28:25.058.18-May-2020 4854.01 5456.75 66.63 11.00  43.22 2555.10
   01:28:25.258.18-May-2020 4854.01 4091.18 66.63 11.00  43.42 2555.10
   01:28:25.458.18-May-2020 4854.01 3381.41 66.63 11.00  43.62 2555.10
   01:28:25.658.18-May-2020 4854.01 2802.82 66.63 11.00  43.82 2555.10
   01:28:25.859.18-May-2020 4854.01 3110.69 66.63 11.00  44.02 2555.10
   01:28:26.059.18-May-2020 4854.01 3110.69 66.63 11.00  44.22 2555.10
   01:28:26.259.18-May-2020 4854.01 3118.19 66.62 11.00  44.42 2555.10
   01:28:26.459.18-May-2020 4854.01 3119.86 66.62 11.00  44.62 2555.10
   01:28:26.659.18-May-2020 4854.01 3123.69 66.62 11.00  44.82 2555.10
   01:28:26.859.18-May-2020 4854.01 3123.79 66.62 11.00  45.02 2555.10
