~Version Information
 VERS.                  2.0:   CWLS log ASCII Standard -VERSION 2.0
 WRAP.                   NO:   One line per depth step
~Well Information Block
#MNEM.UNIT     VALUE/NAME     DESCRIPTION
#---------     -----------    ---------------------------
 STRT.S             19:37:06 17-May-20: START TIME 19:37:06 17-May-20
 STOP.S             19:44:11 17-May-20: STOP TIME  19:44:11 17-May-20
 STEP.S                   0.00: STEP TIME
 NULL.                 -999.25: NULL VALUE
 UNIT.                     N/A:  LOGGING EQUIPMENT ID
 DCON.         Sperry Drilling:  DIRECTNL CONTR
 DOE .                     N/A:  DOE NUMBER
 JOBN.        AZ-XX-0906252240:  JOB TICKET NUMB
 MWDS.                     N/A:  MWD SHOP
 PROV.                    Baku:  PROVINCE
 STAT.                    Baku:  STATE NAME
 REGN.                   EESSA:  REGION
 BASE.              Azerbaijan:  LOGGING EQUIPMENT BASE LOCATION
 UWI .                     N/A:  UNIQUE WELL IDENTIFIER
 API .                     N/A:  API NUMBER
 MDS .        Operator Entered:  MAG DATA SOURCE
 WTYP.                Deviated:  WELL TYPE
 COMP.     BP Exploration (Caspian Sea) Ltd.:  COMPANY
 SRVC.          Turan Drilling:  CONTRACTOR
 WELL.           J23 (Slot 07):  WELL NAME
 CTRY.              Azerbaijan:  COUNTRY NAME
 FLD .                     ACG:  FIELD NAME
 PDAT.          Mean Sea Level:  PERMANENT DATUM
 RIG .             West Chirag:  RIG NAME
 SON .        AZ-XX-0906252240:  JOB NUMBER
 FTOP.          Formation Tops:  FORM TOPS DESC
 ILTD.               Lithology:  INTERP LTH DESC
 SVYD.                  Survey:  SURVEY DESC
 DMOD.             Drill Model:  DRILL MOD DESC
 HPTY.       Minimum Curvature:  HOLE POS TYPE
 NREF.                    Grid:  NORTH REFERENCE
 SPUD.               27-Aug-20:  SPUD DATE
 DATE.      00.00.00 19-May-20:  END TIME
 STIM.      03.00.00 25-Mar-20:  START TIME
 DMF .             Drill Floor:  DRILL MEAS FROM
 DFST.                        :  DIST FSL TEXT
 DFWT.                        :  DIST FWL TEXT
 CNTY.                        :  COUNTY
 LOC .                        :  LOCATION
 LMF .             Drill Floor:  LOG MEASURED FROM
 VSNS.m                   9.43:  VERT SEC N/S
 VSEW.m                  -8.91:  VERT SEC E/W
 AGAP.m                  43.00:  AIR GAP
 DEP .m                 354.17:  DEPTH
 APD .m                  43.00:  DEPTH ABOVE PD
 WDMS.m                 169.80:  WD ELEV
 EGL .m                   0.00:  GROUND ELEVATION
 EPD .m                   0.00:  ELEVATION
 AZTC.deg                 6.31:  AZM TOTAL CORR
 GRDC.deg                 0.14:  GRID CORRECTION
 MDEC.deg                 6.45:  MAGNETIC DECL
 MDIP.deg                59.56:  MAGNETIC DIP
 MFLD.nT              50295.00:  MAGNETIC FIELD
 GVFD.g                   1.00:  GRAVITY FIELD
 VSDR.deg               179.88:  VERT SEC DIRECT
 TDD .m                5150.01:  TOTAL DEPTH (DRILLER)
 SDEP.m                 864.00:  START DEPTH
 DFSL.m                   0.00:  DISTANCE FSL
 DFWL.m                   0.00:  DISTANCE FWL
 UTMY.m             4443793.85:  UTM Y
 UTMX.m              519005.06:  UTM X
 WHEW.m                  -8.91:  WELL HEAD E/W
 WHNS.m                   9.43:  WELL HEAD N/S
 LONG.deg                51.22:  LONGITUDE
 LATI.deg                40.13:  LATITUDE
 TVDS.m                  43.00:  TVDSS CORRECTN
 EKB .m                   0.00:  KB ELEVATION
 EDF .m                  43.00:  DF ELEVATION
 TDL .m                 363.00:  TOTAL DEPTH (LOGGER)
 MAGU.                 1850802:  MAGUTM CHECKSUM
 VSC .                       0:  VS TO CLOSURE
~Parameter Information Block
#MNEM.UNIT       Value        Description
#---------     -----------    ---------------------------
 AV  .mps                 2.30:  Ann Velocity 
 AVMX.mps                 4.40:  Max Ann Veloc 
 AZIF.deg               110.24:  Azm, Final 
 BHAT.        Rotary Steerable:  BHA Type 
 BREV.rev               331.00:  Rev Bit Total 
 BROT.°/30m               0.00:  Build Rotating 
 BS  .in                  8.50:  Bit Size 
 BSZ .in                  8.50:  Bit Size 
 BTPL.psig              585.00:  Bit Press Loss 
 CABU.                     Yes:  Customer Abuse 
 TCS .hr                122.75:  Time Ciculation Ended 
 CV  .mps                 2.67:  Crit Velocity 
 CVMX.mps                 3.56:  Max Crit Veloc 
 DD1 .          Rashad Habibov:  Direct Drillr 1 
 DD2 .         Rasim Ibrahimov:  Direct Drillr 2 
 DDSV.               Geo-Pilot:  DD Service 
 DEFF.%                  98.00:  % Det Eff 
 DLRX.°/30m               0.75:  Dogleg Rot Max 
 DLSO.°/30m               1.25:  Dogleg Oriented 
 DLSX.°/30m               2.06:  Dogleg Str Max 
 DRET.      07.45.00 17-May-20:  Drill End Time 
 DRST.      22.50.00 15-May-20:  Drill Start Tim 
 DTIM.hr                 20.75:  Time Drilling 
 EDEP.m                5124.01:  End Depth 
 ENG1.           Eldar Hajiyev:  Engineer 1 
 ENG2.        Marcelo Sandoval:  Engineer 2 
 ENG3.        Davud huseynzada:  Engineer 3 
 ENG4.          Ruslan Safarov:  Engineer 4 
 ETIM.      04.33.00 23-May-20:  End Time 
 FLOI.gpm               450.00:  Flow In 
 FLON.gpm               400.00:  Flow In Min 
 FLOS.cptm                0.00:  Fluid Loss 
 FLOX.gpm               500.00:  Flow In Max 
 FTRO.       Formation Presure:  FTWD Run Obj 
 HFLO.                      No:  High Flow 
 HPRE.                     Yes:  High Pressure 
 HTEM.                      No:  High Temp 
 HYDO.m                   1.80:  Hydro Offset 
 IFIN.deg                75.06:  Inc, Final 
 IMAX.deg                75.38:  Inc Max 
 IMIN.deg                74.69:  Inc Min 
 IMND.m                5027.38:  Inc Min Depth 
 IMXD.m                4771.61:  Inc Max Depth 
 JARR.                      No:  Jarring 
 LETM.      07.45.00 17-May-20:  Log End Time 
 LOST.hr                     0:  Lost Rig Time 
 LSTM.      22.50.00 15-May-20:  Log Start Time 
 MDCL.ppm             42000.00:  Mud Chlorides 
 MDES.     Inversion Oil/Synthetic:  Mud Desc 
 DFD .sg                  1.34:  Mud Density 
 MDMN.sg                  1.34:  Dens Mud Min 
 MDMX.sg                  1.34:  Dens Mud Max 
 MOIL.                       0:  Run Mud Oil % 
 MOWR.                   67:33:  Run Mud OWR 
 MSND.                       0:  Run Mud Sand % 
 MSOL.                     1.8:  Run Mud Solids% 
 DFV .spqt               76.00:  Mud Viscosity 
 MWOD.in                  6.75:  MWD Tool OD 
 MWSI.                      No:  Serv Intrp, MWD 
 OTIM.hr                228.19:  Time Operating 
 PCON.           Look Like New:  Pad Condition 
 PMAX.psia             6164.70:  Press Op, Max 
 PV  .cP                 28.00:  Mud PV 
 RUN .                     900:  Run Number 
 ROPA.m/hr               19.00:  ROP Avg 
 ROPN.m/hr               11.00:  ROP Min 
 ROPX.m/hr               36.00:  ROP Max 
 RPMA.rpm               120.00:  RPM Surface Avg 
 RPMN.rpm               120.00:  RPM Surface Min 
 RPMX.rpm               120.00:  RPM Surface Max 
 RRUN.                    L604:  Rig Run Number 
 RTIM.hr                  7.00:  Time Reaming 
 SAZI.deg               109.27:  Azm, Start 
 SDEP.m                4761.01:  Start Depth 
 SIDD.                      No:  Serv Intrp, DD 
 SINC.deg                75.38:  Inc, Start 
 SPPA.psig             3574.00:  SPP Avg 
 SPPN.psig             3475.00:  SPP Min 
 SPPX.psig             3791.00:  SPP Max 
 STIM.      07.08.48 13-May-20:  Start Time 
 SVCS.                 DD, MWD:  Services 
 SVER.                    9.20:  Sperry Version 
 TDAT.m                 363.00:  Tot Depth Attmp 
 TDDF.                      No:  Trip for DD 
 TDLG.m                 363.00:  Tot Depth Loggd 
 TFF .                      No:  Trip for Fail 
 TQAA.f-kp               20.00:  Torque Abs Avg 
 TQAN.f-kp               18.00:  Torque Abs Min 
 TQAX.f-kp               22.00:  Torque Abs Max 
 TRRT.°/30m              -0.35:  Turn Rotating 
 MRT .                    HCIM:  Maximum Recorded Temperature 
 TTMX.degC               92.16:  Max Tool Temp 
 VS01.                90586518:  Virtual Str1 SN 
 VS02.        AZ90560654Z1W1C6:  Virtual Str2 SN 
 VS03.           AZ90610398F11:  Virtual Str3 SN 
 VS04.                90514975:  Virtual Str4 SN 
 VS05.                90514972:  Virtual Str5 SN 
 VS06.     AZ90603282F11V7D1A6:  Virtual Str6 SN 
 WBMN.klb                 7.00:  WOB Min 
 WOBA.klb                12.00:  WOB Avg 
 WOBX.klb                14.00:  WOB Max 
 YP  .lhf2               32.00:  Yield Point 
~Curve Information Block
#MNEM.UNIT                 API CODE     Curve Description
#---------               -----------    ---------------------------
 TIME.HHMMSS            00 000 000 000:  GT Time & Date
 GTDEPTH.m              00 000 000 000:  GT Depth
 GTPQH.psia             00 000 000 000:  GT HR Quartz Pressure
 GTTQ.degC              00 000 000 000:  GT Quartz Temperature
 GTTN.NONE              00 000 000 000:  GT Test Number
 GTET.sec               00 000 000 000:  GT Elapsed Test Time
 GTTVD.m                00 000 000 000:  GT True Vertical Depth
#Other Information
#
#WARRANTY: Halliburton will use its best efforts to furnish customers with 
#accurate information and interpretations that are part of, and incident to, the services 
#provided.  However, Halliburton cannot and does not warrant the accuracy 
#or correctness of such information and interpretations.  Under no circumstances should any 
#such information or interpretation be relied upon as the sole basis for any drilling, 
#completion, production, or financial decision or any procedure involving any risk to the 
#safety of any drilling venture, drilling rig or its crew or any other third party.  The 
#Customer has full responsibility for all drilling, completion and production operation.  
#Halliburton makes no representations or warranties, either expressed or 
#implied, including, but not limited to, the implied warranties of merchantability or fitness 
#for a particular purpose, with respect to the services rendered.  In no event will 
#Halliburton be liable for failure to obtain any particular results or for 
#any damages, including, but not limited to, indirect, special or consequential damages, 
#resulting from the use of any information or interpretation provided by Halliburton.
#
~A           TIME           GTDEPTH  GTPQH  GTTQ  GTTN  GTET   GTTVD  
# ...
   19:37:52.606.17-May-2020 4994.01 5395.71 69.96 4.00  46.00 2591.05
   19:37:52.806.17-May-2020 4994.01 5395.71 69.96 4.00  46.20 2591.05
   19:37:53.006.17-May-2020 4994.01 5397.73 69.96 4.00  46.40 2591.05
   19:37:53.206.17-May-2020 4994.01 5398.85 69.96 4.00  46.60 2591.05
   19:37:53.406.17-May-2020 4994.01 5411.29 69.96 4.00  46.80 2591.05
   19:37:53.606.17-May-2020 4994.01 5162.89 69.96 4.00  47.00 2591.05
   19:37:53.806.17-May-2020 4994.01 4308.99 69.96 4.00  47.20 2591.05
   19:37:54.006.17-May-2020 4994.01 3405.12 69.96 4.00  47.40 2591.05
   19:37:54.206.17-May-2020 4994.01 2688.91 69.96 4.00  47.60 2591.05
   19:37:54.406.17-May-2020 4994.01 2896.07 69.96 4.00  47.80 2591.05
   19:37:54.606.17-May-2020 4994.01 2910.00 69.96 4.00  48.00 2591.05
   19:37:54.806.17-May-2020 4994.01 2910.00 69.96 4.00  48.20 2591.05
   19:37:55.006.17-May-2020 4994.01 2912.61 69.95 4.00  48.40 2591.05
   19:37:55.206.17-May-2020 4994.01 2913.66 69.95 4.00  48.60 2591.05
   19:37:55.406.17-May-2020 4994.01 2915.18 69.95 4.00  48.80 2591.05
   19:37:55.606.17-May-2020 4994.01 2912.21 69.95 4.00  49.00 2591.05
   19:37:55.806.17-May-2020 4994.01 2912.21 69.95 4.00  49.20 2591.05
   19:37:56.006.17-May-2020 4994.01 2911.59 69.95 4.00  49.40 2591.05
   19:37:56.206.17-May-2020 4994.01 2913.41 69.94 4.00  49.60 2591.05
   19:37:56.406.17-May-2020 4994.01 2913.98 69.94 4.00  49.80 2591.05
   19:37:56.606.17-May-2020 4994.01 2914.16 69.94 4.00  50.00 2591.05
   19:37:56.806.17-May-2020 4994.01 2914.16 69.94 4.00  50.20 2591.05
   19:37:57.006.17-May-2020 4994.01 2913.18 69.94 4.00  50.40 2591.05
   19:37:57.206.17-May-2020 4994.01 2913.40 69.93 4.00  50.60 2591.05
   19:37:57.406.17-May-2020 4994.01 2910.81 69.93 4.00  50.80 2591.05
   19:37:57.606.17-May-2020 4994.01 2910.53 69.93 4.00  51.00 2591.05
   19:37:57.806.17-May-2020 4994.01 2910.53 69.93 4.00  51.20 2591.05
   19:37:58.006.17-May-2020 4994.01 2911.76 69.92 4.00  51.40 2591.05
   19:37:58.206.17-May-2020 4994.01 2912.66 69.92 4.00  51.60 2591.05
   19:37:58.406.17-May-2020 4994.01 2912.33 69.92 4.00  51.80 2591.05
   19:37:58.606.17-May-2020 4994.01 2910.95 69.92 4.00  52.00 2591.05
   19:37:58.806.17-May-2020 4994.01 2910.95 69.92 4.00  52.20 2591.05
   19:37:59.006.17-May-2020 4994.01 2910.30 69.91 4.00  52.40 2591.05
   19:37:59.206.17-May-2020 4994.01 2910.19 69.91 4.00  52.60 2591.05
   19:37:59.406.17-May-2020 4994.01 2910.00 69.91 4.00  52.80 2591.05
   19:37:59.606.17-May-2020 4994.01 2910.14 69.91 4.00  53.00 2591.05
   19:37:59.806.17-May-2020 4994.01 2910.72 69.91 4.00  53.20 2591.05
   19:38:00.006.17-May-2020 4994.01 2910.86 69.90 4.00  53.40 2591.05
   19:38:00.206.17-May-2020 4994.01 2911.22 69.90 4.00  53.60 2591.05
   19:38:00.406.17-May-2020 4994.01 2911.34 69.90 4.00  53.80 2591.05
   19:38:00.606.17-May-2020 4994.01 2911.43 69.90 4.00  54.00 2591.05
   19:38:00.806.17-May-2020 4994.01 2911.43 69.90 4.00  54.20 2591.05
   19:38:01.006.17-May-2020 4994.01 2911.82 69.90 4.00  54.40 2591.05
   19:38:01.206.17-May-2020 4994.01 2910.88 69.90 4.00  54.60 2591.05
   19:38:01.406.17-May-2020 4994.01 2910.58 69.89 4.00  54.80 2591.05
   19:38:01.606.17-May-2020 4994.01 2910.17 69.89 4.00  55.00 2591.05
   19:38:01.805.17-May-2020 4994.01 2910.17 69.89 4.00  55.20 2591.05
   19:38:02.005.17-May-2020 4994.01 2909.97 69.89 4.00  55.40 2591.05
   19:38:02.205.17-May-2020 4994.01 2909.63 69.89 4.00  55.60 2591.05
   19:38:02.405.17-May-2020 4994.01 2910.09 69.89 4.00  55.80 2591.05
   19:38:02.605.17-May-2020 4994.01 2910.39 69.89 4.00  56.00 2591.05
   19:38:02.805.17-May-2020 4994.01 2910.39 69.89 4.00  56.20 2591.05
   19:38:03.005.17-May-2020 4994.01 2910.52 69.89 4.00  56.40 2591.05
   19:38:03.205.17-May-2020 4994.01 2910.02 69.88 4.00  56.60 2591.05
   19:38:03.405.17-May-2020 4994.01 2914.61 69.88 4.00  56.80 2591.05
   19:38:03.605.17-May-2020 4994.01 2916.82 69.88 4.00  57.00 2591.05
   19:38:03.805.17-May-2020 4994.01 2916.82 69.88 4.00  57.20 2591.05
   19:38:04.005.17-May-2020 4994.01 2916.96 69.88 4.00  57.40 2591.05
   19:38:04.205.17-May-2020 4994.01 2916.94 69.88 4.00  57.60 2591.05
   19:38:04.405.17-May-2020 4994.01 2916.97 69.88 4.00  57.80 2591.05
   19:38:04.605.17-May-2020 4994.01 2916.99 69.88 4.00  58.00 2591.05
   19:38:04.805.17-May-2020 4994.01 2916.99 69.88 4.00  58.20 2591.05
   19:38:05.005.17-May-2020 4994.01 2917.14 69.88 4.00  58.40 2591.05
   19:38:05.205.17-May-2020 4994.01 2916.97 69.88 4.00  58.60 2591.05
   19:38:05.405.17-May-2020 4994.01 2917.01 69.88 4.00  58.80 2591.05
   19:38:05.605.17-May-2020 4994.01 2917.10 69.88 4.00  59.00 2591.05
   19:38:05.805.17-May-2020 4994.01 2917.10 69.88 4.00  59.20 2591.05
   19:38:06.005.17-May-2020 4994.01 2917.15 69.88 4.00  59.40 2591.05
   19:38:06.205.17-May-2020 4994.01 2917.17 69.88 4.00  59.60 2591.05
   19:38:06.405.17-May-2020 4994.01 2917.18 69.87 4.00  59.80 2591.05
   19:38:06.605.17-May-2020 4994.01 2917.17 69.87 4.00  60.00 2591.05
   19:38:06.805.17-May-2020 4994.01 2917.17 69.87 4.00  60.20 2591.05
   19:38:07.005.17-May-2020 4994.01 2917.22 69.87 4.00  60.40 2591.05
   19:38:07.205.17-May-2020 4994.01 2917.04 69.87 4.00  60.60 2591.05
   19:38:07.405.17-May-2020 4994.01 2917.02 69.87 4.00  60.80 2591.05
   19:38:07.605.17-May-2020 4994.01 2917.10 69.87 4.00  61.00 2591.05
   19:38:07.805.17-May-2020 4994.01 2917.10 69.87 4.00  61.20 2591.05
   19:38:08.005.17-May-2020 4994.01 2917.02 69.87 4.00  61.40 2591.05
   19:38:08.205.17-May-2020 4994.01 2917.03 69.87 4.00  61.60 2591.05
   19:38:08.405.17-May-2020 4994.01 2917.10 69.87 4.00  61.80 2591.05
   19:38:08.605.17-May-2020 4994.01 2917.17 69.87 4.00  62.00 2591.05
   19:38:08.805.17-May-2020 4994.01 2917.17 69.87 4.00  62.20 2591.05
   19:38:09.005.17-May-2020 4994.01 2916.96 69.87 4.00  62.40 2591.05
   19:38:09.205.17-May-2020 4994.01 2917.05 69.87 4.00  62.60 2591.05
   19:38:09.405.17-May-2020 4994.01 2917.17 69.87 4.00  62.80 2591.05
   19:38:09.605.17-May-2020 4994.01 2917.03 69.87 4.00  63.00 2591.05
   19:38:09.805.17-May-2020 4994.01 2917.03 69.87 4.00  63.20 2591.05
   19:38:10.005.17-May-2020 4994.01 2917.11 69.87 4.00  63.40 2591.05
   19:38:10.205.17-May-2020 4994.01 2917.13 69.87 4.00  63.60 2591.05
   19:38:10.405.17-May-2020 4994.01 2917.21 69.87 4.00  63.80 2591.05
   19:38:10.605.17-May-2020 4994.01 2917.23 69.87 4.00  64.00 2591.05
   19:38:10.805.17-May-2020 4994.01 2917.23 69.87 4.00  64.20 2591.05
   19:38:11.005.17-May-2020 4994.01 2917.26 69.87 4.00  64.40 2591.05
   19:38:11.205.17-May-2020 4994.01 2917.27 69.87 4.00  64.60 2591.05
   19:38:11.405.17-May-2020 4994.01 2917.28 69.87 4.00  64.79 2591.05
   19:38:11.605.17-May-2020 4994.01 2917.31 69.87 4.00  64.99 2591.05
   19:38:11.805.17-May-2020 4994.01 2917.31 69.87 4.00  65.19 2591.05
   19:38:12.005.17-May-2020 4994.01 2917.12 69.87 4.00  65.39 2591.05
   19:38:12.205.17-May-2020 4994.01 2917.19 69.87 4.00  65.59 2591.05
   19:38:12.405.17-May-2020 4994.01 2917.21 69.87 4.00  65.79 2591.05
   19:38:12.605.17-May-2020 4994.01 2917.27 69.87 4.00  65.99 2591.05
   19:38:12.805.17-May-2020 4994.01 2917.27 69.87 4.00  66.19 2591.05
   19:38:13.005.17-May-2020 4994.01 2917.32 69.87 4.00  66.39 2591.05
   19:38:13.205.17-May-2020 4994.01 2917.32 69.87 4.00  66.59 2591.05
   19:38:13.405.17-May-2020 4994.01 2917.34 69.87 4.00  66.79 2591.05
   19:38:13.605.17-May-2020 4994.01 2917.38 69.87 4.00  66.99 2591.05
   19:38:13.805.17-May-2020 4994.01 2917.38 69.87 4.00  67.19 2591.05
   19:38:14.005.17-May-2020 4994.01 2917.15 69.87 4.00  67.39 2591.05
   19:38:14.205.17-May-2020 4994.01 2917.22 69.87 4.00  67.59 2591.05
   19:38:14.405.17-May-2020 4994.01 2917.27 69.87 4.00  67.79 2591.05
   19:38:14.605.17-May-2020 4994.01 2917.12 69.87 4.00  67.99 2591.05
   19:38:14.804.17-May-2020 4994.01 2917.12 69.87 4.00  68.19 2591.05
   19:38:15.004.17-May-2020 4994.01 2917.24 69.87 4.00  68.39 2591.05
   19:38:15.204.17-May-2020 4994.01 2917.27 69.87 4.00  68.59 2591.05
   19:38:15.404.17-May-2020 4994.01 2917.22 69.87 4.00  68.79 2591.05
