~Version Information
 VERS.                  2.0:   CWLS log ASCII Standard -VERSION 2.0
 WRAP.                   NO:   One line per depth step
~Well Information Block
#MNEM.UNIT     VALUE/NAME     DESCRIPTION
#---------     -----------    ---------------------------
 STRT.S             22:49:31 17-May-20: START TIME 22:49:31 17-May-20
 STOP.S             22:56:24 17-May-20: STOP TIME  22:56:24 17-May-20
 STEP.S                   0.00: STEP TIME
 NULL.                 -999.25: NULL VALUE
 UNIT.                     N/A:  LOGGING EQUIPMENT ID
 DCON.         Sperry Drilling:  DIRECTNL CONTR
 DOE .                     N/A:  DOE NUMBER
 JOBN.        AZ-XX-0906252240:  JOB TICKET NUMB
 MWDS.                     N/A:  MWD SHOP
 PROV.                    Baku:  PROVINCE
 STAT.                    Baku:  STATE NAME
 REGN.                   EESSA:  REGION
 BASE.              Azerbaijan:  LOGGING EQUIPMENT BASE LOCATION
 UWI .                     N/A:  UNIQUE WELL IDENTIFIER
 API .                     N/A:  API NUMBER
 MDS .        Operator Entered:  MAG DATA SOURCE
 WTYP.                Deviated:  WELL TYPE
 COMP.     BP Exploration (Caspian Sea) Ltd.:  COMPANY
 SRVC.          Turan Drilling:  CONTRACTOR
 WELL.           J23 (Slot 07):  WELL NAME
 CTRY.              Azerbaijan:  COUNTRY NAME
 FLD .                     ACG:  FIELD NAME
 PDAT.          Mean Sea Level:  PERMANENT DATUM
 RIG .             West Chirag:  RIG NAME
 SON .        AZ-XX-0906252240:  JOB NUMBER
 FTOP.          Formation Tops:  FORM TOPS DESC
 ILTD.               Lithology:  INTERP LTH DESC
 SVYD.                  Survey:  SURVEY DESC
 DMOD.             Drill Model:  DRILL MOD DESC
 HPTY.       Minimum Curvature:  HOLE POS TYPE
 NREF.                    Grid:  NORTH REFERENCE
 SPUD.               27-Aug-20:  SPUD DATE
 DATE.      00.00.00 19-May-20:  END TIME
 STIM.      03.00.00 25-Mar-20:  START TIME
 DMF .             Drill Floor:  DRILL MEAS FROM
 DFST.                        :  DIST FSL TEXT
 DFWT.                        :  DIST FWL TEXT
 CNTY.                        :  COUNTY
 LOC .                        :  LOCATION
 LMF .             Drill Floor:  LOG MEASURED FROM
 VSNS.m                   9.43:  VERT SEC N/S
 VSEW.m                  -8.91:  VERT SEC E/W
 AGAP.m                  43.00:  AIR GAP
 DEP .m                 354.17:  DEPTH
 APD .m                  43.00:  DEPTH ABOVE PD
 WDMS.m                 169.80:  WD ELEV
 EGL .m                   0.00:  GROUND ELEVATION
 EPD .m                   0.00:  ELEVATION
 AZTC.deg                 6.31:  AZM TOTAL CORR
 GRDC.deg                 0.14:  GRID CORRECTION
 MDEC.deg                 6.45:  MAGNETIC DECL
 MDIP.deg                59.56:  MAGNETIC DIP
 MFLD.nT              50295.00:  MAGNETIC FIELD
 GVFD.g                   1.00:  GRAVITY FIELD
 VSDR.deg               179.88:  VERT SEC DIRECT
 TDD .m                5150.01:  TOTAL DEPTH (DRILLER)
 SDEP.m                 864.00:  START DEPTH
 DFSL.m                   0.00:  DISTANCE FSL
 DFWL.m                   0.00:  DISTANCE FWL
 UTMY.m             4443793.85:  UTM Y
 UTMX.m              519005.06:  UTM X
 WHEW.m                  -8.91:  WELL HEAD E/W
 WHNS.m                   9.43:  WELL HEAD N/S
 LONG.deg                51.22:  LONGITUDE
 LATI.deg                40.13:  LATITUDE
 TVDS.m                  43.00:  TVDSS CORRECTN
 EKB .m                   0.00:  KB ELEVATION
 EDF .m                  43.00:  DF ELEVATION
 TDL .m                 363.00:  TOTAL DEPTH (LOGGER)
 MAGU.                 1850802:  MAGUTM CHECKSUM
 VSC .                       0:  VS TO CLOSURE
~Parameter Information Block
#MNEM.UNIT       Value        Description
#---------     -----------    ---------------------------
 AV  .mps                 2.30:  Ann Velocity 
 AVMX.mps                 4.40:  Max Ann Veloc 
 AZIF.deg               110.24:  Azm, Final 
 BHAT.        Rotary Steerable:  BHA Type 
 BREV.rev               331.00:  Rev Bit Total 
 BROT.°/30m               0.00:  Build Rotating 
 BS  .in                  8.50:  Bit Size 
 BSZ .in                  8.50:  Bit Size 
 BTPL.psig              585.00:  Bit Press Loss 
 CABU.                     Yes:  Customer Abuse 
 COMM.                     ¼´€:  Run Comments 1 
 TCS .hr                122.75:  Time Ciculation Ended 
 CV  .mps                 2.67:  Crit Velocity 
 CVMX.mps                 3.56:  Max Crit Veloc 
 DD1 .          Rashad Habibov:  Direct Drillr 1 
 DD2 .         Rasim Ibrahimov:  Direct Drillr 2 
 DDSV.               Geo-Pilot:  DD Service 
 DEFF.%                  98.00:  % Det Eff 
 DLRX.°/30m               0.75:  Dogleg Rot Max 
 DLSO.°/30m               1.25:  Dogleg Oriented 
 DLSX.°/30m               2.06:  Dogleg Str Max 
 DRET.      07.45.00 17-May-20:  Drill End Time 
 DRST.      22.50.00 15-May-20:  Drill Start Tim 
 DTIM.hr                 20.75:  Time Drilling 
 EDEP.m                5124.01:  End Depth 
 ENG1.           Eldar Hajiyev:  Engineer 1 
 ENG2.        Marcelo Sandoval:  Engineer 2 
 ENG3.        Davud huseynzada:  Engineer 3 
 ENG4.          Ruslan Safarov:  Engineer 4 
 ETIM.      04.33.00 23-May-20:  End Time 
 FLOI.gpm               450.00:  Flow In 
 FLON.gpm               400.00:  Flow In Min 
 FLOS.cptm                0.00:  Fluid Loss 
 FLOX.gpm               500.00:  Flow In Max 
 FTRO.       Formation Presure:  FTWD Run Obj 
 HFLO.                      No:  High Flow 
 HPRE.                     Yes:  High Pressure 
 HTEM.                      No:  High Temp 
 HYDO.m                   1.80:  Hydro Offset 
 IFIN.deg                75.06:  Inc, Final 
 IMAX.deg                75.38:  Inc Max 
 IMIN.deg                74.69:  Inc Min 
 IMND.m                5027.38:  Inc Min Depth 
 IMXD.m                4771.61:  Inc Max Depth 
 JARR.                      No:  Jarring 
 LETM.      07.45.00 17-May-20:  Log End Time 
 LOST.hr                     0:  Lost Rig Time 
 LSTM.      22.50.00 15-May-20:  Log Start Time 
 MDCL.ppm             42000.00:  Mud Chlorides 
 MDES.     Inversion Oil/Synthetic:  Mud Desc 
 DFD .sg                  1.34:  Mud Density 
 MDMN.sg                  1.34:  Dens Mud Min 
 MDMX.sg                  1.34:  Dens Mud Max 
 MOIL.                       0:  Run Mud Oil % 
 MOWR.                   67:33:  Run Mud OWR 
 MSND.                       0:  Run Mud Sand % 
 MSOL.                     1.8:  Run Mud Solids% 
 DFV .spqt               76.00:  Mud Viscosity 
 MWOD.in                  6.75:  MWD Tool OD 
 MWSI.                      No:  Serv Intrp, MWD 
 OTIM.hr                228.19:  Time Operating 
 PCON.           Look Like New:  Pad Condition 
 PMAX.psia             6164.70:  Press Op, Max 
 PV  .cP                 28.00:  Mud PV 
 RUN .                     900:  Run Number 
 ROPA.m/hr               19.00:  ROP Avg 
 ROPN.m/hr               11.00:  ROP Min 
 ROPX.m/hr               36.00:  ROP Max 
 RPMA.rpm               120.00:  RPM Surface Avg 
 RPMN.rpm               120.00:  RPM Surface Min 
 RPMX.rpm               120.00:  RPM Surface Max 
 RRUN.                    L604:  Rig Run Number 
 RTIM.hr                  7.00:  Time Reaming 
 SAZI.deg               109.27:  Azm, Start 
 SDEP.m                4761.01:  Start Depth 
 SIDD.                      No:  Serv Intrp, DD 
 SINC.deg                75.38:  Inc, Start 
 SPPA.psig             3574.00:  SPP Avg 
 SPPN.psig             3475.00:  SPP Min 
 SPPX.psig             3791.00:  SPP Max 
 STIM.      07.08.48 13-May-20:  Start Time 
 SVCS.                 DD, MWD:  Services 
 SVER.                    9.20:  Sperry Version 
 TDAT.m                 363.00:  Tot Depth Attmp 
 TDDF.                      No:  Trip for DD 
 TDLG.m                 363.00:  Tot Depth Loggd 
 TFF .                      No:  Trip for Fail 
 TQAA.f-kp               20.00:  Torque Abs Avg 
 TQAN.f-kp               18.00:  Torque Abs Min 
 TQAX.f-kp               22.00:  Torque Abs Max 
 TRRT.°/30m              -0.35:  Turn Rotating 
 MRT .                    HCIM:  Maximum Recorded Temperature 
 TTMX.degC               92.16:  Max Tool Temp 
 VS01.                90586518:  Virtual Str1 SN 
 VS02.        AZ90560654Z1W1C6:  Virtual Str2 SN 
 VS03.           AZ90610398F11:  Virtual Str3 SN 
 VS04.                90514975:  Virtual Str4 SN 
 VS05.                90514972:  Virtual Str5 SN 
 VS06.     AZ90603282F11V7D1A6:  Virtual Str6 SN 
 WBMN.klb                 7.00:  WOB Min 
 WOBA.klb                12.00:  WOB Avg 
 WOBX.klb                14.00:  WOB Max 
 YP  .lhf2               32.00:  Yield Point 
~Curve Information Block
#MNEM.UNIT                 API CODE     Curve Description
#---------               -----------    ---------------------------
 TIME.HHMMSS            00 000 000 000:  GT Time & Date
 GTDEPTH.m              00 000 000 000:  GT Depth
 GTPQH.psia             00 000 000 000:  GT HR Quartz Pressure
 GTTQ.degC              00 000 000 000:  GT Quartz Temperature
 GTTN.NONE              00 000 000 000:  GT Test Number
 GTET.sec               00 000 000 000:  GT Elapsed Test Time
 GTTVD.m                00 000 000 000:  GT True Vertical Depth
#Other Information
#
#WARRANTY: Halliburton will use its best efforts to furnish customers with 
#accurate information and interpretations that are part of, and incident to, the services 
#provided.  However, Halliburton cannot and does not warrant the accuracy 
#or correctness of such information and interpretations.  Under no circumstances should any 
#such information or interpretation be relied upon as the sole basis for any drilling, 
#completion, production, or financial decision or any procedure involving any risk to the 
#safety of any drilling venture, drilling rig or its crew or any other third party.  The 
#Customer has full responsibility for all drilling, completion and production operation.  
#Halliburton makes no representations or warranties, either expressed or 
#implied, including, but not limited to, the implied warranties of merchantability or fitness 
#for a particular purpose, with respect to the services rendered.  In no event will 
#Halliburton be liable for failure to obtain any particular results or for 
#any damages, including, but not limited to, indirect, special or consequential damages, 
#resulting from the use of any information or interpretation provided by Halliburton.
#
~A           TIME           GTDEPTH  GTPQH  GTTQ  GTTN  GTET   GTTVD  
# ...
   22:54:53.361.17-May-2020 4908.51   97.11 67.15 8.00 321.83 2569.17
   22:54:53.561.17-May-2020 4908.51   97.11 67.15 8.00 322.03 2569.17
   22:54:53.761.17-May-2020 4908.51   97.63 67.15 8.00 322.23 2569.17
   22:54:53.961.17-May-2020 4908.51   97.85 67.15 8.00 322.43 2569.17
   22:54:54.161.17-May-2020 4908.51   98.07 67.15 8.00 322.63 2569.17
   22:54:54.361.17-May-2020 4908.51   98.34 67.15 8.00 322.83 2569.17
   22:54:54.561.17-May-2020 4908.51   98.34 67.15 8.00 323.03 2569.17
   22:54:54.761.17-May-2020 4908.51   98.80 67.15 8.00 323.23 2569.17
   22:54:54.961.17-May-2020 4908.51   99.05 67.15 8.00 323.43 2569.17
   22:54:55.161.17-May-2020 4908.51   99.30 67.15 8.00 323.63 2569.17
   22:54:55.360.17-May-2020 4908.51   99.55 67.15 8.00 323.83 2569.17
   22:54:55.560.17-May-2020 4908.51   99.80 67.15 8.00 324.03 2569.17
   22:54:55.760.17-May-2020 4908.51  100.05 67.15 8.00 324.23 2569.17
   22:54:55.960.17-May-2020 4908.51  100.31 67.15 8.00 324.43 2569.17
   22:54:56.160.17-May-2020 4908.51  100.56 67.15 8.00 324.63 2569.17
   22:54:56.360.17-May-2020 4908.51  100.82 67.15 8.00 324.83 2569.17
   22:54:56.560.17-May-2020 4908.51  101.12 67.15 8.00 325.03 2569.17
   22:54:56.760.17-May-2020 4908.51  101.32 67.15 8.00 325.23 2569.17
   22:54:56.960.17-May-2020 4908.51  101.58 67.15 8.00 325.43 2569.17
   22:54:57.159.17-May-2020 4908.51  101.84 67.15 8.00 325.63 2569.17
   22:54:57.359.17-May-2020 4908.51  102.10 67.15 8.00 325.83 2569.17
   22:54:57.559.17-May-2020 4908.51  102.10 67.15 8.00 326.03 2569.17
   22:54:57.759.17-May-2020 4908.51  102.63 67.15 8.00 326.23 2569.17
   22:54:57.959.17-May-2020 4908.51  102.89 67.15 8.00 326.43 2569.17
   22:54:58.159.17-May-2020 4908.51  103.16 67.15 8.00 326.63 2569.17
   22:54:58.359.17-May-2020 4908.51  103.43 67.15 8.00 326.83 2569.17
   22:54:58.559.17-May-2020 4908.51  103.43 67.15 8.00 327.03 2569.17
   22:54:58.759.17-May-2020 4908.51  103.98 67.15 8.00 327.23 2569.17
   22:54:58.959.17-May-2020 4908.51  104.24 67.15 8.00 327.43 2569.17
   22:54:59.158.17-May-2020 4908.51  104.54 67.15 8.00 327.63 2569.17
   22:54:59.358.17-May-2020 4908.51  104.82 67.15 8.00 327.83 2569.17
   22:54:59.558.17-May-2020 4908.51  104.82 67.15 8.00 328.03 2569.17
   22:54:59.758.17-May-2020 4908.51  105.35 67.15 8.00 328.23 2569.17
   22:54:59.958.17-May-2020 4908.51  105.63 67.15 8.00 328.43 2569.17
   22:55:00.158.17-May-2020 4908.51  105.93 67.15 8.00 328.63 2569.17
   22:55:00.358.17-May-2020 4908.51  106.22 67.15 8.00 328.83 2569.17
   22:55:00.558.17-May-2020 4908.51  106.46 67.15 8.00 329.03 2569.17
   22:55:00.758.17-May-2020 4908.51  106.74 67.15 8.00 329.23 2569.17
   22:55:00.958.17-May-2020 4908.51  107.03 67.15 8.00 329.43 2569.17
   22:55:01.157.17-May-2020 4908.51  107.34 67.15 8.00 329.63 2569.17
   22:55:01.357.17-May-2020 4908.51  107.59 67.15 8.00 329.83 2569.17
   22:55:01.557.17-May-2020 4908.51  107.59 67.15 8.00 330.03 2569.17
   22:55:01.757.17-May-2020 4908.51  108.16 67.15 8.00 330.23 2569.17
   22:55:01.957.17-May-2020 4908.51  108.44 67.15 8.00 330.43 2569.17
   22:55:02.157.17-May-2020 4908.51  108.73 67.15 8.00 330.63 2569.17
   22:55:02.357.17-May-2020 4908.51  109.02 67.15 8.00 330.83 2569.17
   22:55:02.557.17-May-2020 4908.51  109.02 67.15 8.00 331.03 2569.17
   22:55:02.757.17-May-2020 4908.51  109.61 67.15 8.00 331.23 2569.17
   22:55:02.957.17-May-2020 4908.51  109.91 67.15 8.00 331.43 2569.17
   22:55:03.156.17-May-2020 4908.51  110.26 67.15 8.00 331.63 2569.17
   22:55:03.356.17-May-2020 4908.51  110.51 67.15 8.00 331.83 2569.17
   22:55:03.556.17-May-2020 4908.51  110.82 67.15 8.00 332.03 2569.17
   22:55:03.756.17-May-2020 4908.51  111.12 67.15 8.00 332.23 2569.17
   22:55:03.956.17-May-2020 4908.51  111.43 67.15 8.00 332.43 2569.17
   22:55:04.156.17-May-2020 4908.51  111.74 67.15 8.00 332.63 2569.17
   22:55:04.356.17-May-2020 4908.51  112.05 67.15 8.00 332.83 2569.17
   22:55:04.556.17-May-2020 4908.51  112.36 67.15 8.00 333.03 2569.17
   22:55:04.756.17-May-2020 4908.51  112.67 67.15 8.00 333.23 2569.17
   22:55:04.955.17-May-2020 4908.51  112.98 67.15 8.00 333.43 2569.17
   22:55:05.155.17-May-2020 4908.51  113.33 67.15 8.00 333.63 2569.17
   22:55:05.355.17-May-2020 4908.51  113.62 67.15 8.00 333.83 2569.17
   22:55:05.555.17-May-2020 4908.51  113.62 67.15 8.00 334.03 2569.17
   22:55:05.755.17-May-2020 4908.51  114.25 67.15 8.00 334.23 2569.17
   22:55:05.955.17-May-2020 4908.51  114.60 67.15 8.00 334.43 2569.17
   22:55:06.155.17-May-2020 4908.51  114.88 67.15 8.00 334.63 2569.17
   22:55:06.355.17-May-2020 4908.51  115.21 67.15 8.00 334.83 2569.17
   22:55:06.555.17-May-2020 4908.51  115.21 67.15 8.00 335.03 2569.17
   22:55:06.755.17-May-2020 4908.51  115.88 67.15 8.00 335.23 2569.17
   22:55:06.954.17-May-2020 4908.51  116.22 67.15 8.00 335.43 2569.17
   22:55:07.154.17-May-2020 4908.51  116.53 67.15 8.00 335.63 2569.17
   22:55:07.354.17-May-2020 4908.51  116.87 67.15 8.00 335.83 2569.17
   22:55:07.554.17-May-2020 4908.51  117.20 67.15 8.00 336.03 2569.17
   22:55:07.754.17-May-2020 4908.51  117.58 67.15 8.00 336.23 2569.17
   22:55:07.954.17-May-2020 4908.51  117.89 67.15 8.00 336.43 2569.17
   22:55:08.154.17-May-2020 4908.51  118.23 67.15 8.00 336.63 2569.17
   22:55:08.354.17-May-2020 4908.51  118.57 67.15 8.00 336.83 2569.17
   22:55:08.554.17-May-2020 4908.51  118.91 67.15 8.00 337.03 2569.17
   22:55:08.754.17-May-2020 4908.51  119.26 67.15 8.00 337.23 2569.17
   22:55:08.953.17-May-2020 4908.51  119.60 67.15 8.00 337.43 2569.17
   22:55:09.153.17-May-2020 4908.51  119.95 67.15 8.00 337.63 2569.17
   22:55:09.353.17-May-2020 4908.51  120.30 67.15 8.00 337.83 2569.17
   22:55:09.553.17-May-2020 4908.51  120.30 67.15 8.00 338.03 2569.17
   22:55:09.753.17-May-2020 4908.51  121.03 67.15 8.00 338.23 2569.17
   22:55:09.953.17-May-2020 4908.51  121.38 67.15 8.00 338.43 2569.17
   22:55:10.153.17-May-2020 4908.51  121.72 67.15 8.00 338.63 2569.17
   22:55:10.353.17-May-2020 4908.51  122.09 67.15 8.00 338.83 2569.17
   22:55:10.553.17-May-2020 4908.51  122.09 67.15 8.00 339.03 2569.17
   22:55:10.753.17-May-2020 4908.51  122.81 67.15 8.00 339.23 2569.17
   22:55:10.952.17-May-2020 4908.51  123.19 67.15 8.00 339.43 2569.17
   22:55:11.152.17-May-2020 4908.51  123.55 67.15 8.00 339.63 2569.17
   22:55:11.352.17-May-2020 4908.51  123.93 67.15 8.00 339.83 2569.17
   22:55:11.552.17-May-2020 4908.51  124.30 67.15 8.00 340.03 2569.17
   22:55:11.752.17-May-2020 4908.51  124.68 67.15 8.00 340.23 2569.17
   22:55:11.952.17-May-2020 4908.51  125.07 67.15 8.00 340.43 2569.17
   22:55:12.152.17-May-2020 4908.51  125.43 67.15 8.00 340.63 2569.17
   22:55:12.352.17-May-2020 4908.51  125.81 67.15 8.00 340.83 2569.17
   22:55:12.552.17-May-2020 4908.51  126.22 67.15 8.00 341.02 2569.17
   22:55:12.751.17-May-2020 4908.51  126.59 67.15 8.00 341.22 2569.17
   22:55:12.951.17-May-2020 4908.51  126.97 67.15 8.00 341.42 2569.17
   22:55:13.151.17-May-2020 4908.51  127.36 67.15 8.00 341.62 2569.17
   22:55:13.351.17-May-2020 4908.51  127.76 67.15 8.00 341.82 2569.17
   22:55:13.551.17-May-2020 4908.51  127.76 67.15 8.00 342.02 2569.17
   22:55:13.751.17-May-2020 4908.51  128.57 67.15 8.00 342.22 2569.17
   22:55:13.951.17-May-2020 4908.51  128.96 67.15 8.00 342.42 2569.17
   22:55:14.151.17-May-2020 4908.51  129.42 67.15 8.00 342.62 2569.17
   22:55:14.351.17-May-2020 4908.51  129.80 67.15 8.00 342.82 2569.17
   22:55:14.551.17-May-2020 4908.51  129.80 67.15 8.00 343.02 2569.17
   22:55:14.750.17-May-2020 4908.51  130.64 67.15 8.00 343.22 2569.17
   22:55:14.950.17-May-2020 4908.51  131.06 67.15 8.00 343.42 2569.17
   22:55:15.150.17-May-2020 4908.51  131.49 67.15 8.00 343.62 2569.17
   22:55:15.350.17-May-2020 4908.51  131.92 67.15 8.00 343.82 2569.17
   22:55:15.550.17-May-2020 4908.51  132.35 67.15 8.00 344.02 2569.17
   22:55:15.750.17-May-2020 4908.51  132.78 67.15 8.00 344.22 2569.17
   22:55:15.950.17-May-2020 4908.51  133.21 67.15 8.00 344.42 2569.17
   22:55:16.150.17-May-2020 4908.51  133.66 67.15 8.00 344.62 2569.17
