~Version Information
 VERS.                  2.0:   CWLS log ASCII Standard -VERSION 2.0
 WRAP.                   NO:   One line per depth step
~Well Information Block
#MNEM.UNIT     VALUE/NAME     DESCRIPTION
#---------     -----------    ---------------------------
 STRT.S             17:25:16 17-May-20: START TIME 17:25:16 17-May-20
 STOP.S             17:32:20 17-May-20: STOP TIME  17:32:20 17-May-20
 STEP.S                   0.00: STEP TIME
 NULL.                 -999.25: NULL VALUE
 UNIT.                     N/A:  LOGGING EQUIPMENT ID
 DCON.         Sperry Drilling:  DIRECTNL CONTR
 DOE .                     N/A:  DOE NUMBER
 JOBN.        AZ-XX-0906252240:  JOB TICKET NUMB
 MWDS.                     N/A:  MWD SHOP
 PROV.                    Baku:  PROVINCE
 STAT.                    Baku:  STATE NAME
 REGN.                   EESSA:  REGION
 BASE.              Azerbaijan:  LOGGING EQUIPMENT BASE LOCATION
 UWI .                     N/A:  UNIQUE WELL IDENTIFIER
 API .                     N/A:  API NUMBER
 MDS .        Operator Entered:  MAG DATA SOURCE
 WTYP.                Deviated:  WELL TYPE
 COMP.     BP Exploration (Caspian Sea) Ltd.:  COMPANY
 SRVC.          Turan Drilling:  CONTRACTOR
 WELL.           J23 (Slot 07):  WELL NAME
 CTRY.              Azerbaijan:  COUNTRY NAME
 FLD .                     ACG:  FIELD NAME
 PDAT.          Mean Sea Level:  PERMANENT DATUM
 RIG .             West Chirag:  RIG NAME
 SON .        AZ-XX-0906252240:  JOB NUMBER
 FTOP.          Formation Tops:  FORM TOPS DESC
 ILTD.               Lithology:  INTERP LTH DESC
 SVYD.                  Survey:  SURVEY DESC
 DMOD.             Drill Model:  DRILL MOD DESC
 HPTY.       Minimum Curvature:  HOLE POS TYPE
 NREF.                    Grid:  NORTH REFERENCE
 SPUD.               27-Aug-20:  SPUD DATE
 DATE.      00.00.00 19-May-20:  END TIME
 STIM.      03.00.00 25-Mar-20:  START TIME
 DMF .             Drill Floor:  DRILL MEAS FROM
 DFST.                        :  DIST FSL TEXT
 DFWT.                        :  DIST FWL TEXT
 CNTY.                        :  COUNTY
 LOC .                        :  LOCATION
 LMF .             Drill Floor:  LOG MEASURED FROM
 VSNS.m                   9.43:  VERT SEC N/S
 VSEW.m                  -8.91:  VERT SEC E/W
 AGAP.m                  43.00:  AIR GAP
 DEP .m                 354.17:  DEPTH
 APD .m                  43.00:  DEPTH ABOVE PD
 WDMS.m                 169.80:  WD ELEV
 EGL .m                   0.00:  GROUND ELEVATION
 EPD .m                   0.00:  ELEVATION
 AZTC.deg                 6.31:  AZM TOTAL CORR
 GRDC.deg                 0.14:  GRID CORRECTION
 MDEC.deg                 6.45:  MAGNETIC DECL
 MDIP.deg                59.56:  MAGNETIC DIP
 MFLD.nT              50295.00:  MAGNETIC FIELD
 GVFD.g                   1.00:  GRAVITY FIELD
 VSDR.deg               179.88:  VERT SEC DIRECT
 TDD .m                5150.01:  TOTAL DEPTH (DRILLER)
 SDEP.m                 864.00:  START DEPTH
 DFSL.m                   0.00:  DISTANCE FSL
 DFWL.m                   0.00:  DISTANCE FWL
 UTMY.m             4443793.85:  UTM Y
 UTMX.m              519005.06:  UTM X
 WHEW.m                  -8.91:  WELL HEAD E/W
 WHNS.m                   9.43:  WELL HEAD N/S
 LONG.deg                51.22:  LONGITUDE
 LATI.deg                40.13:  LATITUDE
 TVDS.m                  43.00:  TVDSS CORRECTN
 EKB .m                   0.00:  KB ELEVATION
 EDF .m                  43.00:  DF ELEVATION
 TDL .m                 363.00:  TOTAL DEPTH (LOGGER)
 MAGU.                 1850802:  MAGUTM CHECKSUM
 VSC .                       0:  VS TO CLOSURE
~Parameter Information Block
#MNEM.UNIT       Value        Description
#---------     -----------    ---------------------------
 AV  .mps                 2.30:  Ann Velocity 
 AVMX.mps                 4.40:  Max Ann Veloc 
 AZIF.deg               110.24:  Azm, Final 
 BHAT.        Rotary Steerable:  BHA Type 
 BREV.rev               331.00:  Rev Bit Total 
 BROT.°/30m               0.00:  Build Rotating 
 BS  .in                  8.50:  Bit Size 
 BSZ .in                  8.50:  Bit Size 
 BTPL.psig              585.00:  Bit Press Loss 
 CABU.                     Yes:  Customer Abuse 
 COMM.                     |n\:  Run Comments 1 
 TCS .hr                122.75:  Time Ciculation Ended 
 CV  .mps                 2.67:  Crit Velocity 
 CVMX.mps                 3.56:  Max Crit Veloc 
 DD1 .          Rashad Habibov:  Direct Drillr 1 
 DD2 .         Rasim Ibrahimov:  Direct Drillr 2 
 DDSV.               Geo-Pilot:  DD Service 
 DEFF.%                  98.00:  % Det Eff 
 DLRX.°/30m               0.75:  Dogleg Rot Max 
 DLSO.°/30m               1.25:  Dogleg Oriented 
 DLSX.°/30m               2.06:  Dogleg Str Max 
 DRET.      07.45.00 17-May-20:  Drill End Time 
 DRST.      22.50.00 15-May-20:  Drill Start Tim 
 DTIM.hr                 20.75:  Time Drilling 
 EDEP.m                5124.01:  End Depth 
 ENG1.           Eldar Hajiyev:  Engineer 1 
 ENG2.        Marcelo Sandoval:  Engineer 2 
 ENG3.        Davud huseynzada:  Engineer 3 
 ENG4.          Ruslan Safarov:  Engineer 4 
 ETIM.      04.33.00 23-May-20:  End Time 
 FLOI.gpm               450.00:  Flow In 
 FLON.gpm               400.00:  Flow In Min 
 FLOS.cptm                0.00:  Fluid Loss 
 FLOX.gpm               500.00:  Flow In Max 
 FTRO.       Formation Presure:  FTWD Run Obj 
 HFLO.                      No:  High Flow 
 HPRE.                     Yes:  High Pressure 
 HTEM.                      No:  High Temp 
 HYDO.m                   1.80:  Hydro Offset 
 IFIN.deg                75.06:  Inc, Final 
 IMAX.deg                75.38:  Inc Max 
 IMIN.deg                74.69:  Inc Min 
 IMND.m                5027.38:  Inc Min Depth 
 IMXD.m                4771.61:  Inc Max Depth 
 JARR.                      No:  Jarring 
 LETM.      07.45.00 17-May-20:  Log End Time 
 LOST.hr                     0:  Lost Rig Time 
 LSTM.      22.50.00 15-May-20:  Log Start Time 
 MDCL.ppm             42000.00:  Mud Chlorides 
 MDES.     Inversion Oil/Synthetic:  Mud Desc 
 DFD .sg                  1.34:  Mud Density 
 MDMN.sg                  1.34:  Dens Mud Min 
 MDMX.sg                  1.34:  Dens Mud Max 
 MOIL.                       0:  Run Mud Oil % 
 MOWR.                   67:33:  Run Mud OWR 
 MSND.                       0:  Run Mud Sand % 
 MSOL.                     1.8:  Run Mud Solids% 
 DFV .spqt               76.00:  Mud Viscosity 
 MWOD.in                  6.75:  MWD Tool OD 
 MWSI.                      No:  Serv Intrp, MWD 
 OTIM.hr                228.19:  Time Operating 
 PCON.           Look Like New:  Pad Condition 
 PMAX.psia             6164.70:  Press Op, Max 
 PV  .cP                 28.00:  Mud PV 
 RUN .                     900:  Run Number 
 ROPA.m/hr               19.00:  ROP Avg 
 ROPN.m/hr               11.00:  ROP Min 
 ROPX.m/hr               36.00:  ROP Max 
 RPMA.rpm               120.00:  RPM Surface Avg 
 RPMN.rpm               120.00:  RPM Surface Min 
 RPMX.rpm               120.00:  RPM Surface Max 
 RRUN.                    L604:  Rig Run Number 
 RTIM.hr                  7.00:  Time Reaming 
 SAZI.deg               109.27:  Azm, Start 
 SDEP.m                4761.01:  Start Depth 
 SIDD.                      No:  Serv Intrp, DD 
 SINC.deg                75.38:  Inc, Start 
 SPPA.psig             3574.00:  SPP Avg 
 SPPN.psig             3475.00:  SPP Min 
 SPPX.psig             3791.00:  SPP Max 
 STIM.      07.08.48 13-May-20:  Start Time 
 SVCS.                 DD, MWD:  Services 
 SVER.                    9.20:  Sperry Version 
 TDAT.m                 363.00:  Tot Depth Attmp 
 TDDF.                      No:  Trip for DD 
 TDLG.m                 363.00:  Tot Depth Loggd 
 TFF .                      No:  Trip for Fail 
 TQAA.f-kp               20.00:  Torque Abs Avg 
 TQAN.f-kp               18.00:  Torque Abs Min 
 TQAX.f-kp               22.00:  Torque Abs Max 
 TRRT.°/30m              -0.35:  Turn Rotating 
 MRT .                    HCIM:  Maximum Recorded Temperature 
 TTMX.degC               92.16:  Max Tool Temp 
 VS01.                90586518:  Virtual Str1 SN 
 VS02.        AZ90560654Z1W1C6:  Virtual Str2 SN 
 VS03.           AZ90610398F11:  Virtual Str3 SN 
 VS04.                90514975:  Virtual Str4 SN 
 VS05.                90514972:  Virtual Str5 SN 
 VS06.     AZ90603282F11V7D1A6:  Virtual Str6 SN 
 WBMN.klb                 7.00:  WOB Min 
 WOBA.klb                12.00:  WOB Avg 
 WOBX.klb                14.00:  WOB Max 
 YP  .lhf2               32.00:  Yield Point 
~Curve Information Block
#MNEM.UNIT                 API CODE     Curve Description
#---------               -----------    ---------------------------
 TIME.HHMMSS            00 000 000 000:  GT Time & Date
 GTDEPTH.m              00 000 000 000:  GT Depth
 GTPQH.psia             00 000 000 000:  GT HR Quartz Pressure
 GTTQ.degC              00 000 000 000:  GT Quartz Temperature
 GTTN.NONE              00 000 000 000:  GT Test Number
 GTET.sec               00 000 000 000:  GT Elapsed Test Time
 GTTVD.m                00 000 000 000:  GT True Vertical Depth
#Other Information
#
#WARRANTY: Halliburton will use its best efforts to furnish customers with 
#accurate information and interpretations that are part of, and incident to, the services 
#provided.  However, Halliburton cannot and does not warrant the accuracy 
#or correctness of such information and interpretations.  Under no circumstances should any 
#such information or interpretation be relied upon as the sole basis for any drilling, 
#completion, production, or financial decision or any procedure involving any risk to the 
#safety of any drilling venture, drilling rig or its crew or any other third party.  The 
#Customer has full responsibility for all drilling, completion and production operation.  
#Halliburton makes no representations or warranties, either expressed or 
#implied, including, but not limited to, the implied warranties of merchantability or fitness 
#for a particular purpose, with respect to the services rendered.  In no event will 
#Halliburton be liable for failure to obtain any particular results or for 
#any damages, including, but not limited to, indirect, special or consequential damages, 
#resulting from the use of any information or interpretation provided by Halliburton.
#
~A           TIME           GTDEPTH  GTPQH  GTTQ  GTTN  GTET   GTTVD  
# ...
   17:27:34.448.17-May-2020 5032.01 2638.13 70.63 3.00 138.13 2600.96
   17:27:34.648.17-May-2020 5032.01 2638.13 70.63 3.00 138.33 2600.96
   17:27:34.848.17-May-2020 5032.01 2638.11 70.63 3.00 138.53 2600.96
   17:27:35.048.17-May-2020 5032.01 2638.07 70.63 3.00 138.73 2600.96
   17:27:35.248.17-May-2020 5032.01 2638.29 70.63 3.00 138.93 2600.96
   17:27:35.449.17-May-2020 5032.01 2638.12 70.63 3.00 139.13 2600.96
   17:27:35.649.17-May-2020 5032.01 2638.12 70.63 3.00 139.33 2600.96
   17:27:35.849.17-May-2020 5032.01 2638.15 70.62 3.00 139.53 2600.96
   17:27:36.049.17-May-2020 5032.01 2638.12 70.62 3.00 139.73 2600.96
   17:27:36.249.17-May-2020 5032.01 2638.17 70.62 3.00 139.93 2600.96
   17:27:36.450.17-May-2020 5032.01 2638.12 70.62 3.00 140.13 2600.96
   17:27:36.650.17-May-2020 5032.01 2638.08 70.62 3.00 140.33 2600.96
   17:27:36.850.17-May-2020 5032.01 2638.21 70.62 3.00 140.53 2600.96
   17:27:37.050.17-May-2020 5032.01 2638.15 70.62 3.00 140.73 2600.96
   17:27:37.250.17-May-2020 5032.01 2638.06 70.62 3.00 140.93 2600.96
   17:27:37.450.17-May-2020 5032.01 2638.16 70.62 3.00 141.13 2600.96
   17:27:37.651.17-May-2020 5032.01 2638.16 70.62 3.00 141.33 2600.96
   17:27:37.851.17-May-2020 5032.01 2638.09 70.62 3.00 141.53 2600.96
   17:27:38.051.17-May-2020 5032.01 2638.13 70.62 3.00 141.73 2600.96
   17:27:38.251.17-May-2020 5032.01 2638.12 70.62 3.00 141.93 2600.96
   17:27:38.451.17-May-2020 5032.01 2638.12 70.62 3.00 142.13 2600.96
   17:27:38.652.17-May-2020 5032.01 2638.12 70.62 3.00 142.33 2600.96
   17:27:38.852.17-May-2020 5032.01 2638.08 70.62 3.00 142.53 2600.96
   17:27:39.052.17-May-2020 5032.01 2638.27 70.62 3.00 142.73 2600.96
   17:27:39.252.17-May-2020 5032.01 2638.14 70.62 3.00 142.93 2600.96
   17:27:39.452.17-May-2020 5032.01 2638.04 70.62 3.00 143.13 2600.96
   17:27:39.653.17-May-2020 5032.01 2638.04 70.62 3.00 143.33 2600.96
   17:27:39.853.17-May-2020 5032.01 2638.17 70.62 3.00 143.53 2600.96
   17:27:40.053.17-May-2020 5032.01 2638.12 70.62 3.00 143.73 2600.96
   17:27:40.253.17-May-2020 5032.01 2638.10 70.62 3.00 143.93 2600.96
   17:27:40.453.17-May-2020 5032.01 2638.12 70.62 3.00 144.13 2600.96
   17:27:40.653.17-May-2020 5032.01 2638.13 70.62 3.00 144.33 2600.96
   17:27:40.854.17-May-2020 5032.01 2638.12 70.62 3.00 144.54 2600.96
   17:27:41.054.17-May-2020 5032.01 2638.11 70.62 3.00 144.74 2600.96
   17:27:41.254.17-May-2020 5032.01 2638.23 70.62 3.00 144.94 2600.96
   17:27:41.454.17-May-2020 5032.01 2638.09 70.62 3.00 145.14 2600.96
   17:27:41.654.17-May-2020 5032.01 2638.09 70.62 3.00 145.34 2600.96
   17:27:41.855.17-May-2020 5032.01 2638.22 70.62 3.00 145.54 2600.96
   17:27:42.055.17-May-2020 5032.01 2638.09 70.62 3.00 145.74 2600.96
   17:27:42.255.17-May-2020 5032.01 2638.07 70.62 3.00 145.94 2600.96
   17:27:42.455.17-May-2020 5032.01 2638.05 70.62 3.00 146.14 2600.96
   17:27:42.655.17-May-2020 5032.01 2638.05 70.62 3.00 146.34 2600.96
   17:27:42.856.17-May-2020 5032.01 2638.24 70.62 3.00 146.54 2600.96
   17:27:43.056.17-May-2020 5032.01 2638.06 70.62 3.00 146.74 2600.96
   17:27:43.256.17-May-2020 5032.01 2638.17 70.62 3.00 146.94 2600.96
   17:27:43.456.17-May-2020 5032.01 2638.23 70.62 3.00 147.14 2600.96
   17:27:43.656.17-May-2020 5032.01 2638.05 70.62 3.00 147.34 2600.96
   17:27:43.856.17-May-2020 5032.01 2638.09 70.62 3.00 147.54 2600.96
   17:27:44.057.17-May-2020 5032.01 2638.12 70.62 3.00 147.74 2600.96
   17:27:44.257.17-May-2020 5032.01 2638.14 70.62 3.00 147.94 2600.96
   17:27:44.457.17-May-2020 5032.01 2638.12 70.62 3.00 148.14 2600.96
   17:27:44.657.17-May-2020 5032.01 2638.12 70.62 3.00 148.34 2600.96
   17:27:44.857.17-May-2020 5032.01 2638.13 70.62 3.00 148.54 2600.96
   17:27:45.058.17-May-2020 5032.01 2638.12 70.62 3.00 148.74 2600.96
   17:27:45.258.17-May-2020 5032.01 2638.12 70.62 3.00 148.94 2600.96
   17:27:45.458.17-May-2020 5032.01 2638.15 70.62 3.00 149.14 2600.96
   17:27:45.658.17-May-2020 5032.01 2638.15 70.62 3.00 149.34 2600.96
   17:27:45.858.17-May-2020 5032.01 2638.09 70.62 3.00 149.54 2600.96
   17:27:46.059.17-May-2020 5032.01 2638.13 70.62 3.00 149.74 2600.96
   17:27:46.259.17-May-2020 5032.01 2638.11 70.62 3.00 149.94 2600.96
   17:27:46.459.17-May-2020 5032.01 2638.11 70.62 3.00 150.14 2600.96
   17:27:46.659.17-May-2020 5032.01 2638.11 70.62 3.00 150.34 2600.96
   17:27:46.859.17-May-2020 5032.01 2638.10 70.62 3.00 150.54 2600.96
   17:27:47.059.17-May-2020 5032.01 2638.11 70.62 3.00 150.74 2600.96
   17:27:47.260.17-May-2020 5032.01 2638.13 70.62 3.00 150.94 2600.96
   17:27:47.460.17-May-2020 5032.01 2638.29 70.62 3.00 151.14 2600.96
   17:27:47.660.17-May-2020 5032.01 2638.29 70.62 3.00 151.34 2600.96
   17:27:47.860.17-May-2020 5032.01 2638.01 70.62 3.00 151.54 2600.96
   17:27:48.060.17-May-2020 5032.01 2638.15 70.62 3.00 151.74 2600.96
   17:27:48.261.17-May-2020 5032.01 2638.19 70.61 3.00 151.94 2600.96
   17:27:48.461.17-May-2020 5032.01 2638.11 70.61 3.00 152.14 2600.96
   17:27:48.661.17-May-2020 5032.01 2638.08 70.61 3.00 152.34 2600.96
   17:27:48.861.17-May-2020 5032.01 2638.10 70.61 3.00 152.54 2600.96
   17:27:49.061.17-May-2020 5032.01 2638.31 70.61 3.00 152.74 2600.96
   17:27:49.262.17-May-2020 5032.01 2638.07 70.61 3.00 152.94 2600.96
   17:27:49.462.17-May-2020 5032.01 2616.26 70.61 3.00 153.14 2600.96
   17:27:49.662.17-May-2020 5032.01 2616.26 70.61 3.00 153.34 2600.96
   17:27:49.862.17-May-2020 5032.01 2609.03 70.61 3.00 153.54 2600.96
   17:27:50.062.17-May-2020 5032.01 2609.72 70.61 3.00 153.74 2600.96
   17:27:50.262.17-May-2020 5032.01 2609.60 70.61 3.00 153.94 2600.96
   17:27:50.463.17-May-2020 5032.01 2609.68 70.61 3.00 154.14 2600.96
   17:27:50.663.17-May-2020 5032.01 2609.68 70.61 3.00 154.34 2600.96
   17:27:50.863.17-May-2020 5032.01 2609.66 70.61 3.00 154.54 2600.96
   17:27:51.063.17-May-2020 5032.01 2609.75 70.61 3.00 154.74 2600.96
   17:27:51.263.17-May-2020 5032.01 2609.76 70.61 3.00 154.94 2600.96
   17:27:51.464.17-May-2020 5032.01 2609.56 70.61 3.00 155.15 2600.96
   17:27:51.664.17-May-2020 5032.01 2609.56 70.61 3.00 155.35 2600.96
   17:27:51.864.17-May-2020 5032.01 2609.94 70.61 3.00 155.55 2600.96
   17:27:52.064.17-May-2020 5032.01 2609.32 70.61 3.00 155.75 2600.96
   17:27:52.264.17-May-2020 5032.01 2609.62 70.61 3.00 155.95 2600.96
   17:27:52.465.17-May-2020 5032.01 2609.79 70.61 3.00 156.15 2600.96
   17:27:52.665.17-May-2020 5032.01 2609.55 70.61 3.00 156.35 2600.96
   17:27:52.865.17-May-2020 5032.01 2609.91 70.61 3.00 156.55 2600.96
   17:27:53.065.17-May-2020 5032.01 2609.75 70.61 3.00 156.75 2600.96
   17:27:53.265.17-May-2020 5032.01 2609.75 70.61 3.00 156.95 2600.96
   17:27:53.465.17-May-2020 5032.01 2609.88 70.61 3.00 157.15 2600.96
   17:27:53.666.17-May-2020 5032.01 2609.88 70.61 3.00 157.35 2600.96
   17:27:53.866.17-May-2020 5032.01 2610.16 70.61 3.00 157.55 2600.96
   17:27:54.066.17-May-2020 5032.01 2609.61 70.61 3.00 157.75 2600.96
   17:27:54.266.17-May-2020 5032.01 2610.09 70.61 3.00 157.95 2600.96
   17:27:54.466.17-May-2020 5032.01 2609.85 70.61 3.00 158.15 2600.96
   17:27:54.667.17-May-2020 5032.01 2609.85 70.61 3.00 158.35 2600.96
   17:27:54.867.17-May-2020 5032.01 2610.36 70.61 3.00 158.55 2600.96
   17:27:55.067.17-May-2020 5032.01 2609.92 70.61 3.00 158.75 2600.96
   17:27:55.267.17-May-2020 5032.01 2610.25 70.61 3.00 158.95 2600.96
   17:27:55.467.17-May-2020 5032.01 2610.48 70.61 3.00 159.15 2600.96
   17:27:55.668.17-May-2020 5032.01 2610.48 70.61 3.00 159.35 2600.96
   17:27:55.868.17-May-2020 5032.01 2610.62 70.61 3.00 159.55 2600.96
   17:27:56.068.17-May-2020 5032.01 2610.15 70.61 3.00 159.75 2600.96
   17:27:56.268.17-May-2020 5032.01 2609.87 70.61 3.00 159.95 2600.96
   17:27:56.468.17-May-2020 5032.01 2610.80 70.61 3.00 160.15 2600.96
   17:27:56.668.17-May-2020 5032.01 2610.62 70.61 3.00 160.35 2600.96
   17:27:56.869.17-May-2020 5032.01 2610.65 70.61 3.00 160.55 2600.96
   17:27:57.069.17-May-2020 5032.01 2610.64 70.61 3.00 160.75 2600.96
   17:27:57.269.17-May-2020 5032.01 2610.20 70.61 3.00 160.95 2600.96
