~Version Information
 VERS.                  2.0:   CWLS log ASCII Standard -VERSION 2.0
 WRAP.                   NO:   One line per depth step
~Well Information Block
#MNEM.UNIT     VALUE/NAME     DESCRIPTION
#---------     -----------    ---------------------------
 STRT.S             23:36:46 17-May-20: START TIME 23:36:46 17-May-20
 STOP.S             23:44:24 17-May-20: STOP TIME  23:44:24 17-May-20
 STEP.S                   0.00: STEP TIME
 NULL.                 -999.25: NULL VALUE
 UNIT.                     N/A:  LOGGING EQUIPMENT ID
 DCON.         Sperry Drilling:  DIRECTNL CONTR
 DOE .                     N/A:  DOE NUMBER
 JOBN.        AZ-XX-0906252240:  JOB TICKET NUMB
 MWDS.                     N/A:  MWD SHOP
 PROV.                    Baku:  PROVINCE
 STAT.                    Baku:  STATE NAME
 REGN.                   EESSA:  REGION
 BASE.              Azerbaijan:  LOGGING EQUIPMENT BASE LOCATION
 UWI .                     N/A:  UNIQUE WELL IDENTIFIER
 API .                     N/A:  API NUMBER
 MDS .        Operator Entered:  MAG DATA SOURCE
 WTYP.                Deviated:  WELL TYPE
 COMP.     BP Exploration (Caspian Sea) Ltd.:  COMPANY
 SRVC.          Turan Drilling:  CONTRACTOR
 WELL.           J23 (Slot 07):  WELL NAME
 CTRY.              Azerbaijan:  COUNTRY NAME
 FLD .                     ACG:  FIELD NAME
 PDAT.          Mean Sea Level:  PERMANENT DATUM
 RIG .             West Chirag:  RIG NAME
 SON .        AZ-XX-0906252240:  JOB NUMBER
 FTOP.          Formation Tops:  FORM TOPS DESC
 ILTD.               Lithology:  INTERP LTH DESC
 SVYD.                  Survey:  SURVEY DESC
 DMOD.             Drill Model:  DRILL MOD DESC
 HPTY.       Minimum Curvature:  HOLE POS TYPE
 NREF.                    Grid:  NORTH REFERENCE
 SPUD.               27-Aug-20:  SPUD DATE
 DATE.      00.00.00 19-May-20:  END TIME
 STIM.      03.00.00 25-Mar-20:  START TIME
 DMF .             Drill Floor:  DRILL MEAS FROM
 DFST.                        :  DIST FSL TEXT
 DFWT.                        :  DIST FWL TEXT
 CNTY.                        :  COUNTY
 LOC .                        :  LOCATION
 LMF .             Drill Floor:  LOG MEASURED FROM
 VSNS.m                   9.43:  VERT SEC N/S
 VSEW.m                  -8.91:  VERT SEC E/W
 AGAP.m                  43.00:  AIR GAP
 DEP .m                 354.17:  DEPTH
 APD .m                  43.00:  DEPTH ABOVE PD
 WDMS.m                 169.80:  WD ELEV
 EGL .m                   0.00:  GROUND ELEVATION
 EPD .m                   0.00:  ELEVATION
 AZTC.deg                 6.31:  AZM TOTAL CORR
 GRDC.deg                 0.14:  GRID CORRECTION
 MDEC.deg                 6.45:  MAGNETIC DECL
 MDIP.deg                59.56:  MAGNETIC DIP
 MFLD.nT              50295.00:  MAGNETIC FIELD
 GVFD.g                   1.00:  GRAVITY FIELD
 VSDR.deg               179.88:  VERT SEC DIRECT
 TDD .m                5150.01:  TOTAL DEPTH (DRILLER)
 SDEP.m                 864.00:  START DEPTH
 DFSL.m                   0.00:  DISTANCE FSL
 DFWL.m                   0.00:  DISTANCE FWL
 UTMY.m             4443793.85:  UTM Y
 UTMX.m              519005.06:  UTM X
 WHEW.m                  -8.91:  WELL HEAD E/W
 WHNS.m                   9.43:  WELL HEAD N/S
 LONG.deg                51.22:  LONGITUDE
 LATI.deg                40.13:  LATITUDE
 TVDS.m                  43.00:  TVDSS CORRECTN
 EKB .m                   0.00:  KB ELEVATION
 EDF .m                  43.00:  DF ELEVATION
 TDL .m                 363.00:  TOTAL DEPTH (LOGGER)
 MAGU.                 1850802:  MAGUTM CHECKSUM
 VSC .                       0:  VS TO CLOSURE
~Parameter Information Block
#MNEM.UNIT       Value        Description
#---------     -----------    ---------------------------
 AV  .mps                 2.30:  Ann Velocity 
 AVMX.mps                 4.40:  Max Ann Veloc 
 AZIF.deg               110.24:  Azm, Final 
 BHAT.        Rotary Steerable:  BHA Type 
 BREV.rev               331.00:  Rev Bit Total 
 BROT.°/30m               0.00:  Build Rotating 
 BS  .in                  8.50:  Bit Size 
 BSZ .in                  8.50:  Bit Size 
 BTPL.psig              585.00:  Bit Press Loss 
 CABU.                     Yes:  Customer Abuse 
 TCS .hr                122.75:  Time Ciculation Ended 
 CV  .mps                 2.67:  Crit Velocity 
 CVMX.mps                 3.56:  Max Crit Veloc 
 DD1 .          Rashad Habibov:  Direct Drillr 1 
 DD2 .         Rasim Ibrahimov:  Direct Drillr 2 
 DDSV.               Geo-Pilot:  DD Service 
 DEFF.%                  98.00:  % Det Eff 
 DLRX.°/30m               0.75:  Dogleg Rot Max 
 DLSO.°/30m               1.25:  Dogleg Oriented 
 DLSX.°/30m               2.06:  Dogleg Str Max 
 DRET.      07.45.00 17-May-20:  Drill End Time 
 DRST.      22.50.00 15-May-20:  Drill Start Tim 
 DTIM.hr                 20.75:  Time Drilling 
 EDEP.m                5124.01:  End Depth 
 ENG1.           Eldar Hajiyev:  Engineer 1 
 ENG2.        Marcelo Sandoval:  Engineer 2 
 ENG3.        Davud huseynzada:  Engineer 3 
 ENG4.          Ruslan Safarov:  Engineer 4 
 ETIM.      04.33.00 23-May-20:  End Time 
 FLOI.gpm               450.00:  Flow In 
 FLON.gpm               400.00:  Flow In Min 
 FLOS.cptm                0.00:  Fluid Loss 
 FLOX.gpm               500.00:  Flow In Max 
 FTRO.       Formation Presure:  FTWD Run Obj 
 HFLO.                      No:  High Flow 
 HPRE.                     Yes:  High Pressure 
 HTEM.                      No:  High Temp 
 HYDO.m                   1.80:  Hydro Offset 
 IFIN.deg                75.06:  Inc, Final 
 IMAX.deg                75.38:  Inc Max 
 IMIN.deg                74.69:  Inc Min 
 IMND.m                5027.38:  Inc Min Depth 
 IMXD.m                4771.61:  Inc Max Depth 
 JARR.                      No:  Jarring 
 LETM.      07.45.00 17-May-20:  Log End Time 
 LOST.hr                     0:  Lost Rig Time 
 LSTM.      22.50.00 15-May-20:  Log Start Time 
 MDCL.ppm             42000.00:  Mud Chlorides 
 MDES.     Inversion Oil/Synthetic:  Mud Desc 
 DFD .sg                  1.34:  Mud Density 
 MDMN.sg                  1.34:  Dens Mud Min 
 MDMX.sg                  1.34:  Dens Mud Max 
 MOIL.                       0:  Run Mud Oil % 
 MOWR.                   67:33:  Run Mud OWR 
 MSND.                       0:  Run Mud Sand % 
 MSOL.                     1.8:  Run Mud Solids% 
 DFV .spqt               76.00:  Mud Viscosity 
 MWOD.in                  6.75:  MWD Tool OD 
 MWSI.                      No:  Serv Intrp, MWD 
 OTIM.hr                228.19:  Time Operating 
 PCON.           Look Like New:  Pad Condition 
 PMAX.psia             6164.70:  Press Op, Max 
 PV  .cP                 28.00:  Mud PV 
 RUN .                     900:  Run Number 
 ROPA.m/hr               19.00:  ROP Avg 
 ROPN.m/hr               11.00:  ROP Min 
 ROPX.m/hr               36.00:  ROP Max 
 RPMA.rpm               120.00:  RPM Surface Avg 
 RPMN.rpm               120.00:  RPM Surface Min 
 RPMX.rpm               120.00:  RPM Surface Max 
 RRUN.                    L604:  Rig Run Number 
 RTIM.hr                  7.00:  Time Reaming 
 SAZI.deg               109.27:  Azm, Start 
 SDEP.m                4761.01:  Start Depth 
 SIDD.                      No:  Serv Intrp, DD 
 SINC.deg                75.38:  Inc, Start 
 SPPA.psig             3574.00:  SPP Avg 
 SPPN.psig             3475.00:  SPP Min 
 SPPX.psig             3791.00:  SPP Max 
 STIM.      07.08.48 13-May-20:  Start Time 
 SVCS.                 DD, MWD:  Services 
 SVER.                    9.20:  Sperry Version 
 TDAT.m                 363.00:  Tot Depth Attmp 
 TDDF.                      No:  Trip for DD 
 TDLG.m                 363.00:  Tot Depth Loggd 
 TFF .                      No:  Trip for Fail 
 TQAA.f-kp               20.00:  Torque Abs Avg 
 TQAN.f-kp               18.00:  Torque Abs Min 
 TQAX.f-kp               22.00:  Torque Abs Max 
 TRRT.°/30m              -0.35:  Turn Rotating 
 MRT .                    HCIM:  Maximum Recorded Temperature 
 TTMX.degC               92.16:  Max Tool Temp 
 VS01.                90586518:  Virtual Str1 SN 
 VS02.        AZ90560654Z1W1C6:  Virtual Str2 SN 
 VS03.           AZ90610398F11:  Virtual Str3 SN 
 VS04.                90514975:  Virtual Str4 SN 
 VS05.                90514972:  Virtual Str5 SN 
 VS06.     AZ90603282F11V7D1A6:  Virtual Str6 SN 
 WBMN.klb                 7.00:  WOB Min 
 WOBA.klb                12.00:  WOB Avg 
 WOBX.klb                14.00:  WOB Max 
 YP  .lhf2               32.00:  Yield Point 
~Curve Information Block
#MNEM.UNIT                 API CODE     Curve Description
#---------               -----------    ---------------------------
 TIME.HHMMSS            00 000 000 000:  GT Time & Date
 GTDEPTH.m              00 000 000 000:  GT Depth
 GTPQH.psia             00 000 000 000:  GT HR Quartz Pressure
 GTTQ.degC              00 000 000 000:  GT Quartz Temperature
 GTTN.NONE              00 000 000 000:  GT Test Number
 GTET.sec               00 000 000 000:  GT Elapsed Test Time
 GTTVD.m                00 000 000 000:  GT True Vertical Depth
#Other Information
#
#WARRANTY: Halliburton will use its best efforts to furnish customers with 
#accurate information and interpretations that are part of, and incident to, the services 
#provided.  However, Halliburton cannot and does not warrant the accuracy 
#or correctness of such information and interpretations.  Under no circumstances should any 
#such information or interpretation be relied upon as the sole basis for any drilling, 
#completion, production, or financial decision or any procedure involving any risk to the 
#safety of any drilling venture, drilling rig or its crew or any other third party.  The 
#Customer has full responsibility for all drilling, completion and production operation.  
#Halliburton makes no representations or warranties, either expressed or 
#implied, including, but not limited to, the implied warranties of merchantability or fitness 
#for a particular purpose, with respect to the services rendered.  In no event will 
#Halliburton be liable for failure to obtain any particular results or for 
#any damages, including, but not limited to, indirect, special or consequential damages, 
#resulting from the use of any information or interpretation provided by Halliburton.
#
~A           TIME           GTDEPTH  GTPQH  GTTQ  GTTN  GTET   GTTVD  
# ...
   23:41:44.919.17-May-2020 4902.01 3157.17 66.30 9.00 298.85 2567.50
   23:41:45.119.17-May-2020 4902.01 3157.17 66.30 9.00 299.05 2567.50
   23:41:45.318.17-May-2020 4902.01 3164.57 66.30 9.00 299.25 2567.50
   23:41:45.518.17-May-2020 4902.01 3168.49 66.30 9.00 299.45 2567.50
   23:41:45.718.17-May-2020 4902.01 3171.92 66.30 9.00 299.65 2567.50
   23:41:45.918.17-May-2020 4902.01 3175.42 66.30 9.00 299.85 2567.50
   23:41:46.118.17-May-2020 4902.01 3175.42 66.30 9.00 300.05 2567.50
   23:41:46.318.17-May-2020 4902.01 3180.67 66.30 9.00 300.25 2567.50
   23:41:46.518.17-May-2020 4902.01 3183.48 66.30 9.00 300.45 2567.50
   23:41:46.718.17-May-2020 4902.01 3186.74 66.30 9.00 300.65 2567.50
   23:41:46.918.17-May-2020 4902.01 3189.90 66.30 9.00 300.85 2567.50
   23:41:47.118.17-May-2020 4902.01 3189.90 66.30 9.00 301.05 2567.50
   23:41:47.317.17-May-2020 4902.01 3195.31 66.30 9.00 301.25 2567.50
   23:41:47.517.17-May-2020 4902.01 3198.10 66.30 9.00 301.45 2567.50
   23:41:47.717.17-May-2020 4902.01 3201.20 66.30 9.00 301.65 2567.50
   23:41:47.917.17-May-2020 4902.01 3204.05 66.30 9.00 301.85 2567.50
   23:41:48.117.17-May-2020 4902.01 3204.05 66.30 9.00 302.04 2567.50
   23:41:48.317.17-May-2020 4902.01 3208.21 66.30 9.00 302.24 2567.50
   23:41:48.517.17-May-2020 4902.01 3211.47 66.30 9.00 302.44 2567.50
   23:41:48.717.17-May-2020 4902.01 3214.01 66.30 9.00 302.64 2567.50
   23:41:48.917.17-May-2020 4902.01 3216.38 66.30 9.00 302.84 2567.50
   23:41:49.116.17-May-2020 4902.01 3216.38 66.30 9.00 303.04 2567.50
   23:41:49.316.17-May-2020 4902.01 3220.85 66.30 9.00 303.24 2567.50
   23:41:49.516.17-May-2020 4902.01 3223.67 66.30 9.00 303.44 2567.50
   23:41:49.716.17-May-2020 4902.01 3226.56 66.30 9.00 303.64 2567.50
   23:41:49.916.17-May-2020 4902.01 3229.55 66.30 9.00 303.84 2567.50
   23:41:50.116.17-May-2020 4902.01 3229.55 66.30 9.00 304.04 2567.50
   23:41:50.316.17-May-2020 4902.01 3234.89 66.30 9.00 304.24 2567.50
   23:41:50.516.17-May-2020 4902.01 3237.48 66.30 9.00 304.44 2567.50
   23:41:50.716.17-May-2020 4902.01 3239.97 66.30 9.00 304.64 2567.50
   23:41:50.916.17-May-2020 4902.01 3242.41 66.30 9.00 304.84 2567.50
   23:41:51.115.17-May-2020 4902.01 3242.41 66.30 9.00 305.04 2567.50
   23:41:51.315.17-May-2020 4902.01 3244.78 66.30 9.00 305.24 2567.50
   23:41:51.515.17-May-2020 4902.01 3247.92 66.30 9.00 305.44 2567.50
   23:41:51.715.17-May-2020 4902.01 3250.29 66.30 9.00 305.64 2567.50
   23:41:51.915.17-May-2020 4902.01 3252.95 66.30 9.00 305.84 2567.50
   23:41:52.115.17-May-2020 4902.01 3252.95 66.30 9.00 306.04 2567.50
   23:41:52.315.17-May-2020 4902.01 3257.84 66.30 9.00 306.24 2567.50
   23:41:52.515.17-May-2020 4902.01 3260.08 66.30 9.00 306.44 2567.50
   23:41:52.715.17-May-2020 4902.01 3262.40 66.30 9.00 306.64 2567.50
   23:41:52.915.17-May-2020 4902.01 3264.56 66.30 9.00 306.84 2567.50
   23:41:53.114.17-May-2020 4902.01 3264.56 66.30 9.00 307.04 2567.50
   23:41:53.314.17-May-2020 4902.01 3267.35 66.30 9.00 307.24 2567.50
   23:41:53.514.17-May-2020 4902.01 3269.00 66.30 9.00 307.44 2567.50
   23:41:53.714.17-May-2020 4902.01 3271.43 66.30 9.00 307.64 2567.50
   23:41:53.914.17-May-2020 4902.01 3272.07 66.30 9.00 307.84 2567.50
   23:41:54.114.17-May-2020 4902.01 3272.07 66.30 9.00 308.04 2567.50
   23:41:54.314.17-May-2020 4902.01 3275.43 66.30 9.00 308.24 2567.50
   23:41:54.514.17-May-2020 4902.01 3277.35 66.30 9.00 308.44 2567.50
   23:41:54.714.17-May-2020 4902.01 3279.67 66.30 9.00 308.64 2567.50
   23:41:54.914.17-May-2020 4902.01 3280.19 66.30 9.00 308.84 2567.50
   23:41:55.113.17-May-2020 4902.01 3280.19 66.30 9.00 309.04 2567.50
   23:41:55.313.17-May-2020 4902.01 3283.26 66.30 9.00 309.24 2567.50
   23:41:55.513.17-May-2020 4902.01 3285.12 66.30 9.00 309.44 2567.50
   23:41:55.713.17-May-2020 4902.01 3286.08 66.30 9.00 309.64 2567.50
   23:41:55.913.17-May-2020 4902.01 3287.07 66.30 9.00 309.84 2567.50
   23:41:56.113.17-May-2020 4902.01 3287.07 66.30 9.00 310.04 2567.50
   23:41:56.313.17-May-2020 4902.01 3291.00 66.30 9.00 310.24 2567.50
   23:41:56.513.17-May-2020 4902.01 3293.36 66.30 9.00 310.44 2567.50
   23:41:56.713.17-May-2020 4902.01 3295.27 66.30 9.00 310.64 2567.50
   23:41:56.912.17-May-2020 4902.01 3297.32 66.30 9.00 310.84 2567.50
   23:41:57.112.17-May-2020 4902.01 3297.32 66.30 9.00 311.04 2567.50
   23:41:57.312.17-May-2020 4902.01 3300.95 66.30 9.00 311.24 2567.50
   23:41:57.512.17-May-2020 4902.01 3302.80 66.30 9.00 311.44 2567.50
   23:41:57.712.17-May-2020 4902.01 3303.82 66.30 9.00 311.64 2567.50
   23:41:57.912.17-May-2020 4902.01 3304.25 66.30 9.00 311.84 2567.50
   23:41:58.112.17-May-2020 4902.01 3304.25 66.30 9.00 312.04 2567.50
   23:41:58.312.17-May-2020 4902.01 3307.27 66.30 9.00 312.24 2567.50
   23:41:58.512.17-May-2020 4902.01 3309.05 66.30 9.00 312.44 2567.50
   23:41:58.712.17-May-2020 4902.01 3311.10 66.30 9.00 312.64 2567.50
   23:41:58.911.17-May-2020 4902.01 3312.65 66.30 9.00 312.84 2567.50
   23:41:59.111.17-May-2020 4902.01 3312.65 66.30 9.00 313.04 2567.50
   23:41:59.311.17-May-2020 4902.01 3316.25 66.30 9.00 313.24 2567.50
   23:41:59.511.17-May-2020 4902.01 3318.11 66.30 9.00 313.44 2567.50
   23:41:59.711.17-May-2020 4902.01 3319.86 66.30 9.00 313.64 2567.50
   23:41:59.911.17-May-2020 4902.01 3320.07 66.30 9.00 313.84 2567.50
   23:42:00.111.17-May-2020 4902.01 3320.07 66.30 9.00 314.04 2567.50
   23:42:00.311.17-May-2020 4902.01 3322.66 66.30 9.00 314.24 2567.50
   23:42:00.511.17-May-2020 4902.01 3324.11 66.30 9.00 314.44 2567.50
   23:42:00.711.17-May-2020 4902.01 3326.07 66.30 9.00 314.64 2567.50
   23:42:00.910.17-May-2020 4902.01 3325.91 66.30 9.00 314.84 2567.50
   23:42:01.110.17-May-2020 4902.01 3325.91 66.30 9.00 315.04 2567.50
   23:42:01.310.17-May-2020 4902.01 3328.20 66.30 9.00 315.24 2567.50
   23:42:01.510.17-May-2020 4902.01 3329.59 66.30 9.00 315.44 2567.50
   23:42:01.710.17-May-2020 4902.01 3329.56 66.30 9.00 315.64 2567.50
   23:42:01.910.17-May-2020 4902.01 3329.59 66.30 9.00 315.84 2567.50
   23:42:02.110.17-May-2020 4902.01 3329.59 66.30 9.00 316.04 2567.50
   23:42:02.310.17-May-2020 4902.01 3333.10 66.30 9.00 316.24 2567.50
   23:42:02.510.17-May-2020 4902.01 3335.07 66.30 9.00 316.44 2567.50
   23:42:02.710.17-May-2020 4902.01 3335.18 66.30 9.00 316.64 2567.50
   23:42:02.909.17-May-2020 4902.01 3335.39 66.30 9.00 316.84 2567.50
   23:42:03.109.17-May-2020 4902.01 3335.39 66.30 9.00 317.04 2567.50
   23:42:03.309.17-May-2020 4902.01 3338.90 66.30 9.00 317.24 2567.50
   23:42:03.509.17-May-2020 4902.01 3341.02 66.30 9.00 317.44 2567.50
   23:42:03.709.17-May-2020 4902.01 3342.66 66.30 9.00 317.64 2567.50
   23:42:03.909.17-May-2020 4902.01 3345.44 66.30 9.00 317.84 2567.50
   23:42:04.109.17-May-2020 4902.01 3345.44 66.30 9.00 318.04 2567.50
   23:42:04.309.17-May-2020 4902.01 3348.79 66.30 9.00 318.24 2567.50
   23:42:04.509.17-May-2020 4902.01 3350.39 66.30 9.00 318.44 2567.50
   23:42:04.708.17-May-2020 4902.01 3351.12 66.30 9.00 318.64 2567.50
   23:42:04.908.17-May-2020 4902.01 3351.86 66.30 9.00 318.84 2567.50
   23:42:05.108.17-May-2020 4902.01 3351.86 66.30 9.00 319.04 2567.50
   23:42:05.308.17-May-2020 4902.01 3354.46 66.30 9.00 319.24 2567.50
   23:42:05.508.17-May-2020 4902.01 3355.92 66.30 9.00 319.44 2567.50
   23:42:05.708.17-May-2020 4902.01 3357.66 66.30 9.00 319.64 2567.50
   23:42:05.908.17-May-2020 4902.01 3358.82 66.30 9.00 319.84 2567.50
   23:42:06.108.17-May-2020 4902.01 3358.82 66.30 9.00 320.04 2567.50
   23:42:06.308.17-May-2020 4902.01 3361.78 66.30 9.00 320.24 2567.50
   23:42:06.508.17-May-2020 4902.01 3363.14 66.30 9.00 320.44 2567.50
   23:42:06.707.17-May-2020 4902.01 3364.60 66.30 9.00 320.64 2567.50
   23:42:06.907.17-May-2020 4902.01 3364.82 66.30 9.00 320.84 2567.50
   23:42:07.107.17-May-2020 4902.01 3364.82 66.30 9.00 321.04 2567.50
   23:42:07.307.17-May-2020 4902.01 3366.79 66.30 9.00 321.24 2567.50
   23:42:07.507.17-May-2020 4902.01 3367.95 66.30 9.00 321.44 2567.50
   23:42:07.707.17-May-2020 4902.01 3369.57 66.30 9.00 321.63 2567.50
