~Version Information
 VERS.                  2.0:   CWLS log ASCII Standard -VERSION 2.0
 WRAP.                   NO:   One line per depth step
~Well Information Block
#MNEM.UNIT     VALUE/NAME     DESCRIPTION
#---------     -----------    ---------------------------
 STRT.S             22:49:31 17-May-20: START TIME 22:49:31 17-May-20
 STOP.S             22:56:24 17-May-20: STOP TIME  22:56:24 17-May-20
 STEP.S                   0.00: STEP TIME
 NULL.                 -999.25: NULL VALUE
 UNIT.                     N/A:  LOGGING EQUIPMENT ID
 DCON.         Sperry Drilling:  DIRECTNL CONTR
 DOE .                     N/A:  DOE NUMBER
 JOBN.        AZ-XX-0906252240:  JOB TICKET NUMB
 MWDS.                     N/A:  MWD SHOP
 PROV.                    Baku:  PROVINCE
 STAT.                    Baku:  STATE NAME
 REGN.                   EESSA:  REGION
 BASE.              Azerbaijan:  LOGGING EQUIPMENT BASE LOCATION
 UWI .                     N/A:  UNIQUE WELL IDENTIFIER
 API .                     N/A:  API NUMBER
 MDS .        Operator Entered:  MAG DATA SOURCE
 WTYP.                Deviated:  WELL TYPE
 COMP.     BP Exploration (Caspian Sea) Ltd.:  COMPANY
 SRVC.          Turan Drilling:  CONTRACTOR
 WELL.           J23 (Slot 07):  WELL NAME
 CTRY.              Azerbaijan:  COUNTRY NAME
 FLD .                     ACG:  FIELD NAME
 PDAT.          Mean Sea Level:  PERMANENT DATUM
 RIG .             West Chirag:  RIG NAME
 SON .        AZ-XX-0906252240:  JOB NUMBER
 FTOP.          Formation Tops:  FORM TOPS DESC
 ILTD.               Lithology:  INTERP LTH DESC
 SVYD.                  Survey:  SURVEY DESC
 DMOD.             Drill Model:  DRILL MOD DESC
 HPTY.       Minimum Curvature:  HOLE POS TYPE
 NREF.                    Grid:  NORTH REFERENCE
 SPUD.               27-Aug-20:  SPUD DATE
 DATE.      00.00.00 19-May-20:  END TIME
 STIM.      03.00.00 25-Mar-20:  START TIME
 DMF .             Drill Floor:  DRILL MEAS FROM
 DFST.                        :  DIST FSL TEXT
 DFWT.                        :  DIST FWL TEXT
 CNTY.                        :  COUNTY
 LOC .                        :  LOCATION
 LMF .             Drill Floor:  LOG MEASURED FROM
 VSNS.m                   9.43:  VERT SEC N/S
 VSEW.m                  -8.91:  VERT SEC E/W
 AGAP.m                  43.00:  AIR GAP
 DEP .m                 354.17:  DEPTH
 APD .m                  43.00:  DEPTH ABOVE PD
 WDMS.m                 169.80:  WD ELEV
 EGL .m                   0.00:  GROUND ELEVATION
 EPD .m                   0.00:  ELEVATION
 AZTC.deg                 6.31:  AZM TOTAL CORR
 GRDC.deg                 0.14:  GRID CORRECTION
 MDEC.deg                 6.45:  MAGNETIC DECL
 MDIP.deg                59.56:  MAGNETIC DIP
 MFLD.nT              50295.00:  MAGNETIC FIELD
 GVFD.g                   1.00:  GRAVITY FIELD
 VSDR.deg               179.88:  VERT SEC DIRECT
 TDD .m                5150.01:  TOTAL DEPTH (DRILLER)
 SDEP.m                 864.00:  START DEPTH
 DFSL.m                   0.00:  DISTANCE FSL
 DFWL.m                   0.00:  DISTANCE FWL
 UTMY.m             4443793.85:  UTM Y
 UTMX.m              519005.06:  UTM X
 WHEW.m                  -8.91:  WELL HEAD E/W
 WHNS.m                   9.43:  WELL HEAD N/S
 LONG.deg                51.22:  LONGITUDE
 LATI.deg                40.13:  LATITUDE
 TVDS.m                  43.00:  TVDSS CORRECTN
 EKB .m                   0.00:  KB ELEVATION
 EDF .m                  43.00:  DF ELEVATION
 TDL .m                 363.00:  TOTAL DEPTH (LOGGER)
 MAGU.                 1850802:  MAGUTM CHECKSUM
 VSC .                       0:  VS TO CLOSURE
~Parameter Information Block
#MNEM.UNIT       Value        Description
#---------     -----------    ---------------------------
 AV  .mps                 2.30:  Ann Velocity 
 AVMX.mps                 4.40:  Max Ann Veloc 
 AZIF.deg               110.24:  Azm, Final 
 BHAT.        Rotary Steerable:  BHA Type 
 BREV.rev               331.00:  Rev Bit Total 
 BROT.°/30m               0.00:  Build Rotating 
 BS  .in                  8.50:  Bit Size 
 BSZ .in                  8.50:  Bit Size 
 BTPL.psig              585.00:  Bit Press Loss 
 CABU.                     Yes:  Customer Abuse 
 COMM.                     ¼´€:  Run Comments 1 
 TCS .hr                122.75:  Time Ciculation Ended 
 CV  .mps                 2.67:  Crit Velocity 
 CVMX.mps                 3.56:  Max Crit Veloc 
 DD1 .          Rashad Habibov:  Direct Drillr 1 
 DD2 .         Rasim Ibrahimov:  Direct Drillr 2 
 DDSV.               Geo-Pilot:  DD Service 
 DEFF.%                  98.00:  % Det Eff 
 DLRX.°/30m               0.75:  Dogleg Rot Max 
 DLSO.°/30m               1.25:  Dogleg Oriented 
 DLSX.°/30m               2.06:  Dogleg Str Max 
 DRET.      07.45.00 17-May-20:  Drill End Time 
 DRST.      22.50.00 15-May-20:  Drill Start Tim 
 DTIM.hr                 20.75:  Time Drilling 
 EDEP.m                5124.01:  End Depth 
 ENG1.           Eldar Hajiyev:  Engineer 1 
 ENG2.        Marcelo Sandoval:  Engineer 2 
 ENG3.        Davud huseynzada:  Engineer 3 
 ENG4.          Ruslan Safarov:  Engineer 4 
 ETIM.      04.33.00 23-May-20:  End Time 
 FLOI.gpm               450.00:  Flow In 
 FLON.gpm               400.00:  Flow In Min 
 FLOS.cptm                0.00:  Fluid Loss 
 FLOX.gpm               500.00:  Flow In Max 
 FTRO.       Formation Presure:  FTWD Run Obj 
 HFLO.                      No:  High Flow 
 HPRE.                     Yes:  High Pressure 
 HTEM.                      No:  High Temp 
 HYDO.m                   1.80:  Hydro Offset 
 IFIN.deg                75.06:  Inc, Final 
 IMAX.deg                75.38:  Inc Max 
 IMIN.deg                74.69:  Inc Min 
 IMND.m                5027.38:  Inc Min Depth 
 IMXD.m                4771.61:  Inc Max Depth 
 JARR.                      No:  Jarring 
 LETM.      07.45.00 17-May-20:  Log End Time 
 LOST.hr                     0:  Lost Rig Time 
 LSTM.      22.50.00 15-May-20:  Log Start Time 
 MDCL.ppm             42000.00:  Mud Chlorides 
 MDES.     Inversion Oil/Synthetic:  Mud Desc 
 DFD .sg                  1.34:  Mud Density 
 MDMN.sg                  1.34:  Dens Mud Min 
 MDMX.sg                  1.34:  Dens Mud Max 
 MOIL.                       0:  Run Mud Oil % 
 MOWR.                   67:33:  Run Mud OWR 
 MSND.                       0:  Run Mud Sand % 
 MSOL.                     1.8:  Run Mud Solids% 
 DFV .spqt               76.00:  Mud Viscosity 
 MWOD.in                  6.75:  MWD Tool OD 
 MWSI.                      No:  Serv Intrp, MWD 
 OTIM.hr                228.19:  Time Operating 
 PCON.           Look Like New:  Pad Condition 
 PMAX.psia             6164.70:  Press Op, Max 
 PV  .cP                 28.00:  Mud PV 
 RUN .                     900:  Run Number 
 ROPA.m/hr               19.00:  ROP Avg 
 ROPN.m/hr               11.00:  ROP Min 
 ROPX.m/hr               36.00:  ROP Max 
 RPMA.rpm               120.00:  RPM Surface Avg 
 RPMN.rpm               120.00:  RPM Surface Min 
 RPMX.rpm               120.00:  RPM Surface Max 
 RRUN.                    L604:  Rig Run Number 
 RTIM.hr                  7.00:  Time Reaming 
 SAZI.deg               109.27:  Azm, Start 
 SDEP.m                4761.01:  Start Depth 
 SIDD.                      No:  Serv Intrp, DD 
 SINC.deg                75.38:  Inc, Start 
 SPPA.psig             3574.00:  SPP Avg 
 SPPN.psig             3475.00:  SPP Min 
 SPPX.psig             3791.00:  SPP Max 
 STIM.      07.08.48 13-May-20:  Start Time 
 SVCS.                 DD, MWD:  Services 
 SVER.                    9.20:  Sperry Version 
 TDAT.m                 363.00:  Tot Depth Attmp 
 TDDF.                      No:  Trip for DD 
 TDLG.m                 363.00:  Tot Depth Loggd 
 TFF .                      No:  Trip for Fail 
 TQAA.f-kp               20.00:  Torque Abs Avg 
 TQAN.f-kp               18.00:  Torque Abs Min 
 TQAX.f-kp               22.00:  Torque Abs Max 
 TRRT.°/30m              -0.35:  Turn Rotating 
 MRT .                    HCIM:  Maximum Recorded Temperature 
 TTMX.degC               92.16:  Max Tool Temp 
 VS01.                90586518:  Virtual Str1 SN 
 VS02.        AZ90560654Z1W1C6:  Virtual Str2 SN 
 VS03.           AZ90610398F11:  Virtual Str3 SN 
 VS04.                90514975:  Virtual Str4 SN 
 VS05.                90514972:  Virtual Str5 SN 
 VS06.     AZ90603282F11V7D1A6:  Virtual Str6 SN 
 WBMN.klb                 7.00:  WOB Min 
 WOBA.klb                12.00:  WOB Avg 
 WOBX.klb                14.00:  WOB Max 
 YP  .lhf2               32.00:  Yield Point 
~Curve Information Block
#MNEM.UNIT                 API CODE     Curve Description
#---------               -----------    ---------------------------
 TIME.HHMMSS            00 000 000 000:  GT Time & Date
 GTDEPTH.m              00 000 000 000:  GT Depth
 GTPQH.psia             00 000 000 000:  GT HR Quartz Pressure
 GTTQ.degC              00 000 000 000:  GT Quartz Temperature
 GTTN.NONE              00 000 000 000:  GT Test Number
 GTET.sec               00 000 000 000:  GT Elapsed Test Time
 GTTVD.m                00 000 000 000:  GT True Vertical Depth
#Other Information
#
#WARRANTY: Halliburton will use its best efforts to furnish customers with 
#accurate information and interpretations that are part of, and incident to, the services 
#provided.  However, Halliburton cannot and does not warrant the accuracy 
#or correctness of such information and interpretations.  Under no circumstances should any 
#such information or interpretation be relied upon as the sole basis for any drilling, 
#completion, production, or financial decision or any procedure involving any risk to the 
#safety of any drilling venture, drilling rig or its crew or any other third party.  The 
#Customer has full responsibility for all drilling, completion and production operation.  
#Halliburton makes no representations or warranties, either expressed or 
#implied, including, but not limited to, the implied warranties of merchantability or fitness 
#for a particular purpose, with respect to the services rendered.  In no event will 
#Halliburton be liable for failure to obtain any particular results or for 
#any damages, including, but not limited to, indirect, special or consequential damages, 
#resulting from the use of any information or interpretation provided by Halliburton.
#
~A           TIME           GTDEPTH  GTPQH  GTTQ  GTTN  GTET   GTTVD  
# ...
   22:50:40.491.17-May-2020 4908.51   57.74 67.14 8.00  68.96 2569.17
   22:50:40.691.17-May-2020 4908.51   57.90 67.14 8.00  69.16 2569.17
   22:50:40.891.17-May-2020 4908.51   58.11 67.14 8.00  69.36 2569.17
   22:50:41.091.17-May-2020 4908.51   58.34 67.14 8.00  69.56 2569.17
   22:50:41.291.17-May-2020 4908.51   58.54 67.14 8.00  69.76 2569.17
   22:50:41.491.17-May-2020 4908.51   58.74 67.14 8.00  69.96 2569.17
   22:50:41.691.17-May-2020 4908.51   58.74 67.14 8.00  70.16 2569.17
   22:50:41.890.17-May-2020 4908.51   59.14 67.14 8.00  70.36 2569.17
   22:50:42.090.17-May-2020 4908.51   59.34 67.14 8.00  70.56 2569.17
   22:50:42.290.17-May-2020 4908.51   59.53 67.14 8.00  70.76 2569.17
   22:50:42.490.17-May-2020 4908.51   59.73 67.14 8.00  70.96 2569.17
   22:50:42.690.17-May-2020 4908.51   59.73 67.14 8.00  71.16 2569.17
   22:50:42.890.17-May-2020 4908.51   60.06 67.14 8.00  71.36 2569.17
   22:50:43.090.17-May-2020 4908.51   60.29 67.14 8.00  71.56 2569.17
   22:50:43.290.17-May-2020 4908.51   60.50 67.14 8.00  71.76 2569.17
   22:50:43.490.17-May-2020 4908.51   60.70 67.14 8.00  71.96 2569.17
   22:50:43.690.17-May-2020 4908.51   60.91 67.14 8.00  72.16 2569.17
   22:50:43.889.17-May-2020 4908.51   61.09 67.14 8.00  72.36 2569.17
   22:50:44.089.17-May-2020 4908.51   61.29 67.14 8.00  72.56 2569.17
   22:50:44.289.17-May-2020 4908.51   61.49 67.14 8.00  72.76 2569.17
   22:50:44.489.17-May-2020 4908.51   61.68 67.15 8.00  72.96 2569.17
   22:50:44.689.17-May-2020 4908.51   61.85 67.15 8.00  73.16 2569.17
   22:50:44.889.17-May-2020 4908.51   62.02 67.15 8.00  73.36 2569.17
   22:50:45.089.17-May-2020 4908.51   62.23 67.15 8.00  73.56 2569.17
   22:50:45.289.17-May-2020 4908.51   62.45 67.15 8.00  73.76 2569.17
   22:50:45.489.17-May-2020 4908.51   62.61 67.15 8.00  73.96 2569.17
   22:50:45.689.17-May-2020 4908.51   62.61 67.15 8.00  74.16 2569.17
   22:50:45.888.17-May-2020 4908.51   63.01 67.15 8.00  74.36 2569.17
   22:50:46.088.17-May-2020 4908.51   63.22 67.15 8.00  74.56 2569.17
   22:50:46.288.17-May-2020 4908.51   63.38 67.15 8.00  74.76 2569.17
   22:50:46.488.17-May-2020 4908.51   63.57 67.15 8.00  74.96 2569.17
   22:50:46.688.17-May-2020 4908.51   63.57 67.15 8.00  75.16 2569.17
   22:50:46.888.17-May-2020 4908.51   63.94 67.15 8.00  75.36 2569.17
   22:50:47.088.17-May-2020 4908.51   64.12 67.15 8.00  75.56 2569.17
   22:50:47.288.17-May-2020 4908.51   64.34 67.15 8.00  75.76 2569.17
   22:50:47.488.17-May-2020 4908.51   64.54 67.15 8.00  75.96 2569.17
   22:50:47.688.17-May-2020 4908.51   64.74 67.15 8.00  76.16 2569.17
   22:50:47.887.17-May-2020 4908.51   64.94 67.15 8.00  76.36 2569.17
   22:50:48.087.17-May-2020 4908.51   65.14 67.15 8.00  76.56 2569.17
   22:50:48.287.17-May-2020 4908.51   65.34 67.15 8.00  76.76 2569.17
   22:50:48.487.17-May-2020 4908.51   65.53 67.15 8.00  76.96 2569.17
   22:50:48.687.17-May-2020 4908.51   65.72 67.15 8.00  77.16 2569.17
   22:50:48.887.17-May-2020 4908.51   65.88 67.15 8.00  77.36 2569.17
   22:50:49.087.17-May-2020 4908.51   66.06 67.15 8.00  77.56 2569.17
   22:50:49.287.17-May-2020 4908.51   66.25 67.15 8.00  77.76 2569.17
   22:50:49.487.17-May-2020 4908.51   66.44 67.15 8.00  77.96 2569.17
   22:50:49.686.17-May-2020 4908.51   66.44 67.15 8.00  78.16 2569.17
   22:50:49.886.17-May-2020 4908.51   66.83 67.15 8.00  78.36 2569.17
   22:50:50.086.17-May-2020 4908.51   67.02 67.15 8.00  78.56 2569.17
   22:50:50.286.17-May-2020 4908.51   67.22 67.15 8.00  78.76 2569.17
   22:50:50.486.17-May-2020 4908.51   67.40 67.15 8.00  78.96 2569.17
   22:50:50.686.17-May-2020 4908.51   67.40 67.15 8.00  79.16 2569.17
   22:50:50.886.17-May-2020 4908.51   67.75 67.15 8.00  79.36 2569.17
   22:50:51.086.17-May-2020 4908.51   67.96 67.15 8.00  79.56 2569.17
   22:50:51.286.17-May-2020 4908.51   68.14 67.15 8.00  79.76 2569.17
   22:50:51.486.17-May-2020 4908.51   68.33 67.15 8.00  79.96 2569.17
   22:50:51.685.17-May-2020 4908.51   68.49 67.15 8.00  80.16 2569.17
   22:50:51.885.17-May-2020 4908.51   68.70 67.15 8.00  80.36 2569.17
   22:50:52.085.17-May-2020 4908.51   68.89 67.15 8.00  80.56 2569.17
   22:50:52.285.17-May-2020 4908.51   69.06 67.15 8.00  80.76 2569.17
   22:50:52.485.17-May-2020 4908.51   69.23 67.16 8.00  80.96 2569.17
   22:50:52.685.17-May-2020 4908.51   69.44 67.16 8.00  81.16 2569.17
   22:50:52.885.17-May-2020 4908.51   69.62 67.16 8.00  81.36 2569.17
   22:50:53.085.17-May-2020 4908.51   69.80 67.16 8.00  81.56 2569.17
   22:50:53.285.17-May-2020 4908.51   69.98 67.16 8.00  81.76 2569.17
   22:50:53.485.17-May-2020 4908.51   70.15 67.16 8.00  81.96 2569.17
   22:50:53.684.17-May-2020 4908.51   70.15 67.16 8.00  82.16 2569.17
   22:50:53.884.17-May-2020 4908.51   70.54 67.16 8.00  82.36 2569.17
   22:50:54.084.17-May-2020 4908.51   70.72 67.16 8.00  82.56 2569.17
   22:50:54.284.17-May-2020 4908.51   70.89 67.16 8.00  82.76 2569.17
   22:50:54.484.17-May-2020 4908.51   71.09 67.16 8.00  82.96 2569.17
   22:50:54.684.17-May-2020 4908.51   71.09 67.16 8.00  83.16 2569.17
   22:50:54.884.17-May-2020 4908.51   71.46 67.16 8.00  83.36 2569.17
   22:50:55.084.17-May-2020 4908.51   71.65 67.16 8.00  83.56 2569.17
   22:50:55.284.17-May-2020 4908.51   71.84 67.16 8.00  83.76 2569.17
   22:50:55.484.17-May-2020 4908.51   72.04 67.16 8.00  83.96 2569.17
   22:50:55.683.17-May-2020 4908.51   72.27 67.16 8.00  84.16 2569.17
   22:50:55.883.17-May-2020 4908.51   72.45 67.16 8.00  84.36 2569.17
   22:50:56.083.17-May-2020 4908.51   72.63 67.16 8.00  84.56 2569.17
   22:50:56.283.17-May-2020 4908.51   72.82 67.16 8.00  84.76 2569.17
   22:50:56.483.17-May-2020 4908.51   73.01 67.16 8.00  84.96 2569.17
   22:50:56.683.17-May-2020 4908.51   73.21 67.16 8.00  85.16 2569.17
   22:50:56.883.17-May-2020 4908.51   73.41 67.16 8.00  85.36 2569.17
   22:50:57.083.17-May-2020 4908.51   73.61 67.16 8.00  85.56 2569.17
   22:50:57.283.17-May-2020 4908.51   73.80 67.16 8.00  85.76 2569.17
   22:50:57.482.17-May-2020 4908.51   74.01 67.16 8.00  85.96 2569.17
   22:50:57.682.17-May-2020 4908.51   74.01 67.16 8.00  86.16 2569.17
   22:50:57.882.17-May-2020 4908.51   74.44 67.16 8.00  86.36 2569.17
   22:50:58.082.17-May-2020 4908.51   74.63 67.16 8.00  86.56 2569.17
   22:50:58.282.17-May-2020 4908.51   74.90 67.16 8.00  86.76 2569.17
   22:50:58.482.17-May-2020 4908.51   75.07 67.16 8.00  86.96 2569.17
   22:50:58.682.17-May-2020 4908.51   75.07 67.16 8.00  87.16 2569.17
   22:50:58.882.17-May-2020 4908.51   75.45 67.16 8.00  87.36 2569.17
   22:50:59.082.17-May-2020 4908.51   75.71 67.16 8.00  87.56 2569.17
   22:50:59.282.17-May-2020 4908.51   75.90 67.16 8.00  87.75 2569.17
   22:50:59.481.17-May-2020 4908.51   76.08 67.16 8.00  87.95 2569.17
   22:50:59.681.17-May-2020 4908.51   76.29 67.16 8.00  88.15 2569.17
   22:50:59.881.17-May-2020 4908.51   76.50 67.16 8.00  88.35 2569.17
   22:51:00.081.17-May-2020 4908.51   76.76 67.16 8.00  88.55 2569.17
   22:51:00.281.17-May-2020 4908.51   76.94 67.16 8.00  88.75 2569.17
   22:51:00.481.17-May-2020 4908.51   77.13 67.16 8.00  88.95 2569.17
   22:51:00.681.17-May-2020 4908.51   77.34 67.16 8.00  89.15 2569.17
   22:51:00.881.17-May-2020 4908.51   77.55 67.16 8.00  89.35 2569.17
   22:51:01.081.17-May-2020 4908.51   77.76 67.16 8.00  89.55 2569.17
   22:51:01.281.17-May-2020 4908.51   77.98 67.16 8.00  89.75 2569.17
   22:51:01.480.17-May-2020 4908.51   78.19 67.16 8.00  89.95 2569.17
   22:51:01.680.17-May-2020 4908.51   78.19 67.16 8.00  90.15 2569.17
   22:51:01.880.17-May-2020 4908.51   78.62 67.16 8.00  90.35 2569.17
   22:51:02.080.17-May-2020 4908.51   78.90 67.16 8.00  90.55 2569.17
   22:51:02.280.17-May-2020 4908.51   79.09 67.16 8.00  90.75 2569.17
   22:51:02.480.17-May-2020 4908.51   79.28 67.16 8.00  90.95 2569.17
   22:51:02.680.17-May-2020 4908.51   79.28 67.16 8.00  91.15 2569.17
   22:51:02.880.17-May-2020 4908.51   79.71 67.17 8.00  91.35 2569.17
   22:51:03.080.17-May-2020 4908.51   79.94 67.17 8.00  91.55 2569.17
   22:51:03.280.17-May-2020 4908.51   80.15 67.17 8.00  91.75 2569.17
