~Version Information
 VERS.                  2.0:   CWLS log ASCII Standard -VERSION 2.0
 WRAP.                   NO:   One line per depth step
~Well Information Block
#MNEM.UNIT     VALUE/NAME     DESCRIPTION
#---------     -----------    ---------------------------
 STRT.S             22:05:00 17-May-20: START TIME 22:05:00 17-May-20
 STOP.S             22:12:03 17-May-20: STOP TIME  22:12:03 17-May-20
 STEP.S                   0.00: STEP TIME
 NULL.                 -999.25: NULL VALUE
 UNIT.                     N/A:  LOGGING EQUIPMENT ID
 DCON.         Sperry Drilling:  DIRECTNL CONTR
 DOE .                     N/A:  DOE NUMBER
 JOBN.        AZ-XX-0906252240:  JOB TICKET NUMB
 MWDS.                     N/A:  MWD SHOP
 PROV.                    Baku:  PROVINCE
 STAT.                    Baku:  STATE NAME
 REGN.                   EESSA:  REGION
 BASE.              Azerbaijan:  LOGGING EQUIPMENT BASE LOCATION
 UWI .                     N/A:  UNIQUE WELL IDENTIFIER
 API .                     N/A:  API NUMBER
 MDS .        Operator Entered:  MAG DATA SOURCE
 WTYP.                Deviated:  WELL TYPE
 COMP.     BP Exploration (Caspian Sea) Ltd.:  COMPANY
 SRVC.          Turan Drilling:  CONTRACTOR
 WELL.           J23 (Slot 07):  WELL NAME
 CTRY.              Azerbaijan:  COUNTRY NAME
 FLD .                     ACG:  FIELD NAME
 PDAT.          Mean Sea Level:  PERMANENT DATUM
 RIG .             West Chirag:  RIG NAME
 SON .        AZ-XX-0906252240:  JOB NUMBER
 FTOP.          Formation Tops:  FORM TOPS DESC
 ILTD.               Lithology:  INTERP LTH DESC
 SVYD.                  Survey:  SURVEY DESC
 DMOD.             Drill Model:  DRILL MOD DESC
 HPTY.       Minimum Curvature:  HOLE POS TYPE
 NREF.                    Grid:  NORTH REFERENCE
 SPUD.               27-Aug-20:  SPUD DATE
 DATE.      00.00.00 19-May-20:  END TIME
 STIM.      03.00.00 25-Mar-20:  START TIME
 DMF .             Drill Floor:  DRILL MEAS FROM
 DFST.                        :  DIST FSL TEXT
 DFWT.                        :  DIST FWL TEXT
 CNTY.                        :  COUNTY
 LOC .                        :  LOCATION
 LMF .             Drill Floor:  LOG MEASURED FROM
 VSNS.m                   9.43:  VERT SEC N/S
 VSEW.m                  -8.91:  VERT SEC E/W
 AGAP.m                  43.00:  AIR GAP
 DEP .m                 354.17:  DEPTH
 APD .m                  43.00:  DEPTH ABOVE PD
 WDMS.m                 169.80:  WD ELEV
 EGL .m                   0.00:  GROUND ELEVATION
 EPD .m                   0.00:  ELEVATION
 AZTC.deg                 6.31:  AZM TOTAL CORR
 GRDC.deg                 0.14:  GRID CORRECTION
 MDEC.deg                 6.45:  MAGNETIC DECL
 MDIP.deg                59.56:  MAGNETIC DIP
 MFLD.nT              50295.00:  MAGNETIC FIELD
 GVFD.g                   1.00:  GRAVITY FIELD
 VSDR.deg               179.88:  VERT SEC DIRECT
 TDD .m                5150.01:  TOTAL DEPTH (DRILLER)
 SDEP.m                 864.00:  START DEPTH
 DFSL.m                   0.00:  DISTANCE FSL
 DFWL.m                   0.00:  DISTANCE FWL
 UTMY.m             4443793.85:  UTM Y
 UTMX.m              519005.06:  UTM X
 WHEW.m                  -8.91:  WELL HEAD E/W
 WHNS.m                   9.43:  WELL HEAD N/S
 LONG.deg                51.22:  LONGITUDE
 LATI.deg                40.13:  LATITUDE
 TVDS.m                  43.00:  TVDSS CORRECTN
 EKB .m                   0.00:  KB ELEVATION
 EDF .m                  43.00:  DF ELEVATION
 TDL .m                 363.00:  TOTAL DEPTH (LOGGER)
 MAGU.                 1850802:  MAGUTM CHECKSUM
 VSC .                       0:  VS TO CLOSURE
~Parameter Information Block
#MNEM.UNIT       Value        Description
#---------     -----------    ---------------------------
 AV  .mps                 2.30:  Ann Velocity 
 AVMX.mps                 4.40:  Max Ann Veloc 
 AZIF.deg               110.24:  Azm, Final 
 BHAT.        Rotary Steerable:  BHA Type 
 BREV.rev               331.00:  Rev Bit Total 
 BROT.°/30m               0.00:  Build Rotating 
 BS  .in                  8.50:  Bit Size 
 BSZ .in                  8.50:  Bit Size 
 BTPL.psig              585.00:  Bit Press Loss 
 CABU.                     Yes:  Customer Abuse 
 COMM.                     íe:  Run Comments 1 
 TCS .hr                122.75:  Time Ciculation Ended 
 CV  .mps                 2.67:  Crit Velocity 
 CVMX.mps                 3.56:  Max Crit Veloc 
 DD1 .          Rashad Habibov:  Direct Drillr 1 
 DD2 .         Rasim Ibrahimov:  Direct Drillr 2 
 DDSV.               Geo-Pilot:  DD Service 
 DEFF.%                  98.00:  % Det Eff 
 DLRX.°/30m               0.75:  Dogleg Rot Max 
 DLSO.°/30m               1.25:  Dogleg Oriented 
 DLSX.°/30m               2.06:  Dogleg Str Max 
 DRET.      07.45.00 17-May-20:  Drill End Time 
 DRST.      22.50.00 15-May-20:  Drill Start Tim 
 DTIM.hr                 20.75:  Time Drilling 
 EDEP.m                5124.01:  End Depth 
 ENG1.           Eldar Hajiyev:  Engineer 1 
 ENG2.        Marcelo Sandoval:  Engineer 2 
 ENG3.        Davud huseynzada:  Engineer 3 
 ENG4.          Ruslan Safarov:  Engineer 4 
 ETIM.      04.33.00 23-May-20:  End Time 
 FLOI.gpm               450.00:  Flow In 
 FLON.gpm               400.00:  Flow In Min 
 FLOS.cptm                0.00:  Fluid Loss 
 FLOX.gpm               500.00:  Flow In Max 
 FTRO.       Formation Presure:  FTWD Run Obj 
 HFLO.                      No:  High Flow 
 HPRE.                     Yes:  High Pressure 
 HTEM.                      No:  High Temp 
 HYDO.m                   1.80:  Hydro Offset 
 IFIN.deg                75.06:  Inc, Final 
 IMAX.deg                75.38:  Inc Max 
 IMIN.deg                74.69:  Inc Min 
 IMND.m                5027.38:  Inc Min Depth 
 IMXD.m                4771.61:  Inc Max Depth 
 JARR.                      No:  Jarring 
 LETM.      07.45.00 17-May-20:  Log End Time 
 LOST.hr                     0:  Lost Rig Time 
 LSTM.      22.50.00 15-May-20:  Log Start Time 
 MDCL.ppm             42000.00:  Mud Chlorides 
 MDES.     Inversion Oil/Synthetic:  Mud Desc 
 DFD .sg                  1.34:  Mud Density 
 MDMN.sg                  1.34:  Dens Mud Min 
 MDMX.sg                  1.34:  Dens Mud Max 
 MOIL.                       0:  Run Mud Oil % 
 MOWR.                   67:33:  Run Mud OWR 
 MSND.                       0:  Run Mud Sand % 
 MSOL.                     1.8:  Run Mud Solids% 
 DFV .spqt               76.00:  Mud Viscosity 
 MWOD.in                  6.75:  MWD Tool OD 
 MWSI.                      No:  Serv Intrp, MWD 
 OTIM.hr                228.19:  Time Operating 
 PCON.           Look Like New:  Pad Condition 
 PMAX.psia             6164.70:  Press Op, Max 
 PV  .cP                 28.00:  Mud PV 
 RUN .                     900:  Run Number 
 ROPA.m/hr               19.00:  ROP Avg 
 ROPN.m/hr               11.00:  ROP Min 
 ROPX.m/hr               36.00:  ROP Max 
 RPMA.rpm               120.00:  RPM Surface Avg 
 RPMN.rpm               120.00:  RPM Surface Min 
 RPMX.rpm               120.00:  RPM Surface Max 
 RRUN.                    L604:  Rig Run Number 
 RTIM.hr                  7.00:  Time Reaming 
 SAZI.deg               109.27:  Azm, Start 
 SDEP.m                4761.01:  Start Depth 
 SIDD.                      No:  Serv Intrp, DD 
 SINC.deg                75.38:  Inc, Start 
 SPPA.psig             3574.00:  SPP Avg 
 SPPN.psig             3475.00:  SPP Min 
 SPPX.psig             3791.00:  SPP Max 
 STIM.      07.08.48 13-May-20:  Start Time 
 SVCS.                 DD, MWD:  Services 
 SVER.                    9.20:  Sperry Version 
 TDAT.m                 363.00:  Tot Depth Attmp 
 TDDF.                      No:  Trip for DD 
 TDLG.m                 363.00:  Tot Depth Loggd 
 TFF .                      No:  Trip for Fail 
 TQAA.f-kp               20.00:  Torque Abs Avg 
 TQAN.f-kp               18.00:  Torque Abs Min 
 TQAX.f-kp               22.00:  Torque Abs Max 
 TRRT.°/30m              -0.35:  Turn Rotating 
 MRT .                    HCIM:  Maximum Recorded Temperature 
 TTMX.degC               92.16:  Max Tool Temp 
 VS01.                90586518:  Virtual Str1 SN 
 VS02.        AZ90560654Z1W1C6:  Virtual Str2 SN 
 VS03.           AZ90610398F11:  Virtual Str3 SN 
 VS04.                90514975:  Virtual Str4 SN 
 VS05.                90514972:  Virtual Str5 SN 
 VS06.     AZ90603282F11V7D1A6:  Virtual Str6 SN 
 WBMN.klb                 7.00:  WOB Min 
 WOBA.klb                12.00:  WOB Avg 
 WOBX.klb                14.00:  WOB Max 
 YP  .lhf2               32.00:  Yield Point 
~Curve Information Block
#MNEM.UNIT                 API CODE     Curve Description
#---------               -----------    ---------------------------
 TIME.HHMMSS            00 000 000 000:  GT Time & Date
 GTDEPTH.m              00 000 000 000:  GT Depth
 GTPQH.psia             00 000 000 000:  GT HR Quartz Pressure
 GTTQ.degC              00 000 000 000:  GT Quartz Temperature
 GTTN.NONE              00 000 000 000:  GT Test Number
 GTET.sec               00 000 000 000:  GT Elapsed Test Time
 GTTVD.m                00 000 000 000:  GT True Vertical Depth
#Other Information
#
#WARRANTY: Halliburton will use its best efforts to furnish customers with 
#accurate information and interpretations that are part of, and incident to, the services 
#provided.  However, Halliburton cannot and does not warrant the accuracy 
#or correctness of such information and interpretations.  Under no circumstances should any 
#such information or interpretation be relied upon as the sole basis for any drilling, 
#completion, production, or financial decision or any procedure involving any risk to the 
#safety of any drilling venture, drilling rig or its crew or any other third party.  The 
#Customer has full responsibility for all drilling, completion and production operation.  
#Halliburton makes no representations or warranties, either expressed or 
#implied, including, but not limited to, the implied warranties of merchantability or fitness 
#for a particular purpose, with respect to the services rendered.  In no event will 
#Halliburton be liable for failure to obtain any particular results or for 
#any damages, including, but not limited to, indirect, special or consequential damages, 
#resulting from the use of any information or interpretation provided by Halliburton.
#
~A           TIME           GTDEPTH  GTPQH  GTTQ  GTTN  GTET   GTTVD  
# ...
   22:07:42.087.17-May-2020 4937.01 2917.52 67.67 7.00 161.30 2576.47
   22:07:42.287.17-May-2020 4937.01 2917.52 67.67 7.00 161.50 2576.47
   22:07:42.488.17-May-2020 4937.01 2922.48 67.67 7.00 161.70 2576.47
   22:07:42.688.17-May-2020 4937.01 2930.91 67.67 7.00 161.90 2576.47
   22:07:42.888.17-May-2020 4937.01 2931.18 67.67 7.00 162.10 2576.47
   22:07:43.089.17-May-2020 4937.01 2931.27 67.67 7.00 162.30 2576.47
   22:07:43.289.17-May-2020 4937.01 2931.27 67.67 7.00 162.50 2576.47
   22:07:43.490.17-May-2020 4937.01 2931.56 67.67 7.00 162.70 2576.47
   22:07:43.690.17-May-2020 4937.01 2931.57 67.67 7.00 162.90 2576.47
   22:07:43.890.17-May-2020 4937.01 2931.63 67.67 7.00 163.10 2576.47
   22:07:44.091.17-May-2020 4937.01 2931.62 67.67 7.00 163.30 2576.47
   22:07:44.291.17-May-2020 4937.01 2931.62 67.67 7.00 163.50 2576.47
   22:07:44.491.17-May-2020 4937.01 2931.66 67.67 7.00 163.70 2576.47
   22:07:44.692.17-May-2020 4937.01 2931.68 67.67 7.00 163.90 2576.47
   22:07:44.892.17-May-2020 4937.01 2931.69 67.67 7.00 164.10 2576.47
   22:07:45.092.17-May-2020 4937.01 2931.71 67.67 7.00 164.30 2576.47
   22:07:45.293.17-May-2020 4937.01 2931.71 67.67 7.00 164.50 2576.47
   22:07:45.493.17-May-2020 4937.01 2931.87 67.67 7.00 164.70 2576.47
   22:07:45.694.17-May-2020 4937.01 2931.69 67.67 7.00 164.90 2576.47
   22:07:45.894.17-May-2020 4937.01 2931.86 67.67 7.00 165.10 2576.47
   22:07:46.094.17-May-2020 4937.01 2931.78 67.67 7.00 165.30 2576.47
   22:07:46.295.17-May-2020 4937.01 2931.86 67.67 7.00 165.50 2576.47
   22:07:46.495.17-May-2020 4937.01 2931.79 67.67 7.00 165.70 2576.47
   22:07:46.695.17-May-2020 4937.01 2931.85 67.67 7.00 165.90 2576.47
   22:07:46.896.17-May-2020 4937.01 2931.82 67.67 7.00 166.10 2576.47
   22:07:47.096.17-May-2020 4937.01 2931.93 67.67 7.00 166.31 2576.47
   22:07:47.297.17-May-2020 4937.01 2931.78 67.67 7.00 166.51 2576.47
   22:07:47.497.17-May-2020 4937.01 2931.93 67.67 7.00 166.71 2576.47
   22:07:47.697.17-May-2020 4937.01 2931.80 67.67 7.00 166.91 2576.47
   22:07:47.898.17-May-2020 4937.01 2931.90 67.67 7.00 167.11 2576.47
   22:07:48.098.17-May-2020 4937.01 2931.86 67.67 7.00 167.31 2576.47
   22:07:48.298.17-May-2020 4937.01 2931.86 67.67 7.00 167.51 2576.47
   22:07:48.499.17-May-2020 4937.01 2931.83 67.67 7.00 167.71 2576.47
   22:07:48.699.17-May-2020 4937.01 2931.89 67.67 7.00 167.91 2576.47
   22:07:48.899.17-May-2020 4937.01 2931.87 67.67 7.00 168.11 2576.47
   22:07:49.100.17-May-2020 4937.01 2931.89 67.67 7.00 168.31 2576.47
   22:07:49.300.17-May-2020 4937.01 2931.89 67.67 7.00 168.51 2576.47
   22:07:49.501.17-May-2020 4937.01 2931.89 67.67 7.00 168.71 2576.47
   22:07:49.701.17-May-2020 4937.01 2931.90 67.67 7.00 168.91 2576.47
   22:07:49.901.17-May-2020 4937.01 2931.97 67.67 7.00 169.11 2576.47
   22:07:50.102.17-May-2020 4937.01 2931.87 67.67 7.00 169.31 2576.47
   22:07:50.302.17-May-2020 4937.01 2931.92 67.67 7.00 169.51 2576.47
   22:07:50.502.17-May-2020 4937.01 2931.91 67.67 7.00 169.71 2576.47
   22:07:50.703.17-May-2020 4937.01 2931.91 67.67 7.00 169.91 2576.47
   22:07:50.903.17-May-2020 4937.01 2931.92 67.67 7.00 170.11 2576.47
   22:07:51.104.17-May-2020 4937.01 2931.92 67.67 7.00 170.31 2576.47
   22:07:51.304.17-May-2020 4937.01 2931.92 67.67 7.00 170.51 2576.47
   22:07:51.504.17-May-2020 4937.01 2931.93 67.67 7.00 170.71 2576.47
   22:07:51.705.17-May-2020 4937.01 2931.93 67.67 7.00 170.91 2576.47
   22:07:51.905.17-May-2020 4937.01 2931.93 67.67 7.00 171.11 2576.47
   22:07:52.105.17-May-2020 4937.01 2931.96 67.67 7.00 171.31 2576.47
   22:07:52.306.17-May-2020 4937.01 2931.93 67.66 7.00 171.51 2576.47
   22:07:52.506.17-May-2020 4937.01 2932.01 67.67 7.00 171.71 2576.47
   22:07:52.706.17-May-2020 4937.01 2931.92 67.66 7.00 171.92 2576.47
   22:07:52.907.17-May-2020 4937.01 2931.99 67.66 7.00 172.12 2576.47
   22:07:53.107.17-May-2020 4937.01 2931.92 67.66 7.00 172.32 2576.47
   22:07:53.308.17-May-2020 4937.01 2931.92 67.66 7.00 172.52 2576.47
   22:07:53.508.17-May-2020 4937.01 2931.92 67.66 7.00 172.72 2576.47
   22:07:53.708.17-May-2020 4937.01 2932.00 67.66 7.00 172.92 2576.47
   22:07:53.909.17-May-2020 4937.01 2931.95 67.66 7.00 173.12 2576.47
   22:07:54.109.17-May-2020 4937.01 2931.95 67.66 7.00 173.32 2576.47
   22:07:54.309.17-May-2020 4937.01 2931.95 67.66 7.00 173.52 2576.47
   22:07:54.510.17-May-2020 4937.01 2931.95 67.66 7.00 173.72 2576.47
   22:07:54.710.17-May-2020 4937.01 2932.07 67.66 7.00 173.92 2576.47
   22:07:54.910.17-May-2020 4937.01 2931.86 67.66 7.00 174.12 2576.47
   22:07:55.111.17-May-2020 4937.01 2932.01 67.66 7.00 174.32 2576.47
   22:07:55.311.17-May-2020 4937.01 2931.94 67.66 7.00 174.52 2576.47
   22:07:55.512.17-May-2020 4937.01 2931.97 67.66 7.00 174.72 2576.47
   22:07:55.712.17-May-2020 4937.01 2931.96 67.66 7.00 174.92 2576.47
   22:07:55.912.17-May-2020 4937.01 2931.97 67.66 7.00 175.12 2576.47
   22:07:56.113.17-May-2020 4937.01 2931.96 67.66 7.00 175.32 2576.47
   22:07:56.313.17-May-2020 4937.01 2931.96 67.66 7.00 175.52 2576.47
   22:07:56.513.17-May-2020 4937.01 2931.96 67.66 7.00 175.72 2576.47
   22:07:56.714.17-May-2020 4937.01 2931.97 67.66 7.00 175.92 2576.47
   22:07:56.914.17-May-2020 4937.01 2932.09 67.66 7.00 176.12 2576.47
   22:07:57.115.17-May-2020 4937.01 2931.88 67.66 7.00 176.32 2576.47
   22:07:57.315.17-May-2020 4937.01 2931.88 67.66 7.00 176.52 2576.47
   22:07:57.515.17-May-2020 4937.01 2931.93 67.66 7.00 176.72 2576.47
   22:07:57.716.17-May-2020 4937.01 2931.98 67.66 7.00 176.92 2576.47
   22:07:57.916.17-May-2020 4937.01 2931.96 67.66 7.00 177.12 2576.47
   22:07:58.116.17-May-2020 4937.01 2931.98 67.66 7.00 177.33 2576.47
   22:07:58.317.17-May-2020 4937.01 2931.98 67.66 7.00 177.53 2576.47
   22:07:58.517.17-May-2020 4937.01 2931.98 67.66 7.00 177.73 2576.47
   22:07:58.717.17-May-2020 4937.01 2931.99 67.66 7.00 177.93 2576.47
   22:07:58.918.17-May-2020 4937.01 2932.12 67.66 7.00 178.13 2576.47
   22:07:59.118.17-May-2020 4937.01 2931.89 67.66 7.00 178.33 2576.47
   22:07:59.319.17-May-2020 4937.01 2932.03 67.66 7.00 178.53 2576.47
   22:07:59.519.17-May-2020 4937.01 2931.97 67.66 7.00 178.73 2576.47
   22:07:59.719.17-May-2020 4937.01 2932.13 67.66 7.00 178.93 2576.47
   22:07:59.920.17-May-2020 4937.01 2931.89 67.66 7.00 179.13 2576.47
   22:08:00.120.17-May-2020 4937.01 2932.06 67.66 7.00 179.33 2576.47
   22:08:00.320.17-May-2020 4937.01 2932.06 67.66 7.00 179.53 2576.47
   22:08:00.521.17-May-2020 4937.01 2932.00 67.66 7.00 179.73 2576.47
   22:08:00.721.17-May-2020 4937.01 2932.11 67.66 7.00 179.93 2576.47
   22:08:00.922.17-May-2020 4937.01 2931.88 67.66 7.00 180.13 2576.47
   22:08:01.122.17-May-2020 4937.01 2932.06 67.66 7.00 180.33 2576.47
   22:08:01.322.17-May-2020 4937.01 2932.06 67.66 7.00 180.53 2576.47
   22:08:01.523.17-May-2020 4937.01 2932.01 67.66 7.00 180.73 2576.47
   22:08:01.723.17-May-2020 4937.01 2931.99 67.66 7.00 180.93 2576.47
   22:08:01.923.17-May-2020 4937.01 2931.99 67.66 7.00 181.13 2576.47
   22:08:02.124.17-May-2020 4937.01 2932.06 67.66 7.00 181.33 2576.47
   22:08:02.324.17-May-2020 4937.01 2932.06 67.66 7.00 181.53 2576.47
   22:08:02.524.17-May-2020 4937.01 2932.00 67.66 7.00 181.73 2576.47
   22:08:02.725.17-May-2020 4937.01 2931.99 67.66 7.00 181.93 2576.47
   22:08:02.925.17-May-2020 4937.01 2931.99 67.66 7.00 182.13 2576.47
   22:08:03.126.17-May-2020 4937.01 2931.99 67.66 7.00 182.33 2576.47
   22:08:03.326.17-May-2020 4937.01 2931.99 67.66 7.00 182.53 2576.47
   22:08:03.526.17-May-2020 4937.01 2931.99 67.66 7.00 182.74 2576.47
   22:08:03.727.17-May-2020 4937.01 2932.06 67.66 7.00 182.94 2576.47
   22:08:03.927.17-May-2020 4937.01 2931.97 67.66 7.00 183.14 2576.47
   22:08:04.127.17-May-2020 4937.01 2932.01 67.66 7.00 183.34 2576.47
   22:08:04.328.17-May-2020 4937.01 2932.01 67.66 7.00 183.54 2576.47
   22:08:04.528.17-May-2020 4937.01 2932.00 67.66 7.00 183.74 2576.47
   22:08:04.728.17-May-2020 4937.01 2932.00 67.66 7.00 183.94 2576.47
   22:08:04.929.17-May-2020 4937.01 2932.00 67.66 7.00 184.14 2576.47
