~Version Information
 VERS.                  2.0:   CWLS log ASCII Standard -VERSION 2.0
 WRAP.                   NO:   One line per depth step
~Well Information Block
#MNEM.UNIT     VALUE/NAME     DESCRIPTION
#---------     -----------    ---------------------------
 STRT.S             01:27:41 18-May-20: START TIME 01:27:41 18-May-20
 STOP.S             01:34:42 18-May-20: STOP TIME  01:34:42 18-May-20
 STEP.S                   0.00: STEP TIME
 NULL.                 -999.25: NULL VALUE
 UNIT.                     N/A:  LOGGING EQUIPMENT ID
 DCON.         Sperry Drilling:  DIRECTNL CONTR
 DOE .                     N/A:  DOE NUMBER
 JOBN.        AZ-XX-0906252240:  JOB TICKET NUMB
 MWDS.                     N/A:  MWD SHOP
 PROV.                    Baku:  PROVINCE
 STAT.                    Baku:  STATE NAME
 REGN.                   EESSA:  REGION
 BASE.              Azerbaijan:  LOGGING EQUIPMENT BASE LOCATION
 UWI .                     N/A:  UNIQUE WELL IDENTIFIER
 API .                     N/A:  API NUMBER
 MDS .        Operator Entered:  MAG DATA SOURCE
 WTYP.                Deviated:  WELL TYPE
 COMP.     BP Exploration (Caspian Sea) Ltd.:  COMPANY
 SRVC.          Turan Drilling:  CONTRACTOR
 WELL.           J23 (Slot 07):  WELL NAME
 CTRY.              Azerbaijan:  COUNTRY NAME
 FLD .                     ACG:  FIELD NAME
 PDAT.          Mean Sea Level:  PERMANENT DATUM
 RIG .             West Chirag:  RIG NAME
 SON .        AZ-XX-0906252240:  JOB NUMBER
 FTOP.          Formation Tops:  FORM TOPS DESC
 ILTD.               Lithology:  INTERP LTH DESC
 SVYD.                  Survey:  SURVEY DESC
 DMOD.             Drill Model:  DRILL MOD DESC
 HPTY.       Minimum Curvature:  HOLE POS TYPE
 NREF.                    Grid:  NORTH REFERENCE
 SPUD.               27-Aug-20:  SPUD DATE
 DATE.      00.00.00 19-May-20:  END TIME
 STIM.      03.00.00 25-Mar-20:  START TIME
 DMF .             Drill Floor:  DRILL MEAS FROM
 DFST.                        :  DIST FSL TEXT
 DFWT.                        :  DIST FWL TEXT
 CNTY.                        :  COUNTY
 LOC .                        :  LOCATION
 LMF .             Drill Floor:  LOG MEASURED FROM
 VSNS.m                   9.43:  VERT SEC N/S
 VSEW.m                  -8.91:  VERT SEC E/W
 AGAP.m                  43.00:  AIR GAP
 DEP .m                 354.17:  DEPTH
 APD .m                  43.00:  DEPTH ABOVE PD
 WDMS.m                 169.80:  WD ELEV
 EGL .m                   0.00:  GROUND ELEVATION
 EPD .m                   0.00:  ELEVATION
 AZTC.deg                 6.31:  AZM TOTAL CORR
 GRDC.deg                 0.14:  GRID CORRECTION
 MDEC.deg                 6.45:  MAGNETIC DECL
 MDIP.deg                59.56:  MAGNETIC DIP
 MFLD.nT              50295.00:  MAGNETIC FIELD
 GVFD.g                   1.00:  GRAVITY FIELD
 VSDR.deg               179.88:  VERT SEC DIRECT
 TDD .m                5150.01:  TOTAL DEPTH (DRILLER)
 SDEP.m                 864.00:  START DEPTH
 DFSL.m                   0.00:  DISTANCE FSL
 DFWL.m                   0.00:  DISTANCE FWL
 UTMY.m             4443793.85:  UTM Y
 UTMX.m              519005.06:  UTM X
 WHEW.m                  -8.91:  WELL HEAD E/W
 WHNS.m                   9.43:  WELL HEAD N/S
 LONG.deg                51.22:  LONGITUDE
 LATI.deg                40.13:  LATITUDE
 TVDS.m                  43.00:  TVDSS CORRECTN
 EKB .m                   0.00:  KB ELEVATION
 EDF .m                  43.00:  DF ELEVATION
 TDL .m                 363.00:  TOTAL DEPTH (LOGGER)
 MAGU.                 1850802:  MAGUTM CHECKSUM
 VSC .                       0:  VS TO CLOSURE
~Parameter Information Block
#MNEM.UNIT       Value        Description
#---------     -----------    ---------------------------
 AV  .mps                 2.30:  Ann Velocity 
 AVMX.mps                 4.40:  Max Ann Veloc 
 AZIF.deg               110.24:  Azm, Final 
 BHAT.        Rotary Steerable:  BHA Type 
 BREV.rev               331.00:  Rev Bit Total 
 BROT.°/30m               0.00:  Build Rotating 
 BS  .in                  8.50:  Bit Size 
 BSZ .in                  8.50:  Bit Size 
 BTPL.psig              585.00:  Bit Press Loss 
 CABU.                     Yes:  Customer Abuse 
 COMM.                     tPr:  Run Comments 1 
 TCS .hr                122.75:  Time Ciculation Ended 
 CV  .mps                 2.67:  Crit Velocity 
 CVMX.mps                 3.56:  Max Crit Veloc 
 DD1 .          Rashad Habibov:  Direct Drillr 1 
 DD2 .         Rasim Ibrahimov:  Direct Drillr 2 
 DDSV.               Geo-Pilot:  DD Service 
 DEFF.%                  98.00:  % Det Eff 
 DLRX.°/30m               0.75:  Dogleg Rot Max 
 DLSO.°/30m               1.25:  Dogleg Oriented 
 DLSX.°/30m               2.06:  Dogleg Str Max 
 DRET.      07.45.00 17-May-20:  Drill End Time 
 DRST.      22.50.00 15-May-20:  Drill Start Tim 
 DTIM.hr                 20.75:  Time Drilling 
 EDEP.m                5124.01:  End Depth 
 ENG1.           Eldar Hajiyev:  Engineer 1 
 ENG2.        Marcelo Sandoval:  Engineer 2 
 ENG3.        Davud huseynzada:  Engineer 3 
 ENG4.          Ruslan Safarov:  Engineer 4 
 ETIM.      04.33.00 23-May-20:  End Time 
 FLOI.gpm               450.00:  Flow In 
 FLON.gpm               400.00:  Flow In Min 
 FLOS.cptm                0.00:  Fluid Loss 
 FLOX.gpm               500.00:  Flow In Max 
 FTRO.       Formation Presure:  FTWD Run Obj 
 HFLO.                      No:  High Flow 
 HPRE.                     Yes:  High Pressure 
 HTEM.                      No:  High Temp 
 HYDO.m                   1.80:  Hydro Offset 
 IFIN.deg                75.06:  Inc, Final 
 IMAX.deg                75.38:  Inc Max 
 IMIN.deg                74.69:  Inc Min 
 IMND.m                5027.38:  Inc Min Depth 
 IMXD.m                4771.61:  Inc Max Depth 
 JARR.                      No:  Jarring 
 LETM.      07.45.00 17-May-20:  Log End Time 
 LOST.hr                     0:  Lost Rig Time 
 LSTM.      22.50.00 15-May-20:  Log Start Time 
 MDCL.ppm             42000.00:  Mud Chlorides 
 MDES.     Inversion Oil/Synthetic:  Mud Desc 
 DFD .sg                  1.34:  Mud Density 
 MDMN.sg                  1.34:  Dens Mud Min 
 MDMX.sg                  1.34:  Dens Mud Max 
 MOIL.                       0:  Run Mud Oil % 
 MOWR.                   67:33:  Run Mud OWR 
 MSND.                       0:  Run Mud Sand % 
 MSOL.                     1.8:  Run Mud Solids% 
 DFV .spqt               76.00:  Mud Viscosity 
 MWOD.in                  6.75:  MWD Tool OD 
 MWSI.                      No:  Serv Intrp, MWD 
 OTIM.hr                228.19:  Time Operating 
 PCON.           Look Like New:  Pad Condition 
 PMAX.psia             6164.70:  Press Op, Max 
 PV  .cP                 28.00:  Mud PV 
 RUN .                     900:  Run Number 
 ROPA.m/hr               19.00:  ROP Avg 
 ROPN.m/hr               11.00:  ROP Min 
 ROPX.m/hr               36.00:  ROP Max 
 RPMA.rpm               120.00:  RPM Surface Avg 
 RPMN.rpm               120.00:  RPM Surface Min 
 RPMX.rpm               120.00:  RPM Surface Max 
 RRUN.                    L604:  Rig Run Number 
 RTIM.hr                  7.00:  Time Reaming 
 SAZI.deg               109.27:  Azm, Start 
 SDEP.m                4761.01:  Start Depth 
 SIDD.                      No:  Serv Intrp, DD 
 SINC.deg                75.38:  Inc, Start 
 SPPA.psig             3574.00:  SPP Avg 
 SPPN.psig             3475.00:  SPP Min 
 SPPX.psig             3791.00:  SPP Max 
 STIM.      07.08.48 13-May-20:  Start Time 
 SVCS.                 DD, MWD:  Services 
 SVER.                    9.20:  Sperry Version 
 TDAT.m                 363.00:  Tot Depth Attmp 
 TDDF.                      No:  Trip for DD 
 TDLG.m                 363.00:  Tot Depth Loggd 
 TFF .                      No:  Trip for Fail 
 TQAA.f-kp               20.00:  Torque Abs Avg 
 TQAN.f-kp               18.00:  Torque Abs Min 
 TQAX.f-kp               22.00:  Torque Abs Max 
 TRRT.°/30m              -0.35:  Turn Rotating 
 MRT .                    HCIM:  Maximum Recorded Temperature 
 TTMX.degC               92.16:  Max Tool Temp 
 VS01.                90586518:  Virtual Str1 SN 
 VS02.        AZ90560654Z1W1C6:  Virtual Str2 SN 
 VS03.           AZ90610398F11:  Virtual Str3 SN 
 VS04.                90514975:  Virtual Str4 SN 
 VS05.                90514972:  Virtual Str5 SN 
 VS06.     AZ90603282F11V7D1A6:  Virtual Str6 SN 
 WBMN.klb                 7.00:  WOB Min 
 WOBA.klb                12.00:  WOB Avg 
 WOBX.klb                14.00:  WOB Max 
 YP  .lhf2               32.00:  Yield Point 
~Curve Information Block
#MNEM.UNIT                 API CODE     Curve Description
#---------               -----------    ---------------------------
 TIME.HHMMSS            00 000 000 000:  GT Time & Date
 GTDEPTH.m              00 000 000 000:  GT Depth
 GTPQH.psia             00 000 000 000:  GT HR Quartz Pressure
 GTTQ.degC              00 000 000 000:  GT Quartz Temperature
 GTTN.NONE              00 000 000 000:  GT Test Number
 GTET.sec               00 000 000 000:  GT Elapsed Test Time
 GTTVD.m                00 000 000 000:  GT True Vertical Depth
#Other Information
#
#WARRANTY: Halliburton will use its best efforts to furnish customers with 
#accurate information and interpretations that are part of, and incident to, the services 
#provided.  However, Halliburton cannot and does not warrant the accuracy 
#or correctness of such information and interpretations.  Under no circumstances should any 
#such information or interpretation be relied upon as the sole basis for any drilling, 
#completion, production, or financial decision or any procedure involving any risk to the 
#safety of any drilling venture, drilling rig or its crew or any other third party.  The 
#Customer has full responsibility for all drilling, completion and production operation.  
#Halliburton makes no representations or warranties, either expressed or 
#implied, including, but not limited to, the implied warranties of merchantability or fitness 
#for a particular purpose, with respect to the services rendered.  In no event will 
#Halliburton be liable for failure to obtain any particular results or for 
#any damages, including, but not limited to, indirect, special or consequential damages, 
#resulting from the use of any information or interpretation provided by Halliburton.
#
~A           TIME           GTDEPTH  GTPQH  GTTQ  GTTN   GTET   GTTVD  
# ...
   01:34:28.805.18-May-2020 4854.01 5503.16 66.51 11.00 406.96 2555.10
   01:34:29.005.18-May-2020 4854.01 5511.70 66.51 11.00 407.16 2555.10
   01:34:29.205.18-May-2020 4854.01 5511.70 66.51 11.00 407.36 2555.10
   01:34:29.405.18-May-2020 4854.01 5499.75 66.51 11.00 407.56 2555.10
   01:34:29.605.18-May-2020 4854.01 5516.19 66.51 11.00 407.76 2555.10
   01:34:29.805.18-May-2020 4854.01 5506.00 66.51 11.00 407.96 2555.10
   01:34:30.005.18-May-2020 4854.01 5499.69 66.51 11.00 408.16 2555.10
   01:34:30.205.18-May-2020 4854.01 5506.09 66.51 11.00 408.36 2555.10
   01:34:30.406.18-May-2020 4854.01 5504.07 66.51 11.00 408.56 2555.10
   01:34:30.606.18-May-2020 4854.01 5501.39 66.51 11.00 408.76 2555.10
   01:34:30.806.18-May-2020 4854.01 5500.77 66.51 11.00 408.96 2555.10
   01:34:31.006.18-May-2020 4854.01 5499.71 66.51 11.00 409.17 2555.10
   01:34:31.206.18-May-2020 4854.01 5500.40 66.51 11.00 409.37 2555.10
   01:34:31.406.18-May-2020 4854.01 5499.09 66.51 11.00 409.57 2555.10
   01:34:31.606.18-May-2020 4854.01 5513.98 66.51 11.00 409.77 2555.10
   01:34:31.806.18-May-2020 4854.01 5494.10 66.51 11.00 409.97 2555.10
   01:34:32.006.18-May-2020 4854.01 5500.74 66.51 11.00 410.17 2555.10
   01:34:32.206.18-May-2020 4854.01 5500.74 66.51 11.00 410.37 2555.10
   01:34:32.406.18-May-2020 4854.01 5501.69 66.51 11.00 410.57 2555.10
   01:34:32.606.18-May-2020 4854.01 5499.46 66.51 11.00 410.77 2555.10
   01:34:32.807.18-May-2020 4854.01 5499.31 66.51 11.00 410.97 2555.10
   01:34:33.007.18-May-2020 4854.01 5498.82 66.51 11.00 411.17 2555.10
   01:34:33.207.18-May-2020 4854.01 5498.82 66.51 11.00 411.37 2555.10
   01:34:33.407.18-May-2020 4854.01 5498.33 66.51 11.00 411.57 2555.10
   01:34:33.607.18-May-2020 4854.01 5497.35 66.51 11.00 411.77 2555.10
   01:34:33.807.18-May-2020 4854.01 5507.94 66.51 11.00 411.97 2555.10
   01:34:34.007.18-May-2020 4854.01 5496.95 66.51 11.00 412.17 2555.10
   01:34:34.207.18-May-2020 4854.01 5496.95 66.51 11.00 412.37 2555.10
   01:34:34.407.18-May-2020 4854.01 5502.97 66.51 11.00 412.57 2555.10
   01:34:34.607.18-May-2020 4854.01 5508.98 66.51 11.00 412.77 2555.10
   01:34:34.807.18-May-2020 4854.01 5501.03 66.51 11.00 412.97 2555.10
   01:34:35.007.18-May-2020 4854.01 5502.77 66.51 11.00 413.17 2555.10
   01:34:35.208.18-May-2020 4854.01 5502.77 66.51 11.00 413.37 2555.10
   01:34:35.408.18-May-2020 4854.01 5500.84 66.51 11.00 413.57 2555.10
   01:34:35.608.18-May-2020 4854.01 5515.27 66.51 11.00 413.77 2555.10
   01:34:35.808.18-May-2020 4854.01 5496.17 66.51 11.00 413.97 2555.10
   01:34:36.008.18-May-2020 4854.01 5502.65 66.51 11.00 414.17 2555.10
   01:34:36.208.18-May-2020 4854.01 5502.65 66.51 11.00 414.37 2555.10
   01:34:36.408.18-May-2020 4854.01 5517.07 66.51 11.00 414.57 2555.10
   01:34:36.608.18-May-2020 4854.01 5496.82 66.51 11.00 414.77 2555.10
   01:34:36.808.18-May-2020 4854.01 5502.99 66.51 11.00 414.97 2555.10
   01:34:37.008.18-May-2020 4854.01 5505.37 66.51 11.00 415.17 2555.10
   01:34:37.208.18-May-2020 4854.01 5505.37 66.51 11.00 415.37 2555.10
   01:34:37.408.18-May-2020 4854.01 5501.49 66.51 11.00 415.57 2555.10
   01:34:37.608.18-May-2020 4854.01 5500.35 66.51 11.00 415.77 2555.10
   01:34:37.809.18-May-2020 4854.01 5499.88 66.51 11.00 415.97 2555.10
   01:34:38.009.18-May-2020 4854.01 5499.25 66.51 11.00 416.17 2555.10
   01:34:38.209.18-May-2020 4854.01 5498.15 66.51 11.00 416.37 2555.10
   01:34:38.409.18-May-2020 4854.01 5509.70 66.51 11.00 416.57 2555.10
   01:34:38.609.18-May-2020 4854.01 5496.12 66.51 11.00 416.77 2555.10
   01:34:38.809.18-May-2020 4854.01 5500.50 66.51 11.00 416.97 2555.10
   01:34:39.009.18-May-2020 4854.01 5503.18 66.51 11.00 417.17 2555.10
   01:34:39.209.18-May-2020 4854.01 5503.18 66.51 11.00 417.37 2555.10
   01:34:39.409.18-May-2020 4854.01 5499.62 66.51 11.00 417.57 2555.10
   01:34:39.609.18-May-2020 4854.01 5498.75 66.50 11.00 417.77 2555.10
   01:34:39.809.18-May-2020 4854.01 5498.60 66.50 11.00 417.97 2555.10
   01:34:40.009.18-May-2020 4854.01 5497.38 66.50 11.00 418.17 2555.10
   01:34:40.210.18-May-2020 4854.01 5497.38 66.50 11.00 418.37 2555.10
   01:34:40.410.18-May-2020 4854.01 5496.56 66.50 11.00 418.57 2555.10
   01:34:40.610.18-May-2020 4854.01 5501.19 66.50 11.00 418.77 2555.10
   01:34:40.810.18-May-2020 4854.01 5502.34 66.50 11.00 418.97 2555.10
   01:34:41.010.18-May-2020 4854.01 5501.14 66.50 11.00 419.17 2555.10
   01:34:41.210.18-May-2020 4854.01 5498.96 66.50 11.00 419.37 2555.10
   01:34:41.410.18-May-2020 4854.01 5502.64 66.50 11.00 419.57 2555.10
   01:34:41.610.18-May-2020 4854.01 5507.32 66.50 11.00 419.77 2555.10
   01:34:41.810.18-May-2020 4854.01 5502.83 66.50 11.00 419.97 2555.10
   01:34:42.010.18-May-2020 4854.01 5499.54 66.50 11.00 420.17 2555.10
   01:34:42.210.18-May-2020 4854.01 5499.54 66.50 11.00 420.37 2555.10
   01:34:42.410.18-May-2020 4854.01 5505.57 66.50 11.00 420.57 2555.10
   01:34:42.611.18-May-2020 4854.01 5504.65 66.50 11.00 420.77 2555.10
   01:34:42.811.18-May-2020 4854.01 5503.77 66.50 11.00 420.97 2555.10
