~Version Information
 VERS.                  2.0:   CWLS log ASCII Standard -VERSION 2.0
 WRAP.                   NO:   One line per depth step
~Well Information Block
#MNEM.UNIT     VALUE/NAME     DESCRIPTION
#---------     -----------    ---------------------------
 STRT.S             02:13:59 18-May-20: START TIME 02:13:59 18-May-20
 STOP.S             02:21:38 18-May-20: STOP TIME  02:21:38 18-May-20
 STEP.S                   0.00: STEP TIME
 NULL.                 -999.25: NULL VALUE
 UNIT.                     N/A:  LOGGING EQUIPMENT ID
 DCON.         Sperry Drilling:  DIRECTNL CONTR
 DOE .                     N/A:  DOE NUMBER
 JOBN.        AZ-XX-0906252240:  JOB TICKET NUMB
 MWDS.                     N/A:  MWD SHOP
 PROV.                    Baku:  PROVINCE
 STAT.                    Baku:  STATE NAME
 REGN.                   EESSA:  REGION
 BASE.              Azerbaijan:  LOGGING EQUIPMENT BASE LOCATION
 UWI .                     N/A:  UNIQUE WELL IDENTIFIER
 API .                     N/A:  API NUMBER
 MDS .        Operator Entered:  MAG DATA SOURCE
 WTYP.                Deviated:  WELL TYPE
 COMP.     BP Exploration (Caspian Sea) Ltd.:  COMPANY
 SRVC.          Turan Drilling:  CONTRACTOR
 WELL.           J23 (Slot 07):  WELL NAME
 CTRY.              Azerbaijan:  COUNTRY NAME
 FLD .                     ACG:  FIELD NAME
 PDAT.          Mean Sea Level:  PERMANENT DATUM
 RIG .             West Chirag:  RIG NAME
 SON .        AZ-XX-0906252240:  JOB NUMBER
 FTOP.          Formation Tops:  FORM TOPS DESC
 ILTD.               Lithology:  INTERP LTH DESC
 SVYD.                  Survey:  SURVEY DESC
 DMOD.             Drill Model:  DRILL MOD DESC
 HPTY.       Minimum Curvature:  HOLE POS TYPE
 NREF.                    Grid:  NORTH REFERENCE
 SPUD.               27-Aug-20:  SPUD DATE
 DATE.      00.00.00 19-May-20:  END TIME
 STIM.      03.00.00 25-Mar-20:  START TIME
 DMF .             Drill Floor:  DRILL MEAS FROM
 DFST.                        :  DIST FSL TEXT
 DFWT.                        :  DIST FWL TEXT
 CNTY.                        :  COUNTY
 LOC .                        :  LOCATION
 LMF .             Drill Floor:  LOG MEASURED FROM
 VSNS.m                   9.43:  VERT SEC N/S
 VSEW.m                  -8.91:  VERT SEC E/W
 AGAP.m                  43.00:  AIR GAP
 DEP .m                 354.17:  DEPTH
 APD .m                  43.00:  DEPTH ABOVE PD
 WDMS.m                 169.80:  WD ELEV
 EGL .m                   0.00:  GROUND ELEVATION
 EPD .m                   0.00:  ELEVATION
 AZTC.deg                 6.31:  AZM TOTAL CORR
 GRDC.deg                 0.14:  GRID CORRECTION
 MDEC.deg                 6.45:  MAGNETIC DECL
 MDIP.deg                59.56:  MAGNETIC DIP
 MFLD.nT              50295.00:  MAGNETIC FIELD
 GVFD.g                   1.00:  GRAVITY FIELD
 VSDR.deg               179.88:  VERT SEC DIRECT
 TDD .m                5150.01:  TOTAL DEPTH (DRILLER)
 SDEP.m                 864.00:  START DEPTH
 DFSL.m                   0.00:  DISTANCE FSL
 DFWL.m                   0.00:  DISTANCE FWL
 UTMY.m             4443793.85:  UTM Y
 UTMX.m              519005.06:  UTM X
 WHEW.m                  -8.91:  WELL HEAD E/W
 WHNS.m                   9.43:  WELL HEAD N/S
 LONG.deg                51.22:  LONGITUDE
 LATI.deg                40.13:  LATITUDE
 TVDS.m                  43.00:  TVDSS CORRECTN
 EKB .m                   0.00:  KB ELEVATION
 EDF .m                  43.00:  DF ELEVATION
 TDL .m                 363.00:  TOTAL DEPTH (LOGGER)
 MAGU.                 1850802:  MAGUTM CHECKSUM
 VSC .                       0:  VS TO CLOSURE
~Parameter Information Block
#MNEM.UNIT       Value        Description
#---------     -----------    ---------------------------
 AV  .mps                 2.30:  Ann Velocity 
 AVMX.mps                 4.40:  Max Ann Veloc 
 AZIF.deg               110.24:  Azm, Final 
 BHAT.        Rotary Steerable:  BHA Type 
 BREV.rev               331.00:  Rev Bit Total 
 BROT.°/30m               0.00:  Build Rotating 
 BS  .in                  8.50:  Bit Size 
 BSZ .in                  8.50:  Bit Size 
 BTPL.psig              585.00:  Bit Press Loss 
 CABU.                     Yes:  Customer Abuse 
 COMM.                     ü9U:  Run Comments 1 
 TCS .hr                122.75:  Time Ciculation Ended 
 CV  .mps                 2.67:  Crit Velocity 
 CVMX.mps                 3.56:  Max Crit Veloc 
 DD1 .          Rashad Habibov:  Direct Drillr 1 
 DD2 .         Rasim Ibrahimov:  Direct Drillr 2 
 DDSV.               Geo-Pilot:  DD Service 
 DEFF.%                  98.00:  % Det Eff 
 DLRX.°/30m               0.75:  Dogleg Rot Max 
 DLSO.°/30m               1.25:  Dogleg Oriented 
 DLSX.°/30m               2.06:  Dogleg Str Max 
 DRET.      07.45.00 17-May-20:  Drill End Time 
 DRST.      22.50.00 15-May-20:  Drill Start Tim 
 DTIM.hr                 20.75:  Time Drilling 
 EDEP.m                5124.01:  End Depth 
 ENG1.           Eldar Hajiyev:  Engineer 1 
 ENG2.        Marcelo Sandoval:  Engineer 2 
 ENG3.        Davud huseynzada:  Engineer 3 
 ENG4.          Ruslan Safarov:  Engineer 4 
 ETIM.      04.33.00 23-May-20:  End Time 
 FLOI.gpm               450.00:  Flow In 
 FLON.gpm               400.00:  Flow In Min 
 FLOS.cptm                0.00:  Fluid Loss 
 FLOX.gpm               500.00:  Flow In Max 
 FTRO.       Formation Presure:  FTWD Run Obj 
 HFLO.                      No:  High Flow 
 HPRE.                     Yes:  High Pressure 
 HTEM.                      No:  High Temp 
 HYDO.m                   1.80:  Hydro Offset 
 IFIN.deg                75.06:  Inc, Final 
 IMAX.deg                75.38:  Inc Max 
 IMIN.deg                74.69:  Inc Min 
 IMND.m                5027.38:  Inc Min Depth 
 IMXD.m                4771.61:  Inc Max Depth 
 JARR.                      No:  Jarring 
 LETM.      07.45.00 17-May-20:  Log End Time 
 LOST.hr                     0:  Lost Rig Time 
 LSTM.      22.50.00 15-May-20:  Log Start Time 
 MDCL.ppm             42000.00:  Mud Chlorides 
 MDES.     Inversion Oil/Synthetic:  Mud Desc 
 DFD .sg                  1.34:  Mud Density 
 MDMN.sg                  1.34:  Dens Mud Min 
 MDMX.sg                  1.34:  Dens Mud Max 
 MOIL.                       0:  Run Mud Oil % 
 MOWR.                   67:33:  Run Mud OWR 
 MSND.                       0:  Run Mud Sand % 
 MSOL.                     1.8:  Run Mud Solids% 
 DFV .spqt               76.00:  Mud Viscosity 
 MWOD.in                  6.75:  MWD Tool OD 
 MWSI.                      No:  Serv Intrp, MWD 
 OTIM.hr                228.19:  Time Operating 
 PCON.           Look Like New:  Pad Condition 
 PMAX.psia             6164.70:  Press Op, Max 
 PV  .cP                 28.00:  Mud PV 
 RUN .                     900:  Run Number 
 ROPA.m/hr               19.00:  ROP Avg 
 ROPN.m/hr               11.00:  ROP Min 
 ROPX.m/hr               36.00:  ROP Max 
 RPMA.rpm               120.00:  RPM Surface Avg 
 RPMN.rpm               120.00:  RPM Surface Min 
 RPMX.rpm               120.00:  RPM Surface Max 
 RRUN.                    L604:  Rig Run Number 
 RTIM.hr                  7.00:  Time Reaming 
 SAZI.deg               109.27:  Azm, Start 
 SDEP.m                4761.01:  Start Depth 
 SIDD.                      No:  Serv Intrp, DD 
 SINC.deg                75.38:  Inc, Start 
 SPPA.psig             3574.00:  SPP Avg 
 SPPN.psig             3475.00:  SPP Min 
 SPPX.psig             3791.00:  SPP Max 
 STIM.      07.08.48 13-May-20:  Start Time 
 SVCS.                 DD, MWD:  Services 
 SVER.                    9.20:  Sperry Version 
 TDAT.m                 363.00:  Tot Depth Attmp 
 TDDF.                      No:  Trip for DD 
 TDLG.m                 363.00:  Tot Depth Loggd 
 TFF .                      No:  Trip for Fail 
 TQAA.f-kp               20.00:  Torque Abs Avg 
 TQAN.f-kp               18.00:  Torque Abs Min 
 TQAX.f-kp               22.00:  Torque Abs Max 
 TRRT.°/30m              -0.35:  Turn Rotating 
 MRT .                    HCIM:  Maximum Recorded Temperature 
 TTMX.degC               92.16:  Max Tool Temp 
 VS01.                90586518:  Virtual Str1 SN 
 VS02.        AZ90560654Z1W1C6:  Virtual Str2 SN 
 VS03.           AZ90610398F11:  Virtual Str3 SN 
 VS04.                90514975:  Virtual Str4 SN 
 VS05.                90514972:  Virtual Str5 SN 
 VS06.     AZ90603282F11V7D1A6:  Virtual Str6 SN 
 WBMN.klb                 7.00:  WOB Min 
 WOBA.klb                12.00:  WOB Avg 
 WOBX.klb                14.00:  WOB Max 
 YP  .lhf2               32.00:  Yield Point 
~Curve Information Block
#MNEM.UNIT                 API CODE     Curve Description
#---------               -----------    ---------------------------
 TIME.HHMMSS            00 000 000 000:  GT Time & Date
 GTDEPTH.m              00 000 000 000:  GT Depth
 GTPQH.psia             00 000 000 000:  GT HR Quartz Pressure
 GTTQ.degC              00 000 000 000:  GT Quartz Temperature
 GTTN.NONE              00 000 000 000:  GT Test Number
 GTET.sec               00 000 000 000:  GT Elapsed Test Time
 GTTVD.m                00 000 000 000:  GT True Vertical Depth
#Other Information
#
#WARRANTY: Halliburton will use its best efforts to furnish customers with 
#accurate information and interpretations that are part of, and incident to, the services 
#provided.  However, Halliburton cannot and does not warrant the accuracy 
#or correctness of such information and interpretations.  Under no circumstances should any 
#such information or interpretation be relied upon as the sole basis for any drilling, 
#completion, production, or financial decision or any procedure involving any risk to the 
#safety of any drilling venture, drilling rig or its crew or any other third party.  The 
#Customer has full responsibility for all drilling, completion and production operation.  
#Halliburton makes no representations or warranties, either expressed or 
#implied, including, but not limited to, the implied warranties of merchantability or fitness 
#for a particular purpose, with respect to the services rendered.  In no event will 
#Halliburton be liable for failure to obtain any particular results or for 
#any damages, including, but not limited to, indirect, special or consequential damages, 
#resulting from the use of any information or interpretation provided by Halliburton.
#
~A           TIME           GTDEPTH  GTPQH  GTTQ  GTTN   GTET   GTTVD  
# ...
   02:18:08.661.18-May-2020 4832.01 2681.92 65.99 12.00 248.70 2549.35
   02:18:08.862.18-May-2020 4832.01 2681.82 65.99 12.00 248.90 2549.35
   02:18:09.062.18-May-2020 4832.01 2681.83 65.99 12.00 249.10 2549.35
   02:18:09.262.18-May-2020 4832.01 2681.87 65.99 12.00 249.30 2549.35
   02:18:09.462.18-May-2020 4832.01 2681.86 65.99 12.00 249.50 2549.35
   02:18:09.662.18-May-2020 4832.01 2681.85 65.99 12.00 249.70 2549.35
   02:18:09.862.18-May-2020 4832.01 2681.86 65.99 12.00 249.90 2549.35
   02:18:10.062.18-May-2020 4832.01 2681.85 65.99 12.00 250.10 2549.35
   02:18:10.262.18-May-2020 4832.01 2681.85 65.99 12.00 250.30 2549.35
   02:18:10.462.18-May-2020 4832.01 2681.85 65.99 12.00 250.50 2549.35
   02:18:10.662.18-May-2020 4832.01 2681.85 65.99 12.00 250.70 2549.35
   02:18:10.862.18-May-2020 4832.01 2681.86 65.99 12.00 250.90 2549.35
   02:18:11.062.18-May-2020 4832.01 2681.85 65.99 12.00 251.10 2549.35
   02:18:11.263.18-May-2020 4832.01 2681.85 65.99 12.00 251.30 2549.35
   02:18:11.463.18-May-2020 4832.01 2681.90 65.99 12.00 251.50 2549.35
   02:18:11.663.18-May-2020 4832.01 2681.85 65.99 12.00 251.70 2549.35
   02:18:11.863.18-May-2020 4832.01 2681.83 65.99 12.00 251.90 2549.35
   02:18:12.063.18-May-2020 4832.01 2681.85 65.99 12.00 252.10 2549.35
   02:18:12.263.18-May-2020 4832.01 2681.87 65.99 12.00 252.30 2549.35
   02:18:12.463.18-May-2020 4832.01 2681.90 65.99 12.00 252.50 2549.35
   02:18:12.663.18-May-2020 4832.01 2681.81 65.99 12.00 252.70 2549.35
   02:18:12.863.18-May-2020 4832.01 2681.83 65.99 12.00 252.90 2549.35
   02:18:13.063.18-May-2020 4832.01 2681.85 65.99 12.00 253.10 2549.35
   02:18:13.263.18-May-2020 4832.01 2681.85 65.99 12.00 253.30 2549.35
   02:18:13.463.18-May-2020 4832.01 2681.87 65.99 12.00 253.50 2549.35
   02:18:13.663.18-May-2020 4832.01 2681.86 65.99 12.00 253.70 2549.35
   02:18:13.864.18-May-2020 4832.01 2681.87 65.99 12.00 253.90 2549.35
   02:18:14.064.18-May-2020 4832.01 2681.86 65.99 12.00 254.10 2549.35
   02:18:14.264.18-May-2020 4832.01 2681.86 65.99 12.00 254.30 2549.35
   02:18:14.464.18-May-2020 4832.01 2681.85 65.99 12.00 254.50 2549.35
   02:18:14.664.18-May-2020 4832.01 2681.85 65.99 12.00 254.70 2549.35
   02:18:14.864.18-May-2020 4832.01 2681.85 65.99 12.00 254.90 2549.35
   02:18:15.064.18-May-2020 4832.01 2681.85 65.99 12.00 255.10 2549.35
   02:18:15.264.18-May-2020 4832.01 2681.85 65.99 12.00 255.30 2549.35
   02:18:15.464.18-May-2020 4832.01 2681.91 65.99 12.00 255.50 2549.35
   02:18:15.664.18-May-2020 4832.01 2681.83 65.99 12.00 255.70 2549.35
   02:18:15.864.18-May-2020 4832.01 2681.82 65.99 12.00 255.90 2549.35
   02:18:16.064.18-May-2020 4832.01 2681.86 65.99 12.00 256.10 2549.35
   02:18:16.265.18-May-2020 4832.01 2681.86 65.99 12.00 256.30 2549.35
   02:18:16.465.18-May-2020 4832.01 2681.85 65.99 12.00 256.50 2549.35
   02:18:16.665.18-May-2020 4832.01 2681.85 65.98 12.00 256.70 2549.35
   02:18:16.865.18-May-2020 4832.01 2681.85 65.98 12.00 256.90 2549.35
   02:18:17.065.18-May-2020 4832.01 2681.85 65.98 12.00 257.10 2549.35
   02:18:17.265.18-May-2020 4832.01 2681.84 65.98 12.00 257.30 2549.35
   02:18:17.465.18-May-2020 4832.01 2681.87 65.98 12.00 257.50 2549.35
   02:18:17.665.18-May-2020 4832.01 2681.85 65.98 12.00 257.70 2549.35
   02:18:17.865.18-May-2020 4832.01 2681.83 65.98 12.00 257.90 2549.35
   02:18:18.065.18-May-2020 4832.01 2681.85 65.98 12.00 258.10 2549.35
   02:18:18.265.18-May-2020 4832.01 2681.85 65.98 12.00 258.30 2549.35
   02:18:18.465.18-May-2020 4832.01 2681.81 65.98 12.00 258.50 2549.35
   02:18:18.666.18-May-2020 4832.01 2681.82 65.98 12.00 258.70 2549.35
   02:18:18.866.18-May-2020 4832.01 2681.85 65.98 12.00 258.90 2549.35
   02:18:19.066.18-May-2020 4832.01 2681.86 65.98 12.00 259.10 2549.35
   02:18:19.266.18-May-2020 4832.01 2681.86 65.98 12.00 259.30 2549.35
   02:18:19.466.18-May-2020 4832.01 2681.81 65.98 12.00 259.50 2549.35
   02:18:19.666.18-May-2020 4832.01 2673.67 65.98 12.00 259.70 2549.35
   02:18:19.866.18-May-2020 4832.01 2663.43 65.98 12.00 259.90 2549.35
   02:18:20.066.18-May-2020 4832.01 2662.40 65.98 12.00 260.10 2549.35
   02:18:20.266.18-May-2020 4832.01 2662.40 65.98 12.00 260.30 2549.35
   02:18:20.466.18-May-2020 4832.01 2662.10 65.98 12.00 260.51 2549.35
   02:18:20.666.18-May-2020 4832.01 2662.63 65.98 12.00 260.71 2549.35
   02:18:20.866.18-May-2020 4832.01 2663.63 65.98 12.00 260.91 2549.35
   02:18:21.066.18-May-2020 4832.01 2663.05 65.98 12.00 261.11 2549.35
   02:18:21.267.18-May-2020 4832.01 2662.82 65.98 12.00 261.31 2549.35
   02:18:21.467.18-May-2020 4832.01 2662.57 65.98 12.00 261.51 2549.35
   02:18:21.667.18-May-2020 4832.01 2662.81 65.98 12.00 261.71 2549.35
   02:18:21.867.18-May-2020 4832.01 2662.83 65.98 12.00 261.91 2549.35
   02:18:22.067.18-May-2020 4832.01 2663.07 65.98 12.00 262.11 2549.35
   02:18:22.267.18-May-2020 4832.01 2663.07 65.98 12.00 262.31 2549.35
   02:18:22.467.18-May-2020 4832.01 2663.47 65.98 12.00 262.51 2549.35
   02:18:22.667.18-May-2020 4832.01 2663.48 65.98 12.00 262.71 2549.35
   02:18:22.867.18-May-2020 4832.01 2663.48 65.98 12.00 262.91 2549.35
   02:18:23.067.18-May-2020 4832.01 2663.33 65.98 12.00 263.11 2549.35
   02:18:23.267.18-May-2020 4832.01 2663.73 65.98 12.00 263.31 2549.35
   02:18:23.467.18-May-2020 4832.01 2664.67 65.98 12.00 263.51 2549.35
   02:18:23.668.18-May-2020 4832.01 2664.93 65.98 12.00 263.71 2549.35
   02:18:23.868.18-May-2020 4832.01 2664.46 65.98 12.00 263.91 2549.35
   02:18:24.068.18-May-2020 4832.01 2664.31 65.98 12.00 264.11 2549.35
   02:18:24.268.18-May-2020 4832.01 2664.45 65.98 12.00 264.31 2549.35
   02:18:24.468.18-May-2020 4832.01 2664.05 65.98 12.00 264.51 2549.35
   02:18:24.668.18-May-2020 4832.01 2664.23 65.98 12.00 264.71 2549.35
   02:18:24.868.18-May-2020 4832.01 2664.41 65.98 12.00 264.91 2549.35
   02:18:25.068.18-May-2020 4832.01 2664.63 65.98 12.00 265.11 2549.35
   02:18:25.268.18-May-2020 4832.01 2664.63 65.98 12.00 265.31 2549.35
   02:18:25.468.18-May-2020 4832.01 2664.14 65.98 12.00 265.51 2549.35
   02:18:25.668.18-May-2020 4832.01 2664.49 65.98 12.00 265.71 2549.35
   02:18:25.868.18-May-2020 4832.01 2664.39 65.98 12.00 265.91 2549.35
   02:18:26.068.18-May-2020 4832.01 2664.45 65.98 12.00 266.11 2549.35
   02:18:26.269.18-May-2020 4832.01 2664.45 65.98 12.00 266.31 2549.35
   02:18:26.469.18-May-2020 4832.01 2664.21 65.98 12.00 266.51 2549.35
   02:18:26.669.18-May-2020 4832.01 2664.34 65.98 12.00 266.71 2549.35
   02:18:26.869.18-May-2020 4832.01 2664.40 65.98 12.00 266.91 2549.35
   02:18:27.069.18-May-2020 4832.01 2665.29 65.98 12.00 267.11 2549.35
   02:18:27.269.18-May-2020 4832.01 2665.29 65.98 12.00 267.31 2549.35
   02:18:27.469.18-May-2020 4832.01 2665.41 65.98 12.00 267.51 2549.35
   02:18:27.669.18-May-2020 4832.01 2665.16 65.98 12.00 267.71 2549.35
   02:18:27.869.18-May-2020 4832.01 2665.51 65.98 12.00 267.91 2549.35
   02:18:28.069.18-May-2020 4832.01 2664.83 65.98 12.00 268.11 2549.35
   02:18:28.269.18-May-2020 4832.01 2666.98 65.98 12.00 268.31 2549.35
   02:18:28.469.18-May-2020 4832.01 2665.51 65.98 12.00 268.51 2549.35
   02:18:28.670.18-May-2020 4832.01 2665.45 65.98 12.00 268.71 2549.35
   02:18:28.870.18-May-2020 4832.01 2665.36 65.98 12.00 268.91 2549.35
   02:18:29.070.18-May-2020 4832.01 2665.78 65.98 12.00 269.11 2549.35
   02:18:29.270.18-May-2020 4832.01 2665.22 65.98 12.00 269.31 2549.35
   02:18:29.470.18-May-2020 4832.01 2665.60 65.98 12.00 269.51 2549.35
   02:18:29.670.18-May-2020 4832.01 2666.96 65.98 12.00 269.71 2549.35
   02:18:29.870.18-May-2020 4832.01 2680.03 65.98 12.00 269.91 2549.35
   02:18:30.070.18-May-2020 4832.01 2680.89 65.98 12.00 270.11 2549.35
   02:18:30.270.18-May-2020 4832.01 2680.89 65.98 12.00 270.31 2549.35
   02:18:30.470.18-May-2020 4832.01 2681.09 65.98 12.00 270.51 2549.35
   02:18:30.670.18-May-2020 4832.01 2681.15 65.98 12.00 270.71 2549.35
   02:18:30.870.18-May-2020 4832.01 2681.19 65.98 12.00 270.91 2549.35
   02:18:31.071.18-May-2020 4832.01 2681.34 65.98 12.00 271.11 2549.35
