~Version Information
 VERS.                  2.0:   CWLS log ASCII Standard -VERSION 2.0
 WRAP.                   NO:   One line per depth step
~Well Information Block
#MNEM.UNIT     VALUE/NAME     DESCRIPTION
#---------     -----------    ---------------------------
 STRT.S             17:25:16 17-May-20: START TIME 17:25:16 17-May-20
 STOP.S             17:32:20 17-May-20: STOP TIME  17:32:20 17-May-20
 STEP.S                   0.00: STEP TIME
 NULL.                 -999.25: NULL VALUE
 UNIT.                     N/A:  LOGGING EQUIPMENT ID
 DCON.         Sperry Drilling:  DIRECTNL CONTR
 DOE .                     N/A:  DOE NUMBER
 JOBN.        AZ-XX-0906252240:  JOB TICKET NUMB
 MWDS.                     N/A:  MWD SHOP
 PROV.                    Baku:  PROVINCE
 STAT.                    Baku:  STATE NAME
 REGN.                   EESSA:  REGION
 BASE.              Azerbaijan:  LOGGING EQUIPMENT BASE LOCATION
 UWI .                     N/A:  UNIQUE WELL IDENTIFIER
 API .                     N/A:  API NUMBER
 MDS .        Operator Entered:  MAG DATA SOURCE
 WTYP.                Deviated:  WELL TYPE
 COMP.     BP Exploration (Caspian Sea) Ltd.:  COMPANY
 SRVC.          Turan Drilling:  CONTRACTOR
 WELL.           J23 (Slot 07):  WELL NAME
 CTRY.              Azerbaijan:  COUNTRY NAME
 FLD .                     ACG:  FIELD NAME
 PDAT.          Mean Sea Level:  PERMANENT DATUM
 RIG .             West Chirag:  RIG NAME
 SON .        AZ-XX-0906252240:  JOB NUMBER
 FTOP.          Formation Tops:  FORM TOPS DESC
 ILTD.               Lithology:  INTERP LTH DESC
 SVYD.                  Survey:  SURVEY DESC
 DMOD.             Drill Model:  DRILL MOD DESC
 HPTY.       Minimum Curvature:  HOLE POS TYPE
 NREF.                    Grid:  NORTH REFERENCE
 SPUD.               27-Aug-20:  SPUD DATE
 DATE.      00.00.00 19-May-20:  END TIME
 STIM.      03.00.00 25-Mar-20:  START TIME
 DMF .             Drill Floor:  DRILL MEAS FROM
 DFST.                        :  DIST FSL TEXT
 DFWT.                        :  DIST FWL TEXT
 CNTY.                        :  COUNTY
 LOC .                        :  LOCATION
 LMF .             Drill Floor:  LOG MEASURED FROM
 VSNS.m                   9.43:  VERT SEC N/S
 VSEW.m                  -8.91:  VERT SEC E/W
 AGAP.m                  43.00:  AIR GAP
 DEP .m                 354.17:  DEPTH
 APD .m                  43.00:  DEPTH ABOVE PD
 WDMS.m                 169.80:  WD ELEV
 EGL .m                   0.00:  GROUND ELEVATION
 EPD .m                   0.00:  ELEVATION
 AZTC.deg                 6.31:  AZM TOTAL CORR
 GRDC.deg                 0.14:  GRID CORRECTION
 MDEC.deg                 6.45:  MAGNETIC DECL
 MDIP.deg                59.56:  MAGNETIC DIP
 MFLD.nT              50295.00:  MAGNETIC FIELD
 GVFD.g                   1.00:  GRAVITY FIELD
 VSDR.deg               179.88:  VERT SEC DIRECT
 TDD .m                5150.01:  TOTAL DEPTH (DRILLER)
 SDEP.m                 864.00:  START DEPTH
 DFSL.m                   0.00:  DISTANCE FSL
 DFWL.m                   0.00:  DISTANCE FWL
 UTMY.m             4443793.85:  UTM Y
 UTMX.m              519005.06:  UTM X
 WHEW.m                  -8.91:  WELL HEAD E/W
 WHNS.m                   9.43:  WELL HEAD N/S
 LONG.deg                51.22:  LONGITUDE
 LATI.deg                40.13:  LATITUDE
 TVDS.m                  43.00:  TVDSS CORRECTN
 EKB .m                   0.00:  KB ELEVATION
 EDF .m                  43.00:  DF ELEVATION
 TDL .m                 363.00:  TOTAL DEPTH (LOGGER)
 MAGU.                 1850802:  MAGUTM CHECKSUM
 VSC .                       0:  VS TO CLOSURE
~Parameter Information Block
#MNEM.UNIT       Value        Description
#---------     -----------    ---------------------------
 AV  .mps                 2.30:  Ann Velocity 
 AVMX.mps                 4.40:  Max Ann Veloc 
 AZIF.deg               110.24:  Azm, Final 
 BHAT.        Rotary Steerable:  BHA Type 
 BREV.rev               331.00:  Rev Bit Total 
 BROT.°/30m               0.00:  Build Rotating 
 BS  .in                  8.50:  Bit Size 
 BSZ .in                  8.50:  Bit Size 
 BTPL.psig              585.00:  Bit Press Loss 
 CABU.                     Yes:  Customer Abuse 
 COMM.                     |n\:  Run Comments 1 
 TCS .hr                122.75:  Time Ciculation Ended 
 CV  .mps                 2.67:  Crit Velocity 
 CVMX.mps                 3.56:  Max Crit Veloc 
 DD1 .          Rashad Habibov:  Direct Drillr 1 
 DD2 .         Rasim Ibrahimov:  Direct Drillr 2 
 DDSV.               Geo-Pilot:  DD Service 
 DEFF.%                  98.00:  % Det Eff 
 DLRX.°/30m               0.75:  Dogleg Rot Max 
 DLSO.°/30m               1.25:  Dogleg Oriented 
 DLSX.°/30m               2.06:  Dogleg Str Max 
 DRET.      07.45.00 17-May-20:  Drill End Time 
 DRST.      22.50.00 15-May-20:  Drill Start Tim 
 DTIM.hr                 20.75:  Time Drilling 
 EDEP.m                5124.01:  End Depth 
 ENG1.           Eldar Hajiyev:  Engineer 1 
 ENG2.        Marcelo Sandoval:  Engineer 2 
 ENG3.        Davud huseynzada:  Engineer 3 
 ENG4.          Ruslan Safarov:  Engineer 4 
 ETIM.      04.33.00 23-May-20:  End Time 
 FLOI.gpm               450.00:  Flow In 
 FLON.gpm               400.00:  Flow In Min 
 FLOS.cptm                0.00:  Fluid Loss 
 FLOX.gpm               500.00:  Flow In Max 
 FTRO.       Formation Presure:  FTWD Run Obj 
 HFLO.                      No:  High Flow 
 HPRE.                     Yes:  High Pressure 
 HTEM.                      No:  High Temp 
 HYDO.m                   1.80:  Hydro Offset 
 IFIN.deg                75.06:  Inc, Final 
 IMAX.deg                75.38:  Inc Max 
 IMIN.deg                74.69:  Inc Min 
 IMND.m                5027.38:  Inc Min Depth 
 IMXD.m                4771.61:  Inc Max Depth 
 JARR.                      No:  Jarring 
 LETM.      07.45.00 17-May-20:  Log End Time 
 LOST.hr                     0:  Lost Rig Time 
 LSTM.      22.50.00 15-May-20:  Log Start Time 
 MDCL.ppm             42000.00:  Mud Chlorides 
 MDES.     Inversion Oil/Synthetic:  Mud Desc 
 DFD .sg                  1.34:  Mud Density 
 MDMN.sg                  1.34:  Dens Mud Min 
 MDMX.sg                  1.34:  Dens Mud Max 
 MOIL.                       0:  Run Mud Oil % 
 MOWR.                   67:33:  Run Mud OWR 
 MSND.                       0:  Run Mud Sand % 
 MSOL.                     1.8:  Run Mud Solids% 
 DFV .spqt               76.00:  Mud Viscosity 
 MWOD.in                  6.75:  MWD Tool OD 
 MWSI.                      No:  Serv Intrp, MWD 
 OTIM.hr                228.19:  Time Operating 
 PCON.           Look Like New:  Pad Condition 
 PMAX.psia             6164.70:  Press Op, Max 
 PV  .cP                 28.00:  Mud PV 
 RUN .                     900:  Run Number 
 ROPA.m/hr               19.00:  ROP Avg 
 ROPN.m/hr               11.00:  ROP Min 
 ROPX.m/hr               36.00:  ROP Max 
 RPMA.rpm               120.00:  RPM Surface Avg 
 RPMN.rpm               120.00:  RPM Surface Min 
 RPMX.rpm               120.00:  RPM Surface Max 
 RRUN.                    L604:  Rig Run Number 
 RTIM.hr                  7.00:  Time Reaming 
 SAZI.deg               109.27:  Azm, Start 
 SDEP.m                4761.01:  Start Depth 
 SIDD.                      No:  Serv Intrp, DD 
 SINC.deg                75.38:  Inc, Start 
 SPPA.psig             3574.00:  SPP Avg 
 SPPN.psig             3475.00:  SPP Min 
 SPPX.psig             3791.00:  SPP Max 
 STIM.      07.08.48 13-May-20:  Start Time 
 SVCS.                 DD, MWD:  Services 
 SVER.                    9.20:  Sperry Version 
 TDAT.m                 363.00:  Tot Depth Attmp 
 TDDF.                      No:  Trip for DD 
 TDLG.m                 363.00:  Tot Depth Loggd 
 TFF .                      No:  Trip for Fail 
 TQAA.f-kp               20.00:  Torque Abs Avg 
 TQAN.f-kp               18.00:  Torque Abs Min 
 TQAX.f-kp               22.00:  Torque Abs Max 
 TRRT.°/30m              -0.35:  Turn Rotating 
 MRT .                    HCIM:  Maximum Recorded Temperature 
 TTMX.degC               92.16:  Max Tool Temp 
 VS01.                90586518:  Virtual Str1 SN 
 VS02.        AZ90560654Z1W1C6:  Virtual Str2 SN 
 VS03.           AZ90610398F11:  Virtual Str3 SN 
 VS04.                90514975:  Virtual Str4 SN 
 VS05.                90514972:  Virtual Str5 SN 
 VS06.     AZ90603282F11V7D1A6:  Virtual Str6 SN 
 WBMN.klb                 7.00:  WOB Min 
 WOBA.klb                12.00:  WOB Avg 
 WOBX.klb                14.00:  WOB Max 
 YP  .lhf2               32.00:  Yield Point 
~Curve Information Block
#MNEM.UNIT                 API CODE     Curve Description
#---------               -----------    ---------------------------
 TIME.HHMMSS            00 000 000 000:  GT Time & Date
 GTDEPTH.m              00 000 000 000:  GT Depth
 GTPQH.psia             00 000 000 000:  GT HR Quartz Pressure
 GTTQ.degC              00 000 000 000:  GT Quartz Temperature
 GTTN.NONE              00 000 000 000:  GT Test Number
 GTET.sec               00 000 000 000:  GT Elapsed Test Time
 GTTVD.m                00 000 000 000:  GT True Vertical Depth
#Other Information
#
#WARRANTY: Halliburton will use its best efforts to furnish customers with 
#accurate information and interpretations that are part of, and incident to, the services 
#provided.  However, Halliburton cannot and does not warrant the accuracy 
#or correctness of such information and interpretations.  Under no circumstances should any 
#such information or interpretation be relied upon as the sole basis for any drilling, 
#completion, production, or financial decision or any procedure involving any risk to the 
#safety of any drilling venture, drilling rig or its crew or any other third party.  The 
#Customer has full responsibility for all drilling, completion and production operation.  
#Halliburton makes no representations or warranties, either expressed or 
#implied, including, but not limited to, the implied warranties of merchantability or fitness 
#for a particular purpose, with respect to the services rendered.  In no event will 
#Halliburton be liable for failure to obtain any particular results or for 
#any damages, including, but not limited to, indirect, special or consequential damages, 
#resulting from the use of any information or interpretation provided by Halliburton.
#
~A           TIME           GTDEPTH  GTPQH  GTTQ  GTTN  GTET   GTTVD  
# ...
   17:28:20.491.17-May-2020 5032.01 2638.03 70.59 3.00 184.17 2600.96
   17:28:20.691.17-May-2020 5032.01 2638.03 70.59 3.00 184.37 2600.96
   17:28:20.891.17-May-2020 5032.01 2638.04 70.59 3.00 184.57 2600.96
   17:28:21.091.17-May-2020 5032.01 2637.92 70.59 3.00 184.77 2600.96
   17:28:21.291.17-May-2020 5032.01 2638.12 70.59 3.00 184.97 2600.96
   17:28:21.492.17-May-2020 5032.01 2638.11 70.59 3.00 185.17 2600.96
   17:28:21.692.17-May-2020 5032.01 2638.11 70.59 3.00 185.37 2600.96
   17:28:21.892.17-May-2020 5032.01 2638.06 70.59 3.00 185.57 2600.96
   17:28:22.092.17-May-2020 5032.01 2638.10 70.59 3.00 185.77 2600.96
   17:28:22.292.17-May-2020 5032.01 2637.98 70.59 3.00 185.97 2600.96
   17:28:22.493.17-May-2020 5032.01 2637.97 70.59 3.00 186.17 2600.96
   17:28:22.693.17-May-2020 5032.01 2637.97 70.59 3.00 186.37 2600.96
   17:28:22.893.17-May-2020 5032.01 2638.03 70.59 3.00 186.57 2600.96
   17:28:23.093.17-May-2020 5032.01 2638.00 70.59 3.00 186.77 2600.96
   17:28:23.293.17-May-2020 5032.01 2638.01 70.59 3.00 186.97 2600.96
   17:28:23.494.17-May-2020 5032.01 2638.00 70.59 3.00 187.18 2600.96
   17:28:23.694.17-May-2020 5032.01 2638.00 70.59 3.00 187.38 2600.96
   17:28:23.894.17-May-2020 5032.01 2637.99 70.58 3.00 187.58 2600.96
   17:28:24.094.17-May-2020 5032.01 2638.19 70.58 3.00 187.78 2600.96
   17:28:24.294.17-May-2020 5032.01 2637.99 70.58 3.00 187.98 2600.96
   17:28:24.494.17-May-2020 5032.01 2637.90 70.58 3.00 188.18 2600.96
   17:28:24.695.17-May-2020 5032.01 2637.90 70.58 3.00 188.38 2600.96
   17:28:24.895.17-May-2020 5032.01 2638.00 70.58 3.00 188.58 2600.96
   17:28:25.095.17-May-2020 5032.01 2638.00 70.58 3.00 188.78 2600.96
   17:28:25.295.17-May-2020 5032.01 2638.00 70.58 3.00 188.98 2600.96
   17:28:25.495.17-May-2020 5032.01 2637.98 70.58 3.00 189.18 2600.96
   17:28:25.696.17-May-2020 5032.01 2637.98 70.58 3.00 189.38 2600.96
   17:28:25.896.17-May-2020 5032.01 2638.00 70.58 3.00 189.58 2600.96
   17:28:26.096.17-May-2020 5032.01 2638.08 70.58 3.00 189.78 2600.96
   17:28:26.296.17-May-2020 5032.01 2638.08 70.58 3.00 189.98 2600.96
   17:28:26.496.17-May-2020 5032.01 2637.98 70.58 3.00 190.18 2600.96
   17:28:26.697.17-May-2020 5032.01 2637.98 70.58 3.00 190.38 2600.96
   17:28:26.897.17-May-2020 5032.01 2638.04 70.58 3.00 190.58 2600.96
   17:28:27.097.17-May-2020 5032.01 2638.18 70.58 3.00 190.78 2600.96
   17:28:27.297.17-May-2020 5032.01 2637.96 70.58 3.00 190.98 2600.96
   17:28:27.497.17-May-2020 5032.01 2637.99 70.58 3.00 191.18 2600.96
   17:28:27.697.17-May-2020 5032.01 2637.99 70.58 3.00 191.38 2600.96
   17:28:27.898.17-May-2020 5032.01 2638.12 70.58 3.00 191.58 2600.96
   17:28:28.098.17-May-2020 5032.01 2637.96 70.58 3.00 191.78 2600.96
   17:28:28.298.17-May-2020 5032.01 2637.88 70.58 3.00 191.98 2600.96
   17:28:28.498.17-May-2020 5032.01 2638.12 70.58 3.00 192.18 2600.96
   17:28:28.698.17-May-2020 5032.01 2638.12 70.58 3.00 192.38 2600.96
   17:28:28.899.17-May-2020 5032.01 2637.94 70.58 3.00 192.58 2600.96
   17:28:29.099.17-May-2020 5032.01 2638.00 70.58 3.00 192.78 2600.96
   17:28:29.299.17-May-2020 5032.01 2638.02 70.58 3.00 192.98 2600.96
   17:28:29.499.17-May-2020 5032.01 2638.00 70.58 3.00 193.18 2600.96
   17:28:29.699.17-May-2020 5032.01 2638.00 70.58 3.00 193.38 2600.96
   17:28:29.900.17-May-2020 5032.01 2638.00 70.58 3.00 193.58 2600.96
   17:28:30.100.17-May-2020 5032.01 2638.00 70.58 3.00 193.78 2600.96
   17:28:30.300.17-May-2020 5032.01 2637.99 70.58 3.00 193.98 2600.96
   17:28:30.500.17-May-2020 5032.01 2638.08 70.58 3.00 194.18 2600.96
   17:28:30.700.17-May-2020 5032.01 2638.08 70.58 3.00 194.38 2600.96
   17:28:30.900.17-May-2020 5032.01 2637.99 70.58 3.00 194.58 2600.96
   17:28:31.101.17-May-2020 5032.01 2637.97 70.58 3.00 194.78 2600.96
   17:28:31.301.17-May-2020 5032.01 2637.98 70.58 3.00 194.98 2600.96
   17:28:31.501.17-May-2020 5032.01 2638.01 70.58 3.00 195.18 2600.96
   17:28:31.701.17-May-2020 5032.01 2638.01 70.58 3.00 195.38 2600.96
   17:28:31.901.17-May-2020 5032.01 2637.98 70.58 3.00 195.58 2600.96
   17:28:32.102.17-May-2020 5032.01 2637.99 70.58 3.00 195.78 2600.96
   17:28:32.302.17-May-2020 5032.01 2637.99 70.58 3.00 195.98 2600.96
   17:28:32.502.17-May-2020 5032.01 2637.98 70.58 3.00 196.18 2600.96
   17:28:32.702.17-May-2020 5032.01 2638.13 70.58 3.00 196.38 2600.96
   17:28:32.902.17-May-2020 5032.01 2638.01 70.58 3.00 196.58 2600.96
   17:28:33.103.17-May-2020 5032.01 2637.94 70.58 3.00 196.78 2600.96
   17:28:33.303.17-May-2020 5032.01 2638.16 70.58 3.00 196.98 2600.96
   17:28:33.503.17-May-2020 5032.01 2638.03 70.58 3.00 197.18 2600.96
   17:28:33.703.17-May-2020 5032.01 2638.03 70.58 3.00 197.38 2600.96
   17:28:33.903.17-May-2020 5032.01 2638.03 70.58 3.00 197.58 2600.96
   17:28:34.103.17-May-2020 5032.01 2637.98 70.58 3.00 197.78 2600.96
   17:28:34.304.17-May-2020 5032.01 2638.08 70.58 3.00 197.99 2600.96
   17:28:34.504.17-May-2020 5032.01 2638.01 70.58 3.00 198.19 2600.96
   17:28:34.704.17-May-2020 5032.01 2638.01 70.58 3.00 198.39 2600.96
   17:28:34.904.17-May-2020 5032.01 2638.11 70.58 3.00 198.59 2600.96
   17:28:35.104.17-May-2020 5032.01 2638.06 70.58 3.00 198.79 2600.96
   17:28:35.305.17-May-2020 5032.01 2637.93 70.57 3.00 198.99 2600.96
   17:28:35.505.17-May-2020 5032.01 2638.04 70.57 3.00 199.19 2600.96
   17:28:35.705.17-May-2020 5032.01 2638.04 70.57 3.00 199.39 2600.96
   17:28:35.905.17-May-2020 5032.01 2637.97 70.57 3.00 199.59 2600.96
   17:28:36.105.17-May-2020 5032.01 2638.00 70.57 3.00 199.79 2600.96
   17:28:36.306.17-May-2020 5032.01 2637.99 70.57 3.00 199.99 2600.96
   17:28:36.506.17-May-2020 5032.01 2637.99 70.57 3.00 200.19 2600.96
   17:28:36.706.17-May-2020 5032.01 2637.99 70.57 3.00 200.39 2600.96
   17:28:36.906.17-May-2020 5032.01 2637.93 70.57 3.00 200.59 2600.96
   17:28:37.106.17-May-2020 5032.01 2638.15 70.57 3.00 200.79 2600.96
   17:28:37.306.17-May-2020 5032.01 2638.02 70.57 3.00 200.99 2600.96
   17:28:37.507.17-May-2020 5032.01 2637.92 70.57 3.00 201.19 2600.96
   17:28:37.707.17-May-2020 5032.01 2637.92 70.57 3.00 201.39 2600.96
   17:28:37.907.17-May-2020 5032.01 2638.03 70.57 3.00 201.59 2600.96
   17:28:38.107.17-May-2020 5032.01 2637.98 70.57 3.00 201.79 2600.96
   17:28:38.307.17-May-2020 5032.01 2637.97 70.57 3.00 201.99 2600.96
   17:28:38.508.17-May-2020 5032.01 2637.99 70.57 3.00 202.19 2600.96
   17:28:38.708.17-May-2020 5032.01 2637.99 70.57 3.00 202.39 2600.96
   17:28:38.908.17-May-2020 5032.01 2637.99 70.57 3.00 202.59 2600.96
   17:28:39.108.17-May-2020 5032.01 2637.99 70.57 3.00 202.79 2600.96
   17:28:39.308.17-May-2020 5032.01 2638.12 70.57 3.00 202.99 2600.96
   17:28:39.509.17-May-2020 5032.01 2637.97 70.57 3.00 203.19 2600.96
   17:28:39.709.17-May-2020 5032.01 2637.97 70.57 3.00 203.39 2600.96
   17:28:39.909.17-May-2020 5032.01 2638.00 70.57 3.00 203.59 2600.96
   17:28:40.109.17-May-2020 5032.01 2637.90 70.57 3.00 203.79 2600.96
   17:28:40.309.17-May-2020 5032.01 2638.02 70.57 3.00 203.99 2600.96
   17:28:40.509.17-May-2020 5032.01 2637.93 70.57 3.00 204.19 2600.96
   17:28:40.710.17-May-2020 5032.01 2637.93 70.57 3.00 204.39 2600.96
   17:28:40.910.17-May-2020 5032.01 2638.12 70.57 3.00 204.59 2600.96
   17:28:41.110.17-May-2020 5032.01 2637.93 70.57 3.00 204.79 2600.96
   17:28:41.310.17-May-2020 5032.01 2637.98 70.57 3.00 204.99 2600.96
   17:28:41.510.17-May-2020 5032.01 2638.12 70.57 3.00 205.19 2600.96
   17:28:41.711.17-May-2020 5032.01 2638.12 70.57 3.00 205.39 2600.96
   17:28:41.911.17-May-2020 5032.01 2637.95 70.57 3.00 205.59 2600.96
   17:28:42.111.17-May-2020 5032.01 2638.00 70.57 3.00 205.79 2600.96
   17:28:42.311.17-May-2020 5032.01 2638.02 70.57 3.00 205.99 2600.96
   17:28:42.511.17-May-2020 5032.01 2637.98 70.57 3.00 206.19 2600.96
   17:28:42.712.17-May-2020 5032.01 2637.98 70.57 3.00 206.39 2600.96
   17:28:42.912.17-May-2020 5032.01 2637.99 70.57 3.00 206.59 2600.96
   17:28:43.112.17-May-2020 5032.01 2637.98 70.57 3.00 206.79 2600.96
   17:28:43.312.17-May-2020 5032.01 2637.98 70.57 3.00 206.99 2600.96
