~Version Information
 VERS.                  2.0:   CWLS log ASCII Standard -VERSION 2.0
 WRAP.                   NO:   One line per depth step
~Well Information Block
#MNEM.UNIT     VALUE/NAME     DESCRIPTION
#---------     -----------    ---------------------------
 STRT.S             21:11:08 17-May-20: START TIME 21:11:08 17-May-20
 STOP.S             21:18:11 17-May-20: STOP TIME  21:18:11 17-May-20
 STEP.S                   0.00: STEP TIME
 NULL.                 -999.25: NULL VALUE
 UNIT.                     N/A:  LOGGING EQUIPMENT ID
 DCON.         Sperry Drilling:  DIRECTNL CONTR
 DOE .                     N/A:  DOE NUMBER
 JOBN.        AZ-XX-0906252240:  JOB TICKET NUMB
 MWDS.                     N/A:  MWD SHOP
 PROV.                    Baku:  PROVINCE
 STAT.                    Baku:  STATE NAME
 REGN.                   EESSA:  REGION
 BASE.              Azerbaijan:  LOGGING EQUIPMENT BASE LOCATION
 UWI .                     N/A:  UNIQUE WELL IDENTIFIER
 API .                     N/A:  API NUMBER
 MDS .        Operator Entered:  MAG DATA SOURCE
 WTYP.                Deviated:  WELL TYPE
 COMP.     BP Exploration (Caspian Sea) Ltd.:  COMPANY
 SRVC.          Turan Drilling:  CONTRACTOR
 WELL.           J23 (Slot 07):  WELL NAME
 CTRY.              Azerbaijan:  COUNTRY NAME
 FLD .                     ACG:  FIELD NAME
 PDAT.          Mean Sea Level:  PERMANENT DATUM
 RIG .             West Chirag:  RIG NAME
 SON .        AZ-XX-0906252240:  JOB NUMBER
 FTOP.          Formation Tops:  FORM TOPS DESC
 ILTD.               Lithology:  INTERP LTH DESC
 SVYD.                  Survey:  SURVEY DESC
 DMOD.             Drill Model:  DRILL MOD DESC
 HPTY.       Minimum Curvature:  HOLE POS TYPE
 NREF.                    Grid:  NORTH REFERENCE
 SPUD.               27-Aug-20:  SPUD DATE
 DATE.      00.00.00 19-May-20:  END TIME
 STIM.      03.00.00 25-Mar-20:  START TIME
 DMF .             Drill Floor:  DRILL MEAS FROM
 DFST.                        :  DIST FSL TEXT
 DFWT.                        :  DIST FWL TEXT
 CNTY.                        :  COUNTY
 LOC .                        :  LOCATION
 LMF .             Drill Floor:  LOG MEASURED FROM
 VSNS.m                   9.43:  VERT SEC N/S
 VSEW.m                  -8.91:  VERT SEC E/W
 AGAP.m                  43.00:  AIR GAP
 DEP .m                 354.17:  DEPTH
 APD .m                  43.00:  DEPTH ABOVE PD
 WDMS.m                 169.80:  WD ELEV
 EGL .m                   0.00:  GROUND ELEVATION
 EPD .m                   0.00:  ELEVATION
 AZTC.deg                 6.31:  AZM TOTAL CORR
 GRDC.deg                 0.14:  GRID CORRECTION
 MDEC.deg                 6.45:  MAGNETIC DECL
 MDIP.deg                59.56:  MAGNETIC DIP
 MFLD.nT              50295.00:  MAGNETIC FIELD
 GVFD.g                   1.00:  GRAVITY FIELD
 VSDR.deg               179.88:  VERT SEC DIRECT
 TDD .m                5150.01:  TOTAL DEPTH (DRILLER)
 SDEP.m                 864.00:  START DEPTH
 DFSL.m                   0.00:  DISTANCE FSL
 DFWL.m                   0.00:  DISTANCE FWL
 UTMY.m             4443793.85:  UTM Y
 UTMX.m              519005.06:  UTM X
 WHEW.m                  -8.91:  WELL HEAD E/W
 WHNS.m                   9.43:  WELL HEAD N/S
 LONG.deg                51.22:  LONGITUDE
 LATI.deg                40.13:  LATITUDE
 TVDS.m                  43.00:  TVDSS CORRECTN
 EKB .m                   0.00:  KB ELEVATION
 EDF .m                  43.00:  DF ELEVATION
 TDL .m                 363.00:  TOTAL DEPTH (LOGGER)
 MAGU.                 1850802:  MAGUTM CHECKSUM
 VSC .                       0:  VS TO CLOSURE
~Parameter Information Block
#MNEM.UNIT       Value        Description
#---------     -----------    ---------------------------
 AV  .mps                 2.30:  Ann Velocity 
 AVMX.mps                 4.40:  Max Ann Veloc 
 AZIF.deg               110.24:  Azm, Final 
 BHAT.        Rotary Steerable:  BHA Type 
 BREV.rev               331.00:  Rev Bit Total 
 BROT.°/30m               0.00:  Build Rotating 
 BS  .in                  8.50:  Bit Size 
 BSZ .in                  8.50:  Bit Size 
 BTPL.psig              585.00:  Bit Press Loss 
 CABU.                     Yes:  Customer Abuse 
 COMM.                     Ô‹p:  Run Comments 1 
 TCS .hr                122.75:  Time Ciculation Ended 
 CV  .mps                 2.67:  Crit Velocity 
 CVMX.mps                 3.56:  Max Crit Veloc 
 DD1 .          Rashad Habibov:  Direct Drillr 1 
 DD2 .         Rasim Ibrahimov:  Direct Drillr 2 
 DDSV.               Geo-Pilot:  DD Service 
 DEFF.%                  98.00:  % Det Eff 
 DLRX.°/30m               0.75:  Dogleg Rot Max 
 DLSO.°/30m               1.25:  Dogleg Oriented 
 DLSX.°/30m               2.06:  Dogleg Str Max 
 DRET.      07.45.00 17-May-20:  Drill End Time 
 DRST.      22.50.00 15-May-20:  Drill Start Tim 
 DTIM.hr                 20.75:  Time Drilling 
 EDEP.m                5124.01:  End Depth 
 ENG1.           Eldar Hajiyev:  Engineer 1 
 ENG2.        Marcelo Sandoval:  Engineer 2 
 ENG3.        Davud huseynzada:  Engineer 3 
 ENG4.          Ruslan Safarov:  Engineer 4 
 ETIM.      04.33.00 23-May-20:  End Time 
 FLOI.gpm               450.00:  Flow In 
 FLON.gpm               400.00:  Flow In Min 
 FLOS.cptm                0.00:  Fluid Loss 
 FLOX.gpm               500.00:  Flow In Max 
 FTRO.       Formation Presure:  FTWD Run Obj 
 HFLO.                      No:  High Flow 
 HPRE.                     Yes:  High Pressure 
 HTEM.                      No:  High Temp 
 HYDO.m                   1.80:  Hydro Offset 
 IFIN.deg                75.06:  Inc, Final 
 IMAX.deg                75.38:  Inc Max 
 IMIN.deg                74.69:  Inc Min 
 IMND.m                5027.38:  Inc Min Depth 
 IMXD.m                4771.61:  Inc Max Depth 
 JARR.                      No:  Jarring 
 LETM.      07.45.00 17-May-20:  Log End Time 
 LOST.hr                     0:  Lost Rig Time 
 LSTM.      22.50.00 15-May-20:  Log Start Time 
 MDCL.ppm             42000.00:  Mud Chlorides 
 MDES.     Inversion Oil/Synthetic:  Mud Desc 
 DFD .sg                  1.34:  Mud Density 
 MDMN.sg                  1.34:  Dens Mud Min 
 MDMX.sg                  1.34:  Dens Mud Max 
 MOIL.                       0:  Run Mud Oil % 
 MOWR.                   67:33:  Run Mud OWR 
 MSND.                       0:  Run Mud Sand % 
 MSOL.                     1.8:  Run Mud Solids% 
 DFV .spqt               76.00:  Mud Viscosity 
 MWOD.in                  6.75:  MWD Tool OD 
 MWSI.                      No:  Serv Intrp, MWD 
 OTIM.hr                228.19:  Time Operating 
 PCON.           Look Like New:  Pad Condition 
 PMAX.psia             6164.70:  Press Op, Max 
 PV  .cP                 28.00:  Mud PV 
 RUN .                     900:  Run Number 
 ROPA.m/hr               19.00:  ROP Avg 
 ROPN.m/hr               11.00:  ROP Min 
 ROPX.m/hr               36.00:  ROP Max 
 RPMA.rpm               120.00:  RPM Surface Avg 
 RPMN.rpm               120.00:  RPM Surface Min 
 RPMX.rpm               120.00:  RPM Surface Max 
 RRUN.                    L604:  Rig Run Number 
 RTIM.hr                  7.00:  Time Reaming 
 SAZI.deg               109.27:  Azm, Start 
 SDEP.m                4761.01:  Start Depth 
 SIDD.                      No:  Serv Intrp, DD 
 SINC.deg                75.38:  Inc, Start 
 SPPA.psig             3574.00:  SPP Avg 
 SPPN.psig             3475.00:  SPP Min 
 SPPX.psig             3791.00:  SPP Max 
 STIM.      07.08.48 13-May-20:  Start Time 
 SVCS.                 DD, MWD:  Services 
 SVER.                    9.20:  Sperry Version 
 TDAT.m                 363.00:  Tot Depth Attmp 
 TDDF.                      No:  Trip for DD 
 TDLG.m                 363.00:  Tot Depth Loggd 
 TFF .                      No:  Trip for Fail 
 TQAA.f-kp               20.00:  Torque Abs Avg 
 TQAN.f-kp               18.00:  Torque Abs Min 
 TQAX.f-kp               22.00:  Torque Abs Max 
 TRRT.°/30m              -0.35:  Turn Rotating 
 MRT .                    HCIM:  Maximum Recorded Temperature 
 TTMX.degC               92.16:  Max Tool Temp 
 VS01.                90586518:  Virtual Str1 SN 
 VS02.        AZ90560654Z1W1C6:  Virtual Str2 SN 
 VS03.           AZ90610398F11:  Virtual Str3 SN 
 VS04.                90514975:  Virtual Str4 SN 
 VS05.                90514972:  Virtual Str5 SN 
 VS06.     AZ90603282F11V7D1A6:  Virtual Str6 SN 
 WBMN.klb                 7.00:  WOB Min 
 WOBA.klb                12.00:  WOB Avg 
 WOBX.klb                14.00:  WOB Max 
 YP  .lhf2               32.00:  Yield Point 
~Curve Information Block
#MNEM.UNIT                 API CODE     Curve Description
#---------               -----------    ---------------------------
 TIME.HHMMSS            00 000 000 000:  GT Time & Date
 GTDEPTH.m              00 000 000 000:  GT Depth
 GTPQH.psia             00 000 000 000:  GT HR Quartz Pressure
 GTTQ.degC              00 000 000 000:  GT Quartz Temperature
 GTTN.NONE              00 000 000 000:  GT Test Number
 GTET.sec               00 000 000 000:  GT Elapsed Test Time
 GTTVD.m                00 000 000 000:  GT True Vertical Depth
#Other Information
#
#WARRANTY: Halliburton will use its best efforts to furnish customers with 
#accurate information and interpretations that are part of, and incident to, the services 
#provided.  However, Halliburton cannot and does not warrant the accuracy 
#or correctness of such information and interpretations.  Under no circumstances should any 
#such information or interpretation be relied upon as the sole basis for any drilling, 
#completion, production, or financial decision or any procedure involving any risk to the 
#safety of any drilling venture, drilling rig or its crew or any other third party.  The 
#Customer has full responsibility for all drilling, completion and production operation.  
#Halliburton makes no representations or warranties, either expressed or 
#implied, including, but not limited to, the implied warranties of merchantability or fitness 
#for a particular purpose, with respect to the services rendered.  In no event will 
#Halliburton be liable for failure to obtain any particular results or for 
#any damages, including, but not limited to, indirect, special or consequential damages, 
#resulting from the use of any information or interpretation provided by Halliburton.
#
~A           TIME           GTDEPTH  GTPQH  GTTQ  GTTN  GTET   GTTVD  
   21:11:08.174.17-May-2020 4958.01 5503.41 68.19 6.00   0.00 2581.85
   21:11:08.374.17-May-2020 4958.01 5503.41 68.19 6.00   0.20 2581.85
   21:11:08.574.17-May-2020 4958.01 5503.31 68.19 6.00   0.40 2581.85
   21:11:08.774.17-May-2020 4958.01 5503.19 68.19 6.00   0.60 2581.85
   21:11:08.974.17-May-2020 4958.01 5502.79 68.19 6.00   0.80 2581.85
   21:11:09.174.17-May-2020 4958.01 5510.06 68.19 6.00   1.00 2581.85
   21:11:09.374.17-May-2020 4958.01 5510.06 68.19 6.00   1.20 2581.85
   21:11:09.574.17-May-2020 4958.01 5506.41 68.19 6.00   1.40 2581.85
   21:11:09.774.17-May-2020 4958.01 5511.72 68.19 6.00   1.60 2581.85
   21:11:09.974.17-May-2020 4958.01 5508.00 68.19 6.00   1.80 2581.85
   21:11:10.174.17-May-2020 4958.01 5507.47 68.19 6.00   2.00 2581.85
   21:11:10.374.17-May-2020 4958.01 5513.25 68.19 6.00   2.20 2581.85
   21:11:10.574.17-May-2020 4958.01 5504.64 68.19 6.00   2.40 2581.85
   21:11:10.774.17-May-2020 4958.01 5514.54 68.19 6.00   2.60 2581.85
   21:11:10.974.17-May-2020 4958.01 5507.44 68.19 6.00   2.80 2581.85
   21:11:11.174.17-May-2020 4958.01 5513.91 68.19 6.00   3.00 2581.85
   21:11:11.374.17-May-2020 4958.01 5513.91 68.19 6.00   3.20 2581.85
   21:11:11.574.17-May-2020 4958.01 5510.30 68.19 6.00   3.40 2581.85
   21:11:11.774.17-May-2020 4958.01 5522.44 68.19 6.00   3.60 2581.85
   21:11:11.974.17-May-2020 4958.01 5506.08 68.19 6.00   3.80 2581.85
   21:11:12.174.17-May-2020 4958.01 5517.21 68.19 6.00   4.00 2581.85
   21:11:12.373.17-May-2020 4958.01 5517.21 68.19 6.00   4.20 2581.85
   21:11:12.573.17-May-2020 4958.01 5517.99 68.19 6.00   4.40 2581.85
   21:11:12.773.17-May-2020 4958.01 5517.20 68.19 6.00   4.60 2581.85
   21:11:12.973.17-May-2020 4958.01 5521.30 68.19 6.00   4.80 2581.85
   21:11:13.173.17-May-2020 4958.01 5525.10 68.19 6.00   5.00 2581.85
   21:11:13.373.17-May-2020 4958.01 5525.10 68.19 6.00   5.20 2581.85
   21:11:13.573.17-May-2020 4958.01 5524.93 68.19 6.00   5.40 2581.85
   21:11:13.773.17-May-2020 4958.01 5516.62 68.19 6.00   5.60 2581.85
   21:11:13.973.17-May-2020 4958.01 5530.71 68.19 6.00   5.80 2581.85
   21:11:14.173.17-May-2020 4958.01 5514.59 68.19 6.00   6.00 2581.85
   21:11:14.373.17-May-2020 4958.01 5514.59 68.19 6.00   6.20 2581.85
   21:11:14.573.17-May-2020 4958.01 5521.10 68.19 6.00   6.40 2581.85
   21:11:14.773.17-May-2020 4958.01 5515.76 68.19 6.00   6.60 2581.85
   21:11:14.973.17-May-2020 4958.01 5518.55 68.19 6.00   6.80 2581.85
   21:11:15.173.17-May-2020 4958.01 5517.19 68.19 6.00   7.00 2581.85
   21:11:15.373.17-May-2020 4958.01 5517.19 68.19 6.00   7.20 2581.85
   21:11:15.573.17-May-2020 4958.01 5515.43 68.19 6.00   7.40 2581.85
   21:11:15.773.17-May-2020 4958.01 5515.19 68.19 6.00   7.60 2581.85
   21:11:15.973.17-May-2020 4958.01 5515.24 68.19 6.00   7.80 2581.85
   21:11:16.173.17-May-2020 4958.01 5515.42 68.19 6.00   8.00 2581.85
   21:11:16.373.17-May-2020 4958.01 5515.42 68.19 6.00   8.20 2581.85
   21:11:16.573.17-May-2020 4958.01 5515.42 68.19 6.00   8.40 2581.85
   21:11:16.773.17-May-2020 4958.01 5523.14 68.19 6.00   8.60 2581.85
   21:11:16.973.17-May-2020 4958.01 5517.30 68.19 6.00   8.80 2581.85
   21:11:17.173.17-May-2020 4958.01 5519.02 68.19 6.00   9.00 2581.85
   21:11:17.373.17-May-2020 4958.01 5519.02 68.19 6.00   9.20 2581.85
   21:11:17.573.17-May-2020 4958.01 5516.85 68.19 6.00   9.40 2581.85
   21:11:17.773.17-May-2020 4958.01 5518.58 68.19 6.00   9.60 2581.85
   21:11:17.973.17-May-2020 4958.01 5518.50 68.19 6.00   9.80 2581.85
   21:11:18.173.17-May-2020 4958.01 5518.51 68.19 6.00  10.00 2581.85
   21:11:18.373.17-May-2020 4958.01 5518.91 68.19 6.00  10.20 2581.85
   21:11:18.573.17-May-2020 4958.01 5531.88 68.19 6.00  10.40 2581.85
   21:11:18.773.17-May-2020 4958.01 5516.56 68.19 6.00  10.60 2581.85
   21:11:18.973.17-May-2020 4958.01 5523.45 68.19 6.00  10.80 2581.85
   21:11:19.173.17-May-2020 4958.01 5524.75 68.19 6.00  11.00 2581.85
   21:11:19.373.17-May-2020 4958.01 5527.42 68.19 6.00  11.20 2581.85
   21:11:19.573.17-May-2020 4958.01 5524.89 68.19 6.00  11.40 2581.85
   21:11:19.773.17-May-2020 4958.01 5524.79 68.19 6.00  11.60 2581.85
   21:11:19.973.17-May-2020 4958.01 5528.37 68.19 6.00  11.80 2581.85
   21:11:20.173.17-May-2020 4958.01 5519.27 68.19 6.00  12.00 2581.85
   21:11:20.373.17-May-2020 4958.01 5519.27 68.19 6.00  12.20 2581.85
   21:11:20.573.17-May-2020 4958.01 5522.95 68.19 6.00  12.40 2581.85
   21:11:20.773.17-May-2020 4958.01 5529.17 68.19 6.00  12.60 2581.85
   21:11:20.973.17-May-2020 4958.01 5522.16 68.19 6.00  12.80 2581.85
   21:11:21.173.17-May-2020 4958.01 5539.01 68.19 6.00  13.00 2581.85
   21:11:21.373.17-May-2020 4958.01 5539.01 68.19 6.00  13.20 2581.85
   21:11:21.573.17-May-2020 4958.01 5526.56 68.19 6.00  13.40 2581.85
   21:11:21.773.17-May-2020 4958.01 5540.30 68.19 6.00  13.60 2581.85
   21:11:21.973.17-May-2020 4958.01 5519.65 68.19 6.00  13.80 2581.85
   21:11:22.173.17-May-2020 4958.01 5528.26 68.19 6.00  14.00 2581.85
   21:11:22.373.17-May-2020 4958.01 5528.26 68.19 6.00  14.20 2581.85
   21:11:22.573.17-May-2020 4958.01 5537.07 68.19 6.00  14.40 2581.85
   21:11:22.773.17-May-2020 4958.01 5521.70 68.19 6.00  14.60 2581.85
   21:11:22.973.17-May-2020 4958.01 5529.71 68.19 6.00  14.80 2581.85
   21:11:23.173.17-May-2020 4958.01 5525.28 68.18 6.00  15.00 2581.85
   21:11:23.373.17-May-2020 4958.01 5525.28 68.18 6.00  15.20 2581.85
   21:11:23.573.17-May-2020 4958.01 5523.20 68.18 6.00  15.40 2581.85
   21:11:23.773.17-May-2020 4958.01 5521.87 68.18 6.00  15.60 2581.85
   21:11:23.973.17-May-2020 4958.01 5522.80 68.18 6.00  15.80 2581.85
   21:11:24.173.17-May-2020 4958.01 5521.98 68.18 6.00  16.00 2581.85
   21:11:24.373.17-May-2020 4958.01 5521.98 68.18 6.00  16.20 2581.85
   21:11:24.573.17-May-2020 4958.01 5537.69 68.18 6.00  16.40 2581.85
   21:11:24.773.17-May-2020 4958.01 5516.51 68.18 6.00  16.60 2581.85
   21:11:24.973.17-May-2020 4958.01 5526.65 68.18 6.00  16.80 2581.85
   21:11:25.173.17-May-2020 4958.01 5526.46 68.18 6.00  17.00 2581.85
   21:11:25.372.17-May-2020 4958.01 5526.46 68.18 6.00  17.20 2581.85
   21:11:25.572.17-May-2020 4958.01 5524.75 68.18 6.00  17.40 2581.85
   21:11:25.772.17-May-2020 4958.01 5523.53 68.18 6.00  17.60 2581.85
   21:11:25.972.17-May-2020 4958.01 5524.59 68.18 6.00  17.80 2581.85
   21:11:26.172.17-May-2020 4958.01 5524.12 68.18 6.00  18.00 2581.85
   21:11:26.372.17-May-2020 4958.01 5524.12 68.18 6.00  18.20 2581.85
   21:11:26.572.17-May-2020 4958.01 5524.19 68.18 6.00  18.40 2581.85
   21:11:26.772.17-May-2020 4958.01 5533.86 68.18 6.00  18.60 2581.85
   21:11:26.972.17-May-2020 4958.01 5523.74 68.18 6.00  18.80 2581.85
   21:11:27.172.17-May-2020 4958.01 5528.05 68.18 6.00  19.00 2581.85
   21:11:27.372.17-May-2020 4958.01 5528.05 68.18 6.00  19.20 2581.85
   21:11:27.572.17-May-2020 4958.01 5526.63 68.18 6.00  19.40 2581.85
   21:11:27.772.17-May-2020 4958.01 5532.58 68.18 6.00  19.60 2581.85
   21:11:27.972.17-May-2020 4958.01 5528.97 68.18 6.00  19.80 2581.85
   21:11:28.172.17-May-2020 4958.01 5535.21 68.18 6.00  20.00 2581.85
   21:11:28.372.17-May-2020 4958.01 5535.21 68.18 6.00  20.20 2581.85
   21:11:28.572.17-May-2020 4958.01 5530.45 68.18 6.00  20.40 2581.85
   21:11:28.772.17-May-2020 4958.01 5531.13 68.18 6.00  20.60 2581.85
   21:11:28.972.17-May-2020 4958.01 5533.57 68.18 6.00  20.80 2581.85
   21:11:29.172.17-May-2020 4958.01 5525.29 68.18 6.00  21.00 2581.85
   21:11:29.372.17-May-2020 4958.01 5525.29 68.18 6.00  21.20 2581.85
   21:11:29.572.17-May-2020 4958.01 5525.02 68.18 6.00  21.40 2581.85
   21:11:29.772.17-May-2020 4958.01 5530.32 68.18 6.00  21.60 2581.85
   21:11:29.972.17-May-2020 4958.01 5531.20 68.18 6.00  21.80 2581.85
   21:11:30.172.17-May-2020 4958.01 5525.63 68.18 6.00  22.00 2581.85
   21:11:30.372.17-May-2020 4958.01 5525.63 68.18 6.00  22.20 2581.85
   21:11:30.572.17-May-2020 4958.01 5526.26 68.18 6.00  22.40 2581.85
   21:11:30.772.17-May-2020 4958.01 5526.73 68.18 6.00  22.60 2581.85
   21:11:30.972.17-May-2020 4958.01 5525.92 68.18 6.00  22.80 2581.85
