~Version Information
 VERS.                  2.0:   CWLS log ASCII Standard -VERSION 2.0
 WRAP.                   NO:   One line per depth step
~Well Information Block
#MNEM.UNIT     VALUE/NAME     DESCRIPTION
#---------     -----------    ---------------------------
 STRT.S             17:25:16 17-May-20: START TIME 17:25:16 17-May-20
 STOP.S             17:32:20 17-May-20: STOP TIME  17:32:20 17-May-20
 STEP.S                   0.00: STEP TIME
 NULL.                 -999.25: NULL VALUE
 UNIT.                     N/A:  LOGGING EQUIPMENT ID
 DCON.         Sperry Drilling:  DIRECTNL CONTR
 DOE .                     N/A:  DOE NUMBER
 JOBN.        AZ-XX-0906252240:  JOB TICKET NUMB
 MWDS.                     N/A:  MWD SHOP
 PROV.                    Baku:  PROVINCE
 STAT.                    Baku:  STATE NAME
 REGN.                   EESSA:  REGION
 BASE.              Azerbaijan:  LOGGING EQUIPMENT BASE LOCATION
 UWI .                     N/A:  UNIQUE WELL IDENTIFIER
 API .                     N/A:  API NUMBER
 MDS .        Operator Entered:  MAG DATA SOURCE
 WTYP.                Deviated:  WELL TYPE
 COMP.     BP Exploration (Caspian Sea) Ltd.:  COMPANY
 SRVC.          Turan Drilling:  CONTRACTOR
 WELL.           J23 (Slot 07):  WELL NAME
 CTRY.              Azerbaijan:  COUNTRY NAME
 FLD .                     ACG:  FIELD NAME
 PDAT.          Mean Sea Level:  PERMANENT DATUM
 RIG .             West Chirag:  RIG NAME
 SON .        AZ-XX-0906252240:  JOB NUMBER
 FTOP.          Formation Tops:  FORM TOPS DESC
 ILTD.               Lithology:  INTERP LTH DESC
 SVYD.                  Survey:  SURVEY DESC
 DMOD.             Drill Model:  DRILL MOD DESC
 HPTY.       Minimum Curvature:  HOLE POS TYPE
 NREF.                    Grid:  NORTH REFERENCE
 SPUD.               27-Aug-20:  SPUD DATE
 DATE.      00.00.00 19-May-20:  END TIME
 STIM.      03.00.00 25-Mar-20:  START TIME
 DMF .             Drill Floor:  DRILL MEAS FROM
 DFST.                        :  DIST FSL TEXT
 DFWT.                        :  DIST FWL TEXT
 CNTY.                        :  COUNTY
 LOC .                        :  LOCATION
 LMF .             Drill Floor:  LOG MEASURED FROM
 VSNS.m                   9.43:  VERT SEC N/S
 VSEW.m                  -8.91:  VERT SEC E/W
 AGAP.m                  43.00:  AIR GAP
 DEP .m                 354.17:  DEPTH
 APD .m                  43.00:  DEPTH ABOVE PD
 WDMS.m                 169.80:  WD ELEV
 EGL .m                   0.00:  GROUND ELEVATION
 EPD .m                   0.00:  ELEVATION
 AZTC.deg                 6.31:  AZM TOTAL CORR
 GRDC.deg                 0.14:  GRID CORRECTION
 MDEC.deg                 6.45:  MAGNETIC DECL
 MDIP.deg                59.56:  MAGNETIC DIP
 MFLD.nT              50295.00:  MAGNETIC FIELD
 GVFD.g                   1.00:  GRAVITY FIELD
 VSDR.deg               179.88:  VERT SEC DIRECT
 TDD .m                5150.01:  TOTAL DEPTH (DRILLER)
 SDEP.m                 864.00:  START DEPTH
 DFSL.m                   0.00:  DISTANCE FSL
 DFWL.m                   0.00:  DISTANCE FWL
 UTMY.m             4443793.85:  UTM Y
 UTMX.m              519005.06:  UTM X
 WHEW.m                  -8.91:  WELL HEAD E/W
 WHNS.m                   9.43:  WELL HEAD N/S
 LONG.deg                51.22:  LONGITUDE
 LATI.deg                40.13:  LATITUDE
 TVDS.m                  43.00:  TVDSS CORRECTN
 EKB .m                   0.00:  KB ELEVATION
 EDF .m                  43.00:  DF ELEVATION
 TDL .m                 363.00:  TOTAL DEPTH (LOGGER)
 MAGU.                 1850802:  MAGUTM CHECKSUM
 VSC .                       0:  VS TO CLOSURE
~Parameter Information Block
#MNEM.UNIT       Value        Description
#---------     -----------    ---------------------------
 AV  .mps                 2.30:  Ann Velocity 
 AVMX.mps                 4.40:  Max Ann Veloc 
 AZIF.deg               110.24:  Azm, Final 
 BHAT.        Rotary Steerable:  BHA Type 
 BREV.rev               331.00:  Rev Bit Total 
 BROT.°/30m               0.00:  Build Rotating 
 BS  .in                  8.50:  Bit Size 
 BSZ .in                  8.50:  Bit Size 
 BTPL.psig              585.00:  Bit Press Loss 
 CABU.                     Yes:  Customer Abuse 
 COMM.                     |n\:  Run Comments 1 
 TCS .hr                122.75:  Time Ciculation Ended 
 CV  .mps                 2.67:  Crit Velocity 
 CVMX.mps                 3.56:  Max Crit Veloc 
 DD1 .          Rashad Habibov:  Direct Drillr 1 
 DD2 .         Rasim Ibrahimov:  Direct Drillr 2 
 DDSV.               Geo-Pilot:  DD Service 
 DEFF.%                  98.00:  % Det Eff 
 DLRX.°/30m               0.75:  Dogleg Rot Max 
 DLSO.°/30m               1.25:  Dogleg Oriented 
 DLSX.°/30m               2.06:  Dogleg Str Max 
 DRET.      07.45.00 17-May-20:  Drill End Time 
 DRST.      22.50.00 15-May-20:  Drill Start Tim 
 DTIM.hr                 20.75:  Time Drilling 
 EDEP.m                5124.01:  End Depth 
 ENG1.           Eldar Hajiyev:  Engineer 1 
 ENG2.        Marcelo Sandoval:  Engineer 2 
 ENG3.        Davud huseynzada:  Engineer 3 
 ENG4.          Ruslan Safarov:  Engineer 4 
 ETIM.      04.33.00 23-May-20:  End Time 
 FLOI.gpm               450.00:  Flow In 
 FLON.gpm               400.00:  Flow In Min 
 FLOS.cptm                0.00:  Fluid Loss 
 FLOX.gpm               500.00:  Flow In Max 
 FTRO.       Formation Presure:  FTWD Run Obj 
 HFLO.                      No:  High Flow 
 HPRE.                     Yes:  High Pressure 
 HTEM.                      No:  High Temp 
 HYDO.m                   1.80:  Hydro Offset 
 IFIN.deg                75.06:  Inc, Final 
 IMAX.deg                75.38:  Inc Max 
 IMIN.deg                74.69:  Inc Min 
 IMND.m                5027.38:  Inc Min Depth 
 IMXD.m                4771.61:  Inc Max Depth 
 JARR.                      No:  Jarring 
 LETM.      07.45.00 17-May-20:  Log End Time 
 LOST.hr                     0:  Lost Rig Time 
 LSTM.      22.50.00 15-May-20:  Log Start Time 
 MDCL.ppm             42000.00:  Mud Chlorides 
 MDES.     Inversion Oil/Synthetic:  Mud Desc 
 DFD .sg                  1.34:  Mud Density 
 MDMN.sg                  1.34:  Dens Mud Min 
 MDMX.sg                  1.34:  Dens Mud Max 
 MOIL.                       0:  Run Mud Oil % 
 MOWR.                   67:33:  Run Mud OWR 
 MSND.                       0:  Run Mud Sand % 
 MSOL.                     1.8:  Run Mud Solids% 
 DFV .spqt               76.00:  Mud Viscosity 
 MWOD.in                  6.75:  MWD Tool OD 
 MWSI.                      No:  Serv Intrp, MWD 
 OTIM.hr                228.19:  Time Operating 
 PCON.           Look Like New:  Pad Condition 
 PMAX.psia             6164.70:  Press Op, Max 
 PV  .cP                 28.00:  Mud PV 
 RUN .                     900:  Run Number 
 ROPA.m/hr               19.00:  ROP Avg 
 ROPN.m/hr               11.00:  ROP Min 
 ROPX.m/hr               36.00:  ROP Max 
 RPMA.rpm               120.00:  RPM Surface Avg 
 RPMN.rpm               120.00:  RPM Surface Min 
 RPMX.rpm               120.00:  RPM Surface Max 
 RRUN.                    L604:  Rig Run Number 
 RTIM.hr                  7.00:  Time Reaming 
 SAZI.deg               109.27:  Azm, Start 
 SDEP.m                4761.01:  Start Depth 
 SIDD.                      No:  Serv Intrp, DD 
 SINC.deg                75.38:  Inc, Start 
 SPPA.psig             3574.00:  SPP Avg 
 SPPN.psig             3475.00:  SPP Min 
 SPPX.psig             3791.00:  SPP Max 
 STIM.      07.08.48 13-May-20:  Start Time 
 SVCS.                 DD, MWD:  Services 
 SVER.                    9.20:  Sperry Version 
 TDAT.m                 363.00:  Tot Depth Attmp 
 TDDF.                      No:  Trip for DD 
 TDLG.m                 363.00:  Tot Depth Loggd 
 TFF .                      No:  Trip for Fail 
 TQAA.f-kp               20.00:  Torque Abs Avg 
 TQAN.f-kp               18.00:  Torque Abs Min 
 TQAX.f-kp               22.00:  Torque Abs Max 
 TRRT.°/30m              -0.35:  Turn Rotating 
 MRT .                    HCIM:  Maximum Recorded Temperature 
 TTMX.degC               92.16:  Max Tool Temp 
 VS01.                90586518:  Virtual Str1 SN 
 VS02.        AZ90560654Z1W1C6:  Virtual Str2 SN 
 VS03.           AZ90610398F11:  Virtual Str3 SN 
 VS04.                90514975:  Virtual Str4 SN 
 VS05.                90514972:  Virtual Str5 SN 
 VS06.     AZ90603282F11V7D1A6:  Virtual Str6 SN 
 WBMN.klb                 7.00:  WOB Min 
 WOBA.klb                12.00:  WOB Avg 
 WOBX.klb                14.00:  WOB Max 
 YP  .lhf2               32.00:  Yield Point 
~Curve Information Block
#MNEM.UNIT                 API CODE     Curve Description
#---------               -----------    ---------------------------
 TIME.HHMMSS            00 000 000 000:  GT Time & Date
 GTDEPTH.m              00 000 000 000:  GT Depth
 GTPQH.psia             00 000 000 000:  GT HR Quartz Pressure
 GTTQ.degC              00 000 000 000:  GT Quartz Temperature
 GTTN.NONE              00 000 000 000:  GT Test Number
 GTET.sec               00 000 000 000:  GT Elapsed Test Time
 GTTVD.m                00 000 000 000:  GT True Vertical Depth
#Other Information
#
#WARRANTY: Halliburton will use its best efforts to furnish customers with 
#accurate information and interpretations that are part of, and incident to, the services 
#provided.  However, Halliburton cannot and does not warrant the accuracy 
#or correctness of such information and interpretations.  Under no circumstances should any 
#such information or interpretation be relied upon as the sole basis for any drilling, 
#completion, production, or financial decision or any procedure involving any risk to the 
#safety of any drilling venture, drilling rig or its crew or any other third party.  The 
#Customer has full responsibility for all drilling, completion and production operation.  
#Halliburton makes no representations or warranties, either expressed or 
#implied, including, but not limited to, the implied warranties of merchantability or fitness 
#for a particular purpose, with respect to the services rendered.  In no event will 
#Halliburton be liable for failure to obtain any particular results or for 
#any damages, including, but not limited to, indirect, special or consequential damages, 
#resulting from the use of any information or interpretation provided by Halliburton.
#
~A           TIME           GTDEPTH  GTPQH  GTTQ  GTTN  GTET   GTTVD  
# ...
   17:31:01.641.17-May-2020 5032.01 2637.85 70.44 3.00 345.32 2600.96
   17:31:01.842.17-May-2020 5032.01 2637.85 70.44 3.00 345.52 2600.96
   17:31:02.042.17-May-2020 5032.01 2637.88 70.44 3.00 345.72 2600.96
   17:31:02.242.17-May-2020 5032.01 2638.03 70.44 3.00 345.92 2600.96
   17:31:02.442.17-May-2020 5032.01 2637.86 70.44 3.00 346.12 2600.96
   17:31:02.642.17-May-2020 5032.01 2637.78 70.44 3.00 346.32 2600.96
   17:31:02.843.17-May-2020 5032.01 2637.78 70.44 3.00 346.52 2600.96
   17:31:03.043.17-May-2020 5032.01 2637.93 70.44 3.00 346.72 2600.96
   17:31:03.243.17-May-2020 5032.01 2637.88 70.44 3.00 346.92 2600.96
   17:31:03.443.17-May-2020 5032.01 2637.85 70.44 3.00 347.12 2600.96
   17:31:03.643.17-May-2020 5032.01 2637.86 70.44 3.00 347.32 2600.96
   17:31:03.843.17-May-2020 5032.01 2637.86 70.44 3.00 347.53 2600.96
   17:31:04.044.17-May-2020 5032.01 2637.85 70.44 3.00 347.73 2600.96
   17:31:04.244.17-May-2020 5032.01 2637.78 70.44 3.00 347.93 2600.96
   17:31:04.444.17-May-2020 5032.01 2637.92 70.44 3.00 348.13 2600.96
   17:31:04.644.17-May-2020 5032.01 2637.86 70.44 3.00 348.33 2600.96
   17:31:04.844.17-May-2020 5032.01 2637.86 70.44 3.00 348.53 2600.96
   17:31:05.045.17-May-2020 5032.01 2637.85 70.44 3.00 348.73 2600.96
   17:31:05.245.17-May-2020 5032.01 2637.87 70.44 3.00 348.93 2600.96
   17:31:05.445.17-May-2020 5032.01 2637.87 70.44 3.00 349.13 2600.96
   17:31:05.645.17-May-2020 5032.01 2637.88 70.44 3.00 349.33 2600.96
   17:31:05.845.17-May-2020 5032.01 2637.88 70.44 3.00 349.53 2600.96
   17:31:06.046.17-May-2020 5032.01 2637.86 70.44 3.00 349.73 2600.96
   17:31:06.246.17-May-2020 5032.01 2637.86 70.44 3.00 349.93 2600.96
   17:31:06.446.17-May-2020 5032.01 2637.86 70.44 3.00 350.13 2600.96
   17:31:06.646.17-May-2020 5032.01 2637.87 70.44 3.00 350.33 2600.96
   17:31:06.846.17-May-2020 5032.01 2637.87 70.44 3.00 350.53 2600.96
   17:31:07.046.17-May-2020 5032.01 2637.86 70.44 3.00 350.73 2600.96
   17:31:07.247.17-May-2020 5032.01 2637.82 70.44 3.00 350.93 2600.96
   17:31:07.447.17-May-2020 5032.01 2637.88 70.44 3.00 351.13 2600.96
   17:31:07.647.17-May-2020 5032.01 2637.90 70.44 3.00 351.33 2600.96
   17:31:07.847.17-May-2020 5032.01 2637.90 70.44 3.00 351.53 2600.96
   17:31:08.047.17-May-2020 5032.01 2637.87 70.44 3.00 351.73 2600.96
   17:31:08.248.17-May-2020 5032.01 2637.87 70.44 3.00 351.93 2600.96
   17:31:08.448.17-May-2020 5032.01 2637.87 70.44 3.00 352.13 2600.96
   17:31:08.648.17-May-2020 5032.01 2637.79 70.44 3.00 352.33 2600.96
   17:31:08.848.17-May-2020 5032.01 2638.00 70.44 3.00 352.53 2600.96
   17:31:09.048.17-May-2020 5032.01 2637.94 70.43 3.00 352.73 2600.96
   17:31:09.249.17-May-2020 5032.01 2637.80 70.43 3.00 352.93 2600.96
   17:31:09.449.17-May-2020 5032.01 2638.02 70.43 3.00 353.13 2600.96
   17:31:09.649.17-May-2020 5032.01 2637.91 70.43 3.00 353.33 2600.96
   17:31:09.849.17-May-2020 5032.01 2637.91 70.43 3.00 353.53 2600.96
   17:31:10.049.17-May-2020 5032.01 2637.90 70.43 3.00 353.73 2600.96
   17:31:10.249.17-May-2020 5032.01 2637.78 70.43 3.00 353.93 2600.96
   17:31:10.450.17-May-2020 5032.01 2638.00 70.43 3.00 354.13 2600.96
   17:31:10.650.17-May-2020 5032.01 2637.92 70.43 3.00 354.33 2600.96
   17:31:10.850.17-May-2020 5032.01 2637.92 70.43 3.00 354.53 2600.96
   17:31:11.050.17-May-2020 5032.01 2637.92 70.43 3.00 354.73 2600.96
   17:31:11.250.17-May-2020 5032.01 2637.96 70.43 3.00 354.93 2600.96
   17:31:11.451.17-May-2020 5032.01 2637.86 70.43 3.00 355.13 2600.96
   17:31:11.651.17-May-2020 5032.01 2637.83 70.43 3.00 355.33 2600.96
   17:31:11.851.17-May-2020 5032.01 2637.83 70.43 3.00 355.53 2600.96
   17:31:12.051.17-May-2020 5032.01 2637.89 70.43 3.00 355.73 2600.96
   17:31:12.251.17-May-2020 5032.01 2637.89 70.43 3.00 355.93 2600.96
   17:31:12.452.17-May-2020 5032.01 2637.87 70.43 3.00 356.13 2600.96
   17:31:12.652.17-May-2020 5032.01 2637.87 70.43 3.00 356.33 2600.96
   17:31:12.852.17-May-2020 5032.01 2637.86 70.43 3.00 356.53 2600.96
   17:31:13.052.17-May-2020 5032.01 2637.87 70.43 3.00 356.73 2600.96
   17:31:13.252.17-May-2020 5032.01 2638.04 70.43 3.00 356.93 2600.96
   17:31:13.452.17-May-2020 5032.01 2637.81 70.43 3.00 357.13 2600.96
   17:31:13.653.17-May-2020 5032.01 2637.80 70.43 3.00 357.33 2600.96
   17:31:13.853.17-May-2020 5032.01 2637.80 70.43 3.00 357.53 2600.96
   17:31:14.053.17-May-2020 5032.01 2637.86 70.43 3.00 357.73 2600.96
   17:31:14.253.17-May-2020 5032.01 2637.87 70.43 3.00 357.93 2600.96
   17:31:14.453.17-May-2020 5032.01 2637.87 70.43 3.00 358.13 2600.96
   17:31:14.654.17-May-2020 5032.01 2637.86 70.43 3.00 358.34 2600.96
   17:31:14.854.17-May-2020 5032.01 2637.86 70.43 3.00 358.54 2600.96
   17:31:15.054.17-May-2020 5032.01 2637.86 70.43 3.00 358.74 2600.96
   17:31:15.254.17-May-2020 5032.01 2637.92 70.43 3.00 358.94 2600.96
   17:31:15.454.17-May-2020 5032.01 2637.96 70.43 3.00 359.14 2600.96
   17:31:15.655.17-May-2020 5032.01 2637.80 70.43 3.00 359.34 2600.96
   17:31:15.855.17-May-2020 5032.01 2637.80 70.43 3.00 359.54 2600.96
   17:31:16.055.17-May-2020 5032.01 2637.99 70.43 3.00 359.74 2600.96
   17:31:16.255.17-May-2020 5032.01 2637.90 70.43 3.00 359.94 2600.96
   17:31:16.455.17-May-2020 5032.01 2637.82 70.43 3.00 360.14 2600.96
   17:31:16.655.17-May-2020 5032.01 2637.86 70.43 3.00 360.34 2600.96
   17:31:16.856.17-May-2020 5032.01 2637.96 70.43 3.00 360.54 2600.96
   17:31:17.056.17-May-2020 5032.01 2637.95 70.43 3.00 360.74 2600.96
   17:31:17.256.17-May-2020 5032.01 2637.75 70.43 3.00 360.94 2600.96
   17:31:17.456.17-May-2020 5032.01 2637.87 70.43 3.00 361.14 2600.96
   17:31:17.656.17-May-2020 5032.01 2637.98 70.43 3.00 361.34 2600.96
   17:31:17.857.17-May-2020 5032.01 2637.98 70.43 3.00 361.54 2600.96
   17:31:18.057.17-May-2020 5032.01 2637.84 70.43 3.00 361.74 2600.96
   17:31:18.257.17-May-2020 5032.01 2637.90 70.43 3.00 361.94 2600.96
   17:31:18.457.17-May-2020 5032.01 2637.84 70.43 3.00 362.14 2600.96
   17:31:18.657.17-May-2020 5032.01 2637.87 70.43 3.00 362.34 2600.96
   17:31:18.858.17-May-2020 5032.01 2637.87 70.43 3.00 362.54 2600.96
   17:31:19.058.17-May-2020 5032.01 2637.86 70.43 3.00 362.74 2600.96
   17:31:19.258.17-May-2020 5032.01 2637.86 70.43 3.00 362.94 2600.96
   17:31:19.458.17-May-2020 5032.01 2637.86 70.43 3.00 363.14 2600.96
   17:31:19.658.17-May-2020 5032.01 2637.81 70.42 3.00 363.34 2600.96
   17:31:19.858.17-May-2020 5032.01 2637.81 70.42 3.00 363.54 2600.96
   17:31:20.059.17-May-2020 5032.01 2637.89 70.42 3.00 363.74 2600.96
   17:31:20.259.17-May-2020 5032.01 2637.80 70.42 3.00 363.94 2600.96
   17:31:20.459.17-May-2020 5032.01 2637.87 70.42 3.00 364.14 2600.96
   17:31:20.659.17-May-2020 5032.01 2637.91 70.42 3.00 364.34 2600.96
   17:31:20.859.17-May-2020 5032.01 2637.91 70.42 3.00 364.54 2600.96
   17:31:21.060.17-May-2020 5032.01 2637.85 70.42 3.00 364.74 2600.96
   17:31:21.260.17-May-2020 5032.01 2637.87 70.42 3.00 364.94 2600.96
   17:31:21.460.17-May-2020 5032.01 2637.85 70.42 3.00 365.14 2600.96
   17:31:21.660.17-May-2020 5032.01 2637.86 70.42 3.00 365.34 2600.96
   17:31:21.860.17-May-2020 5032.01 2637.86 70.42 3.00 365.54 2600.96
   17:31:22.061.17-May-2020 5032.01 2637.98 70.42 3.00 365.74 2600.96
   17:31:22.261.17-May-2020 5032.01 2637.82 70.42 3.00 365.94 2600.96
   17:31:22.461.17-May-2020 5032.01 2638.06 70.42 3.00 366.14 2600.96
   17:31:22.661.17-May-2020 5032.01 2637.86 70.42 3.00 366.34 2600.96
   17:31:22.861.17-May-2020 5032.01 2637.78 70.42 3.00 366.54 2600.96
   17:31:23.061.17-May-2020 5032.01 2637.90 70.42 3.00 366.74 2600.96
   17:31:23.262.17-May-2020 5032.01 2637.80 70.42 3.00 366.94 2600.96
   17:31:23.462.17-May-2020 5032.01 2637.89 70.42 3.00 367.14 2600.96
   17:31:23.662.17-May-2020 5032.01 2637.96 70.42 3.00 367.34 2600.96
   17:31:23.862.17-May-2020 5032.01 2637.96 70.42 3.00 367.54 2600.96
   17:31:24.062.17-May-2020 5032.01 2650.10 70.42 3.00 367.74 2600.96
   17:31:24.263.17-May-2020 5032.01 3036.99 70.42 3.00 367.94 2600.96
   17:31:24.463.17-May-2020 5032.01 5586.15 70.42 3.00 368.14 2600.96
