~Version Information
 VERS.                  2.0:   CWLS log ASCII Standard -VERSION 2.0
 WRAP.                   NO:   One line per depth step
~Well Information Block
#MNEM.UNIT     VALUE/NAME     DESCRIPTION
#---------     -----------    ---------------------------
 STRT.S             01:27:41 18-May-20: START TIME 01:27:41 18-May-20
 STOP.S             01:34:42 18-May-20: STOP TIME  01:34:42 18-May-20
 STEP.S                   0.00: STEP TIME
 NULL.                 -999.25: NULL VALUE
 UNIT.                     N/A:  LOGGING EQUIPMENT ID
 DCON.         Sperry Drilling:  DIRECTNL CONTR
 DOE .                     N/A:  DOE NUMBER
 JOBN.        AZ-XX-0906252240:  JOB TICKET NUMB
 MWDS.                     N/A:  MWD SHOP
 PROV.                    Baku:  PROVINCE
 STAT.                    Baku:  STATE NAME
 REGN.                   EESSA:  REGION
 BASE.              Azerbaijan:  LOGGING EQUIPMENT BASE LOCATION
 UWI .                     N/A:  UNIQUE WELL IDENTIFIER
 API .                     N/A:  API NUMBER
 MDS .        Operator Entered:  MAG DATA SOURCE
 WTYP.                Deviated:  WELL TYPE
 COMP.     BP Exploration (Caspian Sea) Ltd.:  COMPANY
 SRVC.          Turan Drilling:  CONTRACTOR
 WELL.           J23 (Slot 07):  WELL NAME
 CTRY.              Azerbaijan:  COUNTRY NAME
 FLD .                     ACG:  FIELD NAME
 PDAT.          Mean Sea Level:  PERMANENT DATUM
 RIG .             West Chirag:  RIG NAME
 SON .        AZ-XX-0906252240:  JOB NUMBER
 FTOP.          Formation Tops:  FORM TOPS DESC
 ILTD.               Lithology:  INTERP LTH DESC
 SVYD.                  Survey:  SURVEY DESC
 DMOD.             Drill Model:  DRILL MOD DESC
 HPTY.       Minimum Curvature:  HOLE POS TYPE
 NREF.                    Grid:  NORTH REFERENCE
 SPUD.               27-Aug-20:  SPUD DATE
 DATE.      00.00.00 19-May-20:  END TIME
 STIM.      03.00.00 25-Mar-20:  START TIME
 DMF .             Drill Floor:  DRILL MEAS FROM
 DFST.                        :  DIST FSL TEXT
 DFWT.                        :  DIST FWL TEXT
 CNTY.                        :  COUNTY
 LOC .                        :  LOCATION
 LMF .             Drill Floor:  LOG MEASURED FROM
 VSNS.m                   9.43:  VERT SEC N/S
 VSEW.m                  -8.91:  VERT SEC E/W
 AGAP.m                  43.00:  AIR GAP
 DEP .m                 354.17:  DEPTH
 APD .m                  43.00:  DEPTH ABOVE PD
 WDMS.m                 169.80:  WD ELEV
 EGL .m                   0.00:  GROUND ELEVATION
 EPD .m                   0.00:  ELEVATION
 AZTC.deg                 6.31:  AZM TOTAL CORR
 GRDC.deg                 0.14:  GRID CORRECTION
 MDEC.deg                 6.45:  MAGNETIC DECL
 MDIP.deg                59.56:  MAGNETIC DIP
 MFLD.nT              50295.00:  MAGNETIC FIELD
 GVFD.g                   1.00:  GRAVITY FIELD
 VSDR.deg               179.88:  VERT SEC DIRECT
 TDD .m                5150.01:  TOTAL DEPTH (DRILLER)
 SDEP.m                 864.00:  START DEPTH
 DFSL.m                   0.00:  DISTANCE FSL
 DFWL.m                   0.00:  DISTANCE FWL
 UTMY.m             4443793.85:  UTM Y
 UTMX.m              519005.06:  UTM X
 WHEW.m                  -8.91:  WELL HEAD E/W
 WHNS.m                   9.43:  WELL HEAD N/S
 LONG.deg                51.22:  LONGITUDE
 LATI.deg                40.13:  LATITUDE
 TVDS.m                  43.00:  TVDSS CORRECTN
 EKB .m                   0.00:  KB ELEVATION
 EDF .m                  43.00:  DF ELEVATION
 TDL .m                 363.00:  TOTAL DEPTH (LOGGER)
 MAGU.                 1850802:  MAGUTM CHECKSUM
 VSC .                       0:  VS TO CLOSURE
~Parameter Information Block
#MNEM.UNIT       Value        Description
#---------     -----------    ---------------------------
 AV  .mps                 2.30:  Ann Velocity 
 AVMX.mps                 4.40:  Max Ann Veloc 
 AZIF.deg               110.24:  Azm, Final 
 BHAT.        Rotary Steerable:  BHA Type 
 BREV.rev               331.00:  Rev Bit Total 
 BROT.°/30m               0.00:  Build Rotating 
 BS  .in                  8.50:  Bit Size 
 BSZ .in                  8.50:  Bit Size 
 BTPL.psig              585.00:  Bit Press Loss 
 CABU.                     Yes:  Customer Abuse 
 COMM.                     tPr:  Run Comments 1 
 TCS .hr                122.75:  Time Ciculation Ended 
 CV  .mps                 2.67:  Crit Velocity 
 CVMX.mps                 3.56:  Max Crit Veloc 
 DD1 .          Rashad Habibov:  Direct Drillr 1 
 DD2 .         Rasim Ibrahimov:  Direct Drillr 2 
 DDSV.               Geo-Pilot:  DD Service 
 DEFF.%                  98.00:  % Det Eff 
 DLRX.°/30m               0.75:  Dogleg Rot Max 
 DLSO.°/30m               1.25:  Dogleg Oriented 
 DLSX.°/30m               2.06:  Dogleg Str Max 
 DRET.      07.45.00 17-May-20:  Drill End Time 
 DRST.      22.50.00 15-May-20:  Drill Start Tim 
 DTIM.hr                 20.75:  Time Drilling 
 EDEP.m                5124.01:  End Depth 
 ENG1.           Eldar Hajiyev:  Engineer 1 
 ENG2.        Marcelo Sandoval:  Engineer 2 
 ENG3.        Davud huseynzada:  Engineer 3 
 ENG4.          Ruslan Safarov:  Engineer 4 
 ETIM.      04.33.00 23-May-20:  End Time 
 FLOI.gpm               450.00:  Flow In 
 FLON.gpm               400.00:  Flow In Min 
 FLOS.cptm                0.00:  Fluid Loss 
 FLOX.gpm               500.00:  Flow In Max 
 FTRO.       Formation Presure:  FTWD Run Obj 
 HFLO.                      No:  High Flow 
 HPRE.                     Yes:  High Pressure 
 HTEM.                      No:  High Temp 
 HYDO.m                   1.80:  Hydro Offset 
 IFIN.deg                75.06:  Inc, Final 
 IMAX.deg                75.38:  Inc Max 
 IMIN.deg                74.69:  Inc Min 
 IMND.m                5027.38:  Inc Min Depth 
 IMXD.m                4771.61:  Inc Max Depth 
 JARR.                      No:  Jarring 
 LETM.      07.45.00 17-May-20:  Log End Time 
 LOST.hr                     0:  Lost Rig Time 
 LSTM.      22.50.00 15-May-20:  Log Start Time 
 MDCL.ppm             42000.00:  Mud Chlorides 
 MDES.     Inversion Oil/Synthetic:  Mud Desc 
 DFD .sg                  1.34:  Mud Density 
 MDMN.sg                  1.34:  Dens Mud Min 
 MDMX.sg                  1.34:  Dens Mud Max 
 MOIL.                       0:  Run Mud Oil % 
 MOWR.                   67:33:  Run Mud OWR 
 MSND.                       0:  Run Mud Sand % 
 MSOL.                     1.8:  Run Mud Solids% 
 DFV .spqt               76.00:  Mud Viscosity 
 MWOD.in                  6.75:  MWD Tool OD 
 MWSI.                      No:  Serv Intrp, MWD 
 OTIM.hr                228.19:  Time Operating 
 PCON.           Look Like New:  Pad Condition 
 PMAX.psia             6164.70:  Press Op, Max 
 PV  .cP                 28.00:  Mud PV 
 RUN .                     900:  Run Number 
 ROPA.m/hr               19.00:  ROP Avg 
 ROPN.m/hr               11.00:  ROP Min 
 ROPX.m/hr               36.00:  ROP Max 
 RPMA.rpm               120.00:  RPM Surface Avg 
 RPMN.rpm               120.00:  RPM Surface Min 
 RPMX.rpm               120.00:  RPM Surface Max 
 RRUN.                    L604:  Rig Run Number 
 RTIM.hr                  7.00:  Time Reaming 
 SAZI.deg               109.27:  Azm, Start 
 SDEP.m                4761.01:  Start Depth 
 SIDD.                      No:  Serv Intrp, DD 
 SINC.deg                75.38:  Inc, Start 
 SPPA.psig             3574.00:  SPP Avg 
 SPPN.psig             3475.00:  SPP Min 
 SPPX.psig             3791.00:  SPP Max 
 STIM.      07.08.48 13-May-20:  Start Time 
 SVCS.                 DD, MWD:  Services 
 SVER.                    9.20:  Sperry Version 
 TDAT.m                 363.00:  Tot Depth Attmp 
 TDDF.                      No:  Trip for DD 
 TDLG.m                 363.00:  Tot Depth Loggd 
 TFF .                      No:  Trip for Fail 
 TQAA.f-kp               20.00:  Torque Abs Avg 
 TQAN.f-kp               18.00:  Torque Abs Min 
 TQAX.f-kp               22.00:  Torque Abs Max 
 TRRT.°/30m              -0.35:  Turn Rotating 
 MRT .                    HCIM:  Maximum Recorded Temperature 
 TTMX.degC               92.16:  Max Tool Temp 
 VS01.                90586518:  Virtual Str1 SN 
 VS02.        AZ90560654Z1W1C6:  Virtual Str2 SN 
 VS03.           AZ90610398F11:  Virtual Str3 SN 
 VS04.                90514975:  Virtual Str4 SN 
 VS05.                90514972:  Virtual Str5 SN 
 VS06.     AZ90603282F11V7D1A6:  Virtual Str6 SN 
 WBMN.klb                 7.00:  WOB Min 
 WOBA.klb                12.00:  WOB Avg 
 WOBX.klb                14.00:  WOB Max 
 YP  .lhf2               32.00:  Yield Point 
~Curve Information Block
#MNEM.UNIT                 API CODE     Curve Description
#---------               -----------    ---------------------------
 TIME.HHMMSS            00 000 000 000:  GT Time & Date
 GTDEPTH.m              00 000 000 000:  GT Depth
 GTPQH.psia             00 000 000 000:  GT HR Quartz Pressure
 GTTQ.degC              00 000 000 000:  GT Quartz Temperature
 GTTN.NONE              00 000 000 000:  GT Test Number
 GTET.sec               00 000 000 000:  GT Elapsed Test Time
 GTTVD.m                00 000 000 000:  GT True Vertical Depth
#Other Information
#
#WARRANTY: Halliburton will use its best efforts to furnish customers with 
#accurate information and interpretations that are part of, and incident to, the services 
#provided.  However, Halliburton cannot and does not warrant the accuracy 
#or correctness of such information and interpretations.  Under no circumstances should any 
#such information or interpretation be relied upon as the sole basis for any drilling, 
#completion, production, or financial decision or any procedure involving any risk to the 
#safety of any drilling venture, drilling rig or its crew or any other third party.  The 
#Customer has full responsibility for all drilling, completion and production operation.  
#Halliburton makes no representations or warranties, either expressed or 
#implied, including, but not limited to, the implied warranties of merchantability or fitness 
#for a particular purpose, with respect to the services rendered.  In no event will 
#Halliburton be liable for failure to obtain any particular results or for 
#any damages, including, but not limited to, indirect, special or consequential damages, 
#resulting from the use of any information or interpretation provided by Halliburton.
#
~A           TIME           GTDEPTH  GTPQH  GTTQ  GTTN   GTET   GTTVD  
# ...
   01:29:34.886.18-May-2020 4854.01 3158.23 66.56 11.00 113.05 2555.10
   01:29:35.086.18-May-2020 4854.01 3158.23 66.56 11.00 113.25 2555.10
   01:29:35.287.18-May-2020 4854.01 3158.17 66.56 11.00 113.45 2555.10
   01:29:35.487.18-May-2020 4854.01 3158.26 66.56 11.00 113.65 2555.10
   01:29:35.687.18-May-2020 4854.01 3158.34 66.56 11.00 113.85 2555.10
   01:29:35.887.18-May-2020 4854.01 3158.18 66.56 11.00 114.05 2555.10
   01:29:36.087.18-May-2020 4854.01 3158.18 66.56 11.00 114.25 2555.10
   01:29:36.287.18-May-2020 4854.01 3158.24 66.56 11.00 114.45 2555.10
   01:29:36.487.18-May-2020 4854.01 3158.21 66.56 11.00 114.65 2555.10
   01:29:36.687.18-May-2020 4854.01 3158.23 66.56 11.00 114.85 2555.10
   01:29:36.887.18-May-2020 4854.01 3158.23 66.56 11.00 115.05 2555.10
   01:29:37.087.18-May-2020 4854.01 3158.23 66.56 11.00 115.25 2555.10
   01:29:37.287.18-May-2020 4854.01 3158.24 66.56 11.00 115.45 2555.10
   01:29:37.487.18-May-2020 4854.01 3158.39 66.56 11.00 115.65 2555.10
   01:29:37.688.18-May-2020 4854.01 3158.09 66.56 11.00 115.85 2555.10
   01:29:37.888.18-May-2020 4854.01 3158.24 66.56 11.00 116.05 2555.10
   01:29:38.088.18-May-2020 4854.01 3158.24 66.56 11.00 116.25 2555.10
   01:29:38.288.18-May-2020 4854.01 3158.07 66.56 11.00 116.45 2555.10
   01:29:38.488.18-May-2020 4854.01 3158.21 66.56 11.00 116.65 2555.10
   01:29:38.688.18-May-2020 4854.01 3158.29 66.56 11.00 116.85 2555.10
   01:29:38.888.18-May-2020 4854.01 3158.20 66.56 11.00 117.05 2555.10
   01:29:39.088.18-May-2020 4854.01 3158.20 66.56 11.00 117.25 2555.10
   01:29:39.288.18-May-2020 4854.01 3158.18 66.56 11.00 117.45 2555.10
   01:29:39.488.18-May-2020 4854.01 3158.21 66.56 11.00 117.65 2555.10
   01:29:39.688.18-May-2020 4854.01 3158.28 66.56 11.00 117.85 2555.10
   01:29:39.888.18-May-2020 4854.01 3158.29 66.56 11.00 118.05 2555.10
   01:29:40.089.18-May-2020 4854.01 3158.29 66.56 11.00 118.25 2555.10
   01:29:40.289.18-May-2020 4854.01 3158.14 66.56 11.00 118.45 2555.10
   01:29:40.489.18-May-2020 4854.01 3158.28 66.56 11.00 118.65 2555.10
   01:29:40.689.18-May-2020 4854.01 3158.21 66.56 11.00 118.85 2555.10
   01:29:40.889.18-May-2020 4854.01 3158.21 66.56 11.00 119.05 2555.10
   01:29:41.089.18-May-2020 4854.01 3158.21 66.56 11.00 119.25 2555.10
   01:29:41.289.18-May-2020 4854.01 3158.21 66.56 11.00 119.45 2555.10
   01:29:41.489.18-May-2020 4854.01 3158.24 66.56 11.00 119.65 2555.10
   01:29:41.689.18-May-2020 4854.01 3158.23 66.56 11.00 119.85 2555.10
   01:29:41.889.18-May-2020 4854.01 3158.36 66.56 11.00 120.05 2555.10
   01:29:42.089.18-May-2020 4854.01 3158.36 66.56 11.00 120.25 2555.10
   01:29:42.289.18-May-2020 4854.01 3158.23 66.56 11.00 120.45 2555.10
   01:29:42.489.18-May-2020 4854.01 3158.28 66.56 11.00 120.65 2555.10
   01:29:42.690.18-May-2020 4854.01 3158.20 66.56 11.00 120.85 2555.10
   01:29:42.890.18-May-2020 4854.01 3158.22 66.56 11.00 121.05 2555.10
   01:29:43.090.18-May-2020 4854.01 3158.22 66.56 11.00 121.25 2555.10
   01:29:43.290.18-May-2020 4854.01 3158.23 66.56 11.00 121.45 2555.10
   01:29:43.490.18-May-2020 4854.01 3158.23 66.56 11.00 121.65 2555.10
   01:29:43.690.18-May-2020 4854.01 3158.25 66.56 11.00 121.85 2555.10
   01:29:43.890.18-May-2020 4854.01 3158.24 66.56 11.00 122.05 2555.10
   01:29:44.090.18-May-2020 4854.01 3158.24 66.56 11.00 122.25 2555.10
   01:29:44.290.18-May-2020 4854.01 3158.28 66.56 11.00 122.45 2555.10
   01:29:44.490.18-May-2020 4854.01 3158.14 66.56 11.00 122.65 2555.10
   01:29:44.690.18-May-2020 4854.01 3158.50 66.56 11.00 122.85 2555.10
   01:29:44.890.18-May-2020 4854.01 3158.09 66.56 11.00 123.05 2555.10
   01:29:45.091.18-May-2020 4854.01 3158.09 66.56 11.00 123.25 2555.10
   01:29:45.291.18-May-2020 4854.01 3158.28 66.56 11.00 123.45 2555.10
   01:29:45.491.18-May-2020 4854.01 3158.22 66.56 11.00 123.65 2555.10
   01:29:45.691.18-May-2020 4854.01 3158.38 66.56 11.00 123.85 2555.10
   01:29:45.891.18-May-2020 4854.01 3158.09 66.56 11.00 124.05 2555.10
   01:29:46.091.18-May-2020 4854.01 3158.09 66.56 11.00 124.25 2555.10
   01:29:46.291.18-May-2020 4854.01 3158.27 66.56 11.00 124.45 2555.10
   01:29:46.491.18-May-2020 4854.01 3158.29 66.56 11.00 124.65 2555.10
   01:29:46.691.18-May-2020 4854.01 3158.24 66.56 11.00 124.85 2555.10
   01:29:46.891.18-May-2020 4854.01 3158.24 66.56 11.00 125.05 2555.10
   01:29:47.091.18-May-2020 4854.01 3158.24 66.56 11.00 125.25 2555.10
   01:29:47.291.18-May-2020 4854.01 3158.23 66.56 11.00 125.45 2555.10
   01:29:47.491.18-May-2020 4854.01 3158.24 66.56 11.00 125.65 2555.10
   01:29:47.692.18-May-2020 4854.01 3158.22 66.56 11.00 125.85 2555.10
   01:29:47.892.18-May-2020 4854.01 3158.23 66.56 11.00 126.05 2555.10
   01:29:48.092.18-May-2020 4854.01 3158.23 66.56 11.00 126.25 2555.10
   01:29:48.292.18-May-2020 4854.01 3158.24 66.56 11.00 126.45 2555.10
   01:29:48.492.18-May-2020 4854.01 3158.45 66.56 11.00 126.65 2555.10
   01:29:48.692.18-May-2020 4854.01 3158.06 66.56 11.00 126.85 2555.10
   01:29:48.892.18-May-2020 4854.01 3158.20 66.56 11.00 127.05 2555.10
   01:29:49.092.18-May-2020 4854.01 3158.20 66.56 11.00 127.25 2555.10
   01:29:49.292.18-May-2020 4854.01 3158.24 66.56 11.00 127.45 2555.10
   01:29:49.492.18-May-2020 4854.01 3158.21 66.56 11.00 127.65 2555.10
   01:29:49.692.18-May-2020 4854.01 3158.23 66.56 11.00 127.85 2555.10
   01:29:49.892.18-May-2020 4854.01 3158.23 66.56 11.00 128.05 2555.10
   01:29:50.093.18-May-2020 4854.01 3158.23 66.56 11.00 128.25 2555.10
   01:29:50.293.18-May-2020 4854.01 3158.24 66.56 11.00 128.45 2555.10
   01:29:50.493.18-May-2020 4854.01 3158.21 66.56 11.00 128.65 2555.10
   01:29:50.693.18-May-2020 4854.01 3158.26 66.56 11.00 128.85 2555.10
   01:29:50.893.18-May-2020 4854.01 3158.31 66.56 11.00 129.05 2555.10
   01:29:51.093.18-May-2020 4854.01 3158.31 66.56 11.00 129.25 2555.10
   01:29:51.293.18-May-2020 4854.01 3158.21 66.56 11.00 129.45 2555.10
   01:29:51.493.18-May-2020 4854.01 3158.36 66.56 11.00 129.65 2555.10
   01:29:51.693.18-May-2020 4854.01 3158.18 66.56 11.00 129.85 2555.10
   01:29:51.893.18-May-2020 4854.01 3158.24 66.56 11.00 130.05 2555.10
   01:29:52.093.18-May-2020 4854.01 3158.24 66.56 11.00 130.25 2555.10
   01:29:52.293.18-May-2020 4854.01 3158.32 66.56 11.00 130.45 2555.10
   01:29:52.494.18-May-2020 4854.01 3158.24 66.56 11.00 130.65 2555.10
   01:29:52.694.18-May-2020 4854.01 3158.15 66.56 11.00 130.85 2555.10
   01:29:52.894.18-May-2020 4854.01 3158.48 66.56 11.00 131.05 2555.10
   01:29:53.094.18-May-2020 4854.01 3158.48 66.56 11.00 131.25 2555.10
   01:29:53.294.18-May-2020 4854.01 3158.21 66.56 11.00 131.45 2555.10
   01:29:53.494.18-May-2020 4854.01 3158.31 66.56 11.00 131.65 2555.10
   01:29:53.694.18-May-2020 4854.01 3158.19 66.56 11.00 131.85 2555.10
   01:29:53.894.18-May-2020 4854.01 3158.23 66.56 11.00 132.05 2555.10
   01:29:54.094.18-May-2020 4854.01 3158.23 66.56 11.00 132.25 2555.10
   01:29:54.294.18-May-2020 4854.01 3158.23 66.56 11.00 132.45 2555.10
   01:29:54.494.18-May-2020 4854.01 3158.24 66.56 11.00 132.65 2555.10
   01:29:54.694.18-May-2020 4854.01 3158.24 66.56 11.00 132.85 2555.10
   01:29:54.894.18-May-2020 4854.01 3158.23 66.56 11.00 133.05 2555.10
   01:29:55.095.18-May-2020 4854.01 3158.23 66.56 11.00 133.25 2555.10
   01:29:55.295.18-May-2020 4854.01 3158.31 66.56 11.00 133.45 2555.10
   01:29:55.495.18-May-2020 4854.01 3158.17 66.56 11.00 133.65 2555.10
   01:29:55.695.18-May-2020 4854.01 3158.24 66.56 11.00 133.85 2555.10
   01:29:55.895.18-May-2020 4854.01 3158.24 66.56 11.00 134.05 2555.10
   01:29:56.095.18-May-2020 4854.01 3158.24 66.56 11.00 134.25 2555.10
   01:29:56.295.18-May-2020 4854.01 3158.23 66.56 11.00 134.45 2555.10
   01:29:56.495.18-May-2020 4854.01 3158.22 66.56 11.00 134.65 2555.10
   01:29:56.695.18-May-2020 4854.01 3158.25 66.56 11.00 134.85 2555.10
   01:29:56.895.18-May-2020 4854.01 3158.24 66.56 11.00 135.05 2555.10
   01:29:57.095.18-May-2020 4854.01 3158.24 66.56 11.00 135.25 2555.10
   01:29:57.295.18-May-2020 4854.01 3158.06 66.56 11.00 135.45 2555.10
