~Version Information
 VERS.                  2.0:   CWLS log ASCII Standard -VERSION 2.0
 WRAP.                   NO:   One line per depth step
~Well Information Block
#MNEM.UNIT     VALUE/NAME     DESCRIPTION
#---------     -----------    ---------------------------
 STRT.S             14:38:44 17-May-20: START TIME 14:38:44 17-May-20
 STOP.S             14:45:36 17-May-20: STOP TIME  14:45:36 17-May-20
 STEP.S                   0.00: STEP TIME
 NULL.                 -999.25: NULL VALUE
 UNIT.                     N/A:  LOGGING EQUIPMENT ID
 DCON.         Sperry Drilling:  DIRECTNL CONTR
 DOE .                     N/A:  DOE NUMBER
 JOBN.        AZ-XX-0906252240:  JOB TICKET NUMB
 MWDS.                     N/A:  MWD SHOP
 PROV.                    Baku:  PROVINCE
 STAT.                    Baku:  STATE NAME
 REGN.                   EESSA:  REGION
 BASE.              Azerbaijan:  LOGGING EQUIPMENT BASE LOCATION
 UWI .                     N/A:  UNIQUE WELL IDENTIFIER
 API .                     N/A:  API NUMBER
 MDS .        Operator Entered:  MAG DATA SOURCE
 WTYP.                Deviated:  WELL TYPE
 COMP.     BP Exploration (Caspian Sea) Ltd.:  COMPANY
 SRVC.          Turan Drilling:  CONTRACTOR
 WELL.           J23 (Slot 07):  WELL NAME
 CTRY.              Azerbaijan:  COUNTRY NAME
 FLD .                     ACG:  FIELD NAME
 PDAT.          Mean Sea Level:  PERMANENT DATUM
 RIG .             West Chirag:  RIG NAME
 SON .        AZ-XX-0906252240:  JOB NUMBER
 FTOP.          Formation Tops:  FORM TOPS DESC
 ILTD.               Lithology:  INTERP LTH DESC
 SVYD.                  Survey:  SURVEY DESC
 DMOD.             Drill Model:  DRILL MOD DESC
 HPTY.       Minimum Curvature:  HOLE POS TYPE
 NREF.                    Grid:  NORTH REFERENCE
 SPUD.               27-Aug-20:  SPUD DATE
 DATE.      00.00.00 19-May-20:  END TIME
 STIM.      03.00.00 25-Mar-20:  START TIME
 DMF .             Drill Floor:  DRILL MEAS FROM
 DFST.                        :  DIST FSL TEXT
 DFWT.                        :  DIST FWL TEXT
 CNTY.                        :  COUNTY
 LOC .                        :  LOCATION
 LMF .             Drill Floor:  LOG MEASURED FROM
 VSNS.m                   9.43:  VERT SEC N/S
 VSEW.m                  -8.91:  VERT SEC E/W
 AGAP.m                  43.00:  AIR GAP
 DEP .m                 354.17:  DEPTH
 APD .m                  43.00:  DEPTH ABOVE PD
 WDMS.m                 169.80:  WD ELEV
 EGL .m                   0.00:  GROUND ELEVATION
 EPD .m                   0.00:  ELEVATION
 AZTC.deg                 6.31:  AZM TOTAL CORR
 GRDC.deg                 0.14:  GRID CORRECTION
 MDEC.deg                 6.45:  MAGNETIC DECL
 MDIP.deg                59.56:  MAGNETIC DIP
 MFLD.nT              50295.00:  MAGNETIC FIELD
 GVFD.g                   1.00:  GRAVITY FIELD
 VSDR.deg               179.88:  VERT SEC DIRECT
 TDD .m                5150.01:  TOTAL DEPTH (DRILLER)
 SDEP.m                 864.00:  START DEPTH
 DFSL.m                   0.00:  DISTANCE FSL
 DFWL.m                   0.00:  DISTANCE FWL
 UTMY.m             4443793.85:  UTM Y
 UTMX.m              519005.06:  UTM X
 WHEW.m                  -8.91:  WELL HEAD E/W
 WHNS.m                   9.43:  WELL HEAD N/S
 LONG.deg                51.22:  LONGITUDE
 LATI.deg                40.13:  LATITUDE
 TVDS.m                  43.00:  TVDSS CORRECTN
 EKB .m                   0.00:  KB ELEVATION
 EDF .m                  43.00:  DF ELEVATION
 TDL .m                 363.00:  TOTAL DEPTH (LOGGER)
 MAGU.                 1850802:  MAGUTM CHECKSUM
 VSC .                       0:  VS TO CLOSURE
~Parameter Information Block
#MNEM.UNIT       Value        Description
#---------     -----------    ---------------------------
 AV  .mps                 2.30:  Ann Velocity 
 AVMX.mps                 4.40:  Max Ann Veloc 
 AZIF.deg               110.24:  Azm, Final 
 BHAT.        Rotary Steerable:  BHA Type 
 BREV.rev               331.00:  Rev Bit Total 
 BROT.°/30m               0.00:  Build Rotating 
 BS  .in                  8.50:  Bit Size 
 BSZ .in                  8.50:  Bit Size 
 BTPL.psig              585.00:  Bit Press Loss 
 CABU.                     Yes:  Customer Abuse 
 COMM.                     ÔF[:  Run Comments 1 
 TCS .hr                122.75:  Time Ciculation Ended 
 CV  .mps                 2.67:  Crit Velocity 
 CVMX.mps                 3.56:  Max Crit Veloc 
 DD1 .          Rashad Habibov:  Direct Drillr 1 
 DD2 .         Rasim Ibrahimov:  Direct Drillr 2 
 DDSV.               Geo-Pilot:  DD Service 
 DEFF.%                  98.00:  % Det Eff 
 DLRX.°/30m               0.75:  Dogleg Rot Max 
 DLSO.°/30m               1.25:  Dogleg Oriented 
 DLSX.°/30m               2.06:  Dogleg Str Max 
 DRET.      07.45.00 17-May-20:  Drill End Time 
 DRST.      22.50.00 15-May-20:  Drill Start Tim 
 DTIM.hr                 20.75:  Time Drilling 
 EDEP.m                5124.01:  End Depth 
 ENG1.           Eldar Hajiyev:  Engineer 1 
 ENG2.        Marcelo Sandoval:  Engineer 2 
 ENG3.        Davud huseynzada:  Engineer 3 
 ENG4.          Ruslan Safarov:  Engineer 4 
 ETIM.      04.33.00 23-May-20:  End Time 
 FLOI.gpm               450.00:  Flow In 
 FLON.gpm               400.00:  Flow In Min 
 FLOS.cptm                0.00:  Fluid Loss 
 FLOX.gpm               500.00:  Flow In Max 
 FTRO.       Formation Presure:  FTWD Run Obj 
 HFLO.                      No:  High Flow 
 HPRE.                     Yes:  High Pressure 
 HTEM.                      No:  High Temp 
 HYDO.m                   1.80:  Hydro Offset 
 IFIN.deg                75.06:  Inc, Final 
 IMAX.deg                75.38:  Inc Max 
 IMIN.deg                74.69:  Inc Min 
 IMND.m                5027.38:  Inc Min Depth 
 IMXD.m                4771.61:  Inc Max Depth 
 JARR.                      No:  Jarring 
 LETM.      07.45.00 17-May-20:  Log End Time 
 LOST.hr                     0:  Lost Rig Time 
 LSTM.      22.50.00 15-May-20:  Log Start Time 
 MDCL.ppm             42000.00:  Mud Chlorides 
 MDES.     Inversion Oil/Synthetic:  Mud Desc 
 DFD .sg                  1.34:  Mud Density 
 MDMN.sg                  1.34:  Dens Mud Min 
 MDMX.sg                  1.34:  Dens Mud Max 
 MOIL.                       0:  Run Mud Oil % 
 MOWR.                   67:33:  Run Mud OWR 
 MSND.                       0:  Run Mud Sand % 
 MSOL.                     1.8:  Run Mud Solids% 
 DFV .spqt               76.00:  Mud Viscosity 
 MWOD.in                  6.75:  MWD Tool OD 
 MWSI.                      No:  Serv Intrp, MWD 
 OTIM.hr                228.19:  Time Operating 
 PCON.           Look Like New:  Pad Condition 
 PMAX.psia             6164.70:  Press Op, Max 
 PV  .cP                 28.00:  Mud PV 
 RUN .                     900:  Run Number 
 ROPA.m/hr               19.00:  ROP Avg 
 ROPN.m/hr               11.00:  ROP Min 
 ROPX.m/hr               36.00:  ROP Max 
 RPMA.rpm               120.00:  RPM Surface Avg 
 RPMN.rpm               120.00:  RPM Surface Min 
 RPMX.rpm               120.00:  RPM Surface Max 
 RRUN.                    L604:  Rig Run Number 
 RTIM.hr                  7.00:  Time Reaming 
 SAZI.deg               109.27:  Azm, Start 
 SDEP.m                4761.01:  Start Depth 
 SIDD.                      No:  Serv Intrp, DD 
 SINC.deg                75.38:  Inc, Start 
 SPPA.psig             3574.00:  SPP Avg 
 SPPN.psig             3475.00:  SPP Min 
 SPPX.psig             3791.00:  SPP Max 
 STIM.      07.08.48 13-May-20:  Start Time 
 SVCS.                 DD, MWD:  Services 
 SVER.                    9.20:  Sperry Version 
 TDAT.m                 363.00:  Tot Depth Attmp 
 TDDF.                      No:  Trip for DD 
 TDLG.m                 363.00:  Tot Depth Loggd 
 TFF .                      No:  Trip for Fail 
 TQAA.f-kp               20.00:  Torque Abs Avg 
 TQAN.f-kp               18.00:  Torque Abs Min 
 TQAX.f-kp               22.00:  Torque Abs Max 
 TRRT.°/30m              -0.35:  Turn Rotating 
 MRT .                    HCIM:  Maximum Recorded Temperature 
 TTMX.degC               92.16:  Max Tool Temp 
 VS01.                90586518:  Virtual Str1 SN 
 VS02.        AZ90560654Z1W1C6:  Virtual Str2 SN 
 VS03.           AZ90610398F11:  Virtual Str3 SN 
 VS04.                90514975:  Virtual Str4 SN 
 VS05.                90514972:  Virtual Str5 SN 
 VS06.     AZ90603282F11V7D1A6:  Virtual Str6 SN 
 WBMN.klb                 7.00:  WOB Min 
 WOBA.klb                12.00:  WOB Avg 
 WOBX.klb                14.00:  WOB Max 
 YP  .lhf2               32.00:  Yield Point 
~Curve Information Block
#MNEM.UNIT                 API CODE     Curve Description
#---------               -----------    ---------------------------
 TIME.HHMMSS            00 000 000 000:  GT Time & Date
 GTDEPTH.m              00 000 000 000:  GT Depth
 GTPQH.psia             00 000 000 000:  GT HR Quartz Pressure
 GTTQ.degC              00 000 000 000:  GT Quartz Temperature
 GTTN.NONE              00 000 000 000:  GT Test Number
 GTET.sec               00 000 000 000:  GT Elapsed Test Time
 GTTVD.m                00 000 000 000:  GT True Vertical Depth
#Other Information
#
#WARRANTY: Halliburton will use its best efforts to furnish customers with 
#accurate information and interpretations that are part of, and incident to, the services 
#provided.  However, Halliburton cannot and does not warrant the accuracy 
#or correctness of such information and interpretations.  Under no circumstances should any 
#such information or interpretation be relied upon as the sole basis for any drilling, 
#completion, production, or financial decision or any procedure involving any risk to the 
#safety of any drilling venture, drilling rig or its crew or any other third party.  The 
#Customer has full responsibility for all drilling, completion and production operation.  
#Halliburton makes no representations or warranties, either expressed or 
#implied, including, but not limited to, the implied warranties of merchantability or fitness 
#for a particular purpose, with respect to the services rendered.  In no event will 
#Halliburton be liable for failure to obtain any particular results or for 
#any damages, including, but not limited to, indirect, special or consequential damages, 
#resulting from the use of any information or interpretation provided by Halliburton.
#
~A           TIME           GTDEPTH  GTPQH  GTTQ  GTTN  GTET   GTTVD  
# ...
   14:41:02.000.17-May-2020 5087.01 2767.20 72.33 1.00 138.00 2615.39
   14:41:02.200.17-May-2020 5087.01 2767.20 72.33 1.00 138.20 2615.39
   14:41:02.400.17-May-2020 5087.01 2767.50 72.33 1.00 138.40 2615.39
   14:41:02.600.17-May-2020 5087.01 2767.37 72.33 1.00 138.60 2615.39
   14:41:02.800.17-May-2020 5087.01 2767.12 72.33 1.00 138.80 2615.39
   14:41:03.000.17-May-2020 5087.01 2768.29 72.33 1.00 139.00 2615.39
   14:41:03.200.17-May-2020 5087.01 2768.29 72.33 1.00 139.20 2615.39
   14:41:03.400.17-May-2020 5087.01 2767.26 72.33 1.00 139.40 2615.39
   14:41:03.600.17-May-2020 5087.01 2767.54 72.33 1.00 139.60 2615.39
   14:41:03.800.17-May-2020 5087.01 2768.01 72.33 1.00 139.80 2615.39
   14:41:04.000.17-May-2020 5087.01 2767.64 72.33 1.00 140.00 2615.39
   14:41:04.200.17-May-2020 5087.01 2767.64 72.32 1.00 140.20 2615.39
   14:41:04.400.17-May-2020 5087.01 2767.43 72.32 1.00 140.40 2615.39
   14:41:04.600.17-May-2020 5087.01 2767.62 72.32 1.00 140.60 2615.39
   14:41:04.800.17-May-2020 5087.01 2767.98 72.32 1.00 140.80 2615.39
   14:41:05.000.17-May-2020 5087.01 2767.20 72.32 1.00 141.00 2615.39
   14:41:05.200.17-May-2020 5087.01 2767.20 72.32 1.00 141.20 2615.39
   14:41:05.400.17-May-2020 5087.01 2767.25 72.32 1.00 141.40 2615.39
   14:41:05.600.17-May-2020 5087.01 2768.35 72.32 1.00 141.60 2615.39
   14:41:05.800.17-May-2020 5087.01 2767.28 72.32 1.00 141.80 2615.39
   14:41:06.000.17-May-2020 5087.01 2767.32 72.32 1.00 142.00 2615.39
   14:41:06.200.17-May-2020 5087.01 2767.32 72.32 1.00 142.20 2615.39
   14:41:06.400.17-May-2020 5087.01 2768.23 72.32 1.00 142.40 2615.39
   14:41:06.600.17-May-2020 5087.01 2668.85 72.32 1.00 142.60 2615.39
   14:41:06.800.17-May-2020 5087.01 2609.37 72.32 1.00 142.80 2615.39
   14:41:07.000.17-May-2020 5087.01 2616.27 72.32 1.00 143.00 2615.39
   14:41:07.200.17-May-2020 5087.01 2625.87 72.32 1.00 143.20 2615.39
   14:41:07.400.17-May-2020 5087.01 2621.50 72.32 1.00 143.40 2615.39
   14:41:07.600.17-May-2020 5087.01 2629.23 72.32 1.00 143.60 2615.39
   14:41:07.800.17-May-2020 5087.01 2652.26 72.32 1.00 143.80 2615.39
   14:41:08.000.17-May-2020 5087.01 2668.54 72.32 1.00 144.00 2615.39
   14:41:08.200.17-May-2020 5087.01 2654.50 72.32 1.00 144.20 2615.39
   14:41:08.400.17-May-2020 5087.01 2649.05 72.32 1.00 144.40 2615.39
   14:41:08.600.17-May-2020 5087.01 2639.52 72.32 1.00 144.60 2615.39
   14:41:08.800.17-May-2020 5087.01 2646.42 72.32 1.00 144.80 2615.39
   14:41:09.000.17-May-2020 5087.01 2644.36 72.32 1.00 145.00 2615.39
   14:41:09.200.17-May-2020 5087.01 2633.40 72.32 1.00 145.20 2615.39
   14:41:09.400.17-May-2020 5087.01 2629.14 72.32 1.00 145.40 2615.39
   14:41:09.600.17-May-2020 5087.01 2628.14 72.32 1.00 145.60 2615.39
   14:41:09.800.17-May-2020 5087.01 2628.30 72.32 1.00 145.80 2615.39
   14:41:10.000.17-May-2020 5087.01 2640.93 72.32 1.00 146.00 2615.39
   14:41:10.200.17-May-2020 5087.01 2640.93 72.32 1.00 146.20 2615.39
   14:41:10.400.17-May-2020 5087.01 2646.61 72.32 1.00 146.40 2615.39
   14:41:10.600.17-May-2020 5087.01 2645.45 72.32 1.00 146.60 2615.39
   14:41:10.800.17-May-2020 5087.01 2639.54 72.32 1.00 146.80 2615.39
   14:41:11.000.17-May-2020 5087.01 2642.92 72.32 1.00 147.00 2615.39
   14:41:11.200.17-May-2020 5087.01 2642.92 72.32 1.00 147.20 2615.39
   14:41:11.400.17-May-2020 5087.01 2654.44 72.32 1.00 147.40 2615.39
   14:41:11.600.17-May-2020 5087.01 2637.25 72.32 1.00 147.60 2615.39
   14:41:11.800.17-May-2020 5087.01 2630.95 72.32 1.00 147.80 2615.39
   14:41:12.000.17-May-2020 5087.01 2628.04 72.32 1.00 148.00 2615.39
   14:41:12.200.17-May-2020 5087.01 2630.04 72.32 1.00 148.20 2615.39
   14:41:12.400.17-May-2020 5087.01 2626.20 72.32 1.00 148.40 2615.39
   14:41:12.600.17-May-2020 5087.01 2626.51 72.32 1.00 148.60 2615.39
   14:41:12.800.17-May-2020 5087.01 2627.08 72.32 1.00 148.80 2615.39
   14:41:13.000.17-May-2020 5087.01 2628.24 72.32 1.00 149.00 2615.39
   14:41:13.200.17-May-2020 5087.01 2627.70 72.32 1.00 149.20 2615.39
   14:41:13.400.17-May-2020 5087.01 2626.46 72.32 1.00 149.40 2615.39
   14:41:13.600.17-May-2020 5087.01 2625.78 72.32 1.00 149.60 2615.39
   14:41:13.800.17-May-2020 5087.01 2623.04 72.32 1.00 149.80 2615.39
   14:41:14.000.17-May-2020 5087.01 2627.88 72.32 1.00 150.00 2615.39
   14:41:14.200.17-May-2020 5087.01 2627.88 72.32 1.00 150.20 2615.39
   14:41:14.400.17-May-2020 5087.01 2626.81 72.31 1.00 150.40 2615.39
   14:41:14.600.17-May-2020 5087.01 2623.97 72.31 1.00 150.60 2615.39
   14:41:14.800.17-May-2020 5087.01 2625.80 72.31 1.00 150.80 2615.39
   14:41:15.000.17-May-2020 5087.01 2625.18 72.31 1.00 151.00 2615.39
   14:41:15.200.17-May-2020 5087.01 2625.18 72.31 1.00 151.20 2615.39
   14:41:15.400.17-May-2020 5087.01 2623.57 72.31 1.00 151.40 2615.39
   14:41:15.600.17-May-2020 5087.01 2623.75 72.31 1.00 151.60 2615.39
   14:41:15.800.17-May-2020 5087.01 2620.20 72.31 1.00 151.80 2615.39
   14:41:16.000.17-May-2020 5087.01 2622.01 72.31 1.00 152.00 2615.39
   14:41:16.200.17-May-2020 5087.01 2622.52 72.31 1.00 152.20 2615.39
   14:41:16.400.17-May-2020 5087.01 2623.87 72.31 1.00 152.40 2615.39
   14:41:16.600.17-May-2020 5087.01 2656.55 72.31 1.00 152.60 2615.39
   14:41:16.800.17-May-2020 5087.01 2745.72 72.31 1.00 152.80 2615.39
   14:41:17.000.17-May-2020 5087.01 2758.85 72.31 1.00 153.00 2615.39
   14:41:17.200.17-May-2020 5087.01 2758.85 72.31 1.00 153.20 2615.39
   14:41:17.400.17-May-2020 5087.01 2761.89 72.31 1.00 153.40 2615.39
   14:41:17.600.17-May-2020 5087.01 2762.77 72.31 1.00 153.60 2615.39
   14:41:17.800.17-May-2020 5087.01 2763.79 72.31 1.00 153.80 2615.39
   14:41:18.000.17-May-2020 5087.01 2764.91 72.31 1.00 154.00 2615.39
   14:41:18.200.17-May-2020 5087.01 2764.91 72.31 1.00 154.20 2615.39
   14:41:18.400.17-May-2020 5087.01 2764.21 72.31 1.00 154.40 2615.39
   14:41:18.600.17-May-2020 5087.01 2766.00 72.31 1.00 154.60 2615.39
   14:41:18.800.17-May-2020 5087.01 2764.91 72.31 1.00 154.80 2615.39
   14:41:19.000.17-May-2020 5087.01 2764.86 72.31 1.00 155.00 2615.39
   14:41:19.200.17-May-2020 5087.01 2764.86 72.31 1.00 155.20 2615.39
   14:41:19.400.17-May-2020 5087.01 2765.47 72.31 1.00 155.40 2615.39
   14:41:19.600.17-May-2020 5087.01 2765.31 72.31 1.00 155.60 2615.39
   14:41:19.800.17-May-2020 5087.01 2765.59 72.31 1.00 155.80 2615.39
   14:41:20.000.17-May-2020 5087.01 2765.69 72.31 1.00 156.00 2615.39
   14:41:20.200.17-May-2020 5087.01 2765.69 72.31 1.00 156.20 2615.39
   14:41:20.400.17-May-2020 5087.01 2765.70 72.31 1.00 156.40 2615.39
   14:41:20.600.17-May-2020 5087.01 2766.30 72.31 1.00 156.60 2615.39
   14:41:20.800.17-May-2020 5087.01 2766.67 72.31 1.00 156.80 2615.39
   14:41:21.000.17-May-2020 5087.01 2765.90 72.31 1.00 157.00 2615.39
   14:41:21.200.17-May-2020 5087.01 2765.90 72.31 1.00 157.20 2615.39
   14:41:21.400.17-May-2020 5087.01 2766.41 72.31 1.00 157.40 2615.39
   14:41:21.600.17-May-2020 5087.01 2766.22 72.31 1.00 157.60 2615.39
   14:41:21.800.17-May-2020 5087.01 2766.13 72.31 1.00 157.80 2615.39
   14:41:22.000.17-May-2020 5087.01 2766.31 72.31 1.00 158.00 2615.39
   14:41:22.200.17-May-2020 5087.01 2766.31 72.31 1.00 158.20 2615.39
   14:41:22.400.17-May-2020 5087.01 2766.27 72.31 1.00 158.40 2615.39
   14:41:22.600.17-May-2020 5087.01 2766.43 72.31 1.00 158.60 2615.39
   14:41:22.800.17-May-2020 5087.01 2767.27 72.31 1.00 158.80 2615.39
   14:41:23.000.17-May-2020 5087.01 2766.30 72.31 1.00 159.00 2615.39
   14:41:23.200.17-May-2020 5087.01 2766.30 72.31 1.00 159.20 2615.39
   14:41:23.400.17-May-2020 5087.01 2767.70 72.31 1.00 159.40 2615.39
   14:41:23.600.17-May-2020 5087.01 2766.66 72.31 1.00 159.60 2615.39
   14:41:23.800.17-May-2020 5087.01 2766.36 72.31 1.00 159.80 2615.39
   14:41:24.000.17-May-2020 5087.01 2766.73 72.31 1.00 160.00 2615.39
   14:41:24.200.17-May-2020 5087.01 2766.73 72.31 1.00 160.20 2615.39
   14:41:24.400.17-May-2020 5087.01 2766.45 72.31 1.00 160.40 2615.39
   14:41:24.600.17-May-2020 5087.01 2766.51 72.31 1.00 160.60 2615.39
   14:41:24.800.17-May-2020 5087.01 2766.64 72.31 1.00 160.80 2615.39
