~Version Information
 VERS.                  2.0:   CWLS log ASCII Standard -VERSION 2.0
 WRAP.                   NO:   One line per depth step
~Well Information Block
#MNEM.UNIT     VALUE/NAME     DESCRIPTION
#---------     -----------    ---------------------------
 STRT.S             22:49:31 17-May-20: START TIME 22:49:31 17-May-20
 STOP.S             22:56:24 17-May-20: STOP TIME  22:56:24 17-May-20
 STEP.S                   0.00: STEP TIME
 NULL.                 -999.25: NULL VALUE
 UNIT.                     N/A:  LOGGING EQUIPMENT ID
 DCON.         Sperry Drilling:  DIRECTNL CONTR
 DOE .                     N/A:  DOE NUMBER
 JOBN.        AZ-XX-0906252240:  JOB TICKET NUMB
 MWDS.                     N/A:  MWD SHOP
 PROV.                    Baku:  PROVINCE
 STAT.                    Baku:  STATE NAME
 REGN.                   EESSA:  REGION
 BASE.              Azerbaijan:  LOGGING EQUIPMENT BASE LOCATION
 UWI .                     N/A:  UNIQUE WELL IDENTIFIER
 API .                     N/A:  API NUMBER
 MDS .        Operator Entered:  MAG DATA SOURCE
 WTYP.                Deviated:  WELL TYPE
 COMP.     BP Exploration (Caspian Sea) Ltd.:  COMPANY
 SRVC.          Turan Drilling:  CONTRACTOR
 WELL.           J23 (Slot 07):  WELL NAME
 CTRY.              Azerbaijan:  COUNTRY NAME
 FLD .                     ACG:  FIELD NAME
 PDAT.          Mean Sea Level:  PERMANENT DATUM
 RIG .             West Chirag:  RIG NAME
 SON .        AZ-XX-0906252240:  JOB NUMBER
 FTOP.          Formation Tops:  FORM TOPS DESC
 ILTD.               Lithology:  INTERP LTH DESC
 SVYD.                  Survey:  SURVEY DESC
 DMOD.             Drill Model:  DRILL MOD DESC
 HPTY.       Minimum Curvature:  HOLE POS TYPE
 NREF.                    Grid:  NORTH REFERENCE
 SPUD.               27-Aug-20:  SPUD DATE
 DATE.      00.00.00 19-May-20:  END TIME
 STIM.      03.00.00 25-Mar-20:  START TIME
 DMF .             Drill Floor:  DRILL MEAS FROM
 DFST.                        :  DIST FSL TEXT
 DFWT.                        :  DIST FWL TEXT
 CNTY.                        :  COUNTY
 LOC .                        :  LOCATION
 LMF .             Drill Floor:  LOG MEASURED FROM
 VSNS.m                   9.43:  VERT SEC N/S
 VSEW.m                  -8.91:  VERT SEC E/W
 AGAP.m                  43.00:  AIR GAP
 DEP .m                 354.17:  DEPTH
 APD .m                  43.00:  DEPTH ABOVE PD
 WDMS.m                 169.80:  WD ELEV
 EGL .m                   0.00:  GROUND ELEVATION
 EPD .m                   0.00:  ELEVATION
 AZTC.deg                 6.31:  AZM TOTAL CORR
 GRDC.deg                 0.14:  GRID CORRECTION
 MDEC.deg                 6.45:  MAGNETIC DECL
 MDIP.deg                59.56:  MAGNETIC DIP
 MFLD.nT              50295.00:  MAGNETIC FIELD
 GVFD.g                   1.00:  GRAVITY FIELD
 VSDR.deg               179.88:  VERT SEC DIRECT
 TDD .m                5150.01:  TOTAL DEPTH (DRILLER)
 SDEP.m                 864.00:  START DEPTH
 DFSL.m                   0.00:  DISTANCE FSL
 DFWL.m                   0.00:  DISTANCE FWL
 UTMY.m             4443793.85:  UTM Y
 UTMX.m              519005.06:  UTM X
 WHEW.m                  -8.91:  WELL HEAD E/W
 WHNS.m                   9.43:  WELL HEAD N/S
 LONG.deg                51.22:  LONGITUDE
 LATI.deg                40.13:  LATITUDE
 TVDS.m                  43.00:  TVDSS CORRECTN
 EKB .m                   0.00:  KB ELEVATION
 EDF .m                  43.00:  DF ELEVATION
 TDL .m                 363.00:  TOTAL DEPTH (LOGGER)
 MAGU.                 1850802:  MAGUTM CHECKSUM
 VSC .                       0:  VS TO CLOSURE
~Parameter Information Block
#MNEM.UNIT       Value        Description
#---------     -----------    ---------------------------
 AV  .mps                 2.30:  Ann Velocity 
 AVMX.mps                 4.40:  Max Ann Veloc 
 AZIF.deg               110.24:  Azm, Final 
 BHAT.        Rotary Steerable:  BHA Type 
 BREV.rev               331.00:  Rev Bit Total 
 BROT.°/30m               0.00:  Build Rotating 
 BS  .in                  8.50:  Bit Size 
 BSZ .in                  8.50:  Bit Size 
 BTPL.psig              585.00:  Bit Press Loss 
 CABU.                     Yes:  Customer Abuse 
 COMM.                     ¼´€:  Run Comments 1 
 TCS .hr                122.75:  Time Ciculation Ended 
 CV  .mps                 2.67:  Crit Velocity 
 CVMX.mps                 3.56:  Max Crit Veloc 
 DD1 .          Rashad Habibov:  Direct Drillr 1 
 DD2 .         Rasim Ibrahimov:  Direct Drillr 2 
 DDSV.               Geo-Pilot:  DD Service 
 DEFF.%                  98.00:  % Det Eff 
 DLRX.°/30m               0.75:  Dogleg Rot Max 
 DLSO.°/30m               1.25:  Dogleg Oriented 
 DLSX.°/30m               2.06:  Dogleg Str Max 
 DRET.      07.45.00 17-May-20:  Drill End Time 
 DRST.      22.50.00 15-May-20:  Drill Start Tim 
 DTIM.hr                 20.75:  Time Drilling 
 EDEP.m                5124.01:  End Depth 
 ENG1.           Eldar Hajiyev:  Engineer 1 
 ENG2.        Marcelo Sandoval:  Engineer 2 
 ENG3.        Davud huseynzada:  Engineer 3 
 ENG4.          Ruslan Safarov:  Engineer 4 
 ETIM.      04.33.00 23-May-20:  End Time 
 FLOI.gpm               450.00:  Flow In 
 FLON.gpm               400.00:  Flow In Min 
 FLOS.cptm                0.00:  Fluid Loss 
 FLOX.gpm               500.00:  Flow In Max 
 FTRO.       Formation Presure:  FTWD Run Obj 
 HFLO.                      No:  High Flow 
 HPRE.                     Yes:  High Pressure 
 HTEM.                      No:  High Temp 
 HYDO.m                   1.80:  Hydro Offset 
 IFIN.deg                75.06:  Inc, Final 
 IMAX.deg                75.38:  Inc Max 
 IMIN.deg                74.69:  Inc Min 
 IMND.m                5027.38:  Inc Min Depth 
 IMXD.m                4771.61:  Inc Max Depth 
 JARR.                      No:  Jarring 
 LETM.      07.45.00 17-May-20:  Log End Time 
 LOST.hr                     0:  Lost Rig Time 
 LSTM.      22.50.00 15-May-20:  Log Start Time 
 MDCL.ppm             42000.00:  Mud Chlorides 
 MDES.     Inversion Oil/Synthetic:  Mud Desc 
 DFD .sg                  1.34:  Mud Density 
 MDMN.sg                  1.34:  Dens Mud Min 
 MDMX.sg                  1.34:  Dens Mud Max 
 MOIL.                       0:  Run Mud Oil % 
 MOWR.                   67:33:  Run Mud OWR 
 MSND.                       0:  Run Mud Sand % 
 MSOL.                     1.8:  Run Mud Solids% 
 DFV .spqt               76.00:  Mud Viscosity 
 MWOD.in                  6.75:  MWD Tool OD 
 MWSI.                      No:  Serv Intrp, MWD 
 OTIM.hr                228.19:  Time Operating 
 PCON.           Look Like New:  Pad Condition 
 PMAX.psia             6164.70:  Press Op, Max 
 PV  .cP                 28.00:  Mud PV 
 RUN .                     900:  Run Number 
 ROPA.m/hr               19.00:  ROP Avg 
 ROPN.m/hr               11.00:  ROP Min 
 ROPX.m/hr               36.00:  ROP Max 
 RPMA.rpm               120.00:  RPM Surface Avg 
 RPMN.rpm               120.00:  RPM Surface Min 
 RPMX.rpm               120.00:  RPM Surface Max 
 RRUN.                    L604:  Rig Run Number 
 RTIM.hr                  7.00:  Time Reaming 
 SAZI.deg               109.27:  Azm, Start 
 SDEP.m                4761.01:  Start Depth 
 SIDD.                      No:  Serv Intrp, DD 
 SINC.deg                75.38:  Inc, Start 
 SPPA.psig             3574.00:  SPP Avg 
 SPPN.psig             3475.00:  SPP Min 
 SPPX.psig             3791.00:  SPP Max 
 STIM.      07.08.48 13-May-20:  Start Time 
 SVCS.                 DD, MWD:  Services 
 SVER.                    9.20:  Sperry Version 
 TDAT.m                 363.00:  Tot Depth Attmp 
 TDDF.                      No:  Trip for DD 
 TDLG.m                 363.00:  Tot Depth Loggd 
 TFF .                      No:  Trip for Fail 
 TQAA.f-kp               20.00:  Torque Abs Avg 
 TQAN.f-kp               18.00:  Torque Abs Min 
 TQAX.f-kp               22.00:  Torque Abs Max 
 TRRT.°/30m              -0.35:  Turn Rotating 
 MRT .                    HCIM:  Maximum Recorded Temperature 
 TTMX.degC               92.16:  Max Tool Temp 
 VS01.                90586518:  Virtual Str1 SN 
 VS02.        AZ90560654Z1W1C6:  Virtual Str2 SN 
 VS03.           AZ90610398F11:  Virtual Str3 SN 
 VS04.                90514975:  Virtual Str4 SN 
 VS05.                90514972:  Virtual Str5 SN 
 VS06.     AZ90603282F11V7D1A6:  Virtual Str6 SN 
 WBMN.klb                 7.00:  WOB Min 
 WOBA.klb                12.00:  WOB Avg 
 WOBX.klb                14.00:  WOB Max 
 YP  .lhf2               32.00:  Yield Point 
~Curve Information Block
#MNEM.UNIT                 API CODE     Curve Description
#---------               -----------    ---------------------------
 TIME.HHMMSS            00 000 000 000:  GT Time & Date
 GTDEPTH.m              00 000 000 000:  GT Depth
 GTPQH.psia             00 000 000 000:  GT HR Quartz Pressure
 GTTQ.degC              00 000 000 000:  GT Quartz Temperature
 GTTN.NONE              00 000 000 000:  GT Test Number
 GTET.sec               00 000 000 000:  GT Elapsed Test Time
 GTTVD.m                00 000 000 000:  GT True Vertical Depth
#Other Information
#
#WARRANTY: Halliburton will use its best efforts to furnish customers with 
#accurate information and interpretations that are part of, and incident to, the services 
#provided.  However, Halliburton cannot and does not warrant the accuracy 
#or correctness of such information and interpretations.  Under no circumstances should any 
#such information or interpretation be relied upon as the sole basis for any drilling, 
#completion, production, or financial decision or any procedure involving any risk to the 
#safety of any drilling venture, drilling rig or its crew or any other third party.  The 
#Customer has full responsibility for all drilling, completion and production operation.  
#Halliburton makes no representations or warranties, either expressed or 
#implied, including, but not limited to, the implied warranties of merchantability or fitness 
#for a particular purpose, with respect to the services rendered.  In no event will 
#Halliburton be liable for failure to obtain any particular results or for 
#any damages, including, but not limited to, indirect, special or consequential damages, 
#resulting from the use of any information or interpretation provided by Halliburton.
#
~A           TIME           GTDEPTH  GTPQH  GTTQ  GTTN  GTET   GTTVD  
# ...
   22:56:02.326.17-May-2020 4908.51 5525.20 67.27 8.00 390.80 2569.17
   22:56:02.526.17-May-2020 4908.51 5525.20 67.27 8.00 391.00 2569.17
   22:56:02.726.17-May-2020 4908.51 5525.39 67.27 8.00 391.20 2569.17
   22:56:02.926.17-May-2020 4908.51 5526.93 67.27 8.00 391.40 2569.17
   22:56:03.126.17-May-2020 4908.51 5524.54 67.27 8.00 391.60 2569.17
   22:56:03.326.17-May-2020 4908.51 5540.46 67.27 8.00 391.80 2569.17
   22:56:03.525.17-May-2020 4908.51 5517.51 67.27 8.00 392.00 2569.17
   22:56:03.725.17-May-2020 4908.51 5536.96 67.27 8.00 392.20 2569.17
   22:56:03.925.17-May-2020 4908.51 5523.62 67.26 8.00 392.40 2569.17
   22:56:04.125.17-May-2020 4908.51 5530.33 67.26 8.00 392.60 2569.17
   22:56:04.325.17-May-2020 4908.51 5523.37 67.26 8.00 392.80 2569.17
   22:56:04.525.17-May-2020 4908.51 5523.37 67.26 8.00 393.00 2569.17
   22:56:04.725.17-May-2020 4908.51 5524.15 67.26 8.00 393.20 2569.17
   22:56:04.925.17-May-2020 4908.51 5525.37 67.26 8.00 393.40 2569.17
   22:56:05.125.17-May-2020 4908.51 5523.75 67.26 8.00 393.60 2569.17
   22:56:05.325.17-May-2020 4908.51 5524.03 67.26 8.00 393.80 2569.17
   22:56:05.524.17-May-2020 4908.51 5524.03 67.26 8.00 394.00 2569.17
   22:56:05.724.17-May-2020 4908.51 5518.53 67.26 8.00 394.20 2569.17
   22:56:05.924.17-May-2020 4908.51 5532.08 67.26 8.00 394.40 2569.17
   22:56:06.124.17-May-2020 4908.51 5525.91 67.26 8.00 394.60 2569.17
   22:56:06.324.17-May-2020 4908.51 5532.19 67.26 8.00 394.80 2569.17
   22:56:06.524.17-May-2020 4908.51 5532.19 67.26 8.00 395.00 2569.17
   22:56:06.724.17-May-2020 4908.51 5525.30 67.26 8.00 395.20 2569.17
   22:56:06.924.17-May-2020 4908.51 5534.78 67.26 8.00 395.40 2569.17
   22:56:07.124.17-May-2020 4908.51 5532.57 67.26 8.00 395.60 2569.17
   22:56:07.323.17-May-2020 4908.51 5531.22 67.26 8.00 395.80 2569.17
   22:56:07.523.17-May-2020 4908.51 5525.87 67.26 8.00 396.00 2569.17
   22:56:07.723.17-May-2020 4908.51 5535.88 67.26 8.00 396.20 2569.17
   22:56:07.923.17-May-2020 4908.51 5526.46 67.26 8.00 396.40 2569.17
   22:56:08.123.17-May-2020 4908.51 5540.91 67.26 8.00 396.60 2569.17
   22:56:08.323.17-May-2020 4908.51 5522.49 67.26 8.00 396.80 2569.17
   22:56:08.523.17-May-2020 4908.51 5539.23 67.26 8.00 397.00 2569.17
   22:56:08.723.17-May-2020 4908.51 5523.95 67.26 8.00 397.20 2569.17
   22:56:08.923.17-May-2020 4908.51 5531.89 67.25 8.00 397.40 2569.17
   22:56:09.123.17-May-2020 4908.51 5523.93 67.25 8.00 397.60 2569.17
   22:56:09.322.17-May-2020 4908.51 5527.98 67.25 8.00 397.80 2569.17
   22:56:09.522.17-May-2020 4908.51 5527.98 67.25 8.00 398.00 2569.17
   22:56:09.722.17-May-2020 4908.51 5526.62 67.25 8.00 398.20 2569.17
   22:56:09.922.17-May-2020 4908.51 5524.73 67.25 8.00 398.40 2569.17
   22:56:10.122.17-May-2020 4908.51 5538.01 67.25 8.00 398.60 2569.17
   22:56:10.322.17-May-2020 4908.51 5519.58 67.25 8.00 398.80 2569.17
   22:56:10.522.17-May-2020 4908.51 5519.58 67.25 8.00 399.00 2569.17
   22:56:10.722.17-May-2020 4908.51 5522.16 67.25 8.00 399.20 2569.17
   22:56:10.922.17-May-2020 4908.51 5529.60 67.25 8.00 399.40 2569.17
   22:56:11.122.17-May-2020 4908.51 5522.46 67.25 8.00 399.59 2569.17
   22:56:11.321.17-May-2020 4908.51 5526.54 67.25 8.00 399.79 2569.17
   22:56:11.521.17-May-2020 4908.51 5523.31 67.25 8.00 399.99 2569.17
   22:56:11.721.17-May-2020 4908.51 5525.09 67.25 8.00 400.19 2569.17
   22:56:11.921.17-May-2020 4908.51 5523.69 67.25 8.00 400.39 2569.17
   22:56:12.121.17-May-2020 4908.51 5523.50 67.25 8.00 400.59 2569.17
   22:56:12.321.17-May-2020 4908.51 5539.72 67.25 8.00 400.79 2569.17
   22:56:12.521.17-May-2020 4908.51 5539.72 67.25 8.00 400.99 2569.17
   22:56:12.721.17-May-2020 4908.51 5533.02 67.25 8.00 401.19 2569.17
   22:56:12.921.17-May-2020 4908.51 5524.45 67.25 8.00 401.39 2569.17
   22:56:13.121.17-May-2020 4908.51 5536.43 67.25 8.00 401.59 2569.17
   22:56:13.320.17-May-2020 4908.51 5525.85 67.25 8.00 401.79 2569.17
   22:56:13.520.17-May-2020 4908.51 5525.85 67.25 8.00 401.99 2569.17
   22:56:13.720.17-May-2020 4908.51 5532.19 67.25 8.00 402.19 2569.17
   22:56:13.920.17-May-2020 4908.51 5531.02 67.25 8.00 402.39 2569.17
   22:56:14.120.17-May-2020 4908.51 5532.23 67.24 8.00 402.59 2569.17
   22:56:14.320.17-May-2020 4908.51 5524.53 67.24 8.00 402.79 2569.17
   22:56:14.520.17-May-2020 4908.51 5524.53 67.24 8.00 402.99 2569.17
   22:56:14.720.17-May-2020 4908.51 5524.38 67.24 8.00 403.19 2569.17
   22:56:14.920.17-May-2020 4908.51 5545.79 67.24 8.00 403.39 2569.17
   22:56:15.119.17-May-2020 4908.51 5517.53 67.24 8.00 403.59 2569.17
   22:56:15.319.17-May-2020 4908.51 5537.20 67.24 8.00 403.79 2569.17
   22:56:15.519.17-May-2020 4908.51 5537.20 67.24 8.00 403.99 2569.17
   22:56:15.719.17-May-2020 4908.51 5531.32 67.24 8.00 404.19 2569.17
   22:56:15.919.17-May-2020 4908.51 5523.84 67.24 8.00 404.39 2569.17
   22:56:16.119.17-May-2020 4908.51 5527.89 67.24 8.00 404.59 2569.17
   22:56:16.319.17-May-2020 4908.51 5524.71 67.24 8.00 404.79 2569.17
   22:56:16.519.17-May-2020 4908.51 5525.92 67.24 8.00 404.99 2569.17
   22:56:16.719.17-May-2020 4908.51 5524.92 67.24 8.00 405.19 2569.17
   22:56:16.919.17-May-2020 4908.51 5538.46 67.24 8.00 405.39 2569.17
   22:56:17.118.17-May-2020 4908.51 5519.03 67.24 8.00 405.59 2569.17
   22:56:17.318.17-May-2020 4908.51 5531.35 67.24 8.00 405.79 2569.17
   22:56:17.518.17-May-2020 4908.51 5531.35 67.24 8.00 405.99 2569.17
   22:56:17.718.17-May-2020 4908.51 5527.26 67.24 8.00 406.19 2569.17
   22:56:17.918.17-May-2020 4908.51 5525.00 67.24 8.00 406.39 2569.17
   22:56:18.118.17-May-2020 4908.51 5525.68 67.24 8.00 406.59 2569.17
   22:56:18.318.17-May-2020 4908.51 5524.33 67.24 8.00 406.79 2569.17
   22:56:18.518.17-May-2020 4908.51 5524.33 67.24 8.00 406.99 2569.17
   22:56:18.718.17-May-2020 4908.51 5524.48 67.24 8.00 407.19 2569.17
   22:56:18.918.17-May-2020 4908.51 5523.48 67.24 8.00 407.39 2569.17
   22:56:19.117.17-May-2020 4908.51 5531.68 67.24 8.00 407.59 2569.17
   22:56:19.317.17-May-2020 4908.51 5526.17 67.24 8.00 407.79 2569.17
   22:56:19.517.17-May-2020 4908.51 5526.17 67.24 8.00 407.99 2569.17
   22:56:19.717.17-May-2020 4908.51 5532.86 67.24 8.00 408.19 2569.17
   22:56:19.917.17-May-2020 4908.51 5524.27 67.24 8.00 408.39 2569.17
   22:56:20.117.17-May-2020 4908.51 5540.51 67.24 8.00 408.59 2569.17
   22:56:20.317.17-May-2020 4908.51 5520.17 67.24 8.00 408.79 2569.17
   22:56:20.517.17-May-2020 4908.51 5537.11 67.23 8.00 408.99 2569.17
   22:56:20.717.17-May-2020 4908.51 5526.61 67.23 8.00 409.19 2569.17
   22:56:20.917.17-May-2020 4908.51 5538.14 67.23 8.00 409.39 2569.17
   22:56:21.116.17-May-2020 4908.51 5521.23 67.23 8.00 409.59 2569.17
   22:56:21.316.17-May-2020 4908.51 5538.35 67.23 8.00 409.79 2569.17
   22:56:21.516.17-May-2020 4908.51 5538.35 67.23 8.00 409.99 2569.17
   22:56:21.716.17-May-2020 4908.51 5532.22 67.23 8.00 410.19 2569.17
   22:56:21.916.17-May-2020 4908.51 5534.39 67.23 8.00 410.39 2569.17
   22:56:22.116.17-May-2020 4908.51 5524.52 67.23 8.00 410.59 2569.17
   22:56:22.316.17-May-2020 4908.51 5535.46 67.23 8.00 410.79 2569.17
   22:56:22.516.17-May-2020 4908.51 5535.46 67.23 8.00 410.99 2569.17
   22:56:22.716.17-May-2020 4908.51 5529.44 67.23 8.00 411.19 2569.17
   22:56:22.915.17-May-2020 4908.51 5523.92 67.23 8.00 411.39 2569.17
   22:56:23.115.17-May-2020 4908.51 5526.60 67.23 8.00 411.59 2569.17
   22:56:23.315.17-May-2020 4908.51 5524.19 67.23 8.00 411.79 2569.17
   22:56:23.515.17-May-2020 4908.51 5525.63 67.23 8.00 411.99 2569.17
   22:56:23.715.17-May-2020 4908.51 5523.38 67.23 8.00 412.19 2569.17
   22:56:23.915.17-May-2020 4908.51 5538.03 67.23 8.00 412.39 2569.17
   22:56:24.115.17-May-2020 4908.51 5518.23 67.23 8.00 412.59 2569.17
