~Version Information
 VERS.                  2.0:   CWLS log ASCII Standard -VERSION 2.0
 WRAP.                   NO:   One line per depth step
~Well Information Block
#MNEM.UNIT     VALUE/NAME     DESCRIPTION
#---------     -----------    ---------------------------
 STRT.S             23:36:46 17-May-20: START TIME 23:36:46 17-May-20
 STOP.S             23:44:24 17-May-20: STOP TIME  23:44:24 17-May-20
 STEP.S                   0.00: STEP TIME
 NULL.                 -999.25: NULL VALUE
 UNIT.                     N/A:  LOGGING EQUIPMENT ID
 DCON.         Sperry Drilling:  DIRECTNL CONTR
 DOE .                     N/A:  DOE NUMBER
 JOBN.        AZ-XX-0906252240:  JOB TICKET NUMB
 MWDS.                     N/A:  MWD SHOP
 PROV.                    Baku:  PROVINCE
 STAT.                    Baku:  STATE NAME
 REGN.                   EESSA:  REGION
 BASE.              Azerbaijan:  LOGGING EQUIPMENT BASE LOCATION
 UWI .                     N/A:  UNIQUE WELL IDENTIFIER
 API .                     N/A:  API NUMBER
 MDS .        Operator Entered:  MAG DATA SOURCE
 WTYP.                Deviated:  WELL TYPE
 COMP.     BP Exploration (Caspian Sea) Ltd.:  COMPANY
 SRVC.          Turan Drilling:  CONTRACTOR
 WELL.           J23 (Slot 07):  WELL NAME
 CTRY.              Azerbaijan:  COUNTRY NAME
 FLD .                     ACG:  FIELD NAME
 PDAT.          Mean Sea Level:  PERMANENT DATUM
 RIG .             West Chirag:  RIG NAME
 SON .        AZ-XX-0906252240:  JOB NUMBER
 FTOP.          Formation Tops:  FORM TOPS DESC
 ILTD.               Lithology:  INTERP LTH DESC
 SVYD.                  Survey:  SURVEY DESC
 DMOD.             Drill Model:  DRILL MOD DESC
 HPTY.       Minimum Curvature:  HOLE POS TYPE
 NREF.                    Grid:  NORTH REFERENCE
 SPUD.               27-Aug-20:  SPUD DATE
 DATE.      00.00.00 19-May-20:  END TIME
 STIM.      03.00.00 25-Mar-20:  START TIME
 DMF .             Drill Floor:  DRILL MEAS FROM
 DFST.                        :  DIST FSL TEXT
 DFWT.                        :  DIST FWL TEXT
 CNTY.                        :  COUNTY
 LOC .                        :  LOCATION
 LMF .             Drill Floor:  LOG MEASURED FROM
 VSNS.m                   9.43:  VERT SEC N/S
 VSEW.m                  -8.91:  VERT SEC E/W
 AGAP.m                  43.00:  AIR GAP
 DEP .m                 354.17:  DEPTH
 APD .m                  43.00:  DEPTH ABOVE PD
 WDMS.m                 169.80:  WD ELEV
 EGL .m                   0.00:  GROUND ELEVATION
 EPD .m                   0.00:  ELEVATION
 AZTC.deg                 6.31:  AZM TOTAL CORR
 GRDC.deg                 0.14:  GRID CORRECTION
 MDEC.deg                 6.45:  MAGNETIC DECL
 MDIP.deg                59.56:  MAGNETIC DIP
 MFLD.nT              50295.00:  MAGNETIC FIELD
 GVFD.g                   1.00:  GRAVITY FIELD
 VSDR.deg               179.88:  VERT SEC DIRECT
 TDD .m                5150.01:  TOTAL DEPTH (DRILLER)
 SDEP.m                 864.00:  START DEPTH
 DFSL.m                   0.00:  DISTANCE FSL
 DFWL.m                   0.00:  DISTANCE FWL
 UTMY.m             4443793.85:  UTM Y
 UTMX.m              519005.06:  UTM X
 WHEW.m                  -8.91:  WELL HEAD E/W
 WHNS.m                   9.43:  WELL HEAD N/S
 LONG.deg                51.22:  LONGITUDE
 LATI.deg                40.13:  LATITUDE
 TVDS.m                  43.00:  TVDSS CORRECTN
 EKB .m                   0.00:  KB ELEVATION
 EDF .m                  43.00:  DF ELEVATION
 TDL .m                 363.00:  TOTAL DEPTH (LOGGER)
 MAGU.                 1850802:  MAGUTM CHECKSUM
 VSC .                       0:  VS TO CLOSURE
~Parameter Information Block
#MNEM.UNIT       Value        Description
#---------     -----------    ---------------------------
 AV  .mps                 2.30:  Ann Velocity 
 AVMX.mps                 4.40:  Max Ann Veloc 
 AZIF.deg               110.24:  Azm, Final 
 BHAT.        Rotary Steerable:  BHA Type 
 BREV.rev               331.00:  Rev Bit Total 
 BROT.°/30m               0.00:  Build Rotating 
 BS  .in                  8.50:  Bit Size 
 BSZ .in                  8.50:  Bit Size 
 BTPL.psig              585.00:  Bit Press Loss 
 CABU.                     Yes:  Customer Abuse 
 TCS .hr                122.75:  Time Ciculation Ended 
 CV  .mps                 2.67:  Crit Velocity 
 CVMX.mps                 3.56:  Max Crit Veloc 
 DD1 .          Rashad Habibov:  Direct Drillr 1 
 DD2 .         Rasim Ibrahimov:  Direct Drillr 2 
 DDSV.               Geo-Pilot:  DD Service 
 DEFF.%                  98.00:  % Det Eff 
 DLRX.°/30m               0.75:  Dogleg Rot Max 
 DLSO.°/30m               1.25:  Dogleg Oriented 
 DLSX.°/30m               2.06:  Dogleg Str Max 
 DRET.      07.45.00 17-May-20:  Drill End Time 
 DRST.      22.50.00 15-May-20:  Drill Start Tim 
 DTIM.hr                 20.75:  Time Drilling 
 EDEP.m                5124.01:  End Depth 
 ENG1.           Eldar Hajiyev:  Engineer 1 
 ENG2.        Marcelo Sandoval:  Engineer 2 
 ENG3.        Davud huseynzada:  Engineer 3 
 ENG4.          Ruslan Safarov:  Engineer 4 
 ETIM.      04.33.00 23-May-20:  End Time 
 FLOI.gpm               450.00:  Flow In 
 FLON.gpm               400.00:  Flow In Min 
 FLOS.cptm                0.00:  Fluid Loss 
 FLOX.gpm               500.00:  Flow In Max 
 FTRO.       Formation Presure:  FTWD Run Obj 
 HFLO.                      No:  High Flow 
 HPRE.                     Yes:  High Pressure 
 HTEM.                      No:  High Temp 
 HYDO.m                   1.80:  Hydro Offset 
 IFIN.deg                75.06:  Inc, Final 
 IMAX.deg                75.38:  Inc Max 
 IMIN.deg                74.69:  Inc Min 
 IMND.m                5027.38:  Inc Min Depth 
 IMXD.m                4771.61:  Inc Max Depth 
 JARR.                      No:  Jarring 
 LETM.      07.45.00 17-May-20:  Log End Time 
 LOST.hr                     0:  Lost Rig Time 
 LSTM.      22.50.00 15-May-20:  Log Start Time 
 MDCL.ppm             42000.00:  Mud Chlorides 
 MDES.     Inversion Oil/Synthetic:  Mud Desc 
 DFD .sg                  1.34:  Mud Density 
 MDMN.sg                  1.34:  Dens Mud Min 
 MDMX.sg                  1.34:  Dens Mud Max 
 MOIL.                       0:  Run Mud Oil % 
 MOWR.                   67:33:  Run Mud OWR 
 MSND.                       0:  Run Mud Sand % 
 MSOL.                     1.8:  Run Mud Solids% 
 DFV .spqt               76.00:  Mud Viscosity 
 MWOD.in                  6.75:  MWD Tool OD 
 MWSI.                      No:  Serv Intrp, MWD 
 OTIM.hr                228.19:  Time Operating 
 PCON.           Look Like New:  Pad Condition 
 PMAX.psia             6164.70:  Press Op, Max 
 PV  .cP                 28.00:  Mud PV 
 RUN .                     900:  Run Number 
 ROPA.m/hr               19.00:  ROP Avg 
 ROPN.m/hr               11.00:  ROP Min 
 ROPX.m/hr               36.00:  ROP Max 
 RPMA.rpm               120.00:  RPM Surface Avg 
 RPMN.rpm               120.00:  RPM Surface Min 
 RPMX.rpm               120.00:  RPM Surface Max 
 RRUN.                    L604:  Rig Run Number 
 RTIM.hr                  7.00:  Time Reaming 
 SAZI.deg               109.27:  Azm, Start 
 SDEP.m                4761.01:  Start Depth 
 SIDD.                      No:  Serv Intrp, DD 
 SINC.deg                75.38:  Inc, Start 
 SPPA.psig             3574.00:  SPP Avg 
 SPPN.psig             3475.00:  SPP Min 
 SPPX.psig             3791.00:  SPP Max 
 STIM.      07.08.48 13-May-20:  Start Time 
 SVCS.                 DD, MWD:  Services 
 SVER.                    9.20:  Sperry Version 
 TDAT.m                 363.00:  Tot Depth Attmp 
 TDDF.                      No:  Trip for DD 
 TDLG.m                 363.00:  Tot Depth Loggd 
 TFF .                      No:  Trip for Fail 
 TQAA.f-kp               20.00:  Torque Abs Avg 
 TQAN.f-kp               18.00:  Torque Abs Min 
 TQAX.f-kp               22.00:  Torque Abs Max 
 TRRT.°/30m              -0.35:  Turn Rotating 
 MRT .                    HCIM:  Maximum Recorded Temperature 
 TTMX.degC               92.16:  Max Tool Temp 
 VS01.                90586518:  Virtual Str1 SN 
 VS02.        AZ90560654Z1W1C6:  Virtual Str2 SN 
 VS03.           AZ90610398F11:  Virtual Str3 SN 
 VS04.                90514975:  Virtual Str4 SN 
 VS05.                90514972:  Virtual Str5 SN 
 VS06.     AZ90603282F11V7D1A6:  Virtual Str6 SN 
 WBMN.klb                 7.00:  WOB Min 
 WOBA.klb                12.00:  WOB Avg 
 WOBX.klb                14.00:  WOB Max 
 YP  .lhf2               32.00:  Yield Point 
~Curve Information Block
#MNEM.UNIT                 API CODE     Curve Description
#---------               -----------    ---------------------------
 TIME.HHMMSS            00 000 000 000:  GT Time & Date
 GTDEPTH.m              00 000 000 000:  GT Depth
 GTPQH.psia             00 000 000 000:  GT HR Quartz Pressure
 GTTQ.degC              00 000 000 000:  GT Quartz Temperature
 GTTN.NONE              00 000 000 000:  GT Test Number
 GTET.sec               00 000 000 000:  GT Elapsed Test Time
 GTTVD.m                00 000 000 000:  GT True Vertical Depth
#Other Information
#
#WARRANTY: Halliburton will use its best efforts to furnish customers with 
#accurate information and interpretations that are part of, and incident to, the services 
#provided.  However, Halliburton cannot and does not warrant the accuracy 
#or correctness of such information and interpretations.  Under no circumstances should any 
#such information or interpretation be relied upon as the sole basis for any drilling, 
#completion, production, or financial decision or any procedure involving any risk to the 
#safety of any drilling venture, drilling rig or its crew or any other third party.  The 
#Customer has full responsibility for all drilling, completion and production operation.  
#Halliburton makes no representations or warranties, either expressed or 
#implied, including, but not limited to, the implied warranties of merchantability or fitness 
#for a particular purpose, with respect to the services rendered.  In no event will 
#Halliburton be liable for failure to obtain any particular results or for 
#any damages, including, but not limited to, indirect, special or consequential damages, 
#resulting from the use of any information or interpretation provided by Halliburton.
#
~A           TIME           GTDEPTH  GTPQH  GTTQ  GTTN  GTET   GTTVD  
# ...
   23:42:30.895.17-May-2020 4902.01 3456.44 66.29 9.00 344.82 2567.50
   23:42:31.095.17-May-2020 4902.01 3456.44 66.29 9.00 345.02 2567.50
   23:42:31.295.17-May-2020 4902.01 3456.75 66.29 9.00 345.22 2567.50
   23:42:31.495.17-May-2020 4902.01 3458.07 66.29 9.00 345.42 2567.50
   23:42:31.695.17-May-2020 4902.01 3458.64 66.29 9.00 345.62 2567.50
   23:42:31.895.17-May-2020 4902.01 3459.53 66.29 9.00 345.82 2567.50
   23:42:32.094.17-May-2020 4902.01 3459.53 66.29 9.00 346.02 2567.50
   23:42:32.294.17-May-2020 4902.01 3461.08 66.29 9.00 346.22 2567.50
   23:42:32.494.17-May-2020 4902.01 3461.81 66.29 9.00 346.42 2567.50
   23:42:32.694.17-May-2020 4902.01 3462.53 66.29 9.00 346.62 2567.50
   23:42:32.894.17-May-2020 4902.01 3463.21 66.29 9.00 346.82 2567.50
   23:42:33.094.17-May-2020 4902.01 3463.21 66.29 9.00 347.02 2567.50
   23:42:33.294.17-May-2020 4902.01 3463.13 66.29 9.00 347.22 2567.50
   23:42:33.494.17-May-2020 4902.01 3464.00 66.29 9.00 347.42 2567.50
   23:42:33.694.17-May-2020 4902.01 3464.57 66.29 9.00 347.62 2567.50
   23:42:33.893.17-May-2020 4902.01 3464.36 66.29 9.00 347.82 2567.50
   23:42:34.093.17-May-2020 4902.01 3464.36 66.29 9.00 348.02 2567.50
   23:42:34.293.17-May-2020 4902.01 3465.03 66.29 9.00 348.22 2567.50
   23:42:34.493.17-May-2020 4902.01 3465.61 66.29 9.00 348.42 2567.50
   23:42:34.693.17-May-2020 4902.01 3466.44 66.29 9.00 348.62 2567.50
   23:42:34.893.17-May-2020 4902.01 3466.24 66.29 9.00 348.82 2567.50
   23:42:35.093.17-May-2020 4902.01 3466.24 66.29 9.00 349.02 2567.50
   23:42:35.293.17-May-2020 4902.01 3466.37 66.29 9.00 349.22 2567.50
   23:42:35.493.17-May-2020 4902.01 3466.98 66.29 9.00 349.42 2567.50
   23:42:35.693.17-May-2020 4902.01 3466.86 66.29 9.00 349.62 2567.50
   23:42:35.892.17-May-2020 4902.01 3466.51 66.29 9.00 349.82 2567.50
   23:42:36.092.17-May-2020 4902.01 3466.51 66.29 9.00 350.02 2567.50
   23:42:36.292.17-May-2020 4902.01 3467.94 66.29 9.00 350.22 2567.50
   23:42:36.492.17-May-2020 4902.01 3469.24 66.29 9.00 350.42 2567.50
   23:42:36.692.17-May-2020 4902.01 3470.34 66.29 9.00 350.62 2567.50
   23:42:36.892.17-May-2020 4902.01 3472.56 66.29 9.00 350.82 2567.50
   23:42:37.092.17-May-2020 4902.01 3472.56 66.29 9.00 351.02 2567.50
   23:42:37.292.17-May-2020 4902.01 3474.84 66.29 9.00 351.22 2567.50
   23:42:37.492.17-May-2020 4902.01 3475.79 66.29 9.00 351.42 2567.50
   23:42:37.692.17-May-2020 4902.01 3476.14 66.29 9.00 351.62 2567.50
   23:42:37.891.17-May-2020 4902.01 3475.59 66.29 9.00 351.82 2567.50
   23:42:38.091.17-May-2020 4902.01 3475.59 66.29 9.00 352.02 2567.50
   23:42:38.291.17-May-2020 4902.01 3476.63 66.29 9.00 352.22 2567.50
   23:42:38.491.17-May-2020 4902.01 3477.05 66.29 9.00 352.42 2567.50
   23:42:38.691.17-May-2020 4902.01 3478.01 66.29 9.00 352.62 2567.50
   23:42:38.891.17-May-2020 4902.01 3478.43 66.29 9.00 352.82 2567.50
   23:42:39.091.17-May-2020 4902.01 3478.43 66.29 9.00 353.02 2567.50
   23:42:39.291.17-May-2020 4902.01 3479.95 66.29 9.00 353.22 2567.50
   23:42:39.491.17-May-2020 4902.01 3480.65 66.29 9.00 353.42 2567.50
   23:42:39.691.17-May-2020 4902.01 3481.24 66.29 9.00 353.62 2567.50
   23:42:39.890.17-May-2020 4902.01 3481.07 66.29 9.00 353.82 2567.50
   23:42:40.090.17-May-2020 4902.01 3481.07 66.29 9.00 354.02 2567.50
   23:42:40.290.17-May-2020 4902.01 3482.80 66.29 9.00 354.22 2567.50
   23:42:40.490.17-May-2020 4902.01 3484.32 66.29 9.00 354.42 2567.50
   23:42:40.690.17-May-2020 4902.01 3484.30 66.29 9.00 354.62 2567.50
   23:42:40.890.17-May-2020 4902.01 3484.54 66.29 9.00 354.82 2567.50
   23:42:41.090.17-May-2020 4902.01 3484.54 66.29 9.00 355.02 2567.50
   23:42:41.290.17-May-2020 4902.01 3485.16 66.29 9.00 355.22 2567.50
   23:42:41.490.17-May-2020 4902.01 3484.44 66.29 9.00 355.42 2567.50
   23:42:41.689.17-May-2020 4902.01 3483.42 66.29 9.00 355.62 2567.50
   23:42:41.889.17-May-2020 4902.01 3484.86 66.29 9.00 355.82 2567.50
   23:42:42.089.17-May-2020 4902.01 3484.86 66.29 9.00 356.02 2567.50
   23:42:42.289.17-May-2020 4902.01 3487.25 66.29 9.00 356.22 2567.50
   23:42:42.489.17-May-2020 4902.01 3486.33 66.29 9.00 356.42 2567.50
   23:42:42.689.17-May-2020 4902.01 3488.15 66.29 9.00 356.62 2567.50
   23:42:42.889.17-May-2020 4902.01 3488.33 66.29 9.00 356.82 2567.50
   23:42:43.089.17-May-2020 4902.01 3488.33 66.29 9.00 357.02 2567.50
   23:42:43.289.17-May-2020 4902.01 3489.56 66.29 9.00 357.22 2567.50
   23:42:43.489.17-May-2020 4902.01 3490.54 66.29 9.00 357.42 2567.50
   23:42:43.688.17-May-2020 4902.01 3490.87 66.29 9.00 357.62 2567.50
   23:42:43.888.17-May-2020 4902.01 3491.75 66.29 9.00 357.82 2567.50
   23:42:44.088.17-May-2020 4902.01 3491.75 66.29 9.00 358.02 2567.50
   23:42:44.288.17-May-2020 4902.01 3492.00 66.29 9.00 358.22 2567.50
   23:42:44.488.17-May-2020 4902.01 3491.72 66.29 9.00 358.42 2567.50
   23:42:44.688.17-May-2020 4902.01 3492.06 66.29 9.00 358.62 2567.50
   23:42:44.888.17-May-2020 4902.01 3492.62 66.29 9.00 358.82 2567.50
   23:42:45.088.17-May-2020 4902.01 3492.62 66.29 9.00 359.02 2567.50
   23:42:45.288.17-May-2020 4902.01 3493.88 66.29 9.00 359.22 2567.50
   23:42:45.488.17-May-2020 4902.01 3494.20 66.29 9.00 359.42 2567.50
   23:42:45.687.17-May-2020 4902.01 3494.98 66.29 9.00 359.62 2567.50
   23:42:45.887.17-May-2020 4902.01 3495.57 66.29 9.00 359.82 2567.50
   23:42:46.087.17-May-2020 4902.01 3495.57 66.29 9.00 360.02 2567.50
   23:42:46.287.17-May-2020 4902.01 3496.59 66.29 9.00 360.22 2567.50
   23:42:46.487.17-May-2020 4902.01 3496.03 66.29 9.00 360.42 2567.50
   23:42:46.687.17-May-2020 4902.01 3495.37 66.29 9.00 360.61 2567.50
   23:42:46.887.17-May-2020 4902.01 3496.58 66.29 9.00 360.81 2567.50
   23:42:47.087.17-May-2020 4902.01 3496.58 66.29 9.00 361.01 2567.50
   23:42:47.287.17-May-2020 4902.01 3497.11 66.29 9.00 361.21 2567.50
   23:42:47.487.17-May-2020 4902.01 3496.69 66.29 9.00 361.41 2567.50
   23:42:47.686.17-May-2020 4902.01 3496.51 66.29 9.00 361.61 2567.50
   23:42:47.886.17-May-2020 4902.01 3497.15 66.29 9.00 361.81 2567.50
   23:42:48.086.17-May-2020 4902.01 3497.15 66.29 9.00 362.01 2567.50
   23:42:48.286.17-May-2020 4902.01 3495.82 66.29 9.00 362.21 2567.50
   23:42:48.486.17-May-2020 4902.01 3496.38 66.28 9.00 362.41 2567.50
   23:42:48.686.17-May-2020 4902.01 3495.75 66.29 9.00 362.61 2567.50
   23:42:48.886.17-May-2020 4902.01 3495.44 66.28 9.00 362.81 2567.50
   23:42:49.086.17-May-2020 4902.01 3495.44 66.28 9.00 363.01 2567.50
   23:42:49.286.17-May-2020 4902.01 3496.58 66.28 9.00 363.21 2567.50
   23:42:49.485.17-May-2020 4902.01 3497.49 66.28 9.00 363.41 2567.50
   23:42:49.685.17-May-2020 4902.01 3498.16 66.28 9.00 363.61 2567.50
   23:42:49.885.17-May-2020 4902.01 3498.87 66.28 9.00 363.81 2567.50
   23:42:50.085.17-May-2020 4902.01 3498.87 66.28 9.00 364.01 2567.50
   23:42:50.285.17-May-2020 4902.01 3499.62 66.28 9.00 364.21 2567.50
   23:42:50.485.17-May-2020 4902.01 3500.31 66.28 9.00 364.41 2567.50
   23:42:50.685.17-May-2020 4902.01 3500.25 66.28 9.00 364.61 2567.50
   23:42:50.885.17-May-2020 4902.01 3499.30 66.28 9.00 364.81 2567.50
   23:42:51.085.17-May-2020 4902.01 3499.30 66.28 9.00 365.01 2567.50
   23:42:51.285.17-May-2020 4902.01 3499.05 66.28 9.00 365.21 2567.50
   23:42:51.484.17-May-2020 4902.01 3498.85 66.28 9.00 365.41 2567.50
   23:42:51.684.17-May-2020 4902.01 3499.45 66.28 9.00 365.61 2567.50
   23:42:51.884.17-May-2020 4902.01 3499.22 66.28 9.00 365.81 2567.50
   23:42:52.084.17-May-2020 4902.01 3499.22 66.28 9.00 366.01 2567.50
   23:42:52.284.17-May-2020 4902.01 3339.44 66.28 9.00 366.21 2567.50
   23:42:52.484.17-May-2020 4902.01 3458.55 66.28 9.00 366.41 2567.50
   23:42:52.684.17-May-2020 4902.01 3629.68 66.28 9.00 366.61 2567.50
   23:42:52.884.17-May-2020 4902.01 3651.03 66.28 9.00 366.81 2567.50
   23:42:53.084.17-May-2020 4902.01 3651.03 66.28 9.00 367.01 2567.50
   23:42:53.284.17-May-2020 4902.01 5499.24 66.28 9.00 367.21 2567.50
   23:42:53.483.17-May-2020 4902.01 5496.44 66.28 9.00 367.41 2567.50
   23:42:53.683.17-May-2020 4902.01 5494.55 66.28 9.00 367.61 2567.50
