~Version Information
 VERS.                  2.0:   CWLS log ASCII Standard -VERSION 2.0
 WRAP.                   NO:   One line per depth step
~Well Information Block
#MNEM.UNIT     VALUE/NAME     DESCRIPTION
#---------     -----------    ---------------------------
 STRT.S             22:05:00 17-May-20: START TIME 22:05:00 17-May-20
 STOP.S             22:12:03 17-May-20: STOP TIME  22:12:03 17-May-20
 STEP.S                   0.00: STEP TIME
 NULL.                 -999.25: NULL VALUE
 UNIT.                     N/A:  LOGGING EQUIPMENT ID
 DCON.         Sperry Drilling:  DIRECTNL CONTR
 DOE .                     N/A:  DOE NUMBER
 JOBN.        AZ-XX-0906252240:  JOB TICKET NUMB
 MWDS.                     N/A:  MWD SHOP
 PROV.                    Baku:  PROVINCE
 STAT.                    Baku:  STATE NAME
 REGN.                   EESSA:  REGION
 BASE.              Azerbaijan:  LOGGING EQUIPMENT BASE LOCATION
 UWI .                     N/A:  UNIQUE WELL IDENTIFIER
 API .                     N/A:  API NUMBER
 MDS .        Operator Entered:  MAG DATA SOURCE
 WTYP.                Deviated:  WELL TYPE
 COMP.     BP Exploration (Caspian Sea) Ltd.:  COMPANY
 SRVC.          Turan Drilling:  CONTRACTOR
 WELL.           J23 (Slot 07):  WELL NAME
 CTRY.              Azerbaijan:  COUNTRY NAME
 FLD .                     ACG:  FIELD NAME
 PDAT.          Mean Sea Level:  PERMANENT DATUM
 RIG .             West Chirag:  RIG NAME
 SON .        AZ-XX-0906252240:  JOB NUMBER
 FTOP.          Formation Tops:  FORM TOPS DESC
 ILTD.               Lithology:  INTERP LTH DESC
 SVYD.                  Survey:  SURVEY DESC
 DMOD.             Drill Model:  DRILL MOD DESC
 HPTY.       Minimum Curvature:  HOLE POS TYPE
 NREF.                    Grid:  NORTH REFERENCE
 SPUD.               27-Aug-20:  SPUD DATE
 DATE.      00.00.00 19-May-20:  END TIME
 STIM.      03.00.00 25-Mar-20:  START TIME
 DMF .             Drill Floor:  DRILL MEAS FROM
 DFST.                        :  DIST FSL TEXT
 DFWT.                        :  DIST FWL TEXT
 CNTY.                        :  COUNTY
 LOC .                        :  LOCATION
 LMF .             Drill Floor:  LOG MEASURED FROM
 VSNS.m                   9.43:  VERT SEC N/S
 VSEW.m                  -8.91:  VERT SEC E/W
 AGAP.m                  43.00:  AIR GAP
 DEP .m                 354.17:  DEPTH
 APD .m                  43.00:  DEPTH ABOVE PD
 WDMS.m                 169.80:  WD ELEV
 EGL .m                   0.00:  GROUND ELEVATION
 EPD .m                   0.00:  ELEVATION
 AZTC.deg                 6.31:  AZM TOTAL CORR
 GRDC.deg                 0.14:  GRID CORRECTION
 MDEC.deg                 6.45:  MAGNETIC DECL
 MDIP.deg                59.56:  MAGNETIC DIP
 MFLD.nT              50295.00:  MAGNETIC FIELD
 GVFD.g                   1.00:  GRAVITY FIELD
 VSDR.deg               179.88:  VERT SEC DIRECT
 TDD .m                5150.01:  TOTAL DEPTH (DRILLER)
 SDEP.m                 864.00:  START DEPTH
 DFSL.m                   0.00:  DISTANCE FSL
 DFWL.m                   0.00:  DISTANCE FWL
 UTMY.m             4443793.85:  UTM Y
 UTMX.m              519005.06:  UTM X
 WHEW.m                  -8.91:  WELL HEAD E/W
 WHNS.m                   9.43:  WELL HEAD N/S
 LONG.deg                51.22:  LONGITUDE
 LATI.deg                40.13:  LATITUDE
 TVDS.m                  43.00:  TVDSS CORRECTN
 EKB .m                   0.00:  KB ELEVATION
 EDF .m                  43.00:  DF ELEVATION
 TDL .m                 363.00:  TOTAL DEPTH (LOGGER)
 MAGU.                 1850802:  MAGUTM CHECKSUM
 VSC .                       0:  VS TO CLOSURE
~Parameter Information Block
#MNEM.UNIT       Value        Description
#---------     -----------    ---------------------------
 AV  .mps                 2.30:  Ann Velocity 
 AVMX.mps                 4.40:  Max Ann Veloc 
 AZIF.deg               110.24:  Azm, Final 
 BHAT.        Rotary Steerable:  BHA Type 
 BREV.rev               331.00:  Rev Bit Total 
 BROT.°/30m               0.00:  Build Rotating 
 BS  .in                  8.50:  Bit Size 
 BSZ .in                  8.50:  Bit Size 
 BTPL.psig              585.00:  Bit Press Loss 
 CABU.                     Yes:  Customer Abuse 
 COMM.                     íe:  Run Comments 1 
 TCS .hr                122.75:  Time Ciculation Ended 
 CV  .mps                 2.67:  Crit Velocity 
 CVMX.mps                 3.56:  Max Crit Veloc 
 DD1 .          Rashad Habibov:  Direct Drillr 1 
 DD2 .         Rasim Ibrahimov:  Direct Drillr 2 
 DDSV.               Geo-Pilot:  DD Service 
 DEFF.%                  98.00:  % Det Eff 
 DLRX.°/30m               0.75:  Dogleg Rot Max 
 DLSO.°/30m               1.25:  Dogleg Oriented 
 DLSX.°/30m               2.06:  Dogleg Str Max 
 DRET.      07.45.00 17-May-20:  Drill End Time 
 DRST.      22.50.00 15-May-20:  Drill Start Tim 
 DTIM.hr                 20.75:  Time Drilling 
 EDEP.m                5124.01:  End Depth 
 ENG1.           Eldar Hajiyev:  Engineer 1 
 ENG2.        Marcelo Sandoval:  Engineer 2 
 ENG3.        Davud huseynzada:  Engineer 3 
 ENG4.          Ruslan Safarov:  Engineer 4 
 ETIM.      04.33.00 23-May-20:  End Time 
 FLOI.gpm               450.00:  Flow In 
 FLON.gpm               400.00:  Flow In Min 
 FLOS.cptm                0.00:  Fluid Loss 
 FLOX.gpm               500.00:  Flow In Max 
 FTRO.       Formation Presure:  FTWD Run Obj 
 HFLO.                      No:  High Flow 
 HPRE.                     Yes:  High Pressure 
 HTEM.                      No:  High Temp 
 HYDO.m                   1.80:  Hydro Offset 
 IFIN.deg                75.06:  Inc, Final 
 IMAX.deg                75.38:  Inc Max 
 IMIN.deg                74.69:  Inc Min 
 IMND.m                5027.38:  Inc Min Depth 
 IMXD.m                4771.61:  Inc Max Depth 
 JARR.                      No:  Jarring 
 LETM.      07.45.00 17-May-20:  Log End Time 
 LOST.hr                     0:  Lost Rig Time 
 LSTM.      22.50.00 15-May-20:  Log Start Time 
 MDCL.ppm             42000.00:  Mud Chlorides 
 MDES.     Inversion Oil/Synthetic:  Mud Desc 
 DFD .sg                  1.34:  Mud Density 
 MDMN.sg                  1.34:  Dens Mud Min 
 MDMX.sg                  1.34:  Dens Mud Max 
 MOIL.                       0:  Run Mud Oil % 
 MOWR.                   67:33:  Run Mud OWR 
 MSND.                       0:  Run Mud Sand % 
 MSOL.                     1.8:  Run Mud Solids% 
 DFV .spqt               76.00:  Mud Viscosity 
 MWOD.in                  6.75:  MWD Tool OD 
 MWSI.                      No:  Serv Intrp, MWD 
 OTIM.hr                228.19:  Time Operating 
 PCON.           Look Like New:  Pad Condition 
 PMAX.psia             6164.70:  Press Op, Max 
 PV  .cP                 28.00:  Mud PV 
 RUN .                     900:  Run Number 
 ROPA.m/hr               19.00:  ROP Avg 
 ROPN.m/hr               11.00:  ROP Min 
 ROPX.m/hr               36.00:  ROP Max 
 RPMA.rpm               120.00:  RPM Surface Avg 
 RPMN.rpm               120.00:  RPM Surface Min 
 RPMX.rpm               120.00:  RPM Surface Max 
 RRUN.                    L604:  Rig Run Number 
 RTIM.hr                  7.00:  Time Reaming 
 SAZI.deg               109.27:  Azm, Start 
 SDEP.m                4761.01:  Start Depth 
 SIDD.                      No:  Serv Intrp, DD 
 SINC.deg                75.38:  Inc, Start 
 SPPA.psig             3574.00:  SPP Avg 
 SPPN.psig             3475.00:  SPP Min 
 SPPX.psig             3791.00:  SPP Max 
 STIM.      07.08.48 13-May-20:  Start Time 
 SVCS.                 DD, MWD:  Services 
 SVER.                    9.20:  Sperry Version 
 TDAT.m                 363.00:  Tot Depth Attmp 
 TDDF.                      No:  Trip for DD 
 TDLG.m                 363.00:  Tot Depth Loggd 
 TFF .                      No:  Trip for Fail 
 TQAA.f-kp               20.00:  Torque Abs Avg 
 TQAN.f-kp               18.00:  Torque Abs Min 
 TQAX.f-kp               22.00:  Torque Abs Max 
 TRRT.°/30m              -0.35:  Turn Rotating 
 MRT .                    HCIM:  Maximum Recorded Temperature 
 TTMX.degC               92.16:  Max Tool Temp 
 VS01.                90586518:  Virtual Str1 SN 
 VS02.        AZ90560654Z1W1C6:  Virtual Str2 SN 
 VS03.           AZ90610398F11:  Virtual Str3 SN 
 VS04.                90514975:  Virtual Str4 SN 
 VS05.                90514972:  Virtual Str5 SN 
 VS06.     AZ90603282F11V7D1A6:  Virtual Str6 SN 
 WBMN.klb                 7.00:  WOB Min 
 WOBA.klb                12.00:  WOB Avg 
 WOBX.klb                14.00:  WOB Max 
 YP  .lhf2               32.00:  Yield Point 
~Curve Information Block
#MNEM.UNIT                 API CODE     Curve Description
#---------               -----------    ---------------------------
 TIME.HHMMSS            00 000 000 000:  GT Time & Date
 GTDEPTH.m              00 000 000 000:  GT Depth
 GTPQH.psia             00 000 000 000:  GT HR Quartz Pressure
 GTTQ.degC              00 000 000 000:  GT Quartz Temperature
 GTTN.NONE              00 000 000 000:  GT Test Number
 GTET.sec               00 000 000 000:  GT Elapsed Test Time
 GTTVD.m                00 000 000 000:  GT True Vertical Depth
#Other Information
#
#WARRANTY: Halliburton will use its best efforts to furnish customers with 
#accurate information and interpretations that are part of, and incident to, the services 
#provided.  However, Halliburton cannot and does not warrant the accuracy 
#or correctness of such information and interpretations.  Under no circumstances should any 
#such information or interpretation be relied upon as the sole basis for any drilling, 
#completion, production, or financial decision or any procedure involving any risk to the 
#safety of any drilling venture, drilling rig or its crew or any other third party.  The 
#Customer has full responsibility for all drilling, completion and production operation.  
#Halliburton makes no representations or warranties, either expressed or 
#implied, including, but not limited to, the implied warranties of merchantability or fitness 
#for a particular purpose, with respect to the services rendered.  In no event will 
#Halliburton be liable for failure to obtain any particular results or for 
#any damages, including, but not limited to, indirect, special or consequential damages, 
#resulting from the use of any information or interpretation provided by Halliburton.
#
~A           TIME           GTDEPTH  GTPQH  GTTQ  GTTN  GTET   GTTVD  
# ...
   22:06:09.918.17-May-2020 4937.01 2931.77 67.66 7.00  69.13 2576.47
   22:06:10.118.17-May-2020 4937.01 2931.77 67.67 7.00  69.33 2576.47
   22:06:10.319.17-May-2020 4937.01 2931.77 67.67 7.00  69.53 2576.47
   22:06:10.519.17-May-2020 4937.01 2931.78 67.67 7.00  69.73 2576.47
   22:06:10.719.17-May-2020 4937.01 2931.93 67.67 7.00  69.93 2576.47
   22:06:10.920.17-May-2020 4937.01 2931.65 67.67 7.00  70.13 2576.47
   22:06:11.120.17-May-2020 4937.01 2931.78 67.67 7.00  70.33 2576.47
   22:06:11.320.17-May-2020 4937.01 2931.78 67.67 7.00  70.53 2576.47
   22:06:11.521.17-May-2020 4937.01 2931.83 67.67 7.00  70.73 2576.47
   22:06:11.721.17-May-2020 4937.01 2931.86 67.67 7.00  70.93 2576.47
   22:06:11.922.17-May-2020 4937.01 2931.90 67.67 7.00  71.13 2576.47
   22:06:12.122.17-May-2020 4937.01 2931.90 67.67 7.00  71.33 2576.47
   22:06:12.322.17-May-2020 4937.01 2931.96 67.67 7.00  71.53 2576.47
   22:06:12.523.17-May-2020 4937.01 2931.97 67.67 7.00  71.73 2576.47
   22:06:12.723.17-May-2020 4937.01 2931.98 67.67 7.00  71.93 2576.47
   22:06:12.923.17-May-2020 4937.01 2932.02 67.67 7.00  72.13 2576.47
   22:06:13.124.17-May-2020 4937.01 2932.02 67.67 7.00  72.33 2576.47
   22:06:13.324.17-May-2020 4937.01 2931.88 67.67 7.00  72.53 2576.47
   22:06:13.525.17-May-2020 4937.01 2931.80 67.67 7.00  72.73 2576.47
   22:06:13.725.17-May-2020 4937.01 2931.90 67.67 7.00  72.93 2576.47
   22:06:13.925.17-May-2020 4937.01 2931.91 67.67 7.00  73.13 2576.47
   22:06:14.126.17-May-2020 4937.01 2931.91 67.67 7.00  73.33 2576.47
   22:06:14.326.17-May-2020 4937.01 2931.99 67.67 7.00  73.53 2576.47
   22:06:14.526.17-May-2020 4937.01 2932.01 67.67 7.00  73.74 2576.47
   22:06:14.727.17-May-2020 4937.01 2932.02 67.67 7.00  73.94 2576.47
   22:06:14.927.17-May-2020 4937.01 2932.09 67.67 7.00  74.14 2576.47
   22:06:15.127.17-May-2020 4937.01 2931.77 67.67 7.00  74.34 2576.47
   22:06:15.328.17-May-2020 4937.01 2931.88 67.67 7.00  74.54 2576.47
   22:06:15.528.17-May-2020 4937.01 2931.88 67.67 7.00  74.74 2576.47
   22:06:15.729.17-May-2020 4937.01 2931.98 67.67 7.00  74.94 2576.47
   22:06:15.929.17-May-2020 4937.01 2931.77 67.67 7.00  75.14 2576.47
   22:06:16.129.17-May-2020 4937.01 2931.77 67.67 7.00  75.34 2576.47
   22:06:16.330.17-May-2020 4937.01 2931.85 67.67 7.00  75.54 2576.47
   22:06:16.530.17-May-2020 4937.01 2931.93 67.67 7.00  75.74 2576.47
   22:06:16.730.17-May-2020 4937.01 2932.01 67.67 7.00  75.94 2576.47
   22:06:16.931.17-May-2020 4937.01 2931.77 67.67 7.00  76.14 2576.47
   22:06:17.131.17-May-2020 4937.01 2931.77 67.67 7.00  76.34 2576.47
   22:06:17.332.17-May-2020 4937.01 2931.86 67.67 7.00  76.54 2576.47
   22:06:17.532.17-May-2020 4937.01 2931.95 67.67 7.00  76.74 2576.47
   22:06:17.732.17-May-2020 4937.01 2931.96 67.67 7.00  76.94 2576.47
   22:06:17.933.17-May-2020 4937.01 2931.82 67.67 7.00  77.14 2576.47
   22:06:18.133.17-May-2020 4937.01 2931.82 67.67 7.00  77.34 2576.47
   22:06:18.333.17-May-2020 4937.01 2931.90 67.67 7.00  77.54 2576.47
   22:06:18.534.17-May-2020 4937.01 2931.96 67.67 7.00  77.74 2576.47
   22:06:18.734.17-May-2020 4937.01 2931.97 67.67 7.00  77.94 2576.47
   22:06:18.934.17-May-2020 4937.01 2932.01 67.67 7.00  78.14 2576.47
   22:06:19.135.17-May-2020 4937.01 2932.04 67.67 7.00  78.34 2576.47
   22:06:19.335.17-May-2020 4937.01 2932.06 67.67 7.00  78.54 2576.47
   22:06:19.536.17-May-2020 4937.01 2932.08 67.67 7.00  78.74 2576.47
   22:06:19.736.17-May-2020 4937.01 2932.09 67.67 7.00  78.94 2576.47
   22:06:19.936.17-May-2020 4937.01 2931.96 67.67 7.00  79.15 2576.47
   22:06:20.137.17-May-2020 4937.01 2931.96 67.67 7.00  79.35 2576.47
   22:06:20.337.17-May-2020 4937.01 2931.96 67.67 7.00  79.55 2576.47
   22:06:20.537.17-May-2020 4937.01 2931.97 67.67 7.00  79.75 2576.47
   22:06:20.738.17-May-2020 4937.01 2932.01 67.67 7.00  79.95 2576.47
   22:06:20.938.17-May-2020 4937.01 2932.04 67.67 7.00  80.15 2576.47
   22:06:21.138.17-May-2020 4937.01 2932.04 67.67 7.00  80.35 2576.47
   22:06:21.339.17-May-2020 4937.01 2932.09 67.67 7.00  80.55 2576.47
   22:06:21.539.17-May-2020 4937.01 2932.11 67.67 7.00  80.75 2576.47
   22:06:21.740.17-May-2020 4937.01 2932.11 67.67 7.00  80.95 2576.47
   22:06:21.940.17-May-2020 4937.01 2932.09 67.67 7.00  81.15 2576.47
   22:06:22.140.17-May-2020 4937.01 2932.09 67.67 7.00  81.35 2576.47
   22:06:22.341.17-May-2020 4937.01 2932.04 67.67 7.00  81.55 2576.47
   22:06:22.541.17-May-2020 4937.01 2931.95 67.67 7.00  81.75 2576.47
   22:06:22.741.17-May-2020 4937.01 2932.01 67.67 7.00  81.95 2576.47
   22:06:22.942.17-May-2020 4937.01 2931.94 67.67 7.00  82.15 2576.47
   22:06:23.142.17-May-2020 4937.01 2931.94 67.67 7.00  82.35 2576.47
   22:06:23.343.17-May-2020 4937.01 2931.97 67.67 7.00  82.55 2576.47
   22:06:23.543.17-May-2020 4937.01 2932.03 67.67 7.00  82.75 2576.47
   22:06:23.743.17-May-2020 4937.01 2932.00 67.67 7.00  82.95 2576.47
   22:06:23.944.17-May-2020 4937.01 2931.95 67.67 7.00  83.15 2576.47
   22:06:24.144.17-May-2020 4937.01 2931.95 67.67 7.00  83.35 2576.47
   22:06:24.344.17-May-2020 4937.01 2931.99 67.67 7.00  83.55 2576.47
   22:06:24.545.17-May-2020 4937.01 2932.11 67.67 7.00  83.75 2576.47
   22:06:24.745.17-May-2020 4937.01 2931.89 67.67 7.00  83.95 2576.47
   22:06:24.945.17-May-2020 4937.01 2932.00 67.67 7.00  84.15 2576.47
   22:06:25.146.17-May-2020 4937.01 2932.00 67.67 7.00  84.35 2576.47
   22:06:25.346.17-May-2020 4937.01 2932.02 67.67 7.00  84.56 2576.47
   22:06:25.547.17-May-2020 4937.01 2932.03 67.67 7.00  84.76 2576.47
   22:06:25.747.17-May-2020 4937.01 2932.06 67.67 7.00  84.96 2576.47
   22:06:25.947.17-May-2020 4937.01 2932.09 67.67 7.00  85.16 2576.47
   22:06:26.148.17-May-2020 4937.01 2932.09 67.67 7.00  85.36 2576.47
   22:06:26.348.17-May-2020 4937.01 2932.13 67.67 7.00  85.56 2576.47
   22:06:26.548.17-May-2020 4937.01 2932.14 67.67 7.00  85.76 2576.47
   22:06:26.749.17-May-2020 4937.01 2932.20 67.67 7.00  85.96 2576.47
   22:06:26.949.17-May-2020 4937.01 2931.90 67.67 7.00  86.16 2576.47
   22:06:27.150.17-May-2020 4937.01 2932.08 67.67 7.00  86.36 2576.47
   22:06:27.350.17-May-2020 4937.01 2931.99 67.67 7.00  86.56 2576.47
   22:06:27.550.17-May-2020 4937.01 2932.05 67.67 7.00  86.76 2576.47
   22:06:27.751.17-May-2020 4937.01 2932.07 67.67 7.00  86.96 2576.47
   22:06:27.951.17-May-2020 4937.01 2932.08 67.67 7.00  87.16 2576.47
   22:06:28.151.17-May-2020 4937.01 2932.08 67.67 7.00  87.36 2576.47
   22:06:28.352.17-May-2020 4937.01 2932.14 67.67 7.00  87.56 2576.47
   22:06:28.552.17-May-2020 4937.01 2932.15 67.67 7.00  87.76 2576.47
   22:06:28.752.17-May-2020 4937.01 2932.24 67.67 7.00  87.96 2576.47
   22:06:28.953.17-May-2020 4937.01 2931.95 67.67 7.00  88.16 2576.47
   22:06:29.153.17-May-2020 4937.01 2931.95 67.67 7.00  88.36 2576.47
   22:06:29.354.17-May-2020 4937.01 2932.04 67.67 7.00  88.56 2576.47
   22:06:29.554.17-May-2020 4937.01 2932.17 67.67 7.00  88.76 2576.47
   22:06:29.754.17-May-2020 4937.01 2931.92 67.67 7.00  88.96 2576.47
   22:06:29.955.17-May-2020 4937.01 2932.11 67.67 7.00  89.16 2576.47
   22:06:30.155.17-May-2020 4937.01 2932.11 67.67 7.00  89.36 2576.47
   22:06:30.355.17-May-2020 4937.01 2932.07 67.67 7.00  89.56 2576.47
   22:06:30.556.17-May-2020 4937.01 2932.16 67.67 7.00  89.76 2576.47
   22:06:30.756.17-May-2020 4937.01 2931.93 67.67 7.00  89.97 2576.47
   22:06:30.957.17-May-2020 4937.01 2932.09 67.67 7.00  90.17 2576.47
   22:06:31.157.17-May-2020 4937.01 2932.01 67.67 7.00  90.37 2576.47
   22:06:31.357.17-May-2020 4937.01 2932.07 67.67 7.00  90.57 2576.47
   22:06:31.558.17-May-2020 4937.01 2932.13 67.67 7.00  90.77 2576.47
   22:06:31.758.17-May-2020 4937.01 2931.98 67.67 7.00  90.97 2576.47
   22:06:31.958.17-May-2020 4937.01 2932.09 67.67 7.00  91.17 2576.47
   22:06:32.159.17-May-2020 4937.01 2932.09 67.67 7.00  91.37 2576.47
   22:06:32.359.17-May-2020 4937.01 2932.07 67.67 7.00  91.57 2576.47
   22:06:32.559.17-May-2020 4937.01 2932.07 67.67 7.00  91.77 2576.47
   22:06:32.760.17-May-2020 4937.01 2932.11 67.67 7.00  91.97 2576.47
