~Version Information
 VERS.                  2.0:   CWLS log ASCII Standard -VERSION 2.0
 WRAP.                   NO:   One line per depth step
~Well Information Block
#MNEM.UNIT     VALUE/NAME     DESCRIPTION
#---------     -----------    ---------------------------
 STRT.S             17:25:16 17-May-20: START TIME 17:25:16 17-May-20
 STOP.S             17:32:20 17-May-20: STOP TIME  17:32:20 17-May-20
 STEP.S                   0.00: STEP TIME
 NULL.                 -999.25: NULL VALUE
 UNIT.                     N/A:  LOGGING EQUIPMENT ID
 DCON.         Sperry Drilling:  DIRECTNL CONTR
 DOE .                     N/A:  DOE NUMBER
 JOBN.        AZ-XX-0906252240:  JOB TICKET NUMB
 MWDS.                     N/A:  MWD SHOP
 PROV.                    Baku:  PROVINCE
 STAT.                    Baku:  STATE NAME
 REGN.                   EESSA:  REGION
 BASE.              Azerbaijan:  LOGGING EQUIPMENT BASE LOCATION
 UWI .                     N/A:  UNIQUE WELL IDENTIFIER
 API .                     N/A:  API NUMBER
 MDS .        Operator Entered:  MAG DATA SOURCE
 WTYP.                Deviated:  WELL TYPE
 COMP.     BP Exploration (Caspian Sea) Ltd.:  COMPANY
 SRVC.          Turan Drilling:  CONTRACTOR
 WELL.           J23 (Slot 07):  WELL NAME
 CTRY.              Azerbaijan:  COUNTRY NAME
 FLD .                     ACG:  FIELD NAME
 PDAT.          Mean Sea Level:  PERMANENT DATUM
 RIG .             West Chirag:  RIG NAME
 SON .        AZ-XX-0906252240:  JOB NUMBER
 FTOP.          Formation Tops:  FORM TOPS DESC
 ILTD.               Lithology:  INTERP LTH DESC
 SVYD.                  Survey:  SURVEY DESC
 DMOD.             Drill Model:  DRILL MOD DESC
 HPTY.       Minimum Curvature:  HOLE POS TYPE
 NREF.                    Grid:  NORTH REFERENCE
 SPUD.               27-Aug-20:  SPUD DATE
 DATE.      00.00.00 19-May-20:  END TIME
 STIM.      03.00.00 25-Mar-20:  START TIME
 DMF .             Drill Floor:  DRILL MEAS FROM
 DFST.                        :  DIST FSL TEXT
 DFWT.                        :  DIST FWL TEXT
 CNTY.                        :  COUNTY
 LOC .                        :  LOCATION
 LMF .             Drill Floor:  LOG MEASURED FROM
 VSNS.m                   9.43:  VERT SEC N/S
 VSEW.m                  -8.91:  VERT SEC E/W
 AGAP.m                  43.00:  AIR GAP
 DEP .m                 354.17:  DEPTH
 APD .m                  43.00:  DEPTH ABOVE PD
 WDMS.m                 169.80:  WD ELEV
 EGL .m                   0.00:  GROUND ELEVATION
 EPD .m                   0.00:  ELEVATION
 AZTC.deg                 6.31:  AZM TOTAL CORR
 GRDC.deg                 0.14:  GRID CORRECTION
 MDEC.deg                 6.45:  MAGNETIC DECL
 MDIP.deg                59.56:  MAGNETIC DIP
 MFLD.nT              50295.00:  MAGNETIC FIELD
 GVFD.g                   1.00:  GRAVITY FIELD
 VSDR.deg               179.88:  VERT SEC DIRECT
 TDD .m                5150.01:  TOTAL DEPTH (DRILLER)
 SDEP.m                 864.00:  START DEPTH
 DFSL.m                   0.00:  DISTANCE FSL
 DFWL.m                   0.00:  DISTANCE FWL
 UTMY.m             4443793.85:  UTM Y
 UTMX.m              519005.06:  UTM X
 WHEW.m                  -8.91:  WELL HEAD E/W
 WHNS.m                   9.43:  WELL HEAD N/S
 LONG.deg                51.22:  LONGITUDE
 LATI.deg                40.13:  LATITUDE
 TVDS.m                  43.00:  TVDSS CORRECTN
 EKB .m                   0.00:  KB ELEVATION
 EDF .m                  43.00:  DF ELEVATION
 TDL .m                 363.00:  TOTAL DEPTH (LOGGER)
 MAGU.                 1850802:  MAGUTM CHECKSUM
 VSC .                       0:  VS TO CLOSURE
~Parameter Information Block
#MNEM.UNIT       Value        Description
#---------     -----------    ---------------------------
 AV  .mps                 2.30:  Ann Velocity 
 AVMX.mps                 4.40:  Max Ann Veloc 
 AZIF.deg               110.24:  Azm, Final 
 BHAT.        Rotary Steerable:  BHA Type 
 BREV.rev               331.00:  Rev Bit Total 
 BROT.°/30m               0.00:  Build Rotating 
 BS  .in                  8.50:  Bit Size 
 BSZ .in                  8.50:  Bit Size 
 BTPL.psig              585.00:  Bit Press Loss 
 CABU.                     Yes:  Customer Abuse 
 COMM.                     |n\:  Run Comments 1 
 TCS .hr                122.75:  Time Ciculation Ended 
 CV  .mps                 2.67:  Crit Velocity 
 CVMX.mps                 3.56:  Max Crit Veloc 
 DD1 .          Rashad Habibov:  Direct Drillr 1 
 DD2 .         Rasim Ibrahimov:  Direct Drillr 2 
 DDSV.               Geo-Pilot:  DD Service 
 DEFF.%                  98.00:  % Det Eff 
 DLRX.°/30m               0.75:  Dogleg Rot Max 
 DLSO.°/30m               1.25:  Dogleg Oriented 
 DLSX.°/30m               2.06:  Dogleg Str Max 
 DRET.      07.45.00 17-May-20:  Drill End Time 
 DRST.      22.50.00 15-May-20:  Drill Start Tim 
 DTIM.hr                 20.75:  Time Drilling 
 EDEP.m                5124.01:  End Depth 
 ENG1.           Eldar Hajiyev:  Engineer 1 
 ENG2.        Marcelo Sandoval:  Engineer 2 
 ENG3.        Davud huseynzada:  Engineer 3 
 ENG4.          Ruslan Safarov:  Engineer 4 
 ETIM.      04.33.00 23-May-20:  End Time 
 FLOI.gpm               450.00:  Flow In 
 FLON.gpm               400.00:  Flow In Min 
 FLOS.cptm                0.00:  Fluid Loss 
 FLOX.gpm               500.00:  Flow In Max 
 FTRO.       Formation Presure:  FTWD Run Obj 
 HFLO.                      No:  High Flow 
 HPRE.                     Yes:  High Pressure 
 HTEM.                      No:  High Temp 
 HYDO.m                   1.80:  Hydro Offset 
 IFIN.deg                75.06:  Inc, Final 
 IMAX.deg                75.38:  Inc Max 
 IMIN.deg                74.69:  Inc Min 
 IMND.m                5027.38:  Inc Min Depth 
 IMXD.m                4771.61:  Inc Max Depth 
 JARR.                      No:  Jarring 
 LETM.      07.45.00 17-May-20:  Log End Time 
 LOST.hr                     0:  Lost Rig Time 
 LSTM.      22.50.00 15-May-20:  Log Start Time 
 MDCL.ppm             42000.00:  Mud Chlorides 
 MDES.     Inversion Oil/Synthetic:  Mud Desc 
 DFD .sg                  1.34:  Mud Density 
 MDMN.sg                  1.34:  Dens Mud Min 
 MDMX.sg                  1.34:  Dens Mud Max 
 MOIL.                       0:  Run Mud Oil % 
 MOWR.                   67:33:  Run Mud OWR 
 MSND.                       0:  Run Mud Sand % 
 MSOL.                     1.8:  Run Mud Solids% 
 DFV .spqt               76.00:  Mud Viscosity 
 MWOD.in                  6.75:  MWD Tool OD 
 MWSI.                      No:  Serv Intrp, MWD 
 OTIM.hr                228.19:  Time Operating 
 PCON.           Look Like New:  Pad Condition 
 PMAX.psia             6164.70:  Press Op, Max 
 PV  .cP                 28.00:  Mud PV 
 RUN .                     900:  Run Number 
 ROPA.m/hr               19.00:  ROP Avg 
 ROPN.m/hr               11.00:  ROP Min 
 ROPX.m/hr               36.00:  ROP Max 
 RPMA.rpm               120.00:  RPM Surface Avg 
 RPMN.rpm               120.00:  RPM Surface Min 
 RPMX.rpm               120.00:  RPM Surface Max 
 RRUN.                    L604:  Rig Run Number 
 RTIM.hr                  7.00:  Time Reaming 
 SAZI.deg               109.27:  Azm, Start 
 SDEP.m                4761.01:  Start Depth 
 SIDD.                      No:  Serv Intrp, DD 
 SINC.deg                75.38:  Inc, Start 
 SPPA.psig             3574.00:  SPP Avg 
 SPPN.psig             3475.00:  SPP Min 
 SPPX.psig             3791.00:  SPP Max 
 STIM.      07.08.48 13-May-20:  Start Time 
 SVCS.                 DD, MWD:  Services 
 SVER.                    9.20:  Sperry Version 
 TDAT.m                 363.00:  Tot Depth Attmp 
 TDDF.                      No:  Trip for DD 
 TDLG.m                 363.00:  Tot Depth Loggd 
 TFF .                      No:  Trip for Fail 
 TQAA.f-kp               20.00:  Torque Abs Avg 
 TQAN.f-kp               18.00:  Torque Abs Min 
 TQAX.f-kp               22.00:  Torque Abs Max 
 TRRT.°/30m              -0.35:  Turn Rotating 
 MRT .                    HCIM:  Maximum Recorded Temperature 
 TTMX.degC               92.16:  Max Tool Temp 
 VS01.                90586518:  Virtual Str1 SN 
 VS02.        AZ90560654Z1W1C6:  Virtual Str2 SN 
 VS03.           AZ90610398F11:  Virtual Str3 SN 
 VS04.                90514975:  Virtual Str4 SN 
 VS05.                90514972:  Virtual Str5 SN 
 VS06.     AZ90603282F11V7D1A6:  Virtual Str6 SN 
 WBMN.klb                 7.00:  WOB Min 
 WOBA.klb                12.00:  WOB Avg 
 WOBX.klb                14.00:  WOB Max 
 YP  .lhf2               32.00:  Yield Point 
~Curve Information Block
#MNEM.UNIT                 API CODE     Curve Description
#---------               -----------    ---------------------------
 TIME.HHMMSS            00 000 000 000:  GT Time & Date
 GTDEPTH.m              00 000 000 000:  GT Depth
 GTPQH.psia             00 000 000 000:  GT HR Quartz Pressure
 GTTQ.degC              00 000 000 000:  GT Quartz Temperature
 GTTN.NONE              00 000 000 000:  GT Test Number
 GTET.sec               00 000 000 000:  GT Elapsed Test Time
 GTTVD.m                00 000 000 000:  GT True Vertical Depth
#Other Information
#
#WARRANTY: Halliburton will use its best efforts to furnish customers with 
#accurate information and interpretations that are part of, and incident to, the services 
#provided.  However, Halliburton cannot and does not warrant the accuracy 
#or correctness of such information and interpretations.  Under no circumstances should any 
#such information or interpretation be relied upon as the sole basis for any drilling, 
#completion, production, or financial decision or any procedure involving any risk to the 
#safety of any drilling venture, drilling rig or its crew or any other third party.  The 
#Customer has full responsibility for all drilling, completion and production operation.  
#Halliburton makes no representations or warranties, either expressed or 
#implied, including, but not limited to, the implied warranties of merchantability or fitness 
#for a particular purpose, with respect to the services rendered.  In no event will 
#Halliburton be liable for failure to obtain any particular results or for 
#any damages, including, but not limited to, indirect, special or consequential damages, 
#resulting from the use of any information or interpretation provided by Halliburton.
#
~A           TIME           GTDEPTH  GTPQH  GTTQ  GTTN  GTET   GTTVD  
# ...
   17:27:57.469.17-May-2020 5032.01 2610.41 70.61 3.00 161.15 2600.96
   17:27:57.669.17-May-2020 5032.01 2610.41 70.61 3.00 161.35 2600.96
   17:27:57.870.17-May-2020 5032.01 2611.33 70.61 3.00 161.55 2600.96
   17:27:58.070.17-May-2020 5032.01 2610.91 70.61 3.00 161.75 2600.96
   17:27:58.270.17-May-2020 5032.01 2610.61 70.61 3.00 161.95 2600.96
   17:27:58.470.17-May-2020 5032.01 2610.29 70.61 3.00 162.15 2600.96
   17:27:58.670.17-May-2020 5032.01 2610.29 70.61 3.00 162.35 2600.96
   17:27:58.871.17-May-2020 5032.01 2610.22 70.61 3.00 162.55 2600.96
   17:27:59.071.17-May-2020 5032.01 2610.84 70.61 3.00 162.75 2600.96
   17:27:59.271.17-May-2020 5032.01 2611.07 70.61 3.00 162.95 2600.96
   17:27:59.471.17-May-2020 5032.01 2620.27 70.60 3.00 163.15 2600.96
   17:27:59.671.17-May-2020 5032.01 2620.27 70.60 3.00 163.35 2600.96
   17:27:59.871.17-May-2020 5032.01 2637.29 70.60 3.00 163.55 2600.96
   17:28:00.072.17-May-2020 5032.01 2637.38 70.60 3.00 163.75 2600.96
   17:28:00.272.17-May-2020 5032.01 2637.43 70.60 3.00 163.95 2600.96
   17:28:00.472.17-May-2020 5032.01 2637.82 70.60 3.00 164.15 2600.96
   17:28:00.672.17-May-2020 5032.01 2637.82 70.60 3.00 164.35 2600.96
   17:28:00.872.17-May-2020 5032.01 2637.68 70.60 3.00 164.55 2600.96
   17:28:01.073.17-May-2020 5032.01 2637.86 70.60 3.00 164.75 2600.96
   17:28:01.273.17-May-2020 5032.01 2638.00 70.60 3.00 164.95 2600.96
   17:28:01.473.17-May-2020 5032.01 2637.75 70.60 3.00 165.15 2600.96
   17:28:01.673.17-May-2020 5032.01 2637.75 70.60 3.00 165.35 2600.96
   17:28:01.873.17-May-2020 5032.01 2637.97 70.60 3.00 165.55 2600.96
   17:28:02.074.17-May-2020 5032.01 2637.97 70.60 3.00 165.76 2600.96
   17:28:02.274.17-May-2020 5032.01 2637.89 70.60 3.00 165.96 2600.96
   17:28:02.474.17-May-2020 5032.01 2638.14 70.60 3.00 166.16 2600.96
   17:28:02.674.17-May-2020 5032.01 2638.14 70.60 3.00 166.36 2600.96
   17:28:02.874.17-May-2020 5032.01 2637.87 70.60 3.00 166.56 2600.96
   17:28:03.074.17-May-2020 5032.01 2638.00 70.60 3.00 166.76 2600.96
   17:28:03.275.17-May-2020 5032.01 2637.92 70.60 3.00 166.96 2600.96
   17:28:03.475.17-May-2020 5032.01 2637.92 70.60 3.00 167.16 2600.96
   17:28:03.675.17-May-2020 5032.01 2637.92 70.60 3.00 167.36 2600.96
   17:28:03.875.17-May-2020 5032.01 2637.91 70.60 3.00 167.56 2600.96
   17:28:04.075.17-May-2020 5032.01 2637.93 70.60 3.00 167.76 2600.96
   17:28:04.276.17-May-2020 5032.01 2637.94 70.60 3.00 167.96 2600.96
   17:28:04.476.17-May-2020 5032.01 2637.88 70.60 3.00 168.16 2600.96
   17:28:04.676.17-May-2020 5032.01 2637.88 70.60 3.00 168.36 2600.96
   17:28:04.876.17-May-2020 5032.01 2638.16 70.60 3.00 168.56 2600.96
   17:28:05.076.17-May-2020 5032.01 2637.92 70.60 3.00 168.76 2600.96
   17:28:05.276.17-May-2020 5032.01 2637.97 70.60 3.00 168.96 2600.96
   17:28:05.477.17-May-2020 5032.01 2638.00 70.60 3.00 169.16 2600.96
   17:28:05.677.17-May-2020 5032.01 2638.00 70.60 3.00 169.36 2600.96
   17:28:05.877.17-May-2020 5032.01 2637.95 70.60 3.00 169.56 2600.96
   17:28:06.077.17-May-2020 5032.01 2637.96 70.60 3.00 169.76 2600.96
   17:28:06.277.17-May-2020 5032.01 2637.95 70.60 3.00 169.96 2600.96
   17:28:06.478.17-May-2020 5032.01 2637.96 70.60 3.00 170.16 2600.96
   17:28:06.678.17-May-2020 5032.01 2637.96 70.60 3.00 170.36 2600.96
   17:28:06.878.17-May-2020 5032.01 2638.07 70.60 3.00 170.56 2600.96
   17:28:07.078.17-May-2020 5032.01 2637.97 70.60 3.00 170.76 2600.96
   17:28:07.278.17-May-2020 5032.01 2637.97 70.60 3.00 170.96 2600.96
   17:28:07.479.17-May-2020 5032.01 2638.14 70.60 3.00 171.16 2600.96
   17:28:07.679.17-May-2020 5032.01 2638.14 70.60 3.00 171.36 2600.96
   17:28:07.879.17-May-2020 5032.01 2637.92 70.60 3.00 171.56 2600.96
   17:28:08.079.17-May-2020 5032.01 2638.07 70.60 3.00 171.76 2600.96
   17:28:08.279.17-May-2020 5032.01 2638.18 70.60 3.00 171.96 2600.96
   17:28:08.479.17-May-2020 5032.01 2638.00 70.60 3.00 172.16 2600.96
   17:28:08.680.17-May-2020 5032.01 2637.95 70.60 3.00 172.36 2600.96
   17:28:08.880.17-May-2020 5032.01 2638.09 70.60 3.00 172.56 2600.96
   17:28:09.080.17-May-2020 5032.01 2638.13 70.60 3.00 172.76 2600.96
   17:28:09.280.17-May-2020 5032.01 2638.01 70.60 3.00 172.96 2600.96
   17:28:09.480.17-May-2020 5032.01 2637.97 70.60 3.00 173.16 2600.96
   17:28:09.681.17-May-2020 5032.01 2637.97 70.60 3.00 173.36 2600.96
   17:28:09.881.17-May-2020 5032.01 2638.03 70.60 3.00 173.56 2600.96
   17:28:10.081.17-May-2020 5032.01 2638.00 70.60 3.00 173.76 2600.96
   17:28:10.281.17-May-2020 5032.01 2637.99 70.60 3.00 173.96 2600.96
   17:28:10.481.17-May-2020 5032.01 2637.98 70.60 3.00 174.16 2600.96
   17:28:10.682.17-May-2020 5032.01 2637.98 70.60 3.00 174.36 2600.96
   17:28:10.882.17-May-2020 5032.01 2637.99 70.60 3.00 174.56 2600.96
   17:28:11.082.17-May-2020 5032.01 2638.14 70.60 3.00 174.76 2600.96
   17:28:11.282.17-May-2020 5032.01 2638.01 70.60 3.00 174.96 2600.96
   17:28:11.482.17-May-2020 5032.01 2637.95 70.60 3.00 175.16 2600.96
   17:28:11.682.17-May-2020 5032.01 2637.95 70.60 3.00 175.36 2600.96
   17:28:11.883.17-May-2020 5032.01 2637.98 70.59 3.00 175.56 2600.96
   17:28:12.083.17-May-2020 5032.01 2637.97 70.60 3.00 175.76 2600.96
   17:28:12.283.17-May-2020 5032.01 2638.00 70.59 3.00 175.96 2600.96
   17:28:12.483.17-May-2020 5032.01 2637.97 70.59 3.00 176.16 2600.96
   17:28:12.683.17-May-2020 5032.01 2637.98 70.59 3.00 176.36 2600.96
   17:28:12.884.17-May-2020 5032.01 2637.99 70.59 3.00 176.57 2600.96
   17:28:13.084.17-May-2020 5032.01 2638.06 70.59 3.00 176.77 2600.96
   17:28:13.284.17-May-2020 5032.01 2638.15 70.59 3.00 176.97 2600.96
   17:28:13.484.17-May-2020 5032.01 2637.92 70.59 3.00 177.17 2600.96
   17:28:13.684.17-May-2020 5032.01 2637.92 70.59 3.00 177.37 2600.96
   17:28:13.885.17-May-2020 5032.01 2638.13 70.59 3.00 177.57 2600.96
   17:28:14.085.17-May-2020 5032.01 2638.04 70.59 3.00 177.77 2600.96
   17:28:14.285.17-May-2020 5032.01 2637.98 70.59 3.00 177.97 2600.96
   17:28:14.485.17-May-2020 5032.01 2637.99 70.59 3.00 178.17 2600.96
   17:28:14.685.17-May-2020 5032.01 2637.99 70.59 3.00 178.37 2600.96
   17:28:14.885.17-May-2020 5032.01 2638.04 70.59 3.00 178.57 2600.96
   17:28:15.086.17-May-2020 5032.01 2637.92 70.59 3.00 178.77 2600.96
   17:28:15.286.17-May-2020 5032.01 2638.04 70.59 3.00 178.97 2600.96
   17:28:15.486.17-May-2020 5032.01 2638.08 70.59 3.00 179.17 2600.96
   17:28:15.686.17-May-2020 5032.01 2638.08 70.59 3.00 179.37 2600.96
   17:28:15.886.17-May-2020 5032.01 2638.00 70.59 3.00 179.57 2600.96
   17:28:16.087.17-May-2020 5032.01 2638.02 70.59 3.00 179.77 2600.96
   17:28:16.287.17-May-2020 5032.01 2637.97 70.59 3.00 179.97 2600.96
   17:28:16.487.17-May-2020 5032.01 2638.00 70.59 3.00 180.17 2600.96
   17:28:16.687.17-May-2020 5032.01 2638.00 70.59 3.00 180.37 2600.96
   17:28:16.887.17-May-2020 5032.01 2637.99 70.59 3.00 180.57 2600.96
   17:28:17.088.17-May-2020 5032.01 2637.98 70.59 3.00 180.77 2600.96
   17:28:17.288.17-May-2020 5032.01 2638.00 70.59 3.00 180.97 2600.96
   17:28:17.488.17-May-2020 5032.01 2637.98 70.59 3.00 181.17 2600.96
   17:28:17.688.17-May-2020 5032.01 2637.98 70.59 3.00 181.37 2600.96
   17:28:17.888.17-May-2020 5032.01 2638.00 70.59 3.00 181.57 2600.96
   17:28:18.088.17-May-2020 5032.01 2637.96 70.59 3.00 181.77 2600.96
   17:28:18.289.17-May-2020 5032.01 2638.01 70.59 3.00 181.97 2600.96
   17:28:18.489.17-May-2020 5032.01 2638.04 70.59 3.00 182.17 2600.96
   17:28:18.689.17-May-2020 5032.01 2638.04 70.59 3.00 182.37 2600.96
   17:28:18.889.17-May-2020 5032.01 2637.98 70.59 3.00 182.57 2600.96
   17:28:19.089.17-May-2020 5032.01 2637.99 70.59 3.00 182.77 2600.96
   17:28:19.290.17-May-2020 5032.01 2637.99 70.59 3.00 182.97 2600.96
   17:28:19.490.17-May-2020 5032.01 2637.95 70.59 3.00 183.17 2600.96
   17:28:19.690.17-May-2020 5032.01 2637.95 70.59 3.00 183.37 2600.96
   17:28:19.890.17-May-2020 5032.01 2638.15 70.59 3.00 183.57 2600.96
   17:28:20.090.17-May-2020 5032.01 2637.94 70.59 3.00 183.77 2600.96
   17:28:20.291.17-May-2020 5032.01 2638.20 70.59 3.00 183.97 2600.96
