~Version Information
 VERS.                  2.0:   CWLS log ASCII Standard -VERSION 2.0
 WRAP.                   NO:   One line per depth step
~Well Information Block
#MNEM.UNIT     VALUE/NAME     DESCRIPTION
#---------     -----------    ---------------------------
 STRT.S             22:05:00 17-May-20: START TIME 22:05:00 17-May-20
 STOP.S             22:12:03 17-May-20: STOP TIME  22:12:03 17-May-20
 STEP.S                   0.00: STEP TIME
 NULL.                 -999.25: NULL VALUE
 UNIT.                     N/A:  LOGGING EQUIPMENT ID
 DCON.         Sperry Drilling:  DIRECTNL CONTR
 DOE .                     N/A:  DOE NUMBER
 JOBN.        AZ-XX-0906252240:  JOB TICKET NUMB
 MWDS.                     N/A:  MWD SHOP
 PROV.                    Baku:  PROVINCE
 STAT.                    Baku:  STATE NAME
 REGN.                   EESSA:  REGION
 BASE.              Azerbaijan:  LOGGING EQUIPMENT BASE LOCATION
 UWI .                     N/A:  UNIQUE WELL IDENTIFIER
 API .                     N/A:  API NUMBER
 MDS .        Operator Entered:  MAG DATA SOURCE
 WTYP.                Deviated:  WELL TYPE
 COMP.     BP Exploration (Caspian Sea) Ltd.:  COMPANY
 SRVC.          Turan Drilling:  CONTRACTOR
 WELL.           J23 (Slot 07):  WELL NAME
 CTRY.              Azerbaijan:  COUNTRY NAME
 FLD .                     ACG:  FIELD NAME
 PDAT.          Mean Sea Level:  PERMANENT DATUM
 RIG .             West Chirag:  RIG NAME
 SON .        AZ-XX-0906252240:  JOB NUMBER
 FTOP.          Formation Tops:  FORM TOPS DESC
 ILTD.               Lithology:  INTERP LTH DESC
 SVYD.                  Survey:  SURVEY DESC
 DMOD.             Drill Model:  DRILL MOD DESC
 HPTY.       Minimum Curvature:  HOLE POS TYPE
 NREF.                    Grid:  NORTH REFERENCE
 SPUD.               27-Aug-20:  SPUD DATE
 DATE.      00.00.00 19-May-20:  END TIME
 STIM.      03.00.00 25-Mar-20:  START TIME
 DMF .             Drill Floor:  DRILL MEAS FROM
 DFST.                        :  DIST FSL TEXT
 DFWT.                        :  DIST FWL TEXT
 CNTY.                        :  COUNTY
 LOC .                        :  LOCATION
 LMF .             Drill Floor:  LOG MEASURED FROM
 VSNS.m                   9.43:  VERT SEC N/S
 VSEW.m                  -8.91:  VERT SEC E/W
 AGAP.m                  43.00:  AIR GAP
 DEP .m                 354.17:  DEPTH
 APD .m                  43.00:  DEPTH ABOVE PD
 WDMS.m                 169.80:  WD ELEV
 EGL .m                   0.00:  GROUND ELEVATION
 EPD .m                   0.00:  ELEVATION
 AZTC.deg                 6.31:  AZM TOTAL CORR
 GRDC.deg                 0.14:  GRID CORRECTION
 MDEC.deg                 6.45:  MAGNETIC DECL
 MDIP.deg                59.56:  MAGNETIC DIP
 MFLD.nT              50295.00:  MAGNETIC FIELD
 GVFD.g                   1.00:  GRAVITY FIELD
 VSDR.deg               179.88:  VERT SEC DIRECT
 TDD .m                5150.01:  TOTAL DEPTH (DRILLER)
 SDEP.m                 864.00:  START DEPTH
 DFSL.m                   0.00:  DISTANCE FSL
 DFWL.m                   0.00:  DISTANCE FWL
 UTMY.m             4443793.85:  UTM Y
 UTMX.m              519005.06:  UTM X
 WHEW.m                  -8.91:  WELL HEAD E/W
 WHNS.m                   9.43:  WELL HEAD N/S
 LONG.deg                51.22:  LONGITUDE
 LATI.deg                40.13:  LATITUDE
 TVDS.m                  43.00:  TVDSS CORRECTN
 EKB .m                   0.00:  KB ELEVATION
 EDF .m                  43.00:  DF ELEVATION
 TDL .m                 363.00:  TOTAL DEPTH (LOGGER)
 MAGU.                 1850802:  MAGUTM CHECKSUM
 VSC .                       0:  VS TO CLOSURE
~Parameter Information Block
#MNEM.UNIT       Value        Description
#---------     -----------    ---------------------------
 AV  .mps                 2.30:  Ann Velocity 
 AVMX.mps                 4.40:  Max Ann Veloc 
 AZIF.deg               110.24:  Azm, Final 
 BHAT.        Rotary Steerable:  BHA Type 
 BREV.rev               331.00:  Rev Bit Total 
 BROT.°/30m               0.00:  Build Rotating 
 BS  .in                  8.50:  Bit Size 
 BSZ .in                  8.50:  Bit Size 
 BTPL.psig              585.00:  Bit Press Loss 
 CABU.                     Yes:  Customer Abuse 
 COMM.                     íe:  Run Comments 1 
 TCS .hr                122.75:  Time Ciculation Ended 
 CV  .mps                 2.67:  Crit Velocity 
 CVMX.mps                 3.56:  Max Crit Veloc 
 DD1 .          Rashad Habibov:  Direct Drillr 1 
 DD2 .         Rasim Ibrahimov:  Direct Drillr 2 
 DDSV.               Geo-Pilot:  DD Service 
 DEFF.%                  98.00:  % Det Eff 
 DLRX.°/30m               0.75:  Dogleg Rot Max 
 DLSO.°/30m               1.25:  Dogleg Oriented 
 DLSX.°/30m               2.06:  Dogleg Str Max 
 DRET.      07.45.00 17-May-20:  Drill End Time 
 DRST.      22.50.00 15-May-20:  Drill Start Tim 
 DTIM.hr                 20.75:  Time Drilling 
 EDEP.m                5124.01:  End Depth 
 ENG1.           Eldar Hajiyev:  Engineer 1 
 ENG2.        Marcelo Sandoval:  Engineer 2 
 ENG3.        Davud huseynzada:  Engineer 3 
 ENG4.          Ruslan Safarov:  Engineer 4 
 ETIM.      04.33.00 23-May-20:  End Time 
 FLOI.gpm               450.00:  Flow In 
 FLON.gpm               400.00:  Flow In Min 
 FLOS.cptm                0.00:  Fluid Loss 
 FLOX.gpm               500.00:  Flow In Max 
 FTRO.       Formation Presure:  FTWD Run Obj 
 HFLO.                      No:  High Flow 
 HPRE.                     Yes:  High Pressure 
 HTEM.                      No:  High Temp 
 HYDO.m                   1.80:  Hydro Offset 
 IFIN.deg                75.06:  Inc, Final 
 IMAX.deg                75.38:  Inc Max 
 IMIN.deg                74.69:  Inc Min 
 IMND.m                5027.38:  Inc Min Depth 
 IMXD.m                4771.61:  Inc Max Depth 
 JARR.                      No:  Jarring 
 LETM.      07.45.00 17-May-20:  Log End Time 
 LOST.hr                     0:  Lost Rig Time 
 LSTM.      22.50.00 15-May-20:  Log Start Time 
 MDCL.ppm             42000.00:  Mud Chlorides 
 MDES.     Inversion Oil/Synthetic:  Mud Desc 
 DFD .sg                  1.34:  Mud Density 
 MDMN.sg                  1.34:  Dens Mud Min 
 MDMX.sg                  1.34:  Dens Mud Max 
 MOIL.                       0:  Run Mud Oil % 
 MOWR.                   67:33:  Run Mud OWR 
 MSND.                       0:  Run Mud Sand % 
 MSOL.                     1.8:  Run Mud Solids% 
 DFV .spqt               76.00:  Mud Viscosity 
 MWOD.in                  6.75:  MWD Tool OD 
 MWSI.                      No:  Serv Intrp, MWD 
 OTIM.hr                228.19:  Time Operating 
 PCON.           Look Like New:  Pad Condition 
 PMAX.psia             6164.70:  Press Op, Max 
 PV  .cP                 28.00:  Mud PV 
 RUN .                     900:  Run Number 
 ROPA.m/hr               19.00:  ROP Avg 
 ROPN.m/hr               11.00:  ROP Min 
 ROPX.m/hr               36.00:  ROP Max 
 RPMA.rpm               120.00:  RPM Surface Avg 
 RPMN.rpm               120.00:  RPM Surface Min 
 RPMX.rpm               120.00:  RPM Surface Max 
 RRUN.                    L604:  Rig Run Number 
 RTIM.hr                  7.00:  Time Reaming 
 SAZI.deg               109.27:  Azm, Start 
 SDEP.m                4761.01:  Start Depth 
 SIDD.                      No:  Serv Intrp, DD 
 SINC.deg                75.38:  Inc, Start 
 SPPA.psig             3574.00:  SPP Avg 
 SPPN.psig             3475.00:  SPP Min 
 SPPX.psig             3791.00:  SPP Max 
 STIM.      07.08.48 13-May-20:  Start Time 
 SVCS.                 DD, MWD:  Services 
 SVER.                    9.20:  Sperry Version 
 TDAT.m                 363.00:  Tot Depth Attmp 
 TDDF.                      No:  Trip for DD 
 TDLG.m                 363.00:  Tot Depth Loggd 
 TFF .                      No:  Trip for Fail 
 TQAA.f-kp               20.00:  Torque Abs Avg 
 TQAN.f-kp               18.00:  Torque Abs Min 
 TQAX.f-kp               22.00:  Torque Abs Max 
 TRRT.°/30m              -0.35:  Turn Rotating 
 MRT .                    HCIM:  Maximum Recorded Temperature 
 TTMX.degC               92.16:  Max Tool Temp 
 VS01.                90586518:  Virtual Str1 SN 
 VS02.        AZ90560654Z1W1C6:  Virtual Str2 SN 
 VS03.           AZ90610398F11:  Virtual Str3 SN 
 VS04.                90514975:  Virtual Str4 SN 
 VS05.                90514972:  Virtual Str5 SN 
 VS06.     AZ90603282F11V7D1A6:  Virtual Str6 SN 
 WBMN.klb                 7.00:  WOB Min 
 WOBA.klb                12.00:  WOB Avg 
 WOBX.klb                14.00:  WOB Max 
 YP  .lhf2               32.00:  Yield Point 
~Curve Information Block
#MNEM.UNIT                 API CODE     Curve Description
#---------               -----------    ---------------------------
 TIME.HHMMSS            00 000 000 000:  GT Time & Date
 GTDEPTH.m              00 000 000 000:  GT Depth
 GTPQH.psia             00 000 000 000:  GT HR Quartz Pressure
 GTTQ.degC              00 000 000 000:  GT Quartz Temperature
 GTTN.NONE              00 000 000 000:  GT Test Number
 GTET.sec               00 000 000 000:  GT Elapsed Test Time
 GTTVD.m                00 000 000 000:  GT True Vertical Depth
#Other Information
#
#WARRANTY: Halliburton will use its best efforts to furnish customers with 
#accurate information and interpretations that are part of, and incident to, the services 
#provided.  However, Halliburton cannot and does not warrant the accuracy 
#or correctness of such information and interpretations.  Under no circumstances should any 
#such information or interpretation be relied upon as the sole basis for any drilling, 
#completion, production, or financial decision or any procedure involving any risk to the 
#safety of any drilling venture, drilling rig or its crew or any other third party.  The 
#Customer has full responsibility for all drilling, completion and production operation.  
#Halliburton makes no representations or warranties, either expressed or 
#implied, including, but not limited to, the implied warranties of merchantability or fitness 
#for a particular purpose, with respect to the services rendered.  In no event will 
#Halliburton be liable for failure to obtain any particular results or for 
#any damages, including, but not limited to, indirect, special or consequential damages, 
#resulting from the use of any information or interpretation provided by Halliburton.
#
~A           TIME           GTDEPTH  GTPQH  GTTQ  GTTN  GTET   GTTVD  
# ...
   22:10:23.383.17-May-2020 4937.01 2931.99 67.62 7.00 322.59 2576.47
   22:10:23.583.17-May-2020 4937.01 2931.99 67.62 7.00 322.79 2576.47
   22:10:23.784.17-May-2020 4937.01 2931.99 67.62 7.00 322.99 2576.47
   22:10:23.984.17-May-2020 4937.01 2931.97 67.62 7.00 323.19 2576.47
   22:10:24.184.17-May-2020 4937.01 2932.04 67.62 7.00 323.39 2576.47
   22:10:24.385.17-May-2020 4937.01 2931.99 67.62 7.00 323.59 2576.47
   22:10:24.585.17-May-2020 4937.01 2931.99 67.62 7.00 323.79 2576.47
   22:10:24.785.17-May-2020 4937.01 2932.10 67.62 7.00 323.99 2576.47
   22:10:24.986.17-May-2020 4937.01 2931.90 67.62 7.00 324.19 2576.47
   22:10:25.186.17-May-2020 4937.01 2932.02 67.62 7.00 324.40 2576.47
   22:10:25.386.17-May-2020 4937.01 2931.97 67.62 7.00 324.60 2576.47
   22:10:25.587.17-May-2020 4937.01 2931.97 67.62 7.00 324.80 2576.47
   22:10:25.787.17-May-2020 4937.01 2932.09 67.62 7.00 325.00 2576.47
   22:10:25.988.17-May-2020 4937.01 2931.90 67.62 7.00 325.20 2576.47
   22:10:26.188.17-May-2020 4937.01 2932.03 67.62 7.00 325.40 2576.47
   22:10:26.388.17-May-2020 4937.01 2931.97 67.62 7.00 325.60 2576.47
   22:10:26.589.17-May-2020 4937.01 2931.97 67.62 7.00 325.80 2576.47
   22:10:26.789.17-May-2020 4937.01 2932.08 67.62 7.00 326.00 2576.47
   22:10:26.989.17-May-2020 4937.01 2931.92 67.62 7.00 326.20 2576.47
   22:10:27.190.17-May-2020 4937.01 2932.06 67.62 7.00 326.40 2576.47
   22:10:27.390.17-May-2020 4937.01 2931.95 67.62 7.00 326.60 2576.47
   22:10:27.591.17-May-2020 4937.01 2931.99 67.62 7.00 326.80 2576.47
   22:10:27.791.17-May-2020 4937.01 2931.97 67.62 7.00 327.00 2576.47
   22:10:27.991.17-May-2020 4937.01 2931.99 67.62 7.00 327.20 2576.47
   22:10:28.192.17-May-2020 4937.01 2931.98 67.62 7.00 327.40 2576.47
   22:10:28.392.17-May-2020 4937.01 2931.98 67.62 7.00 327.60 2576.47
   22:10:28.592.17-May-2020 4937.01 2931.98 67.62 7.00 327.80 2576.47
   22:10:28.793.17-May-2020 4937.01 2931.98 67.62 7.00 328.00 2576.47
   22:10:28.993.17-May-2020 4937.01 2931.99 67.62 7.00 328.20 2576.47
   22:10:29.193.17-May-2020 4937.01 2932.00 67.62 7.00 328.40 2576.47
   22:10:29.394.17-May-2020 4937.01 2932.07 67.62 7.00 328.60 2576.47
   22:10:29.594.17-May-2020 4937.01 2932.07 67.62 7.00 328.80 2576.47
   22:10:29.795.17-May-2020 4937.01 2931.99 67.62 7.00 329.00 2576.47
   22:10:29.995.17-May-2020 4937.01 2931.98 67.62 7.00 329.20 2576.47
   22:10:30.195.17-May-2020 4937.01 2931.98 67.62 7.00 329.40 2576.47
   22:10:30.396.17-May-2020 4937.01 2931.99 67.62 7.00 329.60 2576.47
   22:10:30.596.17-May-2020 4937.01 2931.99 67.62 7.00 329.80 2576.47
   22:10:30.796.17-May-2020 4937.01 2931.99 67.62 7.00 330.01 2576.47
   22:10:30.997.17-May-2020 4937.01 2932.08 67.62 7.00 330.21 2576.47
   22:10:31.197.17-May-2020 4937.01 2931.92 67.62 7.00 330.41 2576.47
   22:10:31.398.17-May-2020 4937.01 2932.07 67.62 7.00 330.61 2576.47
   22:10:31.598.17-May-2020 4937.01 2931.96 67.62 7.00 330.81 2576.47
   22:10:31.798.17-May-2020 4937.01 2932.08 67.62 7.00 331.01 2576.47
   22:10:31.999.17-May-2020 4937.01 2931.92 67.62 7.00 331.21 2576.47
   22:10:32.199.17-May-2020 4937.01 2932.07 67.62 7.00 331.41 2576.47
   22:10:32.399.17-May-2020 4937.01 2931.96 67.62 7.00 331.61 2576.47
   22:10:32.600.17-May-2020 4937.01 2931.96 67.62 7.00 331.81 2576.47
   22:10:32.800.17-May-2020 4937.01 2932.00 67.62 7.00 332.01 2576.47
   22:10:33.000.17-May-2020 4937.01 2931.98 67.62 7.00 332.21 2576.47
   22:10:33.201.17-May-2020 4937.01 2932.06 67.62 7.00 332.41 2576.47
   22:10:33.401.17-May-2020 4937.01 2931.96 67.62 7.00 332.61 2576.47
   22:10:33.602.17-May-2020 4937.01 2931.96 67.62 7.00 332.81 2576.47
   22:10:33.802.17-May-2020 4937.01 2932.02 67.62 7.00 333.01 2576.47
   22:10:34.002.17-May-2020 4937.01 2931.98 67.62 7.00 333.21 2576.47
   22:10:34.203.17-May-2020 4937.01 2932.02 67.62 7.00 333.41 2576.47
   22:10:34.403.17-May-2020 4937.01 2931.98 67.62 7.00 333.61 2576.47
   22:10:34.603.17-May-2020 4937.01 2931.98 67.62 7.00 333.81 2576.47
   22:10:34.804.17-May-2020 4937.01 2931.98 67.62 7.00 334.01 2576.47
   22:10:35.004.17-May-2020 4937.01 2931.99 67.62 7.00 334.21 2576.47
   22:10:35.204.17-May-2020 4937.01 2931.98 67.62 7.00 334.41 2576.47
   22:10:35.405.17-May-2020 4937.01 2931.98 67.62 7.00 334.61 2576.47
   22:10:35.605.17-May-2020 4937.01 2931.99 67.62 7.00 334.81 2576.47
   22:10:35.806.17-May-2020 4937.01 2932.10 67.62 7.00 335.01 2576.47
   22:10:36.006.17-May-2020 4937.01 2931.89 67.62 7.00 335.21 2576.47
   22:10:36.206.17-May-2020 4937.01 2932.05 67.62 7.00 335.42 2576.47
   22:10:36.407.17-May-2020 4937.01 2931.96 67.62 7.00 335.62 2576.47
   22:10:36.607.17-May-2020 4937.01 2931.96 67.62 7.00 335.82 2576.47
   22:10:36.807.17-May-2020 4937.01 2931.99 67.62 7.00 336.02 2576.47
   22:10:37.008.17-May-2020 4937.01 2931.98 67.62 7.00 336.22 2576.47
   22:10:37.208.17-May-2020 4937.01 2931.99 67.62 7.00 336.42 2576.47
   22:10:37.409.17-May-2020 4937.01 2931.98 67.62 7.00 336.62 2576.47
   22:10:37.609.17-May-2020 4937.01 2931.98 67.62 7.00 336.82 2576.47
   22:10:37.809.17-May-2020 4937.01 2931.97 67.62 7.00 337.02 2576.47
   22:10:38.010.17-May-2020 4937.01 2932.04 67.62 7.00 337.22 2576.47
   22:10:38.210.17-May-2020 4937.01 2932.00 67.61 7.00 337.42 2576.47
   22:10:38.410.17-May-2020 4937.01 2932.02 67.62 7.00 337.62 2576.47
   22:10:38.611.17-May-2020 4937.01 2932.02 67.62 7.00 337.82 2576.47
   22:10:38.811.17-May-2020 4937.01 2931.91 67.61 7.00 338.02 2576.47
   22:10:39.011.17-May-2020 4937.01 2932.02 67.61 7.00 338.22 2576.47
   22:10:39.212.17-May-2020 4937.01 2931.98 67.61 7.00 338.42 2576.47
   22:10:39.412.17-May-2020 4937.01 2932.00 67.61 7.00 338.62 2576.47
   22:10:39.613.17-May-2020 4937.01 2932.11 67.61 7.00 338.82 2576.47
   22:10:39.813.17-May-2020 4937.01 2931.89 67.61 7.00 339.02 2576.47
   22:10:40.013.17-May-2020 4937.01 2932.03 67.61 7.00 339.22 2576.47
   22:10:40.214.17-May-2020 4937.01 2931.98 67.61 7.00 339.42 2576.47
   22:10:40.414.17-May-2020 4937.01 2932.00 67.61 7.00 339.62 2576.47
   22:10:40.614.17-May-2020 4937.01 2932.00 67.61 7.00 339.82 2576.47
   22:10:40.815.17-May-2020 4937.01 2931.93 67.61 7.00 340.02 2576.47
   22:10:41.015.17-May-2020 4937.01 2932.06 67.61 7.00 340.22 2576.47
   22:10:41.216.17-May-2020 4937.01 2931.95 67.61 7.00 340.42 2576.47
   22:10:41.416.17-May-2020 4937.01 2932.00 67.61 7.00 340.62 2576.47
   22:10:41.616.17-May-2020 4937.01 2932.00 67.61 7.00 340.83 2576.47
   22:10:41.817.17-May-2020 4937.01 2931.98 67.61 7.00 341.03 2576.47
   22:10:42.017.17-May-2020 4937.01 2931.98 67.61 7.00 341.23 2576.47
   22:10:42.217.17-May-2020 4937.01 2931.98 67.61 7.00 341.43 2576.47
   22:10:42.418.17-May-2020 4937.01 2931.98 67.61 7.00 341.63 2576.47
   22:10:42.618.17-May-2020 4937.01 2931.98 67.61 7.00 341.83 2576.47
   22:10:42.818.17-May-2020 4937.01 2931.99 67.61 7.00 342.03 2576.47
   22:10:43.019.17-May-2020 4937.01 2932.00 67.61 7.00 342.23 2576.47
   22:10:43.219.17-May-2020 4937.01 2932.06 67.61 7.00 342.43 2576.47
   22:10:43.420.17-May-2020 4937.01 2931.95 67.61 7.00 342.63 2576.47
   22:10:43.620.17-May-2020 4937.01 2931.95 67.61 7.00 342.83 2576.47
   22:10:43.820.17-May-2020 4937.01 2931.97 67.61 7.00 343.03 2576.47
   22:10:44.021.17-May-2020 4937.01 2931.98 67.61 7.00 343.23 2576.47
   22:10:44.221.17-May-2020 4937.01 2931.99 67.61 7.00 343.43 2576.47
   22:10:44.421.17-May-2020 4937.01 2931.98 67.61 7.00 343.63 2576.47
   22:10:44.622.17-May-2020 4937.01 2931.98 67.61 7.00 343.83 2576.47
   22:10:44.822.17-May-2020 4937.01 2932.08 67.61 7.00 344.03 2576.47
   22:10:45.023.17-May-2020 4937.01 2931.93 67.61 7.00 344.23 2576.47
   22:10:45.223.17-May-2020 4937.01 2932.06 67.61 7.00 344.43 2576.47
   22:10:45.423.17-May-2020 4937.01 2931.95 67.61 7.00 344.63 2576.47
   22:10:45.624.17-May-2020 4937.01 2931.95 67.61 7.00 344.83 2576.47
   22:10:45.824.17-May-2020 4937.01 2931.92 67.61 7.00 345.03 2576.47
   22:10:46.024.17-May-2020 4937.01 2932.08 67.61 7.00 345.23 2576.47
   22:10:46.225.17-May-2020 4937.01 2931.94 67.61 7.00 345.43 2576.47
