~Version Information
 VERS.                  2.0:   CWLS log ASCII Standard -VERSION 2.0
 WRAP.                   NO:   One line per depth step
~Well Information Block
#MNEM.UNIT     VALUE/NAME     DESCRIPTION
#---------     -----------    ---------------------------
 STRT.S             02:13:59 18-May-20: START TIME 02:13:59 18-May-20
 STOP.S             02:21:38 18-May-20: STOP TIME  02:21:38 18-May-20
 STEP.S                   0.00: STEP TIME
 NULL.                 -999.25: NULL VALUE
 UNIT.                     N/A:  LOGGING EQUIPMENT ID
 DCON.         Sperry Drilling:  DIRECTNL CONTR
 DOE .                     N/A:  DOE NUMBER
 JOBN.        AZ-XX-0906252240:  JOB TICKET NUMB
 MWDS.                     N/A:  MWD SHOP
 PROV.                    Baku:  PROVINCE
 STAT.                    Baku:  STATE NAME
 REGN.                   EESSA:  REGION
 BASE.              Azerbaijan:  LOGGING EQUIPMENT BASE LOCATION
 UWI .                     N/A:  UNIQUE WELL IDENTIFIER
 API .                     N/A:  API NUMBER
 MDS .        Operator Entered:  MAG DATA SOURCE
 WTYP.                Deviated:  WELL TYPE
 COMP.     BP Exploration (Caspian Sea) Ltd.:  COMPANY
 SRVC.          Turan Drilling:  CONTRACTOR
 WELL.           J23 (Slot 07):  WELL NAME
 CTRY.              Azerbaijan:  COUNTRY NAME
 FLD .                     ACG:  FIELD NAME
 PDAT.          Mean Sea Level:  PERMANENT DATUM
 RIG .             West Chirag:  RIG NAME
 SON .        AZ-XX-0906252240:  JOB NUMBER
 FTOP.          Formation Tops:  FORM TOPS DESC
 ILTD.               Lithology:  INTERP LTH DESC
 SVYD.                  Survey:  SURVEY DESC
 DMOD.             Drill Model:  DRILL MOD DESC
 HPTY.       Minimum Curvature:  HOLE POS TYPE
 NREF.                    Grid:  NORTH REFERENCE
 SPUD.               27-Aug-20:  SPUD DATE
 DATE.      00.00.00 19-May-20:  END TIME
 STIM.      03.00.00 25-Mar-20:  START TIME
 DMF .             Drill Floor:  DRILL MEAS FROM
 DFST.                        :  DIST FSL TEXT
 DFWT.                        :  DIST FWL TEXT
 CNTY.                        :  COUNTY
 LOC .                        :  LOCATION
 LMF .             Drill Floor:  LOG MEASURED FROM
 VSNS.m                   9.43:  VERT SEC N/S
 VSEW.m                  -8.91:  VERT SEC E/W
 AGAP.m                  43.00:  AIR GAP
 DEP .m                 354.17:  DEPTH
 APD .m                  43.00:  DEPTH ABOVE PD
 WDMS.m                 169.80:  WD ELEV
 EGL .m                   0.00:  GROUND ELEVATION
 EPD .m                   0.00:  ELEVATION
 AZTC.deg                 6.31:  AZM TOTAL CORR
 GRDC.deg                 0.14:  GRID CORRECTION
 MDEC.deg                 6.45:  MAGNETIC DECL
 MDIP.deg                59.56:  MAGNETIC DIP
 MFLD.nT              50295.00:  MAGNETIC FIELD
 GVFD.g                   1.00:  GRAVITY FIELD
 VSDR.deg               179.88:  VERT SEC DIRECT
 TDD .m                5150.01:  TOTAL DEPTH (DRILLER)
 SDEP.m                 864.00:  START DEPTH
 DFSL.m                   0.00:  DISTANCE FSL
 DFWL.m                   0.00:  DISTANCE FWL
 UTMY.m             4443793.85:  UTM Y
 UTMX.m              519005.06:  UTM X
 WHEW.m                  -8.91:  WELL HEAD E/W
 WHNS.m                   9.43:  WELL HEAD N/S
 LONG.deg                51.22:  LONGITUDE
 LATI.deg                40.13:  LATITUDE
 TVDS.m                  43.00:  TVDSS CORRECTN
 EKB .m                   0.00:  KB ELEVATION
 EDF .m                  43.00:  DF ELEVATION
 TDL .m                 363.00:  TOTAL DEPTH (LOGGER)
 MAGU.                 1850802:  MAGUTM CHECKSUM
 VSC .                       0:  VS TO CLOSURE
~Parameter Information Block
#MNEM.UNIT       Value        Description
#---------     -----------    ---------------------------
 AV  .mps                 2.30:  Ann Velocity 
 AVMX.mps                 4.40:  Max Ann Veloc 
 AZIF.deg               110.24:  Azm, Final 
 BHAT.        Rotary Steerable:  BHA Type 
 BREV.rev               331.00:  Rev Bit Total 
 BROT.°/30m               0.00:  Build Rotating 
 BS  .in                  8.50:  Bit Size 
 BSZ .in                  8.50:  Bit Size 
 BTPL.psig              585.00:  Bit Press Loss 
 CABU.                     Yes:  Customer Abuse 
 COMM.                     ü9U:  Run Comments 1 
 TCS .hr                122.75:  Time Ciculation Ended 
 CV  .mps                 2.67:  Crit Velocity 
 CVMX.mps                 3.56:  Max Crit Veloc 
 DD1 .          Rashad Habibov:  Direct Drillr 1 
 DD2 .         Rasim Ibrahimov:  Direct Drillr 2 
 DDSV.               Geo-Pilot:  DD Service 
 DEFF.%                  98.00:  % Det Eff 
 DLRX.°/30m               0.75:  Dogleg Rot Max 
 DLSO.°/30m               1.25:  Dogleg Oriented 
 DLSX.°/30m               2.06:  Dogleg Str Max 
 DRET.      07.45.00 17-May-20:  Drill End Time 
 DRST.      22.50.00 15-May-20:  Drill Start Tim 
 DTIM.hr                 20.75:  Time Drilling 
 EDEP.m                5124.01:  End Depth 
 ENG1.           Eldar Hajiyev:  Engineer 1 
 ENG2.        Marcelo Sandoval:  Engineer 2 
 ENG3.        Davud huseynzada:  Engineer 3 
 ENG4.          Ruslan Safarov:  Engineer 4 
 ETIM.      04.33.00 23-May-20:  End Time 
 FLOI.gpm               450.00:  Flow In 
 FLON.gpm               400.00:  Flow In Min 
 FLOS.cptm                0.00:  Fluid Loss 
 FLOX.gpm               500.00:  Flow In Max 
 FTRO.       Formation Presure:  FTWD Run Obj 
 HFLO.                      No:  High Flow 
 HPRE.                     Yes:  High Pressure 
 HTEM.                      No:  High Temp 
 HYDO.m                   1.80:  Hydro Offset 
 IFIN.deg                75.06:  Inc, Final 
 IMAX.deg                75.38:  Inc Max 
 IMIN.deg                74.69:  Inc Min 
 IMND.m                5027.38:  Inc Min Depth 
 IMXD.m                4771.61:  Inc Max Depth 
 JARR.                      No:  Jarring 
 LETM.      07.45.00 17-May-20:  Log End Time 
 LOST.hr                     0:  Lost Rig Time 
 LSTM.      22.50.00 15-May-20:  Log Start Time 
 MDCL.ppm             42000.00:  Mud Chlorides 
 MDES.     Inversion Oil/Synthetic:  Mud Desc 
 DFD .sg                  1.34:  Mud Density 
 MDMN.sg                  1.34:  Dens Mud Min 
 MDMX.sg                  1.34:  Dens Mud Max 
 MOIL.                       0:  Run Mud Oil % 
 MOWR.                   67:33:  Run Mud OWR 
 MSND.                       0:  Run Mud Sand % 
 MSOL.                     1.8:  Run Mud Solids% 
 DFV .spqt               76.00:  Mud Viscosity 
 MWOD.in                  6.75:  MWD Tool OD 
 MWSI.                      No:  Serv Intrp, MWD 
 OTIM.hr                228.19:  Time Operating 
 PCON.           Look Like New:  Pad Condition 
 PMAX.psia             6164.70:  Press Op, Max 
 PV  .cP                 28.00:  Mud PV 
 RUN .                     900:  Run Number 
 ROPA.m/hr               19.00:  ROP Avg 
 ROPN.m/hr               11.00:  ROP Min 
 ROPX.m/hr               36.00:  ROP Max 
 RPMA.rpm               120.00:  RPM Surface Avg 
 RPMN.rpm               120.00:  RPM Surface Min 
 RPMX.rpm               120.00:  RPM Surface Max 
 RRUN.                    L604:  Rig Run Number 
 RTIM.hr                  7.00:  Time Reaming 
 SAZI.deg               109.27:  Azm, Start 
 SDEP.m                4761.01:  Start Depth 
 SIDD.                      No:  Serv Intrp, DD 
 SINC.deg                75.38:  Inc, Start 
 SPPA.psig             3574.00:  SPP Avg 
 SPPN.psig             3475.00:  SPP Min 
 SPPX.psig             3791.00:  SPP Max 
 STIM.      07.08.48 13-May-20:  Start Time 
 SVCS.                 DD, MWD:  Services 
 SVER.                    9.20:  Sperry Version 
 TDAT.m                 363.00:  Tot Depth Attmp 
 TDDF.                      No:  Trip for DD 
 TDLG.m                 363.00:  Tot Depth Loggd 
 TFF .                      No:  Trip for Fail 
 TQAA.f-kp               20.00:  Torque Abs Avg 
 TQAN.f-kp               18.00:  Torque Abs Min 
 TQAX.f-kp               22.00:  Torque Abs Max 
 TRRT.°/30m              -0.35:  Turn Rotating 
 MRT .                    HCIM:  Maximum Recorded Temperature 
 TTMX.degC               92.16:  Max Tool Temp 
 VS01.                90586518:  Virtual Str1 SN 
 VS02.        AZ90560654Z1W1C6:  Virtual Str2 SN 
 VS03.           AZ90610398F11:  Virtual Str3 SN 
 VS04.                90514975:  Virtual Str4 SN 
 VS05.                90514972:  Virtual Str5 SN 
 VS06.     AZ90603282F11V7D1A6:  Virtual Str6 SN 
 WBMN.klb                 7.00:  WOB Min 
 WOBA.klb                12.00:  WOB Avg 
 WOBX.klb                14.00:  WOB Max 
 YP  .lhf2               32.00:  Yield Point 
~Curve Information Block
#MNEM.UNIT                 API CODE     Curve Description
#---------               -----------    ---------------------------
 TIME.HHMMSS            00 000 000 000:  GT Time & Date
 GTDEPTH.m              00 000 000 000:  GT Depth
 GTPQH.psia             00 000 000 000:  GT HR Quartz Pressure
 GTTQ.degC              00 000 000 000:  GT Quartz Temperature
 GTTN.NONE              00 000 000 000:  GT Test Number
 GTET.sec               00 000 000 000:  GT Elapsed Test Time
 GTTVD.m                00 000 000 000:  GT True Vertical Depth
#Other Information
#
#WARRANTY: Halliburton will use its best efforts to furnish customers with 
#accurate information and interpretations that are part of, and incident to, the services 
#provided.  However, Halliburton cannot and does not warrant the accuracy 
#or correctness of such information and interpretations.  Under no circumstances should any 
#such information or interpretation be relied upon as the sole basis for any drilling, 
#completion, production, or financial decision or any procedure involving any risk to the 
#safety of any drilling venture, drilling rig or its crew or any other third party.  The 
#Customer has full responsibility for all drilling, completion and production operation.  
#Halliburton makes no representations or warranties, either expressed or 
#implied, including, but not limited to, the implied warranties of merchantability or fitness 
#for a particular purpose, with respect to the services rendered.  In no event will 
#Halliburton be liable for failure to obtain any particular results or for 
#any damages, including, but not limited to, indirect, special or consequential damages, 
#resulting from the use of any information or interpretation provided by Halliburton.
#
~A           TIME           GTDEPTH  GTPQH  GTTQ  GTTN   GTET   GTTVD  
# ...
   02:16:15.616.18-May-2020 4832.01 2682.01 66.03 12.00 135.65 2549.35
   02:16:15.816.18-May-2020 4832.01 2682.01 66.03 12.00 135.85 2549.35
   02:16:16.016.18-May-2020 4832.01 2682.06 66.03 12.00 136.05 2549.35
   02:16:16.216.18-May-2020 4832.01 2682.06 66.03 12.00 136.25 2549.35
   02:16:16.416.18-May-2020 4832.01 2682.01 66.03 12.00 136.46 2549.35
   02:16:16.616.18-May-2020 4832.01 2682.01 66.03 12.00 136.66 2549.35
   02:16:16.816.18-May-2020 4832.01 2682.05 66.03 12.00 136.86 2549.35
   02:16:17.016.18-May-2020 4832.01 2682.01 66.03 12.00 137.06 2549.35
   02:16:17.217.18-May-2020 4832.01 2682.01 66.03 12.00 137.26 2549.35
   02:16:17.417.18-May-2020 4832.01 2682.04 66.03 12.00 137.46 2549.35
   02:16:17.617.18-May-2020 4832.01 2682.01 66.03 12.00 137.66 2549.35
   02:16:17.817.18-May-2020 4832.01 2682.05 66.03 12.00 137.86 2549.35
   02:16:18.017.18-May-2020 4832.01 2682.03 66.03 12.00 138.06 2549.35
   02:16:18.217.18-May-2020 4832.01 2682.03 66.03 12.00 138.26 2549.35
   02:16:18.417.18-May-2020 4832.01 2682.01 66.03 12.00 138.46 2549.35
   02:16:18.617.18-May-2020 4832.01 2681.99 66.03 12.00 138.66 2549.35
   02:16:18.817.18-May-2020 4832.01 2682.06 66.03 12.00 138.86 2549.35
   02:16:19.017.18-May-2020 4832.01 2682.02 66.03 12.00 139.06 2549.35
   02:16:19.217.18-May-2020 4832.01 2682.02 66.03 12.00 139.26 2549.35
   02:16:19.417.18-May-2020 4832.01 2682.03 66.03 12.00 139.46 2549.35
   02:16:19.617.18-May-2020 4832.01 2682.03 66.03 12.00 139.66 2549.35
   02:16:19.818.18-May-2020 4832.01 2682.03 66.03 12.00 139.86 2549.35
   02:16:20.018.18-May-2020 4832.01 2682.04 66.03 12.00 140.06 2549.35
   02:16:20.218.18-May-2020 4832.01 2682.04 66.03 12.00 140.26 2549.35
   02:16:20.418.18-May-2020 4832.01 2681.99 66.03 12.00 140.46 2549.35
   02:16:20.618.18-May-2020 4832.01 2682.02 66.03 12.00 140.66 2549.35
   02:16:20.818.18-May-2020 4832.01 2682.03 66.03 12.00 140.86 2549.35
   02:16:21.018.18-May-2020 4832.01 2682.04 66.03 12.00 141.06 2549.35
   02:16:21.218.18-May-2020 4832.01 2682.04 66.03 12.00 141.26 2549.35
   02:16:21.418.18-May-2020 4832.01 2682.04 66.03 12.00 141.46 2549.35
   02:16:21.618.18-May-2020 4832.01 2682.03 66.03 12.00 141.66 2549.35
   02:16:21.818.18-May-2020 4832.01 2682.04 66.03 12.00 141.86 2549.35
   02:16:22.018.18-May-2020 4832.01 2682.03 66.03 12.00 142.06 2549.35
   02:16:22.219.18-May-2020 4832.01 2682.03 66.03 12.00 142.26 2549.35
   02:16:22.419.18-May-2020 4832.01 2681.98 66.03 12.00 142.46 2549.35
   02:16:22.619.18-May-2020 4832.01 2682.06 66.03 12.00 142.66 2549.35
   02:16:22.819.18-May-2020 4832.01 2682.03 66.03 12.00 142.86 2549.35
   02:16:23.019.18-May-2020 4832.01 2682.05 66.03 12.00 143.06 2549.35
   02:16:23.219.18-May-2020 4832.01 2682.05 66.03 12.00 143.26 2549.35
   02:16:23.419.18-May-2020 4832.01 2682.04 66.03 12.00 143.46 2549.35
   02:16:23.619.18-May-2020 4832.01 2682.02 66.03 12.00 143.66 2549.35
   02:16:23.819.18-May-2020 4832.01 2682.04 66.03 12.00 143.86 2549.35
   02:16:24.019.18-May-2020 4832.01 2682.01 66.03 12.00 144.06 2549.35
   02:16:24.219.18-May-2020 4832.01 2682.01 66.03 12.00 144.26 2549.35
   02:16:24.419.18-May-2020 4832.01 2682.04 66.03 12.00 144.46 2549.35
   02:16:24.620.18-May-2020 4832.01 2682.01 66.03 12.00 144.66 2549.35
   02:16:24.820.18-May-2020 4832.01 2682.05 66.03 12.00 144.86 2549.35
   02:16:25.020.18-May-2020 4832.01 2682.02 66.03 12.00 145.06 2549.35
   02:16:25.220.18-May-2020 4832.01 2682.02 66.03 12.00 145.26 2549.35
   02:16:25.420.18-May-2020 4832.01 2682.03 66.03 12.00 145.46 2549.35
   02:16:25.620.18-May-2020 4832.01 2682.02 66.03 12.00 145.66 2549.35
   02:16:25.820.18-May-2020 4832.01 2682.04 66.03 12.00 145.86 2549.35
   02:16:26.020.18-May-2020 4832.01 2682.02 66.03 12.00 146.06 2549.35
   02:16:26.220.18-May-2020 4832.01 2682.02 66.03 12.00 146.26 2549.35
   02:16:26.420.18-May-2020 4832.01 2682.03 66.03 12.00 146.46 2549.35
   02:16:26.620.18-May-2020 4832.01 2682.03 66.03 12.00 146.66 2549.35
   02:16:26.820.18-May-2020 4832.01 2682.03 66.03 12.00 146.86 2549.35
   02:16:27.020.18-May-2020 4832.01 2682.03 66.03 12.00 147.06 2549.35
   02:16:27.221.18-May-2020 4832.01 2682.03 66.03 12.00 147.26 2549.35
   02:16:27.421.18-May-2020 4832.01 2681.97 66.02 12.00 147.46 2549.35
   02:16:27.621.18-May-2020 4832.01 2681.99 66.02 12.00 147.66 2549.35
   02:16:27.821.18-May-2020 4832.01 2682.03 66.02 12.00 147.86 2549.35
   02:16:28.021.18-May-2020 4832.01 2682.04 66.02 12.00 148.06 2549.35
   02:16:28.221.18-May-2020 4832.01 2682.04 66.02 12.00 148.26 2549.35
   02:16:28.421.18-May-2020 4832.01 2682.03 66.02 12.00 148.46 2549.35
   02:16:28.621.18-May-2020 4832.01 2682.03 66.02 12.00 148.66 2549.35
   02:16:28.821.18-May-2020 4832.01 2682.03 66.02 12.00 148.86 2549.35
   02:16:29.021.18-May-2020 4832.01 2682.03 66.02 12.00 149.06 2549.35
   02:16:29.221.18-May-2020 4832.01 2682.03 66.02 12.00 149.26 2549.35
   02:16:29.421.18-May-2020 4832.01 2681.99 66.02 12.00 149.46 2549.35
   02:16:29.622.18-May-2020 4832.01 2682.02 66.02 12.00 149.66 2549.35
   02:16:29.822.18-May-2020 4832.01 2682.02 66.02 12.00 149.86 2549.35
   02:16:30.022.18-May-2020 4832.01 2682.02 66.02 12.00 150.06 2549.35
   02:16:30.222.18-May-2020 4832.01 2682.02 66.02 12.00 150.26 2549.35
   02:16:30.422.18-May-2020 4832.01 2682.03 66.02 12.00 150.46 2549.35
   02:16:30.622.18-May-2020 4832.01 2682.01 66.02 12.00 150.66 2549.35
   02:16:30.822.18-May-2020 4832.01 2682.03 66.02 12.00 150.86 2549.35
   02:16:31.022.18-May-2020 4832.01 2682.04 66.02 12.00 151.06 2549.35
   02:16:31.222.18-May-2020 4832.01 2682.04 66.02 12.00 151.26 2549.35
   02:16:31.422.18-May-2020 4832.01 2681.99 66.02 12.00 151.46 2549.35
   02:16:31.622.18-May-2020 4832.01 2682.01 66.02 12.00 151.66 2549.35
   02:16:31.822.18-May-2020 4832.01 2682.02 66.02 12.00 151.86 2549.35
   02:16:32.022.18-May-2020 4832.01 2682.01 66.02 12.00 152.06 2549.35
   02:16:32.223.18-May-2020 4832.01 2681.98 66.02 12.00 152.26 2549.35
   02:16:32.423.18-May-2020 4832.01 2682.00 66.02 12.00 152.46 2549.35
   02:16:32.623.18-May-2020 4832.01 2673.47 66.02 12.00 152.66 2549.35
   02:16:32.823.18-May-2020 4832.01 2665.12 66.02 12.00 152.86 2549.35
   02:16:33.023.18-May-2020 4832.01 2664.87 66.02 12.00 153.06 2549.35
   02:16:33.223.18-May-2020 4832.01 2664.87 66.02 12.00 153.26 2549.35
   02:16:33.423.18-May-2020 4832.01 2665.03 66.02 12.00 153.46 2549.35
   02:16:33.623.18-May-2020 4832.01 2665.05 66.02 12.00 153.66 2549.35
   02:16:33.823.18-May-2020 4832.01 2664.92 66.02 12.00 153.86 2549.35
   02:16:34.023.18-May-2020 4832.01 2664.86 66.02 12.00 154.06 2549.35
   02:16:34.223.18-May-2020 4832.01 2664.86 66.02 12.00 154.26 2549.35
   02:16:34.423.18-May-2020 4832.01 2664.51 66.02 12.00 154.46 2549.35
   02:16:34.624.18-May-2020 4832.01 2665.11 66.02 12.00 154.66 2549.35
   02:16:34.824.18-May-2020 4832.01 2664.96 66.02 12.00 154.86 2549.35
   02:16:35.024.18-May-2020 4832.01 2665.01 66.02 12.00 155.06 2549.35
   02:16:35.224.18-May-2020 4832.01 2665.01 66.02 12.00 155.26 2549.35
   02:16:35.424.18-May-2020 4832.01 2664.94 66.02 12.00 155.46 2549.35
   02:16:35.624.18-May-2020 4832.01 2665.25 66.02 12.00 155.66 2549.35
   02:16:35.824.18-May-2020 4832.01 2664.78 66.02 12.00 155.86 2549.35
   02:16:36.024.18-May-2020 4832.01 2664.85 66.02 12.00 156.06 2549.35
   02:16:36.224.18-May-2020 4832.01 2664.85 66.02 12.00 156.26 2549.35
   02:16:36.424.18-May-2020 4832.01 2664.51 66.02 12.00 156.46 2549.35
   02:16:36.624.18-May-2020 4832.01 2664.58 66.02 12.00 156.66 2549.35
   02:16:36.824.18-May-2020 4832.01 2664.80 66.02 12.00 156.86 2549.35
   02:16:37.025.18-May-2020 4832.01 2664.83 66.02 12.00 157.06 2549.35
   02:16:37.225.18-May-2020 4832.01 2664.83 66.02 12.00 157.26 2549.35
   02:16:37.425.18-May-2020 4832.01 2664.85 66.02 12.00 157.46 2549.35
   02:16:37.625.18-May-2020 4832.01 2665.03 66.02 12.00 157.66 2549.35
   02:16:37.825.18-May-2020 4832.01 2664.94 66.02 12.00 157.86 2549.35
   02:16:38.025.18-May-2020 4832.01 2665.17 66.02 12.00 158.06 2549.35
