~Version Information
 VERS.                  2.0:   CWLS log ASCII Standard -VERSION 2.0
 WRAP.                   NO:   One line per depth step
~Well Information Block
#MNEM.UNIT     VALUE/NAME     DESCRIPTION
#---------     -----------    ---------------------------
 STRT.S             17:25:16 17-May-20: START TIME 17:25:16 17-May-20
 STOP.S             17:32:20 17-May-20: STOP TIME  17:32:20 17-May-20
 STEP.S                   0.00: STEP TIME
 NULL.                 -999.25: NULL VALUE
 UNIT.                     N/A:  LOGGING EQUIPMENT ID
 DCON.         Sperry Drilling:  DIRECTNL CONTR
 DOE .                     N/A:  DOE NUMBER
 JOBN.        AZ-XX-0906252240:  JOB TICKET NUMB
 MWDS.                     N/A:  MWD SHOP
 PROV.                    Baku:  PROVINCE
 STAT.                    Baku:  STATE NAME
 REGN.                   EESSA:  REGION
 BASE.              Azerbaijan:  LOGGING EQUIPMENT BASE LOCATION
 UWI .                     N/A:  UNIQUE WELL IDENTIFIER
 API .                     N/A:  API NUMBER
 MDS .        Operator Entered:  MAG DATA SOURCE
 WTYP.                Deviated:  WELL TYPE
 COMP.     BP Exploration (Caspian Sea) Ltd.:  COMPANY
 SRVC.          Turan Drilling:  CONTRACTOR
 WELL.           J23 (Slot 07):  WELL NAME
 CTRY.              Azerbaijan:  COUNTRY NAME
 FLD .                     ACG:  FIELD NAME
 PDAT.          Mean Sea Level:  PERMANENT DATUM
 RIG .             West Chirag:  RIG NAME
 SON .        AZ-XX-0906252240:  JOB NUMBER
 FTOP.          Formation Tops:  FORM TOPS DESC
 ILTD.               Lithology:  INTERP LTH DESC
 SVYD.                  Survey:  SURVEY DESC
 DMOD.             Drill Model:  DRILL MOD DESC
 HPTY.       Minimum Curvature:  HOLE POS TYPE
 NREF.                    Grid:  NORTH REFERENCE
 SPUD.               27-Aug-20:  SPUD DATE
 DATE.      00.00.00 19-May-20:  END TIME
 STIM.      03.00.00 25-Mar-20:  START TIME
 DMF .             Drill Floor:  DRILL MEAS FROM
 DFST.                        :  DIST FSL TEXT
 DFWT.                        :  DIST FWL TEXT
 CNTY.                        :  COUNTY
 LOC .                        :  LOCATION
 LMF .             Drill Floor:  LOG MEASURED FROM
 VSNS.m                   9.43:  VERT SEC N/S
 VSEW.m                  -8.91:  VERT SEC E/W
 AGAP.m                  43.00:  AIR GAP
 DEP .m                 354.17:  DEPTH
 APD .m                  43.00:  DEPTH ABOVE PD
 WDMS.m                 169.80:  WD ELEV
 EGL .m                   0.00:  GROUND ELEVATION
 EPD .m                   0.00:  ELEVATION
 AZTC.deg                 6.31:  AZM TOTAL CORR
 GRDC.deg                 0.14:  GRID CORRECTION
 MDEC.deg                 6.45:  MAGNETIC DECL
 MDIP.deg                59.56:  MAGNETIC DIP
 MFLD.nT              50295.00:  MAGNETIC FIELD
 GVFD.g                   1.00:  GRAVITY FIELD
 VSDR.deg               179.88:  VERT SEC DIRECT
 TDD .m                5150.01:  TOTAL DEPTH (DRILLER)
 SDEP.m                 864.00:  START DEPTH
 DFSL.m                   0.00:  DISTANCE FSL
 DFWL.m                   0.00:  DISTANCE FWL
 UTMY.m             4443793.85:  UTM Y
 UTMX.m              519005.06:  UTM X
 WHEW.m                  -8.91:  WELL HEAD E/W
 WHNS.m                   9.43:  WELL HEAD N/S
 LONG.deg                51.22:  LONGITUDE
 LATI.deg                40.13:  LATITUDE
 TVDS.m                  43.00:  TVDSS CORRECTN
 EKB .m                   0.00:  KB ELEVATION
 EDF .m                  43.00:  DF ELEVATION
 TDL .m                 363.00:  TOTAL DEPTH (LOGGER)
 MAGU.                 1850802:  MAGUTM CHECKSUM
 VSC .                       0:  VS TO CLOSURE
~Parameter Information Block
#MNEM.UNIT       Value        Description
#---------     -----------    ---------------------------
 AV  .mps                 2.30:  Ann Velocity 
 AVMX.mps                 4.40:  Max Ann Veloc 
 AZIF.deg               110.24:  Azm, Final 
 BHAT.        Rotary Steerable:  BHA Type 
 BREV.rev               331.00:  Rev Bit Total 
 BROT.°/30m               0.00:  Build Rotating 
 BS  .in                  8.50:  Bit Size 
 BSZ .in                  8.50:  Bit Size 
 BTPL.psig              585.00:  Bit Press Loss 
 CABU.                     Yes:  Customer Abuse 
 COMM.                     |n\:  Run Comments 1 
 TCS .hr                122.75:  Time Ciculation Ended 
 CV  .mps                 2.67:  Crit Velocity 
 CVMX.mps                 3.56:  Max Crit Veloc 
 DD1 .          Rashad Habibov:  Direct Drillr 1 
 DD2 .         Rasim Ibrahimov:  Direct Drillr 2 
 DDSV.               Geo-Pilot:  DD Service 
 DEFF.%                  98.00:  % Det Eff 
 DLRX.°/30m               0.75:  Dogleg Rot Max 
 DLSO.°/30m               1.25:  Dogleg Oriented 
 DLSX.°/30m               2.06:  Dogleg Str Max 
 DRET.      07.45.00 17-May-20:  Drill End Time 
 DRST.      22.50.00 15-May-20:  Drill Start Tim 
 DTIM.hr                 20.75:  Time Drilling 
 EDEP.m                5124.01:  End Depth 
 ENG1.           Eldar Hajiyev:  Engineer 1 
 ENG2.        Marcelo Sandoval:  Engineer 2 
 ENG3.        Davud huseynzada:  Engineer 3 
 ENG4.          Ruslan Safarov:  Engineer 4 
 ETIM.      04.33.00 23-May-20:  End Time 
 FLOI.gpm               450.00:  Flow In 
 FLON.gpm               400.00:  Flow In Min 
 FLOS.cptm                0.00:  Fluid Loss 
 FLOX.gpm               500.00:  Flow In Max 
 FTRO.       Formation Presure:  FTWD Run Obj 
 HFLO.                      No:  High Flow 
 HPRE.                     Yes:  High Pressure 
 HTEM.                      No:  High Temp 
 HYDO.m                   1.80:  Hydro Offset 
 IFIN.deg                75.06:  Inc, Final 
 IMAX.deg                75.38:  Inc Max 
 IMIN.deg                74.69:  Inc Min 
 IMND.m                5027.38:  Inc Min Depth 
 IMXD.m                4771.61:  Inc Max Depth 
 JARR.                      No:  Jarring 
 LETM.      07.45.00 17-May-20:  Log End Time 
 LOST.hr                     0:  Lost Rig Time 
 LSTM.      22.50.00 15-May-20:  Log Start Time 
 MDCL.ppm             42000.00:  Mud Chlorides 
 MDES.     Inversion Oil/Synthetic:  Mud Desc 
 DFD .sg                  1.34:  Mud Density 
 MDMN.sg                  1.34:  Dens Mud Min 
 MDMX.sg                  1.34:  Dens Mud Max 
 MOIL.                       0:  Run Mud Oil % 
 MOWR.                   67:33:  Run Mud OWR 
 MSND.                       0:  Run Mud Sand % 
 MSOL.                     1.8:  Run Mud Solids% 
 DFV .spqt               76.00:  Mud Viscosity 
 MWOD.in                  6.75:  MWD Tool OD 
 MWSI.                      No:  Serv Intrp, MWD 
 OTIM.hr                228.19:  Time Operating 
 PCON.           Look Like New:  Pad Condition 
 PMAX.psia             6164.70:  Press Op, Max 
 PV  .cP                 28.00:  Mud PV 
 RUN .                     900:  Run Number 
 ROPA.m/hr               19.00:  ROP Avg 
 ROPN.m/hr               11.00:  ROP Min 
 ROPX.m/hr               36.00:  ROP Max 
 RPMA.rpm               120.00:  RPM Surface Avg 
 RPMN.rpm               120.00:  RPM Surface Min 
 RPMX.rpm               120.00:  RPM Surface Max 
 RRUN.                    L604:  Rig Run Number 
 RTIM.hr                  7.00:  Time Reaming 
 SAZI.deg               109.27:  Azm, Start 
 SDEP.m                4761.01:  Start Depth 
 SIDD.                      No:  Serv Intrp, DD 
 SINC.deg                75.38:  Inc, Start 
 SPPA.psig             3574.00:  SPP Avg 
 SPPN.psig             3475.00:  SPP Min 
 SPPX.psig             3791.00:  SPP Max 
 STIM.      07.08.48 13-May-20:  Start Time 
 SVCS.                 DD, MWD:  Services 
 SVER.                    9.20:  Sperry Version 
 TDAT.m                 363.00:  Tot Depth Attmp 
 TDDF.                      No:  Trip for DD 
 TDLG.m                 363.00:  Tot Depth Loggd 
 TFF .                      No:  Trip for Fail 
 TQAA.f-kp               20.00:  Torque Abs Avg 
 TQAN.f-kp               18.00:  Torque Abs Min 
 TQAX.f-kp               22.00:  Torque Abs Max 
 TRRT.°/30m              -0.35:  Turn Rotating 
 MRT .                    HCIM:  Maximum Recorded Temperature 
 TTMX.degC               92.16:  Max Tool Temp 
 VS01.                90586518:  Virtual Str1 SN 
 VS02.        AZ90560654Z1W1C6:  Virtual Str2 SN 
 VS03.           AZ90610398F11:  Virtual Str3 SN 
 VS04.                90514975:  Virtual Str4 SN 
 VS05.                90514972:  Virtual Str5 SN 
 VS06.     AZ90603282F11V7D1A6:  Virtual Str6 SN 
 WBMN.klb                 7.00:  WOB Min 
 WOBA.klb                12.00:  WOB Avg 
 WOBX.klb                14.00:  WOB Max 
 YP  .lhf2               32.00:  Yield Point 
~Curve Information Block
#MNEM.UNIT                 API CODE     Curve Description
#---------               -----------    ---------------------------
 TIME.HHMMSS            00 000 000 000:  GT Time & Date
 GTDEPTH.m              00 000 000 000:  GT Depth
 GTPQH.psia             00 000 000 000:  GT HR Quartz Pressure
 GTTQ.degC              00 000 000 000:  GT Quartz Temperature
 GTTN.NONE              00 000 000 000:  GT Test Number
 GTET.sec               00 000 000 000:  GT Elapsed Test Time
 GTTVD.m                00 000 000 000:  GT True Vertical Depth
#Other Information
#
#WARRANTY: Halliburton will use its best efforts to furnish customers with 
#accurate information and interpretations that are part of, and incident to, the services 
#provided.  However, Halliburton cannot and does not warrant the accuracy 
#or correctness of such information and interpretations.  Under no circumstances should any 
#such information or interpretation be relied upon as the sole basis for any drilling, 
#completion, production, or financial decision or any procedure involving any risk to the 
#safety of any drilling venture, drilling rig or its crew or any other third party.  The 
#Customer has full responsibility for all drilling, completion and production operation.  
#Halliburton makes no representations or warranties, either expressed or 
#implied, including, but not limited to, the implied warranties of merchantability or fitness 
#for a particular purpose, with respect to the services rendered.  In no event will 
#Halliburton be liable for failure to obtain any particular results or for 
#any damages, including, but not limited to, indirect, special or consequential damages, 
#resulting from the use of any information or interpretation provided by Halliburton.
#
~A           TIME           GTDEPTH  GTPQH  GTTQ  GTTN  GTET   GTTVD  
# ...
   17:27:11.426.17-May-2020 5032.01 2638.08 70.64 3.00 115.11 2600.96
   17:27:11.626.17-May-2020 5032.01 2638.08 70.64 3.00 115.31 2600.96
   17:27:11.827.17-May-2020 5032.01 2638.10 70.64 3.00 115.51 2600.96
   17:27:12.027.17-May-2020 5032.01 2638.12 70.64 3.00 115.71 2600.96
   17:27:12.227.17-May-2020 5032.01 2638.14 70.64 3.00 115.91 2600.96
   17:27:12.427.17-May-2020 5032.01 2638.14 70.64 3.00 116.11 2600.96
   17:27:12.627.17-May-2020 5032.01 2638.15 70.64 3.00 116.31 2600.96
   17:27:12.827.17-May-2020 5032.01 2638.16 70.64 3.00 116.51 2600.96
   17:27:13.028.17-May-2020 5032.01 2638.10 70.64 3.00 116.71 2600.96
   17:27:13.228.17-May-2020 5032.01 2638.25 70.64 3.00 116.91 2600.96
   17:27:13.428.17-May-2020 5032.01 2638.15 70.64 3.00 117.11 2600.96
   17:27:13.628.17-May-2020 5032.01 2638.15 70.64 3.00 117.31 2600.96
   17:27:13.828.17-May-2020 5032.01 2638.12 70.64 3.00 117.51 2600.96
   17:27:14.029.17-May-2020 5032.01 2638.17 70.64 3.00 117.71 2600.96
   17:27:14.229.17-May-2020 5032.01 2638.12 70.64 3.00 117.91 2600.96
   17:27:14.429.17-May-2020 5032.01 2638.12 70.64 3.00 118.11 2600.96
   17:27:14.629.17-May-2020 5032.01 2638.12 70.64 3.00 118.31 2600.96
   17:27:14.829.17-May-2020 5032.01 2638.14 70.64 3.00 118.51 2600.96
   17:27:15.030.17-May-2020 5032.01 2638.16 70.64 3.00 118.71 2600.96
   17:27:15.230.17-May-2020 5032.01 2638.12 70.64 3.00 118.91 2600.96
   17:27:15.430.17-May-2020 5032.01 2638.24 70.64 3.00 119.11 2600.96
   17:27:15.630.17-May-2020 5032.01 2638.24 70.64 3.00 119.31 2600.96
   17:27:15.830.17-May-2020 5032.01 2638.17 70.64 3.00 119.51 2600.96
   17:27:16.030.17-May-2020 5032.01 2638.23 70.64 3.00 119.71 2600.96
   17:27:16.231.17-May-2020 5032.01 2638.09 70.64 3.00 119.91 2600.96
   17:27:16.431.17-May-2020 5032.01 2638.07 70.64 3.00 120.11 2600.96
   17:27:16.631.17-May-2020 5032.01 2638.07 70.64 3.00 120.31 2600.96
   17:27:16.831.17-May-2020 5032.01 2638.17 70.64 3.00 120.51 2600.96
   17:27:17.031.17-May-2020 5032.01 2638.25 70.64 3.00 120.71 2600.96
   17:27:17.232.17-May-2020 5032.01 2638.05 70.64 3.00 120.91 2600.96
   17:27:17.432.17-May-2020 5032.01 2638.18 70.64 3.00 121.11 2600.96
   17:27:17.632.17-May-2020 5032.01 2638.18 70.64 3.00 121.31 2600.96
   17:27:17.832.17-May-2020 5032.01 2638.04 70.64 3.00 121.51 2600.96
   17:27:18.032.17-May-2020 5032.01 2638.11 70.64 3.00 121.71 2600.96
   17:27:18.232.17-May-2020 5032.01 2638.12 70.64 3.00 121.91 2600.96
   17:27:18.433.17-May-2020 5032.01 2638.14 70.64 3.00 122.11 2600.96
   17:27:18.633.17-May-2020 5032.01 2638.14 70.64 3.00 122.31 2600.96
   17:27:18.833.17-May-2020 5032.01 2638.13 70.64 3.00 122.51 2600.96
   17:27:19.033.17-May-2020 5032.01 2638.15 70.64 3.00 122.71 2600.96
   17:27:19.233.17-May-2020 5032.01 2638.14 70.64 3.00 122.91 2600.96
   17:27:19.434.17-May-2020 5032.01 2638.15 70.64 3.00 123.12 2600.96
   17:27:19.634.17-May-2020 5032.01 2638.15 70.64 3.00 123.32 2600.96
   17:27:19.834.17-May-2020 5032.01 2638.22 70.64 3.00 123.52 2600.96
   17:27:20.034.17-May-2020 5032.01 2638.09 70.64 3.00 123.72 2600.96
   17:27:20.234.17-May-2020 5032.01 2638.14 70.64 3.00 123.92 2600.96
   17:27:20.435.17-May-2020 5032.01 2638.14 70.64 3.00 124.12 2600.96
   17:27:20.635.17-May-2020 5032.01 2638.14 70.64 3.00 124.32 2600.96
   17:27:20.835.17-May-2020 5032.01 2638.13 70.64 3.00 124.52 2600.96
   17:27:21.035.17-May-2020 5032.01 2638.12 70.64 3.00 124.72 2600.96
   17:27:21.235.17-May-2020 5032.01 2638.15 70.64 3.00 124.92 2600.96
   17:27:21.435.17-May-2020 5032.01 2638.16 70.64 3.00 125.12 2600.96
   17:27:21.636.17-May-2020 5032.01 2638.16 70.64 3.00 125.32 2600.96
   17:27:21.836.17-May-2020 5032.01 2638.10 70.64 3.00 125.52 2600.96
   17:27:22.036.17-May-2020 5032.01 2638.05 70.64 3.00 125.72 2600.96
   17:27:22.236.17-May-2020 5032.01 2638.17 70.63 3.00 125.92 2600.96
   17:27:22.436.17-May-2020 5032.01 2638.20 70.63 3.00 126.12 2600.96
   17:27:22.637.17-May-2020 5032.01 2638.20 70.63 3.00 126.32 2600.96
   17:27:22.837.17-May-2020 5032.01 2638.08 70.63 3.00 126.52 2600.96
   17:27:23.037.17-May-2020 5032.01 2638.13 70.63 3.00 126.72 2600.96
   17:27:23.237.17-May-2020 5032.01 2638.31 70.63 3.00 126.92 2600.96
   17:27:23.437.17-May-2020 5032.01 2638.08 70.63 3.00 127.12 2600.96
   17:27:23.638.17-May-2020 5032.01 2638.08 70.63 3.00 127.32 2600.96
   17:27:23.838.17-May-2020 5032.01 2638.23 70.63 3.00 127.52 2600.96
   17:27:24.038.17-May-2020 5032.01 2638.14 70.63 3.00 127.72 2600.96
   17:27:24.238.17-May-2020 5032.01 2638.09 70.63 3.00 127.92 2600.96
   17:27:24.438.17-May-2020 5032.01 2638.11 70.63 3.00 128.12 2600.96
   17:27:24.638.17-May-2020 5032.01 2638.11 70.63 3.00 128.32 2600.96
   17:27:24.839.17-May-2020 5032.01 2638.15 70.63 3.00 128.52 2600.96
   17:27:25.039.17-May-2020 5032.01 2638.14 70.63 3.00 128.72 2600.96
   17:27:25.239.17-May-2020 5032.01 2638.14 70.63 3.00 128.92 2600.96
   17:27:25.439.17-May-2020 5032.01 2638.14 70.63 3.00 129.12 2600.96
   17:27:25.639.17-May-2020 5032.01 2638.14 70.63 3.00 129.32 2600.96
   17:27:25.840.17-May-2020 5032.01 2638.14 70.63 3.00 129.52 2600.96
   17:27:26.040.17-May-2020 5032.01 2638.32 70.63 3.00 129.72 2600.96
   17:27:26.240.17-May-2020 5032.01 2638.07 70.63 3.00 129.92 2600.96
   17:27:26.440.17-May-2020 5032.01 2638.03 70.63 3.00 130.12 2600.96
   17:27:26.640.17-May-2020 5032.01 2638.03 70.63 3.00 130.32 2600.96
   17:27:26.841.17-May-2020 5032.01 2638.13 70.63 3.00 130.52 2600.96
   17:27:27.041.17-May-2020 5032.01 2638.13 70.63 3.00 130.72 2600.96
   17:27:27.241.17-May-2020 5032.01 2638.14 70.63 3.00 130.92 2600.96
   17:27:27.441.17-May-2020 5032.01 2638.12 70.63 3.00 131.12 2600.96
   17:27:27.641.17-May-2020 5032.01 2638.12 70.63 3.00 131.32 2600.96
   17:27:27.841.17-May-2020 5032.01 2638.15 70.63 3.00 131.52 2600.96
   17:27:28.042.17-May-2020 5032.01 2638.20 70.63 3.00 131.72 2600.96
   17:27:28.242.17-May-2020 5032.01 2638.21 70.63 3.00 131.92 2600.96
   17:27:28.442.17-May-2020 5032.01 2638.10 70.63 3.00 132.12 2600.96
   17:27:28.642.17-May-2020 5032.01 2638.01 70.63 3.00 132.32 2600.96
   17:27:28.842.17-May-2020 5032.01 2638.16 70.63 3.00 132.52 2600.96
   17:27:29.043.17-May-2020 5032.01 2638.29 70.63 3.00 132.72 2600.96
   17:27:29.243.17-May-2020 5032.01 2638.08 70.63 3.00 132.92 2600.96
   17:27:29.443.17-May-2020 5032.01 2638.12 70.63 3.00 133.12 2600.96
   17:27:29.643.17-May-2020 5032.01 2638.12 70.63 3.00 133.32 2600.96
   17:27:29.843.17-May-2020 5032.01 2638.20 70.63 3.00 133.52 2600.96
   17:27:30.044.17-May-2020 5032.01 2638.08 70.63 3.00 133.73 2600.96
   17:27:30.244.17-May-2020 5032.01 2638.00 70.63 3.00 133.93 2600.96
   17:27:30.444.17-May-2020 5032.01 2638.22 70.63 3.00 134.13 2600.96
   17:27:30.644.17-May-2020 5032.01 2638.22 70.63 3.00 134.33 2600.96
   17:27:30.844.17-May-2020 5032.01 2638.05 70.63 3.00 134.53 2600.96
   17:27:31.044.17-May-2020 5032.01 2638.12 70.63 3.00 134.73 2600.96
   17:27:31.245.17-May-2020 5032.01 2638.16 70.63 3.00 134.93 2600.96
   17:27:31.445.17-May-2020 5032.01 2638.12 70.63 3.00 135.13 2600.96
   17:27:31.645.17-May-2020 5032.01 2638.12 70.63 3.00 135.33 2600.96
   17:27:31.845.17-May-2020 5032.01 2638.14 70.63 3.00 135.53 2600.96
   17:27:32.045.17-May-2020 5032.01 2638.13 70.63 3.00 135.73 2600.96
   17:27:32.246.17-May-2020 5032.01 2638.14 70.63 3.00 135.93 2600.96
   17:27:32.446.17-May-2020 5032.01 2638.20 70.63 3.00 136.13 2600.96
   17:27:32.646.17-May-2020 5032.01 2638.14 70.63 3.00 136.33 2600.96
   17:27:32.846.17-May-2020 5032.01 2638.11 70.63 3.00 136.53 2600.96
   17:27:33.046.17-May-2020 5032.01 2638.08 70.63 3.00 136.73 2600.96
   17:27:33.247.17-May-2020 5032.01 2638.11 70.63 3.00 136.93 2600.96
   17:27:33.447.17-May-2020 5032.01 2638.15 70.63 3.00 137.13 2600.96
   17:27:33.647.17-May-2020 5032.01 2638.15 70.63 3.00 137.33 2600.96
   17:27:33.847.17-May-2020 5032.01 2638.11 70.63 3.00 137.53 2600.96
   17:27:34.047.17-May-2020 5032.01 2638.12 70.63 3.00 137.73 2600.96
   17:27:34.247.17-May-2020 5032.01 2638.14 70.63 3.00 137.93 2600.96
