~Version Information
 VERS.                  2.0:   CWLS log ASCII Standard -VERSION 2.0
 WRAP.                   NO:   One line per depth step
~Well Information Block
#MNEM.UNIT     VALUE/NAME     DESCRIPTION
#---------     -----------    ---------------------------
 STRT.S             19:37:06 17-May-20: START TIME 19:37:06 17-May-20
 STOP.S             19:44:11 17-May-20: STOP TIME  19:44:11 17-May-20
 STEP.S                   0.00: STEP TIME
 NULL.                 -999.25: NULL VALUE
 UNIT.                     N/A:  LOGGING EQUIPMENT ID
 DCON.         Sperry Drilling:  DIRECTNL CONTR
 DOE .                     N/A:  DOE NUMBER
 JOBN.        AZ-XX-0906252240:  JOB TICKET NUMB
 MWDS.                     N/A:  MWD SHOP
 PROV.                    Baku:  PROVINCE
 STAT.                    Baku:  STATE NAME
 REGN.                   EESSA:  REGION
 BASE.              Azerbaijan:  LOGGING EQUIPMENT BASE LOCATION
 UWI .                     N/A:  UNIQUE WELL IDENTIFIER
 API .                     N/A:  API NUMBER
 MDS .        Operator Entered:  MAG DATA SOURCE
 WTYP.                Deviated:  WELL TYPE
 COMP.     BP Exploration (Caspian Sea) Ltd.:  COMPANY
 SRVC.          Turan Drilling:  CONTRACTOR
 WELL.           J23 (Slot 07):  WELL NAME
 CTRY.              Azerbaijan:  COUNTRY NAME
 FLD .                     ACG:  FIELD NAME
 PDAT.          Mean Sea Level:  PERMANENT DATUM
 RIG .             West Chirag:  RIG NAME
 SON .        AZ-XX-0906252240:  JOB NUMBER
 FTOP.          Formation Tops:  FORM TOPS DESC
 ILTD.               Lithology:  INTERP LTH DESC
 SVYD.                  Survey:  SURVEY DESC
 DMOD.             Drill Model:  DRILL MOD DESC
 HPTY.       Minimum Curvature:  HOLE POS TYPE
 NREF.                    Grid:  NORTH REFERENCE
 SPUD.               27-Aug-20:  SPUD DATE
 DATE.      00.00.00 19-May-20:  END TIME
 STIM.      03.00.00 25-Mar-20:  START TIME
 DMF .             Drill Floor:  DRILL MEAS FROM
 DFST.                        :  DIST FSL TEXT
 DFWT.                        :  DIST FWL TEXT
 CNTY.                        :  COUNTY
 LOC .                        :  LOCATION
 LMF .             Drill Floor:  LOG MEASURED FROM
 VSNS.m                   9.43:  VERT SEC N/S
 VSEW.m                  -8.91:  VERT SEC E/W
 AGAP.m                  43.00:  AIR GAP
 DEP .m                 354.17:  DEPTH
 APD .m                  43.00:  DEPTH ABOVE PD
 WDMS.m                 169.80:  WD ELEV
 EGL .m                   0.00:  GROUND ELEVATION
 EPD .m                   0.00:  ELEVATION
 AZTC.deg                 6.31:  AZM TOTAL CORR
 GRDC.deg                 0.14:  GRID CORRECTION
 MDEC.deg                 6.45:  MAGNETIC DECL
 MDIP.deg                59.56:  MAGNETIC DIP
 MFLD.nT              50295.00:  MAGNETIC FIELD
 GVFD.g                   1.00:  GRAVITY FIELD
 VSDR.deg               179.88:  VERT SEC DIRECT
 TDD .m                5150.01:  TOTAL DEPTH (DRILLER)
 SDEP.m                 864.00:  START DEPTH
 DFSL.m                   0.00:  DISTANCE FSL
 DFWL.m                   0.00:  DISTANCE FWL
 UTMY.m             4443793.85:  UTM Y
 UTMX.m              519005.06:  UTM X
 WHEW.m                  -8.91:  WELL HEAD E/W
 WHNS.m                   9.43:  WELL HEAD N/S
 LONG.deg                51.22:  LONGITUDE
 LATI.deg                40.13:  LATITUDE
 TVDS.m                  43.00:  TVDSS CORRECTN
 EKB .m                   0.00:  KB ELEVATION
 EDF .m                  43.00:  DF ELEVATION
 TDL .m                 363.00:  TOTAL DEPTH (LOGGER)
 MAGU.                 1850802:  MAGUTM CHECKSUM
 VSC .                       0:  VS TO CLOSURE
~Parameter Information Block
#MNEM.UNIT       Value        Description
#---------     -----------    ---------------------------
 AV  .mps                 2.30:  Ann Velocity 
 AVMX.mps                 4.40:  Max Ann Veloc 
 AZIF.deg               110.24:  Azm, Final 
 BHAT.        Rotary Steerable:  BHA Type 
 BREV.rev               331.00:  Rev Bit Total 
 BROT.°/30m               0.00:  Build Rotating 
 BS  .in                  8.50:  Bit Size 
 BSZ .in                  8.50:  Bit Size 
 BTPL.psig              585.00:  Bit Press Loss 
 CABU.                     Yes:  Customer Abuse 
 TCS .hr                122.75:  Time Ciculation Ended 
 CV  .mps                 2.67:  Crit Velocity 
 CVMX.mps                 3.56:  Max Crit Veloc 
 DD1 .          Rashad Habibov:  Direct Drillr 1 
 DD2 .         Rasim Ibrahimov:  Direct Drillr 2 
 DDSV.               Geo-Pilot:  DD Service 
 DEFF.%                  98.00:  % Det Eff 
 DLRX.°/30m               0.75:  Dogleg Rot Max 
 DLSO.°/30m               1.25:  Dogleg Oriented 
 DLSX.°/30m               2.06:  Dogleg Str Max 
 DRET.      07.45.00 17-May-20:  Drill End Time 
 DRST.      22.50.00 15-May-20:  Drill Start Tim 
 DTIM.hr                 20.75:  Time Drilling 
 EDEP.m                5124.01:  End Depth 
 ENG1.           Eldar Hajiyev:  Engineer 1 
 ENG2.        Marcelo Sandoval:  Engineer 2 
 ENG3.        Davud huseynzada:  Engineer 3 
 ENG4.          Ruslan Safarov:  Engineer 4 
 ETIM.      04.33.00 23-May-20:  End Time 
 FLOI.gpm               450.00:  Flow In 
 FLON.gpm               400.00:  Flow In Min 
 FLOS.cptm                0.00:  Fluid Loss 
 FLOX.gpm               500.00:  Flow In Max 
 FTRO.       Formation Presure:  FTWD Run Obj 
 HFLO.                      No:  High Flow 
 HPRE.                     Yes:  High Pressure 
 HTEM.                      No:  High Temp 
 HYDO.m                   1.80:  Hydro Offset 
 IFIN.deg                75.06:  Inc, Final 
 IMAX.deg                75.38:  Inc Max 
 IMIN.deg                74.69:  Inc Min 
 IMND.m                5027.38:  Inc Min Depth 
 IMXD.m                4771.61:  Inc Max Depth 
 JARR.                      No:  Jarring 
 LETM.      07.45.00 17-May-20:  Log End Time 
 LOST.hr                     0:  Lost Rig Time 
 LSTM.      22.50.00 15-May-20:  Log Start Time 
 MDCL.ppm             42000.00:  Mud Chlorides 
 MDES.     Inversion Oil/Synthetic:  Mud Desc 
 DFD .sg                  1.34:  Mud Density 
 MDMN.sg                  1.34:  Dens Mud Min 
 MDMX.sg                  1.34:  Dens Mud Max 
 MOIL.                       0:  Run Mud Oil % 
 MOWR.                   67:33:  Run Mud OWR 
 MSND.                       0:  Run Mud Sand % 
 MSOL.                     1.8:  Run Mud Solids% 
 DFV .spqt               76.00:  Mud Viscosity 
 MWOD.in                  6.75:  MWD Tool OD 
 MWSI.                      No:  Serv Intrp, MWD 
 OTIM.hr                228.19:  Time Operating 
 PCON.           Look Like New:  Pad Condition 
 PMAX.psia             6164.70:  Press Op, Max 
 PV  .cP                 28.00:  Mud PV 
 RUN .                     900:  Run Number 
 ROPA.m/hr               19.00:  ROP Avg 
 ROPN.m/hr               11.00:  ROP Min 
 ROPX.m/hr               36.00:  ROP Max 
 RPMA.rpm               120.00:  RPM Surface Avg 
 RPMN.rpm               120.00:  RPM Surface Min 
 RPMX.rpm               120.00:  RPM Surface Max 
 RRUN.                    L604:  Rig Run Number 
 RTIM.hr                  7.00:  Time Reaming 
 SAZI.deg               109.27:  Azm, Start 
 SDEP.m                4761.01:  Start Depth 
 SIDD.                      No:  Serv Intrp, DD 
 SINC.deg                75.38:  Inc, Start 
 SPPA.psig             3574.00:  SPP Avg 
 SPPN.psig             3475.00:  SPP Min 
 SPPX.psig             3791.00:  SPP Max 
 STIM.      07.08.48 13-May-20:  Start Time 
 SVCS.                 DD, MWD:  Services 
 SVER.                    9.20:  Sperry Version 
 TDAT.m                 363.00:  Tot Depth Attmp 
 TDDF.                      No:  Trip for DD 
 TDLG.m                 363.00:  Tot Depth Loggd 
 TFF .                      No:  Trip for Fail 
 TQAA.f-kp               20.00:  Torque Abs Avg 
 TQAN.f-kp               18.00:  Torque Abs Min 
 TQAX.f-kp               22.00:  Torque Abs Max 
 TRRT.°/30m              -0.35:  Turn Rotating 
 MRT .                    HCIM:  Maximum Recorded Temperature 
 TTMX.degC               92.16:  Max Tool Temp 
 VS01.                90586518:  Virtual Str1 SN 
 VS02.        AZ90560654Z1W1C6:  Virtual Str2 SN 
 VS03.           AZ90610398F11:  Virtual Str3 SN 
 VS04.                90514975:  Virtual Str4 SN 
 VS05.                90514972:  Virtual Str5 SN 
 VS06.     AZ90603282F11V7D1A6:  Virtual Str6 SN 
 WBMN.klb                 7.00:  WOB Min 
 WOBA.klb                12.00:  WOB Avg 
 WOBX.klb                14.00:  WOB Max 
 YP  .lhf2               32.00:  Yield Point 
~Curve Information Block
#MNEM.UNIT                 API CODE     Curve Description
#---------               -----------    ---------------------------
 TIME.HHMMSS            00 000 000 000:  GT Time & Date
 GTDEPTH.m              00 000 000 000:  GT Depth
 GTPQH.psia             00 000 000 000:  GT HR Quartz Pressure
 GTTQ.degC              00 000 000 000:  GT Quartz Temperature
 GTTN.NONE              00 000 000 000:  GT Test Number
 GTET.sec               00 000 000 000:  GT Elapsed Test Time
 GTTVD.m                00 000 000 000:  GT True Vertical Depth
#Other Information
#
#WARRANTY: Halliburton will use its best efforts to furnish customers with 
#accurate information and interpretations that are part of, and incident to, the services 
#provided.  However, Halliburton cannot and does not warrant the accuracy 
#or correctness of such information and interpretations.  Under no circumstances should any 
#such information or interpretation be relied upon as the sole basis for any drilling, 
#completion, production, or financial decision or any procedure involving any risk to the 
#safety of any drilling venture, drilling rig or its crew or any other third party.  The 
#Customer has full responsibility for all drilling, completion and production operation.  
#Halliburton makes no representations or warranties, either expressed or 
#implied, including, but not limited to, the implied warranties of merchantability or fitness 
#for a particular purpose, with respect to the services rendered.  In no event will 
#Halliburton be liable for failure to obtain any particular results or for 
#any damages, including, but not limited to, indirect, special or consequential damages, 
#resulting from the use of any information or interpretation provided by Halliburton.
#
~A           TIME           GTDEPTH  GTPQH  GTTQ  GTTN  GTET   GTTVD  
# ...
   19:41:42.588.17-May-2020 4994.01 2917.28 69.70 4.00 275.98 2591.05
   19:41:42.788.17-May-2020 4994.01 2917.28 69.70 4.00 276.18 2591.05
   19:41:42.988.17-May-2020 4994.01 2917.27 69.70 4.00 276.38 2591.05
   19:41:43.188.17-May-2020 4994.01 2917.25 69.70 4.00 276.58 2591.05
   19:41:43.388.17-May-2020 4994.01 2917.27 69.70 4.00 276.78 2591.05
   19:41:43.588.17-May-2020 4994.01 2917.25 69.70 4.00 276.98 2591.05
   19:41:43.788.17-May-2020 4994.01 2917.26 69.70 4.00 277.18 2591.05
   19:41:43.988.17-May-2020 4994.01 2917.33 69.70 4.00 277.38 2591.05
   19:41:44.188.17-May-2020 4994.01 2917.23 69.70 4.00 277.58 2591.05
   19:41:44.388.17-May-2020 4994.01 2917.29 69.70 4.00 277.78 2591.05
   19:41:44.588.17-May-2020 4994.01 2917.30 69.70 4.00 277.98 2591.05
   19:41:44.788.17-May-2020 4994.01 2917.30 69.70 4.00 278.18 2591.05
   19:41:44.988.17-May-2020 4994.01 2917.31 69.70 4.00 278.38 2591.05
   19:41:45.188.17-May-2020 4994.01 2917.26 69.70 4.00 278.58 2591.05
   19:41:45.388.17-May-2020 4994.01 2917.26 69.70 4.00 278.78 2591.05
   19:41:45.588.17-May-2020 4994.01 2917.30 69.70 4.00 278.98 2591.05
   19:41:45.788.17-May-2020 4994.01 2917.30 69.70 4.00 279.18 2591.05
   19:41:45.988.17-May-2020 4994.01 2917.24 69.70 4.00 279.38 2591.05
   19:41:46.188.17-May-2020 4994.01 2917.27 69.69 4.00 279.58 2591.05
   19:41:46.388.17-May-2020 4994.01 2917.34 69.69 4.00 279.78 2591.05
   19:41:46.588.17-May-2020 4994.01 2917.26 69.69 4.00 279.98 2591.05
   19:41:46.788.17-May-2020 4994.01 2917.26 69.69 4.00 280.18 2591.05
   19:41:46.988.17-May-2020 4994.01 2917.30 69.69 4.00 280.38 2591.05
   19:41:47.188.17-May-2020 4994.01 2917.24 69.69 4.00 280.58 2591.05
   19:41:47.388.17-May-2020 4994.01 2917.28 69.69 4.00 280.78 2591.05
   19:41:47.588.17-May-2020 4994.01 2917.28 69.69 4.00 280.98 2591.05
   19:41:47.788.17-May-2020 4994.01 2917.28 69.69 4.00 281.18 2591.05
   19:41:47.988.17-May-2020 4994.01 2917.27 69.69 4.00 281.38 2591.05
   19:41:48.188.17-May-2020 4994.01 2917.26 69.69 4.00 281.58 2591.05
   19:41:48.388.17-May-2020 4994.01 2917.25 69.69 4.00 281.78 2591.05
   19:41:48.588.17-May-2020 4994.01 2917.36 69.69 4.00 281.98 2591.05
   19:41:48.788.17-May-2020 4994.01 2917.36 69.69 4.00 282.18 2591.05
   19:41:48.988.17-May-2020 4994.01 2917.28 69.69 4.00 282.38 2591.05
   19:41:49.188.17-May-2020 4994.01 2917.29 69.69 4.00 282.58 2591.05
   19:41:49.388.17-May-2020 4994.01 2917.27 69.69 4.00 282.78 2591.05
   19:41:49.588.17-May-2020 4994.01 2917.27 69.69 4.00 282.98 2591.05
   19:41:49.788.17-May-2020 4994.01 2917.27 69.69 4.00 283.18 2591.05
   19:41:49.988.17-May-2020 4994.01 2917.26 69.69 4.00 283.38 2591.05
   19:41:50.188.17-May-2020 4994.01 2917.26 69.69 4.00 283.58 2591.05
   19:41:50.388.17-May-2020 4994.01 2917.26 69.69 4.00 283.78 2591.05
   19:41:50.588.17-May-2020 4994.01 2917.32 69.69 4.00 283.98 2591.05
   19:41:50.788.17-May-2020 4994.01 2917.32 69.69 4.00 284.18 2591.05
   19:41:50.988.17-May-2020 4994.01 2917.30 69.69 4.00 284.38 2591.05
   19:41:51.188.17-May-2020 4994.01 2917.29 69.69 4.00 284.58 2591.05
   19:41:51.388.17-May-2020 4994.01 2917.35 69.69 4.00 284.78 2591.05
   19:41:51.588.17-May-2020 4994.01 2917.25 69.69 4.00 284.98 2591.05
   19:41:51.788.17-May-2020 4994.01 2917.25 69.69 4.00 285.18 2591.05
   19:41:51.988.17-May-2020 4994.01 2917.28 69.69 4.00 285.38 2591.05
   19:41:52.188.17-May-2020 4994.01 2917.28 69.69 4.00 285.58 2591.05
   19:41:52.388.17-May-2020 4994.01 2917.29 69.69 4.00 285.78 2591.05
   19:41:52.588.17-May-2020 4994.01 2917.35 69.69 4.00 285.98 2591.05
   19:41:52.788.17-May-2020 4994.01 2917.35 69.69 4.00 286.18 2591.05
   19:41:52.988.17-May-2020 4994.01 2917.36 69.69 4.00 286.38 2591.05
   19:41:53.188.17-May-2020 4994.01 2917.22 69.69 4.00 286.58 2591.05
   19:41:53.388.17-May-2020 4994.01 2917.32 69.69 4.00 286.78 2591.05
   19:41:53.588.17-May-2020 4994.01 2917.30 69.69 4.00 286.98 2591.05
   19:41:53.788.17-May-2020 4994.01 2917.30 69.69 4.00 287.18 2591.05
   19:41:53.988.17-May-2020 4994.01 2917.28 69.69 4.00 287.38 2591.05
   19:41:54.188.17-May-2020 4994.01 2917.27 69.69 4.00 287.58 2591.05
   19:41:54.388.17-May-2020 4994.01 2917.27 69.69 4.00 287.78 2591.05
   19:41:54.588.17-May-2020 4994.01 2917.26 69.69 4.00 287.98 2591.05
   19:41:54.787.17-May-2020 4994.01 2917.26 69.69 4.00 288.18 2591.05
   19:41:54.987.17-May-2020 4994.01 2917.26 69.69 4.00 288.38 2591.05
   19:41:55.187.17-May-2020 4994.01 2917.34 69.69 4.00 288.58 2591.05
   19:41:55.387.17-May-2020 4994.01 2917.26 69.69 4.00 288.78 2591.05
   19:41:55.587.17-May-2020 4994.01 2917.24 69.69 4.00 288.98 2591.05
   19:41:55.787.17-May-2020 4994.01 2917.24 69.69 4.00 289.18 2591.05
   19:41:55.987.17-May-2020 4994.01 2917.29 69.69 4.00 289.38 2591.05
   19:41:56.187.17-May-2020 4994.01 2917.27 69.69 4.00 289.58 2591.05
   19:41:56.387.17-May-2020 4994.01 2917.26 69.69 4.00 289.78 2591.05
   19:41:56.587.17-May-2020 4994.01 2917.27 69.68 4.00 289.98 2591.05
   19:41:56.787.17-May-2020 4994.01 2917.27 69.68 4.00 290.18 2591.05
   19:41:56.987.17-May-2020 4994.01 2917.25 69.68 4.00 290.38 2591.05
   19:41:57.187.17-May-2020 4994.01 2917.35 69.68 4.00 290.58 2591.05
   19:41:57.387.17-May-2020 4994.01 2917.19 69.68 4.00 290.78 2591.05
   19:41:57.587.17-May-2020 4994.01 2917.30 69.68 4.00 290.98 2591.05
   19:41:57.787.17-May-2020 4994.01 2917.30 69.68 4.00 291.18 2591.05
   19:41:57.987.17-May-2020 4994.01 2917.30 69.68 4.00 291.38 2591.05
   19:41:58.187.17-May-2020 4994.01 2917.30 69.68 4.00 291.58 2591.05
   19:41:58.387.17-May-2020 4994.01 2917.25 69.68 4.00 291.78 2591.05
   19:41:58.587.17-May-2020 4994.01 2917.27 69.68 4.00 291.98 2591.05
   19:41:58.787.17-May-2020 4994.01 2917.27 69.68 4.00 292.18 2591.05
   19:41:58.987.17-May-2020 4994.01 2917.26 69.68 4.00 292.38 2591.05
   19:41:59.187.17-May-2020 4994.01 2917.32 69.68 4.00 292.58 2591.05
   19:41:59.387.17-May-2020 4994.01 2917.26 69.68 4.00 292.78 2591.05
   19:41:59.587.17-May-2020 4994.01 2917.34 69.68 4.00 292.98 2591.05
   19:41:59.787.17-May-2020 4994.01 2917.34 69.68 4.00 293.18 2591.05
   19:41:59.987.17-May-2020 4994.01 2917.30 69.68 4.00 293.38 2591.05
   19:42:00.187.17-May-2020 4994.01 2917.28 69.68 4.00 293.58 2591.05
   19:42:00.387.17-May-2020 4994.01 2917.27 69.68 4.00 293.78 2591.05
   19:42:00.587.17-May-2020 4994.01 2917.27 69.68 4.00 293.98 2591.05
   19:42:00.787.17-May-2020 4994.01 2917.27 69.68 4.00 294.18 2591.05
   19:42:00.987.17-May-2020 4994.01 2917.27 69.68 4.00 294.38 2591.05
   19:42:01.187.17-May-2020 4994.01 2917.25 69.68 4.00 294.58 2591.05
   19:42:01.387.17-May-2020 4994.01 2917.25 69.68 4.00 294.78 2591.05
   19:42:01.587.17-May-2020 4994.01 2917.26 69.68 4.00 294.98 2591.05
   19:42:01.787.17-May-2020 4994.01 2917.26 69.68 4.00 295.18 2591.05
   19:42:01.987.17-May-2020 4994.01 2917.33 69.68 4.00 295.38 2591.05
   19:42:02.187.17-May-2020 4994.01 2917.24 69.68 4.00 295.58 2591.05
   19:42:02.387.17-May-2020 4994.01 2917.27 69.68 4.00 295.78 2591.05
   19:42:02.587.17-May-2020 4994.01 2917.28 69.68 4.00 295.98 2591.05
   19:42:02.787.17-May-2020 4994.01 2917.28 69.68 4.00 296.18 2591.05
   19:42:02.987.17-May-2020 4994.01 2917.25 69.68 4.00 296.38 2591.05
   19:42:03.187.17-May-2020 4994.01 2917.26 69.68 4.00 296.58 2591.05
   19:42:03.387.17-May-2020 4994.01 2917.25 69.68 4.00 296.78 2591.05
   19:42:03.587.17-May-2020 4994.01 2917.26 69.68 4.00 296.98 2591.05
   19:42:03.787.17-May-2020 4994.01 2917.36 69.68 4.00 297.18 2591.05
   19:42:03.987.17-May-2020 4994.01 2917.20 69.68 4.00 297.38 2591.05
   19:42:04.187.17-May-2020 4994.01 2917.28 69.68 4.00 297.58 2591.05
   19:42:04.387.17-May-2020 4994.01 2917.28 69.68 4.00 297.78 2591.05
   19:42:04.587.17-May-2020 4994.01 2917.29 69.68 4.00 297.98 2591.05
   19:42:04.787.17-May-2020 4994.01 2917.29 69.68 4.00 298.18 2591.05
   19:42:04.987.17-May-2020 4994.01 2917.23 69.68 4.00 298.38 2591.05
   19:42:05.187.17-May-2020 4994.01 2917.27 69.68 4.00 298.58 2591.05
   19:42:05.387.17-May-2020 4994.01 2917.36 69.68 4.00 298.78 2591.05
