~Version Information
 VERS.                  2.0:   CWLS log ASCII Standard -VERSION 2.0
 WRAP.                   NO:   One line per depth step
~Well Information Block
#MNEM.UNIT     VALUE/NAME     DESCRIPTION
#---------     -----------    ---------------------------
 STRT.S             23:36:46 17-May-20: START TIME 23:36:46 17-May-20
 STOP.S             23:44:24 17-May-20: STOP TIME  23:44:24 17-May-20
 STEP.S                   0.00: STEP TIME
 NULL.                 -999.25: NULL VALUE
 UNIT.                     N/A:  LOGGING EQUIPMENT ID
 DCON.         Sperry Drilling:  DIRECTNL CONTR
 DOE .                     N/A:  DOE NUMBER
 JOBN.        AZ-XX-0906252240:  JOB TICKET NUMB
 MWDS.                     N/A:  MWD SHOP
 PROV.                    Baku:  PROVINCE
 STAT.                    Baku:  STATE NAME
 REGN.                   EESSA:  REGION
 BASE.              Azerbaijan:  LOGGING EQUIPMENT BASE LOCATION
 UWI .                     N/A:  UNIQUE WELL IDENTIFIER
 API .                     N/A:  API NUMBER
 MDS .        Operator Entered:  MAG DATA SOURCE
 WTYP.                Deviated:  WELL TYPE
 COMP.     BP Exploration (Caspian Sea) Ltd.:  COMPANY
 SRVC.          Turan Drilling:  CONTRACTOR
 WELL.           J23 (Slot 07):  WELL NAME
 CTRY.              Azerbaijan:  COUNTRY NAME
 FLD .                     ACG:  FIELD NAME
 PDAT.          Mean Sea Level:  PERMANENT DATUM
 RIG .             West Chirag:  RIG NAME
 SON .        AZ-XX-0906252240:  JOB NUMBER
 FTOP.          Formation Tops:  FORM TOPS DESC
 ILTD.               Lithology:  INTERP LTH DESC
 SVYD.                  Survey:  SURVEY DESC
 DMOD.             Drill Model:  DRILL MOD DESC
 HPTY.       Minimum Curvature:  HOLE POS TYPE
 NREF.                    Grid:  NORTH REFERENCE
 SPUD.               27-Aug-20:  SPUD DATE
 DATE.      00.00.00 19-May-20:  END TIME
 STIM.      03.00.00 25-Mar-20:  START TIME
 DMF .             Drill Floor:  DRILL MEAS FROM
 DFST.                        :  DIST FSL TEXT
 DFWT.                        :  DIST FWL TEXT
 CNTY.                        :  COUNTY
 LOC .                        :  LOCATION
 LMF .             Drill Floor:  LOG MEASURED FROM
 VSNS.m                   9.43:  VERT SEC N/S
 VSEW.m                  -8.91:  VERT SEC E/W
 AGAP.m                  43.00:  AIR GAP
 DEP .m                 354.17:  DEPTH
 APD .m                  43.00:  DEPTH ABOVE PD
 WDMS.m                 169.80:  WD ELEV
 EGL .m                   0.00:  GROUND ELEVATION
 EPD .m                   0.00:  ELEVATION
 AZTC.deg                 6.31:  AZM TOTAL CORR
 GRDC.deg                 0.14:  GRID CORRECTION
 MDEC.deg                 6.45:  MAGNETIC DECL
 MDIP.deg                59.56:  MAGNETIC DIP
 MFLD.nT              50295.00:  MAGNETIC FIELD
 GVFD.g                   1.00:  GRAVITY FIELD
 VSDR.deg               179.88:  VERT SEC DIRECT
 TDD .m                5150.01:  TOTAL DEPTH (DRILLER)
 SDEP.m                 864.00:  START DEPTH
 DFSL.m                   0.00:  DISTANCE FSL
 DFWL.m                   0.00:  DISTANCE FWL
 UTMY.m             4443793.85:  UTM Y
 UTMX.m              519005.06:  UTM X
 WHEW.m                  -8.91:  WELL HEAD E/W
 WHNS.m                   9.43:  WELL HEAD N/S
 LONG.deg                51.22:  LONGITUDE
 LATI.deg                40.13:  LATITUDE
 TVDS.m                  43.00:  TVDSS CORRECTN
 EKB .m                   0.00:  KB ELEVATION
 EDF .m                  43.00:  DF ELEVATION
 TDL .m                 363.00:  TOTAL DEPTH (LOGGER)
 MAGU.                 1850802:  MAGUTM CHECKSUM
 VSC .                       0:  VS TO CLOSURE
~Parameter Information Block
#MNEM.UNIT       Value        Description
#---------     -----------    ---------------------------
 AV  .mps                 2.30:  Ann Velocity 
 AVMX.mps                 4.40:  Max Ann Veloc 
 AZIF.deg               110.24:  Azm, Final 
 BHAT.        Rotary Steerable:  BHA Type 
 BREV.rev               331.00:  Rev Bit Total 
 BROT.°/30m               0.00:  Build Rotating 
 BS  .in                  8.50:  Bit Size 
 BSZ .in                  8.50:  Bit Size 
 BTPL.psig              585.00:  Bit Press Loss 
 CABU.                     Yes:  Customer Abuse 
 TCS .hr                122.75:  Time Ciculation Ended 
 CV  .mps                 2.67:  Crit Velocity 
 CVMX.mps                 3.56:  Max Crit Veloc 
 DD1 .          Rashad Habibov:  Direct Drillr 1 
 DD2 .         Rasim Ibrahimov:  Direct Drillr 2 
 DDSV.               Geo-Pilot:  DD Service 
 DEFF.%                  98.00:  % Det Eff 
 DLRX.°/30m               0.75:  Dogleg Rot Max 
 DLSO.°/30m               1.25:  Dogleg Oriented 
 DLSX.°/30m               2.06:  Dogleg Str Max 
 DRET.      07.45.00 17-May-20:  Drill End Time 
 DRST.      22.50.00 15-May-20:  Drill Start Tim 
 DTIM.hr                 20.75:  Time Drilling 
 EDEP.m                5124.01:  End Depth 
 ENG1.           Eldar Hajiyev:  Engineer 1 
 ENG2.        Marcelo Sandoval:  Engineer 2 
 ENG3.        Davud huseynzada:  Engineer 3 
 ENG4.          Ruslan Safarov:  Engineer 4 
 ETIM.      04.33.00 23-May-20:  End Time 
 FLOI.gpm               450.00:  Flow In 
 FLON.gpm               400.00:  Flow In Min 
 FLOS.cptm                0.00:  Fluid Loss 
 FLOX.gpm               500.00:  Flow In Max 
 FTRO.       Formation Presure:  FTWD Run Obj 
 HFLO.                      No:  High Flow 
 HPRE.                     Yes:  High Pressure 
 HTEM.                      No:  High Temp 
 HYDO.m                   1.80:  Hydro Offset 
 IFIN.deg                75.06:  Inc, Final 
 IMAX.deg                75.38:  Inc Max 
 IMIN.deg                74.69:  Inc Min 
 IMND.m                5027.38:  Inc Min Depth 
 IMXD.m                4771.61:  Inc Max Depth 
 JARR.                      No:  Jarring 
 LETM.      07.45.00 17-May-20:  Log End Time 
 LOST.hr                     0:  Lost Rig Time 
 LSTM.      22.50.00 15-May-20:  Log Start Time 
 MDCL.ppm             42000.00:  Mud Chlorides 
 MDES.     Inversion Oil/Synthetic:  Mud Desc 
 DFD .sg                  1.34:  Mud Density 
 MDMN.sg                  1.34:  Dens Mud Min 
 MDMX.sg                  1.34:  Dens Mud Max 
 MOIL.                       0:  Run Mud Oil % 
 MOWR.                   67:33:  Run Mud OWR 
 MSND.                       0:  Run Mud Sand % 
 MSOL.                     1.8:  Run Mud Solids% 
 DFV .spqt               76.00:  Mud Viscosity 
 MWOD.in                  6.75:  MWD Tool OD 
 MWSI.                      No:  Serv Intrp, MWD 
 OTIM.hr                228.19:  Time Operating 
 PCON.           Look Like New:  Pad Condition 
 PMAX.psia             6164.70:  Press Op, Max 
 PV  .cP                 28.00:  Mud PV 
 RUN .                     900:  Run Number 
 ROPA.m/hr               19.00:  ROP Avg 
 ROPN.m/hr               11.00:  ROP Min 
 ROPX.m/hr               36.00:  ROP Max 
 RPMA.rpm               120.00:  RPM Surface Avg 
 RPMN.rpm               120.00:  RPM Surface Min 
 RPMX.rpm               120.00:  RPM Surface Max 
 RRUN.                    L604:  Rig Run Number 
 RTIM.hr                  7.00:  Time Reaming 
 SAZI.deg               109.27:  Azm, Start 
 SDEP.m                4761.01:  Start Depth 
 SIDD.                      No:  Serv Intrp, DD 
 SINC.deg                75.38:  Inc, Start 
 SPPA.psig             3574.00:  SPP Avg 
 SPPN.psig             3475.00:  SPP Min 
 SPPX.psig             3791.00:  SPP Max 
 STIM.      07.08.48 13-May-20:  Start Time 
 SVCS.                 DD, MWD:  Services 
 SVER.                    9.20:  Sperry Version 
 TDAT.m                 363.00:  Tot Depth Attmp 
 TDDF.                      No:  Trip for DD 
 TDLG.m                 363.00:  Tot Depth Loggd 
 TFF .                      No:  Trip for Fail 
 TQAA.f-kp               20.00:  Torque Abs Avg 
 TQAN.f-kp               18.00:  Torque Abs Min 
 TQAX.f-kp               22.00:  Torque Abs Max 
 TRRT.°/30m              -0.35:  Turn Rotating 
 MRT .                    HCIM:  Maximum Recorded Temperature 
 TTMX.degC               92.16:  Max Tool Temp 
 VS01.                90586518:  Virtual Str1 SN 
 VS02.        AZ90560654Z1W1C6:  Virtual Str2 SN 
 VS03.           AZ90610398F11:  Virtual Str3 SN 
 VS04.                90514975:  Virtual Str4 SN 
 VS05.                90514972:  Virtual Str5 SN 
 VS06.     AZ90603282F11V7D1A6:  Virtual Str6 SN 
 WBMN.klb                 7.00:  WOB Min 
 WOBA.klb                12.00:  WOB Avg 
 WOBX.klb                14.00:  WOB Max 
 YP  .lhf2               32.00:  Yield Point 
~Curve Information Block
#MNEM.UNIT                 API CODE     Curve Description
#---------               -----------    ---------------------------
 TIME.HHMMSS            00 000 000 000:  GT Time & Date
 GTDEPTH.m              00 000 000 000:  GT Depth
 GTPQH.psia             00 000 000 000:  GT HR Quartz Pressure
 GTTQ.degC              00 000 000 000:  GT Quartz Temperature
 GTTN.NONE              00 000 000 000:  GT Test Number
 GTET.sec               00 000 000 000:  GT Elapsed Test Time
 GTTVD.m                00 000 000 000:  GT True Vertical Depth
#Other Information
#
#WARRANTY: Halliburton will use its best efforts to furnish customers with 
#accurate information and interpretations that are part of, and incident to, the services 
#provided.  However, Halliburton cannot and does not warrant the accuracy 
#or correctness of such information and interpretations.  Under no circumstances should any 
#such information or interpretation be relied upon as the sole basis for any drilling, 
#completion, production, or financial decision or any procedure involving any risk to the 
#safety of any drilling venture, drilling rig or its crew or any other third party.  The 
#Customer has full responsibility for all drilling, completion and production operation.  
#Halliburton makes no representations or warranties, either expressed or 
#implied, including, but not limited to, the implied warranties of merchantability or fitness 
#for a particular purpose, with respect to the services rendered.  In no event will 
#Halliburton be liable for failure to obtain any particular results or for 
#any damages, including, but not limited to, indirect, special or consequential damages, 
#resulting from the use of any information or interpretation provided by Halliburton.
#
~A           TIME           GTDEPTH  GTPQH  GTTQ  GTTN  GTET   GTTVD  
# ...
   23:40:58.942.17-May-2020 4902.01 3561.05 66.30 9.00 252.87 2567.50
   23:40:59.142.17-May-2020 4902.01 3561.05 66.30 9.00 253.07 2567.50
   23:40:59.342.17-May-2020 4902.01 3562.20 66.30 9.00 253.27 2567.50
   23:40:59.542.17-May-2020 4902.01 3563.18 66.30 9.00 253.47 2567.50
   23:40:59.742.17-May-2020 4902.01 3563.78 66.30 9.00 253.67 2567.50
   23:40:59.942.17-May-2020 4902.01 3564.43 66.30 9.00 253.87 2567.50
   23:41:00.142.17-May-2020 4902.01 3564.43 66.30 9.00 254.07 2567.50
   23:41:00.342.17-May-2020 4902.01 3565.33 66.30 9.00 254.27 2567.50
   23:41:00.541.17-May-2020 4902.01 3566.11 66.30 9.00 254.47 2567.50
   23:41:00.741.17-May-2020 4902.01 3566.69 66.30 9.00 254.67 2567.50
   23:41:00.941.17-May-2020 4902.01 3565.27 66.30 9.00 254.87 2567.50
   23:41:01.141.17-May-2020 4902.01 3565.27 66.30 9.00 255.07 2567.50
   23:41:01.341.17-May-2020 4902.01 3566.15 66.30 9.00 255.27 2567.50
   23:41:01.541.17-May-2020 4902.01 3566.66 66.30 9.00 255.47 2567.50
   23:41:01.741.17-May-2020 4902.01 3566.88 66.30 9.00 255.67 2567.50
   23:41:01.941.17-May-2020 4902.01 3566.13 66.30 9.00 255.87 2567.50
   23:41:02.141.17-May-2020 4902.01 3566.13 66.30 9.00 256.07 2567.50
   23:41:02.340.17-May-2020 4902.01 3566.83 66.30 9.00 256.27 2567.50
   23:41:02.540.17-May-2020 4902.01 3567.31 66.30 9.00 256.47 2567.50
   23:41:02.740.17-May-2020 4902.01 3566.66 66.30 9.00 256.67 2567.50
   23:41:02.940.17-May-2020 4902.01 3565.76 66.30 9.00 256.87 2567.50
   23:41:03.140.17-May-2020 4902.01 3565.76 66.30 9.00 257.07 2567.50
   23:41:03.340.17-May-2020 4902.01 3565.65 66.30 9.00 257.27 2567.50
   23:41:03.540.17-May-2020 4902.01 3565.06 66.30 9.00 257.47 2567.50
   23:41:03.740.17-May-2020 4902.01 3565.16 66.30 9.00 257.67 2567.50
   23:41:03.940.17-May-2020 4902.01 3566.27 66.30 9.00 257.87 2567.50
   23:41:04.140.17-May-2020 4902.01 3566.27 66.30 9.00 258.07 2567.50
   23:41:04.339.17-May-2020 4902.01 3568.34 66.30 9.00 258.27 2567.50
   23:41:04.539.17-May-2020 4902.01 3569.13 66.30 9.00 258.47 2567.50
   23:41:04.739.17-May-2020 4902.01 3569.85 66.30 9.00 258.67 2567.50
   23:41:04.939.17-May-2020 4902.01 3570.54 66.30 9.00 258.87 2567.50
   23:41:05.139.17-May-2020 4902.01 3570.54 66.30 9.00 259.07 2567.50
   23:41:05.339.17-May-2020 4902.01 3568.98 66.30 9.00 259.27 2567.50
   23:41:05.539.17-May-2020 4902.01 3039.13 66.30 9.00 259.47 2567.50
   23:41:05.739.17-May-2020 4902.01 2495.44 66.30 9.00 259.67 2567.50
   23:41:05.939.17-May-2020 4902.01 2063.47 66.30 9.00 259.87 2567.50
   23:41:06.139.17-May-2020 4902.01 2063.47 66.30 9.00 260.07 2567.50
   23:41:06.338.17-May-2020 4902.01 1391.41 66.30 9.00 260.27 2567.50
   23:41:06.538.17-May-2020 4902.01 1117.06 66.30 9.00 260.47 2567.50
   23:41:06.738.17-May-2020 4902.01  870.86 66.30 9.00 260.67 2567.50
   23:41:06.938.17-May-2020 4902.01  644.19 66.30 9.00 260.87 2567.50
   23:41:07.138.17-May-2020 4902.01  644.19 66.30 9.00 261.07 2567.50
   23:41:07.338.17-May-2020 4902.01  295.26 66.29 9.00 261.27 2567.50
   23:41:07.538.17-May-2020 4902.01  195.61 66.29 9.00 261.47 2567.50
   23:41:07.738.17-May-2020 4902.01  134.85 66.29 9.00 261.67 2567.50
   23:41:07.938.17-May-2020 4902.01  101.04 66.29 9.00 261.87 2567.50
   23:41:08.138.17-May-2020 4902.01   81.03 66.29 9.00 262.07 2567.50
   23:41:08.337.17-May-2020 4902.01   66.97 66.28 9.00 262.27 2567.50
   23:41:08.537.17-May-2020 4902.01   57.35 66.28 9.00 262.47 2567.50
   23:41:08.737.17-May-2020 4902.01   50.23 66.28 9.00 262.67 2567.50
   23:41:08.937.17-May-2020 4902.01   44.86 66.28 9.00 262.87 2567.50
   23:41:09.137.17-May-2020 4902.01   44.86 66.28 9.00 263.07 2567.50
   23:41:09.337.17-May-2020 4902.01   37.11 66.27 9.00 263.26 2567.50
   23:41:09.537.17-May-2020 4902.01   34.30 66.27 9.00 263.46 2567.50
   23:41:09.737.17-May-2020 4902.01   31.85 66.27 9.00 263.66 2567.50
   23:41:09.937.17-May-2020 4902.01   29.97 66.26 9.00 263.86 2567.50
   23:41:10.136.17-May-2020 4902.01   29.97 66.26 9.00 264.06 2567.50
   23:41:10.336.17-May-2020 4902.01   26.92 66.26 9.00 264.26 2567.50
   23:41:10.536.17-May-2020 4902.01   25.73 66.25 9.00 264.46 2567.50
   23:41:10.736.17-May-2020 4902.01   24.66 66.25 9.00 264.66 2567.50
   23:41:10.936.17-May-2020 4902.01   23.76 66.25 9.00 264.86 2567.50
   23:41:11.136.17-May-2020 4902.01   23.76 66.25 9.00 265.06 2567.50
   23:41:11.336.17-May-2020 4902.01   22.16 66.24 9.00 265.26 2567.50
   23:41:11.536.17-May-2020 4902.01   21.45 66.24 9.00 265.46 2567.50
   23:41:11.736.17-May-2020 4902.01   20.83 66.24 9.00 265.66 2567.50
   23:41:11.936.17-May-2020 4902.01   20.26 66.24 9.00 265.86 2567.50
   23:41:12.135.17-May-2020 4902.01   20.26 66.24 9.00 266.06 2567.50
   23:41:12.335.17-May-2020 4902.01   19.27 66.23 9.00 266.26 2567.50
   23:41:12.535.17-May-2020 4902.01   18.85 66.23 9.00 266.46 2567.50
   23:41:12.735.17-May-2020 4902.01   18.47 66.23 9.00 266.66 2567.50
   23:41:12.935.17-May-2020 4902.01   18.14 66.23 9.00 266.86 2567.50
   23:41:13.135.17-May-2020 4902.01   18.14 66.23 9.00 267.06 2567.50
   23:41:13.335.17-May-2020 4902.01   17.53 66.22 9.00 267.26 2567.50
   23:41:13.535.17-May-2020 4902.01   17.27 66.22 9.00 267.46 2567.50
   23:41:13.735.17-May-2020 4902.01   17.00 66.22 9.00 267.66 2567.50
   23:41:13.935.17-May-2020 4902.01   16.78 66.22 9.00 267.86 2567.50
   23:41:14.134.17-May-2020 4902.01   16.78 66.22 9.00 268.06 2567.50
   23:41:14.334.17-May-2020 4902.01   16.37 66.21 9.00 268.26 2567.50
   23:41:14.534.17-May-2020 4902.01   16.19 66.21 9.00 268.46 2567.50
   23:41:14.734.17-May-2020 4902.01   16.02 66.21 9.00 268.66 2567.50
   23:41:14.934.17-May-2020 4902.01   15.87 66.21 9.00 268.86 2567.50
   23:41:15.134.17-May-2020 4902.01   15.87 66.21 9.00 269.06 2567.50
   23:41:15.334.17-May-2020 4902.01   15.61 66.21 9.00 269.26 2567.50
   23:41:15.534.17-May-2020 4902.01   15.55 66.21 9.00 269.46 2567.50
   23:41:15.734.17-May-2020 4902.01   15.79 66.20 9.00 269.66 2567.50
   23:41:15.934.17-May-2020 4902.01   16.18 66.20 9.00 269.86 2567.50
   23:41:16.133.17-May-2020 4902.01   16.18 66.20 9.00 270.06 2567.50
   23:41:16.333.17-May-2020 4902.01   17.10 66.20 9.00 270.26 2567.50
   23:41:16.533.17-May-2020 4902.01   17.60 66.20 9.00 270.46 2567.50
   23:41:16.733.17-May-2020 4902.01   18.08 66.20 9.00 270.66 2567.50
   23:41:16.933.17-May-2020 4902.01   18.60 66.20 9.00 270.86 2567.50
   23:41:17.133.17-May-2020 4902.01   18.60 66.20 9.00 271.06 2567.50
   23:41:17.333.17-May-2020 4902.01   19.61 66.20 9.00 271.26 2567.50
   23:41:17.533.17-May-2020 4902.01   20.16 66.20 9.00 271.46 2567.50
   23:41:17.733.17-May-2020 4902.01   20.75 66.20 9.00 271.66 2567.50
   23:41:17.932.17-May-2020 4902.01   21.39 66.20 9.00 271.86 2567.50
   23:41:18.132.17-May-2020 4902.01   21.39 66.20 9.00 272.06 2567.50
   23:41:18.332.17-May-2020 4902.01   22.84 66.19 9.00 272.26 2567.50
   23:41:18.532.17-May-2020 4902.01   23.66 66.19 9.00 272.46 2567.50
   23:41:18.732.17-May-2020 4902.01   24.57 66.19 9.00 272.66 2567.50
   23:41:18.932.17-May-2020 4902.01   25.56 66.19 9.00 272.86 2567.50
   23:41:19.132.17-May-2020 4902.01   25.56 66.19 9.00 273.06 2567.50
   23:41:19.332.17-May-2020 4902.01   27.75 66.19 9.00 273.26 2567.50
   23:41:19.532.17-May-2020 4902.01   29.02 66.19 9.00 273.46 2567.50
   23:41:19.732.17-May-2020 4902.01   30.40 66.19 9.00 273.66 2567.50
   23:41:19.931.17-May-2020 4902.01   31.92 66.19 9.00 273.86 2567.50
   23:41:20.131.17-May-2020 4902.01   31.92 66.19 9.00 274.06 2567.50
   23:41:20.331.17-May-2020 4902.01   35.52 66.19 9.00 274.26 2567.50
   23:41:20.531.17-May-2020 4902.01   37.64 66.19 9.00 274.46 2567.50
   23:41:20.731.17-May-2020 4902.01   40.04 66.19 9.00 274.66 2567.50
   23:41:20.931.17-May-2020 4902.01   42.80 66.19 9.00 274.86 2567.50
   23:41:21.131.17-May-2020 4902.01   42.80 66.19 9.00 275.06 2567.50
   23:41:21.331.17-May-2020 4902.01   49.66 66.19 9.00 275.26 2567.50
   23:41:21.531.17-May-2020 4902.01   54.07 66.19 9.00 275.46 2567.50
   23:41:21.731.17-May-2020 4902.01   59.32 66.19 9.00 275.66 2567.50
