~Version Information
 VERS.                  2.0:   CWLS log ASCII Standard -VERSION 2.0
 WRAP.                   NO:   One line per depth step
~Well Information Block
#MNEM.UNIT     VALUE/NAME     DESCRIPTION
#---------     -----------    ---------------------------
 STRT.S             03:21:16 18-May-20: START TIME 03:21:16 18-May-20
 STOP.S             03:28:29 18-May-20: STOP TIME  03:28:29 18-May-20
 STEP.S                   0.00: STEP TIME
 NULL.                 -999.25: NULL VALUE
 UNIT.                     N/A:  LOGGING EQUIPMENT ID
 DCON.         Sperry Drilling:  DIRECTNL CONTR
 DOE .                     N/A:  DOE NUMBER
 JOBN.        AZ-XX-0906252240:  JOB TICKET NUMB
 MWDS.                     N/A:  MWD SHOP
 PROV.                    Baku:  PROVINCE
 STAT.                    Baku:  STATE NAME
 REGN.                   EESSA:  REGION
 BASE.              Azerbaijan:  LOGGING EQUIPMENT BASE LOCATION
 UWI .                     N/A:  UNIQUE WELL IDENTIFIER
 API .                     N/A:  API NUMBER
 MDS .        Operator Entered:  MAG DATA SOURCE
 WTYP.                Deviated:  WELL TYPE
 COMP.     BP Exploration (Caspian Sea) Ltd.:  COMPANY
 SRVC.          Turan Drilling:  CONTRACTOR
 WELL.           J23 (Slot 07):  WELL NAME
 CTRY.              Azerbaijan:  COUNTRY NAME
 FLD .                     ACG:  FIELD NAME
 PDAT.          Mean Sea Level:  PERMANENT DATUM
 RIG .             West Chirag:  RIG NAME
 SON .        AZ-XX-0906252240:  JOB NUMBER
 FTOP.          Formation Tops:  FORM TOPS DESC
 ILTD.               Lithology:  INTERP LTH DESC
 SVYD.                  Survey:  SURVEY DESC
 DMOD.             Drill Model:  DRILL MOD DESC
 HPTY.       Minimum Curvature:  HOLE POS TYPE
 NREF.                    Grid:  NORTH REFERENCE
 SPUD.               27-Aug-20:  SPUD DATE
 DATE.      00.00.00 19-May-20:  END TIME
 STIM.      03.00.00 25-Mar-20:  START TIME
 DMF .             Drill Floor:  DRILL MEAS FROM
 DFST.                        :  DIST FSL TEXT
 DFWT.                        :  DIST FWL TEXT
 CNTY.                        :  COUNTY
 LOC .                        :  LOCATION
 LMF .             Drill Floor:  LOG MEASURED FROM
 VSNS.m                   9.43:  VERT SEC N/S
 VSEW.m                  -8.91:  VERT SEC E/W
 AGAP.m                  43.00:  AIR GAP
 DEP .m                 354.17:  DEPTH
 APD .m                  43.00:  DEPTH ABOVE PD
 WDMS.m                 169.80:  WD ELEV
 EGL .m                   0.00:  GROUND ELEVATION
 EPD .m                   0.00:  ELEVATION
 AZTC.deg                 6.31:  AZM TOTAL CORR
 GRDC.deg                 0.14:  GRID CORRECTION
 MDEC.deg                 6.45:  MAGNETIC DECL
 MDIP.deg                59.56:  MAGNETIC DIP
 MFLD.nT              50295.00:  MAGNETIC FIELD
 GVFD.g                   1.00:  GRAVITY FIELD
 VSDR.deg               179.88:  VERT SEC DIRECT
 TDD .m                5150.01:  TOTAL DEPTH (DRILLER)
 SDEP.m                 864.00:  START DEPTH
 DFSL.m                   0.00:  DISTANCE FSL
 DFWL.m                   0.00:  DISTANCE FWL
 UTMY.m             4443793.85:  UTM Y
 UTMX.m              519005.06:  UTM X
 WHEW.m                  -8.91:  WELL HEAD E/W
 WHNS.m                   9.43:  WELL HEAD N/S
 LONG.deg                51.22:  LONGITUDE
 LATI.deg                40.13:  LATITUDE
 TVDS.m                  43.00:  TVDSS CORRECTN
 EKB .m                   0.00:  KB ELEVATION
 EDF .m                  43.00:  DF ELEVATION
 TDL .m                 363.00:  TOTAL DEPTH (LOGGER)
 MAGU.                 1850802:  MAGUTM CHECKSUM
 VSC .                       0:  VS TO CLOSURE
~Parameter Information Block
#MNEM.UNIT       Value        Description
#---------     -----------    ---------------------------
 AV  .mps                 2.30:  Ann Velocity 
 AVMX.mps                 4.40:  Max Ann Veloc 
 AZIF.deg               110.24:  Azm, Final 
 BHAT.        Rotary Steerable:  BHA Type 
 BREV.rev               331.00:  Rev Bit Total 
 BROT.°/30m               0.00:  Build Rotating 
 BS  .in                  8.50:  Bit Size 
 BSZ .in                  8.50:  Bit Size 
 BTPL.psig              585.00:  Bit Press Loss 
 CABU.                     Yes:  Customer Abuse 
 TCS .hr                122.75:  Time Ciculation Ended 
 CV  .mps                 2.67:  Crit Velocity 
 CVMX.mps                 3.56:  Max Crit Veloc 
 DD1 .          Rashad Habibov:  Direct Drillr 1 
 DD2 .         Rasim Ibrahimov:  Direct Drillr 2 
 DDSV.               Geo-Pilot:  DD Service 
 DEFF.%                  98.00:  % Det Eff 
 DLRX.°/30m               0.75:  Dogleg Rot Max 
 DLSO.°/30m               1.25:  Dogleg Oriented 
 DLSX.°/30m               2.06:  Dogleg Str Max 
 DRET.      07.45.00 17-May-20:  Drill End Time 
 DRST.      22.50.00 15-May-20:  Drill Start Tim 
 DTIM.hr                 20.75:  Time Drilling 
 EDEP.m                5124.01:  End Depth 
 ENG1.           Eldar Hajiyev:  Engineer 1 
 ENG2.        Marcelo Sandoval:  Engineer 2 
 ENG3.        Davud huseynzada:  Engineer 3 
 ENG4.          Ruslan Safarov:  Engineer 4 
 ETIM.      04.33.00 23-May-20:  End Time 
 FLOI.gpm               450.00:  Flow In 
 FLON.gpm               400.00:  Flow In Min 
 FLOS.cptm                0.00:  Fluid Loss 
 FLOX.gpm               500.00:  Flow In Max 
 FTRO.       Formation Presure:  FTWD Run Obj 
 HFLO.                      No:  High Flow 
 HPRE.                     Yes:  High Pressure 
 HTEM.                      No:  High Temp 
 HYDO.m                   1.80:  Hydro Offset 
 IFIN.deg                75.06:  Inc, Final 
 IMAX.deg                75.38:  Inc Max 
 IMIN.deg                74.69:  Inc Min 
 IMND.m                5027.38:  Inc Min Depth 
 IMXD.m                4771.61:  Inc Max Depth 
 JARR.                      No:  Jarring 
 LETM.      07.45.00 17-May-20:  Log End Time 
 LOST.hr                     0:  Lost Rig Time 
 LSTM.      22.50.00 15-May-20:  Log Start Time 
 MDCL.ppm             42000.00:  Mud Chlorides 
 MDES.     Inversion Oil/Synthetic:  Mud Desc 
 DFD .sg                  1.34:  Mud Density 
 MDMN.sg                  1.34:  Dens Mud Min 
 MDMX.sg                  1.34:  Dens Mud Max 
 MOIL.                       0:  Run Mud Oil % 
 MOWR.                   67:33:  Run Mud OWR 
 MSND.                       0:  Run Mud Sand % 
 MSOL.                     1.8:  Run Mud Solids% 
 DFV .spqt               76.00:  Mud Viscosity 
 MWOD.in                  6.75:  MWD Tool OD 
 MWSI.                      No:  Serv Intrp, MWD 
 OTIM.hr                228.19:  Time Operating 
 PCON.           Look Like New:  Pad Condition 
 PMAX.psia             6164.70:  Press Op, Max 
 PV  .cP                 28.00:  Mud PV 
 RUN .                     900:  Run Number 
 ROPA.m/hr               19.00:  ROP Avg 
 ROPN.m/hr               11.00:  ROP Min 
 ROPX.m/hr               36.00:  ROP Max 
 RPMA.rpm               120.00:  RPM Surface Avg 
 RPMN.rpm               120.00:  RPM Surface Min 
 RPMX.rpm               120.00:  RPM Surface Max 
 RRUN.                    L604:  Rig Run Number 
 RTIM.hr                  7.00:  Time Reaming 
 SAZI.deg               109.27:  Azm, Start 
 SDEP.m                4761.01:  Start Depth 
 SIDD.                      No:  Serv Intrp, DD 
 SINC.deg                75.38:  Inc, Start 
 SPPA.psig             3574.00:  SPP Avg 
 SPPN.psig             3475.00:  SPP Min 
 SPPX.psig             3791.00:  SPP Max 
 STIM.      07.08.48 13-May-20:  Start Time 
 SVCS.                 DD, MWD:  Services 
 SVER.                    9.20:  Sperry Version 
 TDAT.m                 363.00:  Tot Depth Attmp 
 TDDF.                      No:  Trip for DD 
 TDLG.m                 363.00:  Tot Depth Loggd 
 TFF .                      No:  Trip for Fail 
 TQAA.f-kp               20.00:  Torque Abs Avg 
 TQAN.f-kp               18.00:  Torque Abs Min 
 TQAX.f-kp               22.00:  Torque Abs Max 
 TRRT.°/30m              -0.35:  Turn Rotating 
 MRT .                    HCIM:  Maximum Recorded Temperature 
 TTMX.degC               92.16:  Max Tool Temp 
 VS01.                90586518:  Virtual Str1 SN 
 VS02.        AZ90560654Z1W1C6:  Virtual Str2 SN 
 VS03.           AZ90610398F11:  Virtual Str3 SN 
 VS04.                90514975:  Virtual Str4 SN 
 VS05.                90514972:  Virtual Str5 SN 
 VS06.     AZ90603282F11V7D1A6:  Virtual Str6 SN 
 WBMN.klb                 7.00:  WOB Min 
 WOBA.klb                12.00:  WOB Avg 
 WOBX.klb                14.00:  WOB Max 
 YP  .lhf2               32.00:  Yield Point 
~Curve Information Block
#MNEM.UNIT                 API CODE     Curve Description
#---------               -----------    ---------------------------
 TIME.HHMMSS            00 000 000 000:  GT Time & Date
 GTDEPTH.m              00 000 000 000:  GT Depth
 GTPQH.psia             00 000 000 000:  GT HR Quartz Pressure
 GTTQ.degC              00 000 000 000:  GT Quartz Temperature
 GTTN.NONE              00 000 000 000:  GT Test Number
 GTET.sec               00 000 000 000:  GT Elapsed Test Time
 GTTVD.m                00 000 000 000:  GT True Vertical Depth
#Other Information
#
#WARRANTY: Halliburton will use its best efforts to furnish customers with 
#accurate information and interpretations that are part of, and incident to, the services 
#provided.  However, Halliburton cannot and does not warrant the accuracy 
#or correctness of such information and interpretations.  Under no circumstances should any 
#such information or interpretation be relied upon as the sole basis for any drilling, 
#completion, production, or financial decision or any procedure involving any risk to the 
#safety of any drilling venture, drilling rig or its crew or any other third party.  The 
#Customer has full responsibility for all drilling, completion and production operation.  
#Halliburton makes no representations or warranties, either expressed or 
#implied, including, but not limited to, the implied warranties of merchantability or fitness 
#for a particular purpose, with respect to the services rendered.  In no event will 
#Halliburton be liable for failure to obtain any particular results or for 
#any damages, including, but not limited to, indirect, special or consequential damages, 
#resulting from the use of any information or interpretation provided by Halliburton.
#
~A           TIME           GTDEPTH  GTPQH  GTTQ  GTTN   GTET   GTTVD  
# ...
   03:25:47.898.18-May-2020 4797.01 3415.24 65.91 13.00 271.31 2540.22
   03:25:48.099.18-May-2020 4797.01 3411.45 65.91 13.00 271.51 2540.22
   03:25:48.299.18-May-2020 4797.01 3412.48 65.91 13.00 271.71 2540.22
   03:25:48.499.18-May-2020 4797.01 3410.44 65.91 13.00 271.91 2540.22
   03:25:48.699.18-May-2020 4797.01 3412.51 65.91 13.00 272.11 2540.22
   03:25:48.899.18-May-2020 4797.01 3412.22 65.90 13.00 272.31 2540.22
   03:25:49.099.18-May-2020 4797.01 3411.29 65.90 13.00 272.51 2540.22
   03:25:49.299.18-May-2020 4797.01 3409.42 65.90 13.00 272.71 2540.22
   03:25:49.499.18-May-2020 4797.01 3410.76 65.90 13.00 272.91 2540.22
   03:25:49.699.18-May-2020 4797.01 3408.46 65.90 13.00 273.11 2540.22
   03:25:49.899.18-May-2020 4797.01 3408.46 65.90 13.00 273.31 2540.22
   03:25:50.099.18-May-2020 4797.01 3415.07 65.90 13.00 273.51 2540.22
   03:25:50.299.18-May-2020 4797.01 3415.96 65.90 13.00 273.71 2540.22
   03:25:50.500.18-May-2020 4797.01 3416.40 65.90 13.00 273.91 2540.22
   03:25:50.700.18-May-2020 4797.01 3417.60 65.90 13.00 274.11 2540.22
   03:25:50.900.18-May-2020 4797.01 3417.60 65.90 13.00 274.31 2540.22
   03:25:51.100.18-May-2020 4797.01 3414.49 65.90 13.00 274.51 2540.22
   03:25:51.300.18-May-2020 4797.01 3415.06 65.90 13.00 274.71 2540.22
   03:25:51.500.18-May-2020 4797.01 3415.43 65.90 13.00 274.91 2540.22
   03:25:51.700.18-May-2020 4797.01 3415.73 65.90 13.00 275.11 2540.22
   03:25:51.900.18-May-2020 4797.01 3415.73 65.90 13.00 275.31 2540.22
   03:25:52.100.18-May-2020 4797.01 3418.74 65.90 13.00 275.51 2540.22
   03:25:52.300.18-May-2020 4797.01 3417.09 65.90 13.00 275.71 2540.22
   03:25:52.500.18-May-2020 4797.01 3416.55 65.90 13.00 275.91 2540.22
   03:25:52.700.18-May-2020 4797.01 3415.86 65.90 13.00 276.11 2540.22
   03:25:52.900.18-May-2020 4797.01 3415.86 65.90 13.00 276.31 2540.22
   03:25:53.101.18-May-2020 4797.01 3415.41 65.90 13.00 276.51 2540.22
   03:25:53.301.18-May-2020 4797.01 3415.35 65.90 13.00 276.71 2540.22
   03:25:53.501.18-May-2020 4797.01 3412.96 65.90 13.00 276.91 2540.22
   03:25:53.701.18-May-2020 4797.01 3416.33 65.90 13.00 277.11 2540.22
   03:25:53.901.18-May-2020 4797.01 3415.78 65.90 13.00 277.31 2540.22
   03:25:54.101.18-May-2020 4797.01 3414.47 65.90 13.00 277.51 2540.22
   03:25:54.301.18-May-2020 4797.01 3414.14 65.90 13.00 277.71 2540.22
   03:25:54.501.18-May-2020 4797.01 3418.23 65.90 13.00 277.91 2540.22
   03:25:54.701.18-May-2020 4797.01 3411.57 65.90 13.00 278.11 2540.22
   03:25:54.901.18-May-2020 4797.01 3411.57 65.90 13.00 278.31 2540.22
   03:25:55.101.18-May-2020 4797.01 3518.01 65.90 13.00 278.51 2540.22
   03:25:55.301.18-May-2020 4797.01 3702.49 65.90 13.00 278.71 2540.22
   03:25:55.502.18-May-2020 4797.01 3772.24 65.90 13.00 278.91 2540.22
   03:25:55.702.18-May-2020 4797.01 3796.36 65.90 13.00 279.11 2540.22
   03:25:55.902.18-May-2020 4797.01 3796.36 65.90 13.00 279.31 2540.22
   03:25:56.102.18-May-2020 4797.01 3807.22 65.90 13.00 279.51 2540.22
   03:25:56.302.18-May-2020 4797.01 3810.14 65.90 13.00 279.71 2540.22
   03:25:56.502.18-May-2020 4797.01 3810.38 65.90 13.00 279.91 2540.22
   03:25:56.702.18-May-2020 4797.01 3811.27 65.90 13.00 280.11 2540.22
   03:25:56.902.18-May-2020 4797.01 3811.27 65.90 13.00 280.31 2540.22
   03:25:57.102.18-May-2020 4797.01 3812.63 65.90 13.00 280.51 2540.22
   03:25:57.302.18-May-2020 4797.01 3812.72 65.90 13.00 280.71 2540.22
   03:25:57.502.18-May-2020 4797.01 3813.07 65.90 13.00 280.91 2540.22
   03:25:57.702.18-May-2020 4797.01 3813.39 65.90 13.00 281.11 2540.22
   03:25:57.903.18-May-2020 4797.01 3813.39 65.90 13.00 281.31 2540.22
   03:25:58.103.18-May-2020 4797.01 3813.71 65.90 13.00 281.51 2540.22
   03:25:58.303.18-May-2020 4797.01 3813.75 65.90 13.00 281.71 2540.22
   03:25:58.503.18-May-2020 4797.01 3814.11 65.90 13.00 281.91 2540.22
   03:25:58.703.18-May-2020 4797.01 3814.31 65.90 13.00 282.11 2540.22
   03:25:58.903.18-May-2020 4797.01 3814.31 65.90 13.00 282.31 2540.22
   03:25:59.103.18-May-2020 4797.01 3814.92 65.90 13.00 282.51 2540.22
   03:25:59.303.18-May-2020 4797.01 3814.86 65.90 13.00 282.71 2540.22
   03:25:59.503.18-May-2020 4797.01 3814.88 65.90 13.00 282.91 2540.22
   03:25:59.703.18-May-2020 4797.01 3814.96 65.90 13.00 283.11 2540.22
   03:25:59.903.18-May-2020 4797.01 3814.96 65.90 13.00 283.31 2540.22
   03:26:00.103.18-May-2020 4797.01 3815.03 65.90 13.00 283.51 2540.22
   03:26:00.303.18-May-2020 4797.01 3814.33 65.90 13.00 283.71 2540.22
   03:26:00.504.18-May-2020 4797.01 3815.89 65.90 13.00 283.91 2540.22
   03:26:00.704.18-May-2020 4797.01 3815.34 65.90 13.00 284.11 2540.22
   03:26:00.904.18-May-2020 4797.01 3815.34 65.90 13.00 284.31 2540.22
   03:26:01.104.18-May-2020 4797.01 3815.67 65.90 13.00 284.51 2540.22
   03:26:01.304.18-May-2020 4797.01 3815.68 65.90 13.00 284.71 2540.22
   03:26:01.504.18-May-2020 4797.01 3815.55 65.90 13.00 284.91 2540.22
   03:26:01.704.18-May-2020 4797.01 3816.03 65.90 13.00 285.11 2540.22
   03:26:01.904.18-May-2020 4797.01 3816.03 65.90 13.00 285.32 2540.22
   03:26:02.104.18-May-2020 4797.01 3815.59 65.90 13.00 285.52 2540.22
   03:26:02.304.18-May-2020 4797.01 3815.69 65.90 13.00 285.72 2540.22
   03:26:02.504.18-May-2020 4797.01 3815.90 65.90 13.00 285.92 2540.22
   03:26:02.704.18-May-2020 4797.01 3816.20 65.90 13.00 286.12 2540.22
   03:26:02.905.18-May-2020 4797.01 3816.20 65.90 13.00 286.32 2540.22
   03:26:03.105.18-May-2020 4797.01 3816.74 65.90 13.00 286.52 2540.22
   03:26:03.305.18-May-2020 4797.01 3815.98 65.90 13.00 286.72 2540.22
   03:26:03.505.18-May-2020 4797.01 3816.07 65.90 13.00 286.92 2540.22
   03:26:03.705.18-May-2020 4797.01 3816.61 65.90 13.00 287.12 2540.22
   03:26:03.905.18-May-2020 4797.01 3816.30 65.90 13.00 287.32 2540.22
   03:26:04.105.18-May-2020 4797.01 3816.22 65.90 13.00 287.52 2540.22
   03:26:04.305.18-May-2020 4797.01 3816.28 65.90 13.00 287.72 2540.22
   03:26:04.505.18-May-2020 4797.01 3816.27 65.90 13.00 287.92 2540.22
   03:26:04.705.18-May-2020 4797.01 3816.22 65.90 13.00 288.12 2540.22
   03:26:04.905.18-May-2020 4797.01 3816.22 65.90 13.00 288.32 2540.22
   03:26:05.105.18-May-2020 4797.01 3816.11 65.90 13.00 288.52 2540.22
   03:26:05.305.18-May-2020 4797.01 3816.38 65.90 13.00 288.72 2540.22
   03:26:05.506.18-May-2020 4797.01 3816.31 65.90 13.00 288.92 2540.22
   03:26:05.706.18-May-2020 4797.01 3816.60 65.90 13.00 289.12 2540.22
   03:26:05.906.18-May-2020 4797.01 3816.60 65.90 13.00 289.32 2540.22
   03:26:06.106.18-May-2020 4797.01 3816.55 65.90 13.00 289.52 2540.22
   03:26:06.306.18-May-2020 4797.01 3816.51 65.90 13.00 289.72 2540.22
   03:26:06.506.18-May-2020 4797.01 3816.51 65.90 13.00 289.92 2540.22
   03:26:06.706.18-May-2020 4797.01 3816.49 65.90 13.00 290.12 2540.22
   03:26:06.906.18-May-2020 4797.01 3816.49 65.90 13.00 290.32 2540.22
   03:26:07.106.18-May-2020 4797.01 3815.67 65.90 13.00 290.52 2540.22
   03:26:07.306.18-May-2020 4797.01 3817.32 65.90 13.00 290.72 2540.22
   03:26:07.506.18-May-2020 4797.01 3816.55 65.90 13.00 290.92 2540.22
   03:26:07.706.18-May-2020 4797.01 3816.51 65.90 13.00 291.12 2540.22
   03:26:07.907.18-May-2020 4797.01 3816.51 65.90 13.00 291.32 2540.22
   03:26:08.107.18-May-2020 4797.01 3815.93 65.90 13.00 291.52 2540.22
   03:26:08.307.18-May-2020 4797.01 3817.31 65.90 13.00 291.72 2540.22
   03:26:08.507.18-May-2020 4797.01 3816.56 65.90 13.00 291.92 2540.22
   03:26:08.707.18-May-2020 4797.01 3816.63 65.90 13.00 292.12 2540.22
   03:26:08.907.18-May-2020 4797.01 3816.63 65.90 13.00 292.32 2540.22
   03:26:09.107.18-May-2020 4797.01 3816.79 65.90 13.00 292.52 2540.22
   03:26:09.307.18-May-2020 4797.01 3816.68 65.90 13.00 292.72 2540.22
   03:26:09.507.18-May-2020 4797.01 3816.63 65.90 13.00 292.92 2540.22
   03:26:09.707.18-May-2020 4797.01 3816.96 65.90 13.00 293.12 2540.22
   03:26:09.907.18-May-2020 4797.01 3816.96 65.90 13.00 293.32 2540.22
   03:26:10.107.18-May-2020 4797.01 3817.61 65.90 13.00 293.52 2540.22
   03:26:10.308.18-May-2020 4797.01 3816.69 65.90 13.00 293.72 2540.22
