~Version Information
 VERS.                  2.0:   CWLS log ASCII Standard -VERSION 2.0
 WRAP.                   NO:   One line per depth step
~Well Information Block
#MNEM.UNIT     VALUE/NAME     DESCRIPTION
#---------     -----------    ---------------------------
 STRT.S             02:13:59 18-May-20: START TIME 02:13:59 18-May-20
 STOP.S             02:21:38 18-May-20: STOP TIME  02:21:38 18-May-20
 STEP.S                   0.00: STEP TIME
 NULL.                 -999.25: NULL VALUE
 UNIT.                     N/A:  LOGGING EQUIPMENT ID
 DCON.         Sperry Drilling:  DIRECTNL CONTR
 DOE .                     N/A:  DOE NUMBER
 JOBN.        AZ-XX-0906252240:  JOB TICKET NUMB
 MWDS.                     N/A:  MWD SHOP
 PROV.                    Baku:  PROVINCE
 STAT.                    Baku:  STATE NAME
 REGN.                   EESSA:  REGION
 BASE.              Azerbaijan:  LOGGING EQUIPMENT BASE LOCATION
 UWI .                     N/A:  UNIQUE WELL IDENTIFIER
 API .                     N/A:  API NUMBER
 MDS .        Operator Entered:  MAG DATA SOURCE
 WTYP.                Deviated:  WELL TYPE
 COMP.     BP Exploration (Caspian Sea) Ltd.:  COMPANY
 SRVC.          Turan Drilling:  CONTRACTOR
 WELL.           J23 (Slot 07):  WELL NAME
 CTRY.              Azerbaijan:  COUNTRY NAME
 FLD .                     ACG:  FIELD NAME
 PDAT.          Mean Sea Level:  PERMANENT DATUM
 RIG .             West Chirag:  RIG NAME
 SON .        AZ-XX-0906252240:  JOB NUMBER
 FTOP.          Formation Tops:  FORM TOPS DESC
 ILTD.               Lithology:  INTERP LTH DESC
 SVYD.                  Survey:  SURVEY DESC
 DMOD.             Drill Model:  DRILL MOD DESC
 HPTY.       Minimum Curvature:  HOLE POS TYPE
 NREF.                    Grid:  NORTH REFERENCE
 SPUD.               27-Aug-20:  SPUD DATE
 DATE.      00.00.00 19-May-20:  END TIME
 STIM.      03.00.00 25-Mar-20:  START TIME
 DMF .             Drill Floor:  DRILL MEAS FROM
 DFST.                        :  DIST FSL TEXT
 DFWT.                        :  DIST FWL TEXT
 CNTY.                        :  COUNTY
 LOC .                        :  LOCATION
 LMF .             Drill Floor:  LOG MEASURED FROM
 VSNS.m                   9.43:  VERT SEC N/S
 VSEW.m                  -8.91:  VERT SEC E/W
 AGAP.m                  43.00:  AIR GAP
 DEP .m                 354.17:  DEPTH
 APD .m                  43.00:  DEPTH ABOVE PD
 WDMS.m                 169.80:  WD ELEV
 EGL .m                   0.00:  GROUND ELEVATION
 EPD .m                   0.00:  ELEVATION
 AZTC.deg                 6.31:  AZM TOTAL CORR
 GRDC.deg                 0.14:  GRID CORRECTION
 MDEC.deg                 6.45:  MAGNETIC DECL
 MDIP.deg                59.56:  MAGNETIC DIP
 MFLD.nT              50295.00:  MAGNETIC FIELD
 GVFD.g                   1.00:  GRAVITY FIELD
 VSDR.deg               179.88:  VERT SEC DIRECT
 TDD .m                5150.01:  TOTAL DEPTH (DRILLER)
 SDEP.m                 864.00:  START DEPTH
 DFSL.m                   0.00:  DISTANCE FSL
 DFWL.m                   0.00:  DISTANCE FWL
 UTMY.m             4443793.85:  UTM Y
 UTMX.m              519005.06:  UTM X
 WHEW.m                  -8.91:  WELL HEAD E/W
 WHNS.m                   9.43:  WELL HEAD N/S
 LONG.deg                51.22:  LONGITUDE
 LATI.deg                40.13:  LATITUDE
 TVDS.m                  43.00:  TVDSS CORRECTN
 EKB .m                   0.00:  KB ELEVATION
 EDF .m                  43.00:  DF ELEVATION
 TDL .m                 363.00:  TOTAL DEPTH (LOGGER)
 MAGU.                 1850802:  MAGUTM CHECKSUM
 VSC .                       0:  VS TO CLOSURE
~Parameter Information Block
#MNEM.UNIT       Value        Description
#---------     -----------    ---------------------------
 AV  .mps                 2.30:  Ann Velocity 
 AVMX.mps                 4.40:  Max Ann Veloc 
 AZIF.deg               110.24:  Azm, Final 
 BHAT.        Rotary Steerable:  BHA Type 
 BREV.rev               331.00:  Rev Bit Total 
 BROT.°/30m               0.00:  Build Rotating 
 BS  .in                  8.50:  Bit Size 
 BSZ .in                  8.50:  Bit Size 
 BTPL.psig              585.00:  Bit Press Loss 
 CABU.                     Yes:  Customer Abuse 
 COMM.                     ü9U:  Run Comments 1 
 TCS .hr                122.75:  Time Ciculation Ended 
 CV  .mps                 2.67:  Crit Velocity 
 CVMX.mps                 3.56:  Max Crit Veloc 
 DD1 .          Rashad Habibov:  Direct Drillr 1 
 DD2 .         Rasim Ibrahimov:  Direct Drillr 2 
 DDSV.               Geo-Pilot:  DD Service 
 DEFF.%                  98.00:  % Det Eff 
 DLRX.°/30m               0.75:  Dogleg Rot Max 
 DLSO.°/30m               1.25:  Dogleg Oriented 
 DLSX.°/30m               2.06:  Dogleg Str Max 
 DRET.      07.45.00 17-May-20:  Drill End Time 
 DRST.      22.50.00 15-May-20:  Drill Start Tim 
 DTIM.hr                 20.75:  Time Drilling 
 EDEP.m                5124.01:  End Depth 
 ENG1.           Eldar Hajiyev:  Engineer 1 
 ENG2.        Marcelo Sandoval:  Engineer 2 
 ENG3.        Davud huseynzada:  Engineer 3 
 ENG4.          Ruslan Safarov:  Engineer 4 
 ETIM.      04.33.00 23-May-20:  End Time 
 FLOI.gpm               450.00:  Flow In 
 FLON.gpm               400.00:  Flow In Min 
 FLOS.cptm                0.00:  Fluid Loss 
 FLOX.gpm               500.00:  Flow In Max 
 FTRO.       Formation Presure:  FTWD Run Obj 
 HFLO.                      No:  High Flow 
 HPRE.                     Yes:  High Pressure 
 HTEM.                      No:  High Temp 
 HYDO.m                   1.80:  Hydro Offset 
 IFIN.deg                75.06:  Inc, Final 
 IMAX.deg                75.38:  Inc Max 
 IMIN.deg                74.69:  Inc Min 
 IMND.m                5027.38:  Inc Min Depth 
 IMXD.m                4771.61:  Inc Max Depth 
 JARR.                      No:  Jarring 
 LETM.      07.45.00 17-May-20:  Log End Time 
 LOST.hr                     0:  Lost Rig Time 
 LSTM.      22.50.00 15-May-20:  Log Start Time 
 MDCL.ppm             42000.00:  Mud Chlorides 
 MDES.     Inversion Oil/Synthetic:  Mud Desc 
 DFD .sg                  1.34:  Mud Density 
 MDMN.sg                  1.34:  Dens Mud Min 
 MDMX.sg                  1.34:  Dens Mud Max 
 MOIL.                       0:  Run Mud Oil % 
 MOWR.                   67:33:  Run Mud OWR 
 MSND.                       0:  Run Mud Sand % 
 MSOL.                     1.8:  Run Mud Solids% 
 DFV .spqt               76.00:  Mud Viscosity 
 MWOD.in                  6.75:  MWD Tool OD 
 MWSI.                      No:  Serv Intrp, MWD 
 OTIM.hr                228.19:  Time Operating 
 PCON.           Look Like New:  Pad Condition 
 PMAX.psia             6164.70:  Press Op, Max 
 PV  .cP                 28.00:  Mud PV 
 RUN .                     900:  Run Number 
 ROPA.m/hr               19.00:  ROP Avg 
 ROPN.m/hr               11.00:  ROP Min 
 ROPX.m/hr               36.00:  ROP Max 
 RPMA.rpm               120.00:  RPM Surface Avg 
 RPMN.rpm               120.00:  RPM Surface Min 
 RPMX.rpm               120.00:  RPM Surface Max 
 RRUN.                    L604:  Rig Run Number 
 RTIM.hr                  7.00:  Time Reaming 
 SAZI.deg               109.27:  Azm, Start 
 SDEP.m                4761.01:  Start Depth 
 SIDD.                      No:  Serv Intrp, DD 
 SINC.deg                75.38:  Inc, Start 
 SPPA.psig             3574.00:  SPP Avg 
 SPPN.psig             3475.00:  SPP Min 
 SPPX.psig             3791.00:  SPP Max 
 STIM.      07.08.48 13-May-20:  Start Time 
 SVCS.                 DD, MWD:  Services 
 SVER.                    9.20:  Sperry Version 
 TDAT.m                 363.00:  Tot Depth Attmp 
 TDDF.                      No:  Trip for DD 
 TDLG.m                 363.00:  Tot Depth Loggd 
 TFF .                      No:  Trip for Fail 
 TQAA.f-kp               20.00:  Torque Abs Avg 
 TQAN.f-kp               18.00:  Torque Abs Min 
 TQAX.f-kp               22.00:  Torque Abs Max 
 TRRT.°/30m              -0.35:  Turn Rotating 
 MRT .                    HCIM:  Maximum Recorded Temperature 
 TTMX.degC               92.16:  Max Tool Temp 
 VS01.                90586518:  Virtual Str1 SN 
 VS02.        AZ90560654Z1W1C6:  Virtual Str2 SN 
 VS03.           AZ90610398F11:  Virtual Str3 SN 
 VS04.                90514975:  Virtual Str4 SN 
 VS05.                90514972:  Virtual Str5 SN 
 VS06.     AZ90603282F11V7D1A6:  Virtual Str6 SN 
 WBMN.klb                 7.00:  WOB Min 
 WOBA.klb                12.00:  WOB Avg 
 WOBX.klb                14.00:  WOB Max 
 YP  .lhf2               32.00:  Yield Point 
~Curve Information Block
#MNEM.UNIT                 API CODE     Curve Description
#---------               -----------    ---------------------------
 TIME.HHMMSS            00 000 000 000:  GT Time & Date
 GTDEPTH.m              00 000 000 000:  GT Depth
 GTPQH.psia             00 000 000 000:  GT HR Quartz Pressure
 GTTQ.degC              00 000 000 000:  GT Quartz Temperature
 GTTN.NONE              00 000 000 000:  GT Test Number
 GTET.sec               00 000 000 000:  GT Elapsed Test Time
 GTTVD.m                00 000 000 000:  GT True Vertical Depth
#Other Information
#
#WARRANTY: Halliburton will use its best efforts to furnish customers with 
#accurate information and interpretations that are part of, and incident to, the services 
#provided.  However, Halliburton cannot and does not warrant the accuracy 
#or correctness of such information and interpretations.  Under no circumstances should any 
#such information or interpretation be relied upon as the sole basis for any drilling, 
#completion, production, or financial decision or any procedure involving any risk to the 
#safety of any drilling venture, drilling rig or its crew or any other third party.  The 
#Customer has full responsibility for all drilling, completion and production operation.  
#Halliburton makes no representations or warranties, either expressed or 
#implied, including, but not limited to, the implied warranties of merchantability or fitness 
#for a particular purpose, with respect to the services rendered.  In no event will 
#Halliburton be liable for failure to obtain any particular results or for 
#any damages, including, but not limited to, indirect, special or consequential damages, 
#resulting from the use of any information or interpretation provided by Halliburton.
#
~A           TIME           GTDEPTH  GTPQH  GTTQ  GTTN   GTET   GTTVD  
# ...
   02:20:01.707.18-May-2020 4832.01 2681.74 65.94 12.00 361.75 2549.35
   02:20:01.907.18-May-2020 4832.01 2681.72 65.94 12.00 361.95 2549.35
   02:20:02.107.18-May-2020 4832.01 2681.75 65.94 12.00 362.15 2549.35
   02:20:02.307.18-May-2020 4832.01 2681.77 65.94 12.00 362.35 2549.35
   02:20:02.507.18-May-2020 4832.01 2681.74 65.94 12.00 362.55 2549.35
   02:20:02.707.18-May-2020 4832.01 2681.75 65.94 12.00 362.75 2549.35
   02:20:02.908.18-May-2020 4832.01 2681.75 65.94 12.00 362.95 2549.35
   02:20:03.108.18-May-2020 4832.01 2681.74 65.94 12.00 363.15 2549.35
   02:20:03.308.18-May-2020 4832.01 2681.74 65.94 12.00 363.35 2549.35
   02:20:03.508.18-May-2020 4832.01 2681.74 65.94 12.00 363.55 2549.35
   02:20:03.708.18-May-2020 4832.01 2681.83 65.94 12.00 363.75 2549.35
   02:20:03.908.18-May-2020 4832.01 2681.70 65.94 12.00 363.95 2549.35
   02:20:04.108.18-May-2020 4832.01 2681.71 65.94 12.00 364.15 2549.35
   02:20:04.308.18-May-2020 4832.01 2681.71 65.94 12.00 364.35 2549.35
   02:20:04.508.18-May-2020 4832.01 2681.73 65.94 12.00 364.55 2549.35
   02:20:04.708.18-May-2020 4832.01 2681.73 65.94 12.00 364.75 2549.35
   02:20:04.908.18-May-2020 4832.01 2681.74 65.94 12.00 364.95 2549.35
   02:20:05.108.18-May-2020 4832.01 2681.74 65.94 12.00 365.15 2549.35
   02:20:05.309.18-May-2020 4832.01 2681.74 65.94 12.00 365.35 2549.35
   02:20:05.509.18-May-2020 4832.01 2681.73 65.94 12.00 365.55 2549.35
   02:20:05.709.18-May-2020 4832.01 2681.82 65.94 12.00 365.75 2549.35
   02:20:05.909.18-May-2020 4832.01 2681.71 65.94 12.00 365.95 2549.35
   02:20:06.109.18-May-2020 4832.01 2681.71 65.94 12.00 366.15 2549.35
   02:20:06.309.18-May-2020 4832.01 2681.71 65.94 12.00 366.35 2549.35
   02:20:06.509.18-May-2020 4832.01 2681.81 65.94 12.00 366.55 2549.35
   02:20:06.709.18-May-2020 4832.01 2681.73 65.94 12.00 366.75 2549.35
   02:20:06.909.18-May-2020 4832.01 2683.90 65.94 12.00 366.95 2549.35
   02:20:07.109.18-May-2020 4832.01 2693.46 65.94 12.00 367.15 2549.35
   02:20:07.309.18-May-2020 4832.01 2693.46 65.94 12.00 367.35 2549.35
   02:20:07.509.18-May-2020 4832.01 3481.99 65.94 12.00 367.55 2549.35
   02:20:07.709.18-May-2020 4832.01 5468.06 65.94 12.00 367.75 2549.35
   02:20:07.910.18-May-2020 4832.01 5466.46 65.94 12.00 367.95 2549.35
   02:20:08.110.18-May-2020 4832.01 5469.63 65.94 12.00 368.15 2549.35
   02:20:08.310.18-May-2020 4832.01 5469.63 65.94 12.00 368.35 2549.35
   02:20:08.510.18-May-2020 4832.01 5469.23 65.94 12.00 368.55 2549.35
   02:20:08.710.18-May-2020 4832.01 5470.10 65.95 12.00 368.75 2549.35
   02:20:08.910.18-May-2020 4832.01 5471.33 65.95 12.00 368.95 2549.35
   02:20:09.110.18-May-2020 4832.01 5474.25 65.95 12.00 369.15 2549.35
   02:20:09.310.18-May-2020 4832.01 5471.85 65.95 12.00 369.35 2549.35
   02:20:09.510.18-May-2020 4832.01 5470.85 65.95 12.00 369.55 2549.35
   02:20:09.710.18-May-2020 4832.01 5471.76 65.95 12.00 369.75 2549.35
   02:20:09.910.18-May-2020 4832.01 5470.77 65.95 12.00 369.95 2549.35
   02:20:10.110.18-May-2020 4832.01 5470.56 65.96 12.00 370.15 2549.35
   02:20:10.311.18-May-2020 4832.01 5470.56 65.96 12.00 370.35 2549.35
   02:20:10.511.18-May-2020 4832.01 5484.60 65.96 12.00 370.55 2549.35
   02:20:10.711.18-May-2020 4832.01 5472.83 65.96 12.00 370.75 2549.35
   02:20:10.911.18-May-2020 4832.01 5469.14 65.96 12.00 370.95 2549.35
   02:20:11.111.18-May-2020 4832.01 5474.65 65.97 12.00 371.15 2549.35
   02:20:11.311.18-May-2020 4832.01 5474.65 65.97 12.00 371.35 2549.35
   02:20:11.511.18-May-2020 4832.01 5472.11 65.97 12.00 371.55 2549.35
   02:20:11.711.18-May-2020 4832.01 5471.91 65.97 12.00 371.75 2549.35
   02:20:11.911.18-May-2020 4832.01 5471.86 65.98 12.00 371.95 2549.35
   02:20:12.111.18-May-2020 4832.01 5471.86 65.98 12.00 372.15 2549.35
   02:20:12.311.18-May-2020 4832.01 5471.86 65.98 12.00 372.35 2549.35
   02:20:12.511.18-May-2020 4832.01 5485.97 65.98 12.00 372.55 2549.35
   02:20:12.711.18-May-2020 4832.01 5471.65 65.98 12.00 372.75 2549.35
   02:20:12.912.18-May-2020 4832.01 5470.72 65.98 12.00 372.95 2549.35
   02:20:13.112.18-May-2020 4832.01 5474.55 65.99 12.00 373.15 2549.35
   02:20:13.312.18-May-2020 4832.01 5474.55 65.99 12.00 373.35 2549.35
   02:20:13.512.18-May-2020 4832.01 5474.38 65.99 12.00 373.55 2549.35
   02:20:13.712.18-May-2020 4832.01 5472.25 65.99 12.00 373.75 2549.35
   02:20:13.912.18-May-2020 4832.01 5476.89 65.99 12.00 373.95 2549.35
   02:20:14.112.18-May-2020 4832.01 5476.80 65.99 12.00 374.15 2549.35
   02:20:14.312.18-May-2020 4832.01 5476.80 65.99 12.00 374.35 2549.35
   02:20:14.512.18-May-2020 4832.01 5475.04 66.00 12.00 374.55 2549.35
   02:20:14.712.18-May-2020 4832.01 5473.12 66.00 12.00 374.75 2549.35
   02:20:14.912.18-May-2020 4832.01 5477.32 66.00 12.00 374.95 2549.35
   02:20:15.112.18-May-2020 4832.01 5491.23 66.00 12.00 375.15 2549.35
   02:20:15.313.18-May-2020 4832.01 5491.23 66.00 12.00 375.35 2549.35
   02:20:15.513.18-May-2020 4832.01 5474.80 66.00 12.00 375.55 2549.35
   02:20:15.713.18-May-2020 4832.01 5476.80 66.00 12.00 375.75 2549.35
   02:20:15.913.18-May-2020 4832.01 5478.90 66.01 12.00 375.95 2549.35
   02:20:16.113.18-May-2020 4832.01 5475.82 66.01 12.00 376.15 2549.35
   02:20:16.313.18-May-2020 4832.01 5475.82 66.01 12.00 376.35 2549.35
   02:20:16.513.18-May-2020 4832.01 5475.10 66.01 12.00 376.55 2549.35
   02:20:16.713.18-May-2020 4832.01 5473.68 66.01 12.00 376.75 2549.35
   02:20:16.913.18-May-2020 4832.01 5473.36 66.01 12.00 376.95 2549.35
   02:20:17.113.18-May-2020 4832.01 5481.57 66.01 12.00 377.15 2549.35
   02:20:17.313.18-May-2020 4832.01 5475.44 66.01 12.00 377.35 2549.35
   02:20:17.513.18-May-2020 4832.01 5475.21 66.01 12.00 377.55 2549.35
   02:20:17.714.18-May-2020 4832.01 5474.06 66.01 12.00 377.75 2549.35
   02:20:17.914.18-May-2020 4832.01 5477.68 66.01 12.00 377.95 2549.35
   02:20:18.114.18-May-2020 4832.01 5474.64 66.01 12.00 378.15 2549.35
   02:20:18.314.18-May-2020 4832.01 5474.64 66.01 12.00 378.35 2549.35
   02:20:18.514.18-May-2020 4832.01 5473.35 66.01 12.00 378.55 2549.35
   02:20:18.714.18-May-2020 4832.01 5472.63 66.01 12.00 378.75 2549.35
   02:20:18.914.18-May-2020 4832.01 5472.77 66.01 12.00 378.95 2549.35
   02:20:19.114.18-May-2020 4832.01 5472.13 66.01 12.00 379.15 2549.35
   02:20:19.314.18-May-2020 4832.01 5472.13 66.01 12.00 379.35 2549.35
   02:20:19.514.18-May-2020 4832.01 5480.62 66.01 12.00 379.55 2549.35
   02:20:19.714.18-May-2020 4832.01 5476.85 66.01 12.00 379.75 2549.35
   02:20:19.914.18-May-2020 4832.01 5473.03 66.01 12.00 379.95 2549.35
   02:20:20.114.18-May-2020 4832.01 5493.47 66.01 12.00 380.15 2549.35
   02:20:20.315.18-May-2020 4832.01 5493.47 66.01 12.00 380.35 2549.35
   02:20:20.515.18-May-2020 4832.01 5472.56 66.02 12.00 380.55 2549.35
   02:20:20.715.18-May-2020 4832.01 5476.98 66.02 12.00 380.75 2549.35
   02:20:20.915.18-May-2020 4832.01 5477.02 66.02 12.00 380.95 2549.35
   02:20:21.115.18-May-2020 4832.01 5484.83 66.02 12.00 381.15 2549.35
   02:20:21.315.18-May-2020 4832.01 5475.71 66.02 12.00 381.35 2549.35
   02:20:21.515.18-May-2020 4832.01 5476.77 66.02 12.00 381.55 2549.35
   02:20:21.715.18-May-2020 4832.01 5480.76 66.02 12.00 381.75 2549.35
   02:20:21.915.18-May-2020 4832.01 5483.26 66.02 12.00 381.95 2549.35
   02:20:22.115.18-May-2020 4832.01 5479.10 66.02 12.00 382.15 2549.35
   02:20:22.315.18-May-2020 4832.01 5479.10 66.02 12.00 382.35 2549.35
   02:20:22.515.18-May-2020 4832.01 5480.23 66.02 12.00 382.55 2549.35
   02:20:22.716.18-May-2020 4832.01 5476.07 66.02 12.00 382.75 2549.35
   02:20:22.916.18-May-2020 4832.01 5474.68 66.01 12.00 382.95 2549.35
   02:20:23.116.18-May-2020 4832.01 5474.02 66.01 12.00 383.15 2549.35
   02:20:23.316.18-May-2020 4832.01 5474.02 66.01 12.00 383.35 2549.35
   02:20:23.516.18-May-2020 4832.01 5472.97 66.01 12.00 383.55 2549.35
   02:20:23.716.18-May-2020 4832.01 5472.67 66.01 12.00 383.75 2549.35
   02:20:23.916.18-May-2020 4832.01 5481.61 66.01 12.00 383.95 2549.35
   02:20:24.116.18-May-2020 4832.01 5477.22 66.01 12.00 384.15 2549.35
