~Version Information
 VERS.                  2.0:   CWLS log ASCII Standard -VERSION 2.0
 WRAP.                   NO:   One line per depth step
~Well Information Block
#MNEM.UNIT     VALUE/NAME     DESCRIPTION
#---------     -----------    ---------------------------
 STRT.S             21:13:20 18-May-20: START TIME 21:13:20 18-May-20
 STOP.S             21:20:25 18-May-20: STOP TIME  21:20:25 18-May-20
 STEP.S                   0.00: STEP TIME
 NULL.                 -999.25: NULL VALUE
 UNIT.                     N/A:  LOGGING EQUIPMENT ID
 DCON.         Sperry Drilling:  DIRECTNL CONTR
 DOE .                     N/A:  DOE NUMBER
 JOBN.        AZ-XX-0906252240:  JOB TICKET NUMB
 MWDS.                     N/A:  MWD SHOP
 PROV.                    Baku:  PROVINCE
 STAT.                    Baku:  STATE NAME
 REGN.                   EESSA:  REGION
 BASE.              Azerbaijan:  LOGGING EQUIPMENT BASE LOCATION
 UWI .                     N/A:  UNIQUE WELL IDENTIFIER
 API .                     N/A:  API NUMBER
 MDS .        Operator Entered:  MAG DATA SOURCE
 WTYP.                Deviated:  WELL TYPE
 COMP.     BP Exploration (Caspian Sea) Ltd.:  COMPANY
 SRVC.          Turan Drilling:  CONTRACTOR
 WELL.           J23 (Slot 07):  WELL NAME
 CTRY.              Azerbaijan:  COUNTRY NAME
 FLD .                     ACG:  FIELD NAME
 PDAT.          Mean Sea Level:  PERMANENT DATUM
 RIG .             West Chirag:  RIG NAME
 SON .        AZ-XX-0906252240:  JOB NUMBER
 FTOP.          Formation Tops:  FORM TOPS DESC
 ILTD.               Lithology:  INTERP LTH DESC
 SVYD.                  Survey:  SURVEY DESC
 DMOD.             Drill Model:  DRILL MOD DESC
 HPTY.       Minimum Curvature:  HOLE POS TYPE
 NREF.                    Grid:  NORTH REFERENCE
 SPUD.               27-Aug-20:  SPUD DATE
 DATE.      00.00.00 19-May-20:  END TIME
 STIM.      03.00.00 25-Mar-20:  START TIME
 DMF .             Drill Floor:  DRILL MEAS FROM
 DFST.                        :  DIST FSL TEXT
 DFWT.                        :  DIST FWL TEXT
 CNTY.                        :  COUNTY
 LOC .                        :  LOCATION
 LMF .             Drill Floor:  LOG MEASURED FROM
 VSNS.m                   9.43:  VERT SEC N/S
 VSEW.m                  -8.91:  VERT SEC E/W
 AGAP.m                  43.00:  AIR GAP
 DEP .m                 354.17:  DEPTH
 APD .m                  43.00:  DEPTH ABOVE PD
 WDMS.m                 169.80:  WD ELEV
 EGL .m                   0.00:  GROUND ELEVATION
 EPD .m                   0.00:  ELEVATION
 AZTC.deg                 6.31:  AZM TOTAL CORR
 GRDC.deg                 0.14:  GRID CORRECTION
 MDEC.deg                 6.45:  MAGNETIC DECL
 MDIP.deg                59.56:  MAGNETIC DIP
 MFLD.nT              50295.00:  MAGNETIC FIELD
 GVFD.g                   1.00:  GRAVITY FIELD
 VSDR.deg               179.88:  VERT SEC DIRECT
 TDD .m                5150.01:  TOTAL DEPTH (DRILLER)
 SDEP.m                 864.00:  START DEPTH
 DFSL.m                   0.00:  DISTANCE FSL
 DFWL.m                   0.00:  DISTANCE FWL
 UTMY.m             4443793.85:  UTM Y
 UTMX.m              519005.06:  UTM X
 WHEW.m                  -8.91:  WELL HEAD E/W
 WHNS.m                   9.43:  WELL HEAD N/S
 LONG.deg                51.22:  LONGITUDE
 LATI.deg                40.13:  LATITUDE
 TVDS.m                  43.00:  TVDSS CORRECTN
 EKB .m                   0.00:  KB ELEVATION
 EDF .m                  43.00:  DF ELEVATION
 TDL .m                 363.00:  TOTAL DEPTH (LOGGER)
 MAGU.                 1850802:  MAGUTM CHECKSUM
 VSC .                       0:  VS TO CLOSURE
~Parameter Information Block
#MNEM.UNIT       Value        Description
#---------     -----------    ---------------------------
 AV  .mps                 2.30:  Ann Velocity 
 AVMX.mps                 4.40:  Max Ann Veloc 
 AZIF.deg               110.24:  Azm, Final 
 BHAT.        Rotary Steerable:  BHA Type 
 BREV.rev               331.00:  Rev Bit Total 
 BROT.°/30m               0.00:  Build Rotating 
 BS  .in                  8.50:  Bit Size 
 BSZ .in                  8.50:  Bit Size 
 BTPL.psig              585.00:  Bit Press Loss 
 CABU.                     Yes:  Customer Abuse 
 TCS .hr                122.75:  Time Ciculation Ended 
 CV  .mps                 2.67:  Crit Velocity 
 CVMX.mps                 3.56:  Max Crit Veloc 
 DD1 .          Rashad Habibov:  Direct Drillr 1 
 DD2 .         Rasim Ibrahimov:  Direct Drillr 2 
 DDSV.               Geo-Pilot:  DD Service 
 DEFF.%                  98.00:  % Det Eff 
 DLRX.°/30m               0.75:  Dogleg Rot Max 
 DLSO.°/30m               1.25:  Dogleg Oriented 
 DLSX.°/30m               2.06:  Dogleg Str Max 
 DRET.      07.45.00 17-May-20:  Drill End Time 
 DRST.      22.50.00 15-May-20:  Drill Start Tim 
 DTIM.hr                 20.75:  Time Drilling 
 EDEP.m                5124.01:  End Depth 
 ENG1.           Eldar Hajiyev:  Engineer 1 
 ENG2.        Marcelo Sandoval:  Engineer 2 
 ENG3.        Davud huseynzada:  Engineer 3 
 ENG4.          Ruslan Safarov:  Engineer 4 
 ETIM.      04.33.00 23-May-20:  End Time 
 FLOI.gpm               450.00:  Flow In 
 FLON.gpm               400.00:  Flow In Min 
 FLOS.cptm                0.00:  Fluid Loss 
 FLOX.gpm               500.00:  Flow In Max 
 FTRO.       Formation Presure:  FTWD Run Obj 
 HFLO.                      No:  High Flow 
 HPRE.                     Yes:  High Pressure 
 HTEM.                      No:  High Temp 
 HYDO.m                   1.80:  Hydro Offset 
 IFIN.deg                75.06:  Inc, Final 
 IMAX.deg                75.38:  Inc Max 
 IMIN.deg                74.69:  Inc Min 
 IMND.m                5027.38:  Inc Min Depth 
 IMXD.m                4771.61:  Inc Max Depth 
 JARR.                      No:  Jarring 
 LETM.      07.45.00 17-May-20:  Log End Time 
 LOST.hr                     0:  Lost Rig Time 
 LSTM.      22.50.00 15-May-20:  Log Start Time 
 MDCL.ppm             42000.00:  Mud Chlorides 
 MDES.     Inversion Oil/Synthetic:  Mud Desc 
 DFD .sg                  1.34:  Mud Density 
 MDMN.sg                  1.34:  Dens Mud Min 
 MDMX.sg                  1.34:  Dens Mud Max 
 MOIL.                       0:  Run Mud Oil % 
 MOWR.                   67:33:  Run Mud OWR 
 MSND.                       0:  Run Mud Sand % 
 MSOL.                     1.8:  Run Mud Solids% 
 DFV .spqt               76.00:  Mud Viscosity 
 MWOD.in                  6.75:  MWD Tool OD 
 MWSI.                      No:  Serv Intrp, MWD 
 OTIM.hr                228.19:  Time Operating 
 PCON.           Look Like New:  Pad Condition 
 PMAX.psia             6164.70:  Press Op, Max 
 PV  .cP                 28.00:  Mud PV 
 RUN .                     900:  Run Number 
 ROPA.m/hr               19.00:  ROP Avg 
 ROPN.m/hr               11.00:  ROP Min 
 ROPX.m/hr               36.00:  ROP Max 
 RPMA.rpm               120.00:  RPM Surface Avg 
 RPMN.rpm               120.00:  RPM Surface Min 
 RPMX.rpm               120.00:  RPM Surface Max 
 RRUN.                    L604:  Rig Run Number 
 RTIM.hr                  7.00:  Time Reaming 
 SAZI.deg               109.27:  Azm, Start 
 SDEP.m                4761.01:  Start Depth 
 SIDD.                      No:  Serv Intrp, DD 
 SINC.deg                75.38:  Inc, Start 
 SPPA.psig             3574.00:  SPP Avg 
 SPPN.psig             3475.00:  SPP Min 
 SPPX.psig             3791.00:  SPP Max 
 STIM.      07.08.48 13-May-20:  Start Time 
 SVCS.                 DD, MWD:  Services 
 SVER.                    9.20:  Sperry Version 
 TDAT.m                 363.00:  Tot Depth Attmp 
 TDDF.                      No:  Trip for DD 
 TDLG.m                 363.00:  Tot Depth Loggd 
 TFF .                      No:  Trip for Fail 
 TQAA.f-kp               20.00:  Torque Abs Avg 
 TQAN.f-kp               18.00:  Torque Abs Min 
 TQAX.f-kp               22.00:  Torque Abs Max 
 TRRT.°/30m              -0.35:  Turn Rotating 
 MRT .                    HCIM:  Maximum Recorded Temperature 
 TTMX.degC               92.16:  Max Tool Temp 
 VS01.                90586518:  Virtual Str1 SN 
 VS02.        AZ90560654Z1W1C6:  Virtual Str2 SN 
 VS03.           AZ90610398F11:  Virtual Str3 SN 
 VS04.                90514975:  Virtual Str4 SN 
 VS05.                90514972:  Virtual Str5 SN 
 VS06.     AZ90603282F11V7D1A6:  Virtual Str6 SN 
 WBMN.klb                 7.00:  WOB Min 
 WOBA.klb                12.00:  WOB Avg 
 WOBX.klb                14.00:  WOB Max 
 YP  .lhf2               32.00:  Yield Point 
~Curve Information Block
#MNEM.UNIT                 API CODE     Curve Description
#---------               -----------    ---------------------------
 TIME.HHMMSS            00 000 000 000:  GT Time & Date
 GTDEPTH.m              00 000 000 000:  GT Depth
 GTPQH.psia             00 000 000 000:  GT HR Quartz Pressure
 GTTQ.degC              00 000 000 000:  GT Quartz Temperature
 GTTN.NONE              00 000 000 000:  GT Test Number
 GTET.sec               00 000 000 000:  GT Elapsed Test Time
 GTTVD.m                00 000 000 000:  GT True Vertical Depth
#Other Information
#
#WARRANTY: Halliburton will use its best efforts to furnish customers with 
#accurate information and interpretations that are part of, and incident to, the services 
#provided.  However, Halliburton cannot and does not warrant the accuracy 
#or correctness of such information and interpretations.  Under no circumstances should any 
#such information or interpretation be relied upon as the sole basis for any drilling, 
#completion, production, or financial decision or any procedure involving any risk to the 
#safety of any drilling venture, drilling rig or its crew or any other third party.  The 
#Customer has full responsibility for all drilling, completion and production operation.  
#Halliburton makes no representations or warranties, either expressed or 
#implied, including, but not limited to, the implied warranties of merchantability or fitness 
#for a particular purpose, with respect to the services rendered.  In no event will 
#Halliburton be liable for failure to obtain any particular results or for 
#any damages, including, but not limited to, indirect, special or consequential damages, 
#resulting from the use of any information or interpretation provided by Halliburton.
#
~A           TIME           GTDEPTH  GTPQH  GTTQ  GTTN   GTET   GTTVD  
# ...
   21:13:43.071.18-May-2020 4766.01 5476.67 60.65 14.00  22.61 2532.29
   21:13:43.271.18-May-2020 4766.01 5484.67 60.65 14.00  22.81 2532.29
   21:13:43.472.18-May-2020 4766.01 5487.80 60.65 14.00  23.01 2532.29
   21:13:43.672.18-May-2020 4766.01 5487.80 60.65 14.00  23.21 2532.29
   21:13:43.872.18-May-2020 4766.01 5477.55 60.65 14.00  23.41 2532.29
   21:13:44.072.18-May-2020 4766.01 5482.39 60.65 14.00  23.61 2532.29
   21:13:44.272.18-May-2020 4766.01 5485.28 60.65 14.00  23.81 2532.29
   21:13:44.472.18-May-2020 4766.01 5479.68 60.65 14.00  24.01 2532.29
   21:13:44.672.18-May-2020 4766.01 5479.68 60.65 14.00  24.21 2532.29
   21:13:44.872.18-May-2020 4766.01 5480.34 60.65 14.00  24.41 2532.29
   21:13:45.072.18-May-2020 4766.01 5481.51 60.65 14.00  24.61 2532.29
   21:13:45.272.18-May-2020 4766.01 5482.40 60.65 14.00  24.81 2532.29
   21:13:45.472.18-May-2020 4766.01 5487.21 60.65 14.00  25.01 2532.29
   21:13:45.672.18-May-2020 4766.01 5487.21 60.65 14.00  25.21 2532.29
   21:13:45.872.18-May-2020 4766.01 5480.76 60.65 14.00  25.41 2532.29
   21:13:46.072.18-May-2020 4766.01 5481.11 60.65 14.00  25.61 2532.29
   21:13:46.272.18-May-2020 4766.01 5487.26 60.65 14.00  25.81 2532.29
   21:13:46.472.18-May-2020 4766.01 5480.31 60.65 14.00  26.01 2532.29
   21:13:46.672.18-May-2020 4766.01 5480.13 60.65 14.00  26.21 2532.29
   21:13:46.872.18-May-2020 4766.01 5481.57 60.65 14.00  26.41 2532.29
   21:13:47.072.18-May-2020 4766.01 5482.89 60.65 14.00  26.61 2532.29
   21:13:47.273.18-May-2020 4766.01 5480.76 60.65 14.00  26.81 2532.29
   21:13:47.473.18-May-2020 4766.01 5480.15 60.65 14.00  27.01 2532.29
   21:13:47.673.18-May-2020 4766.01 5480.15 60.65 14.00  27.21 2532.29
   21:13:47.873.18-May-2020 4766.01 5478.88 60.65 14.00  27.41 2532.29
   21:13:48.073.18-May-2020 4766.01 5481.40 60.65 14.00  27.61 2532.29
   21:13:48.273.18-May-2020 4766.01 5487.11 60.65 14.00  27.81 2532.29
   21:13:48.473.18-May-2020 4766.01 5498.80 60.65 14.00  28.01 2532.29
   21:13:48.673.18-May-2020 4766.01 5498.80 60.65 14.00  28.21 2532.29
   21:13:48.873.18-May-2020 4766.01 5483.26 60.65 14.00  28.41 2532.29
   21:13:49.073.18-May-2020 4766.01 5488.39 60.65 14.00  28.61 2532.29
   21:13:49.273.18-May-2020 4766.01 5508.16 60.65 14.00  28.81 2532.29
   21:13:49.473.18-May-2020 4766.01 5484.92 60.65 14.00  29.01 2532.29
   21:13:49.673.18-May-2020 4766.01 5484.92 60.65 14.00  29.21 2532.29
   21:13:49.873.18-May-2020 4766.01 5498.88 60.65 14.00  29.41 2532.29
   21:13:50.073.18-May-2020 4766.01 5498.03 60.65 14.00  29.61 2532.29
   21:13:50.273.18-May-2020 4766.01 5488.04 60.65 14.00  29.81 2532.29
   21:13:50.473.18-May-2020 4766.01 5484.78 60.65 14.00  30.01 2532.29
   21:13:50.673.18-May-2020 4766.01 5496.97 60.65 14.00  30.21 2532.29
   21:13:50.873.18-May-2020 4766.01 5491.61 60.65 14.00  30.41 2532.29
   21:13:51.074.18-May-2020 4766.01 5487.67 60.65 14.00  30.61 2532.29
   21:13:51.274.18-May-2020 4766.01 5487.22 60.65 14.00  30.81 2532.29
   21:13:51.474.18-May-2020 4766.01 5490.40 60.65 14.00  31.01 2532.29
   21:13:51.674.18-May-2020 4766.01 5490.40 60.65 14.00  31.21 2532.29
   21:13:51.874.18-May-2020 4766.01 5487.58 60.65 14.00  31.41 2532.29
   21:13:52.074.18-May-2020 4766.01 5495.38 60.65 14.00  31.61 2532.29
   21:13:52.274.18-May-2020 4766.01 5489.92 60.65 14.00  31.81 2532.29
   21:13:52.474.18-May-2020 4766.01 5487.83 60.65 14.00  32.01 2532.29
   21:13:52.674.18-May-2020 4766.01 5487.83 60.65 14.00  32.21 2532.29
   21:13:52.874.18-May-2020 4766.01 5492.49 60.65 14.00  32.41 2532.29
   21:13:53.074.18-May-2020 4766.01 5492.11 60.65 14.00  32.61 2532.29
   21:13:53.274.18-May-2020 4766.01 5488.32 60.65 14.00  32.81 2532.29
   21:13:53.474.18-May-2020 4766.01 5488.35 60.65 14.00  33.01 2532.29
   21:13:53.674.18-May-2020 4766.01 5488.35 60.65 14.00  33.21 2532.29
   21:13:53.874.18-May-2020 4766.01 5489.96 60.65 14.00  33.41 2532.29
   21:13:54.074.18-May-2020 4766.01 5488.35 60.65 14.00  33.61 2532.29
   21:13:54.274.18-May-2020 4766.01 5488.33 60.65 14.00  33.81 2532.29
   21:13:54.474.18-May-2020 4766.01 5496.92 60.65 14.00  34.01 2532.29
   21:13:54.674.18-May-2020 4766.01 5483.01 60.65 14.00  34.21 2532.29
   21:13:54.875.18-May-2020 4766.01 5485.35 60.65 14.00  34.41 2532.29
   21:13:55.075.18-May-2020 4766.01 5483.57 60.65 14.00  34.61 2532.29
   21:13:55.275.18-May-2020 4766.01 5502.72 60.65 14.00  34.81 2532.29
   21:13:55.475.18-May-2020 4766.01 5477.72 60.65 14.00  35.01 2532.29
   21:13:55.675.18-May-2020 4766.01 5477.72 60.65 14.00  35.21 2532.29
   21:13:55.875.18-May-2020 4766.01 5479.91 60.65 14.00  35.41 2532.29
   21:13:56.075.18-May-2020 4766.01 5499.99 60.65 14.00  35.61 2532.29
   21:13:56.275.18-May-2020 4766.01 5479.96 60.65 14.00  35.81 2532.29
   21:13:56.475.18-May-2020 4766.01 5478.88 60.65 14.00  36.01 2532.29
   21:13:56.675.18-May-2020 4766.01 5478.88 60.65 14.00  36.21 2532.29
   21:13:56.875.18-May-2020 4766.01 5490.35 60.65 14.00  36.41 2532.29
   21:13:57.075.18-May-2020 4766.01 5486.94 60.65 14.00  36.61 2532.29
   21:13:57.275.18-May-2020 4766.01 5476.82 60.65 14.00  36.81 2532.29
   21:13:57.475.18-May-2020 4766.01 5477.97 60.65 14.00  37.01 2532.29
   21:13:57.675.18-May-2020 4766.01 5477.97 60.65 14.00  37.21 2532.29
   21:13:57.875.18-May-2020 4766.01 5483.87 60.65 14.00  37.41 2532.29
   21:13:58.075.18-May-2020 4766.01 5477.47 60.65 14.00  37.61 2532.29
   21:13:58.275.18-May-2020 4766.01 5483.03 60.65 14.00  37.81 2532.29
   21:13:58.475.18-May-2020 4766.01 5488.93 60.65 14.00  38.01 2532.29
   21:13:58.676.18-May-2020 4766.01 5488.93 60.65 14.00  38.21 2532.29
   21:13:58.876.18-May-2020 4766.01 5475.13 60.65 14.00  38.41 2532.29
   21:13:59.076.18-May-2020 4766.01 5479.43 60.65 14.00  38.61 2532.29
   21:13:59.276.18-May-2020 4766.01 5482.93 60.65 14.00  38.81 2532.29
   21:13:59.476.18-May-2020 4766.01 5476.31 60.65 14.00  39.01 2532.29
   21:13:59.676.18-May-2020 4766.01 5476.31 60.65 14.00  39.21 2532.29
   21:13:59.876.18-May-2020 4766.01 5475.83 60.65 14.00  39.41 2532.29
   21:14:00.076.18-May-2020 4766.01 5476.32 60.65 14.00  39.61 2532.29
   21:14:00.276.18-May-2020 4766.01 5477.61 60.65 14.00  39.81 2532.29
   21:14:00.476.18-May-2020 4766.01 5483.83 60.65 14.00  40.01 2532.29
   21:14:00.676.18-May-2020 4766.01 5483.83 60.65 14.00  40.21 2532.29
   21:14:00.876.18-May-2020 4766.01 5474.96 60.65 14.00  40.41 2532.29
   21:14:01.076.18-May-2020 4766.01 5475.81 60.65 14.00  40.61 2532.29
   21:14:01.276.18-May-2020 4766.01 5482.12 60.65 14.00  40.81 2532.29
   21:14:01.476.18-May-2020 4766.01 5474.41 60.65 14.00  41.01 2532.29
   21:14:01.676.18-May-2020 4766.01 5474.41 60.65 14.00  41.21 2532.29
   21:14:01.876.18-May-2020 4766.01 5474.98 60.65 14.00  41.41 2532.29
   21:14:02.076.18-May-2020 4766.01 5475.83 60.65 14.00  41.61 2532.29
   21:14:02.277.18-May-2020 4766.01 5474.18 60.65 14.00  41.81 2532.29
   21:14:02.477.18-May-2020 4766.01 5474.40 60.65 14.00  42.01 2532.29
   21:14:02.677.18-May-2020 4766.01 5487.91 60.65 14.00  42.21 2532.29
   21:14:02.877.18-May-2020 4766.01 5472.01 60.65 14.00  42.41 2532.29
   21:14:03.077.18-May-2020 4766.01 5474.74 60.65 14.00  42.61 2532.29
   21:14:03.277.18-May-2020 4766.01 5474.17 60.65 14.00  42.81 2532.29
   21:14:03.477.18-May-2020 4766.01 5496.49 60.65 14.00  43.01 2532.29
   21:14:03.677.18-May-2020 4766.01 5496.49 60.65 14.00  43.21 2532.29
   21:14:03.877.18-May-2020 4766.01 5474.31 60.65 14.00  43.41 2532.29
   21:14:04.077.18-May-2020 4766.01 5474.49 60.65 14.00  43.61 2532.29
   21:14:04.277.18-May-2020 4766.01 5500.37 60.65 14.00  43.81 2532.29
   21:14:04.477.18-May-2020 4766.01 5472.48 60.65 14.00  44.01 2532.29
   21:14:04.677.18-May-2020 4766.01 5472.48 60.65 14.00  44.21 2532.29
   21:14:04.877.18-May-2020 4766.01 5473.46 60.65 14.00  44.41 2532.29
   21:14:05.077.18-May-2020 4766.01 5495.65 60.65 14.00  44.61 2532.29
   21:14:05.277.18-May-2020 4766.01 5478.05 60.65 14.00  44.81 2532.29
   21:14:05.477.18-May-2020 4766.01 5473.00 60.65 14.00  45.01 2532.29
