~Version Information
 VERS.                  2.0:   CWLS log ASCII Standard -VERSION 2.0
 WRAP.                   NO:   One line per depth step
~Well Information Block
#MNEM.UNIT     VALUE/NAME     DESCRIPTION
#---------     -----------    ---------------------------
 STRT.S             02:13:59 18-May-20: START TIME 02:13:59 18-May-20
 STOP.S             02:21:38 18-May-20: STOP TIME  02:21:38 18-May-20
 STEP.S                   0.00: STEP TIME
 NULL.                 -999.25: NULL VALUE
 UNIT.                     N/A:  LOGGING EQUIPMENT ID
 DCON.         Sperry Drilling:  DIRECTNL CONTR
 DOE .                     N/A:  DOE NUMBER
 JOBN.        AZ-XX-0906252240:  JOB TICKET NUMB
 MWDS.                     N/A:  MWD SHOP
 PROV.                    Baku:  PROVINCE
 STAT.                    Baku:  STATE NAME
 REGN.                   EESSA:  REGION
 BASE.              Azerbaijan:  LOGGING EQUIPMENT BASE LOCATION
 UWI .                     N/A:  UNIQUE WELL IDENTIFIER
 API .                     N/A:  API NUMBER
 MDS .        Operator Entered:  MAG DATA SOURCE
 WTYP.                Deviated:  WELL TYPE
 COMP.     BP Exploration (Caspian Sea) Ltd.:  COMPANY
 SRVC.          Turan Drilling:  CONTRACTOR
 WELL.           J23 (Slot 07):  WELL NAME
 CTRY.              Azerbaijan:  COUNTRY NAME
 FLD .                     ACG:  FIELD NAME
 PDAT.          Mean Sea Level:  PERMANENT DATUM
 RIG .             West Chirag:  RIG NAME
 SON .        AZ-XX-0906252240:  JOB NUMBER
 FTOP.          Formation Tops:  FORM TOPS DESC
 ILTD.               Lithology:  INTERP LTH DESC
 SVYD.                  Survey:  SURVEY DESC
 DMOD.             Drill Model:  DRILL MOD DESC
 HPTY.       Minimum Curvature:  HOLE POS TYPE
 NREF.                    Grid:  NORTH REFERENCE
 SPUD.               27-Aug-20:  SPUD DATE
 DATE.      00.00.00 19-May-20:  END TIME
 STIM.      03.00.00 25-Mar-20:  START TIME
 DMF .             Drill Floor:  DRILL MEAS FROM
 DFST.                        :  DIST FSL TEXT
 DFWT.                        :  DIST FWL TEXT
 CNTY.                        :  COUNTY
 LOC .                        :  LOCATION
 LMF .             Drill Floor:  LOG MEASURED FROM
 VSNS.m                   9.43:  VERT SEC N/S
 VSEW.m                  -8.91:  VERT SEC E/W
 AGAP.m                  43.00:  AIR GAP
 DEP .m                 354.17:  DEPTH
 APD .m                  43.00:  DEPTH ABOVE PD
 WDMS.m                 169.80:  WD ELEV
 EGL .m                   0.00:  GROUND ELEVATION
 EPD .m                   0.00:  ELEVATION
 AZTC.deg                 6.31:  AZM TOTAL CORR
 GRDC.deg                 0.14:  GRID CORRECTION
 MDEC.deg                 6.45:  MAGNETIC DECL
 MDIP.deg                59.56:  MAGNETIC DIP
 MFLD.nT              50295.00:  MAGNETIC FIELD
 GVFD.g                   1.00:  GRAVITY FIELD
 VSDR.deg               179.88:  VERT SEC DIRECT
 TDD .m                5150.01:  TOTAL DEPTH (DRILLER)
 SDEP.m                 864.00:  START DEPTH
 DFSL.m                   0.00:  DISTANCE FSL
 DFWL.m                   0.00:  DISTANCE FWL
 UTMY.m             4443793.85:  UTM Y
 UTMX.m              519005.06:  UTM X
 WHEW.m                  -8.91:  WELL HEAD E/W
 WHNS.m                   9.43:  WELL HEAD N/S
 LONG.deg                51.22:  LONGITUDE
 LATI.deg                40.13:  LATITUDE
 TVDS.m                  43.00:  TVDSS CORRECTN
 EKB .m                   0.00:  KB ELEVATION
 EDF .m                  43.00:  DF ELEVATION
 TDL .m                 363.00:  TOTAL DEPTH (LOGGER)
 MAGU.                 1850802:  MAGUTM CHECKSUM
 VSC .                       0:  VS TO CLOSURE
~Parameter Information Block
#MNEM.UNIT       Value        Description
#---------     -----------    ---------------------------
 AV  .mps                 2.30:  Ann Velocity 
 AVMX.mps                 4.40:  Max Ann Veloc 
 AZIF.deg               110.24:  Azm, Final 
 BHAT.        Rotary Steerable:  BHA Type 
 BREV.rev               331.00:  Rev Bit Total 
 BROT.°/30m               0.00:  Build Rotating 
 BS  .in                  8.50:  Bit Size 
 BSZ .in                  8.50:  Bit Size 
 BTPL.psig              585.00:  Bit Press Loss 
 CABU.                     Yes:  Customer Abuse 
 COMM.                     ü9U:  Run Comments 1 
 TCS .hr                122.75:  Time Ciculation Ended 
 CV  .mps                 2.67:  Crit Velocity 
 CVMX.mps                 3.56:  Max Crit Veloc 
 DD1 .          Rashad Habibov:  Direct Drillr 1 
 DD2 .         Rasim Ibrahimov:  Direct Drillr 2 
 DDSV.               Geo-Pilot:  DD Service 
 DEFF.%                  98.00:  % Det Eff 
 DLRX.°/30m               0.75:  Dogleg Rot Max 
 DLSO.°/30m               1.25:  Dogleg Oriented 
 DLSX.°/30m               2.06:  Dogleg Str Max 
 DRET.      07.45.00 17-May-20:  Drill End Time 
 DRST.      22.50.00 15-May-20:  Drill Start Tim 
 DTIM.hr                 20.75:  Time Drilling 
 EDEP.m                5124.01:  End Depth 
 ENG1.           Eldar Hajiyev:  Engineer 1 
 ENG2.        Marcelo Sandoval:  Engineer 2 
 ENG3.        Davud huseynzada:  Engineer 3 
 ENG4.          Ruslan Safarov:  Engineer 4 
 ETIM.      04.33.00 23-May-20:  End Time 
 FLOI.gpm               450.00:  Flow In 
 FLON.gpm               400.00:  Flow In Min 
 FLOS.cptm                0.00:  Fluid Loss 
 FLOX.gpm               500.00:  Flow In Max 
 FTRO.       Formation Presure:  FTWD Run Obj 
 HFLO.                      No:  High Flow 
 HPRE.                     Yes:  High Pressure 
 HTEM.                      No:  High Temp 
 HYDO.m                   1.80:  Hydro Offset 
 IFIN.deg                75.06:  Inc, Final 
 IMAX.deg                75.38:  Inc Max 
 IMIN.deg                74.69:  Inc Min 
 IMND.m                5027.38:  Inc Min Depth 
 IMXD.m                4771.61:  Inc Max Depth 
 JARR.                      No:  Jarring 
 LETM.      07.45.00 17-May-20:  Log End Time 
 LOST.hr                     0:  Lost Rig Time 
 LSTM.      22.50.00 15-May-20:  Log Start Time 
 MDCL.ppm             42000.00:  Mud Chlorides 
 MDES.     Inversion Oil/Synthetic:  Mud Desc 
 DFD .sg                  1.34:  Mud Density 
 MDMN.sg                  1.34:  Dens Mud Min 
 MDMX.sg                  1.34:  Dens Mud Max 
 MOIL.                       0:  Run Mud Oil % 
 MOWR.                   67:33:  Run Mud OWR 
 MSND.                       0:  Run Mud Sand % 
 MSOL.                     1.8:  Run Mud Solids% 
 DFV .spqt               76.00:  Mud Viscosity 
 MWOD.in                  6.75:  MWD Tool OD 
 MWSI.                      No:  Serv Intrp, MWD 
 OTIM.hr                228.19:  Time Operating 
 PCON.           Look Like New:  Pad Condition 
 PMAX.psia             6164.70:  Press Op, Max 
 PV  .cP                 28.00:  Mud PV 
 RUN .                     900:  Run Number 
 ROPA.m/hr               19.00:  ROP Avg 
 ROPN.m/hr               11.00:  ROP Min 
 ROPX.m/hr               36.00:  ROP Max 
 RPMA.rpm               120.00:  RPM Surface Avg 
 RPMN.rpm               120.00:  RPM Surface Min 
 RPMX.rpm               120.00:  RPM Surface Max 
 RRUN.                    L604:  Rig Run Number 
 RTIM.hr                  7.00:  Time Reaming 
 SAZI.deg               109.27:  Azm, Start 
 SDEP.m                4761.01:  Start Depth 
 SIDD.                      No:  Serv Intrp, DD 
 SINC.deg                75.38:  Inc, Start 
 SPPA.psig             3574.00:  SPP Avg 
 SPPN.psig             3475.00:  SPP Min 
 SPPX.psig             3791.00:  SPP Max 
 STIM.      07.08.48 13-May-20:  Start Time 
 SVCS.                 DD, MWD:  Services 
 SVER.                    9.20:  Sperry Version 
 TDAT.m                 363.00:  Tot Depth Attmp 
 TDDF.                      No:  Trip for DD 
 TDLG.m                 363.00:  Tot Depth Loggd 
 TFF .                      No:  Trip for Fail 
 TQAA.f-kp               20.00:  Torque Abs Avg 
 TQAN.f-kp               18.00:  Torque Abs Min 
 TQAX.f-kp               22.00:  Torque Abs Max 
 TRRT.°/30m              -0.35:  Turn Rotating 
 MRT .                    HCIM:  Maximum Recorded Temperature 
 TTMX.degC               92.16:  Max Tool Temp 
 VS01.                90586518:  Virtual Str1 SN 
 VS02.        AZ90560654Z1W1C6:  Virtual Str2 SN 
 VS03.           AZ90610398F11:  Virtual Str3 SN 
 VS04.                90514975:  Virtual Str4 SN 
 VS05.                90514972:  Virtual Str5 SN 
 VS06.     AZ90603282F11V7D1A6:  Virtual Str6 SN 
 WBMN.klb                 7.00:  WOB Min 
 WOBA.klb                12.00:  WOB Avg 
 WOBX.klb                14.00:  WOB Max 
 YP  .lhf2               32.00:  Yield Point 
~Curve Information Block
#MNEM.UNIT                 API CODE     Curve Description
#---------               -----------    ---------------------------
 TIME.HHMMSS            00 000 000 000:  GT Time & Date
 GTDEPTH.m              00 000 000 000:  GT Depth
 GTPQH.psia             00 000 000 000:  GT HR Quartz Pressure
 GTTQ.degC              00 000 000 000:  GT Quartz Temperature
 GTTN.NONE              00 000 000 000:  GT Test Number
 GTET.sec               00 000 000 000:  GT Elapsed Test Time
 GTTVD.m                00 000 000 000:  GT True Vertical Depth
#Other Information
#
#WARRANTY: Halliburton will use its best efforts to furnish customers with 
#accurate information and interpretations that are part of, and incident to, the services 
#provided.  However, Halliburton cannot and does not warrant the accuracy 
#or correctness of such information and interpretations.  Under no circumstances should any 
#such information or interpretation be relied upon as the sole basis for any drilling, 
#completion, production, or financial decision or any procedure involving any risk to the 
#safety of any drilling venture, drilling rig or its crew or any other third party.  The 
#Customer has full responsibility for all drilling, completion and production operation.  
#Halliburton makes no representations or warranties, either expressed or 
#implied, including, but not limited to, the implied warranties of merchantability or fitness 
#for a particular purpose, with respect to the services rendered.  In no event will 
#Halliburton be liable for failure to obtain any particular results or for 
#any damages, including, but not limited to, indirect, special or consequential damages, 
#resulting from the use of any information or interpretation provided by Halliburton.
#
~A           TIME           GTDEPTH  GTPQH  GTTQ  GTTN   GTET   GTTVD  
# ...
   02:15:30.398.18-May-2020 4832.01 2682.02 66.03 12.00  90.44 2549.35
   02:15:30.598.18-May-2020 4832.01 2682.01 66.03 12.00  90.64 2549.35
   02:15:30.798.18-May-2020 4832.01 2682.04 66.03 12.00  90.84 2549.35
   02:15:30.998.18-May-2020 4832.01 2682.05 66.03 12.00  91.04 2549.35
   02:15:31.198.18-May-2020 4832.01 2682.05 66.03 12.00  91.24 2549.35
   02:15:31.398.18-May-2020 4832.01 2682.07 66.03 12.00  91.44 2549.35
   02:15:31.598.18-May-2020 4832.01 2682.09 66.03 12.00  91.64 2549.35
   02:15:31.798.18-May-2020 4832.01 2682.03 66.03 12.00  91.84 2549.35
   02:15:31.998.18-May-2020 4832.01 2682.00 66.03 12.00  92.04 2549.35
   02:15:32.198.18-May-2020 4832.01 2682.00 66.03 12.00  92.24 2549.35
   02:15:32.398.18-May-2020 4832.01 2682.05 66.03 12.00  92.44 2549.35
   02:15:32.599.18-May-2020 4832.01 2682.02 66.03 12.00  92.64 2549.35
   02:15:32.799.18-May-2020 4832.01 2682.05 66.03 12.00  92.84 2549.35
   02:15:32.999.18-May-2020 4832.01 2682.06 66.03 12.00  93.04 2549.35
   02:15:33.199.18-May-2020 4832.01 2682.06 66.03 12.00  93.24 2549.35
   02:15:33.399.18-May-2020 4832.01 2682.09 66.03 12.00  93.44 2549.35
   02:15:33.599.18-May-2020 4832.01 2682.09 66.03 12.00  93.64 2549.35
   02:15:33.799.18-May-2020 4832.01 2682.12 66.03 12.00  93.84 2549.35
   02:15:33.999.18-May-2020 4832.01 2681.96 66.03 12.00  94.04 2549.35
   02:15:34.199.18-May-2020 4832.01 2681.96 66.03 12.00  94.24 2549.35
   02:15:34.399.18-May-2020 4832.01 2682.05 66.03 12.00  94.44 2549.35
   02:15:34.599.18-May-2020 4832.01 2682.05 66.03 12.00  94.64 2549.35
   02:15:34.799.18-May-2020 4832.01 2681.98 66.03 12.00  94.84 2549.35
   02:15:35.000.18-May-2020 4832.01 2681.99 66.03 12.00  95.04 2549.35
   02:15:35.200.18-May-2020 4832.01 2681.99 66.03 12.00  95.24 2549.35
   02:15:35.400.18-May-2020 4832.01 2682.03 66.03 12.00  95.44 2549.35
   02:15:35.600.18-May-2020 4832.01 2682.01 66.03 12.00  95.64 2549.35
   02:15:35.800.18-May-2020 4832.01 2682.02 66.03 12.00  95.84 2549.35
   02:15:36.000.18-May-2020 4832.01 2682.00 66.03 12.00  96.04 2549.35
   02:15:36.200.18-May-2020 4832.01 2682.00 66.03 12.00  96.24 2549.35
   02:15:36.400.18-May-2020 4832.01 2682.12 66.03 12.00  96.44 2549.35
   02:15:36.600.18-May-2020 4832.01 2681.93 66.03 12.00  96.64 2549.35
   02:15:36.800.18-May-2020 4832.01 2681.98 66.03 12.00  96.84 2549.35
   02:15:37.000.18-May-2020 4832.01 2682.06 66.03 12.00  97.04 2549.35
   02:15:37.200.18-May-2020 4832.01 2682.06 66.03 12.00  97.24 2549.35
   02:15:37.400.18-May-2020 4832.01 2682.04 66.03 12.00  97.44 2549.35
   02:15:37.601.18-May-2020 4832.01 2682.06 66.03 12.00  97.64 2549.35
   02:15:37.801.18-May-2020 4832.01 2682.07 66.03 12.00  97.84 2549.35
   02:15:38.001.18-May-2020 4832.01 2682.08 66.03 12.00  98.04 2549.35
   02:15:38.201.18-May-2020 4832.01 2682.08 66.03 12.00  98.24 2549.35
   02:15:38.401.18-May-2020 4832.01 2682.10 66.03 12.00  98.44 2549.35
   02:15:38.601.18-May-2020 4832.01 2681.98 66.03 12.00  98.64 2549.35
   02:15:38.801.18-May-2020 4832.01 2682.06 66.03 12.00  98.84 2549.35
   02:15:39.001.18-May-2020 4832.01 2682.03 66.03 12.00  99.04 2549.35
   02:15:39.201.18-May-2020 4832.01 2682.03 66.03 12.00  99.24 2549.35
   02:15:39.401.18-May-2020 4832.01 2682.04 66.03 12.00  99.44 2549.35
   02:15:39.601.18-May-2020 4832.01 2682.06 66.03 12.00  99.64 2549.35
   02:15:39.801.18-May-2020 4832.01 2682.07 66.03 12.00  99.84 2549.35
   02:15:40.002.18-May-2020 4832.01 2682.08 66.03 12.00 100.04 2549.35
   02:15:40.202.18-May-2020 4832.01 2682.08 66.03 12.00 100.24 2549.35
   02:15:40.402.18-May-2020 4832.01 2682.10 66.03 12.00 100.44 2549.35
   02:15:40.602.18-May-2020 4832.01 2682.10 66.03 12.00 100.64 2549.35
   02:15:40.802.18-May-2020 4832.01 2682.00 66.03 12.00 100.84 2549.35
   02:15:41.002.18-May-2020 4832.01 2682.02 66.03 12.00 101.04 2549.35
   02:15:41.202.18-May-2020 4832.01 2682.07 66.03 12.00 101.24 2549.35
   02:15:41.402.18-May-2020 4832.01 2682.08 66.03 12.00 101.44 2549.35
   02:15:41.602.18-May-2020 4832.01 2681.98 66.03 12.00 101.64 2549.35
   02:15:41.802.18-May-2020 4832.01 2682.01 66.03 12.00 101.84 2549.35
   02:15:42.002.18-May-2020 4832.01 2682.06 66.03 12.00 102.04 2549.35
   02:15:42.202.18-May-2020 4832.01 2682.04 66.03 12.00 102.24 2549.35
   02:15:42.402.18-May-2020 4832.01 2682.00 66.03 12.00 102.44 2549.35
   02:15:42.603.18-May-2020 4832.01 2682.05 66.03 12.00 102.64 2549.35
   02:15:42.803.18-May-2020 4832.01 2682.03 66.03 12.00 102.84 2549.35
   02:15:43.003.18-May-2020 4832.01 2682.07 66.03 12.00 103.04 2549.35
   02:15:43.203.18-May-2020 4832.01 2682.04 66.03 12.00 103.24 2549.35
   02:15:43.403.18-May-2020 4832.01 2682.03 66.03 12.00 103.44 2549.35
   02:15:43.603.18-May-2020 4832.01 2682.04 66.03 12.00 103.64 2549.35
   02:15:43.803.18-May-2020 4832.01 2682.02 66.03 12.00 103.84 2549.35
   02:15:44.003.18-May-2020 4832.01 2682.07 66.03 12.00 104.04 2549.35
   02:15:44.203.18-May-2020 4832.01 2682.07 66.03 12.00 104.24 2549.35
   02:15:44.403.18-May-2020 4832.01 2682.05 66.03 12.00 104.44 2549.35
   02:15:44.603.18-May-2020 4832.01 2682.07 66.03 12.00 104.64 2549.35
   02:15:44.803.18-May-2020 4832.01 2682.08 66.03 12.00 104.84 2549.35
   02:15:45.004.18-May-2020 4832.01 2682.08 66.03 12.00 105.04 2549.35
   02:15:45.204.18-May-2020 4832.01 2682.08 66.03 12.00 105.24 2549.35
   02:15:45.404.18-May-2020 4832.01 2682.10 66.03 12.00 105.44 2549.35
   02:15:45.604.18-May-2020 4832.01 2682.02 66.03 12.00 105.64 2549.35
   02:15:45.804.18-May-2020 4832.01 2682.03 66.03 12.00 105.84 2549.35
   02:15:46.004.18-May-2020 4832.01 2682.06 66.03 12.00 106.04 2549.35
   02:15:46.204.18-May-2020 4832.01 2682.06 66.03 12.00 106.24 2549.35
   02:15:46.404.18-May-2020 4832.01 2682.06 66.03 12.00 106.44 2549.35
   02:15:46.604.18-May-2020 4832.01 2682.08 66.03 12.00 106.64 2549.35
   02:15:46.804.18-May-2020 4832.01 2682.08 66.03 12.00 106.84 2549.35
   02:15:47.004.18-May-2020 4832.01 2682.08 66.03 12.00 107.04 2549.35
   02:15:47.204.18-May-2020 4832.01 2682.09 66.03 12.00 107.24 2549.35
   02:15:47.405.18-May-2020 4832.01 2682.11 66.03 12.00 107.44 2549.35
   02:15:47.605.18-May-2020 4832.01 2682.01 66.03 12.00 107.64 2549.35
   02:15:47.805.18-May-2020 4832.01 2682.08 66.03 12.00 107.84 2549.35
   02:15:48.005.18-May-2020 4832.01 2682.06 66.03 12.00 108.04 2549.35
   02:15:48.205.18-May-2020 4832.01 2682.08 66.03 12.00 108.24 2549.35
   02:15:48.405.18-May-2020 4832.01 2682.01 66.03 12.00 108.44 2549.35
   02:15:48.605.18-May-2020 4832.01 2682.06 66.03 12.00 108.64 2549.35
   02:15:48.805.18-May-2020 4832.01 2682.04 66.03 12.00 108.84 2549.35
   02:15:49.005.18-May-2020 4832.01 2682.07 66.03 12.00 109.04 2549.35
   02:15:49.205.18-May-2020 4832.01 2682.05 66.03 12.00 109.24 2549.35
   02:15:49.405.18-May-2020 4832.01 2682.02 66.03 12.00 109.44 2549.35
   02:15:49.605.18-May-2020 4832.01 2682.04 66.03 12.00 109.64 2549.35
   02:15:49.805.18-May-2020 4832.01 2682.04 66.03 12.00 109.84 2549.35
   02:15:50.006.18-May-2020 4832.01 2682.06 66.03 12.00 110.04 2549.35
   02:15:50.206.18-May-2020 4832.01 2682.06 66.03 12.00 110.24 2549.35
   02:15:50.406.18-May-2020 4832.01 2682.03 66.03 12.00 110.44 2549.35
   02:15:50.606.18-May-2020 4832.01 2682.07 66.03 12.00 110.64 2549.35
   02:15:50.806.18-May-2020 4832.01 2682.04 66.03 12.00 110.84 2549.35
   02:15:51.006.18-May-2020 4832.01 2682.06 66.03 12.00 111.04 2549.35
   02:15:51.206.18-May-2020 4832.01 2682.06 66.03 12.00 111.24 2549.35
   02:15:51.406.18-May-2020 4832.01 2682.06 66.03 12.00 111.44 2549.35
   02:15:51.606.18-May-2020 4832.01 2682.07 66.03 12.00 111.65 2549.35
   02:15:51.806.18-May-2020 4832.01 2682.07 66.03 12.00 111.85 2549.35
   02:15:52.006.18-May-2020 4832.01 2682.08 66.03 12.00 112.05 2549.35
   02:15:52.206.18-May-2020 4832.01 2682.09 66.03 12.00 112.25 2549.35
   02:15:52.407.18-May-2020 4832.01 2682.13 66.03 12.00 112.45 2549.35
   02:15:52.607.18-May-2020 4832.01 2682.00 66.03 12.00 112.65 2549.35
   02:15:52.807.18-May-2020 4832.01 2682.01 66.03 12.00 112.85 2549.35
