~Version Information
 VERS.                  2.0:   CWLS log ASCII Standard -VERSION 2.0
 WRAP.                   NO:   One line per depth step
~Well Information Block
#MNEM.UNIT     VALUE/NAME     DESCRIPTION
#---------     -----------    ---------------------------
 STRT.S             14:38:44 17-May-20: START TIME 14:38:44 17-May-20
 STOP.S             14:45:36 17-May-20: STOP TIME  14:45:36 17-May-20
 STEP.S                   0.00: STEP TIME
 NULL.                 -999.25: NULL VALUE
 UNIT.                     N/A:  LOGGING EQUIPMENT ID
 DCON.         Sperry Drilling:  DIRECTNL CONTR
 DOE .                     N/A:  DOE NUMBER
 JOBN.        AZ-XX-0906252240:  JOB TICKET NUMB
 MWDS.                     N/A:  MWD SHOP
 PROV.                    Baku:  PROVINCE
 STAT.                    Baku:  STATE NAME
 REGN.                   EESSA:  REGION
 BASE.              Azerbaijan:  LOGGING EQUIPMENT BASE LOCATION
 UWI .                     N/A:  UNIQUE WELL IDENTIFIER
 API .                     N/A:  API NUMBER
 MDS .        Operator Entered:  MAG DATA SOURCE
 WTYP.                Deviated:  WELL TYPE
 COMP.     BP Exploration (Caspian Sea) Ltd.:  COMPANY
 SRVC.          Turan Drilling:  CONTRACTOR
 WELL.           J23 (Slot 07):  WELL NAME
 CTRY.              Azerbaijan:  COUNTRY NAME
 FLD .                     ACG:  FIELD NAME
 PDAT.          Mean Sea Level:  PERMANENT DATUM
 RIG .             West Chirag:  RIG NAME
 SON .        AZ-XX-0906252240:  JOB NUMBER
 FTOP.          Formation Tops:  FORM TOPS DESC
 ILTD.               Lithology:  INTERP LTH DESC
 SVYD.                  Survey:  SURVEY DESC
 DMOD.             Drill Model:  DRILL MOD DESC
 HPTY.       Minimum Curvature:  HOLE POS TYPE
 NREF.                    Grid:  NORTH REFERENCE
 SPUD.               27-Aug-20:  SPUD DATE
 DATE.      00.00.00 19-May-20:  END TIME
 STIM.      03.00.00 25-Mar-20:  START TIME
 DMF .             Drill Floor:  DRILL MEAS FROM
 DFST.                        :  DIST FSL TEXT
 DFWT.                        :  DIST FWL TEXT
 CNTY.                        :  COUNTY
 LOC .                        :  LOCATION
 LMF .             Drill Floor:  LOG MEASURED FROM
 VSNS.m                   9.43:  VERT SEC N/S
 VSEW.m                  -8.91:  VERT SEC E/W
 AGAP.m                  43.00:  AIR GAP
 DEP .m                 354.17:  DEPTH
 APD .m                  43.00:  DEPTH ABOVE PD
 WDMS.m                 169.80:  WD ELEV
 EGL .m                   0.00:  GROUND ELEVATION
 EPD .m                   0.00:  ELEVATION
 AZTC.deg                 6.31:  AZM TOTAL CORR
 GRDC.deg                 0.14:  GRID CORRECTION
 MDEC.deg                 6.45:  MAGNETIC DECL
 MDIP.deg                59.56:  MAGNETIC DIP
 MFLD.nT              50295.00:  MAGNETIC FIELD
 GVFD.g                   1.00:  GRAVITY FIELD
 VSDR.deg               179.88:  VERT SEC DIRECT
 TDD .m                5150.01:  TOTAL DEPTH (DRILLER)
 SDEP.m                 864.00:  START DEPTH
 DFSL.m                   0.00:  DISTANCE FSL
 DFWL.m                   0.00:  DISTANCE FWL
 UTMY.m             4443793.85:  UTM Y
 UTMX.m              519005.06:  UTM X
 WHEW.m                  -8.91:  WELL HEAD E/W
 WHNS.m                   9.43:  WELL HEAD N/S
 LONG.deg                51.22:  LONGITUDE
 LATI.deg                40.13:  LATITUDE
 TVDS.m                  43.00:  TVDSS CORRECTN
 EKB .m                   0.00:  KB ELEVATION
 EDF .m                  43.00:  DF ELEVATION
 TDL .m                 363.00:  TOTAL DEPTH (LOGGER)
 MAGU.                 1850802:  MAGUTM CHECKSUM
 VSC .                       0:  VS TO CLOSURE
~Parameter Information Block
#MNEM.UNIT       Value        Description
#---------     -----------    ---------------------------
 AV  .mps                 2.30:  Ann Velocity 
 AVMX.mps                 4.40:  Max Ann Veloc 
 AZIF.deg               110.24:  Azm, Final 
 BHAT.        Rotary Steerable:  BHA Type 
 BREV.rev               331.00:  Rev Bit Total 
 BROT.°/30m               0.00:  Build Rotating 
 BS  .in                  8.50:  Bit Size 
 BSZ .in                  8.50:  Bit Size 
 BTPL.psig              585.00:  Bit Press Loss 
 CABU.                     Yes:  Customer Abuse 
 COMM.                     ÔF[:  Run Comments 1 
 TCS .hr                122.75:  Time Ciculation Ended 
 CV  .mps                 2.67:  Crit Velocity 
 CVMX.mps                 3.56:  Max Crit Veloc 
 DD1 .          Rashad Habibov:  Direct Drillr 1 
 DD2 .         Rasim Ibrahimov:  Direct Drillr 2 
 DDSV.               Geo-Pilot:  DD Service 
 DEFF.%                  98.00:  % Det Eff 
 DLRX.°/30m               0.75:  Dogleg Rot Max 
 DLSO.°/30m               1.25:  Dogleg Oriented 
 DLSX.°/30m               2.06:  Dogleg Str Max 
 DRET.      07.45.00 17-May-20:  Drill End Time 
 DRST.      22.50.00 15-May-20:  Drill Start Tim 
 DTIM.hr                 20.75:  Time Drilling 
 EDEP.m                5124.01:  End Depth 
 ENG1.           Eldar Hajiyev:  Engineer 1 
 ENG2.        Marcelo Sandoval:  Engineer 2 
 ENG3.        Davud huseynzada:  Engineer 3 
 ENG4.          Ruslan Safarov:  Engineer 4 
 ETIM.      04.33.00 23-May-20:  End Time 
 FLOI.gpm               450.00:  Flow In 
 FLON.gpm               400.00:  Flow In Min 
 FLOS.cptm                0.00:  Fluid Loss 
 FLOX.gpm               500.00:  Flow In Max 
 FTRO.       Formation Presure:  FTWD Run Obj 
 HFLO.                      No:  High Flow 
 HPRE.                     Yes:  High Pressure 
 HTEM.                      No:  High Temp 
 HYDO.m                   1.80:  Hydro Offset 
 IFIN.deg                75.06:  Inc, Final 
 IMAX.deg                75.38:  Inc Max 
 IMIN.deg                74.69:  Inc Min 
 IMND.m                5027.38:  Inc Min Depth 
 IMXD.m                4771.61:  Inc Max Depth 
 JARR.                      No:  Jarring 
 LETM.      07.45.00 17-May-20:  Log End Time 
 LOST.hr                     0:  Lost Rig Time 
 LSTM.      22.50.00 15-May-20:  Log Start Time 
 MDCL.ppm             42000.00:  Mud Chlorides 
 MDES.     Inversion Oil/Synthetic:  Mud Desc 
 DFD .sg                  1.34:  Mud Density 
 MDMN.sg                  1.34:  Dens Mud Min 
 MDMX.sg                  1.34:  Dens Mud Max 
 MOIL.                       0:  Run Mud Oil % 
 MOWR.                   67:33:  Run Mud OWR 
 MSND.                       0:  Run Mud Sand % 
 MSOL.                     1.8:  Run Mud Solids% 
 DFV .spqt               76.00:  Mud Viscosity 
 MWOD.in                  6.75:  MWD Tool OD 
 MWSI.                      No:  Serv Intrp, MWD 
 OTIM.hr                228.19:  Time Operating 
 PCON.           Look Like New:  Pad Condition 
 PMAX.psia             6164.70:  Press Op, Max 
 PV  .cP                 28.00:  Mud PV 
 RUN .                     900:  Run Number 
 ROPA.m/hr               19.00:  ROP Avg 
 ROPN.m/hr               11.00:  ROP Min 
 ROPX.m/hr               36.00:  ROP Max 
 RPMA.rpm               120.00:  RPM Surface Avg 
 RPMN.rpm               120.00:  RPM Surface Min 
 RPMX.rpm               120.00:  RPM Surface Max 
 RRUN.                    L604:  Rig Run Number 
 RTIM.hr                  7.00:  Time Reaming 
 SAZI.deg               109.27:  Azm, Start 
 SDEP.m                4761.01:  Start Depth 
 SIDD.                      No:  Serv Intrp, DD 
 SINC.deg                75.38:  Inc, Start 
 SPPA.psig             3574.00:  SPP Avg 
 SPPN.psig             3475.00:  SPP Min 
 SPPX.psig             3791.00:  SPP Max 
 STIM.      07.08.48 13-May-20:  Start Time 
 SVCS.                 DD, MWD:  Services 
 SVER.                    9.20:  Sperry Version 
 TDAT.m                 363.00:  Tot Depth Attmp 
 TDDF.                      No:  Trip for DD 
 TDLG.m                 363.00:  Tot Depth Loggd 
 TFF .                      No:  Trip for Fail 
 TQAA.f-kp               20.00:  Torque Abs Avg 
 TQAN.f-kp               18.00:  Torque Abs Min 
 TQAX.f-kp               22.00:  Torque Abs Max 
 TRRT.°/30m              -0.35:  Turn Rotating 
 MRT .                    HCIM:  Maximum Recorded Temperature 
 TTMX.degC               92.16:  Max Tool Temp 
 VS01.                90586518:  Virtual Str1 SN 
 VS02.        AZ90560654Z1W1C6:  Virtual Str2 SN 
 VS03.           AZ90610398F11:  Virtual Str3 SN 
 VS04.                90514975:  Virtual Str4 SN 
 VS05.                90514972:  Virtual Str5 SN 
 VS06.     AZ90603282F11V7D1A6:  Virtual Str6 SN 
 WBMN.klb                 7.00:  WOB Min 
 WOBA.klb                12.00:  WOB Avg 
 WOBX.klb                14.00:  WOB Max 
 YP  .lhf2               32.00:  Yield Point 
~Curve Information Block
#MNEM.UNIT                 API CODE     Curve Description
#---------               -----------    ---------------------------
 TIME.HHMMSS            00 000 000 000:  GT Time & Date
 GTDEPTH.m              00 000 000 000:  GT Depth
 GTPQH.psia             00 000 000 000:  GT HR Quartz Pressure
 GTTQ.degC              00 000 000 000:  GT Quartz Temperature
 GTTN.NONE              00 000 000 000:  GT Test Number
 GTET.sec               00 000 000 000:  GT Elapsed Test Time
 GTTVD.m                00 000 000 000:  GT True Vertical Depth
#Other Information
#
#WARRANTY: Halliburton will use its best efforts to furnish customers with 
#accurate information and interpretations that are part of, and incident to, the services 
#provided.  However, Halliburton cannot and does not warrant the accuracy 
#or correctness of such information and interpretations.  Under no circumstances should any 
#such information or interpretation be relied upon as the sole basis for any drilling, 
#completion, production, or financial decision or any procedure involving any risk to the 
#safety of any drilling venture, drilling rig or its crew or any other third party.  The 
#Customer has full responsibility for all drilling, completion and production operation.  
#Halliburton makes no representations or warranties, either expressed or 
#implied, including, but not limited to, the implied warranties of merchantability or fitness 
#for a particular purpose, with respect to the services rendered.  In no event will 
#Halliburton be liable for failure to obtain any particular results or for 
#any damages, including, but not limited to, indirect, special or consequential damages, 
#resulting from the use of any information or interpretation provided by Halliburton.
#
~A           TIME           GTDEPTH  GTPQH  GTTQ  GTTN  GTET   GTTVD  
# ...
   14:44:52.000.17-May-2020 5087.01 5606.36 72.23 1.00 368.00 2615.39
   14:44:52.200.17-May-2020 5087.01 5635.93 72.23 1.00 368.20 2615.39
   14:44:52.400.17-May-2020 5087.01 5615.47 72.23 1.00 368.40 2615.39
   14:44:52.600.17-May-2020 5087.01 5608.19 72.23 1.00 368.60 2615.39
   14:44:52.800.17-May-2020 5087.01 5616.08 72.23 1.00 368.80 2615.39
   14:44:53.000.17-May-2020 5087.01 5629.62 72.23 1.00 369.00 2615.39
   14:44:53.200.17-May-2020 5087.01 5613.89 72.23 1.00 369.20 2615.39
   14:44:53.400.17-May-2020 5087.01 5609.63 72.23 1.00 369.40 2615.39
   14:44:53.600.17-May-2020 5087.01 5607.52 72.23 1.00 369.60 2615.39
   14:44:53.800.17-May-2020 5087.01 5615.34 72.23 1.00 369.80 2615.39
   14:44:54.000.17-May-2020 5087.01 5613.07 72.23 1.00 370.00 2615.39
   14:44:54.200.17-May-2020 5087.01 5613.07 72.23 1.00 370.20 2615.39
   14:44:54.400.17-May-2020 5087.01 5607.75 72.23 1.00 370.40 2615.39
   14:44:54.600.17-May-2020 5087.01 5609.32 72.23 1.00 370.60 2615.39
   14:44:54.800.17-May-2020 5087.01 5617.05 72.23 1.00 370.80 2615.39
   14:44:55.000.17-May-2020 5087.01 5626.76 72.23 1.00 371.00 2615.39
   14:44:55.200.17-May-2020 5087.01 5626.76 72.23 1.00 371.20 2615.39
   14:44:55.400.17-May-2020 5087.01 5606.07 72.23 1.00 371.40 2615.39
   14:44:55.600.17-May-2020 5087.01 5606.13 72.23 1.00 371.60 2615.39
   14:44:55.800.17-May-2020 5087.01 5615.97 72.23 1.00 371.80 2615.39
   14:44:56.000.17-May-2020 5087.01 5610.19 72.23 1.00 372.00 2615.39
   14:44:56.200.17-May-2020 5087.01 5609.41 72.23 1.00 372.20 2615.39
   14:44:56.400.17-May-2020 5087.01 5607.75 72.23 1.00 372.40 2615.39
   14:44:56.600.17-May-2020 5087.01 5609.11 72.23 1.00 372.60 2615.39
   14:44:56.800.17-May-2020 5087.01 5609.99 72.23 1.00 372.80 2615.39
   14:44:57.000.17-May-2020 5087.01 5608.90 72.23 1.00 373.00 2615.39
   14:44:57.200.17-May-2020 5087.01 5608.90 72.23 1.00 373.20 2615.39
   14:44:57.400.17-May-2020 5087.01 5612.48 72.23 1.00 373.40 2615.39
   14:44:57.600.17-May-2020 5087.01 5609.29 72.23 1.00 373.60 2615.39
   14:44:57.800.17-May-2020 5087.01 5604.35 72.23 1.00 373.80 2615.39
   14:44:58.000.17-May-2020 5087.01 5617.16 72.23 1.00 374.00 2615.39
   14:44:58.200.17-May-2020 5087.01 5617.16 72.23 1.00 374.20 2615.39
   14:44:58.400.17-May-2020 5087.01 5614.93 72.23 1.00 374.40 2615.39
   14:44:58.600.17-May-2020 5087.01 5607.52 72.23 1.00 374.60 2615.39
   14:44:58.800.17-May-2020 5087.01 5604.81 72.22 1.00 374.80 2615.39
   14:44:59.000.17-May-2020 5087.01 5620.47 72.22 1.00 375.00 2615.39
   14:44:59.200.17-May-2020 5087.01 5620.47 72.22 1.00 375.20 2615.39
   14:44:59.400.17-May-2020 5087.01 5609.39 72.22 1.00 375.40 2615.39
   14:44:59.600.17-May-2020 5087.01 5606.46 72.22 1.00 375.60 2615.39
   14:44:59.800.17-May-2020 5087.01 5606.85 72.22 1.00 375.80 2615.39
   14:45:00.000.17-May-2020 5087.01 5638.18 72.22 1.00 376.00 2615.39
   14:45:00.200.17-May-2020 5087.01 5638.18 72.22 1.00 376.20 2615.39
   14:45:00.400.17-May-2020 5087.01 5609.66 72.22 1.00 376.40 2615.39
   14:45:00.600.17-May-2020 5087.01 5602.60 72.22 1.00 376.60 2615.39
   14:45:00.800.17-May-2020 5087.01 5619.27 72.22 1.00 376.80 2615.39
   14:45:01.000.17-May-2020 5087.01 5613.42 72.22 1.00 377.00 2615.39
   14:45:01.200.17-May-2020 5087.01 5613.42 72.22 1.00 377.20 2615.39
   14:45:01.400.17-May-2020 5087.01 5608.17 72.22 1.00 377.40 2615.39
   14:45:01.600.17-May-2020 5087.01 5610.14 72.22 1.00 377.60 2615.39
   14:45:01.800.17-May-2020 5087.01 5610.86 72.22 1.00 377.80 2615.39
   14:45:02.000.17-May-2020 5087.01 5626.00 72.22 1.00 378.00 2615.39
   14:45:02.200.17-May-2020 5087.01 5626.00 72.22 1.00 378.20 2615.39
   14:45:02.400.17-May-2020 5087.01 5607.67 72.22 1.00 378.40 2615.39
   14:45:02.600.17-May-2020 5087.01 5603.51 72.22 1.00 378.60 2615.39
   14:45:02.800.17-May-2020 5087.01 5613.87 72.22 1.00 378.80 2615.39
   14:45:03.000.17-May-2020 5087.01 5612.26 72.22 1.00 379.00 2615.39
   14:45:03.200.17-May-2020 5087.01 5612.26 72.22 1.00 379.20 2615.39
   14:45:03.400.17-May-2020 5087.01 5607.90 72.22 1.00 379.40 2615.39
   14:45:03.600.17-May-2020 5087.01 5607.87 72.22 1.00 379.60 2615.39
   14:45:03.800.17-May-2020 5087.01 5609.92 72.22 1.00 379.80 2615.39
   14:45:04.000.17-May-2020 5087.01 5607.98 72.22 1.00 380.00 2615.39
   14:45:04.200.17-May-2020 5087.01 5623.01 72.22 1.00 380.20 2615.39
   14:45:04.400.17-May-2020 5087.01 5616.38 72.21 1.00 380.40 2615.39
   14:45:04.600.17-May-2020 5087.01 5609.55 72.21 1.00 380.60 2615.39
   14:45:04.800.17-May-2020 5087.01 5607.15 72.21 1.00 380.80 2615.39
   14:45:05.000.17-May-2020 5087.01 5610.97 72.21 1.00 381.00 2615.39
   14:45:05.200.17-May-2020 5087.01 5610.97 72.21 1.00 381.20 2615.39
   14:45:05.400.17-May-2020 5087.01 5618.24 72.21 1.00 381.40 2615.39
   14:45:05.600.17-May-2020 5087.01 5608.89 72.21 1.00 381.60 2615.39
   14:45:05.800.17-May-2020 5087.01 5606.41 72.21 1.00 381.80 2615.39
   14:45:06.000.17-May-2020 5087.01 5612.65 72.21 1.00 382.00 2615.39
   14:45:06.200.17-May-2020 5087.01 5612.65 72.21 1.00 382.20 2615.39
   14:45:06.400.17-May-2020 5087.01 5612.04 72.21 1.00 382.40 2615.39
   14:45:06.600.17-May-2020 5087.01 5609.04 72.21 1.00 382.60 2615.39
   14:45:06.800.17-May-2020 5087.01 5605.25 72.21 1.00 382.80 2615.39
   14:45:07.000.17-May-2020 5087.01 5636.81 72.21 1.00 383.00 2615.39
   14:45:07.200.17-May-2020 5087.01 5636.81 72.21 1.00 383.20 2615.39
   14:45:07.400.17-May-2020 5087.01 5609.54 72.21 1.00 383.40 2615.39
   14:45:07.600.17-May-2020 5087.01 5605.58 72.21 1.00 383.60 2615.39
   14:45:07.800.17-May-2020 5087.01 5613.00 72.21 1.00 383.80 2615.39
   14:45:08.000.17-May-2020 5087.01 5616.62 72.21 1.00 384.00 2615.39
   14:45:08.200.17-May-2020 5087.01 5610.61 72.21 1.00 384.20 2615.39
   14:45:08.400.17-May-2020 5087.01 5609.31 72.21 1.00 384.40 2615.39
   14:45:08.600.17-May-2020 5087.01 5609.05 72.21 1.00 384.60 2615.39
   14:45:08.800.17-May-2020 5087.01 5611.11 72.21 1.00 384.80 2615.39
   14:45:09.000.17-May-2020 5087.01 5622.01 72.21 1.00 385.00 2615.39
   14:45:09.200.17-May-2020 5087.01 5617.91 72.21 1.00 385.20 2615.39
   14:45:09.400.17-May-2020 5087.01 5608.54 72.21 1.00 385.40 2615.39
   14:45:09.600.17-May-2020 5087.01 5606.00 72.21 1.00 385.60 2615.39
   14:45:09.800.17-May-2020 5087.01 5608.15 72.20 1.00 385.80 2615.39
   14:45:10.000.17-May-2020 5087.01 5614.23 72.20 1.00 386.00 2615.39
   14:45:10.200.17-May-2020 5087.01 5614.23 72.20 1.00 386.20 2615.39
   14:45:10.400.17-May-2020 5087.01 5608.64 72.20 1.00 386.40 2615.39
   14:45:10.600.17-May-2020 5087.01 5607.30 72.20 1.00 386.60 2615.39
   14:45:10.800.17-May-2020 5087.01 5609.82 72.20 1.00 386.80 2615.39
   14:45:11.000.17-May-2020 5087.01 5609.07 72.20 1.00 387.00 2615.39
   14:45:11.200.17-May-2020 5087.01 5609.07 72.20 1.00 387.20 2615.39
   14:45:11.400.17-May-2020 5087.01 5627.28 72.20 1.00 387.40 2615.39
   14:45:11.600.17-May-2020 5087.01 5610.06 72.20 1.00 387.60 2615.39
   14:45:11.800.17-May-2020 5087.01 5608.23 72.20 1.00 387.80 2615.39
   14:45:12.000.17-May-2020 5087.01 5606.14 72.20 1.00 388.00 2615.39
   14:45:12.200.17-May-2020 5087.01 5623.93 72.20 1.00 388.20 2615.39
   14:45:12.400.17-May-2020 5087.01 5628.88 72.20 1.00 388.40 2615.39
   14:45:12.600.17-May-2020 5087.01 5609.47 72.20 1.00 388.60 2615.39
   14:45:12.800.17-May-2020 5087.01 5606.85 72.20 1.00 388.80 2615.39
   14:45:13.000.17-May-2020 5087.01 5607.29 72.20 1.00 389.00 2615.39
   14:45:13.200.17-May-2020 5087.01 5633.03 72.20 1.00 389.20 2615.39
   14:45:13.400.17-May-2020 5087.01 5617.65 72.20 1.00 389.40 2615.39
   14:45:13.600.17-May-2020 5087.01 5610.57 72.20 1.00 389.60 2615.39
   14:45:13.800.17-May-2020 5087.01 5614.46 72.20 1.00 389.80 2615.39
   14:45:14.000.17-May-2020 5087.01 5630.68 72.20 1.00 390.00 2615.39
   14:45:14.200.17-May-2020 5087.01 5630.68 72.20 1.00 390.20 2615.39
   14:45:14.400.17-May-2020 5087.01 5608.16 72.20 1.00 390.40 2615.39
   14:45:14.600.17-May-2020 5087.01 5606.90 72.20 1.00 390.60 2615.39
   14:45:14.800.17-May-2020 5087.01 5616.50 72.20 1.00 390.80 2615.39
