~Version Information
 VERS.                  2.0:   CWLS log ASCII Standard -VERSION 2.0
 WRAP.                   NO:   One line per depth step
~Well Information Block
#MNEM.UNIT     VALUE/NAME     DESCRIPTION
#---------     -----------    ---------------------------
 STRT.S             12:13:26 20-May-20: START TIME 12:13:26 20-May-20
 STOP.S             12:20:31 20-May-20: STOP TIME  12:20:31 20-May-20
 STEP.S                   0.00: STEP TIME
 NULL.                 -999.25: NULL VALUE
 UNIT.                     N/A:  LOGGING EQUIPMENT ID
 DCON.         Sperry Drilling:  DIRECTNL CONTR
 DOE .                     N/A:  DOE NUMBER
 JOBN.        AZ-XX-0906252240:  JOB TICKET NUMB
 MWDS.                     N/A:  MWD SHOP
 PROV.                    Baku:  PROVINCE
 STAT.                    Baku:  STATE NAME
 REGN.                   EESSA:  REGION
 BASE.              Azerbaijan:  LOGGING EQUIPMENT BASE LOCATION
 UWI .                     N/A:  UNIQUE WELL IDENTIFIER
 API .                     N/A:  API NUMBER
 MDS .        Operator Entered:  MAG DATA SOURCE
 WTYP.                Deviated:  WELL TYPE
 COMP.     BP Exploration (Caspian Sea) Ltd.:  COMPANY
 SRVC.          Turan Drilling:  CONTRACTOR
 WELL.           J23 (Slot 07):  WELL NAME
 CTRY.              Azerbaijan:  COUNTRY NAME
 FLD .                     ACG:  FIELD NAME
 PDAT.          Mean Sea Level:  PERMANENT DATUM
 RIG .             West Chirag:  RIG NAME
 SON .        AZ-XX-0906252240:  JOB NUMBER
 FTOP.          Formation Tops:  FORM TOPS DESC
 ILTD.               Lithology:  INTERP LTH DESC
 SVYD.                  Survey:  SURVEY DESC
 DMOD.             Drill Model:  DRILL MOD DESC
 HPTY.       Minimum Curvature:  HOLE POS TYPE
 NREF.                    Grid:  NORTH REFERENCE
 SPUD.               27-Aug-20:  SPUD DATE
 DATE.      00.00.00 19-May-20:  END TIME
 STIM.      03.00.00 25-Mar-20:  START TIME
 DMF .             Drill Floor:  DRILL MEAS FROM
 DFST.                        :  DIST FSL TEXT
 DFWT.                        :  DIST FWL TEXT
 CNTY.                        :  COUNTY
 LOC .                        :  LOCATION
 LMF .             Drill Floor:  LOG MEASURED FROM
 VSNS.m                   9.43:  VERT SEC N/S
 VSEW.m                  -8.91:  VERT SEC E/W
 AGAP.m                  43.00:  AIR GAP
 DEP .m                 354.17:  DEPTH
 APD .m                  43.00:  DEPTH ABOVE PD
 WDMS.m                 169.80:  WD ELEV
 EGL .m                   0.00:  GROUND ELEVATION
 EPD .m                   0.00:  ELEVATION
 AZTC.deg                 6.31:  AZM TOTAL CORR
 GRDC.deg                 0.14:  GRID CORRECTION
 MDEC.deg                 6.45:  MAGNETIC DECL
 MDIP.deg                59.56:  MAGNETIC DIP
 MFLD.nT              50295.00:  MAGNETIC FIELD
 GVFD.g                   1.00:  GRAVITY FIELD
 VSDR.deg               179.88:  VERT SEC DIRECT
 TDD .m                5150.01:  TOTAL DEPTH (DRILLER)
 SDEP.m                 864.00:  START DEPTH
 DFSL.m                   0.00:  DISTANCE FSL
 DFWL.m                   0.00:  DISTANCE FWL
 UTMY.m             4443793.85:  UTM Y
 UTMX.m              519005.06:  UTM X
 WHEW.m                  -8.91:  WELL HEAD E/W
 WHNS.m                   9.43:  WELL HEAD N/S
 LONG.deg                51.22:  LONGITUDE
 LATI.deg                40.13:  LATITUDE
 TVDS.m                  43.00:  TVDSS CORRECTN
 EKB .m                   0.00:  KB ELEVATION
 EDF .m                  43.00:  DF ELEVATION
 TDL .m                 363.00:  TOTAL DEPTH (LOGGER)
 MAGU.                 1850802:  MAGUTM CHECKSUM
 VSC .                       0:  VS TO CLOSURE
~Parameter Information Block
#MNEM.UNIT       Value        Description
#---------     -----------    ---------------------------
 AV  .mps                 2.30:  Ann Velocity 
 AVMX.mps                 4.40:  Max Ann Veloc 
 AZIF.deg               110.24:  Azm, Final 
 BHAT.        Rotary Steerable:  BHA Type 
 BREV.rev               331.00:  Rev Bit Total 
 BROT.°/30m               0.00:  Build Rotating 
 BS  .in                  8.50:  Bit Size 
 BSZ .in                  8.50:  Bit Size 
 BTPL.psig              585.00:  Bit Press Loss 
 CABU.                     Yes:  Customer Abuse 
 COMM.                     моЊ:  Run Comments 1 
 TCS .hr                122.75:  Time Ciculation Ended 
 CV  .mps                 2.67:  Crit Velocity 
 CVMX.mps                 3.56:  Max Crit Veloc 
 DD1 .          Rashad Habibov:  Direct Drillr 1 
 DD2 .         Rasim Ibrahimov:  Direct Drillr 2 
 DDSV.               Geo-Pilot:  DD Service 
 DEFF.%                  98.00:  % Det Eff 
 DLRX.°/30m               0.75:  Dogleg Rot Max 
 DLSO.°/30m               1.25:  Dogleg Oriented 
 DLSX.°/30m               2.06:  Dogleg Str Max 
 DRET.      07.45.00 17-May-20:  Drill End Time 
 DRST.      22.50.00 15-May-20:  Drill Start Tim 
 DTIM.hr                 20.75:  Time Drilling 
 EDEP.m                5124.01:  End Depth 
 ENG1.           Eldar Hajiyev:  Engineer 1 
 ENG2.        Marcelo Sandoval:  Engineer 2 
 ENG3.        Davud huseynzada:  Engineer 3 
 ENG4.          Ruslan Safarov:  Engineer 4 
 ETIM.      04.33.00 23-May-20:  End Time 
 FLOI.gpm               450.00:  Flow In 
 FLON.gpm               400.00:  Flow In Min 
 FLOS.cptm                0.00:  Fluid Loss 
 FLOX.gpm               500.00:  Flow In Max 
 FTRO.       Formation Presure:  FTWD Run Obj 
 HFLO.                      No:  High Flow 
 HPRE.                     Yes:  High Pressure 
 HTEM.                      No:  High Temp 
 HYDO.m                   1.80:  Hydro Offset 
 IFIN.deg                75.06:  Inc, Final 
 IMAX.deg                75.38:  Inc Max 
 IMIN.deg                74.69:  Inc Min 
 IMND.m                5027.38:  Inc Min Depth 
 IMXD.m                4771.61:  Inc Max Depth 
 JARR.                      No:  Jarring 
 LETM.      07.45.00 17-May-20:  Log End Time 
 LOST.hr                     0:  Lost Rig Time 
 LSTM.      22.50.00 15-May-20:  Log Start Time 
 MDCL.ppm             42000.00:  Mud Chlorides 
 MDES.     Inversion Oil/Synthetic:  Mud Desc 
 DFD .sg                  1.34:  Mud Density 
 MDMN.sg                  1.34:  Dens Mud Min 
 MDMX.sg                  1.34:  Dens Mud Max 
 MOIL.                       0:  Run Mud Oil % 
 MOWR.                   67:33:  Run Mud OWR 
 MSND.                       0:  Run Mud Sand % 
 MSOL.                     1.8:  Run Mud Solids% 
 DFV .spqt               76.00:  Mud Viscosity 
 MWOD.in                  6.75:  MWD Tool OD 
 MWSI.                      No:  Serv Intrp, MWD 
 OTIM.hr                228.19:  Time Operating 
 PCON.           Look Like New:  Pad Condition 
 PMAX.psia             6164.70:  Press Op, Max 
 PV  .cP                 28.00:  Mud PV 
 RUN .                     900:  Run Number 
 ROPA.m/hr               19.00:  ROP Avg 
 ROPN.m/hr               11.00:  ROP Min 
 ROPX.m/hr               36.00:  ROP Max 
 RPMA.rpm               120.00:  RPM Surface Avg 
 RPMN.rpm               120.00:  RPM Surface Min 
 RPMX.rpm               120.00:  RPM Surface Max 
 RRUN.                    L604:  Rig Run Number 
 RTIM.hr                  7.00:  Time Reaming 
 SAZI.deg               109.27:  Azm, Start 
 SDEP.m                4761.01:  Start Depth 
 SIDD.                      No:  Serv Intrp, DD 
 SINC.deg                75.38:  Inc, Start 
 SPPA.psig             3574.00:  SPP Avg 
 SPPN.psig             3475.00:  SPP Min 
 SPPX.psig             3791.00:  SPP Max 
 STIM.      07.08.48 13-May-20:  Start Time 
 SVCS.                 DD, MWD:  Services 
 SVER.                    9.20:  Sperry Version 
 TDAT.m                 363.00:  Tot Depth Attmp 
 TDDF.                      No:  Trip for DD 
 TDLG.m                 363.00:  Tot Depth Loggd 
 TFF .                      No:  Trip for Fail 
 TQAA.f-kp               20.00:  Torque Abs Avg 
 TQAN.f-kp               18.00:  Torque Abs Min 
 TQAX.f-kp               22.00:  Torque Abs Max 
 TRRT.°/30m              -0.35:  Turn Rotating 
 MRT .                    HCIM:  Maximum Recorded Temperature 
 TTMX.degC               92.16:  Max Tool Temp 
 VS01.                90586518:  Virtual Str1 SN 
 VS02.        AZ90560654Z1W1C6:  Virtual Str2 SN 
 VS03.           AZ90610398F11:  Virtual Str3 SN 
 VS04.                90514975:  Virtual Str4 SN 
 VS05.                90514972:  Virtual Str5 SN 
 VS06.     AZ90603282F11V7D1A6:  Virtual Str6 SN 
 WBMN.klb                 7.00:  WOB Min 
 WOBA.klb                12.00:  WOB Avg 
 WOBX.klb                14.00:  WOB Max 
 YP  .lhf2               32.00:  Yield Point 
~Curve Information Block
#MNEM.UNIT                 API CODE     Curve Description
#---------               -----------    ---------------------------
 TIME.HHMMSS            00 000 000 000:  GT Time & Date
 GTDEPTH.m              00 000 000 000:  GT Depth
 GTPQH.psia             00 000 000 000:  GT HR Quartz Pressure
 GTTQ.degC              00 000 000 000:  GT Quartz Temperature
 GTTN.NONE              00 000 000 000:  GT Test Number
 GTET.sec               00 000 000 000:  GT Elapsed Test Time
 GTTVD.m                00 000 000 000:  GT True Vertical Depth
#Other Information
#
#WARRANTY: Halliburton will use its best efforts to furnish customers with 
#accurate information and interpretations that are part of, and incident to, the services 
#provided.  However, Halliburton cannot and does not warrant the accuracy 
#or correctness of such information and interpretations.  Under no circumstances should any 
#such information or interpretation be relied upon as the sole basis for any drilling, 
#completion, production, or financial decision or any procedure involving any risk to the 
#safety of any drilling venture, drilling rig or its crew or any other third party.  The 
#Customer has full responsibility for all drilling, completion and production operation.  
#Halliburton makes no representations or warranties, either expressed or 
#implied, including, but not limited to, the implied warranties of merchantability or fitness 
#for a particular purpose, with respect to the services rendered.  In no event will 
#Halliburton be liable for failure to obtain any particular results or for 
#any damages, including, but not limited to, indirect, special or consequential damages, 
#resulting from the use of any information or interpretation provided by Halliburton.
#
~A           TIME           GTDEPTH  GTPQH  GTTQ  GTTN   GTET   GTTVD  
# ...
   12:15:19.737.20-May-2020 4766.51 5487.40 69.47 15.00 113.04 2532.42
   12:15:19.937.20-May-2020 4766.51 5487.40 69.47 15.00 113.24 2532.42
   12:15:20.137.20-May-2020 4766.51 5488.98 69.47 15.00 113.44 2532.42
   12:15:20.337.20-May-2020 4766.51 5488.33 69.47 15.00 113.64 2532.42
   12:15:20.537.20-May-2020 4766.51 5487.27 69.47 15.00 113.84 2532.42
   12:15:20.737.20-May-2020 4766.51 5487.31 69.47 15.00 114.04 2532.42
   12:15:20.937.20-May-2020 4766.51 5487.44 69.47 15.00 114.24 2532.42
   12:15:21.137.20-May-2020 4766.51 5487.08 69.47 15.00 114.44 2532.42
   12:15:21.337.20-May-2020 4766.51 5486.51 69.47 15.00 114.64 2532.42
   12:15:21.537.20-May-2020 4766.51 5499.31 69.47 15.00 114.84 2532.42
   12:15:21.738.20-May-2020 4766.51 5487.31 69.47 15.00 115.04 2532.42
   12:15:21.938.20-May-2020 4766.51 5487.83 69.47 15.00 115.24 2532.42
   12:15:22.138.20-May-2020 4766.51 5492.46 69.47 15.00 115.44 2532.42
   12:15:22.338.20-May-2020 4766.51 5495.81 69.47 15.00 115.64 2532.42
   12:15:22.538.20-May-2020 4766.51 5490.17 69.47 15.00 115.84 2532.42
   12:15:22.738.20-May-2020 4766.51 5488.57 69.47 15.00 116.04 2532.42
   12:15:22.938.20-May-2020 4766.51 5488.57 69.47 15.00 116.24 2532.42
   12:15:23.138.20-May-2020 4766.51 5497.69 69.47 15.00 116.44 2532.42
   12:15:23.338.20-May-2020 4766.51 5495.71 69.47 15.00 116.64 2532.42
   12:15:23.538.20-May-2020 4766.51 5488.28 69.47 15.00 116.84 2532.42
   12:15:23.738.20-May-2020 4766.51 5488.65 69.46 15.00 117.04 2532.42
   12:15:23.938.20-May-2020 4766.51 5488.65 69.46 15.00 117.24 2532.42
   12:15:24.138.20-May-2020 4766.51 5501.69 69.46 15.00 117.44 2532.42
   12:15:24.338.20-May-2020 4766.51 5489.45 69.46 15.00 117.64 2532.42
   12:15:24.538.20-May-2020 4766.51 5488.68 69.46 15.00 117.84 2532.42
   12:15:24.738.20-May-2020 4766.51 5488.20 69.46 15.00 118.04 2532.42
   12:15:24.939.20-May-2020 4766.51 5488.20 69.46 15.00 118.24 2532.42
   12:15:25.139.20-May-2020 4766.51 5489.79 69.46 15.00 118.44 2532.42
   12:15:25.339.20-May-2020 4766.51 5488.11 69.46 15.00 118.64 2532.42
   12:15:25.539.20-May-2020 4766.51 5488.01 69.46 15.00 118.84 2532.42
   12:15:25.739.20-May-2020 4766.51 5488.03 69.46 15.00 119.04 2532.42
   12:15:25.939.20-May-2020 4766.51 5487.58 69.46 15.00 119.24 2532.42
   12:15:26.139.20-May-2020 4766.51 5499.06 69.46 15.00 119.44 2532.42
   12:15:26.339.20-May-2020 4766.51 5487.12 69.46 15.00 119.64 2532.42
   12:15:26.539.20-May-2020 4766.51 5487.50 69.46 15.00 119.84 2532.42
   12:15:26.739.20-May-2020 4766.51 5486.87 69.46 15.00 120.04 2532.42
   12:15:26.939.20-May-2020 4766.51 5486.87 69.46 15.00 120.24 2532.42
   12:15:27.139.20-May-2020 4766.51 5488.75 69.46 15.00 120.44 2532.42
   12:15:27.339.20-May-2020 4766.51 5487.23 69.46 15.00 120.64 2532.42
   12:15:27.539.20-May-2020 4766.51 5487.03 69.46 15.00 120.84 2532.42
   12:15:27.739.20-May-2020 4766.51 5487.33 69.46 15.00 121.04 2532.42
   12:15:27.939.20-May-2020 4766.51 5487.33 69.46 15.00 121.24 2532.42
   12:15:28.140.20-May-2020 4766.51 5486.19 69.46 15.00 121.44 2532.42
   12:15:28.340.20-May-2020 4766.51 5497.78 69.46 15.00 121.64 2532.42
   12:15:28.540.20-May-2020 4766.51 5486.69 69.46 15.00 121.84 2532.42
   12:15:28.740.20-May-2020 4766.51 5486.48 69.46 15.00 122.04 2532.42
   12:15:28.940.20-May-2020 4766.51 5487.98 69.46 15.00 122.24 2532.42
   12:15:29.140.20-May-2020 4766.51 5498.23 69.46 15.00 122.44 2532.42
   12:15:29.340.20-May-2020 4766.51 5490.09 69.45 15.00 122.64 2532.42
   12:15:29.540.20-May-2020 4766.51 5488.16 69.45 15.00 122.84 2532.42
   12:15:29.740.20-May-2020 4766.51 5486.67 69.45 15.00 123.04 2532.42
   12:15:29.940.20-May-2020 4766.51 5486.67 69.45 15.00 123.24 2532.42
   12:15:30.140.20-May-2020 4766.51 5496.93 69.45 15.00 123.44 2532.42
   12:15:30.340.20-May-2020 4766.51 5488.30 69.45 15.00 123.64 2532.42
   12:15:30.540.20-May-2020 4766.51 5488.10 69.45 15.00 123.84 2532.42
   12:15:30.740.20-May-2020 4766.51 5487.65 69.45 15.00 124.04 2532.42
   12:15:30.940.20-May-2020 4766.51 5487.65 69.45 15.00 124.24 2532.42
   12:15:31.141.20-May-2020 4766.51 5489.16 69.45 15.00 124.44 2532.42
   12:15:31.341.20-May-2020 4766.51 5488.01 69.45 15.00 124.64 2532.42
   12:15:31.541.20-May-2020 4766.51 5487.94 69.45 15.00 124.84 2532.42
   12:15:31.741.20-May-2020 4766.51 5488.68 69.45 15.00 125.04 2532.42
   12:15:31.941.20-May-2020 4766.51 5488.68 69.45 15.00 125.24 2532.42
   12:15:32.141.20-May-2020 4766.51 5487.69 69.45 15.00 125.44 2532.42
   12:15:32.341.20-May-2020 4766.51 5487.02 69.45 15.00 125.64 2532.42
   12:15:32.541.20-May-2020 4766.51 5487.19 69.45 15.00 125.84 2532.42
   12:15:32.741.20-May-2020 4766.51 5486.70 69.45 15.00 126.04 2532.42
   12:15:32.941.20-May-2020 4766.51 5496.86 69.45 15.00 126.24 2532.42
   12:15:33.141.20-May-2020 4766.51 5487.57 69.45 15.00 126.44 2532.42
   12:15:33.341.20-May-2020 4766.51 5486.49 69.45 15.00 126.64 2532.42
   12:15:33.541.20-May-2020 4766.51 5486.41 69.45 15.00 126.84 2532.42
   12:15:33.741.20-May-2020 4766.51 5486.23 69.45 15.00 127.04 2532.42
   12:15:33.941.20-May-2020 4766.51 5489.20 69.45 15.00 127.24 2532.42
   12:15:34.141.20-May-2020 4766.51 5486.96 69.45 15.00 127.44 2532.42
   12:15:34.342.20-May-2020 4766.51 5486.49 69.45 15.00 127.64 2532.42
   12:15:34.542.20-May-2020 4766.51 5486.96 69.45 15.00 127.84 2532.42
   12:15:34.742.20-May-2020 4766.51 5486.68 69.45 15.00 128.04 2532.42
   12:15:34.942.20-May-2020 4766.51 5486.68 69.45 15.00 128.24 2532.42
   12:15:35.142.20-May-2020 4766.51 5491.30 69.44 15.00 128.44 2532.42
   12:15:35.342.20-May-2020 4766.51 5491.99 69.44 15.00 128.64 2532.42
   12:15:35.542.20-May-2020 4766.51 5486.10 69.44 15.00 128.84 2532.42
   12:15:35.742.20-May-2020 4766.51 5486.20 69.44 15.00 129.04 2532.42
   12:15:35.942.20-May-2020 4766.51 5486.20 69.44 15.00 129.24 2532.42
   12:15:36.142.20-May-2020 4766.51 5496.78 69.44 15.00 129.44 2532.42
   12:15:36.342.20-May-2020 4766.51 5487.95 69.44 15.00 129.64 2532.42
   12:15:36.542.20-May-2020 4766.51 5487.24 69.44 15.00 129.84 2532.42
   12:15:36.742.20-May-2020 4766.51 5486.73 69.44 15.00 130.04 2532.42
   12:15:36.942.20-May-2020 4766.51 5501.66 69.44 15.00 130.24 2532.42
   12:15:37.142.20-May-2020 4766.51 5489.49 69.44 15.00 130.44 2532.42
   12:15:37.342.20-May-2020 4766.51 5487.53 69.44 15.00 130.64 2532.42
   12:15:37.543.20-May-2020 4766.51 5487.63 69.44 15.00 130.84 2532.42
   12:15:37.743.20-May-2020 4766.51 5495.39 69.44 15.00 131.04 2532.42
   12:15:37.943.20-May-2020 4766.51 5495.23 69.44 15.00 131.24 2532.42
   12:15:38.143.20-May-2020 4766.51 5488.63 69.44 15.00 131.44 2532.42
   12:15:38.343.20-May-2020 4766.51 5487.61 69.44 15.00 131.64 2532.42
   12:15:38.543.20-May-2020 4766.51 5487.58 69.44 15.00 131.84 2532.42
   12:15:38.743.20-May-2020 4766.51 5490.46 69.44 15.00 132.04 2532.42
   12:15:38.943.20-May-2020 4766.51 5490.46 69.44 15.00 132.24 2532.42
   12:15:39.143.20-May-2020 4766.51 5486.99 69.44 15.00 132.44 2532.42
   12:15:39.343.20-May-2020 4766.51 5487.00 69.44 15.00 132.64 2532.42
   12:15:39.543.20-May-2020 4766.51 5486.84 69.44 15.00 132.84 2532.42
   12:15:39.743.20-May-2020 4766.51 5489.78 69.44 15.00 133.04 2532.42
   12:15:39.943.20-May-2020 4766.51 5489.78 69.44 15.00 133.24 2532.42
   12:15:40.143.20-May-2020 4766.51 5486.32 69.44 15.00 133.44 2532.42
   12:15:40.343.20-May-2020 4766.51 5486.60 69.43 15.00 133.64 2532.42
   12:15:40.544.20-May-2020 4766.51 5485.80 69.43 15.00 133.84 2532.42
   12:15:40.744.20-May-2020 4766.51 5488.46 69.43 15.00 134.04 2532.42
   12:15:40.944.20-May-2020 4766.51 5487.21 69.43 15.00 134.24 2532.42
   12:15:41.144.20-May-2020 4766.51 5486.30 69.43 15.00 134.44 2532.42
   12:15:41.344.20-May-2020 4766.51 5486.62 69.43 15.00 134.64 2532.42
   12:15:41.544.20-May-2020 4766.51 5486.71 69.43 15.00 134.84 2532.42
   12:15:41.744.20-May-2020 4766.51 5486.17 69.43 15.00 135.04 2532.42
   12:15:41.944.20-May-2020 4766.51 5485.82 69.43 15.00 135.24 2532.42
   12:15:42.144.20-May-2020 4766.51 5497.60 69.43 15.00 135.44 2532.42
