~Version Information
 VERS.                  2.0:   CWLS log ASCII Standard -VERSION 2.0
 WRAP.                   NO:   One line per depth step
~Well Information Block
#MNEM.UNIT     VALUE/NAME     DESCRIPTION
#---------     -----------    ---------------------------
 STRT.S             22:49:31 17-May-20: START TIME 22:49:31 17-May-20
 STOP.S             22:56:24 17-May-20: STOP TIME  22:56:24 17-May-20
 STEP.S                   0.00: STEP TIME
 NULL.                 -999.25: NULL VALUE
 UNIT.                     N/A:  LOGGING EQUIPMENT ID
 DCON.         Sperry Drilling:  DIRECTNL CONTR
 DOE .                     N/A:  DOE NUMBER
 JOBN.        AZ-XX-0906252240:  JOB TICKET NUMB
 MWDS.                     N/A:  MWD SHOP
 PROV.                    Baku:  PROVINCE
 STAT.                    Baku:  STATE NAME
 REGN.                   EESSA:  REGION
 BASE.              Azerbaijan:  LOGGING EQUIPMENT BASE LOCATION
 UWI .                     N/A:  UNIQUE WELL IDENTIFIER
 API .                     N/A:  API NUMBER
 MDS .        Operator Entered:  MAG DATA SOURCE
 WTYP.                Deviated:  WELL TYPE
 COMP.     BP Exploration (Caspian Sea) Ltd.:  COMPANY
 SRVC.          Turan Drilling:  CONTRACTOR
 WELL.           J23 (Slot 07):  WELL NAME
 CTRY.              Azerbaijan:  COUNTRY NAME
 FLD .                     ACG:  FIELD NAME
 PDAT.          Mean Sea Level:  PERMANENT DATUM
 RIG .             West Chirag:  RIG NAME
 SON .        AZ-XX-0906252240:  JOB NUMBER
 FTOP.          Formation Tops:  FORM TOPS DESC
 ILTD.               Lithology:  INTERP LTH DESC
 SVYD.                  Survey:  SURVEY DESC
 DMOD.             Drill Model:  DRILL MOD DESC
 HPTY.       Minimum Curvature:  HOLE POS TYPE
 NREF.                    Grid:  NORTH REFERENCE
 SPUD.               27-Aug-20:  SPUD DATE
 DATE.      00.00.00 19-May-20:  END TIME
 STIM.      03.00.00 25-Mar-20:  START TIME
 DMF .             Drill Floor:  DRILL MEAS FROM
 DFST.                        :  DIST FSL TEXT
 DFWT.                        :  DIST FWL TEXT
 CNTY.                        :  COUNTY
 LOC .                        :  LOCATION
 LMF .             Drill Floor:  LOG MEASURED FROM
 VSNS.m                   9.43:  VERT SEC N/S
 VSEW.m                  -8.91:  VERT SEC E/W
 AGAP.m                  43.00:  AIR GAP
 DEP .m                 354.17:  DEPTH
 APD .m                  43.00:  DEPTH ABOVE PD
 WDMS.m                 169.80:  WD ELEV
 EGL .m                   0.00:  GROUND ELEVATION
 EPD .m                   0.00:  ELEVATION
 AZTC.deg                 6.31:  AZM TOTAL CORR
 GRDC.deg                 0.14:  GRID CORRECTION
 MDEC.deg                 6.45:  MAGNETIC DECL
 MDIP.deg                59.56:  MAGNETIC DIP
 MFLD.nT              50295.00:  MAGNETIC FIELD
 GVFD.g                   1.00:  GRAVITY FIELD
 VSDR.deg               179.88:  VERT SEC DIRECT
 TDD .m                5150.01:  TOTAL DEPTH (DRILLER)
 SDEP.m                 864.00:  START DEPTH
 DFSL.m                   0.00:  DISTANCE FSL
 DFWL.m                   0.00:  DISTANCE FWL
 UTMY.m             4443793.85:  UTM Y
 UTMX.m              519005.06:  UTM X
 WHEW.m                  -8.91:  WELL HEAD E/W
 WHNS.m                   9.43:  WELL HEAD N/S
 LONG.deg                51.22:  LONGITUDE
 LATI.deg                40.13:  LATITUDE
 TVDS.m                  43.00:  TVDSS CORRECTN
 EKB .m                   0.00:  KB ELEVATION
 EDF .m                  43.00:  DF ELEVATION
 TDL .m                 363.00:  TOTAL DEPTH (LOGGER)
 MAGU.                 1850802:  MAGUTM CHECKSUM
 VSC .                       0:  VS TO CLOSURE
~Parameter Information Block
#MNEM.UNIT       Value        Description
#---------     -----------    ---------------------------
 AV  .mps                 2.30:  Ann Velocity 
 AVMX.mps                 4.40:  Max Ann Veloc 
 AZIF.deg               110.24:  Azm, Final 
 BHAT.        Rotary Steerable:  BHA Type 
 BREV.rev               331.00:  Rev Bit Total 
 BROT.°/30m               0.00:  Build Rotating 
 BS  .in                  8.50:  Bit Size 
 BSZ .in                  8.50:  Bit Size 
 BTPL.psig              585.00:  Bit Press Loss 
 CABU.                     Yes:  Customer Abuse 
 COMM.                     ¼´€:  Run Comments 1 
 TCS .hr                122.75:  Time Ciculation Ended 
 CV  .mps                 2.67:  Crit Velocity 
 CVMX.mps                 3.56:  Max Crit Veloc 
 DD1 .          Rashad Habibov:  Direct Drillr 1 
 DD2 .         Rasim Ibrahimov:  Direct Drillr 2 
 DDSV.               Geo-Pilot:  DD Service 
 DEFF.%                  98.00:  % Det Eff 
 DLRX.°/30m               0.75:  Dogleg Rot Max 
 DLSO.°/30m               1.25:  Dogleg Oriented 
 DLSX.°/30m               2.06:  Dogleg Str Max 
 DRET.      07.45.00 17-May-20:  Drill End Time 
 DRST.      22.50.00 15-May-20:  Drill Start Tim 
 DTIM.hr                 20.75:  Time Drilling 
 EDEP.m                5124.01:  End Depth 
 ENG1.           Eldar Hajiyev:  Engineer 1 
 ENG2.        Marcelo Sandoval:  Engineer 2 
 ENG3.        Davud huseynzada:  Engineer 3 
 ENG4.          Ruslan Safarov:  Engineer 4 
 ETIM.      04.33.00 23-May-20:  End Time 
 FLOI.gpm               450.00:  Flow In 
 FLON.gpm               400.00:  Flow In Min 
 FLOS.cptm                0.00:  Fluid Loss 
 FLOX.gpm               500.00:  Flow In Max 
 FTRO.       Formation Presure:  FTWD Run Obj 
 HFLO.                      No:  High Flow 
 HPRE.                     Yes:  High Pressure 
 HTEM.                      No:  High Temp 
 HYDO.m                   1.80:  Hydro Offset 
 IFIN.deg                75.06:  Inc, Final 
 IMAX.deg                75.38:  Inc Max 
 IMIN.deg                74.69:  Inc Min 
 IMND.m                5027.38:  Inc Min Depth 
 IMXD.m                4771.61:  Inc Max Depth 
 JARR.                      No:  Jarring 
 LETM.      07.45.00 17-May-20:  Log End Time 
 LOST.hr                     0:  Lost Rig Time 
 LSTM.      22.50.00 15-May-20:  Log Start Time 
 MDCL.ppm             42000.00:  Mud Chlorides 
 MDES.     Inversion Oil/Synthetic:  Mud Desc 
 DFD .sg                  1.34:  Mud Density 
 MDMN.sg                  1.34:  Dens Mud Min 
 MDMX.sg                  1.34:  Dens Mud Max 
 MOIL.                       0:  Run Mud Oil % 
 MOWR.                   67:33:  Run Mud OWR 
 MSND.                       0:  Run Mud Sand % 
 MSOL.                     1.8:  Run Mud Solids% 
 DFV .spqt               76.00:  Mud Viscosity 
 MWOD.in                  6.75:  MWD Tool OD 
 MWSI.                      No:  Serv Intrp, MWD 
 OTIM.hr                228.19:  Time Operating 
 PCON.           Look Like New:  Pad Condition 
 PMAX.psia             6164.70:  Press Op, Max 
 PV  .cP                 28.00:  Mud PV 
 RUN .                     900:  Run Number 
 ROPA.m/hr               19.00:  ROP Avg 
 ROPN.m/hr               11.00:  ROP Min 
 ROPX.m/hr               36.00:  ROP Max 
 RPMA.rpm               120.00:  RPM Surface Avg 
 RPMN.rpm               120.00:  RPM Surface Min 
 RPMX.rpm               120.00:  RPM Surface Max 
 RRUN.                    L604:  Rig Run Number 
 RTIM.hr                  7.00:  Time Reaming 
 SAZI.deg               109.27:  Azm, Start 
 SDEP.m                4761.01:  Start Depth 
 SIDD.                      No:  Serv Intrp, DD 
 SINC.deg                75.38:  Inc, Start 
 SPPA.psig             3574.00:  SPP Avg 
 SPPN.psig             3475.00:  SPP Min 
 SPPX.psig             3791.00:  SPP Max 
 STIM.      07.08.48 13-May-20:  Start Time 
 SVCS.                 DD, MWD:  Services 
 SVER.                    9.20:  Sperry Version 
 TDAT.m                 363.00:  Tot Depth Attmp 
 TDDF.                      No:  Trip for DD 
 TDLG.m                 363.00:  Tot Depth Loggd 
 TFF .                      No:  Trip for Fail 
 TQAA.f-kp               20.00:  Torque Abs Avg 
 TQAN.f-kp               18.00:  Torque Abs Min 
 TQAX.f-kp               22.00:  Torque Abs Max 
 TRRT.°/30m              -0.35:  Turn Rotating 
 MRT .                    HCIM:  Maximum Recorded Temperature 
 TTMX.degC               92.16:  Max Tool Temp 
 VS01.                90586518:  Virtual Str1 SN 
 VS02.        AZ90560654Z1W1C6:  Virtual Str2 SN 
 VS03.           AZ90610398F11:  Virtual Str3 SN 
 VS04.                90514975:  Virtual Str4 SN 
 VS05.                90514972:  Virtual Str5 SN 
 VS06.     AZ90603282F11V7D1A6:  Virtual Str6 SN 
 WBMN.klb                 7.00:  WOB Min 
 WOBA.klb                12.00:  WOB Avg 
 WOBX.klb                14.00:  WOB Max 
 YP  .lhf2               32.00:  Yield Point 
~Curve Information Block
#MNEM.UNIT                 API CODE     Curve Description
#---------               -----------    ---------------------------
 TIME.HHMMSS            00 000 000 000:  GT Time & Date
 GTDEPTH.m              00 000 000 000:  GT Depth
 GTPQH.psia             00 000 000 000:  GT HR Quartz Pressure
 GTTQ.degC              00 000 000 000:  GT Quartz Temperature
 GTTN.NONE              00 000 000 000:  GT Test Number
 GTET.sec               00 000 000 000:  GT Elapsed Test Time
 GTTVD.m                00 000 000 000:  GT True Vertical Depth
#Other Information
#
#WARRANTY: Halliburton will use its best efforts to furnish customers with 
#accurate information and interpretations that are part of, and incident to, the services 
#provided.  However, Halliburton cannot and does not warrant the accuracy 
#or correctness of such information and interpretations.  Under no circumstances should any 
#such information or interpretation be relied upon as the sole basis for any drilling, 
#completion, production, or financial decision or any procedure involving any risk to the 
#safety of any drilling venture, drilling rig or its crew or any other third party.  The 
#Customer has full responsibility for all drilling, completion and production operation.  
#Halliburton makes no representations or warranties, either expressed or 
#implied, including, but not limited to, the implied warranties of merchantability or fitness 
#for a particular purpose, with respect to the services rendered.  In no event will 
#Halliburton be liable for failure to obtain any particular results or for 
#any damages, including, but not limited to, indirect, special or consequential damages, 
#resulting from the use of any information or interpretation provided by Halliburton.
#
~A           TIME           GTDEPTH  GTPQH  GTTQ  GTTN  GTET   GTTVD  
# ...
   22:50:17.503.17-May-2020 4908.51   36.05 67.19 8.00  45.98 2569.17
   22:50:17.703.17-May-2020 4908.51   36.05 67.19 8.00  46.18 2569.17
   22:50:17.903.17-May-2020 4908.51   35.87 67.19 8.00  46.38 2569.17
   22:50:18.103.17-May-2020 4908.51   35.74 67.18 8.00  46.58 2569.17
   22:50:18.303.17-May-2020 4908.51   35.59 67.18 8.00  46.78 2569.17
   22:50:18.502.17-May-2020 4908.51   35.45 67.18 8.00  46.98 2569.17
   22:50:18.702.17-May-2020 4908.51   35.45 67.18 8.00  47.18 2569.17
   22:50:18.902.17-May-2020 4908.51   35.12 67.17 8.00  47.38 2569.17
   22:50:19.102.17-May-2020 4908.51   34.96 67.17 8.00  47.58 2569.17
   22:50:19.302.17-May-2020 4908.51   34.79 67.16 8.00  47.78 2569.17
   22:50:19.502.17-May-2020 4908.51   34.63 67.16 8.00  47.98 2569.17
   22:50:19.702.17-May-2020 4908.51   34.63 67.16 8.00  48.18 2569.17
   22:50:19.902.17-May-2020 4908.51   34.30 67.16 8.00  48.38 2569.17
   22:50:20.102.17-May-2020 4908.51   34.12 67.16 8.00  48.58 2569.17
   22:50:20.302.17-May-2020 4908.51   33.97 67.15 8.00  48.77 2569.17
   22:50:20.501.17-May-2020 4908.51   33.81 67.15 8.00  48.97 2569.17
   22:50:20.701.17-May-2020 4908.51   33.66 67.15 8.00  49.17 2569.17
   22:50:20.901.17-May-2020 4908.51   33.51 67.15 8.00  49.37 2569.17
   22:50:21.101.17-May-2020 4908.51   33.38 67.15 8.00  49.57 2569.17
   22:50:21.301.17-May-2020 4908.51   33.24 67.14 8.00  49.77 2569.17
   22:50:21.501.17-May-2020 4908.51   33.16 67.14 8.00  49.97 2569.17
   22:50:21.701.17-May-2020 4908.51   33.16 67.14 8.00  50.17 2569.17
   22:50:21.901.17-May-2020 4908.51   33.93 67.14 8.00  50.37 2569.17
   22:50:22.101.17-May-2020 4908.51   34.36 67.14 8.00  50.57 2569.17
   22:50:22.301.17-May-2020 4908.51   34.77 67.14 8.00  50.77 2569.17
   22:50:22.500.17-May-2020 4908.51   35.16 67.14 8.00  50.97 2569.17
   22:50:22.700.17-May-2020 4908.51   35.16 67.14 8.00  51.17 2569.17
   22:50:22.900.17-May-2020 4908.51   35.91 67.13 8.00  51.37 2569.17
   22:50:23.100.17-May-2020 4908.51   36.27 67.13 8.00  51.57 2569.17
   22:50:23.300.17-May-2020 4908.51   36.62 67.13 8.00  51.77 2569.17
   22:50:23.500.17-May-2020 4908.51   36.95 67.13 8.00  51.97 2569.17
   22:50:23.700.17-May-2020 4908.51   37.28 67.13 8.00  52.17 2569.17
   22:50:23.900.17-May-2020 4908.51   37.63 67.13 8.00  52.37 2569.17
   22:50:24.100.17-May-2020 4908.51   37.96 67.13 8.00  52.57 2569.17
   22:50:24.300.17-May-2020 4908.51   38.28 67.13 8.00  52.77 2569.17
   22:50:24.499.17-May-2020 4908.51   38.59 67.13 8.00  52.97 2569.17
   22:50:24.699.17-May-2020 4908.51   38.59 67.13 8.00  53.17 2569.17
   22:50:24.899.17-May-2020 4908.51   39.20 67.13 8.00  53.37 2569.17
   22:50:25.099.17-May-2020 4908.51   39.50 67.13 8.00  53.57 2569.17
   22:50:25.299.17-May-2020 4908.51   39.79 67.12 8.00  53.77 2569.17
   22:50:25.499.17-May-2020 4908.51   40.08 67.12 8.00  53.97 2569.17
   22:50:25.699.17-May-2020 4908.51   40.08 67.12 8.00  54.17 2569.17
   22:50:25.899.17-May-2020 4908.51   40.67 67.12 8.00  54.37 2569.17
   22:50:26.099.17-May-2020 4908.51   40.96 67.12 8.00  54.57 2569.17
   22:50:26.298.17-May-2020 4908.51   41.23 67.12 8.00  54.77 2569.17
   22:50:26.498.17-May-2020 4908.51   41.49 67.12 8.00  54.97 2569.17
   22:50:26.698.17-May-2020 4908.51   41.49 67.12 8.00  55.17 2569.17
   22:50:26.898.17-May-2020 4908.51   42.06 67.12 8.00  55.37 2569.17
   22:50:27.098.17-May-2020 4908.51   42.31 67.12 8.00  55.57 2569.17
   22:50:27.298.17-May-2020 4908.51   42.62 67.12 8.00  55.77 2569.17
   22:50:27.498.17-May-2020 4908.51   42.90 67.12 8.00  55.97 2569.17
   22:50:27.698.17-May-2020 4908.51   43.15 67.12 8.00  56.17 2569.17
   22:50:27.898.17-May-2020 4908.51   43.40 67.12 8.00  56.37 2569.17
   22:50:28.098.17-May-2020 4908.51   43.66 67.12 8.00  56.57 2569.17
   22:50:28.297.17-May-2020 4908.51   43.94 67.12 8.00  56.77 2569.17
   22:50:28.497.17-May-2020 4908.51   44.20 67.12 8.00  56.97 2569.17
   22:50:28.697.17-May-2020 4908.51   44.47 67.12 8.00  57.17 2569.17
   22:50:28.897.17-May-2020 4908.51   44.73 67.12 8.00  57.37 2569.17
   22:50:29.097.17-May-2020 4908.51   45.00 67.12 8.00  57.57 2569.17
   22:50:29.297.17-May-2020 4908.51   45.25 67.12 8.00  57.77 2569.17
   22:50:29.497.17-May-2020 4908.51   45.51 67.12 8.00  57.97 2569.17
   22:50:29.697.17-May-2020 4908.51   45.51 67.12 8.00  58.17 2569.17
   22:50:29.897.17-May-2020 4908.51   46.01 67.12 8.00  58.37 2569.17
   22:50:30.097.17-May-2020 4908.51   46.24 67.12 8.00  58.57 2569.17
   22:50:30.296.17-May-2020 4908.51   46.51 67.12 8.00  58.77 2569.17
   22:50:30.496.17-May-2020 4908.51   46.76 67.12 8.00  58.97 2569.17
   22:50:30.696.17-May-2020 4908.51   46.76 67.12 8.00  59.17 2569.17
   22:50:30.896.17-May-2020 4908.51   47.25 67.12 8.00  59.37 2569.17
   22:50:31.096.17-May-2020 4908.51   47.50 67.12 8.00  59.57 2569.17
   22:50:31.296.17-May-2020 4908.51   47.73 67.12 8.00  59.77 2569.17
   22:50:31.496.17-May-2020 4908.51   47.97 67.12 8.00  59.97 2569.17
   22:50:31.696.17-May-2020 4908.51   48.20 67.13 8.00  60.17 2569.17
   22:50:31.896.17-May-2020 4908.51   48.44 67.13 8.00  60.37 2569.17
   22:50:32.096.17-May-2020 4908.51   48.63 67.13 8.00  60.57 2569.17
   22:50:32.295.17-May-2020 4908.51   48.87 67.13 8.00  60.77 2569.17
   22:50:32.495.17-May-2020 4908.51   49.11 67.13 8.00  60.97 2569.17
   22:50:32.695.17-May-2020 4908.51   49.33 67.13 8.00  61.17 2569.17
   22:50:32.895.17-May-2020 4908.51   49.52 67.13 8.00  61.37 2569.17
   22:50:33.095.17-May-2020 4908.51   49.77 67.13 8.00  61.57 2569.17
   22:50:33.295.17-May-2020 4908.51   49.99 67.13 8.00  61.77 2569.17
   22:50:33.495.17-May-2020 4908.51   50.19 67.13 8.00  61.97 2569.17
   22:50:33.695.17-May-2020 4908.51   50.19 67.13 8.00  62.17 2569.17
   22:50:33.895.17-May-2020 4908.51   50.64 67.13 8.00  62.37 2569.17
   22:50:34.094.17-May-2020 4908.51   50.86 67.13 8.00  62.57 2569.17
   22:50:34.294.17-May-2020 4908.51   51.05 67.13 8.00  62.77 2569.17
   22:50:34.494.17-May-2020 4908.51   51.24 67.13 8.00  62.97 2569.17
   22:50:34.694.17-May-2020 4908.51   51.24 67.13 8.00  63.17 2569.17
   22:50:34.894.17-May-2020 4908.51   51.69 67.13 8.00  63.37 2569.17
   22:50:35.094.17-May-2020 4908.51   51.90 67.13 8.00  63.57 2569.17
   22:50:35.294.17-May-2020 4908.51   52.12 67.13 8.00  63.77 2569.17
   22:50:35.494.17-May-2020 4908.51   52.33 67.13 8.00  63.97 2569.17
   22:50:35.694.17-May-2020 4908.51   52.33 67.13 8.00  64.17 2569.17
   22:50:35.894.17-May-2020 4908.51   52.79 67.13 8.00  64.37 2569.17
   22:50:36.093.17-May-2020 4908.51   53.02 67.13 8.00  64.57 2569.17
   22:50:36.293.17-May-2020 4908.51   53.25 67.13 8.00  64.77 2569.17
   22:50:36.493.17-May-2020 4908.51   53.43 67.13 8.00  64.97 2569.17
   22:50:36.693.17-May-2020 4908.51   53.68 67.13 8.00  65.17 2569.17
   22:50:36.893.17-May-2020 4908.51   53.93 67.13 8.00  65.37 2569.17
   22:50:37.093.17-May-2020 4908.51   54.15 67.13 8.00  65.57 2569.17
   22:50:37.293.17-May-2020 4908.51   54.37 67.13 8.00  65.77 2569.17
   22:50:37.493.17-May-2020 4908.51   54.59 67.13 8.00  65.97 2569.17
   22:50:37.693.17-May-2020 4908.51   54.59 67.13 8.00  66.17 2569.17
   22:50:37.893.17-May-2020 4908.51   55.03 67.13 8.00  66.37 2569.17
   22:50:38.092.17-May-2020 4908.51   55.24 67.14 8.00  66.57 2569.17
   22:50:38.292.17-May-2020 4908.51   55.46 67.14 8.00  66.77 2569.17
   22:50:38.492.17-May-2020 4908.51   55.64 67.14 8.00  66.97 2569.17
   22:50:38.692.17-May-2020 4908.51   55.64 67.14 8.00  67.17 2569.17
   22:50:38.892.17-May-2020 4908.51   56.08 67.14 8.00  67.37 2569.17
   22:50:39.092.17-May-2020 4908.51   56.30 67.14 8.00  67.57 2569.17
   22:50:39.292.17-May-2020 4908.51   56.47 67.14 8.00  67.77 2569.17
   22:50:39.492.17-May-2020 4908.51   56.68 67.14 8.00  67.97 2569.17
   22:50:39.692.17-May-2020 4908.51   56.68 67.14 8.00  68.17 2569.17
   22:50:39.892.17-May-2020 4908.51   57.12 67.14 8.00  68.36 2569.17
   22:50:40.091.17-May-2020 4908.51   57.31 67.14 8.00  68.56 2569.17
   22:50:40.291.17-May-2020 4908.51   57.53 67.14 8.00  68.76 2569.17
