~Version Information
 VERS.                  2.0:   CWLS log ASCII Standard -VERSION 2.0
 WRAP.                   NO:   One line per depth step
~Well Information Block
#MNEM.UNIT     VALUE/NAME     DESCRIPTION
#---------     -----------    ---------------------------
 STRT.S             20:30:46 17-May-20: START TIME 20:30:46 17-May-20
 STOP.S             20:37:50 17-May-20: STOP TIME  20:37:50 17-May-20
 STEP.S                   0.00: STEP TIME
 NULL.                 -999.25: NULL VALUE
 UNIT.                     N/A:  LOGGING EQUIPMENT ID
 DCON.         Sperry Drilling:  DIRECTNL CONTR
 DOE .                     N/A:  DOE NUMBER
 JOBN.        AZ-XX-0906252240:  JOB TICKET NUMB
 MWDS.                     N/A:  MWD SHOP
 PROV.                    Baku:  PROVINCE
 STAT.                    Baku:  STATE NAME
 REGN.                   EESSA:  REGION
 BASE.              Azerbaijan:  LOGGING EQUIPMENT BASE LOCATION
 UWI .                     N/A:  UNIQUE WELL IDENTIFIER
 API .                     N/A:  API NUMBER
 MDS .        Operator Entered:  MAG DATA SOURCE
 WTYP.                Deviated:  WELL TYPE
 COMP.     BP Exploration (Caspian Sea) Ltd.:  COMPANY
 SRVC.          Turan Drilling:  CONTRACTOR
 WELL.           J23 (Slot 07):  WELL NAME
 CTRY.              Azerbaijan:  COUNTRY NAME
 FLD .                     ACG:  FIELD NAME
 PDAT.          Mean Sea Level:  PERMANENT DATUM
 RIG .             West Chirag:  RIG NAME
 SON .        AZ-XX-0906252240:  JOB NUMBER
 FTOP.          Formation Tops:  FORM TOPS DESC
 ILTD.               Lithology:  INTERP LTH DESC
 SVYD.                  Survey:  SURVEY DESC
 DMOD.             Drill Model:  DRILL MOD DESC
 HPTY.       Minimum Curvature:  HOLE POS TYPE
 NREF.                    Grid:  NORTH REFERENCE
 SPUD.               27-Aug-20:  SPUD DATE
 DATE.      00.00.00 19-May-20:  END TIME
 STIM.      03.00.00 25-Mar-20:  START TIME
 DMF .             Drill Floor:  DRILL MEAS FROM
 DFST.                        :  DIST FSL TEXT
 DFWT.                        :  DIST FWL TEXT
 CNTY.                        :  COUNTY
 LOC .                        :  LOCATION
 LMF .             Drill Floor:  LOG MEASURED FROM
 VSNS.m                   9.43:  VERT SEC N/S
 VSEW.m                  -8.91:  VERT SEC E/W
 AGAP.m                  43.00:  AIR GAP
 DEP .m                 354.17:  DEPTH
 APD .m                  43.00:  DEPTH ABOVE PD
 WDMS.m                 169.80:  WD ELEV
 EGL .m                   0.00:  GROUND ELEVATION
 EPD .m                   0.00:  ELEVATION
 AZTC.deg                 6.31:  AZM TOTAL CORR
 GRDC.deg                 0.14:  GRID CORRECTION
 MDEC.deg                 6.45:  MAGNETIC DECL
 MDIP.deg                59.56:  MAGNETIC DIP
 MFLD.nT              50295.00:  MAGNETIC FIELD
 GVFD.g                   1.00:  GRAVITY FIELD
 VSDR.deg               179.88:  VERT SEC DIRECT
 TDD .m                5150.01:  TOTAL DEPTH (DRILLER)
 SDEP.m                 864.00:  START DEPTH
 DFSL.m                   0.00:  DISTANCE FSL
 DFWL.m                   0.00:  DISTANCE FWL
 UTMY.m             4443793.85:  UTM Y
 UTMX.m              519005.06:  UTM X
 WHEW.m                  -8.91:  WELL HEAD E/W
 WHNS.m                   9.43:  WELL HEAD N/S
 LONG.deg                51.22:  LONGITUDE
 LATI.deg                40.13:  LATITUDE
 TVDS.m                  43.00:  TVDSS CORRECTN
 EKB .m                   0.00:  KB ELEVATION
 EDF .m                  43.00:  DF ELEVATION
 TDL .m                 363.00:  TOTAL DEPTH (LOGGER)
 MAGU.                 1850802:  MAGUTM CHECKSUM
 VSC .                       0:  VS TO CLOSURE
~Parameter Information Block
#MNEM.UNIT       Value        Description
#---------     -----------    ---------------------------
 AV  .mps                 2.30:  Ann Velocity 
 AVMX.mps                 4.40:  Max Ann Veloc 
 AZIF.deg               110.24:  Azm, Final 
 BHAT.        Rotary Steerable:  BHA Type 
 BREV.rev               331.00:  Rev Bit Total 
 BROT.°/30m               0.00:  Build Rotating 
 BS  .in                  8.50:  Bit Size 
 BSZ .in                  8.50:  Bit Size 
 BTPL.psig              585.00:  Bit Press Loss 
 CABU.                     Yes:  Customer Abuse 
 TCS .hr                122.75:  Time Ciculation Ended 
 CV  .mps                 2.67:  Crit Velocity 
 CVMX.mps                 3.56:  Max Crit Veloc 
 DD1 .          Rashad Habibov:  Direct Drillr 1 
 DD2 .         Rasim Ibrahimov:  Direct Drillr 2 
 DDSV.               Geo-Pilot:  DD Service 
 DEFF.%                  98.00:  % Det Eff 
 DLRX.°/30m               0.75:  Dogleg Rot Max 
 DLSO.°/30m               1.25:  Dogleg Oriented 
 DLSX.°/30m               2.06:  Dogleg Str Max 
 DRET.      07.45.00 17-May-20:  Drill End Time 
 DRST.      22.50.00 15-May-20:  Drill Start Tim 
 DTIM.hr                 20.75:  Time Drilling 
 EDEP.m                5124.01:  End Depth 
 ENG1.           Eldar Hajiyev:  Engineer 1 
 ENG2.        Marcelo Sandoval:  Engineer 2 
 ENG3.        Davud huseynzada:  Engineer 3 
 ENG4.          Ruslan Safarov:  Engineer 4 
 ETIM.      04.33.00 23-May-20:  End Time 
 FLOI.gpm               450.00:  Flow In 
 FLON.gpm               400.00:  Flow In Min 
 FLOS.cptm                0.00:  Fluid Loss 
 FLOX.gpm               500.00:  Flow In Max 
 FTRO.       Formation Presure:  FTWD Run Obj 
 HFLO.                      No:  High Flow 
 HPRE.                     Yes:  High Pressure 
 HTEM.                      No:  High Temp 
 HYDO.m                   1.80:  Hydro Offset 
 IFIN.deg                75.06:  Inc, Final 
 IMAX.deg                75.38:  Inc Max 
 IMIN.deg                74.69:  Inc Min 
 IMND.m                5027.38:  Inc Min Depth 
 IMXD.m                4771.61:  Inc Max Depth 
 JARR.                      No:  Jarring 
 LETM.      07.45.00 17-May-20:  Log End Time 
 LOST.hr                     0:  Lost Rig Time 
 LSTM.      22.50.00 15-May-20:  Log Start Time 
 MDCL.ppm             42000.00:  Mud Chlorides 
 MDES.     Inversion Oil/Synthetic:  Mud Desc 
 DFD .sg                  1.34:  Mud Density 
 MDMN.sg                  1.34:  Dens Mud Min 
 MDMX.sg                  1.34:  Dens Mud Max 
 MOIL.                       0:  Run Mud Oil % 
 MOWR.                   67:33:  Run Mud OWR 
 MSND.                       0:  Run Mud Sand % 
 MSOL.                     1.8:  Run Mud Solids% 
 DFV .spqt               76.00:  Mud Viscosity 
 MWOD.in                  6.75:  MWD Tool OD 
 MWSI.                      No:  Serv Intrp, MWD 
 OTIM.hr                228.19:  Time Operating 
 PCON.           Look Like New:  Pad Condition 
 PMAX.psia             6164.70:  Press Op, Max 
 PV  .cP                 28.00:  Mud PV 
 RUN .                     900:  Run Number 
 ROPA.m/hr               19.00:  ROP Avg 
 ROPN.m/hr               11.00:  ROP Min 
 ROPX.m/hr               36.00:  ROP Max 
 RPMA.rpm               120.00:  RPM Surface Avg 
 RPMN.rpm               120.00:  RPM Surface Min 
 RPMX.rpm               120.00:  RPM Surface Max 
 RRUN.                    L604:  Rig Run Number 
 RTIM.hr                  7.00:  Time Reaming 
 SAZI.deg               109.27:  Azm, Start 
 SDEP.m                4761.01:  Start Depth 
 SIDD.                      No:  Serv Intrp, DD 
 SINC.deg                75.38:  Inc, Start 
 SPPA.psig             3574.00:  SPP Avg 
 SPPN.psig             3475.00:  SPP Min 
 SPPX.psig             3791.00:  SPP Max 
 STIM.      07.08.48 13-May-20:  Start Time 
 SVCS.                 DD, MWD:  Services 
 SVER.                    9.20:  Sperry Version 
 TDAT.m                 363.00:  Tot Depth Attmp 
 TDDF.                      No:  Trip for DD 
 TDLG.m                 363.00:  Tot Depth Loggd 
 TFF .                      No:  Trip for Fail 
 TQAA.f-kp               20.00:  Torque Abs Avg 
 TQAN.f-kp               18.00:  Torque Abs Min 
 TQAX.f-kp               22.00:  Torque Abs Max 
 TRRT.°/30m              -0.35:  Turn Rotating 
 MRT .                    HCIM:  Maximum Recorded Temperature 
 TTMX.degC               92.16:  Max Tool Temp 
 VS01.                90586518:  Virtual Str1 SN 
 VS02.        AZ90560654Z1W1C6:  Virtual Str2 SN 
 VS03.           AZ90610398F11:  Virtual Str3 SN 
 VS04.                90514975:  Virtual Str4 SN 
 VS05.                90514972:  Virtual Str5 SN 
 VS06.     AZ90603282F11V7D1A6:  Virtual Str6 SN 
 WBMN.klb                 7.00:  WOB Min 
 WOBA.klb                12.00:  WOB Avg 
 WOBX.klb                14.00:  WOB Max 
 YP  .lhf2               32.00:  Yield Point 
~Curve Information Block
#MNEM.UNIT                 API CODE     Curve Description
#---------               -----------    ---------------------------
 TIME.HHMMSS            00 000 000 000:  GT Time & Date
 GTDEPTH.m              00 000 000 000:  GT Depth
 GTPQH.psia             00 000 000 000:  GT HR Quartz Pressure
 GTTQ.degC              00 000 000 000:  GT Quartz Temperature
 GTTN.NONE              00 000 000 000:  GT Test Number
 GTET.sec               00 000 000 000:  GT Elapsed Test Time
 GTTVD.m                00 000 000 000:  GT True Vertical Depth
#Other Information
#
#WARRANTY: Halliburton will use its best efforts to furnish customers with 
#accurate information and interpretations that are part of, and incident to, the services 
#provided.  However, Halliburton cannot and does not warrant the accuracy 
#or correctness of such information and interpretations.  Under no circumstances should any 
#such information or interpretation be relied upon as the sole basis for any drilling, 
#completion, production, or financial decision or any procedure involving any risk to the 
#safety of any drilling venture, drilling rig or its crew or any other third party.  The 
#Customer has full responsibility for all drilling, completion and production operation.  
#Halliburton makes no representations or warranties, either expressed or 
#implied, including, but not limited to, the implied warranties of merchantability or fitness 
#for a particular purpose, with respect to the services rendered.  In no event will 
#Halliburton be liable for failure to obtain any particular results or for 
#any damages, including, but not limited to, indirect, special or consequential damages, 
#resulting from the use of any information or interpretation provided by Halliburton.
#
~A           TIME           GTDEPTH  GTPQH  GTTQ  GTTN  GTET   GTTVD  
# ...
   20:34:13.345.17-May-2020 4971.01 2894.06 68.71 5.00 206.98 2585.16
   20:34:13.545.17-May-2020 4971.01 2894.06 68.71 5.00 207.18 2585.16
   20:34:13.745.17-May-2020 4971.01 2894.15 68.71 5.00 207.38 2585.16
   20:34:13.945.17-May-2020 4971.01 2894.13 68.71 5.00 207.58 2585.16
   20:34:14.145.17-May-2020 4971.01 2894.14 68.71 5.00 207.78 2585.16
   20:34:14.345.17-May-2020 4971.01 2894.12 68.71 5.00 207.98 2585.16
   20:34:14.545.17-May-2020 4971.01 2894.12 68.71 5.00 208.18 2585.16
   20:34:14.745.17-May-2020 4971.01 2894.14 68.71 5.00 208.38 2585.16
   20:34:14.945.17-May-2020 4971.01 2894.14 68.71 5.00 208.58 2585.16
   20:34:15.145.17-May-2020 4971.01 2894.15 68.71 5.00 208.78 2585.16
   20:34:15.345.17-May-2020 4971.01 2894.21 68.71 5.00 208.98 2585.16
   20:34:15.545.17-May-2020 4971.01 2894.21 68.71 5.00 209.18 2585.16
   20:34:15.745.17-May-2020 4971.01 2894.13 68.71 5.00 209.38 2585.16
   20:34:15.945.17-May-2020 4971.01 2894.13 68.71 5.00 209.58 2585.16
   20:34:16.145.17-May-2020 4971.01 2894.15 68.71 5.00 209.78 2585.16
   20:34:16.345.17-May-2020 4971.01 2894.14 68.71 5.00 209.98 2585.16
   20:34:16.545.17-May-2020 4971.01 2894.14 68.71 5.00 210.18 2585.16
   20:34:16.745.17-May-2020 4971.01 2894.14 68.71 5.00 210.38 2585.16
   20:34:16.945.17-May-2020 4971.01 2894.14 68.71 5.00 210.58 2585.16
   20:34:17.145.17-May-2020 4971.01 2894.15 68.71 5.00 210.78 2585.16
   20:34:17.345.17-May-2020 4971.01 2894.29 68.70 5.00 210.98 2585.16
   20:34:17.545.17-May-2020 4971.01 2894.29 68.71 5.00 211.18 2585.16
   20:34:17.745.17-May-2020 4971.01 2894.16 68.70 5.00 211.38 2585.16
   20:34:17.945.17-May-2020 4971.01 2894.15 68.70 5.00 211.58 2585.16
   20:34:18.145.17-May-2020 4971.01 2894.16 68.70 5.00 211.78 2585.16
   20:34:18.345.17-May-2020 4971.01 2894.20 68.70 5.00 211.98 2585.16
   20:34:18.545.17-May-2020 4971.01 2894.20 68.70 5.00 212.18 2585.16
   20:34:18.745.17-May-2020 4971.01 2894.11 68.70 5.00 212.38 2585.16
   20:34:18.945.17-May-2020 4971.01 2894.29 68.70 5.00 212.58 2585.16
   20:34:19.145.17-May-2020 4971.01 2894.06 68.70 5.00 212.78 2585.16
   20:34:19.345.17-May-2020 4971.01 2894.13 68.70 5.00 212.98 2585.16
   20:34:19.544.17-May-2020 4971.01 2894.13 68.70 5.00 213.18 2585.16
   20:34:19.744.17-May-2020 4971.01 2894.14 68.70 5.00 213.38 2585.16
   20:34:19.944.17-May-2020 4971.01 2894.19 68.70 5.00 213.58 2585.16
   20:34:20.144.17-May-2020 4971.01 2894.13 68.70 5.00 213.78 2585.16
   20:34:20.344.17-May-2020 4971.01 2894.16 68.70 5.00 213.98 2585.16
   20:34:20.544.17-May-2020 4971.01 2894.12 68.70 5.00 214.18 2585.16
   20:34:20.744.17-May-2020 4971.01 2894.15 68.70 5.00 214.38 2585.16
   20:34:20.944.17-May-2020 4971.01 2894.14 68.70 5.00 214.58 2585.16
   20:34:21.144.17-May-2020 4971.01 2894.12 68.70 5.00 214.78 2585.16
   20:34:21.344.17-May-2020 4971.01 2894.14 68.70 5.00 214.98 2585.16
   20:34:21.544.17-May-2020 4971.01 2894.14 68.70 5.00 215.18 2585.16
   20:34:21.744.17-May-2020 4971.01 2894.14 68.70 5.00 215.38 2585.16
   20:34:21.944.17-May-2020 4971.01 2894.22 68.70 5.00 215.58 2585.16
   20:34:22.144.17-May-2020 4971.01 2894.09 68.70 5.00 215.78 2585.16
   20:34:22.344.17-May-2020 4971.01 2894.18 68.70 5.00 215.98 2585.16
   20:34:22.544.17-May-2020 4971.01 2894.18 68.70 5.00 216.18 2585.16
   20:34:22.744.17-May-2020 4971.01 2894.09 68.70 5.00 216.38 2585.16
   20:34:22.944.17-May-2020 4971.01 2894.14 68.70 5.00 216.58 2585.16
   20:34:23.144.17-May-2020 4971.01 2894.13 68.70 5.00 216.78 2585.16
   20:34:23.344.17-May-2020 4971.01 2894.13 68.70 5.00 216.98 2585.16
   20:34:23.544.17-May-2020 4971.01 2894.14 68.70 5.00 217.18 2585.16
   20:34:23.744.17-May-2020 4971.01 2894.13 68.70 5.00 217.38 2585.16
   20:34:23.944.17-May-2020 4971.01 2894.14 68.70 5.00 217.58 2585.16
   20:34:24.144.17-May-2020 4971.01 2894.19 68.70 5.00 217.78 2585.16
   20:34:24.344.17-May-2020 4971.01 2894.15 68.70 5.00 217.98 2585.16
   20:34:24.544.17-May-2020 4971.01 2894.15 68.70 5.00 218.18 2585.16
   20:34:24.744.17-May-2020 4971.01 2894.27 68.70 5.00 218.38 2585.16
   20:34:24.944.17-May-2020 4971.01 2894.06 68.70 5.00 218.58 2585.16
   20:34:25.144.17-May-2020 4971.01 2894.17 68.70 5.00 218.78 2585.16
   20:34:25.344.17-May-2020 4971.01 2894.14 68.70 5.00 218.98 2585.16
   20:34:25.544.17-May-2020 4971.01 2894.14 68.70 5.00 219.18 2585.16
   20:34:25.744.17-May-2020 4971.01 2894.17 68.70 5.00 219.38 2585.16
   20:34:25.944.17-May-2020 4971.01 2894.16 68.70 5.00 219.58 2585.16
   20:34:26.144.17-May-2020 4971.01 2894.16 68.70 5.00 219.78 2585.16
   20:34:26.344.17-May-2020 4971.01 2894.11 68.70 5.00 219.98 2585.16
   20:34:26.544.17-May-2020 4971.01 2894.11 68.70 5.00 220.18 2585.16
   20:34:26.744.17-May-2020 4971.01 2894.11 68.70 5.00 220.38 2585.16
   20:34:26.944.17-May-2020 4971.01 2894.15 68.70 5.00 220.58 2585.16
   20:34:27.144.17-May-2020 4971.01 2894.15 68.70 5.00 220.78 2585.16
   20:34:27.344.17-May-2020 4971.01 2894.10 68.70 5.00 220.98 2585.16
   20:34:27.544.17-May-2020 4971.01 2894.10 68.70 5.00 221.18 2585.16
   20:34:27.744.17-May-2020 4971.01 2894.13 68.70 5.00 221.38 2585.16
   20:34:27.944.17-May-2020 4971.01 2894.13 68.70 5.00 221.58 2585.16
   20:34:28.144.17-May-2020 4971.01 2894.13 68.70 5.00 221.78 2585.16
   20:34:28.344.17-May-2020 4971.01 2894.13 68.70 5.00 221.98 2585.16
   20:34:28.544.17-May-2020 4971.01 2894.14 68.70 5.00 222.18 2585.16
   20:34:28.744.17-May-2020 4971.01 2894.27 68.70 5.00 222.38 2585.16
   20:34:28.944.17-May-2020 4971.01 2894.04 68.70 5.00 222.58 2585.16
   20:34:29.144.17-May-2020 4971.01 2894.13 68.70 5.00 222.78 2585.16
   20:34:29.344.17-May-2020 4971.01 2894.14 68.70 5.00 222.98 2585.16
   20:34:29.544.17-May-2020 4971.01 2894.14 68.70 5.00 223.18 2585.16
   20:34:29.744.17-May-2020 4971.01 2894.13 68.70 5.00 223.38 2585.16
   20:34:29.944.17-May-2020 4971.01 2894.12 68.70 5.00 223.58 2585.16
   20:34:30.144.17-May-2020 4971.01 2894.13 68.70 5.00 223.78 2585.16
   20:34:30.344.17-May-2020 4971.01 2894.13 68.70 5.00 223.98 2585.16
   20:34:30.544.17-May-2020 4971.01 2894.13 68.70 5.00 224.18 2585.16
   20:34:30.744.17-May-2020 4971.01 2894.23 68.70 5.00 224.38 2585.16
   20:34:30.944.17-May-2020 4971.01 2894.08 68.70 5.00 224.58 2585.16
   20:34:31.144.17-May-2020 4971.01 2894.17 68.70 5.00 224.78 2585.16
   20:34:31.344.17-May-2020 4971.01 2894.15 68.70 5.00 224.98 2585.16
   20:34:31.544.17-May-2020 4971.01 2894.15 68.70 5.00 225.18 2585.16
   20:34:31.744.17-May-2020 4971.01 2894.13 68.70 5.00 225.38 2585.16
   20:34:31.944.17-May-2020 4971.01 2894.14 68.70 5.00 225.58 2585.16
   20:34:32.144.17-May-2020 4971.01 2894.13 68.70 5.00 225.78 2585.16
   20:34:32.343.17-May-2020 4971.01 2894.26 68.70 5.00 225.98 2585.16
   20:34:32.543.17-May-2020 4971.01 2894.26 68.70 5.00 226.18 2585.16
   20:34:32.743.17-May-2020 4971.01 2894.15 68.70 5.00 226.38 2585.16
   20:34:32.943.17-May-2020 4971.01 2894.15 68.70 5.00 226.58 2585.16
   20:34:33.143.17-May-2020 4971.01 2894.09 68.70 5.00 226.78 2585.16
   20:34:33.343.17-May-2020 4971.01 2894.29 68.70 5.00 226.98 2585.16
   20:34:33.543.17-May-2020 4971.01 2894.03 68.70 5.00 227.18 2585.16
   20:34:33.743.17-May-2020 4971.01 2894.14 68.70 5.00 227.38 2585.16
   20:34:33.943.17-May-2020 4971.01 2894.14 68.70 5.00 227.58 2585.16
   20:34:34.143.17-May-2020 4971.01 2894.14 68.70 5.00 227.78 2585.16
   20:34:34.343.17-May-2020 4971.01 2894.14 68.70 5.00 227.98 2585.16
   20:34:34.543.17-May-2020 4971.01 2894.14 68.70 5.00 228.18 2585.16
   20:34:34.743.17-May-2020 4971.01 2894.13 68.70 5.00 228.38 2585.16
   20:34:34.943.17-May-2020 4971.01 2894.13 68.70 5.00 228.58 2585.16
   20:34:35.143.17-May-2020 4971.01 2894.13 68.70 5.00 228.78 2585.16
   20:34:35.343.17-May-2020 4971.01 2894.14 68.70 5.00 228.98 2585.16
   20:34:35.543.17-May-2020 4971.01 2894.14 68.70 5.00 229.18 2585.16
   20:34:35.743.17-May-2020 4971.01 2894.19 68.70 5.00 229.38 2585.16
   20:34:35.943.17-May-2020 4971.01 2894.16 68.70 5.00 229.58 2585.16
   20:34:36.143.17-May-2020 4971.01 2894.09 68.70 5.00 229.78 2585.16
