~Version Information
 VERS.                  2.0:   CWLS log ASCII Standard -VERSION 2.0
 WRAP.                   NO:   One line per depth step
~Well Information Block
#MNEM.UNIT     VALUE/NAME     DESCRIPTION
#---------     -----------    ---------------------------
 STRT.S             16:14:41 17-May-20: START TIME 16:14:41 17-May-20
 STOP.S             16:21:36 17-May-20: STOP TIME  16:21:36 17-May-20
 STEP.S                   0.00: STEP TIME
 NULL.                 -999.25: NULL VALUE
 UNIT.                     N/A:  LOGGING EQUIPMENT ID
 DCON.         Sperry Drilling:  DIRECTNL CONTR
 DOE .                     N/A:  DOE NUMBER
 JOBN.        AZ-XX-0906252240:  JOB TICKET NUMB
 MWDS.                     N/A:  MWD SHOP
 PROV.                    Baku:  PROVINCE
 STAT.                    Baku:  STATE NAME
 REGN.                   EESSA:  REGION
 BASE.              Azerbaijan:  LOGGING EQUIPMENT BASE LOCATION
 UWI .                     N/A:  UNIQUE WELL IDENTIFIER
 API .                     N/A:  API NUMBER
 MDS .        Operator Entered:  MAG DATA SOURCE
 WTYP.                Deviated:  WELL TYPE
 COMP.     BP Exploration (Caspian Sea) Ltd.:  COMPANY
 SRVC.          Turan Drilling:  CONTRACTOR
 WELL.           J23 (Slot 07):  WELL NAME
 CTRY.              Azerbaijan:  COUNTRY NAME
 FLD .                     ACG:  FIELD NAME
 PDAT.          Mean Sea Level:  PERMANENT DATUM
 RIG .             West Chirag:  RIG NAME
 SON .        AZ-XX-0906252240:  JOB NUMBER
 FTOP.          Formation Tops:  FORM TOPS DESC
 ILTD.               Lithology:  INTERP LTH DESC
 SVYD.                  Survey:  SURVEY DESC
 DMOD.             Drill Model:  DRILL MOD DESC
 HPTY.       Minimum Curvature:  HOLE POS TYPE
 NREF.                    Grid:  NORTH REFERENCE
 SPUD.               27-Aug-20:  SPUD DATE
 DATE.      00.00.00 19-May-20:  END TIME
 STIM.      03.00.00 25-Mar-20:  START TIME
 DMF .             Drill Floor:  DRILL MEAS FROM
 DFST.                        :  DIST FSL TEXT
 DFWT.                        :  DIST FWL TEXT
 CNTY.                        :  COUNTY
 LOC .                        :  LOCATION
 LMF .             Drill Floor:  LOG MEASURED FROM
 VSNS.m                   9.43:  VERT SEC N/S
 VSEW.m                  -8.91:  VERT SEC E/W
 AGAP.m                  43.00:  AIR GAP
 DEP .m                 354.17:  DEPTH
 APD .m                  43.00:  DEPTH ABOVE PD
 WDMS.m                 169.80:  WD ELEV
 EGL .m                   0.00:  GROUND ELEVATION
 EPD .m                   0.00:  ELEVATION
 AZTC.deg                 6.31:  AZM TOTAL CORR
 GRDC.deg                 0.14:  GRID CORRECTION
 MDEC.deg                 6.45:  MAGNETIC DECL
 MDIP.deg                59.56:  MAGNETIC DIP
 MFLD.nT              50295.00:  MAGNETIC FIELD
 GVFD.g                   1.00:  GRAVITY FIELD
 VSDR.deg               179.88:  VERT SEC DIRECT
 TDD .m                5150.01:  TOTAL DEPTH (DRILLER)
 SDEP.m                 864.00:  START DEPTH
 DFSL.m                   0.00:  DISTANCE FSL
 DFWL.m                   0.00:  DISTANCE FWL
 UTMY.m             4443793.85:  UTM Y
 UTMX.m              519005.06:  UTM X
 WHEW.m                  -8.91:  WELL HEAD E/W
 WHNS.m                   9.43:  WELL HEAD N/S
 LONG.deg                51.22:  LONGITUDE
 LATI.deg                40.13:  LATITUDE
 TVDS.m                  43.00:  TVDSS CORRECTN
 EKB .m                   0.00:  KB ELEVATION
 EDF .m                  43.00:  DF ELEVATION
 TDL .m                 363.00:  TOTAL DEPTH (LOGGER)
 MAGU.                 1850802:  MAGUTM CHECKSUM
 VSC .                       0:  VS TO CLOSURE
~Parameter Information Block
#MNEM.UNIT       Value        Description
#---------     -----------    ---------------------------
 AV  .mps                 2.30:  Ann Velocity 
 AVMX.mps                 4.40:  Max Ann Veloc 
 AZIF.deg               110.24:  Azm, Final 
 BHAT.        Rotary Steerable:  BHA Type 
 BREV.rev               331.00:  Rev Bit Total 
 BROT.°/30m               0.00:  Build Rotating 
 BS  .in                  8.50:  Bit Size 
 BSZ .in                  8.50:  Bit Size 
 BTPL.psig              585.00:  Bit Press Loss 
 CABU.                     Yes:  Customer Abuse 
 COMM.                     ¿m:  Run Comments 1 
 TCS .hr                122.75:  Time Ciculation Ended 
 CV  .mps                 2.67:  Crit Velocity 
 CVMX.mps                 3.56:  Max Crit Veloc 
 DD1 .          Rashad Habibov:  Direct Drillr 1 
 DD2 .         Rasim Ibrahimov:  Direct Drillr 2 
 DDSV.               Geo-Pilot:  DD Service 
 DEFF.%                  98.00:  % Det Eff 
 DLRX.°/30m               0.75:  Dogleg Rot Max 
 DLSO.°/30m               1.25:  Dogleg Oriented 
 DLSX.°/30m               2.06:  Dogleg Str Max 
 DRET.      07.45.00 17-May-20:  Drill End Time 
 DRST.      22.50.00 15-May-20:  Drill Start Tim 
 DTIM.hr                 20.75:  Time Drilling 
 EDEP.m                5124.01:  End Depth 
 ENG1.           Eldar Hajiyev:  Engineer 1 
 ENG2.        Marcelo Sandoval:  Engineer 2 
 ENG3.        Davud huseynzada:  Engineer 3 
 ENG4.          Ruslan Safarov:  Engineer 4 
 ETIM.      04.33.00 23-May-20:  End Time 
 FLOI.gpm               450.00:  Flow In 
 FLON.gpm               400.00:  Flow In Min 
 FLOS.cptm                0.00:  Fluid Loss 
 FLOX.gpm               500.00:  Flow In Max 
 FTRO.       Formation Presure:  FTWD Run Obj 
 HFLO.                      No:  High Flow 
 HPRE.                     Yes:  High Pressure 
 HTEM.                      No:  High Temp 
 HYDO.m                   1.80:  Hydro Offset 
 IFIN.deg                75.06:  Inc, Final 
 IMAX.deg                75.38:  Inc Max 
 IMIN.deg                74.69:  Inc Min 
 IMND.m                5027.38:  Inc Min Depth 
 IMXD.m                4771.61:  Inc Max Depth 
 JARR.                      No:  Jarring 
 LETM.      07.45.00 17-May-20:  Log End Time 
 LOST.hr                     0:  Lost Rig Time 
 LSTM.      22.50.00 15-May-20:  Log Start Time 
 MDCL.ppm             42000.00:  Mud Chlorides 
 MDES.     Inversion Oil/Synthetic:  Mud Desc 
 DFD .sg                  1.34:  Mud Density 
 MDMN.sg                  1.34:  Dens Mud Min 
 MDMX.sg                  1.34:  Dens Mud Max 
 MOIL.                       0:  Run Mud Oil % 
 MOWR.                   67:33:  Run Mud OWR 
 MSND.                       0:  Run Mud Sand % 
 MSOL.                     1.8:  Run Mud Solids% 
 DFV .spqt               76.00:  Mud Viscosity 
 MWOD.in                  6.75:  MWD Tool OD 
 MWSI.                      No:  Serv Intrp, MWD 
 OTIM.hr                228.19:  Time Operating 
 PCON.           Look Like New:  Pad Condition 
 PMAX.psia             6164.70:  Press Op, Max 
 PV  .cP                 28.00:  Mud PV 
 RUN .                     900:  Run Number 
 ROPA.m/hr               19.00:  ROP Avg 
 ROPN.m/hr               11.00:  ROP Min 
 ROPX.m/hr               36.00:  ROP Max 
 RPMA.rpm               120.00:  RPM Surface Avg 
 RPMN.rpm               120.00:  RPM Surface Min 
 RPMX.rpm               120.00:  RPM Surface Max 
 RRUN.                    L604:  Rig Run Number 
 RTIM.hr                  7.00:  Time Reaming 
 SAZI.deg               109.27:  Azm, Start 
 SDEP.m                4761.01:  Start Depth 
 SIDD.                      No:  Serv Intrp, DD 
 SINC.deg                75.38:  Inc, Start 
 SPPA.psig             3574.00:  SPP Avg 
 SPPN.psig             3475.00:  SPP Min 
 SPPX.psig             3791.00:  SPP Max 
 STIM.      07.08.48 13-May-20:  Start Time 
 SVCS.                 DD, MWD:  Services 
 SVER.                    9.20:  Sperry Version 
 TDAT.m                 363.00:  Tot Depth Attmp 
 TDDF.                      No:  Trip for DD 
 TDLG.m                 363.00:  Tot Depth Loggd 
 TFF .                      No:  Trip for Fail 
 TQAA.f-kp               20.00:  Torque Abs Avg 
 TQAN.f-kp               18.00:  Torque Abs Min 
 TQAX.f-kp               22.00:  Torque Abs Max 
 TRRT.°/30m              -0.35:  Turn Rotating 
 MRT .                    HCIM:  Maximum Recorded Temperature 
 TTMX.degC               92.16:  Max Tool Temp 
 VS01.                90586518:  Virtual Str1 SN 
 VS02.        AZ90560654Z1W1C6:  Virtual Str2 SN 
 VS03.           AZ90610398F11:  Virtual Str3 SN 
 VS04.                90514975:  Virtual Str4 SN 
 VS05.                90514972:  Virtual Str5 SN 
 VS06.     AZ90603282F11V7D1A6:  Virtual Str6 SN 
 WBMN.klb                 7.00:  WOB Min 
 WOBA.klb                12.00:  WOB Avg 
 WOBX.klb                14.00:  WOB Max 
 YP  .lhf2               32.00:  Yield Point 
~Curve Information Block
#MNEM.UNIT                 API CODE     Curve Description
#---------               -----------    ---------------------------
 TIME.HHMMSS            00 000 000 000:  GT Time & Date
 GTDEPTH.m              00 000 000 000:  GT Depth
 GTPQH.psia             00 000 000 000:  GT HR Quartz Pressure
 GTTQ.degC              00 000 000 000:  GT Quartz Temperature
 GTTN.NONE              00 000 000 000:  GT Test Number
 GTET.sec               00 000 000 000:  GT Elapsed Test Time
 GTTVD.m                00 000 000 000:  GT True Vertical Depth
#Other Information
#
#WARRANTY: Halliburton will use its best efforts to furnish customers with 
#accurate information and interpretations that are part of, and incident to, the services 
#provided.  However, Halliburton cannot and does not warrant the accuracy 
#or correctness of such information and interpretations.  Under no circumstances should any 
#such information or interpretation be relied upon as the sole basis for any drilling, 
#completion, production, or financial decision or any procedure involving any risk to the 
#safety of any drilling venture, drilling rig or its crew or any other third party.  The 
#Customer has full responsibility for all drilling, completion and production operation.  
#Halliburton makes no representations or warranties, either expressed or 
#implied, including, but not limited to, the implied warranties of merchantability or fitness 
#for a particular purpose, with respect to the services rendered.  In no event will 
#Halliburton be liable for failure to obtain any particular results or for 
#any damages, including, but not limited to, indirect, special or consequential damages, 
#resulting from the use of any information or interpretation provided by Halliburton.
#
~A           TIME           GTDEPTH  GTPQH  GTTQ  GTTN  GTET   GTTVD  
# ...
   16:15:04.000.17-May-2020 5073.51 5606.90 71.52 2.00  23.00 2611.87
   16:15:04.200.17-May-2020 5073.51 5606.90 71.52 2.00  23.20 2611.87
   16:15:04.400.17-May-2020 5073.51 5606.08 71.52 2.00  23.40 2611.87
   16:15:04.600.17-May-2020 5073.51 5610.87 71.52 2.00  23.60 2611.87
   16:15:04.800.17-May-2020 5073.51 5607.70 71.52 2.00  23.80 2611.87
   16:15:05.000.17-May-2020 5073.51 5606.44 71.52 2.00  24.00 2611.87
   16:15:05.200.17-May-2020 5073.51 5606.44 71.52 2.00  24.20 2611.87
   16:15:05.400.17-May-2020 5073.51 5606.97 71.52 2.00  24.40 2611.87
   16:15:05.600.17-May-2020 5073.51 5608.08 71.52 2.00  24.60 2611.87
   16:15:05.800.17-May-2020 5073.51 5608.93 71.52 2.00  24.80 2611.87
   16:15:06.000.17-May-2020 5073.51 5620.88 71.52 2.00  25.00 2611.87
   16:15:06.200.17-May-2020 5073.51 5620.88 71.52 2.00  25.20 2611.87
   16:15:06.400.17-May-2020 5073.51 5606.94 71.52 2.00  25.40 2611.87
   16:15:06.600.17-May-2020 5073.51 5606.72 71.52 2.00  25.60 2611.87
   16:15:06.800.17-May-2020 5073.51 5622.40 71.52 2.00  25.80 2611.87
   16:15:07.000.17-May-2020 5073.51 5623.34 71.52 2.00  26.00 2611.87
   16:15:07.200.17-May-2020 5073.51 5623.34 71.52 2.00  26.20 2611.87
   16:15:07.400.17-May-2020 5073.51 5606.77 71.52 2.00  26.40 2611.87
   16:15:07.600.17-May-2020 5073.51 5608.81 71.52 2.00  26.60 2611.87
   16:15:07.800.17-May-2020 5073.51 5628.66 71.52 2.00  26.80 2611.87
   16:15:08.000.17-May-2020 5073.51 5618.54 71.52 2.00  27.00 2611.87
   16:15:08.200.17-May-2020 5073.51 5609.81 71.52 2.00  27.20 2611.87
   16:15:08.400.17-May-2020 5073.51 5607.28 71.52 2.00  27.40 2611.87
   16:15:08.600.17-May-2020 5073.51 5627.47 71.52 2.00  27.60 2611.87
   16:15:08.800.17-May-2020 5073.51 5620.38 71.52 2.00  27.80 2611.87
   16:15:09.000.17-May-2020 5073.51 5611.51 71.52 2.00  28.00 2611.87
   16:15:09.200.17-May-2020 5073.51 5611.51 71.52 2.00  28.20 2611.87
   16:15:09.400.17-May-2020 5073.51 5614.39 71.52 2.00  28.40 2611.87
   16:15:09.600.17-May-2020 5073.51 5613.78 71.52 2.00  28.60 2611.87
   16:15:09.800.17-May-2020 5073.51 5612.92 71.52 2.00  28.80 2611.87
   16:15:10.000.17-May-2020 5073.51 5610.28 71.51 2.00  29.00 2611.87
   16:15:10.200.17-May-2020 5073.51 5610.28 71.51 2.00  29.20 2611.87
   16:15:10.400.17-May-2020 5073.51 5611.47 71.51 2.00  29.40 2611.87
   16:15:10.600.17-May-2020 5073.51 5625.45 71.51 2.00  29.60 2611.87
   16:15:10.800.17-May-2020 5073.51 5616.03 71.51 2.00  29.80 2611.87
   16:15:11.000.17-May-2020 5073.51 5607.83 71.51 2.00  30.00 2611.87
   16:15:11.200.17-May-2020 5073.51 5607.83 71.51 2.00  30.20 2611.87
   16:15:11.400.17-May-2020 5073.51 5616.19 71.51 2.00  30.40 2611.87
   16:15:11.600.17-May-2020 5073.51 5612.50 71.51 2.00  30.60 2611.87
   16:15:11.800.17-May-2020 5073.51 5610.31 71.51 2.00  30.80 2611.87
   16:15:12.000.17-May-2020 5073.51 5609.19 71.51 2.00  31.00 2611.87
   16:15:12.200.17-May-2020 5073.51 5609.52 71.51 2.00  31.20 2611.87
   16:15:12.400.17-May-2020 5073.51 5611.59 71.51 2.00  31.40 2611.87
   16:15:12.600.17-May-2020 5073.51 5610.59 71.51 2.00  31.60 2611.87
   16:15:12.800.17-May-2020 5073.51 5623.73 71.51 2.00  31.80 2611.87
   16:15:13.000.17-May-2020 5073.51 5615.91 71.51 2.00  32.00 2611.87
   16:15:13.200.17-May-2020 5073.51 5615.91 71.51 2.00  32.20 2611.87
   16:15:13.400.17-May-2020 5073.51 5607.60 71.51 2.00  32.40 2611.87
   16:15:13.600.17-May-2020 5073.51 5615.54 71.51 2.00  32.60 2611.87
   16:15:13.800.17-May-2020 5073.51 5629.87 71.51 2.00  32.80 2611.87
   16:15:14.000.17-May-2020 5073.51 5773.50 71.51 2.00  33.00 2611.87
   16:15:14.200.17-May-2020 5073.51 5773.50 71.51 2.00  33.20 2611.87
   16:15:14.400.17-May-2020 5073.51 6193.62 71.51 2.00  33.40 2611.87
   16:15:14.600.17-May-2020 5073.51 6190.04 71.51 2.00  33.60 2611.87
   16:15:14.800.17-May-2020 5073.51 6211.77 71.51 2.00  33.80 2611.87
   16:15:15.000.17-May-2020 5073.51 6257.04 71.51 2.00  34.00 2611.87
   16:15:15.200.17-May-2020 5073.51 6257.04 71.51 2.00  34.20 2611.87
   16:15:15.400.17-May-2020 5073.51 6298.97 71.51 2.00  34.40 2611.87
   16:15:15.600.17-May-2020 5073.51 6299.43 71.51 2.00  34.60 2611.87
   16:15:15.800.17-May-2020 5073.51 6289.16 71.51 2.00  34.80 2611.87
   16:15:16.000.17-May-2020 5073.51 6281.69 71.51 2.00  35.00 2611.87
   16:15:16.200.17-May-2020 5073.51 6277.78 71.51 2.00  35.20 2611.87
   16:15:16.400.17-May-2020 5073.51 6275.57 71.51 2.00  35.40 2611.87
   16:15:16.600.17-May-2020 5073.51 6272.19 71.51 2.00  35.60 2611.87
   16:15:16.800.17-May-2020 5073.51 6267.55 71.51 2.00  35.80 2611.87
   16:15:17.000.17-May-2020 5073.51 6263.24 71.51 2.00  36.00 2611.87
   16:15:17.200.17-May-2020 5073.51 6263.24 71.51 2.00  36.20 2611.87
   16:15:17.400.17-May-2020 5073.51 6257.07 71.51 2.00  36.40 2611.87
   16:15:17.600.17-May-2020 5073.51 6253.15 71.51 2.00  36.60 2611.87
   16:15:17.800.17-May-2020 5073.51 6255.11 71.51 2.00  36.80 2611.87
   16:15:18.000.17-May-2020 5073.51 6251.66 71.51 2.00  37.00 2611.87
   16:15:18.200.17-May-2020 5073.51 6251.66 71.51 2.00  37.20 2611.87
   16:15:18.400.17-May-2020 5073.51 6246.33 71.51 2.00  37.40 2611.87
   16:15:18.600.17-May-2020 5073.51 6244.85 71.51 2.00  37.60 2611.87
   16:15:18.800.17-May-2020 5073.51 6242.81 71.52 2.00  37.80 2611.87
   16:15:19.000.17-May-2020 5073.51 6241.30 71.52 2.00  38.00 2611.87
   16:15:19.200.17-May-2020 5073.51 6241.30 71.52 2.00  38.20 2611.87
   16:15:19.400.17-May-2020 5073.51 6240.61 71.52 2.00  38.40 2611.87
   16:15:19.600.17-May-2020 5073.51 6241.07 71.52 2.00  38.60 2611.87
   16:15:19.800.17-May-2020 5073.51 6102.60 71.52 2.00  38.80 2611.87
   16:15:20.000.17-May-2020 5073.51 5520.03 71.52 2.00  39.00 2611.87
   16:15:20.200.17-May-2020 5073.51 5520.03 71.52 2.00  39.20 2611.87
   16:15:20.400.17-May-2020 5073.51 3921.11 71.52 2.00  39.40 2611.87
   16:15:20.600.17-May-2020 5073.51 3070.92 71.52 2.00  39.60 2611.87
   16:15:20.800.17-May-2020 5073.51 2471.65 71.52 2.00  39.80 2611.87
   16:15:21.000.17-May-2020 5073.51 2559.98 71.51 2.00  40.00 2611.87
   16:15:21.200.17-May-2020 5073.51 2559.98 71.51 2.00  40.20 2611.87
   16:15:21.400.17-May-2020 5073.51 2609.31 71.51 2.00  40.40 2611.87
   16:15:21.600.17-May-2020 5073.51 2607.18 71.51 2.00  40.60 2611.87
   16:15:21.800.17-May-2020 5073.51 2608.16 71.51 2.00  40.80 2611.87
   16:15:22.000.17-May-2020 5073.51 2619.53 71.51 2.00  41.00 2611.87
   16:15:22.200.17-May-2020 5073.51 2619.53 71.51 2.00  41.20 2611.87
   16:15:22.400.17-May-2020 5073.51 2607.38 71.50 2.00  41.40 2611.87
   16:15:22.600.17-May-2020 5073.51 2604.56 71.50 2.00  41.60 2611.87
   16:15:22.800.17-May-2020 5073.51 2601.20 71.50 2.00  41.80 2611.87
   16:15:23.000.17-May-2020 5073.51 2600.34 71.50 2.00  42.00 2611.87
   16:15:23.200.17-May-2020 5073.51 2600.34 71.50 2.00  42.20 2611.87
   16:15:23.400.17-May-2020 5073.51 2601.02 71.49 2.00  42.40 2611.87
   16:15:23.600.17-May-2020 5073.51 2599.65 71.49 2.00  42.60 2611.87
   16:15:23.800.17-May-2020 5073.51 2598.09 71.48 2.00  42.80 2611.87
   16:15:24.000.17-May-2020 5073.51 2598.12 71.48 2.00  43.00 2611.87
   16:15:24.200.17-May-2020 5073.51 2598.12 71.48 2.00  43.20 2611.87
   16:15:24.400.17-May-2020 5073.51 2597.74 71.48 2.00  43.40 2611.87
   16:15:24.600.17-May-2020 5073.51 2606.55 71.47 2.00  43.60 2611.87
   16:15:24.800.17-May-2020 5073.51 2630.86 71.47 2.00  43.80 2611.87
   16:15:25.000.17-May-2020 5073.51 2616.25 71.47 2.00  44.00 2611.87
   16:15:25.200.17-May-2020 5073.51 2616.25 71.47 2.00  44.20 2611.87
   16:15:25.400.17-May-2020 5073.51 2612.98 71.46 2.00  44.40 2611.87
   16:15:25.600.17-May-2020 5073.51 2613.68 71.46 2.00  44.60 2611.87
   16:15:25.800.17-May-2020 5073.51 2615.64 71.46 2.00  44.80 2611.87
   16:15:26.000.17-May-2020 5073.51 2620.67 71.45 2.00  45.00 2611.87
   16:15:26.200.17-May-2020 5073.51 2620.67 71.45 2.00  45.20 2611.87
   16:15:26.400.17-May-2020 5073.51 2602.14 71.45 2.00  45.40 2611.87
   16:15:26.600.17-May-2020 5073.51 2607.79 71.45 2.00  45.60 2611.87
   16:15:26.800.17-May-2020 5073.51 2603.23 71.44 2.00  45.80 2611.87
