~Version Information
 VERS.                  2.0:   CWLS log ASCII Standard -VERSION 2.0
 WRAP.                   NO:   One line per depth step
~Well Information Block
#MNEM.UNIT     VALUE/NAME     DESCRIPTION
#---------     -----------    ---------------------------
 STRT.S             22:49:31 17-May-20: START TIME 22:49:31 17-May-20
 STOP.S             22:56:24 17-May-20: STOP TIME  22:56:24 17-May-20
 STEP.S                   0.00: STEP TIME
 NULL.                 -999.25: NULL VALUE
 UNIT.                     N/A:  LOGGING EQUIPMENT ID
 DCON.         Sperry Drilling:  DIRECTNL CONTR
 DOE .                     N/A:  DOE NUMBER
 JOBN.        AZ-XX-0906252240:  JOB TICKET NUMB
 MWDS.                     N/A:  MWD SHOP
 PROV.                    Baku:  PROVINCE
 STAT.                    Baku:  STATE NAME
 REGN.                   EESSA:  REGION
 BASE.              Azerbaijan:  LOGGING EQUIPMENT BASE LOCATION
 UWI .                     N/A:  UNIQUE WELL IDENTIFIER
 API .                     N/A:  API NUMBER
 MDS .        Operator Entered:  MAG DATA SOURCE
 WTYP.                Deviated:  WELL TYPE
 COMP.     BP Exploration (Caspian Sea) Ltd.:  COMPANY
 SRVC.          Turan Drilling:  CONTRACTOR
 WELL.           J23 (Slot 07):  WELL NAME
 CTRY.              Azerbaijan:  COUNTRY NAME
 FLD .                     ACG:  FIELD NAME
 PDAT.          Mean Sea Level:  PERMANENT DATUM
 RIG .             West Chirag:  RIG NAME
 SON .        AZ-XX-0906252240:  JOB NUMBER
 FTOP.          Formation Tops:  FORM TOPS DESC
 ILTD.               Lithology:  INTERP LTH DESC
 SVYD.                  Survey:  SURVEY DESC
 DMOD.             Drill Model:  DRILL MOD DESC
 HPTY.       Minimum Curvature:  HOLE POS TYPE
 NREF.                    Grid:  NORTH REFERENCE
 SPUD.               27-Aug-20:  SPUD DATE
 DATE.      00.00.00 19-May-20:  END TIME
 STIM.      03.00.00 25-Mar-20:  START TIME
 DMF .             Drill Floor:  DRILL MEAS FROM
 DFST.                        :  DIST FSL TEXT
 DFWT.                        :  DIST FWL TEXT
 CNTY.                        :  COUNTY
 LOC .                        :  LOCATION
 LMF .             Drill Floor:  LOG MEASURED FROM
 VSNS.m                   9.43:  VERT SEC N/S
 VSEW.m                  -8.91:  VERT SEC E/W
 AGAP.m                  43.00:  AIR GAP
 DEP .m                 354.17:  DEPTH
 APD .m                  43.00:  DEPTH ABOVE PD
 WDMS.m                 169.80:  WD ELEV
 EGL .m                   0.00:  GROUND ELEVATION
 EPD .m                   0.00:  ELEVATION
 AZTC.deg                 6.31:  AZM TOTAL CORR
 GRDC.deg                 0.14:  GRID CORRECTION
 MDEC.deg                 6.45:  MAGNETIC DECL
 MDIP.deg                59.56:  MAGNETIC DIP
 MFLD.nT              50295.00:  MAGNETIC FIELD
 GVFD.g                   1.00:  GRAVITY FIELD
 VSDR.deg               179.88:  VERT SEC DIRECT
 TDD .m                5150.01:  TOTAL DEPTH (DRILLER)
 SDEP.m                 864.00:  START DEPTH
 DFSL.m                   0.00:  DISTANCE FSL
 DFWL.m                   0.00:  DISTANCE FWL
 UTMY.m             4443793.85:  UTM Y
 UTMX.m              519005.06:  UTM X
 WHEW.m                  -8.91:  WELL HEAD E/W
 WHNS.m                   9.43:  WELL HEAD N/S
 LONG.deg                51.22:  LONGITUDE
 LATI.deg                40.13:  LATITUDE
 TVDS.m                  43.00:  TVDSS CORRECTN
 EKB .m                   0.00:  KB ELEVATION
 EDF .m                  43.00:  DF ELEVATION
 TDL .m                 363.00:  TOTAL DEPTH (LOGGER)
 MAGU.                 1850802:  MAGUTM CHECKSUM
 VSC .                       0:  VS TO CLOSURE
~Parameter Information Block
#MNEM.UNIT       Value        Description
#---------     -----------    ---------------------------
 AV  .mps                 2.30:  Ann Velocity 
 AVMX.mps                 4.40:  Max Ann Veloc 
 AZIF.deg               110.24:  Azm, Final 
 BHAT.        Rotary Steerable:  BHA Type 
 BREV.rev               331.00:  Rev Bit Total 
 BROT.°/30m               0.00:  Build Rotating 
 BS  .in                  8.50:  Bit Size 
 BSZ .in                  8.50:  Bit Size 
 BTPL.psig              585.00:  Bit Press Loss 
 CABU.                     Yes:  Customer Abuse 
 COMM.                     ¼´€:  Run Comments 1 
 TCS .hr                122.75:  Time Ciculation Ended 
 CV  .mps                 2.67:  Crit Velocity 
 CVMX.mps                 3.56:  Max Crit Veloc 
 DD1 .          Rashad Habibov:  Direct Drillr 1 
 DD2 .         Rasim Ibrahimov:  Direct Drillr 2 
 DDSV.               Geo-Pilot:  DD Service 
 DEFF.%                  98.00:  % Det Eff 
 DLRX.°/30m               0.75:  Dogleg Rot Max 
 DLSO.°/30m               1.25:  Dogleg Oriented 
 DLSX.°/30m               2.06:  Dogleg Str Max 
 DRET.      07.45.00 17-May-20:  Drill End Time 
 DRST.      22.50.00 15-May-20:  Drill Start Tim 
 DTIM.hr                 20.75:  Time Drilling 
 EDEP.m                5124.01:  End Depth 
 ENG1.           Eldar Hajiyev:  Engineer 1 
 ENG2.        Marcelo Sandoval:  Engineer 2 
 ENG3.        Davud huseynzada:  Engineer 3 
 ENG4.          Ruslan Safarov:  Engineer 4 
 ETIM.      04.33.00 23-May-20:  End Time 
 FLOI.gpm               450.00:  Flow In 
 FLON.gpm               400.00:  Flow In Min 
 FLOS.cptm                0.00:  Fluid Loss 
 FLOX.gpm               500.00:  Flow In Max 
 FTRO.       Formation Presure:  FTWD Run Obj 
 HFLO.                      No:  High Flow 
 HPRE.                     Yes:  High Pressure 
 HTEM.                      No:  High Temp 
 HYDO.m                   1.80:  Hydro Offset 
 IFIN.deg                75.06:  Inc, Final 
 IMAX.deg                75.38:  Inc Max 
 IMIN.deg                74.69:  Inc Min 
 IMND.m                5027.38:  Inc Min Depth 
 IMXD.m                4771.61:  Inc Max Depth 
 JARR.                      No:  Jarring 
 LETM.      07.45.00 17-May-20:  Log End Time 
 LOST.hr                     0:  Lost Rig Time 
 LSTM.      22.50.00 15-May-20:  Log Start Time 
 MDCL.ppm             42000.00:  Mud Chlorides 
 MDES.     Inversion Oil/Synthetic:  Mud Desc 
 DFD .sg                  1.34:  Mud Density 
 MDMN.sg                  1.34:  Dens Mud Min 
 MDMX.sg                  1.34:  Dens Mud Max 
 MOIL.                       0:  Run Mud Oil % 
 MOWR.                   67:33:  Run Mud OWR 
 MSND.                       0:  Run Mud Sand % 
 MSOL.                     1.8:  Run Mud Solids% 
 DFV .spqt               76.00:  Mud Viscosity 
 MWOD.in                  6.75:  MWD Tool OD 
 MWSI.                      No:  Serv Intrp, MWD 
 OTIM.hr                228.19:  Time Operating 
 PCON.           Look Like New:  Pad Condition 
 PMAX.psia             6164.70:  Press Op, Max 
 PV  .cP                 28.00:  Mud PV 
 RUN .                     900:  Run Number 
 ROPA.m/hr               19.00:  ROP Avg 
 ROPN.m/hr               11.00:  ROP Min 
 ROPX.m/hr               36.00:  ROP Max 
 RPMA.rpm               120.00:  RPM Surface Avg 
 RPMN.rpm               120.00:  RPM Surface Min 
 RPMX.rpm               120.00:  RPM Surface Max 
 RRUN.                    L604:  Rig Run Number 
 RTIM.hr                  7.00:  Time Reaming 
 SAZI.deg               109.27:  Azm, Start 
 SDEP.m                4761.01:  Start Depth 
 SIDD.                      No:  Serv Intrp, DD 
 SINC.deg                75.38:  Inc, Start 
 SPPA.psig             3574.00:  SPP Avg 
 SPPN.psig             3475.00:  SPP Min 
 SPPX.psig             3791.00:  SPP Max 
 STIM.      07.08.48 13-May-20:  Start Time 
 SVCS.                 DD, MWD:  Services 
 SVER.                    9.20:  Sperry Version 
 TDAT.m                 363.00:  Tot Depth Attmp 
 TDDF.                      No:  Trip for DD 
 TDLG.m                 363.00:  Tot Depth Loggd 
 TFF .                      No:  Trip for Fail 
 TQAA.f-kp               20.00:  Torque Abs Avg 
 TQAN.f-kp               18.00:  Torque Abs Min 
 TQAX.f-kp               22.00:  Torque Abs Max 
 TRRT.°/30m              -0.35:  Turn Rotating 
 MRT .                    HCIM:  Maximum Recorded Temperature 
 TTMX.degC               92.16:  Max Tool Temp 
 VS01.                90586518:  Virtual Str1 SN 
 VS02.        AZ90560654Z1W1C6:  Virtual Str2 SN 
 VS03.           AZ90610398F11:  Virtual Str3 SN 
 VS04.                90514975:  Virtual Str4 SN 
 VS05.                90514972:  Virtual Str5 SN 
 VS06.     AZ90603282F11V7D1A6:  Virtual Str6 SN 
 WBMN.klb                 7.00:  WOB Min 
 WOBA.klb                12.00:  WOB Avg 
 WOBX.klb                14.00:  WOB Max 
 YP  .lhf2               32.00:  Yield Point 
~Curve Information Block
#MNEM.UNIT                 API CODE     Curve Description
#---------               -----------    ---------------------------
 TIME.HHMMSS            00 000 000 000:  GT Time & Date
 GTDEPTH.m              00 000 000 000:  GT Depth
 GTPQH.psia             00 000 000 000:  GT HR Quartz Pressure
 GTTQ.degC              00 000 000 000:  GT Quartz Temperature
 GTTN.NONE              00 000 000 000:  GT Test Number
 GTET.sec               00 000 000 000:  GT Elapsed Test Time
 GTTVD.m                00 000 000 000:  GT True Vertical Depth
#Other Information
#
#WARRANTY: Halliburton will use its best efforts to furnish customers with 
#accurate information and interpretations that are part of, and incident to, the services 
#provided.  However, Halliburton cannot and does not warrant the accuracy 
#or correctness of such information and interpretations.  Under no circumstances should any 
#such information or interpretation be relied upon as the sole basis for any drilling, 
#completion, production, or financial decision or any procedure involving any risk to the 
#safety of any drilling venture, drilling rig or its crew or any other third party.  The 
#Customer has full responsibility for all drilling, completion and production operation.  
#Halliburton makes no representations or warranties, either expressed or 
#implied, including, but not limited to, the implied warranties of merchantability or fitness 
#for a particular purpose, with respect to the services rendered.  In no event will 
#Halliburton be liable for failure to obtain any particular results or for 
#any damages, including, but not limited to, indirect, special or consequential damages, 
#resulting from the use of any information or interpretation provided by Halliburton.
#
~A           TIME           GTDEPTH  GTPQH  GTTQ  GTTN  GTET   GTTVD  
# ...
   22:55:16.350.17-May-2020 4908.51  134.09 67.15 8.00 344.82 2569.17
   22:55:16.550.17-May-2020 4908.51  134.51 67.15 8.00 345.02 2569.17
   22:55:16.749.17-May-2020 4908.51  134.96 67.15 8.00 345.22 2569.17
   22:55:16.949.17-May-2020 4908.51  135.40 67.15 8.00 345.42 2569.17
   22:55:17.149.17-May-2020 4908.51  135.85 67.15 8.00 345.62 2569.17
   22:55:17.349.17-May-2020 4908.51  136.29 67.15 8.00 345.82 2569.17
   22:55:17.549.17-May-2020 4908.51  136.29 67.15 8.00 346.02 2569.17
   22:55:17.749.17-May-2020 4908.51  137.20 67.15 8.00 346.22 2569.17
   22:55:17.949.17-May-2020 4908.51  137.65 67.15 8.00 346.42 2569.17
   22:55:18.149.17-May-2020 4908.51  138.11 67.15 8.00 346.62 2569.17
   22:55:18.349.17-May-2020 4908.51  138.59 67.15 8.00 346.82 2569.17
   22:55:18.549.17-May-2020 4908.51  138.59 67.15 8.00 347.02 2569.17
   22:55:18.748.17-May-2020 4908.51  139.48 67.15 8.00 347.22 2569.17
   22:55:18.948.17-May-2020 4908.51  139.97 67.15 8.00 347.42 2569.17
   22:55:19.148.17-May-2020 4908.51  140.46 67.15 8.00 347.62 2569.17
   22:55:19.348.17-May-2020 4908.51  140.91 67.15 8.00 347.82 2569.17
   22:55:19.548.17-May-2020 4908.51  140.91 67.15 8.00 348.02 2569.17
   22:55:19.748.17-May-2020 4908.51  141.89 67.15 8.00 348.22 2569.17
   22:55:19.948.17-May-2020 4908.51  142.39 67.15 8.00 348.42 2569.17
   22:55:20.148.17-May-2020 4908.51  142.89 67.15 8.00 348.62 2569.17
   22:55:20.348.17-May-2020 4908.51  143.38 67.15 8.00 348.82 2569.17
   22:55:20.547.17-May-2020 4908.51  143.88 67.15 8.00 349.02 2569.17
   22:55:20.747.17-May-2020 4908.51  144.39 67.15 8.00 349.22 2569.17
   22:55:20.947.17-May-2020 4908.51  144.90 67.15 8.00 349.42 2569.17
   22:55:21.147.17-May-2020 4908.51  145.41 67.15 8.00 349.62 2569.17
   22:55:21.347.17-May-2020 4908.51  145.91 67.15 8.00 349.82 2569.17
   22:55:21.547.17-May-2020 4908.51  145.91 67.15 8.00 350.02 2569.17
   22:55:21.747.17-May-2020 4908.51  146.94 67.15 8.00 350.22 2569.17
   22:55:21.947.17-May-2020 4908.51  147.46 67.15 8.00 350.42 2569.17
   22:55:22.147.17-May-2020 4908.51  147.99 67.15 8.00 350.62 2569.17
   22:55:22.347.17-May-2020 4908.51  148.53 67.15 8.00 350.82 2569.17
   22:55:22.546.17-May-2020 4908.51  148.53 67.15 8.00 351.02 2569.17
   22:55:22.746.17-May-2020 4908.51  149.61 67.15 8.00 351.22 2569.17
   22:55:22.946.17-May-2020 4908.51  150.15 67.15 8.00 351.42 2569.17
   22:55:23.146.17-May-2020 4908.51  150.72 67.15 8.00 351.62 2569.17
   22:55:23.346.17-May-2020 4908.51  151.25 67.15 8.00 351.82 2569.17
   22:55:23.546.17-May-2020 4908.51  151.81 67.15 8.00 352.02 2569.17
   22:55:23.746.17-May-2020 4908.51  152.36 67.15 8.00 352.22 2569.17
   22:55:23.946.17-May-2020 4908.51  152.92 67.15 8.00 352.42 2569.17
   22:55:24.146.17-May-2020 4908.51  153.48 67.15 8.00 352.62 2569.17
   22:55:24.346.17-May-2020 4908.51  154.06 67.15 8.00 352.82 2569.17
   22:55:24.545.17-May-2020 4908.51  154.63 67.15 8.00 353.02 2569.17
   22:55:24.745.17-May-2020 4908.51  155.21 67.15 8.00 353.22 2569.17
   22:55:24.945.17-May-2020 4908.51  155.79 67.15 8.00 353.42 2569.17
   22:55:25.145.17-May-2020 4908.51  156.39 67.15 8.00 353.62 2569.17
   22:55:25.345.17-May-2020 4908.51  156.96 67.15 8.00 353.82 2569.17
   22:55:25.545.17-May-2020 4908.51  156.96 67.15 8.00 354.02 2569.17
   22:55:25.745.17-May-2020 4908.51  158.16 67.15 8.00 354.22 2569.17
   22:55:25.945.17-May-2020 4908.51  158.78 67.15 8.00 354.42 2569.17
   22:55:26.145.17-May-2020 4908.51  159.38 67.15 8.00 354.62 2569.17
   22:55:26.345.17-May-2020 4908.51  159.99 67.15 8.00 354.82 2569.17
   22:55:26.544.17-May-2020 4908.51  159.99 67.15 8.00 355.02 2569.17
   22:55:26.744.17-May-2020 4908.51  161.25 67.15 8.00 355.22 2569.17
   22:55:26.944.17-May-2020 4908.51  161.85 67.15 8.00 355.42 2569.17
   22:55:27.144.17-May-2020 4908.51  162.50 67.15 8.00 355.62 2569.17
   22:55:27.344.17-May-2020 4908.51  163.15 67.15 8.00 355.82 2569.17
   22:55:27.544.17-May-2020 4908.51  163.80 67.14 8.00 356.02 2569.17
   22:55:27.744.17-May-2020 4908.51  164.43 67.15 8.00 356.22 2569.17
   22:55:27.944.17-May-2020 4908.51  165.09 67.14 8.00 356.42 2569.17
   22:55:28.144.17-May-2020 4908.51  165.77 67.15 8.00 356.62 2569.17
   22:55:28.343.17-May-2020 4908.51  166.46 67.14 8.00 356.82 2569.17
   22:55:28.543.17-May-2020 4908.51  167.15 67.14 8.00 357.02 2569.17
   22:55:28.743.17-May-2020 4908.51  167.85 67.14 8.00 357.22 2569.17
   22:55:28.943.17-May-2020 4908.51  168.53 67.14 8.00 357.42 2569.17
   22:55:29.143.17-May-2020 4908.51  169.22 67.14 8.00 357.62 2569.17
   22:55:29.343.17-May-2020 4908.51  169.93 67.14 8.00 357.82 2569.17
   22:55:29.543.17-May-2020 4908.51  169.93 67.14 8.00 358.02 2569.17
   22:55:29.743.17-May-2020 4908.51  171.36 67.14 8.00 358.22 2569.17
   22:55:29.943.17-May-2020 4908.51  172.08 67.14 8.00 358.42 2569.17
   22:55:30.143.17-May-2020 4908.51  172.79 67.14 8.00 358.62 2569.17
   22:55:30.342.17-May-2020 4908.51  173.51 67.14 8.00 358.82 2569.17
   22:55:30.542.17-May-2020 4908.51  173.51 67.14 8.00 359.02 2569.17
   22:55:30.742.17-May-2020 4908.51  174.99 67.14 8.00 359.22 2569.17
   22:55:30.942.17-May-2020 4908.51  175.73 67.14 8.00 359.42 2569.17
   22:55:31.142.17-May-2020 4908.51  176.49 67.14 8.00 359.62 2569.17
   22:55:31.342.17-May-2020 4908.51  177.24 67.14 8.00 359.82 2569.17
   22:55:31.542.17-May-2020 4908.51  177.99 67.14 8.00 360.02 2569.17
   22:55:31.742.17-May-2020 4908.51  178.77 67.14 8.00 360.22 2569.17
   22:55:31.942.17-May-2020 4908.51  179.56 67.14 8.00 360.42 2569.17
   22:55:32.142.17-May-2020 4908.51  180.35 67.14 8.00 360.61 2569.17
   22:55:32.341.17-May-2020 4908.51  181.77 67.14 8.00 360.81 2569.17
   22:55:32.541.17-May-2020 4908.51  188.45 67.14 8.00 361.01 2569.17
   22:55:32.741.17-May-2020 4908.51  200.20 67.14 8.00 361.21 2569.17
   22:55:32.941.17-May-2020 4908.51  656.77 67.14 8.00 361.41 2569.17
   22:55:33.141.17-May-2020 4908.51 1297.94 67.14 8.00 361.61 2569.17
   22:55:33.341.17-May-2020 4908.51 5510.36 67.14 8.00 361.81 2569.17
   22:55:33.541.17-May-2020 4908.51 5510.36 67.14 8.00 362.01 2569.17
   22:55:33.741.17-May-2020 4908.51 5510.90 67.15 8.00 362.21 2569.17
   22:55:33.941.17-May-2020 4908.51 5517.48 67.15 8.00 362.41 2569.17
   22:55:34.141.17-May-2020 4908.51 5523.30 67.15 8.00 362.61 2569.17
   22:55:34.340.17-May-2020 4908.51 5513.56 67.15 8.00 362.81 2569.17
   22:55:34.540.17-May-2020 4908.51 5513.56 67.15 8.00 363.01 2569.17
   22:55:34.740.17-May-2020 4908.51 5516.31 67.16 8.00 363.21 2569.17
   22:55:34.940.17-May-2020 4908.51 5524.11 67.16 8.00 363.41 2569.17
   22:55:35.140.17-May-2020 4908.51 5518.79 67.16 8.00 363.61 2569.17
   22:55:35.340.17-May-2020 4908.51 5522.80 67.17 8.00 363.81 2569.17
   22:55:35.540.17-May-2020 4908.51 5522.80 67.17 8.00 364.01 2569.17
   22:55:35.740.17-May-2020 4908.51 5523.20 67.17 8.00 364.21 2569.17
   22:55:35.940.17-May-2020 4908.51 5522.23 67.18 8.00 364.41 2569.17
   22:55:36.139.17-May-2020 4908.51 5537.53 67.18 8.00 364.61 2569.17
   22:55:36.339.17-May-2020 4908.51 5517.66 67.19 8.00 364.81 2569.17
   22:55:36.539.17-May-2020 4908.51 5534.79 67.19 8.00 365.01 2569.17
   22:55:36.739.17-May-2020 4908.51 5520.92 67.19 8.00 365.21 2569.17
   22:55:36.939.17-May-2020 4908.51 5529.32 67.20 8.00 365.41 2569.17
   22:55:37.139.17-May-2020 4908.51 5522.20 67.20 8.00 365.61 2569.17
   22:55:37.339.17-May-2020 4908.51 5526.68 67.21 8.00 365.81 2569.17
   22:55:37.539.17-May-2020 4908.51 5526.68 67.21 8.00 366.01 2569.17
   22:55:37.739.17-May-2020 4908.51 5525.17 67.22 8.00 366.21 2569.17
   22:55:37.939.17-May-2020 4908.51 5524.11 67.22 8.00 366.41 2569.17
   22:55:38.138.17-May-2020 4908.51 5540.63 67.22 8.00 366.61 2569.17
   22:55:38.338.17-May-2020 4908.51 5516.64 67.23 8.00 366.81 2569.17
   22:55:38.538.17-May-2020 4908.51 5516.64 67.23 8.00 367.01 2569.17
   22:55:38.738.17-May-2020 4908.51 5524.33 67.23 8.00 367.21 2569.17
   22:55:38.938.17-May-2020 4908.51 5529.95 67.24 8.00 367.41 2569.17
   22:55:39.138.17-May-2020 4908.51 5536.61 67.24 8.00 367.61 2569.17
