~Version Information
 VERS.                  2.0:   CWLS log ASCII Standard -VERSION 2.0
 WRAP.                   NO:   One line per depth step
~Well Information Block
#MNEM.UNIT     VALUE/NAME     DESCRIPTION
#---------     -----------    ---------------------------
 STRT.S             22:05:00 17-May-20: START TIME 22:05:00 17-May-20
 STOP.S             22:12:03 17-May-20: STOP TIME  22:12:03 17-May-20
 STEP.S                   0.00: STEP TIME
 NULL.                 -999.25: NULL VALUE
 UNIT.                     N/A:  LOGGING EQUIPMENT ID
 DCON.         Sperry Drilling:  DIRECTNL CONTR
 DOE .                     N/A:  DOE NUMBER
 JOBN.        AZ-XX-0906252240:  JOB TICKET NUMB
 MWDS.                     N/A:  MWD SHOP
 PROV.                    Baku:  PROVINCE
 STAT.                    Baku:  STATE NAME
 REGN.                   EESSA:  REGION
 BASE.              Azerbaijan:  LOGGING EQUIPMENT BASE LOCATION
 UWI .                     N/A:  UNIQUE WELL IDENTIFIER
 API .                     N/A:  API NUMBER
 MDS .        Operator Entered:  MAG DATA SOURCE
 WTYP.                Deviated:  WELL TYPE
 COMP.     BP Exploration (Caspian Sea) Ltd.:  COMPANY
 SRVC.          Turan Drilling:  CONTRACTOR
 WELL.           J23 (Slot 07):  WELL NAME
 CTRY.              Azerbaijan:  COUNTRY NAME
 FLD .                     ACG:  FIELD NAME
 PDAT.          Mean Sea Level:  PERMANENT DATUM
 RIG .             West Chirag:  RIG NAME
 SON .        AZ-XX-0906252240:  JOB NUMBER
 FTOP.          Formation Tops:  FORM TOPS DESC
 ILTD.               Lithology:  INTERP LTH DESC
 SVYD.                  Survey:  SURVEY DESC
 DMOD.             Drill Model:  DRILL MOD DESC
 HPTY.       Minimum Curvature:  HOLE POS TYPE
 NREF.                    Grid:  NORTH REFERENCE
 SPUD.               27-Aug-20:  SPUD DATE
 DATE.      00.00.00 19-May-20:  END TIME
 STIM.      03.00.00 25-Mar-20:  START TIME
 DMF .             Drill Floor:  DRILL MEAS FROM
 DFST.                        :  DIST FSL TEXT
 DFWT.                        :  DIST FWL TEXT
 CNTY.                        :  COUNTY
 LOC .                        :  LOCATION
 LMF .             Drill Floor:  LOG MEASURED FROM
 VSNS.m                   9.43:  VERT SEC N/S
 VSEW.m                  -8.91:  VERT SEC E/W
 AGAP.m                  43.00:  AIR GAP
 DEP .m                 354.17:  DEPTH
 APD .m                  43.00:  DEPTH ABOVE PD
 WDMS.m                 169.80:  WD ELEV
 EGL .m                   0.00:  GROUND ELEVATION
 EPD .m                   0.00:  ELEVATION
 AZTC.deg                 6.31:  AZM TOTAL CORR
 GRDC.deg                 0.14:  GRID CORRECTION
 MDEC.deg                 6.45:  MAGNETIC DECL
 MDIP.deg                59.56:  MAGNETIC DIP
 MFLD.nT              50295.00:  MAGNETIC FIELD
 GVFD.g                   1.00:  GRAVITY FIELD
 VSDR.deg               179.88:  VERT SEC DIRECT
 TDD .m                5150.01:  TOTAL DEPTH (DRILLER)
 SDEP.m                 864.00:  START DEPTH
 DFSL.m                   0.00:  DISTANCE FSL
 DFWL.m                   0.00:  DISTANCE FWL
 UTMY.m             4443793.85:  UTM Y
 UTMX.m              519005.06:  UTM X
 WHEW.m                  -8.91:  WELL HEAD E/W
 WHNS.m                   9.43:  WELL HEAD N/S
 LONG.deg                51.22:  LONGITUDE
 LATI.deg                40.13:  LATITUDE
 TVDS.m                  43.00:  TVDSS CORRECTN
 EKB .m                   0.00:  KB ELEVATION
 EDF .m                  43.00:  DF ELEVATION
 TDL .m                 363.00:  TOTAL DEPTH (LOGGER)
 MAGU.                 1850802:  MAGUTM CHECKSUM
 VSC .                       0:  VS TO CLOSURE
~Parameter Information Block
#MNEM.UNIT       Value        Description
#---------     -----------    ---------------------------
 AV  .mps                 2.30:  Ann Velocity 
 AVMX.mps                 4.40:  Max Ann Veloc 
 AZIF.deg               110.24:  Azm, Final 
 BHAT.        Rotary Steerable:  BHA Type 
 BREV.rev               331.00:  Rev Bit Total 
 BROT.°/30m               0.00:  Build Rotating 
 BS  .in                  8.50:  Bit Size 
 BSZ .in                  8.50:  Bit Size 
 BTPL.psig              585.00:  Bit Press Loss 
 CABU.                     Yes:  Customer Abuse 
 COMM.                     íe:  Run Comments 1 
 TCS .hr                122.75:  Time Ciculation Ended 
 CV  .mps                 2.67:  Crit Velocity 
 CVMX.mps                 3.56:  Max Crit Veloc 
 DD1 .          Rashad Habibov:  Direct Drillr 1 
 DD2 .         Rasim Ibrahimov:  Direct Drillr 2 
 DDSV.               Geo-Pilot:  DD Service 
 DEFF.%                  98.00:  % Det Eff 
 DLRX.°/30m               0.75:  Dogleg Rot Max 
 DLSO.°/30m               1.25:  Dogleg Oriented 
 DLSX.°/30m               2.06:  Dogleg Str Max 
 DRET.      07.45.00 17-May-20:  Drill End Time 
 DRST.      22.50.00 15-May-20:  Drill Start Tim 
 DTIM.hr                 20.75:  Time Drilling 
 EDEP.m                5124.01:  End Depth 
 ENG1.           Eldar Hajiyev:  Engineer 1 
 ENG2.        Marcelo Sandoval:  Engineer 2 
 ENG3.        Davud huseynzada:  Engineer 3 
 ENG4.          Ruslan Safarov:  Engineer 4 
 ETIM.      04.33.00 23-May-20:  End Time 
 FLOI.gpm               450.00:  Flow In 
 FLON.gpm               400.00:  Flow In Min 
 FLOS.cptm                0.00:  Fluid Loss 
 FLOX.gpm               500.00:  Flow In Max 
 FTRO.       Formation Presure:  FTWD Run Obj 
 HFLO.                      No:  High Flow 
 HPRE.                     Yes:  High Pressure 
 HTEM.                      No:  High Temp 
 HYDO.m                   1.80:  Hydro Offset 
 IFIN.deg                75.06:  Inc, Final 
 IMAX.deg                75.38:  Inc Max 
 IMIN.deg                74.69:  Inc Min 
 IMND.m                5027.38:  Inc Min Depth 
 IMXD.m                4771.61:  Inc Max Depth 
 JARR.                      No:  Jarring 
 LETM.      07.45.00 17-May-20:  Log End Time 
 LOST.hr                     0:  Lost Rig Time 
 LSTM.      22.50.00 15-May-20:  Log Start Time 
 MDCL.ppm             42000.00:  Mud Chlorides 
 MDES.     Inversion Oil/Synthetic:  Mud Desc 
 DFD .sg                  1.34:  Mud Density 
 MDMN.sg                  1.34:  Dens Mud Min 
 MDMX.sg                  1.34:  Dens Mud Max 
 MOIL.                       0:  Run Mud Oil % 
 MOWR.                   67:33:  Run Mud OWR 
 MSND.                       0:  Run Mud Sand % 
 MSOL.                     1.8:  Run Mud Solids% 
 DFV .spqt               76.00:  Mud Viscosity 
 MWOD.in                  6.75:  MWD Tool OD 
 MWSI.                      No:  Serv Intrp, MWD 
 OTIM.hr                228.19:  Time Operating 
 PCON.           Look Like New:  Pad Condition 
 PMAX.psia             6164.70:  Press Op, Max 
 PV  .cP                 28.00:  Mud PV 
 RUN .                     900:  Run Number 
 ROPA.m/hr               19.00:  ROP Avg 
 ROPN.m/hr               11.00:  ROP Min 
 ROPX.m/hr               36.00:  ROP Max 
 RPMA.rpm               120.00:  RPM Surface Avg 
 RPMN.rpm               120.00:  RPM Surface Min 
 RPMX.rpm               120.00:  RPM Surface Max 
 RRUN.                    L604:  Rig Run Number 
 RTIM.hr                  7.00:  Time Reaming 
 SAZI.deg               109.27:  Azm, Start 
 SDEP.m                4761.01:  Start Depth 
 SIDD.                      No:  Serv Intrp, DD 
 SINC.deg                75.38:  Inc, Start 
 SPPA.psig             3574.00:  SPP Avg 
 SPPN.psig             3475.00:  SPP Min 
 SPPX.psig             3791.00:  SPP Max 
 STIM.      07.08.48 13-May-20:  Start Time 
 SVCS.                 DD, MWD:  Services 
 SVER.                    9.20:  Sperry Version 
 TDAT.m                 363.00:  Tot Depth Attmp 
 TDDF.                      No:  Trip for DD 
 TDLG.m                 363.00:  Tot Depth Loggd 
 TFF .                      No:  Trip for Fail 
 TQAA.f-kp               20.00:  Torque Abs Avg 
 TQAN.f-kp               18.00:  Torque Abs Min 
 TQAX.f-kp               22.00:  Torque Abs Max 
 TRRT.°/30m              -0.35:  Turn Rotating 
 MRT .                    HCIM:  Maximum Recorded Temperature 
 TTMX.degC               92.16:  Max Tool Temp 
 VS01.                90586518:  Virtual Str1 SN 
 VS02.        AZ90560654Z1W1C6:  Virtual Str2 SN 
 VS03.           AZ90610398F11:  Virtual Str3 SN 
 VS04.                90514975:  Virtual Str4 SN 
 VS05.                90514972:  Virtual Str5 SN 
 VS06.     AZ90603282F11V7D1A6:  Virtual Str6 SN 
 WBMN.klb                 7.00:  WOB Min 
 WOBA.klb                12.00:  WOB Avg 
 WOBX.klb                14.00:  WOB Max 
 YP  .lhf2               32.00:  Yield Point 
~Curve Information Block
#MNEM.UNIT                 API CODE     Curve Description
#---------               -----------    ---------------------------
 TIME.HHMMSS            00 000 000 000:  GT Time & Date
 GTDEPTH.m              00 000 000 000:  GT Depth
 GTPQH.psia             00 000 000 000:  GT HR Quartz Pressure
 GTTQ.degC              00 000 000 000:  GT Quartz Temperature
 GTTN.NONE              00 000 000 000:  GT Test Number
 GTET.sec               00 000 000 000:  GT Elapsed Test Time
 GTTVD.m                00 000 000 000:  GT True Vertical Depth
#Other Information
#
#WARRANTY: Halliburton will use its best efforts to furnish customers with 
#accurate information and interpretations that are part of, and incident to, the services 
#provided.  However, Halliburton cannot and does not warrant the accuracy 
#or correctness of such information and interpretations.  Under no circumstances should any 
#such information or interpretation be relied upon as the sole basis for any drilling, 
#completion, production, or financial decision or any procedure involving any risk to the 
#safety of any drilling venture, drilling rig or its crew or any other third party.  The 
#Customer has full responsibility for all drilling, completion and production operation.  
#Halliburton makes no representations or warranties, either expressed or 
#implied, including, but not limited to, the implied warranties of merchantability or fitness 
#for a particular purpose, with respect to the services rendered.  In no event will 
#Halliburton be liable for failure to obtain any particular results or for 
#any damages, including, but not limited to, indirect, special or consequential damages, 
#resulting from the use of any information or interpretation provided by Halliburton.
#
~A           TIME           GTDEPTH  GTPQH  GTTQ  GTTN  GTET   GTTVD  
# ...
   22:11:09.467.17-May-2020 4937.01 5538.34 67.62 7.00 368.68 2576.47
   22:11:09.668.17-May-2020 4937.01 5538.34 67.62 7.00 368.88 2576.47
   22:11:09.868.17-May-2020 4937.01 5538.59 67.62 7.00 369.08 2576.47
   22:11:10.068.17-May-2020 4937.01 5538.76 67.62 7.00 369.28 2576.47
   22:11:10.269.17-May-2020 4937.01 5537.69 67.62 7.00 369.48 2576.47
   22:11:10.469.17-May-2020 4937.01 5549.49 67.63 7.00 369.68 2576.47
   22:11:10.670.17-May-2020 4937.01 5549.49 67.63 7.00 369.88 2576.47
   22:11:10.870.17-May-2020 4937.01 5549.93 67.63 7.00 370.08 2576.47
   22:11:11.070.17-May-2020 4937.01 5537.45 67.63 7.00 370.28 2576.47
   22:11:11.271.17-May-2020 4937.01 5542.60 67.63 7.00 370.48 2576.47
   22:11:11.471.17-May-2020 4937.01 5538.85 67.64 7.00 370.68 2576.47
   22:11:11.671.17-May-2020 4937.01 5539.59 67.64 7.00 370.88 2576.47
   22:11:11.872.17-May-2020 4937.01 5539.56 67.64 7.00 371.08 2576.47
   22:11:12.072.17-May-2020 4937.01 5539.58 67.64 7.00 371.28 2576.47
   22:11:12.272.17-May-2020 4937.01 5539.13 67.64 7.00 371.48 2576.47
   22:11:12.473.17-May-2020 4937.01 5553.85 67.64 7.00 371.68 2576.47
   22:11:12.673.17-May-2020 4937.01 5553.85 67.64 7.00 371.88 2576.47
   22:11:12.874.17-May-2020 4937.01 5546.97 67.65 7.00 372.08 2576.47
   22:11:13.074.17-May-2020 4937.01 5541.53 67.65 7.00 372.28 2576.47
   22:11:13.274.17-May-2020 4937.01 5556.12 67.65 7.00 372.48 2576.47
   22:11:13.475.17-May-2020 4937.01 5537.28 67.65 7.00 372.68 2576.47
   22:11:13.675.17-May-2020 4937.01 5537.28 67.65 7.00 372.88 2576.47
   22:11:13.875.17-May-2020 4937.01 5538.99 67.65 7.00 373.08 2576.47
   22:11:14.076.17-May-2020 4937.01 5544.85 67.66 7.00 373.28 2576.47
   22:11:14.276.17-May-2020 4937.01 5552.83 67.66 7.00 373.49 2576.47
   22:11:14.477.17-May-2020 4937.01 5537.76 67.66 7.00 373.69 2576.47
   22:11:14.677.17-May-2020 4937.01 5537.76 67.66 7.00 373.89 2576.47
   22:11:14.877.17-May-2020 4937.01 5539.69 67.66 7.00 374.09 2576.47
   22:11:15.078.17-May-2020 4937.01 5546.84 67.66 7.00 374.29 2576.47
   22:11:15.278.17-May-2020 4937.01 5549.74 67.66 7.00 374.49 2576.47
   22:11:15.478.17-May-2020 4937.01 5540.82 67.66 7.00 374.69 2576.47
   22:11:15.679.17-May-2020 4937.01 5551.58 67.66 7.00 374.89 2576.47
   22:11:15.879.17-May-2020 4937.01 5541.33 67.67 7.00 375.09 2576.47
   22:11:16.079.17-May-2020 4937.01 5544.02 67.67 7.00 375.29 2576.47
   22:11:16.280.17-May-2020 4937.01 5540.30 67.67 7.00 375.49 2576.47
   22:11:16.480.17-May-2020 4937.01 5540.80 67.67 7.00 375.69 2576.47
   22:11:16.681.17-May-2020 4937.01 5540.80 67.67 7.00 375.89 2576.47
   22:11:16.881.17-May-2020 4937.01 5540.70 67.67 7.00 376.09 2576.47
   22:11:17.081.17-May-2020 4937.01 5539.65 67.67 7.00 376.29 2576.47
   22:11:17.282.17-May-2020 4937.01 5551.40 67.67 7.00 376.49 2576.47
   22:11:17.482.17-May-2020 4937.01 5535.72 67.67 7.00 376.69 2576.47
   22:11:17.682.17-May-2020 4937.01 5535.72 67.67 7.00 376.89 2576.47
   22:11:17.883.17-May-2020 4937.01 5537.72 67.67 7.00 377.09 2576.47
   22:11:18.083.17-May-2020 4937.01 5543.20 67.67 7.00 377.29 2576.47
   22:11:18.284.17-May-2020 4937.01 5539.22 67.67 7.00 377.49 2576.47
   22:11:18.484.17-May-2020 4937.01 5539.96 67.67 7.00 377.69 2576.47
   22:11:18.684.17-May-2020 4937.01 5539.96 67.67 7.00 377.89 2576.47
   22:11:18.885.17-May-2020 4937.01 5540.07 67.67 7.00 378.09 2576.47
   22:11:19.085.17-May-2020 4937.01 5539.52 67.67 7.00 378.29 2576.47
   22:11:19.285.17-May-2020 4937.01 5538.96 67.67 7.00 378.49 2576.47
   22:11:19.486.17-May-2020 4937.01 5555.07 67.67 7.00 378.69 2576.47
   22:11:19.686.17-May-2020 4937.01 5532.34 67.67 7.00 378.89 2576.47
   22:11:19.886.17-May-2020 4937.01 5548.17 67.67 7.00 379.10 2576.47
   22:11:20.087.17-May-2020 4937.01 5540.50 67.67 7.00 379.30 2576.47
   22:11:20.287.17-May-2020 4937.01 5542.80 67.67 7.00 379.50 2576.47
   22:11:20.488.17-May-2020 4937.01 5556.21 67.67 7.00 379.70 2576.47
   22:11:20.688.17-May-2020 4937.01 5556.21 67.67 7.00 379.90 2576.47
   22:11:20.888.17-May-2020 4937.01 5549.87 67.67 7.00 380.10 2576.47
   22:11:21.089.17-May-2020 4937.01 5554.28 67.67 7.00 380.30 2576.47
   22:11:21.289.17-May-2020 4937.01 5538.49 67.67 7.00 380.50 2576.47
   22:11:21.489.17-May-2020 4937.01 5547.50 67.67 7.00 380.70 2576.47
   22:11:21.690.17-May-2020 4937.01 5547.50 67.67 7.00 380.90 2576.47
   22:11:21.890.17-May-2020 4937.01 5556.64 67.67 7.00 381.10 2576.47
   22:11:22.090.17-May-2020 4937.01 5538.97 67.67 7.00 381.30 2576.47
   22:11:22.291.17-May-2020 4937.01 5547.18 67.67 7.00 381.50 2576.47
   22:11:22.491.17-May-2020 4937.01 5545.27 67.67 7.00 381.70 2576.47
   22:11:22.692.17-May-2020 4937.01 5545.27 67.67 7.00 381.90 2576.47
   22:11:22.892.17-May-2020 4937.01 5543.14 67.67 7.00 382.10 2576.47
   22:11:23.092.17-May-2020 4937.01 5541.30 67.67 7.00 382.30 2576.47
   22:11:23.293.17-May-2020 4937.01 5540.83 67.67 7.00 382.50 2576.47
   22:11:23.493.17-May-2020 4937.01 5539.84 67.67 7.00 382.70 2576.47
   22:11:23.693.17-May-2020 4937.01 5539.84 67.67 7.00 382.90 2576.47
   22:11:23.894.17-May-2020 4937.01 5547.89 67.67 7.00 383.10 2576.47
   22:11:24.094.17-May-2020 4937.01 5541.85 67.67 7.00 383.30 2576.47
   22:11:24.295.17-May-2020 4937.01 5540.11 67.67 7.00 383.50 2576.47
   22:11:24.495.17-May-2020 4937.01 5546.61 67.67 7.00 383.70 2576.47
   22:11:24.695.17-May-2020 4937.01 5546.61 67.67 7.00 383.90 2576.47
   22:11:24.896.17-May-2020 4937.01 5541.81 67.67 7.00 384.10 2576.47
   22:11:25.096.17-May-2020 4937.01 5539.82 67.67 7.00 384.30 2576.47
   22:11:25.296.17-May-2020 4937.01 5540.39 67.67 7.00 384.51 2576.47
   22:11:25.497.17-May-2020 4937.01 5539.21 67.67 7.00 384.71 2576.47
   22:11:25.697.17-May-2020 4937.01 5539.21 67.67 7.00 384.91 2576.47
   22:11:25.897.17-May-2020 4937.01 5539.79 67.67 7.00 385.11 2576.47
   22:11:26.098.17-May-2020 4937.01 5538.79 67.67 7.00 385.31 2576.47
   22:11:26.298.17-May-2020 4937.01 5549.54 67.67 7.00 385.51 2576.47
   22:11:26.499.17-May-2020 4937.01 5537.92 67.67 7.00 385.71 2576.47
   22:11:26.699.17-May-2020 4937.01 5537.92 67.67 7.00 385.91 2576.47
   22:11:26.899.17-May-2020 4937.01 5538.63 67.67 7.00 386.11 2576.47
   22:11:27.100.17-May-2020 4937.01 5549.43 67.67 7.00 386.31 2576.47
   22:11:27.300.17-May-2020 4937.01 5544.20 67.67 7.00 386.51 2576.47
   22:11:27.500.17-May-2020 4937.01 5540.35 67.67 7.00 386.71 2576.47
   22:11:27.701.17-May-2020 4937.01 5548.30 67.67 7.00 386.91 2576.47
   22:11:27.901.17-May-2020 4937.01 5552.47 67.67 7.00 387.11 2576.47
   22:11:28.102.17-May-2020 4937.01 5539.80 67.67 7.00 387.31 2576.47
   22:11:28.302.17-May-2020 4937.01 5551.95 67.67 7.00 387.51 2576.47
   22:11:28.502.17-May-2020 4937.01 5544.11 67.67 7.00 387.71 2576.47
   22:11:28.703.17-May-2020 4937.01 5544.11 67.67 7.00 387.91 2576.47
   22:11:28.903.17-May-2020 4937.01 5540.56 67.67 7.00 388.11 2576.47
   22:11:29.103.17-May-2020 4937.01 5552.47 67.67 7.00 388.31 2576.47
   22:11:29.304.17-May-2020 4937.01 5541.13 67.67 7.00 388.51 2576.47
   22:11:29.504.17-May-2020 4937.01 5544.60 67.67 7.00 388.71 2576.47
   22:11:29.704.17-May-2020 4937.01 5544.60 67.67 7.00 388.91 2576.47
   22:11:29.905.17-May-2020 4937.01 5541.31 67.67 7.00 389.11 2576.47
   22:11:30.105.17-May-2020 4937.01 5540.20 67.67 7.00 389.31 2576.47
   22:11:30.306.17-May-2020 4937.01 5540.22 67.67 7.00 389.51 2576.47
   22:11:30.506.17-May-2020 4937.01 5540.03 67.66 7.00 389.71 2576.47
   22:11:30.706.17-May-2020 4937.01 5540.03 67.66 7.00 389.92 2576.47
   22:11:30.907.17-May-2020 4937.01 5537.40 67.66 7.00 390.12 2576.47
   22:11:31.107.17-May-2020 4937.01 5550.02 67.66 7.00 390.32 2576.47
   22:11:31.307.17-May-2020 4937.01 5536.74 67.66 7.00 390.52 2576.47
   22:11:31.508.17-May-2020 4937.01 5542.34 67.66 7.00 390.72 2576.47
   22:11:31.708.17-May-2020 4937.01 5538.10 67.66 7.00 390.92 2576.47
   22:11:31.909.17-May-2020 4937.01 5539.13 67.66 7.00 391.12 2576.47
   22:11:32.109.17-May-2020 4937.01 5537.90 67.66 7.00 391.32 2576.47
   22:11:32.309.17-May-2020 4937.01 5538.67 67.66 7.00 391.52 2576.47
