~Version Information
 VERS.                  2.0:   CWLS log ASCII Standard -VERSION 2.0
 WRAP.                   NO:   One line per depth step
~Well Information Block
#MNEM.UNIT     VALUE/NAME     DESCRIPTION
#---------     -----------    ---------------------------
 STRT.S             21:11:08 17-May-20: START TIME 21:11:08 17-May-20
 STOP.S             21:18:11 17-May-20: STOP TIME  21:18:11 17-May-20
 STEP.S                   0.00: STEP TIME
 NULL.                 -999.25: NULL VALUE
 UNIT.                     N/A:  LOGGING EQUIPMENT ID
 DCON.         Sperry Drilling:  DIRECTNL CONTR
 DOE .                     N/A:  DOE NUMBER
 JOBN.        AZ-XX-0906252240:  JOB TICKET NUMB
 MWDS.                     N/A:  MWD SHOP
 PROV.                    Baku:  PROVINCE
 STAT.                    Baku:  STATE NAME
 REGN.                   EESSA:  REGION
 BASE.              Azerbaijan:  LOGGING EQUIPMENT BASE LOCATION
 UWI .                     N/A:  UNIQUE WELL IDENTIFIER
 API .                     N/A:  API NUMBER
 MDS .        Operator Entered:  MAG DATA SOURCE
 WTYP.                Deviated:  WELL TYPE
 COMP.     BP Exploration (Caspian Sea) Ltd.:  COMPANY
 SRVC.          Turan Drilling:  CONTRACTOR
 WELL.           J23 (Slot 07):  WELL NAME
 CTRY.              Azerbaijan:  COUNTRY NAME
 FLD .                     ACG:  FIELD NAME
 PDAT.          Mean Sea Level:  PERMANENT DATUM
 RIG .             West Chirag:  RIG NAME
 SON .        AZ-XX-0906252240:  JOB NUMBER
 FTOP.          Formation Tops:  FORM TOPS DESC
 ILTD.               Lithology:  INTERP LTH DESC
 SVYD.                  Survey:  SURVEY DESC
 DMOD.             Drill Model:  DRILL MOD DESC
 HPTY.       Minimum Curvature:  HOLE POS TYPE
 NREF.                    Grid:  NORTH REFERENCE
 SPUD.               27-Aug-20:  SPUD DATE
 DATE.      00.00.00 19-May-20:  END TIME
 STIM.      03.00.00 25-Mar-20:  START TIME
 DMF .             Drill Floor:  DRILL MEAS FROM
 DFST.                        :  DIST FSL TEXT
 DFWT.                        :  DIST FWL TEXT
 CNTY.                        :  COUNTY
 LOC .                        :  LOCATION
 LMF .             Drill Floor:  LOG MEASURED FROM
 VSNS.m                   9.43:  VERT SEC N/S
 VSEW.m                  -8.91:  VERT SEC E/W
 AGAP.m                  43.00:  AIR GAP
 DEP .m                 354.17:  DEPTH
 APD .m                  43.00:  DEPTH ABOVE PD
 WDMS.m                 169.80:  WD ELEV
 EGL .m                   0.00:  GROUND ELEVATION
 EPD .m                   0.00:  ELEVATION
 AZTC.deg                 6.31:  AZM TOTAL CORR
 GRDC.deg                 0.14:  GRID CORRECTION
 MDEC.deg                 6.45:  MAGNETIC DECL
 MDIP.deg                59.56:  MAGNETIC DIP
 MFLD.nT              50295.00:  MAGNETIC FIELD
 GVFD.g                   1.00:  GRAVITY FIELD
 VSDR.deg               179.88:  VERT SEC DIRECT
 TDD .m                5150.01:  TOTAL DEPTH (DRILLER)
 SDEP.m                 864.00:  START DEPTH
 DFSL.m                   0.00:  DISTANCE FSL
 DFWL.m                   0.00:  DISTANCE FWL
 UTMY.m             4443793.85:  UTM Y
 UTMX.m              519005.06:  UTM X
 WHEW.m                  -8.91:  WELL HEAD E/W
 WHNS.m                   9.43:  WELL HEAD N/S
 LONG.deg                51.22:  LONGITUDE
 LATI.deg                40.13:  LATITUDE
 TVDS.m                  43.00:  TVDSS CORRECTN
 EKB .m                   0.00:  KB ELEVATION
 EDF .m                  43.00:  DF ELEVATION
 TDL .m                 363.00:  TOTAL DEPTH (LOGGER)
 MAGU.                 1850802:  MAGUTM CHECKSUM
 VSC .                       0:  VS TO CLOSURE
~Parameter Information Block
#MNEM.UNIT       Value        Description
#---------     -----------    ---------------------------
 AV  .mps                 2.30:  Ann Velocity 
 AVMX.mps                 4.40:  Max Ann Veloc 
 AZIF.deg               110.24:  Azm, Final 
 BHAT.        Rotary Steerable:  BHA Type 
 BREV.rev               331.00:  Rev Bit Total 
 BROT.°/30m               0.00:  Build Rotating 
 BS  .in                  8.50:  Bit Size 
 BSZ .in                  8.50:  Bit Size 
 BTPL.psig              585.00:  Bit Press Loss 
 CABU.                     Yes:  Customer Abuse 
 COMM.                     Ô‹p:  Run Comments 1 
 TCS .hr                122.75:  Time Ciculation Ended 
 CV  .mps                 2.67:  Crit Velocity 
 CVMX.mps                 3.56:  Max Crit Veloc 
 DD1 .          Rashad Habibov:  Direct Drillr 1 
 DD2 .         Rasim Ibrahimov:  Direct Drillr 2 
 DDSV.               Geo-Pilot:  DD Service 
 DEFF.%                  98.00:  % Det Eff 
 DLRX.°/30m               0.75:  Dogleg Rot Max 
 DLSO.°/30m               1.25:  Dogleg Oriented 
 DLSX.°/30m               2.06:  Dogleg Str Max 
 DRET.      07.45.00 17-May-20:  Drill End Time 
 DRST.      22.50.00 15-May-20:  Drill Start Tim 
 DTIM.hr                 20.75:  Time Drilling 
 EDEP.m                5124.01:  End Depth 
 ENG1.           Eldar Hajiyev:  Engineer 1 
 ENG2.        Marcelo Sandoval:  Engineer 2 
 ENG3.        Davud huseynzada:  Engineer 3 
 ENG4.          Ruslan Safarov:  Engineer 4 
 ETIM.      04.33.00 23-May-20:  End Time 
 FLOI.gpm               450.00:  Flow In 
 FLON.gpm               400.00:  Flow In Min 
 FLOS.cptm                0.00:  Fluid Loss 
 FLOX.gpm               500.00:  Flow In Max 
 FTRO.       Formation Presure:  FTWD Run Obj 
 HFLO.                      No:  High Flow 
 HPRE.                     Yes:  High Pressure 
 HTEM.                      No:  High Temp 
 HYDO.m                   1.80:  Hydro Offset 
 IFIN.deg                75.06:  Inc, Final 
 IMAX.deg                75.38:  Inc Max 
 IMIN.deg                74.69:  Inc Min 
 IMND.m                5027.38:  Inc Min Depth 
 IMXD.m                4771.61:  Inc Max Depth 
 JARR.                      No:  Jarring 
 LETM.      07.45.00 17-May-20:  Log End Time 
 LOST.hr                     0:  Lost Rig Time 
 LSTM.      22.50.00 15-May-20:  Log Start Time 
 MDCL.ppm             42000.00:  Mud Chlorides 
 MDES.     Inversion Oil/Synthetic:  Mud Desc 
 DFD .sg                  1.34:  Mud Density 
 MDMN.sg                  1.34:  Dens Mud Min 
 MDMX.sg                  1.34:  Dens Mud Max 
 MOIL.                       0:  Run Mud Oil % 
 MOWR.                   67:33:  Run Mud OWR 
 MSND.                       0:  Run Mud Sand % 
 MSOL.                     1.8:  Run Mud Solids% 
 DFV .spqt               76.00:  Mud Viscosity 
 MWOD.in                  6.75:  MWD Tool OD 
 MWSI.                      No:  Serv Intrp, MWD 
 OTIM.hr                228.19:  Time Operating 
 PCON.           Look Like New:  Pad Condition 
 PMAX.psia             6164.70:  Press Op, Max 
 PV  .cP                 28.00:  Mud PV 
 RUN .                     900:  Run Number 
 ROPA.m/hr               19.00:  ROP Avg 
 ROPN.m/hr               11.00:  ROP Min 
 ROPX.m/hr               36.00:  ROP Max 
 RPMA.rpm               120.00:  RPM Surface Avg 
 RPMN.rpm               120.00:  RPM Surface Min 
 RPMX.rpm               120.00:  RPM Surface Max 
 RRUN.                    L604:  Rig Run Number 
 RTIM.hr                  7.00:  Time Reaming 
 SAZI.deg               109.27:  Azm, Start 
 SDEP.m                4761.01:  Start Depth 
 SIDD.                      No:  Serv Intrp, DD 
 SINC.deg                75.38:  Inc, Start 
 SPPA.psig             3574.00:  SPP Avg 
 SPPN.psig             3475.00:  SPP Min 
 SPPX.psig             3791.00:  SPP Max 
 STIM.      07.08.48 13-May-20:  Start Time 
 SVCS.                 DD, MWD:  Services 
 SVER.                    9.20:  Sperry Version 
 TDAT.m                 363.00:  Tot Depth Attmp 
 TDDF.                      No:  Trip for DD 
 TDLG.m                 363.00:  Tot Depth Loggd 
 TFF .                      No:  Trip for Fail 
 TQAA.f-kp               20.00:  Torque Abs Avg 
 TQAN.f-kp               18.00:  Torque Abs Min 
 TQAX.f-kp               22.00:  Torque Abs Max 
 TRRT.°/30m              -0.35:  Turn Rotating 
 MRT .                    HCIM:  Maximum Recorded Temperature 
 TTMX.degC               92.16:  Max Tool Temp 
 VS01.                90586518:  Virtual Str1 SN 
 VS02.        AZ90560654Z1W1C6:  Virtual Str2 SN 
 VS03.           AZ90610398F11:  Virtual Str3 SN 
 VS04.                90514975:  Virtual Str4 SN 
 VS05.                90514972:  Virtual Str5 SN 
 VS06.     AZ90603282F11V7D1A6:  Virtual Str6 SN 
 WBMN.klb                 7.00:  WOB Min 
 WOBA.klb                12.00:  WOB Avg 
 WOBX.klb                14.00:  WOB Max 
 YP  .lhf2               32.00:  Yield Point 
~Curve Information Block
#MNEM.UNIT                 API CODE     Curve Description
#---------               -----------    ---------------------------
 TIME.HHMMSS            00 000 000 000:  GT Time & Date
 GTDEPTH.m              00 000 000 000:  GT Depth
 GTPQH.psia             00 000 000 000:  GT HR Quartz Pressure
 GTTQ.degC              00 000 000 000:  GT Quartz Temperature
 GTTN.NONE              00 000 000 000:  GT Test Number
 GTET.sec               00 000 000 000:  GT Elapsed Test Time
 GTTVD.m                00 000 000 000:  GT True Vertical Depth
#Other Information
#
#WARRANTY: Halliburton will use its best efforts to furnish customers with 
#accurate information and interpretations that are part of, and incident to, the services 
#provided.  However, Halliburton cannot and does not warrant the accuracy 
#or correctness of such information and interpretations.  Under no circumstances should any 
#such information or interpretation be relied upon as the sole basis for any drilling, 
#completion, production, or financial decision or any procedure involving any risk to the 
#safety of any drilling venture, drilling rig or its crew or any other third party.  The 
#Customer has full responsibility for all drilling, completion and production operation.  
#Halliburton makes no representations or warranties, either expressed or 
#implied, including, but not limited to, the implied warranties of merchantability or fitness 
#for a particular purpose, with respect to the services rendered.  In no event will 
#Halliburton be liable for failure to obtain any particular results or for 
#any damages, including, but not limited to, indirect, special or consequential damages, 
#resulting from the use of any information or interpretation provided by Halliburton.
#
~A           TIME           GTDEPTH  GTPQH  GTTQ  GTTN  GTET   GTTVD  
# ...
   21:15:21.154.17-May-2020 4958.01 2923.87 68.04 6.00 252.98 2581.85
   21:15:21.354.17-May-2020 4958.01 2923.87 68.04 6.00 253.18 2581.85
   21:15:21.554.17-May-2020 4958.01 2923.86 68.04 6.00 253.38 2581.85
   21:15:21.754.17-May-2020 4958.01 2923.98 68.04 6.00 253.58 2581.85
   21:15:21.954.17-May-2020 4958.01 2923.84 68.04 6.00 253.78 2581.85
   21:15:22.154.17-May-2020 4958.01 2923.87 68.04 6.00 253.98 2581.85
   21:15:22.354.17-May-2020 4958.01 2923.87 68.04 6.00 254.18 2581.85
   21:15:22.554.17-May-2020 4958.01 2923.89 68.04 6.00 254.38 2581.85
   21:15:22.754.17-May-2020 4958.01 2923.99 68.04 6.00 254.58 2581.85
   21:15:22.954.17-May-2020 4958.01 2923.78 68.04 6.00 254.78 2581.85
   21:15:23.154.17-May-2020 4958.01 2923.92 68.04 6.00 254.98 2581.85
   21:15:23.354.17-May-2020 4958.01 2923.92 68.04 6.00 255.18 2581.85
   21:15:23.554.17-May-2020 4958.01 2923.89 68.04 6.00 255.38 2581.85
   21:15:23.754.17-May-2020 4958.01 2923.87 68.04 6.00 255.58 2581.85
   21:15:23.954.17-May-2020 4958.01 2923.87 68.04 6.00 255.78 2581.85
   21:15:24.154.17-May-2020 4958.01 2923.88 68.04 6.00 255.98 2581.85
   21:15:24.354.17-May-2020 4958.01 2923.88 68.04 6.00 256.18 2581.85
   21:15:24.554.17-May-2020 4958.01 2923.88 68.04 6.00 256.38 2581.85
   21:15:24.754.17-May-2020 4958.01 2923.85 68.04 6.00 256.58 2581.85
   21:15:24.954.17-May-2020 4958.01 2923.89 68.04 6.00 256.78 2581.85
   21:15:25.154.17-May-2020 4958.01 2923.92 68.04 6.00 256.98 2581.85
   21:15:25.354.17-May-2020 4958.01 2923.92 68.04 6.00 257.18 2581.85
   21:15:25.554.17-May-2020 4958.01 2923.85 68.04 6.00 257.38 2581.85
   21:15:25.754.17-May-2020 4958.01 2923.88 68.04 6.00 257.58 2581.85
   21:15:25.954.17-May-2020 4958.01 2923.88 68.04 6.00 257.78 2581.85
   21:15:26.154.17-May-2020 4958.01 2923.87 68.04 6.00 257.98 2581.85
   21:15:26.354.17-May-2020 4958.01 2923.87 68.04 6.00 258.18 2581.85
   21:15:26.554.17-May-2020 4958.01 2923.88 68.04 6.00 258.38 2581.85
   21:15:26.754.17-May-2020 4958.01 2923.88 68.04 6.00 258.58 2581.85
   21:15:26.954.17-May-2020 4958.01 2923.99 68.04 6.00 258.78 2581.85
   21:15:27.154.17-May-2020 4958.01 2923.79 68.04 6.00 258.98 2581.85
   21:15:27.354.17-May-2020 4958.01 2923.91 68.04 6.00 259.18 2581.85
   21:15:27.554.17-May-2020 4958.01 2923.88 68.04 6.00 259.38 2581.85
   21:15:27.754.17-May-2020 4958.01 2924.00 68.04 6.00 259.58 2581.85
   21:15:27.954.17-May-2020 4958.01 2923.79 68.04 6.00 259.78 2581.85
   21:15:28.154.17-May-2020 4958.01 2923.89 68.04 6.00 259.98 2581.85
   21:15:28.354.17-May-2020 4958.01 2923.89 68.04 6.00 260.18 2581.85
   21:15:28.554.17-May-2020 4958.01 2915.05 68.04 6.00 260.38 2581.85
   21:15:28.754.17-May-2020 4958.01 2914.14 68.04 6.00 260.58 2581.85
   21:15:28.954.17-May-2020 4958.01 2914.52 68.04 6.00 260.78 2581.85
   21:15:29.154.17-May-2020 4958.01 2914.41 68.04 6.00 260.98 2581.85
   21:15:29.354.17-May-2020 4958.01 2914.41 68.04 6.00 261.18 2581.85
   21:15:29.554.17-May-2020 4958.01 2914.62 68.04 6.00 261.38 2581.85
   21:15:29.754.17-May-2020 4958.01 2914.04 68.04 6.00 261.58 2581.85
   21:15:29.954.17-May-2020 4958.01 2914.34 68.04 6.00 261.78 2581.85
   21:15:30.154.17-May-2020 4958.01 2914.26 68.04 6.00 261.98 2581.85
   21:15:30.354.17-May-2020 4958.01 2914.35 68.04 6.00 262.18 2581.85
   21:15:30.554.17-May-2020 4958.01 2914.29 68.04 6.00 262.38 2581.85
   21:15:30.754.17-May-2020 4958.01 2914.25 68.04 6.00 262.58 2581.85
   21:15:30.954.17-May-2020 4958.01 2914.31 68.04 6.00 262.78 2581.85
   21:15:31.153.17-May-2020 4958.01 2914.13 68.04 6.00 262.98 2581.85
   21:15:31.353.17-May-2020 4958.01 2914.13 68.04 6.00 263.18 2581.85
   21:15:31.553.17-May-2020 4958.01 2914.24 68.04 6.00 263.38 2581.85
   21:15:31.753.17-May-2020 4958.01 2914.23 68.04 6.00 263.58 2581.85
   21:15:31.953.17-May-2020 4958.01 2914.21 68.04 6.00 263.78 2581.85
   21:15:32.153.17-May-2020 4958.01 2914.37 68.04 6.00 263.98 2581.85
   21:15:32.353.17-May-2020 4958.01 2914.37 68.04 6.00 264.18 2581.85
   21:15:32.553.17-May-2020 4958.01 2914.34 68.04 6.00 264.38 2581.85
   21:15:32.753.17-May-2020 4958.01 2914.25 68.04 6.00 264.58 2581.85
   21:15:32.953.17-May-2020 4958.01 2914.22 68.04 6.00 264.78 2581.85
   21:15:33.153.17-May-2020 4958.01 2914.29 68.04 6.00 264.98 2581.85
   21:15:33.353.17-May-2020 4958.01 2914.29 68.04 6.00 265.18 2581.85
   21:15:33.553.17-May-2020 4958.01 2914.32 68.04 6.00 265.38 2581.85
   21:15:33.753.17-May-2020 4958.01 2914.53 68.04 6.00 265.58 2581.85
   21:15:33.953.17-May-2020 4958.01 2914.01 68.04 6.00 265.78 2581.85
   21:15:34.153.17-May-2020 4958.01 2914.40 68.04 6.00 265.98 2581.85
   21:15:34.353.17-May-2020 4958.01 2914.32 68.04 6.00 266.18 2581.85
   21:15:34.553.17-May-2020 4958.01 2914.48 68.04 6.00 266.38 2581.85
   21:15:34.753.17-May-2020 4958.01 2913.95 68.04 6.00 266.58 2581.85
   21:15:34.953.17-May-2020 4958.01 2914.37 68.04 6.00 266.78 2581.85
   21:15:35.153.17-May-2020 4958.01 2914.32 68.04 6.00 266.98 2581.85
   21:15:35.353.17-May-2020 4958.01 2914.32 68.04 6.00 267.18 2581.85
   21:15:35.553.17-May-2020 4958.01 2914.08 68.04 6.00 267.38 2581.85
   21:15:35.753.17-May-2020 4958.01 2914.31 68.04 6.00 267.58 2581.85
   21:15:35.953.17-May-2020 4958.01 2914.37 68.04 6.00 267.78 2581.85
   21:15:36.153.17-May-2020 4958.01 2914.18 68.04 6.00 267.98 2581.85
   21:15:36.353.17-May-2020 4958.01 2914.18 68.04 6.00 268.18 2581.85
   21:15:36.553.17-May-2020 4958.01 2913.91 68.04 6.00 268.38 2581.85
   21:15:36.753.17-May-2020 4958.01 2914.36 68.04 6.00 268.58 2581.85
   21:15:36.953.17-May-2020 4958.01 2914.29 68.04 6.00 268.78 2581.85
   21:15:37.153.17-May-2020 4958.01 2914.19 68.04 6.00 268.98 2581.85
   21:15:37.353.17-May-2020 4958.01 2914.19 68.04 6.00 269.18 2581.85
   21:15:37.553.17-May-2020 4958.01 2914.22 68.04 6.00 269.38 2581.85
   21:15:37.753.17-May-2020 4958.01 2914.28 68.04 6.00 269.58 2581.85
   21:15:37.953.17-May-2020 4958.01 2914.21 68.04 6.00 269.78 2581.85
   21:15:38.153.17-May-2020 4958.01 2914.20 68.04 6.00 269.98 2581.85
   21:15:38.353.17-May-2020 4958.01 2914.20 68.04 6.00 270.18 2581.85
   21:15:38.553.17-May-2020 4958.01 2922.31 68.04 6.00 270.38 2581.85
   21:15:38.753.17-May-2020 4958.01 2923.05 68.04 6.00 270.58 2581.85
   21:15:38.953.17-May-2020 4958.01 2923.55 68.04 6.00 270.78 2581.85
   21:15:39.153.17-May-2020 4958.01 2923.58 68.04 6.00 270.98 2581.85
   21:15:39.353.17-May-2020 4958.01 2923.58 68.04 6.00 271.18 2581.85
   21:15:39.553.17-May-2020 4958.01 2923.62 68.04 6.00 271.38 2581.85
   21:15:39.753.17-May-2020 4958.01 2923.62 68.04 6.00 271.58 2581.85
   21:15:39.953.17-May-2020 4958.01 2923.65 68.04 6.00 271.78 2581.85
   21:15:40.153.17-May-2020 4958.01 2923.65 68.04 6.00 271.98 2581.85
   21:15:40.353.17-May-2020 4958.01 2923.65 68.04 6.00 272.18 2581.85
   21:15:40.553.17-May-2020 4958.01 2923.75 68.04 6.00 272.38 2581.85
   21:15:40.753.17-May-2020 4958.01 2923.69 68.04 6.00 272.58 2581.85
   21:15:40.953.17-May-2020 4958.01 2923.77 68.04 6.00 272.78 2581.85
   21:15:41.153.17-May-2020 4958.01 2923.75 68.04 6.00 272.98 2581.85
   21:15:41.353.17-May-2020 4958.01 2923.75 68.04 6.00 273.18 2581.85
   21:15:41.553.17-May-2020 4958.01 2923.72 68.04 6.00 273.38 2581.85
   21:15:41.753.17-May-2020 4958.01 2923.78 68.03 6.00 273.58 2581.85
   21:15:41.953.17-May-2020 4958.01 2923.78 68.03 6.00 273.78 2581.85
   21:15:42.153.17-May-2020 4958.01 2923.87 68.03 6.00 273.98 2581.85
   21:15:42.353.17-May-2020 4958.01 2923.87 68.03 6.00 274.18 2581.85
   21:15:42.553.17-May-2020 4958.01 2923.80 68.03 6.00 274.38 2581.85
   21:15:42.753.17-May-2020 4958.01 2923.78 68.03 6.00 274.58 2581.85
   21:15:42.953.17-May-2020 4958.01 2923.88 68.03 6.00 274.78 2581.85
   21:15:43.153.17-May-2020 4958.01 2923.70 68.03 6.00 274.98 2581.85
   21:15:43.353.17-May-2020 4958.01 2923.70 68.03 6.00 275.18 2581.85
   21:15:43.553.17-May-2020 4958.01 2923.79 68.03 6.00 275.38 2581.85
   21:15:43.753.17-May-2020 4958.01 2923.78 68.03 6.00 275.58 2581.85
   21:15:43.953.17-May-2020 4958.01 2923.80 68.03 6.00 275.78 2581.85
