~Version Information
 VERS.                  2.0:   CWLS log ASCII Standard -VERSION 2.0
 WRAP.                   NO:   One line per depth step
~Well Information Block
#MNEM.UNIT     VALUE/NAME     DESCRIPTION
#---------     -----------    ---------------------------
 STRT.S             21:13:20 18-May-20: START TIME 21:13:20 18-May-20
 STOP.S             21:20:25 18-May-20: STOP TIME  21:20:25 18-May-20
 STEP.S                   0.00: STEP TIME
 NULL.                 -999.25: NULL VALUE
 UNIT.                     N/A:  LOGGING EQUIPMENT ID
 DCON.         Sperry Drilling:  DIRECTNL CONTR
 DOE .                     N/A:  DOE NUMBER
 JOBN.        AZ-XX-0906252240:  JOB TICKET NUMB
 MWDS.                     N/A:  MWD SHOP
 PROV.                    Baku:  PROVINCE
 STAT.                    Baku:  STATE NAME
 REGN.                   EESSA:  REGION
 BASE.              Azerbaijan:  LOGGING EQUIPMENT BASE LOCATION
 UWI .                     N/A:  UNIQUE WELL IDENTIFIER
 API .                     N/A:  API NUMBER
 MDS .        Operator Entered:  MAG DATA SOURCE
 WTYP.                Deviated:  WELL TYPE
 COMP.     BP Exploration (Caspian Sea) Ltd.:  COMPANY
 SRVC.          Turan Drilling:  CONTRACTOR
 WELL.           J23 (Slot 07):  WELL NAME
 CTRY.              Azerbaijan:  COUNTRY NAME
 FLD .                     ACG:  FIELD NAME
 PDAT.          Mean Sea Level:  PERMANENT DATUM
 RIG .             West Chirag:  RIG NAME
 SON .        AZ-XX-0906252240:  JOB NUMBER
 FTOP.          Formation Tops:  FORM TOPS DESC
 ILTD.               Lithology:  INTERP LTH DESC
 SVYD.                  Survey:  SURVEY DESC
 DMOD.             Drill Model:  DRILL MOD DESC
 HPTY.       Minimum Curvature:  HOLE POS TYPE
 NREF.                    Grid:  NORTH REFERENCE
 SPUD.               27-Aug-20:  SPUD DATE
 DATE.      00.00.00 19-May-20:  END TIME
 STIM.      03.00.00 25-Mar-20:  START TIME
 DMF .             Drill Floor:  DRILL MEAS FROM
 DFST.                        :  DIST FSL TEXT
 DFWT.                        :  DIST FWL TEXT
 CNTY.                        :  COUNTY
 LOC .                        :  LOCATION
 LMF .             Drill Floor:  LOG MEASURED FROM
 VSNS.m                   9.43:  VERT SEC N/S
 VSEW.m                  -8.91:  VERT SEC E/W
 AGAP.m                  43.00:  AIR GAP
 DEP .m                 354.17:  DEPTH
 APD .m                  43.00:  DEPTH ABOVE PD
 WDMS.m                 169.80:  WD ELEV
 EGL .m                   0.00:  GROUND ELEVATION
 EPD .m                   0.00:  ELEVATION
 AZTC.deg                 6.31:  AZM TOTAL CORR
 GRDC.deg                 0.14:  GRID CORRECTION
 MDEC.deg                 6.45:  MAGNETIC DECL
 MDIP.deg                59.56:  MAGNETIC DIP
 MFLD.nT              50295.00:  MAGNETIC FIELD
 GVFD.g                   1.00:  GRAVITY FIELD
 VSDR.deg               179.88:  VERT SEC DIRECT
 TDD .m                5150.01:  TOTAL DEPTH (DRILLER)
 SDEP.m                 864.00:  START DEPTH
 DFSL.m                   0.00:  DISTANCE FSL
 DFWL.m                   0.00:  DISTANCE FWL
 UTMY.m             4443793.85:  UTM Y
 UTMX.m              519005.06:  UTM X
 WHEW.m                  -8.91:  WELL HEAD E/W
 WHNS.m                   9.43:  WELL HEAD N/S
 LONG.deg                51.22:  LONGITUDE
 LATI.deg                40.13:  LATITUDE
 TVDS.m                  43.00:  TVDSS CORRECTN
 EKB .m                   0.00:  KB ELEVATION
 EDF .m                  43.00:  DF ELEVATION
 TDL .m                 363.00:  TOTAL DEPTH (LOGGER)
 MAGU.                 1850802:  MAGUTM CHECKSUM
 VSC .                       0:  VS TO CLOSURE
~Parameter Information Block
#MNEM.UNIT       Value        Description
#---------     -----------    ---------------------------
 AV  .mps                 2.30:  Ann Velocity 
 AVMX.mps                 4.40:  Max Ann Veloc 
 AZIF.deg               110.24:  Azm, Final 
 BHAT.        Rotary Steerable:  BHA Type 
 BREV.rev               331.00:  Rev Bit Total 
 BROT.°/30m               0.00:  Build Rotating 
 BS  .in                  8.50:  Bit Size 
 BSZ .in                  8.50:  Bit Size 
 BTPL.psig              585.00:  Bit Press Loss 
 CABU.                     Yes:  Customer Abuse 
 TCS .hr                122.75:  Time Ciculation Ended 
 CV  .mps                 2.67:  Crit Velocity 
 CVMX.mps                 3.56:  Max Crit Veloc 
 DD1 .          Rashad Habibov:  Direct Drillr 1 
 DD2 .         Rasim Ibrahimov:  Direct Drillr 2 
 DDSV.               Geo-Pilot:  DD Service 
 DEFF.%                  98.00:  % Det Eff 
 DLRX.°/30m               0.75:  Dogleg Rot Max 
 DLSO.°/30m               1.25:  Dogleg Oriented 
 DLSX.°/30m               2.06:  Dogleg Str Max 
 DRET.      07.45.00 17-May-20:  Drill End Time 
 DRST.      22.50.00 15-May-20:  Drill Start Tim 
 DTIM.hr                 20.75:  Time Drilling 
 EDEP.m                5124.01:  End Depth 
 ENG1.           Eldar Hajiyev:  Engineer 1 
 ENG2.        Marcelo Sandoval:  Engineer 2 
 ENG3.        Davud huseynzada:  Engineer 3 
 ENG4.          Ruslan Safarov:  Engineer 4 
 ETIM.      04.33.00 23-May-20:  End Time 
 FLOI.gpm               450.00:  Flow In 
 FLON.gpm               400.00:  Flow In Min 
 FLOS.cptm                0.00:  Fluid Loss 
 FLOX.gpm               500.00:  Flow In Max 
 FTRO.       Formation Presure:  FTWD Run Obj 
 HFLO.                      No:  High Flow 
 HPRE.                     Yes:  High Pressure 
 HTEM.                      No:  High Temp 
 HYDO.m                   1.80:  Hydro Offset 
 IFIN.deg                75.06:  Inc, Final 
 IMAX.deg                75.38:  Inc Max 
 IMIN.deg                74.69:  Inc Min 
 IMND.m                5027.38:  Inc Min Depth 
 IMXD.m                4771.61:  Inc Max Depth 
 JARR.                      No:  Jarring 
 LETM.      07.45.00 17-May-20:  Log End Time 
 LOST.hr                     0:  Lost Rig Time 
 LSTM.      22.50.00 15-May-20:  Log Start Time 
 MDCL.ppm             42000.00:  Mud Chlorides 
 MDES.     Inversion Oil/Synthetic:  Mud Desc 
 DFD .sg                  1.34:  Mud Density 
 MDMN.sg                  1.34:  Dens Mud Min 
 MDMX.sg                  1.34:  Dens Mud Max 
 MOIL.                       0:  Run Mud Oil % 
 MOWR.                   67:33:  Run Mud OWR 
 MSND.                       0:  Run Mud Sand % 
 MSOL.                     1.8:  Run Mud Solids% 
 DFV .spqt               76.00:  Mud Viscosity 
 MWOD.in                  6.75:  MWD Tool OD 
 MWSI.                      No:  Serv Intrp, MWD 
 OTIM.hr                228.19:  Time Operating 
 PCON.           Look Like New:  Pad Condition 
 PMAX.psia             6164.70:  Press Op, Max 
 PV  .cP                 28.00:  Mud PV 
 RUN .                     900:  Run Number 
 ROPA.m/hr               19.00:  ROP Avg 
 ROPN.m/hr               11.00:  ROP Min 
 ROPX.m/hr               36.00:  ROP Max 
 RPMA.rpm               120.00:  RPM Surface Avg 
 RPMN.rpm               120.00:  RPM Surface Min 
 RPMX.rpm               120.00:  RPM Surface Max 
 RRUN.                    L604:  Rig Run Number 
 RTIM.hr                  7.00:  Time Reaming 
 SAZI.deg               109.27:  Azm, Start 
 SDEP.m                4761.01:  Start Depth 
 SIDD.                      No:  Serv Intrp, DD 
 SINC.deg                75.38:  Inc, Start 
 SPPA.psig             3574.00:  SPP Avg 
 SPPN.psig             3475.00:  SPP Min 
 SPPX.psig             3791.00:  SPP Max 
 STIM.      07.08.48 13-May-20:  Start Time 
 SVCS.                 DD, MWD:  Services 
 SVER.                    9.20:  Sperry Version 
 TDAT.m                 363.00:  Tot Depth Attmp 
 TDDF.                      No:  Trip for DD 
 TDLG.m                 363.00:  Tot Depth Loggd 
 TFF .                      No:  Trip for Fail 
 TQAA.f-kp               20.00:  Torque Abs Avg 
 TQAN.f-kp               18.00:  Torque Abs Min 
 TQAX.f-kp               22.00:  Torque Abs Max 
 TRRT.°/30m              -0.35:  Turn Rotating 
 MRT .                    HCIM:  Maximum Recorded Temperature 
 TTMX.degC               92.16:  Max Tool Temp 
 VS01.                90586518:  Virtual Str1 SN 
 VS02.        AZ90560654Z1W1C6:  Virtual Str2 SN 
 VS03.           AZ90610398F11:  Virtual Str3 SN 
 VS04.                90514975:  Virtual Str4 SN 
 VS05.                90514972:  Virtual Str5 SN 
 VS06.     AZ90603282F11V7D1A6:  Virtual Str6 SN 
 WBMN.klb                 7.00:  WOB Min 
 WOBA.klb                12.00:  WOB Avg 
 WOBX.klb                14.00:  WOB Max 
 YP  .lhf2               32.00:  Yield Point 
~Curve Information Block
#MNEM.UNIT                 API CODE     Curve Description
#---------               -----------    ---------------------------
 TIME.HHMMSS            00 000 000 000:  GT Time & Date
 GTDEPTH.m              00 000 000 000:  GT Depth
 GTPQH.psia             00 000 000 000:  GT HR Quartz Pressure
 GTTQ.degC              00 000 000 000:  GT Quartz Temperature
 GTTN.NONE              00 000 000 000:  GT Test Number
 GTET.sec               00 000 000 000:  GT Elapsed Test Time
 GTTVD.m                00 000 000 000:  GT True Vertical Depth
#Other Information
#
#WARRANTY: Halliburton will use its best efforts to furnish customers with 
#accurate information and interpretations that are part of, and incident to, the services 
#provided.  However, Halliburton cannot and does not warrant the accuracy 
#or correctness of such information and interpretations.  Under no circumstances should any 
#such information or interpretation be relied upon as the sole basis for any drilling, 
#completion, production, or financial decision or any procedure involving any risk to the 
#safety of any drilling venture, drilling rig or its crew or any other third party.  The 
#Customer has full responsibility for all drilling, completion and production operation.  
#Halliburton makes no representations or warranties, either expressed or 
#implied, including, but not limited to, the implied warranties of merchantability or fitness 
#for a particular purpose, with respect to the services rendered.  In no event will 
#Halliburton be liable for failure to obtain any particular results or for 
#any damages, including, but not limited to, indirect, special or consequential damages, 
#resulting from the use of any information or interpretation provided by Halliburton.
#
~A           TIME           GTDEPTH  GTPQH  GTTQ  GTTN   GTET   GTTVD  
# ...
   21:17:29.131.18-May-2020 4766.01 5484.37 60.62 14.00 248.67 2532.29
   21:17:29.331.18-May-2020 4766.01 5477.62 60.62 14.00 248.87 2532.29
   21:17:29.532.18-May-2020 4766.01 5478.11 60.62 14.00 249.07 2532.29
   21:17:29.732.18-May-2020 4766.01 5478.11 60.62 14.00 249.27 2532.29
   21:17:29.932.18-May-2020 4766.01 5479.23 60.62 14.00 249.47 2532.29
   21:17:30.132.18-May-2020 4766.01 5479.82 60.62 14.00 249.67 2532.29
   21:17:30.332.18-May-2020 4766.01 5484.90 60.62 14.00 249.87 2532.29
   21:17:30.532.18-May-2020 4766.01 5476.47 60.62 14.00 250.07 2532.29
   21:17:30.732.18-May-2020 4766.01 5477.42 60.62 14.00 250.27 2532.29
   21:17:30.932.18-May-2020 4766.01 5478.29 60.62 14.00 250.47 2532.29
   21:17:31.132.18-May-2020 4766.01 5483.44 60.62 14.00 250.67 2532.29
   21:17:31.332.18-May-2020 4766.01 5475.36 60.62 14.00 250.87 2532.29
   21:17:31.532.18-May-2020 4766.01 5475.26 60.62 14.00 251.07 2532.29
   21:17:31.732.18-May-2020 4766.01 5475.26 60.62 14.00 251.27 2532.29
   21:17:31.932.18-May-2020 4766.01 5475.46 60.62 14.00 251.47 2532.29
   21:17:32.132.18-May-2020 4766.01 5472.56 60.62 14.00 251.67 2532.29
   21:17:32.332.18-May-2020 4766.01 5472.71 60.62 14.00 251.87 2532.29
   21:17:32.532.18-May-2020 4766.01 5485.50 60.62 14.00 252.07 2532.29
   21:17:32.732.18-May-2020 4766.01 5485.50 60.62 14.00 252.27 2532.29
   21:17:32.932.18-May-2020 4766.01 5473.68 60.62 14.00 252.47 2532.29
   21:17:33.132.18-May-2020 4766.01 5480.00 60.62 14.00 252.67 2532.29
   21:17:33.333.18-May-2020 4766.01 5485.85 60.62 14.00 252.87 2532.29
   21:17:33.533.18-May-2020 4766.01 5473.03 60.62 14.00 253.07 2532.29
   21:17:33.733.18-May-2020 4766.01 5473.03 60.62 14.00 253.27 2532.29
   21:17:33.933.18-May-2020 4766.01 5478.35 60.62 14.00 253.47 2532.29
   21:17:34.133.18-May-2020 4766.01 5495.51 60.62 14.00 253.67 2532.29
   21:17:34.333.18-May-2020 4766.01 5470.39 60.62 14.00 253.87 2532.29
   21:17:34.533.18-May-2020 4766.01 5474.42 60.62 14.00 254.07 2532.29
   21:17:34.733.18-May-2020 4766.01 5476.15 60.62 14.00 254.27 2532.29
   21:17:34.933.18-May-2020 4766.01 5495.65 60.62 14.00 254.47 2532.29
   21:17:35.133.18-May-2020 4766.01 5473.40 60.62 14.00 254.67 2532.29
   21:17:35.333.18-May-2020 4766.01 5474.61 60.62 14.00 254.87 2532.29
   21:17:35.533.18-May-2020 4766.01 5475.62 60.62 14.00 255.07 2532.29
   21:17:35.733.18-May-2020 4766.01 5475.62 60.62 14.00 255.27 2532.29
   21:17:35.933.18-May-2020 4766.01 5474.85 60.62 14.00 255.47 2532.29
   21:17:36.133.18-May-2020 4766.01 5473.76 60.62 14.00 255.67 2532.29
   21:17:36.333.18-May-2020 4766.01 5475.02 60.62 14.00 255.87 2532.29
   21:17:36.533.18-May-2020 4766.01 5476.35 60.62 14.00 256.07 2532.29
   21:17:36.733.18-May-2020 4766.01 5476.35 60.62 14.00 256.27 2532.29
   21:17:36.934.18-May-2020 4766.01 5486.01 60.62 14.00 256.47 2532.29
   21:17:37.134.18-May-2020 4766.01 5471.24 60.62 14.00 256.67 2532.29
   21:17:37.334.18-May-2020 4766.01 5474.40 60.62 14.00 256.87 2532.29
   21:17:37.534.18-May-2020 4766.01 5472.40 60.62 14.00 257.07 2532.29
   21:17:37.734.18-May-2020 4766.01 5472.40 60.62 14.00 257.27 2532.29
   21:17:37.934.18-May-2020 4766.01 5473.57 60.62 14.00 257.47 2532.29
   21:17:38.134.18-May-2020 4766.01 5473.05 60.62 14.00 257.67 2532.29
   21:17:38.334.18-May-2020 4766.01 5473.97 60.62 14.00 257.87 2532.29
   21:17:38.534.18-May-2020 4766.01 5475.10 60.62 14.00 258.07 2532.29
   21:17:38.734.18-May-2020 4766.01 5473.21 60.62 14.00 258.27 2532.29
   21:17:38.934.18-May-2020 4766.01 5472.40 60.62 14.00 258.47 2532.29
   21:17:39.134.18-May-2020 4766.01 5486.54 60.62 14.00 258.67 2532.29
   21:17:39.334.18-May-2020 4766.01 5470.09 60.62 14.00 258.87 2532.29
   21:17:39.534.18-May-2020 4766.01 5473.07 60.62 14.00 259.07 2532.29
   21:17:39.734.18-May-2020 4766.01 5473.07 60.62 14.00 259.27 2532.29
   21:17:39.934.18-May-2020 4766.01 5494.70 60.62 14.00 259.47 2532.29
   21:17:40.134.18-May-2020 4766.01 5472.41 60.62 14.00 259.67 2532.29
   21:17:40.334.18-May-2020 4766.01 5473.92 60.62 14.00 259.87 2532.29
   21:17:40.534.18-May-2020 4766.01 5473.06 60.62 14.00 260.07 2532.29
   21:17:40.735.18-May-2020 4766.01 5473.06 60.62 14.00 260.27 2532.29
   21:17:40.935.18-May-2020 4766.01 5474.27 60.62 14.00 260.47 2532.29
   21:17:41.135.18-May-2020 4766.01 5473.14 60.62 14.00 260.67 2532.29
   21:17:41.335.18-May-2020 4766.01 5473.77 60.62 14.00 260.87 2532.29
   21:17:41.535.18-May-2020 4766.01 5496.35 60.62 14.00 261.07 2532.29
   21:17:41.735.18-May-2020 4766.01 5496.35 60.62 14.00 261.27 2532.29
   21:17:41.935.18-May-2020 4766.01 5472.56 60.62 14.00 261.47 2532.29
   21:17:42.135.18-May-2020 4766.01 5472.34 60.62 14.00 261.67 2532.29
   21:17:42.335.18-May-2020 4766.01 5486.00 60.62 14.00 261.87 2532.29
   21:17:42.535.18-May-2020 4766.01 5474.49 60.62 14.00 262.07 2532.29
   21:17:42.735.18-May-2020 4766.01 5471.28 60.62 14.00 262.27 2532.29
   21:17:42.935.18-May-2020 4766.01 5472.53 60.62 14.00 262.47 2532.29
   21:17:43.135.18-May-2020 4766.01 5475.13 60.62 14.00 262.67 2532.29
   21:17:43.335.18-May-2020 4766.01 5471.94 60.62 14.00 262.87 2532.29
   21:17:43.535.18-May-2020 4766.01 5483.81 60.62 14.00 263.07 2532.29
   21:17:43.735.18-May-2020 4766.01 5483.81 60.62 14.00 263.27 2532.29
   21:17:43.935.18-May-2020 4766.01 5470.79 60.62 14.00 263.47 2532.29
   21:17:44.135.18-May-2020 4766.01 5468.07 60.62 14.00 263.67 2532.29
   21:17:44.335.18-May-2020 4766.01 5473.87 60.62 14.00 263.87 2532.29
   21:17:44.536.18-May-2020 4766.01 5455.20 60.62 14.00 264.07 2532.29
   21:17:44.736.18-May-2020 4766.01 5455.20 60.62 14.00 264.27 2532.29
   21:17:44.936.18-May-2020 4766.01 5447.99 60.62 14.00 264.47 2532.29
   21:17:45.136.18-May-2020 4766.01 5431.57 60.62 14.00 264.67 2532.29
   21:17:45.336.18-May-2020 4766.01 5420.59 60.62 14.00 264.87 2532.29
   21:17:45.536.18-May-2020 4766.01 5417.99 60.62 14.00 265.07 2532.29
   21:17:45.736.18-May-2020 4766.01 5417.99 60.62 14.00 265.27 2532.29
   21:17:45.936.18-May-2020 4766.01 5459.15 60.62 14.00 265.47 2532.29
   21:17:46.136.18-May-2020 4766.01 5432.23 60.62 14.00 265.67 2532.29
   21:17:46.336.18-May-2020 4766.01 5458.36 60.62 14.00 265.87 2532.29
   21:17:46.536.18-May-2020 4766.01 5472.90 60.62 14.00 266.07 2532.29
   21:17:46.736.18-May-2020 4766.01 5420.12 60.62 14.00 266.27 2532.29
   21:17:46.936.18-May-2020 4766.01 5446.07 60.62 14.00 266.47 2532.29
   21:17:47.136.18-May-2020 4766.01 5421.15 60.62 14.00 266.67 2532.29
   21:17:47.336.18-May-2020 4766.01 5420.07 60.62 14.00 266.87 2532.29
   21:17:47.536.18-May-2020 4766.01 5413.10 60.62 14.00 267.07 2532.29
   21:17:47.736.18-May-2020 4766.01 5413.10 60.62 14.00 267.27 2532.29
   21:17:47.936.18-May-2020 4766.01 5467.20 60.62 14.00 267.47 2532.29
   21:17:48.136.18-May-2020 4766.01 5411.98 60.62 14.00 267.67 2532.29
   21:17:48.337.18-May-2020 4766.01 5400.20 60.62 14.00 267.87 2532.29
   21:17:48.537.18-May-2020 4766.01 5424.58 60.62 14.00 268.07 2532.29
   21:17:48.737.18-May-2020 4766.01 5424.58 60.62 14.00 268.27 2532.29
   21:17:48.937.18-May-2020 4766.01 5418.99 60.62 14.00 268.47 2532.29
   21:17:49.137.18-May-2020 4766.01 5456.59 60.62 14.00 268.67 2532.29
   21:17:49.337.18-May-2020 4766.01 5436.12 60.62 14.00 268.87 2532.29
   21:17:49.537.18-May-2020 4766.01 5388.97 60.62 14.00 269.07 2532.29
   21:17:49.737.18-May-2020 4766.01 5388.97 60.62 14.00 269.27 2532.29
   21:17:49.937.18-May-2020 4766.01 5434.68 60.62 14.00 269.47 2532.29
   21:17:50.137.18-May-2020 4766.01 5402.75 60.62 14.00 269.67 2532.29
   21:17:50.337.18-May-2020 4766.01 5461.27 60.62 14.00 269.87 2532.29
   21:17:50.537.18-May-2020 4766.01 5457.15 60.62 14.00 270.07 2532.29
   21:17:50.737.18-May-2020 4766.01 5472.06 60.62 14.00 270.27 2532.29
   21:17:50.937.18-May-2020 4766.01 5473.55 60.62 14.00 270.47 2532.29
   21:17:51.137.18-May-2020 4766.01 5465.65 60.62 14.00 270.67 2532.29
   21:17:51.337.18-May-2020 4766.01 5447.19 60.62 14.00 270.87 2532.29
   21:17:51.537.18-May-2020 4766.01 5452.15 60.62 14.00 271.07 2532.29
