~Version Information
 VERS.                  2.0:   CWLS log ASCII Standard -VERSION 2.0
 WRAP.                   NO:   One line per depth step
~Well Information Block
#MNEM.UNIT     VALUE/NAME     DESCRIPTION
#---------     -----------    ---------------------------
 STRT.S             01:27:41 18-May-20: START TIME 01:27:41 18-May-20
 STOP.S             01:34:42 18-May-20: STOP TIME  01:34:42 18-May-20
 STEP.S                   0.00: STEP TIME
 NULL.                 -999.25: NULL VALUE
 UNIT.                     N/A:  LOGGING EQUIPMENT ID
 DCON.         Sperry Drilling:  DIRECTNL CONTR
 DOE .                     N/A:  DOE NUMBER
 JOBN.        AZ-XX-0906252240:  JOB TICKET NUMB
 MWDS.                     N/A:  MWD SHOP
 PROV.                    Baku:  PROVINCE
 STAT.                    Baku:  STATE NAME
 REGN.                   EESSA:  REGION
 BASE.              Azerbaijan:  LOGGING EQUIPMENT BASE LOCATION
 UWI .                     N/A:  UNIQUE WELL IDENTIFIER
 API .                     N/A:  API NUMBER
 MDS .        Operator Entered:  MAG DATA SOURCE
 WTYP.                Deviated:  WELL TYPE
 COMP.     BP Exploration (Caspian Sea) Ltd.:  COMPANY
 SRVC.          Turan Drilling:  CONTRACTOR
 WELL.           J23 (Slot 07):  WELL NAME
 CTRY.              Azerbaijan:  COUNTRY NAME
 FLD .                     ACG:  FIELD NAME
 PDAT.          Mean Sea Level:  PERMANENT DATUM
 RIG .             West Chirag:  RIG NAME
 SON .        AZ-XX-0906252240:  JOB NUMBER
 FTOP.          Formation Tops:  FORM TOPS DESC
 ILTD.               Lithology:  INTERP LTH DESC
 SVYD.                  Survey:  SURVEY DESC
 DMOD.             Drill Model:  DRILL MOD DESC
 HPTY.       Minimum Curvature:  HOLE POS TYPE
 NREF.                    Grid:  NORTH REFERENCE
 SPUD.               27-Aug-20:  SPUD DATE
 DATE.      00.00.00 19-May-20:  END TIME
 STIM.      03.00.00 25-Mar-20:  START TIME
 DMF .             Drill Floor:  DRILL MEAS FROM
 DFST.                        :  DIST FSL TEXT
 DFWT.                        :  DIST FWL TEXT
 CNTY.                        :  COUNTY
 LOC .                        :  LOCATION
 LMF .             Drill Floor:  LOG MEASURED FROM
 VSNS.m                   9.43:  VERT SEC N/S
 VSEW.m                  -8.91:  VERT SEC E/W
 AGAP.m                  43.00:  AIR GAP
 DEP .m                 354.17:  DEPTH
 APD .m                  43.00:  DEPTH ABOVE PD
 WDMS.m                 169.80:  WD ELEV
 EGL .m                   0.00:  GROUND ELEVATION
 EPD .m                   0.00:  ELEVATION
 AZTC.deg                 6.31:  AZM TOTAL CORR
 GRDC.deg                 0.14:  GRID CORRECTION
 MDEC.deg                 6.45:  MAGNETIC DECL
 MDIP.deg                59.56:  MAGNETIC DIP
 MFLD.nT              50295.00:  MAGNETIC FIELD
 GVFD.g                   1.00:  GRAVITY FIELD
 VSDR.deg               179.88:  VERT SEC DIRECT
 TDD .m                5150.01:  TOTAL DEPTH (DRILLER)
 SDEP.m                 864.00:  START DEPTH
 DFSL.m                   0.00:  DISTANCE FSL
 DFWL.m                   0.00:  DISTANCE FWL
 UTMY.m             4443793.85:  UTM Y
 UTMX.m              519005.06:  UTM X
 WHEW.m                  -8.91:  WELL HEAD E/W
 WHNS.m                   9.43:  WELL HEAD N/S
 LONG.deg                51.22:  LONGITUDE
 LATI.deg                40.13:  LATITUDE
 TVDS.m                  43.00:  TVDSS CORRECTN
 EKB .m                   0.00:  KB ELEVATION
 EDF .m                  43.00:  DF ELEVATION
 TDL .m                 363.00:  TOTAL DEPTH (LOGGER)
 MAGU.                 1850802:  MAGUTM CHECKSUM
 VSC .                       0:  VS TO CLOSURE
~Parameter Information Block
#MNEM.UNIT       Value        Description
#---------     -----------    ---------------------------
 AV  .mps                 2.30:  Ann Velocity 
 AVMX.mps                 4.40:  Max Ann Veloc 
 AZIF.deg               110.24:  Azm, Final 
 BHAT.        Rotary Steerable:  BHA Type 
 BREV.rev               331.00:  Rev Bit Total 
 BROT.°/30m               0.00:  Build Rotating 
 BS  .in                  8.50:  Bit Size 
 BSZ .in                  8.50:  Bit Size 
 BTPL.psig              585.00:  Bit Press Loss 
 CABU.                     Yes:  Customer Abuse 
 COMM.                     tPr:  Run Comments 1 
 TCS .hr                122.75:  Time Ciculation Ended 
 CV  .mps                 2.67:  Crit Velocity 
 CVMX.mps                 3.56:  Max Crit Veloc 
 DD1 .          Rashad Habibov:  Direct Drillr 1 
 DD2 .         Rasim Ibrahimov:  Direct Drillr 2 
 DDSV.               Geo-Pilot:  DD Service 
 DEFF.%                  98.00:  % Det Eff 
 DLRX.°/30m               0.75:  Dogleg Rot Max 
 DLSO.°/30m               1.25:  Dogleg Oriented 
 DLSX.°/30m               2.06:  Dogleg Str Max 
 DRET.      07.45.00 17-May-20:  Drill End Time 
 DRST.      22.50.00 15-May-20:  Drill Start Tim 
 DTIM.hr                 20.75:  Time Drilling 
 EDEP.m                5124.01:  End Depth 
 ENG1.           Eldar Hajiyev:  Engineer 1 
 ENG2.        Marcelo Sandoval:  Engineer 2 
 ENG3.        Davud huseynzada:  Engineer 3 
 ENG4.          Ruslan Safarov:  Engineer 4 
 ETIM.      04.33.00 23-May-20:  End Time 
 FLOI.gpm               450.00:  Flow In 
 FLON.gpm               400.00:  Flow In Min 
 FLOS.cptm                0.00:  Fluid Loss 
 FLOX.gpm               500.00:  Flow In Max 
 FTRO.       Formation Presure:  FTWD Run Obj 
 HFLO.                      No:  High Flow 
 HPRE.                     Yes:  High Pressure 
 HTEM.                      No:  High Temp 
 HYDO.m                   1.80:  Hydro Offset 
 IFIN.deg                75.06:  Inc, Final 
 IMAX.deg                75.38:  Inc Max 
 IMIN.deg                74.69:  Inc Min 
 IMND.m                5027.38:  Inc Min Depth 
 IMXD.m                4771.61:  Inc Max Depth 
 JARR.                      No:  Jarring 
 LETM.      07.45.00 17-May-20:  Log End Time 
 LOST.hr                     0:  Lost Rig Time 
 LSTM.      22.50.00 15-May-20:  Log Start Time 
 MDCL.ppm             42000.00:  Mud Chlorides 
 MDES.     Inversion Oil/Synthetic:  Mud Desc 
 DFD .sg                  1.34:  Mud Density 
 MDMN.sg                  1.34:  Dens Mud Min 
 MDMX.sg                  1.34:  Dens Mud Max 
 MOIL.                       0:  Run Mud Oil % 
 MOWR.                   67:33:  Run Mud OWR 
 MSND.                       0:  Run Mud Sand % 
 MSOL.                     1.8:  Run Mud Solids% 
 DFV .spqt               76.00:  Mud Viscosity 
 MWOD.in                  6.75:  MWD Tool OD 
 MWSI.                      No:  Serv Intrp, MWD 
 OTIM.hr                228.19:  Time Operating 
 PCON.           Look Like New:  Pad Condition 
 PMAX.psia             6164.70:  Press Op, Max 
 PV  .cP                 28.00:  Mud PV 
 RUN .                     900:  Run Number 
 ROPA.m/hr               19.00:  ROP Avg 
 ROPN.m/hr               11.00:  ROP Min 
 ROPX.m/hr               36.00:  ROP Max 
 RPMA.rpm               120.00:  RPM Surface Avg 
 RPMN.rpm               120.00:  RPM Surface Min 
 RPMX.rpm               120.00:  RPM Surface Max 
 RRUN.                    L604:  Rig Run Number 
 RTIM.hr                  7.00:  Time Reaming 
 SAZI.deg               109.27:  Azm, Start 
 SDEP.m                4761.01:  Start Depth 
 SIDD.                      No:  Serv Intrp, DD 
 SINC.deg                75.38:  Inc, Start 
 SPPA.psig             3574.00:  SPP Avg 
 SPPN.psig             3475.00:  SPP Min 
 SPPX.psig             3791.00:  SPP Max 
 STIM.      07.08.48 13-May-20:  Start Time 
 SVCS.                 DD, MWD:  Services 
 SVER.                    9.20:  Sperry Version 
 TDAT.m                 363.00:  Tot Depth Attmp 
 TDDF.                      No:  Trip for DD 
 TDLG.m                 363.00:  Tot Depth Loggd 
 TFF .                      No:  Trip for Fail 
 TQAA.f-kp               20.00:  Torque Abs Avg 
 TQAN.f-kp               18.00:  Torque Abs Min 
 TQAX.f-kp               22.00:  Torque Abs Max 
 TRRT.°/30m              -0.35:  Turn Rotating 
 MRT .                    HCIM:  Maximum Recorded Temperature 
 TTMX.degC               92.16:  Max Tool Temp 
 VS01.                90586518:  Virtual Str1 SN 
 VS02.        AZ90560654Z1W1C6:  Virtual Str2 SN 
 VS03.           AZ90610398F11:  Virtual Str3 SN 
 VS04.                90514975:  Virtual Str4 SN 
 VS05.                90514972:  Virtual Str5 SN 
 VS06.     AZ90603282F11V7D1A6:  Virtual Str6 SN 
 WBMN.klb                 7.00:  WOB Min 
 WOBA.klb                12.00:  WOB Avg 
 WOBX.klb                14.00:  WOB Max 
 YP  .lhf2               32.00:  Yield Point 
~Curve Information Block
#MNEM.UNIT                 API CODE     Curve Description
#---------               -----------    ---------------------------
 TIME.HHMMSS            00 000 000 000:  GT Time & Date
 GTDEPTH.m              00 000 000 000:  GT Depth
 GTPQH.psia             00 000 000 000:  GT HR Quartz Pressure
 GTTQ.degC              00 000 000 000:  GT Quartz Temperature
 GTTN.NONE              00 000 000 000:  GT Test Number
 GTET.sec               00 000 000 000:  GT Elapsed Test Time
 GTTVD.m                00 000 000 000:  GT True Vertical Depth
#Other Information
#
#WARRANTY: Halliburton will use its best efforts to furnish customers with 
#accurate information and interpretations that are part of, and incident to, the services 
#provided.  However, Halliburton cannot and does not warrant the accuracy 
#or correctness of such information and interpretations.  Under no circumstances should any 
#such information or interpretation be relied upon as the sole basis for any drilling, 
#completion, production, or financial decision or any procedure involving any risk to the 
#safety of any drilling venture, drilling rig or its crew or any other third party.  The 
#Customer has full responsibility for all drilling, completion and production operation.  
#Halliburton makes no representations or warranties, either expressed or 
#implied, including, but not limited to, the implied warranties of merchantability or fitness 
#for a particular purpose, with respect to the services rendered.  In no event will 
#Halliburton be liable for failure to obtain any particular results or for 
#any damages, including, but not limited to, indirect, special or consequential damages, 
#resulting from the use of any information or interpretation provided by Halliburton.
#
~A           TIME           GTDEPTH  GTPQH  GTTQ  GTTN   GTET   GTTVD  
# ...
   01:28:27.059.18-May-2020 4854.01 3123.79 66.62 11.00  45.22 2555.10
   01:28:27.259.18-May-2020 4854.01 3124.72 66.62 11.00  45.42 2555.10
   01:28:27.459.18-May-2020 4854.01 3124.32 66.62 11.00  45.62 2555.10
   01:28:27.659.18-May-2020 4854.01 3125.21 66.61 11.00  45.82 2555.10
   01:28:27.859.18-May-2020 4854.01 3125.32 66.61 11.00  46.02 2555.10
   01:28:28.059.18-May-2020 4854.01 3125.32 66.61 11.00  46.22 2555.10
   01:28:28.260.18-May-2020 4854.01 3134.62 66.61 11.00  46.42 2555.10
   01:28:28.460.18-May-2020 4854.01 3132.57 66.61 11.00  46.62 2555.10
   01:28:28.660.18-May-2020 4854.01 3135.62 66.60 11.00  46.82 2555.10
   01:28:28.860.18-May-2020 4854.01 3136.53 66.60 11.00  47.02 2555.10
   01:28:29.060.18-May-2020 4854.01 3136.53 66.60 11.00  47.22 2555.10
   01:28:29.260.18-May-2020 4854.01 3133.12 66.60 11.00  47.42 2555.10
   01:28:29.460.18-May-2020 4854.01 3132.21 66.60 11.00  47.62 2555.10
   01:28:29.660.18-May-2020 4854.01 3134.89 66.59 11.00  47.82 2555.10
   01:28:29.860.18-May-2020 4854.01 3136.40 66.59 11.00  48.02 2555.10
   01:28:30.060.18-May-2020 4854.01 3136.40 66.59 11.00  48.22 2555.10
   01:28:30.260.18-May-2020 4854.01 3135.03 66.59 11.00  48.42 2555.10
   01:28:30.460.18-May-2020 4854.01 3134.06 66.59 11.00  48.62 2555.10
   01:28:30.661.18-May-2020 4854.01 3132.26 66.59 11.00  48.82 2555.10
   01:28:30.861.18-May-2020 4854.01 3130.85 66.58 11.00  49.02 2555.10
   01:28:31.061.18-May-2020 4854.01 3131.20 66.58 11.00  49.22 2555.10
   01:28:31.261.18-May-2020 4854.01 3131.56 66.58 11.00  49.42 2555.10
   01:28:31.461.18-May-2020 4854.01 3130.67 66.58 11.00  49.62 2555.10
   01:28:31.661.18-May-2020 4854.01 3130.82 66.58 11.00  49.82 2555.10
   01:28:31.861.18-May-2020 4854.01 3130.79 66.58 11.00  50.02 2555.10
   01:28:32.061.18-May-2020 4854.01 3130.79 66.58 11.00  50.22 2555.10
   01:28:32.261.18-May-2020 4854.01 3129.27 66.57 11.00  50.42 2555.10
   01:28:32.461.18-May-2020 4854.01 3129.63 66.57 11.00  50.62 2555.10
   01:28:32.661.18-May-2020 4854.01 3129.73 66.57 11.00  50.82 2555.10
   01:28:32.861.18-May-2020 4854.01 3128.51 66.57 11.00  51.02 2555.10
   01:28:33.061.18-May-2020 4854.01 3128.51 66.57 11.00  51.22 2555.10
   01:28:33.262.18-May-2020 4854.01 3129.27 66.57 11.00  51.42 2555.10
   01:28:33.462.18-May-2020 4854.01 3128.64 66.57 11.00  51.62 2555.10
   01:28:33.662.18-May-2020 4854.01 3128.86 66.57 11.00  51.82 2555.10
   01:28:33.862.18-May-2020 4854.01 3129.28 66.56 11.00  52.02 2555.10
   01:28:34.062.18-May-2020 4854.01 3129.28 66.56 11.00  52.22 2555.10
   01:28:34.262.18-May-2020 4854.01 3129.80 66.56 11.00  52.42 2555.10
   01:28:34.462.18-May-2020 4854.01 3129.70 66.56 11.00  52.62 2555.10
   01:28:34.662.18-May-2020 4854.01 3137.85 66.56 11.00  52.82 2555.10
   01:28:34.862.18-May-2020 4854.01 3158.69 66.56 11.00  53.02 2555.10
   01:28:35.062.18-May-2020 4854.01 3158.69 66.56 11.00  53.22 2555.10
   01:28:35.262.18-May-2020 4854.01 3160.06 66.56 11.00  53.42 2555.10
   01:28:35.462.18-May-2020 4854.01 3159.37 66.56 11.00  53.62 2555.10
   01:28:35.663.18-May-2020 4854.01 3158.98 66.56 11.00  53.82 2555.10
   01:28:35.863.18-May-2020 4854.01 3158.54 66.56 11.00  54.02 2555.10
   01:28:36.063.18-May-2020 4854.01 3158.54 66.56 11.00  54.22 2555.10
   01:28:36.263.18-May-2020 4854.01 3158.07 66.56 11.00  54.42 2555.10
   01:28:36.463.18-May-2020 4854.01 3157.87 66.56 11.00  54.62 2555.10
   01:28:36.663.18-May-2020 4854.01 3158.01 66.56 11.00  54.82 2555.10
   01:28:36.863.18-May-2020 4854.01 3157.90 66.56 11.00  55.02 2555.10
   01:28:37.063.18-May-2020 4854.01 3157.90 66.56 11.00  55.22 2555.10
   01:28:37.263.18-May-2020 4854.01 3157.91 66.55 11.00  55.42 2555.10
   01:28:37.463.18-May-2020 4854.01 3157.87 66.55 11.00  55.62 2555.10
   01:28:37.663.18-May-2020 4854.01 3157.83 66.55 11.00  55.82 2555.10
   01:28:37.863.18-May-2020 4854.01 3157.82 66.55 11.00  56.02 2555.10
   01:28:38.063.18-May-2020 4854.01 3157.82 66.55 11.00  56.22 2555.10
   01:28:38.264.18-May-2020 4854.01 3157.97 66.55 11.00  56.42 2555.10
   01:28:38.464.18-May-2020 4854.01 3157.72 66.55 11.00  56.62 2555.10
   01:28:38.664.18-May-2020 4854.01 3157.57 66.55 11.00  56.82 2555.10
   01:28:38.864.18-May-2020 4854.01 3157.72 66.55 11.00  57.02 2555.10
   01:28:39.064.18-May-2020 4854.01 3157.72 66.55 11.00  57.22 2555.10
   01:28:39.264.18-May-2020 4854.01 3157.70 66.55 11.00  57.42 2555.10
   01:28:39.464.18-May-2020 4854.01 3157.57 66.55 11.00  57.62 2555.10
   01:28:39.664.18-May-2020 4854.01 3157.58 66.55 11.00  57.82 2555.10
   01:28:39.864.18-May-2020 4854.01 3157.81 66.55 11.00  58.02 2555.10
   01:28:40.064.18-May-2020 4854.01 3157.81 66.55 11.00  58.22 2555.10
   01:28:40.264.18-May-2020 4854.01 3157.61 66.55 11.00  58.42 2555.10
   01:28:40.464.18-May-2020 4854.01 3157.66 66.55 11.00  58.62 2555.10
   01:28:40.665.18-May-2020 4854.01 3157.69 66.55 11.00  58.82 2555.10
   01:28:40.865.18-May-2020 4854.01 3157.90 66.55 11.00  59.02 2555.10
   01:28:41.065.18-May-2020 4854.01 3157.90 66.55 11.00  59.22 2555.10
   01:28:41.265.18-May-2020 4854.01 3157.58 66.55 11.00  59.42 2555.10
   01:28:41.465.18-May-2020 4854.01 3157.76 66.55 11.00  59.62 2555.10
   01:28:41.665.18-May-2020 4854.01 3157.73 66.55 11.00  59.82 2555.10
   01:28:41.865.18-May-2020 4854.01 3157.71 66.55 11.00  60.02 2555.10
   01:28:42.065.18-May-2020 4854.01 3157.71 66.55 11.00  60.22 2555.10
   01:28:42.265.18-May-2020 4854.01 3157.79 66.55 11.00  60.42 2555.10
   01:28:42.465.18-May-2020 4854.01 3157.81 66.55 11.00  60.62 2555.10
   01:28:42.665.18-May-2020 4854.01 3157.81 66.55 11.00  60.82 2555.10
   01:28:42.865.18-May-2020 4854.01 3157.89 66.55 11.00  61.02 2555.10
   01:28:43.066.18-May-2020 4854.01 3157.89 66.55 11.00  61.22 2555.10
   01:28:43.266.18-May-2020 4854.01 3157.73 66.55 11.00  61.42 2555.10
   01:28:43.466.18-May-2020 4854.01 3157.80 66.55 11.00  61.62 2555.10
   01:28:43.666.18-May-2020 4854.01 3157.75 66.55 11.00  61.82 2555.10
   01:28:43.866.18-May-2020 4854.01 3157.78 66.55 11.00  62.03 2555.10
   01:28:44.066.18-May-2020 4854.01 3157.78 66.55 11.00  62.23 2555.10
   01:28:44.266.18-May-2020 4854.01 3157.84 66.55 11.00  62.43 2555.10
   01:28:44.466.18-May-2020 4854.01 3157.86 66.55 11.00  62.63 2555.10
   01:28:44.666.18-May-2020 4854.01 3157.88 66.55 11.00  62.83 2555.10
   01:28:44.866.18-May-2020 4854.01 3157.88 66.55 11.00  63.03 2555.10
   01:28:45.066.18-May-2020 4854.01 3157.88 66.55 11.00  63.23 2555.10
   01:28:45.266.18-May-2020 4854.01 3157.73 66.55 11.00  63.43 2555.10
   01:28:45.466.18-May-2020 4854.01 3157.73 66.55 11.00  63.63 2555.10
   01:28:45.667.18-May-2020 4854.01 3158.07 66.55 11.00  63.83 2555.10
   01:28:45.867.18-May-2020 4854.01 3157.76 66.55 11.00  64.03 2555.10
   01:28:46.067.18-May-2020 4854.01 3157.76 66.55 11.00  64.23 2555.10
   01:28:46.267.18-May-2020 4854.01 3157.87 66.55 11.00  64.43 2555.10
   01:28:46.467.18-May-2020 4854.01 3157.84 66.55 11.00  64.63 2555.10
   01:28:46.667.18-May-2020 4854.01 3158.01 66.55 11.00  64.83 2555.10
   01:28:46.867.18-May-2020 4854.01 3157.67 66.55 11.00  65.03 2555.10
   01:28:47.067.18-May-2020 4854.01 3157.67 66.55 11.00  65.23 2555.10
   01:28:47.267.18-May-2020 4854.01 3157.92 66.55 11.00  65.43 2555.10
   01:28:47.467.18-May-2020 4854.01 3158.04 66.55 11.00  65.63 2555.10
   01:28:47.667.18-May-2020 4854.01 3157.77 66.55 11.00  65.83 2555.10
   01:28:47.867.18-May-2020 4854.01 3157.79 66.55 11.00  66.03 2555.10
   01:28:48.068.18-May-2020 4854.01 3157.91 66.55 11.00  66.23 2555.10
   01:28:48.268.18-May-2020 4854.01 3157.90 66.55 11.00  66.43 2555.10
   01:28:48.468.18-May-2020 4854.01 3157.87 66.55 11.00  66.63 2555.10
   01:28:48.668.18-May-2020 4854.01 3157.93 66.55 11.00  66.83 2555.10
   01:28:48.868.18-May-2020 4854.01 3157.95 66.55 11.00  67.03 2555.10
   01:28:49.068.18-May-2020 4854.01 3157.95 66.55 11.00  67.23 2555.10
   01:28:49.268.18-May-2020 4854.01 3157.99 66.55 11.00  67.43 2555.10
   01:28:49.468.18-May-2020 4854.01 3158.05 66.55 11.00  67.63 2555.10
