~Version Information
 VERS.                  2.0:   CWLS log ASCII Standard -VERSION 2.0
 WRAP.                   NO:   One line per depth step
~Well Information Block
#MNEM.UNIT     VALUE/NAME     DESCRIPTION
#---------     -----------    ---------------------------
 STRT.S             01:27:41 18-May-20: START TIME 01:27:41 18-May-20
 STOP.S             01:34:42 18-May-20: STOP TIME  01:34:42 18-May-20
 STEP.S                   0.00: STEP TIME
 NULL.                 -999.25: NULL VALUE
 UNIT.                     N/A:  LOGGING EQUIPMENT ID
 DCON.         Sperry Drilling:  DIRECTNL CONTR
 DOE .                     N/A:  DOE NUMBER
 JOBN.        AZ-XX-0906252240:  JOB TICKET NUMB
 MWDS.                     N/A:  MWD SHOP
 PROV.                    Baku:  PROVINCE
 STAT.                    Baku:  STATE NAME
 REGN.                   EESSA:  REGION
 BASE.              Azerbaijan:  LOGGING EQUIPMENT BASE LOCATION
 UWI .                     N/A:  UNIQUE WELL IDENTIFIER
 API .                     N/A:  API NUMBER
 MDS .        Operator Entered:  MAG DATA SOURCE
 WTYP.                Deviated:  WELL TYPE
 COMP.     BP Exploration (Caspian Sea) Ltd.:  COMPANY
 SRVC.          Turan Drilling:  CONTRACTOR
 WELL.           J23 (Slot 07):  WELL NAME
 CTRY.              Azerbaijan:  COUNTRY NAME
 FLD .                     ACG:  FIELD NAME
 PDAT.          Mean Sea Level:  PERMANENT DATUM
 RIG .             West Chirag:  RIG NAME
 SON .        AZ-XX-0906252240:  JOB NUMBER
 FTOP.          Formation Tops:  FORM TOPS DESC
 ILTD.               Lithology:  INTERP LTH DESC
 SVYD.                  Survey:  SURVEY DESC
 DMOD.             Drill Model:  DRILL MOD DESC
 HPTY.       Minimum Curvature:  HOLE POS TYPE
 NREF.                    Grid:  NORTH REFERENCE
 SPUD.               27-Aug-20:  SPUD DATE
 DATE.      00.00.00 19-May-20:  END TIME
 STIM.      03.00.00 25-Mar-20:  START TIME
 DMF .             Drill Floor:  DRILL MEAS FROM
 DFST.                        :  DIST FSL TEXT
 DFWT.                        :  DIST FWL TEXT
 CNTY.                        :  COUNTY
 LOC .                        :  LOCATION
 LMF .             Drill Floor:  LOG MEASURED FROM
 VSNS.m                   9.43:  VERT SEC N/S
 VSEW.m                  -8.91:  VERT SEC E/W
 AGAP.m                  43.00:  AIR GAP
 DEP .m                 354.17:  DEPTH
 APD .m                  43.00:  DEPTH ABOVE PD
 WDMS.m                 169.80:  WD ELEV
 EGL .m                   0.00:  GROUND ELEVATION
 EPD .m                   0.00:  ELEVATION
 AZTC.deg                 6.31:  AZM TOTAL CORR
 GRDC.deg                 0.14:  GRID CORRECTION
 MDEC.deg                 6.45:  MAGNETIC DECL
 MDIP.deg                59.56:  MAGNETIC DIP
 MFLD.nT              50295.00:  MAGNETIC FIELD
 GVFD.g                   1.00:  GRAVITY FIELD
 VSDR.deg               179.88:  VERT SEC DIRECT
 TDD .m                5150.01:  TOTAL DEPTH (DRILLER)
 SDEP.m                 864.00:  START DEPTH
 DFSL.m                   0.00:  DISTANCE FSL
 DFWL.m                   0.00:  DISTANCE FWL
 UTMY.m             4443793.85:  UTM Y
 UTMX.m              519005.06:  UTM X
 WHEW.m                  -8.91:  WELL HEAD E/W
 WHNS.m                   9.43:  WELL HEAD N/S
 LONG.deg                51.22:  LONGITUDE
 LATI.deg                40.13:  LATITUDE
 TVDS.m                  43.00:  TVDSS CORRECTN
 EKB .m                   0.00:  KB ELEVATION
 EDF .m                  43.00:  DF ELEVATION
 TDL .m                 363.00:  TOTAL DEPTH (LOGGER)
 MAGU.                 1850802:  MAGUTM CHECKSUM
 VSC .                       0:  VS TO CLOSURE
~Parameter Information Block
#MNEM.UNIT       Value        Description
#---------     -----------    ---------------------------
 AV  .mps                 2.30:  Ann Velocity 
 AVMX.mps                 4.40:  Max Ann Veloc 
 AZIF.deg               110.24:  Azm, Final 
 BHAT.        Rotary Steerable:  BHA Type 
 BREV.rev               331.00:  Rev Bit Total 
 BROT.°/30m               0.00:  Build Rotating 
 BS  .in                  8.50:  Bit Size 
 BSZ .in                  8.50:  Bit Size 
 BTPL.psig              585.00:  Bit Press Loss 
 CABU.                     Yes:  Customer Abuse 
 COMM.                     tPr:  Run Comments 1 
 TCS .hr                122.75:  Time Ciculation Ended 
 CV  .mps                 2.67:  Crit Velocity 
 CVMX.mps                 3.56:  Max Crit Veloc 
 DD1 .          Rashad Habibov:  Direct Drillr 1 
 DD2 .         Rasim Ibrahimov:  Direct Drillr 2 
 DDSV.               Geo-Pilot:  DD Service 
 DEFF.%                  98.00:  % Det Eff 
 DLRX.°/30m               0.75:  Dogleg Rot Max 
 DLSO.°/30m               1.25:  Dogleg Oriented 
 DLSX.°/30m               2.06:  Dogleg Str Max 
 DRET.      07.45.00 17-May-20:  Drill End Time 
 DRST.      22.50.00 15-May-20:  Drill Start Tim 
 DTIM.hr                 20.75:  Time Drilling 
 EDEP.m                5124.01:  End Depth 
 ENG1.           Eldar Hajiyev:  Engineer 1 
 ENG2.        Marcelo Sandoval:  Engineer 2 
 ENG3.        Davud huseynzada:  Engineer 3 
 ENG4.          Ruslan Safarov:  Engineer 4 
 ETIM.      04.33.00 23-May-20:  End Time 
 FLOI.gpm               450.00:  Flow In 
 FLON.gpm               400.00:  Flow In Min 
 FLOS.cptm                0.00:  Fluid Loss 
 FLOX.gpm               500.00:  Flow In Max 
 FTRO.       Formation Presure:  FTWD Run Obj 
 HFLO.                      No:  High Flow 
 HPRE.                     Yes:  High Pressure 
 HTEM.                      No:  High Temp 
 HYDO.m                   1.80:  Hydro Offset 
 IFIN.deg                75.06:  Inc, Final 
 IMAX.deg                75.38:  Inc Max 
 IMIN.deg                74.69:  Inc Min 
 IMND.m                5027.38:  Inc Min Depth 
 IMXD.m                4771.61:  Inc Max Depth 
 JARR.                      No:  Jarring 
 LETM.      07.45.00 17-May-20:  Log End Time 
 LOST.hr                     0:  Lost Rig Time 
 LSTM.      22.50.00 15-May-20:  Log Start Time 
 MDCL.ppm             42000.00:  Mud Chlorides 
 MDES.     Inversion Oil/Synthetic:  Mud Desc 
 DFD .sg                  1.34:  Mud Density 
 MDMN.sg                  1.34:  Dens Mud Min 
 MDMX.sg                  1.34:  Dens Mud Max 
 MOIL.                       0:  Run Mud Oil % 
 MOWR.                   67:33:  Run Mud OWR 
 MSND.                       0:  Run Mud Sand % 
 MSOL.                     1.8:  Run Mud Solids% 
 DFV .spqt               76.00:  Mud Viscosity 
 MWOD.in                  6.75:  MWD Tool OD 
 MWSI.                      No:  Serv Intrp, MWD 
 OTIM.hr                228.19:  Time Operating 
 PCON.           Look Like New:  Pad Condition 
 PMAX.psia             6164.70:  Press Op, Max 
 PV  .cP                 28.00:  Mud PV 
 RUN .                     900:  Run Number 
 ROPA.m/hr               19.00:  ROP Avg 
 ROPN.m/hr               11.00:  ROP Min 
 ROPX.m/hr               36.00:  ROP Max 
 RPMA.rpm               120.00:  RPM Surface Avg 
 RPMN.rpm               120.00:  RPM Surface Min 
 RPMX.rpm               120.00:  RPM Surface Max 
 RRUN.                    L604:  Rig Run Number 
 RTIM.hr                  7.00:  Time Reaming 
 SAZI.deg               109.27:  Azm, Start 
 SDEP.m                4761.01:  Start Depth 
 SIDD.                      No:  Serv Intrp, DD 
 SINC.deg                75.38:  Inc, Start 
 SPPA.psig             3574.00:  SPP Avg 
 SPPN.psig             3475.00:  SPP Min 
 SPPX.psig             3791.00:  SPP Max 
 STIM.      07.08.48 13-May-20:  Start Time 
 SVCS.                 DD, MWD:  Services 
 SVER.                    9.20:  Sperry Version 
 TDAT.m                 363.00:  Tot Depth Attmp 
 TDDF.                      No:  Trip for DD 
 TDLG.m                 363.00:  Tot Depth Loggd 
 TFF .                      No:  Trip for Fail 
 TQAA.f-kp               20.00:  Torque Abs Avg 
 TQAN.f-kp               18.00:  Torque Abs Min 
 TQAX.f-kp               22.00:  Torque Abs Max 
 TRRT.°/30m              -0.35:  Turn Rotating 
 MRT .                    HCIM:  Maximum Recorded Temperature 
 TTMX.degC               92.16:  Max Tool Temp 
 VS01.                90586518:  Virtual Str1 SN 
 VS02.        AZ90560654Z1W1C6:  Virtual Str2 SN 
 VS03.           AZ90610398F11:  Virtual Str3 SN 
 VS04.                90514975:  Virtual Str4 SN 
 VS05.                90514972:  Virtual Str5 SN 
 VS06.     AZ90603282F11V7D1A6:  Virtual Str6 SN 
 WBMN.klb                 7.00:  WOB Min 
 WOBA.klb                12.00:  WOB Avg 
 WOBX.klb                14.00:  WOB Max 
 YP  .lhf2               32.00:  Yield Point 
~Curve Information Block
#MNEM.UNIT                 API CODE     Curve Description
#---------               -----------    ---------------------------
 TIME.HHMMSS            00 000 000 000:  GT Time & Date
 GTDEPTH.m              00 000 000 000:  GT Depth
 GTPQH.psia             00 000 000 000:  GT HR Quartz Pressure
 GTTQ.degC              00 000 000 000:  GT Quartz Temperature
 GTTN.NONE              00 000 000 000:  GT Test Number
 GTET.sec               00 000 000 000:  GT Elapsed Test Time
 GTTVD.m                00 000 000 000:  GT True Vertical Depth
#Other Information
#
#WARRANTY: Halliburton will use its best efforts to furnish customers with 
#accurate information and interpretations that are part of, and incident to, the services 
#provided.  However, Halliburton cannot and does not warrant the accuracy 
#or correctness of such information and interpretations.  Under no circumstances should any 
#such information or interpretation be relied upon as the sole basis for any drilling, 
#completion, production, or financial decision or any procedure involving any risk to the 
#safety of any drilling venture, drilling rig or its crew or any other third party.  The 
#Customer has full responsibility for all drilling, completion and production operation.  
#Halliburton makes no representations or warranties, either expressed or 
#implied, including, but not limited to, the implied warranties of merchantability or fitness 
#for a particular purpose, with respect to the services rendered.  In no event will 
#Halliburton be liable for failure to obtain any particular results or for 
#any damages, including, but not limited to, indirect, special or consequential damages, 
#resulting from the use of any information or interpretation provided by Halliburton.
#
~A           TIME           GTDEPTH  GTPQH  GTTQ  GTTN   GTET   GTTVD  
# ...
   01:31:27.932.18-May-2020 4854.01 3158.14 66.53 11.00 226.09 2555.10
   01:31:28.132.18-May-2020 4854.01 3158.14 66.53 11.00 226.29 2555.10
   01:31:28.332.18-May-2020 4854.01 3158.14 66.53 11.00 226.49 2555.10
   01:31:28.532.18-May-2020 4854.01 3158.16 66.53 11.00 226.69 2555.10
   01:31:28.732.18-May-2020 4854.01 3158.15 66.53 11.00 226.89 2555.10
   01:31:28.932.18-May-2020 4854.01 3158.34 66.53 11.00 227.09 2555.10
   01:31:29.132.18-May-2020 4854.01 3158.34 66.53 11.00 227.29 2555.10
   01:31:29.333.18-May-2020 4854.01 3158.17 66.53 11.00 227.49 2555.10
   01:31:29.533.18-May-2020 4854.01 3158.36 66.53 11.00 227.69 2555.10
   01:31:29.733.18-May-2020 4854.01 3158.05 66.53 11.00 227.89 2555.10
   01:31:29.933.18-May-2020 4854.01 3158.15 66.53 11.00 228.09 2555.10
   01:31:30.133.18-May-2020 4854.01 3158.24 66.53 11.00 228.29 2555.10
   01:31:30.333.18-May-2020 4854.01 3158.15 66.53 11.00 228.49 2555.10
   01:31:30.533.18-May-2020 4854.01 3158.26 66.53 11.00 228.69 2555.10
   01:31:30.733.18-May-2020 4854.01 3158.12 66.53 11.00 228.89 2555.10
   01:31:30.933.18-May-2020 4854.01 3158.17 66.53 11.00 229.09 2555.10
   01:31:31.133.18-May-2020 4854.01 3158.17 66.53 11.00 229.29 2555.10
   01:31:31.333.18-May-2020 4854.01 3158.30 66.53 11.00 229.49 2555.10
   01:31:31.533.18-May-2020 4854.01 3158.18 66.53 11.00 229.69 2555.10
   01:31:31.734.18-May-2020 4854.01 3158.13 66.53 11.00 229.89 2555.10
   01:31:31.934.18-May-2020 4854.01 3158.27 66.53 11.00 230.09 2555.10
   01:31:32.134.18-May-2020 4854.01 3158.27 66.53 11.00 230.29 2555.10
   01:31:32.334.18-May-2020 4854.01 3158.18 66.53 11.00 230.49 2555.10
   01:31:32.534.18-May-2020 4854.01 3158.19 66.53 11.00 230.69 2555.10
   01:31:32.734.18-May-2020 4854.01 3158.16 66.53 11.00 230.89 2555.10
   01:31:32.934.18-May-2020 4854.01 3158.19 66.53 11.00 231.09 2555.10
   01:31:33.134.18-May-2020 4854.01 3158.19 66.53 11.00 231.29 2555.10
   01:31:33.334.18-May-2020 4854.01 3158.28 66.53 11.00 231.49 2555.10
   01:31:33.534.18-May-2020 4854.01 3158.09 66.53 11.00 231.69 2555.10
   01:31:33.734.18-May-2020 4854.01 3158.18 66.53 11.00 231.89 2555.10
   01:31:33.934.18-May-2020 4854.01 3158.22 66.53 11.00 232.09 2555.10
   01:31:34.134.18-May-2020 4854.01 3158.22 66.53 11.00 232.29 2555.10
   01:31:34.335.18-May-2020 4854.01 3158.19 66.53 11.00 232.49 2555.10
   01:31:34.535.18-May-2020 4854.01 3158.18 66.53 11.00 232.69 2555.10
   01:31:34.735.18-May-2020 4854.01 3158.18 66.53 11.00 232.89 2555.10
   01:31:34.935.18-May-2020 4854.01 3158.18 66.53 11.00 233.09 2555.10
   01:31:35.135.18-May-2020 4854.01 3158.18 66.53 11.00 233.29 2555.10
   01:31:35.335.18-May-2020 4854.01 3158.18 66.53 11.00 233.49 2555.10
   01:31:35.535.18-May-2020 4854.01 3158.30 66.53 11.00 233.69 2555.10
   01:31:35.735.18-May-2020 4854.01 3158.17 66.53 11.00 233.89 2555.10
   01:31:35.935.18-May-2020 4854.01 3158.12 66.53 11.00 234.09 2555.10
   01:31:36.135.18-May-2020 4854.01 3158.12 66.53 11.00 234.29 2555.10
   01:31:36.335.18-May-2020 4854.01 3158.04 66.53 11.00 234.49 2555.10
   01:31:36.535.18-May-2020 4854.01 3158.14 66.53 11.00 234.69 2555.10
   01:31:36.736.18-May-2020 4854.01 3158.24 66.53 11.00 234.89 2555.10
   01:31:36.936.18-May-2020 4854.01 3158.18 66.53 11.00 235.09 2555.10
   01:31:37.136.18-May-2020 4854.01 3158.18 66.53 11.00 235.29 2555.10
   01:31:37.336.18-May-2020 4854.01 3158.03 66.53 11.00 235.49 2555.10
   01:31:37.536.18-May-2020 4854.01 3158.16 66.53 11.00 235.70 2555.10
   01:31:37.736.18-May-2020 4854.01 3158.21 66.53 11.00 235.90 2555.10
   01:31:37.936.18-May-2020 4854.01 3158.21 66.53 11.00 236.10 2555.10
   01:31:38.136.18-May-2020 4854.01 3158.21 66.53 11.00 236.30 2555.10
   01:31:38.336.18-May-2020 4854.01 3158.18 66.53 11.00 236.50 2555.10
   01:31:38.536.18-May-2020 4854.01 3158.18 66.53 11.00 236.70 2555.10
   01:31:38.736.18-May-2020 4854.01 3158.16 66.53 11.00 236.90 2555.10
   01:31:38.936.18-May-2020 4854.01 3158.17 66.53 11.00 237.10 2555.10
   01:31:39.137.18-May-2020 4854.01 3158.17 66.53 11.00 237.30 2555.10
   01:31:39.337.18-May-2020 4854.01 3158.15 66.53 11.00 237.50 2555.10
   01:31:39.537.18-May-2020 4854.01 3158.17 66.53 11.00 237.70 2555.10
   01:31:39.737.18-May-2020 4854.01 3158.16 66.53 11.00 237.90 2555.10
   01:31:39.937.18-May-2020 4854.01 3158.32 66.53 11.00 238.10 2555.10
   01:31:40.137.18-May-2020 4854.01 3158.32 66.53 11.00 238.30 2555.10
   01:31:40.337.18-May-2020 4854.01 3158.15 66.53 11.00 238.50 2555.10
   01:31:40.537.18-May-2020 4854.01 3158.22 66.53 11.00 238.70 2555.10
   01:31:40.737.18-May-2020 4854.01 3158.17 66.53 11.00 238.90 2555.10
   01:31:40.937.18-May-2020 4854.01 3158.13 66.53 11.00 239.10 2555.10
   01:31:41.137.18-May-2020 4854.01 3158.13 66.53 11.00 239.30 2555.10
   01:31:41.337.18-May-2020 4854.01 3158.14 66.53 11.00 239.50 2555.10
   01:31:41.537.18-May-2020 4854.01 3158.16 66.53 11.00 239.70 2555.10
   01:31:41.738.18-May-2020 4854.01 3158.16 66.53 11.00 239.90 2555.10
   01:31:41.938.18-May-2020 4854.01 3158.11 66.53 11.00 240.10 2555.10
   01:31:42.138.18-May-2020 4854.01 3158.11 66.53 11.00 240.30 2555.10
   01:31:42.338.18-May-2020 4854.01 3158.27 66.53 11.00 240.50 2555.10
   01:31:42.538.18-May-2020 4854.01 3158.16 66.53 11.00 240.70 2555.10
   01:31:42.738.18-May-2020 4854.01 3158.20 66.53 11.00 240.90 2555.10
   01:31:42.938.18-May-2020 4854.01 3158.26 66.53 11.00 241.10 2555.10
   01:31:43.138.18-May-2020 4854.01 3158.26 66.53 11.00 241.30 2555.10
   01:31:43.338.18-May-2020 4854.01 3158.18 66.53 11.00 241.50 2555.10
   01:31:43.538.18-May-2020 4854.01 3158.17 66.53 11.00 241.70 2555.10
   01:31:43.738.18-May-2020 4854.01 3158.23 66.53 11.00 241.90 2555.10
   01:31:43.938.18-May-2020 4854.01 3158.22 66.53 11.00 242.10 2555.10
   01:31:44.139.18-May-2020 4854.01 3158.22 66.53 11.00 242.30 2555.10
   01:31:44.339.18-May-2020 4854.01 3158.41 66.53 11.00 242.50 2555.10
   01:31:44.539.18-May-2020 4854.01 3158.01 66.53 11.00 242.70 2555.10
   01:31:44.739.18-May-2020 4854.01 3158.13 66.53 11.00 242.90 2555.10
   01:31:44.939.18-May-2020 4854.01 3158.25 66.53 11.00 243.10 2555.10
   01:31:45.139.18-May-2020 4854.01 3158.25 66.53 11.00 243.30 2555.10
   01:31:45.339.18-May-2020 4854.01 3158.16 66.53 11.00 243.50 2555.10
   01:31:45.539.18-May-2020 4854.01 3158.17 66.53 11.00 243.70 2555.10
   01:31:45.739.18-May-2020 4854.01 3158.14 66.53 11.00 243.90 2555.10
   01:31:45.939.18-May-2020 4854.01 3158.16 66.53 11.00 244.10 2555.10
   01:31:46.139.18-May-2020 4854.01 3158.16 66.53 11.00 244.30 2555.10
   01:31:46.339.18-May-2020 4854.01 3158.15 66.53 11.00 244.50 2555.10
   01:31:46.539.18-May-2020 4854.01 3158.21 66.53 11.00 244.70 2555.10
   01:31:46.740.18-May-2020 4854.01 3158.23 66.53 11.00 244.90 2555.10
   01:31:46.940.18-May-2020 4854.01 3158.09 66.53 11.00 245.10 2555.10
   01:31:47.140.18-May-2020 4854.01 3158.09 66.53 11.00 245.30 2555.10
   01:31:47.340.18-May-2020 4854.01 3158.17 66.53 11.00 245.50 2555.10
   01:31:47.540.18-May-2020 4854.01 3158.14 66.53 11.00 245.70 2555.10
   01:31:47.740.18-May-2020 4854.01 3158.15 66.53 11.00 245.90 2555.10
   01:31:47.940.18-May-2020 4854.01 3158.14 66.53 11.00 246.10 2555.10
   01:31:48.140.18-May-2020 4854.01 3158.14 66.53 11.00 246.30 2555.10
   01:31:48.340.18-May-2020 4854.01 3158.15 66.53 11.00 246.50 2555.10
   01:31:48.540.18-May-2020 4854.01 3158.34 66.53 11.00 246.70 2555.10
   01:31:48.740.18-May-2020 4854.01 3157.99 66.52 11.00 246.90 2555.10
   01:31:48.940.18-May-2020 4854.01 3158.17 66.52 11.00 247.10 2555.10
   01:31:49.141.18-May-2020 4854.01 3158.17 66.52 11.00 247.30 2555.10
   01:31:49.341.18-May-2020 4854.01 3158.10 66.52 11.00 247.50 2555.10
   01:31:49.541.18-May-2020 4854.01 3158.16 66.52 11.00 247.70 2555.10
   01:31:49.741.18-May-2020 4854.01 3158.20 66.52 11.00 247.90 2555.10
   01:31:49.941.18-May-2020 4854.01 3158.14 66.52 11.00 248.10 2555.10
   01:31:50.141.18-May-2020 4854.01 3158.14 66.52 11.00 248.30 2555.10
   01:31:50.341.18-May-2020 4854.01 3158.18 66.52 11.00 248.50 2555.10
