~Version Information
 VERS.                  2.0:   CWLS log ASCII Standard -VERSION 2.0
 WRAP.                   NO:   One line per depth step
~Well Information Block
#MNEM.UNIT     VALUE/NAME     DESCRIPTION
#---------     -----------    ---------------------------
 STRT.S             14:38:44 17-May-20: START TIME 14:38:44 17-May-20
 STOP.S             14:45:36 17-May-20: STOP TIME  14:45:36 17-May-20
 STEP.S                   0.00: STEP TIME
 NULL.                 -999.25: NULL VALUE
 UNIT.                     N/A:  LOGGING EQUIPMENT ID
 DCON.         Sperry Drilling:  DIRECTNL CONTR
 DOE .                     N/A:  DOE NUMBER
 JOBN.        AZ-XX-0906252240:  JOB TICKET NUMB
 MWDS.                     N/A:  MWD SHOP
 PROV.                    Baku:  PROVINCE
 STAT.                    Baku:  STATE NAME
 REGN.                   EESSA:  REGION
 BASE.              Azerbaijan:  LOGGING EQUIPMENT BASE LOCATION
 UWI .                     N/A:  UNIQUE WELL IDENTIFIER
 API .                     N/A:  API NUMBER
 MDS .        Operator Entered:  MAG DATA SOURCE
 WTYP.                Deviated:  WELL TYPE
 COMP.     BP Exploration (Caspian Sea) Ltd.:  COMPANY
 SRVC.          Turan Drilling:  CONTRACTOR
 WELL.           J23 (Slot 07):  WELL NAME
 CTRY.              Azerbaijan:  COUNTRY NAME
 FLD .                     ACG:  FIELD NAME
 PDAT.          Mean Sea Level:  PERMANENT DATUM
 RIG .             West Chirag:  RIG NAME
 SON .        AZ-XX-0906252240:  JOB NUMBER
 FTOP.          Formation Tops:  FORM TOPS DESC
 ILTD.               Lithology:  INTERP LTH DESC
 SVYD.                  Survey:  SURVEY DESC
 DMOD.             Drill Model:  DRILL MOD DESC
 HPTY.       Minimum Curvature:  HOLE POS TYPE
 NREF.                    Grid:  NORTH REFERENCE
 SPUD.               27-Aug-20:  SPUD DATE
 DATE.      00.00.00 19-May-20:  END TIME
 STIM.      03.00.00 25-Mar-20:  START TIME
 DMF .             Drill Floor:  DRILL MEAS FROM
 DFST.                        :  DIST FSL TEXT
 DFWT.                        :  DIST FWL TEXT
 CNTY.                        :  COUNTY
 LOC .                        :  LOCATION
 LMF .             Drill Floor:  LOG MEASURED FROM
 VSNS.m                   9.43:  VERT SEC N/S
 VSEW.m                  -8.91:  VERT SEC E/W
 AGAP.m                  43.00:  AIR GAP
 DEP .m                 354.17:  DEPTH
 APD .m                  43.00:  DEPTH ABOVE PD
 WDMS.m                 169.80:  WD ELEV
 EGL .m                   0.00:  GROUND ELEVATION
 EPD .m                   0.00:  ELEVATION
 AZTC.deg                 6.31:  AZM TOTAL CORR
 GRDC.deg                 0.14:  GRID CORRECTION
 MDEC.deg                 6.45:  MAGNETIC DECL
 MDIP.deg                59.56:  MAGNETIC DIP
 MFLD.nT              50295.00:  MAGNETIC FIELD
 GVFD.g                   1.00:  GRAVITY FIELD
 VSDR.deg               179.88:  VERT SEC DIRECT
 TDD .m                5150.01:  TOTAL DEPTH (DRILLER)
 SDEP.m                 864.00:  START DEPTH
 DFSL.m                   0.00:  DISTANCE FSL
 DFWL.m                   0.00:  DISTANCE FWL
 UTMY.m             4443793.85:  UTM Y
 UTMX.m              519005.06:  UTM X
 WHEW.m                  -8.91:  WELL HEAD E/W
 WHNS.m                   9.43:  WELL HEAD N/S
 LONG.deg                51.22:  LONGITUDE
 LATI.deg                40.13:  LATITUDE
 TVDS.m                  43.00:  TVDSS CORRECTN
 EKB .m                   0.00:  KB ELEVATION
 EDF .m                  43.00:  DF ELEVATION
 TDL .m                 363.00:  TOTAL DEPTH (LOGGER)
 MAGU.                 1850802:  MAGUTM CHECKSUM
 VSC .                       0:  VS TO CLOSURE
~Parameter Information Block
#MNEM.UNIT       Value        Description
#---------     -----------    ---------------------------
 AV  .mps                 2.30:  Ann Velocity 
 AVMX.mps                 4.40:  Max Ann Veloc 
 AZIF.deg               110.24:  Azm, Final 
 BHAT.        Rotary Steerable:  BHA Type 
 BREV.rev               331.00:  Rev Bit Total 
 BROT.°/30m               0.00:  Build Rotating 
 BS  .in                  8.50:  Bit Size 
 BSZ .in                  8.50:  Bit Size 
 BTPL.psig              585.00:  Bit Press Loss 
 CABU.                     Yes:  Customer Abuse 
 COMM.                     ÔF[:  Run Comments 1 
 TCS .hr                122.75:  Time Ciculation Ended 
 CV  .mps                 2.67:  Crit Velocity 
 CVMX.mps                 3.56:  Max Crit Veloc 
 DD1 .          Rashad Habibov:  Direct Drillr 1 
 DD2 .         Rasim Ibrahimov:  Direct Drillr 2 
 DDSV.               Geo-Pilot:  DD Service 
 DEFF.%                  98.00:  % Det Eff 
 DLRX.°/30m               0.75:  Dogleg Rot Max 
 DLSO.°/30m               1.25:  Dogleg Oriented 
 DLSX.°/30m               2.06:  Dogleg Str Max 
 DRET.      07.45.00 17-May-20:  Drill End Time 
 DRST.      22.50.00 15-May-20:  Drill Start Tim 
 DTIM.hr                 20.75:  Time Drilling 
 EDEP.m                5124.01:  End Depth 
 ENG1.           Eldar Hajiyev:  Engineer 1 
 ENG2.        Marcelo Sandoval:  Engineer 2 
 ENG3.        Davud huseynzada:  Engineer 3 
 ENG4.          Ruslan Safarov:  Engineer 4 
 ETIM.      04.33.00 23-May-20:  End Time 
 FLOI.gpm               450.00:  Flow In 
 FLON.gpm               400.00:  Flow In Min 
 FLOS.cptm                0.00:  Fluid Loss 
 FLOX.gpm               500.00:  Flow In Max 
 FTRO.       Formation Presure:  FTWD Run Obj 
 HFLO.                      No:  High Flow 
 HPRE.                     Yes:  High Pressure 
 HTEM.                      No:  High Temp 
 HYDO.m                   1.80:  Hydro Offset 
 IFIN.deg                75.06:  Inc, Final 
 IMAX.deg                75.38:  Inc Max 
 IMIN.deg                74.69:  Inc Min 
 IMND.m                5027.38:  Inc Min Depth 
 IMXD.m                4771.61:  Inc Max Depth 
 JARR.                      No:  Jarring 
 LETM.      07.45.00 17-May-20:  Log End Time 
 LOST.hr                     0:  Lost Rig Time 
 LSTM.      22.50.00 15-May-20:  Log Start Time 
 MDCL.ppm             42000.00:  Mud Chlorides 
 MDES.     Inversion Oil/Synthetic:  Mud Desc 
 DFD .sg                  1.34:  Mud Density 
 MDMN.sg                  1.34:  Dens Mud Min 
 MDMX.sg                  1.34:  Dens Mud Max 
 MOIL.                       0:  Run Mud Oil % 
 MOWR.                   67:33:  Run Mud OWR 
 MSND.                       0:  Run Mud Sand % 
 MSOL.                     1.8:  Run Mud Solids% 
 DFV .spqt               76.00:  Mud Viscosity 
 MWOD.in                  6.75:  MWD Tool OD 
 MWSI.                      No:  Serv Intrp, MWD 
 OTIM.hr                228.19:  Time Operating 
 PCON.           Look Like New:  Pad Condition 
 PMAX.psia             6164.70:  Press Op, Max 
 PV  .cP                 28.00:  Mud PV 
 RUN .                     900:  Run Number 
 ROPA.m/hr               19.00:  ROP Avg 
 ROPN.m/hr               11.00:  ROP Min 
 ROPX.m/hr               36.00:  ROP Max 
 RPMA.rpm               120.00:  RPM Surface Avg 
 RPMN.rpm               120.00:  RPM Surface Min 
 RPMX.rpm               120.00:  RPM Surface Max 
 RRUN.                    L604:  Rig Run Number 
 RTIM.hr                  7.00:  Time Reaming 
 SAZI.deg               109.27:  Azm, Start 
 SDEP.m                4761.01:  Start Depth 
 SIDD.                      No:  Serv Intrp, DD 
 SINC.deg                75.38:  Inc, Start 
 SPPA.psig             3574.00:  SPP Avg 
 SPPN.psig             3475.00:  SPP Min 
 SPPX.psig             3791.00:  SPP Max 
 STIM.      07.08.48 13-May-20:  Start Time 
 SVCS.                 DD, MWD:  Services 
 SVER.                    9.20:  Sperry Version 
 TDAT.m                 363.00:  Tot Depth Attmp 
 TDDF.                      No:  Trip for DD 
 TDLG.m                 363.00:  Tot Depth Loggd 
 TFF .                      No:  Trip for Fail 
 TQAA.f-kp               20.00:  Torque Abs Avg 
 TQAN.f-kp               18.00:  Torque Abs Min 
 TQAX.f-kp               22.00:  Torque Abs Max 
 TRRT.°/30m              -0.35:  Turn Rotating 
 MRT .                    HCIM:  Maximum Recorded Temperature 
 TTMX.degC               92.16:  Max Tool Temp 
 VS01.                90586518:  Virtual Str1 SN 
 VS02.        AZ90560654Z1W1C6:  Virtual Str2 SN 
 VS03.           AZ90610398F11:  Virtual Str3 SN 
 VS04.                90514975:  Virtual Str4 SN 
 VS05.                90514972:  Virtual Str5 SN 
 VS06.     AZ90603282F11V7D1A6:  Virtual Str6 SN 
 WBMN.klb                 7.00:  WOB Min 
 WOBA.klb                12.00:  WOB Avg 
 WOBX.klb                14.00:  WOB Max 
 YP  .lhf2               32.00:  Yield Point 
~Curve Information Block
#MNEM.UNIT                 API CODE     Curve Description
#---------               -----------    ---------------------------
 TIME.HHMMSS            00 000 000 000:  GT Time & Date
 GTDEPTH.m              00 000 000 000:  GT Depth
 GTPQH.psia             00 000 000 000:  GT HR Quartz Pressure
 GTTQ.degC              00 000 000 000:  GT Quartz Temperature
 GTTN.NONE              00 000 000 000:  GT Test Number
 GTET.sec               00 000 000 000:  GT Elapsed Test Time
 GTTVD.m                00 000 000 000:  GT True Vertical Depth
#Other Information
#
#WARRANTY: Halliburton will use its best efforts to furnish customers with 
#accurate information and interpretations that are part of, and incident to, the services 
#provided.  However, Halliburton cannot and does not warrant the accuracy 
#or correctness of such information and interpretations.  Under no circumstances should any 
#such information or interpretation be relied upon as the sole basis for any drilling, 
#completion, production, or financial decision or any procedure involving any risk to the 
#safety of any drilling venture, drilling rig or its crew or any other third party.  The 
#Customer has full responsibility for all drilling, completion and production operation.  
#Halliburton makes no representations or warranties, either expressed or 
#implied, including, but not limited to, the implied warranties of merchantability or fitness 
#for a particular purpose, with respect to the services rendered.  In no event will 
#Halliburton be liable for failure to obtain any particular results or for 
#any damages, including, but not limited to, indirect, special or consequential damages, 
#resulting from the use of any information or interpretation provided by Halliburton.
#
~A           TIME           GTDEPTH  GTPQH  GTTQ  GTTN  GTET   GTTVD  
# ...
   14:39:07.000.17-May-2020 5087.01 5595.84 72.47 1.00  23.00 2615.39
   14:39:07.200.17-May-2020 5087.01 5595.84 72.47 1.00  23.20 2615.39
   14:39:07.400.17-May-2020 5087.01 5594.04 72.47 1.00  23.40 2615.39
   14:39:07.600.17-May-2020 5087.01 5610.96 72.47 1.00  23.60 2615.39
   14:39:07.800.17-May-2020 5087.01 5599.14 72.47 1.00  23.80 2615.39
   14:39:08.000.17-May-2020 5087.01 5595.41 72.47 1.00  24.00 2615.39
   14:39:08.200.17-May-2020 5087.01 5591.56 72.47 1.00  24.20 2615.39
   14:39:08.400.17-May-2020 5087.01 5615.27 72.47 1.00  24.40 2615.39
   14:39:08.600.17-May-2020 5087.01 5607.95 72.47 1.00  24.60 2615.39
   14:39:08.800.17-May-2020 5087.01 5596.03 72.47 1.00  24.80 2615.39
   14:39:09.000.17-May-2020 5087.01 5593.19 72.47 1.00  25.00 2615.39
   14:39:09.200.17-May-2020 5087.01 5593.19 72.47 1.00  25.20 2615.39
   14:39:09.400.17-May-2020 5087.01 5611.97 72.47 1.00  25.40 2615.39
   14:39:09.600.17-May-2020 5087.01 5611.25 72.47 1.00  25.60 2615.39
   14:39:09.800.17-May-2020 5087.01 5595.20 72.47 1.00  25.80 2615.39
   14:39:10.000.17-May-2020 5087.01 5596.50 72.47 1.00  26.00 2615.39
   14:39:10.200.17-May-2020 5087.01 5596.50 72.47 1.00  26.20 2615.39
   14:39:10.400.17-May-2020 5087.01 5606.74 72.47 1.00  26.40 2615.39
   14:39:10.600.17-May-2020 5087.01 5596.87 72.47 1.00  26.60 2615.39
   14:39:10.800.17-May-2020 5087.01 5592.94 72.47 1.00  26.80 2615.39
   14:39:11.000.17-May-2020 5087.01 5604.70 72.47 1.00  27.00 2615.39
   14:39:11.200.17-May-2020 5087.01 5604.70 72.47 1.00  27.20 2615.39
   14:39:11.400.17-May-2020 5087.01 5599.00 72.47 1.00  27.40 2615.39
   14:39:11.600.17-May-2020 5087.01 5595.01 72.47 1.00  27.60 2615.39
   14:39:11.800.17-May-2020 5087.01 5597.24 72.47 1.00  27.80 2615.39
   14:39:12.000.17-May-2020 5087.01 5598.89 72.47 1.00  28.00 2615.39
   14:39:12.200.17-May-2020 5087.01 5598.89 72.47 1.00  28.20 2615.39
   14:39:12.400.17-May-2020 5087.01 5600.56 72.47 1.00  28.40 2615.39
   14:39:12.600.17-May-2020 5087.01 5595.00 72.47 1.00  28.60 2615.39
   14:39:12.800.17-May-2020 5087.01 5592.21 72.47 1.00  28.80 2615.39
   14:39:13.000.17-May-2020 5087.01 5603.56 72.47 1.00  29.00 2615.39
   14:39:13.200.17-May-2020 5087.01 5603.56 72.47 1.00  29.20 2615.39
   14:39:13.400.17-May-2020 5087.01 5681.71 72.47 1.00  29.40 2615.39
   14:39:13.600.17-May-2020 5087.01 5834.24 72.47 1.00  29.60 2615.39
   14:39:13.800.17-May-2020 5087.01 5922.95 72.47 1.00  29.80 2615.39
   14:39:14.000.17-May-2020 5087.01 5947.86 72.47 1.00  30.00 2615.39
   14:39:14.200.17-May-2020 5087.01 5947.86 72.47 1.00  30.20 2615.39
   14:39:14.400.17-May-2020 5087.01 5952.70 72.47 1.00  30.40 2615.39
   14:39:14.600.17-May-2020 5087.01 5962.33 72.47 1.00  30.60 2615.39
   14:39:14.800.17-May-2020 5087.01 5974.32 72.47 1.00  30.80 2615.39
   14:39:15.000.17-May-2020 5087.01 5982.73 72.47 1.00  31.00 2615.39
   14:39:15.200.17-May-2020 5087.01 5982.73 72.47 1.00  31.20 2615.39
   14:39:15.400.17-May-2020 5087.01 6025.11 72.47 1.00  31.40 2615.39
   14:39:15.600.17-May-2020 5087.01 6021.21 72.47 1.00  31.60 2615.39
   14:39:15.800.17-May-2020 5087.01 6018.92 72.47 1.00  31.80 2615.39
   14:39:16.000.17-May-2020 5087.01 6016.11 72.47 1.00  32.00 2615.39
   14:39:16.200.17-May-2020 5087.01 6027.65 72.47 1.00  32.20 2615.39
   14:39:16.400.17-May-2020 5087.01 6039.23 72.47 1.00  32.40 2615.39
   14:39:16.600.17-May-2020 5087.01 6032.32 72.47 1.00  32.60 2615.39
   14:39:16.800.17-May-2020 5087.01 6029.15 72.47 1.00  32.80 2615.39
   14:39:17.000.17-May-2020 5087.01 6027.38 72.47 1.00  33.00 2615.39
   14:39:17.200.17-May-2020 5087.01 6027.38 72.47 1.00  33.20 2615.39
   14:39:17.400.17-May-2020 5087.01 6037.62 72.47 1.00  33.40 2615.39
   14:39:17.600.17-May-2020 5087.01 6032.81 72.47 1.00  33.60 2615.39
   14:39:17.800.17-May-2020 5087.01 6030.10 72.47 1.00  33.80 2615.39
   14:39:18.000.17-May-2020 5087.01 6036.51 72.47 1.00  34.00 2615.39
   14:39:18.200.17-May-2020 5087.01 6036.51 72.47 1.00  34.20 2615.39
   14:39:18.400.17-May-2020 5087.01 6031.85 72.47 1.00  34.40 2615.39
   14:39:18.600.17-May-2020 5087.01 6031.03 72.47 1.00  34.60 2615.39
   14:39:18.800.17-May-2020 5087.01 6030.77 72.47 1.00  34.80 2615.39
   14:39:19.000.17-May-2020 5087.01 6031.46 72.47 1.00  35.00 2615.39
   14:39:19.200.17-May-2020 5087.01 6031.46 72.47 1.00  35.20 2615.39
   14:39:19.400.17-May-2020 5087.01 6038.13 72.47 1.00  35.40 2615.39
   14:39:19.600.17-May-2020 5087.01 6040.70 72.47 1.00  35.60 2615.39
   14:39:19.800.17-May-2020 5087.01 5953.66 72.47 1.00  35.80 2615.39
   14:39:20.000.17-May-2020 5087.01 5418.48 72.47 1.00  36.00 2615.39
   14:39:20.200.17-May-2020 5087.01 5418.48 72.47 1.00  36.20 2615.39
   14:39:20.400.17-May-2020 5087.01 4491.67 72.47 1.00  36.40 2615.39
   14:39:20.600.17-May-2020 5087.01 3765.20 72.47 1.00  36.60 2615.39
   14:39:20.800.17-May-2020 5087.01 3056.00 72.47 1.00  36.80 2615.39
   14:39:21.000.17-May-2020 5087.01 2632.64 72.47 1.00  37.00 2615.39
   14:39:21.200.17-May-2020 5087.01 2632.64 72.47 1.00  37.20 2615.39
   14:39:21.400.17-May-2020 5087.01 2592.45 72.46 1.00  37.40 2615.39
   14:39:21.600.17-May-2020 5087.01 2580.22 72.46 1.00  37.60 2615.39
   14:39:21.800.17-May-2020 5087.01 2578.03 72.46 1.00  37.80 2615.39
   14:39:22.000.17-May-2020 5087.01 2573.09 72.46 1.00  38.00 2615.39
   14:39:22.200.17-May-2020 5087.01 2573.09 72.46 1.00  38.20 2615.39
   14:39:22.400.17-May-2020 5087.01 2575.39 72.46 1.00  38.40 2615.39
   14:39:22.600.17-May-2020 5087.01 2588.86 72.45 1.00  38.60 2615.39
   14:39:22.800.17-May-2020 5087.01 2591.68 72.45 1.00  38.80 2615.39
   14:39:23.000.17-May-2020 5087.01 2592.60 72.45 1.00  39.00 2615.39
   14:39:23.200.17-May-2020 5087.01 2592.60 72.45 1.00  39.20 2615.39
   14:39:23.400.17-May-2020 5087.01 2589.98 72.44 1.00  39.40 2615.39
   14:39:23.600.17-May-2020 5087.01 2589.67 72.44 1.00  39.60 2615.39
   14:39:23.800.17-May-2020 5087.01 2588.47 72.44 1.00  39.80 2615.39
   14:39:24.000.17-May-2020 5087.01 2589.87 72.44 1.00  40.00 2615.39
   14:39:24.200.17-May-2020 5087.01 2589.87 72.44 1.00  40.20 2615.39
   14:39:24.400.17-May-2020 5087.01 2589.18 72.43 1.00  40.40 2615.39
   14:39:24.600.17-May-2020 5087.01 2583.66 72.43 1.00  40.60 2615.39
   14:39:24.800.17-May-2020 5087.01 2583.25 72.42 1.00  40.80 2615.39
   14:39:25.000.17-May-2020 5087.01 2584.52 72.42 1.00  41.00 2615.39
   14:39:25.200.17-May-2020 5087.01 2584.52 72.42 1.00  41.20 2615.39
   14:39:25.400.17-May-2020 5087.01 2583.33 72.42 1.00  41.40 2615.39
   14:39:25.600.17-May-2020 5087.01 2582.03 72.41 1.00  41.60 2615.39
   14:39:25.800.17-May-2020 5087.01 2584.72 72.41 1.00  41.80 2615.39
   14:39:26.000.17-May-2020 5087.01 2582.12 72.41 1.00  42.00 2615.39
   14:39:26.200.17-May-2020 5087.01 2582.12 72.41 1.00  42.20 2615.39
   14:39:26.400.17-May-2020 5087.01 2583.04 72.40 1.00  42.40 2615.39
   14:39:26.600.17-May-2020 5087.01 2585.71 72.40 1.00  42.60 2615.39
   14:39:26.800.17-May-2020 5087.01 2583.29 72.40 1.00  42.80 2615.39
   14:39:27.000.17-May-2020 5087.01 2582.83 72.40 1.00  43.00 2615.39
   14:39:27.200.17-May-2020 5087.01 2582.83 72.40 1.00  43.20 2615.39
   14:39:27.400.17-May-2020 5087.01 2583.28 72.39 1.00  43.40 2615.39
   14:39:27.600.17-May-2020 5087.01 2582.97 72.39 1.00  43.60 2615.39
   14:39:27.800.17-May-2020 5087.01 2584.76 72.39 1.00  43.80 2615.39
   14:39:28.000.17-May-2020 5087.01 2582.55 72.39 1.00  44.00 2615.39
   14:39:28.200.17-May-2020 5087.01 2582.55 72.39 1.00  44.20 2615.39
   14:39:28.400.17-May-2020 5087.01 2583.29 72.38 1.00  44.40 2615.39
   14:39:28.600.17-May-2020 5087.01 2583.78 72.38 1.00  44.60 2615.39
   14:39:28.800.17-May-2020 5087.01 2584.07 72.38 1.00  44.80 2615.39
   14:39:29.000.17-May-2020 5087.01 2582.54 72.38 1.00  45.00 2615.39
   14:39:29.200.17-May-2020 5087.01 2582.54 72.38 1.00  45.20 2615.39
   14:39:29.400.17-May-2020 5087.01 2582.72 72.38 1.00  45.40 2615.39
   14:39:29.600.17-May-2020 5087.01 2600.04 72.38 1.00  45.60 2615.39
   14:39:29.800.17-May-2020 5087.01 2732.14 72.37 1.00  45.80 2615.39
