~Version Information
 VERS.                  2.0:   CWLS log ASCII Standard -VERSION 2.0
 WRAP.                   NO:   One line per depth step
~Well Information Block
#MNEM.UNIT     VALUE/NAME     DESCRIPTION
#---------     -----------    ---------------------------
 STRT.S             19:37:06 17-May-20: START TIME 19:37:06 17-May-20
 STOP.S             19:44:11 17-May-20: STOP TIME  19:44:11 17-May-20
 STEP.S                   0.00: STEP TIME
 NULL.                 -999.25: NULL VALUE
 UNIT.                     N/A:  LOGGING EQUIPMENT ID
 DCON.         Sperry Drilling:  DIRECTNL CONTR
 DOE .                     N/A:  DOE NUMBER
 JOBN.        AZ-XX-0906252240:  JOB TICKET NUMB
 MWDS.                     N/A:  MWD SHOP
 PROV.                    Baku:  PROVINCE
 STAT.                    Baku:  STATE NAME
 REGN.                   EESSA:  REGION
 BASE.              Azerbaijan:  LOGGING EQUIPMENT BASE LOCATION
 UWI .                     N/A:  UNIQUE WELL IDENTIFIER
 API .                     N/A:  API NUMBER
 MDS .        Operator Entered:  MAG DATA SOURCE
 WTYP.                Deviated:  WELL TYPE
 COMP.     BP Exploration (Caspian Sea) Ltd.:  COMPANY
 SRVC.          Turan Drilling:  CONTRACTOR
 WELL.           J23 (Slot 07):  WELL NAME
 CTRY.              Azerbaijan:  COUNTRY NAME
 FLD .                     ACG:  FIELD NAME
 PDAT.          Mean Sea Level:  PERMANENT DATUM
 RIG .             West Chirag:  RIG NAME
 SON .        AZ-XX-0906252240:  JOB NUMBER
 FTOP.          Formation Tops:  FORM TOPS DESC
 ILTD.               Lithology:  INTERP LTH DESC
 SVYD.                  Survey:  SURVEY DESC
 DMOD.             Drill Model:  DRILL MOD DESC
 HPTY.       Minimum Curvature:  HOLE POS TYPE
 NREF.                    Grid:  NORTH REFERENCE
 SPUD.               27-Aug-20:  SPUD DATE
 DATE.      00.00.00 19-May-20:  END TIME
 STIM.      03.00.00 25-Mar-20:  START TIME
 DMF .             Drill Floor:  DRILL MEAS FROM
 DFST.                        :  DIST FSL TEXT
 DFWT.                        :  DIST FWL TEXT
 CNTY.                        :  COUNTY
 LOC .                        :  LOCATION
 LMF .             Drill Floor:  LOG MEASURED FROM
 VSNS.m                   9.43:  VERT SEC N/S
 VSEW.m                  -8.91:  VERT SEC E/W
 AGAP.m                  43.00:  AIR GAP
 DEP .m                 354.17:  DEPTH
 APD .m                  43.00:  DEPTH ABOVE PD
 WDMS.m                 169.80:  WD ELEV
 EGL .m                   0.00:  GROUND ELEVATION
 EPD .m                   0.00:  ELEVATION
 AZTC.deg                 6.31:  AZM TOTAL CORR
 GRDC.deg                 0.14:  GRID CORRECTION
 MDEC.deg                 6.45:  MAGNETIC DECL
 MDIP.deg                59.56:  MAGNETIC DIP
 MFLD.nT              50295.00:  MAGNETIC FIELD
 GVFD.g                   1.00:  GRAVITY FIELD
 VSDR.deg               179.88:  VERT SEC DIRECT
 TDD .m                5150.01:  TOTAL DEPTH (DRILLER)
 SDEP.m                 864.00:  START DEPTH
 DFSL.m                   0.00:  DISTANCE FSL
 DFWL.m                   0.00:  DISTANCE FWL
 UTMY.m             4443793.85:  UTM Y
 UTMX.m              519005.06:  UTM X
 WHEW.m                  -8.91:  WELL HEAD E/W
 WHNS.m                   9.43:  WELL HEAD N/S
 LONG.deg                51.22:  LONGITUDE
 LATI.deg                40.13:  LATITUDE
 TVDS.m                  43.00:  TVDSS CORRECTN
 EKB .m                   0.00:  KB ELEVATION
 EDF .m                  43.00:  DF ELEVATION
 TDL .m                 363.00:  TOTAL DEPTH (LOGGER)
 MAGU.                 1850802:  MAGUTM CHECKSUM
 VSC .                       0:  VS TO CLOSURE
~Parameter Information Block
#MNEM.UNIT       Value        Description
#---------     -----------    ---------------------------
 AV  .mps                 2.30:  Ann Velocity 
 AVMX.mps                 4.40:  Max Ann Veloc 
 AZIF.deg               110.24:  Azm, Final 
 BHAT.        Rotary Steerable:  BHA Type 
 BREV.rev               331.00:  Rev Bit Total 
 BROT.°/30m               0.00:  Build Rotating 
 BS  .in                  8.50:  Bit Size 
 BSZ .in                  8.50:  Bit Size 
 BTPL.psig              585.00:  Bit Press Loss 
 CABU.                     Yes:  Customer Abuse 
 TCS .hr                122.75:  Time Ciculation Ended 
 CV  .mps                 2.67:  Crit Velocity 
 CVMX.mps                 3.56:  Max Crit Veloc 
 DD1 .          Rashad Habibov:  Direct Drillr 1 
 DD2 .         Rasim Ibrahimov:  Direct Drillr 2 
 DDSV.               Geo-Pilot:  DD Service 
 DEFF.%                  98.00:  % Det Eff 
 DLRX.°/30m               0.75:  Dogleg Rot Max 
 DLSO.°/30m               1.25:  Dogleg Oriented 
 DLSX.°/30m               2.06:  Dogleg Str Max 
 DRET.      07.45.00 17-May-20:  Drill End Time 
 DRST.      22.50.00 15-May-20:  Drill Start Tim 
 DTIM.hr                 20.75:  Time Drilling 
 EDEP.m                5124.01:  End Depth 
 ENG1.           Eldar Hajiyev:  Engineer 1 
 ENG2.        Marcelo Sandoval:  Engineer 2 
 ENG3.        Davud huseynzada:  Engineer 3 
 ENG4.          Ruslan Safarov:  Engineer 4 
 ETIM.      04.33.00 23-May-20:  End Time 
 FLOI.gpm               450.00:  Flow In 
 FLON.gpm               400.00:  Flow In Min 
 FLOS.cptm                0.00:  Fluid Loss 
 FLOX.gpm               500.00:  Flow In Max 
 FTRO.       Formation Presure:  FTWD Run Obj 
 HFLO.                      No:  High Flow 
 HPRE.                     Yes:  High Pressure 
 HTEM.                      No:  High Temp 
 HYDO.m                   1.80:  Hydro Offset 
 IFIN.deg                75.06:  Inc, Final 
 IMAX.deg                75.38:  Inc Max 
 IMIN.deg                74.69:  Inc Min 
 IMND.m                5027.38:  Inc Min Depth 
 IMXD.m                4771.61:  Inc Max Depth 
 JARR.                      No:  Jarring 
 LETM.      07.45.00 17-May-20:  Log End Time 
 LOST.hr                     0:  Lost Rig Time 
 LSTM.      22.50.00 15-May-20:  Log Start Time 
 MDCL.ppm             42000.00:  Mud Chlorides 
 MDES.     Inversion Oil/Synthetic:  Mud Desc 
 DFD .sg                  1.34:  Mud Density 
 MDMN.sg                  1.34:  Dens Mud Min 
 MDMX.sg                  1.34:  Dens Mud Max 
 MOIL.                       0:  Run Mud Oil % 
 MOWR.                   67:33:  Run Mud OWR 
 MSND.                       0:  Run Mud Sand % 
 MSOL.                     1.8:  Run Mud Solids% 
 DFV .spqt               76.00:  Mud Viscosity 
 MWOD.in                  6.75:  MWD Tool OD 
 MWSI.                      No:  Serv Intrp, MWD 
 OTIM.hr                228.19:  Time Operating 
 PCON.           Look Like New:  Pad Condition 
 PMAX.psia             6164.70:  Press Op, Max 
 PV  .cP                 28.00:  Mud PV 
 RUN .                     900:  Run Number 
 ROPA.m/hr               19.00:  ROP Avg 
 ROPN.m/hr               11.00:  ROP Min 
 ROPX.m/hr               36.00:  ROP Max 
 RPMA.rpm               120.00:  RPM Surface Avg 
 RPMN.rpm               120.00:  RPM Surface Min 
 RPMX.rpm               120.00:  RPM Surface Max 
 RRUN.                    L604:  Rig Run Number 
 RTIM.hr                  7.00:  Time Reaming 
 SAZI.deg               109.27:  Azm, Start 
 SDEP.m                4761.01:  Start Depth 
 SIDD.                      No:  Serv Intrp, DD 
 SINC.deg                75.38:  Inc, Start 
 SPPA.psig             3574.00:  SPP Avg 
 SPPN.psig             3475.00:  SPP Min 
 SPPX.psig             3791.00:  SPP Max 
 STIM.      07.08.48 13-May-20:  Start Time 
 SVCS.                 DD, MWD:  Services 
 SVER.                    9.20:  Sperry Version 
 TDAT.m                 363.00:  Tot Depth Attmp 
 TDDF.                      No:  Trip for DD 
 TDLG.m                 363.00:  Tot Depth Loggd 
 TFF .                      No:  Trip for Fail 
 TQAA.f-kp               20.00:  Torque Abs Avg 
 TQAN.f-kp               18.00:  Torque Abs Min 
 TQAX.f-kp               22.00:  Torque Abs Max 
 TRRT.°/30m              -0.35:  Turn Rotating 
 MRT .                    HCIM:  Maximum Recorded Temperature 
 TTMX.degC               92.16:  Max Tool Temp 
 VS01.                90586518:  Virtual Str1 SN 
 VS02.        AZ90560654Z1W1C6:  Virtual Str2 SN 
 VS03.           AZ90610398F11:  Virtual Str3 SN 
 VS04.                90514975:  Virtual Str4 SN 
 VS05.                90514972:  Virtual Str5 SN 
 VS06.     AZ90603282F11V7D1A6:  Virtual Str6 SN 
 WBMN.klb                 7.00:  WOB Min 
 WOBA.klb                12.00:  WOB Avg 
 WOBX.klb                14.00:  WOB Max 
 YP  .lhf2               32.00:  Yield Point 
~Curve Information Block
#MNEM.UNIT                 API CODE     Curve Description
#---------               -----------    ---------------------------
 TIME.HHMMSS            00 000 000 000:  GT Time & Date
 GTDEPTH.m              00 000 000 000:  GT Depth
 GTPQH.psia             00 000 000 000:  GT HR Quartz Pressure
 GTTQ.degC              00 000 000 000:  GT Quartz Temperature
 GTTN.NONE              00 000 000 000:  GT Test Number
 GTET.sec               00 000 000 000:  GT Elapsed Test Time
 GTTVD.m                00 000 000 000:  GT True Vertical Depth
#Other Information
#
#WARRANTY: Halliburton will use its best efforts to furnish customers with 
#accurate information and interpretations that are part of, and incident to, the services 
#provided.  However, Halliburton cannot and does not warrant the accuracy 
#or correctness of such information and interpretations.  Under no circumstances should any 
#such information or interpretation be relied upon as the sole basis for any drilling, 
#completion, production, or financial decision or any procedure involving any risk to the 
#safety of any drilling venture, drilling rig or its crew or any other third party.  The 
#Customer has full responsibility for all drilling, completion and production operation.  
#Halliburton makes no representations or warranties, either expressed or 
#implied, including, but not limited to, the implied warranties of merchantability or fitness 
#for a particular purpose, with respect to the services rendered.  In no event will 
#Halliburton be liable for failure to obtain any particular results or for 
#any damages, including, but not limited to, indirect, special or consequential damages, 
#resulting from the use of any information or interpretation provided by Halliburton.
#
~A           TIME           GTDEPTH  GTPQH  GTTQ  GTTN  GTET   GTTVD  
# ...
   19:40:56.592.17-May-2020 4994.01 2917.34 69.74 4.00 229.98 2591.05
   19:40:56.792.17-May-2020 4994.01 2917.34 69.74 4.00 230.18 2591.05
   19:40:56.992.17-May-2020 4994.01 2917.33 69.74 4.00 230.38 2591.05
   19:40:57.192.17-May-2020 4994.01 2917.33 69.74 4.00 230.58 2591.05
   19:40:57.392.17-May-2020 4994.01 2917.33 69.74 4.00 230.78 2591.05
   19:40:57.592.17-May-2020 4994.01 2917.32 69.74 4.00 230.98 2591.05
   19:40:57.792.17-May-2020 4994.01 2917.32 69.74 4.00 231.18 2591.05
   19:40:57.992.17-May-2020 4994.01 2917.42 69.74 4.00 231.38 2591.05
   19:40:58.192.17-May-2020 4994.01 2917.26 69.74 4.00 231.58 2591.05
   19:40:58.392.17-May-2020 4994.01 2917.36 69.74 4.00 231.78 2591.05
   19:40:58.592.17-May-2020 4994.01 2917.37 69.74 4.00 231.98 2591.05
   19:40:58.792.17-May-2020 4994.01 2917.37 69.74 4.00 232.18 2591.05
   19:40:58.992.17-May-2020 4994.01 2917.36 69.74 4.00 232.38 2591.05
   19:40:59.192.17-May-2020 4994.01 2917.31 69.74 4.00 232.58 2591.05
   19:40:59.392.17-May-2020 4994.01 2917.34 69.74 4.00 232.78 2591.05
   19:40:59.592.17-May-2020 4994.01 2917.37 69.74 4.00 232.98 2591.05
   19:40:59.792.17-May-2020 4994.01 2917.37 69.74 4.00 233.18 2591.05
   19:40:59.992.17-May-2020 4994.01 2917.39 69.74 4.00 233.38 2591.05
   19:41:00.192.17-May-2020 4994.01 2917.33 69.74 4.00 233.58 2591.05
   19:41:00.392.17-May-2020 4994.01 2917.42 69.74 4.00 233.78 2591.05
   19:41:00.592.17-May-2020 4994.01 2917.27 69.74 4.00 233.98 2591.05
   19:41:00.792.17-May-2020 4994.01 2917.27 69.74 4.00 234.18 2591.05
   19:41:00.992.17-May-2020 4994.01 2917.34 69.74 4.00 234.38 2591.05
   19:41:01.192.17-May-2020 4994.01 2917.32 69.74 4.00 234.58 2591.05
   19:41:01.392.17-May-2020 4994.01 2917.33 69.74 4.00 234.78 2591.05
   19:41:01.592.17-May-2020 4994.01 2917.33 69.74 4.00 234.98 2591.05
   19:41:01.792.17-May-2020 4994.01 2917.33 69.74 4.00 235.18 2591.05
   19:41:01.992.17-May-2020 4994.01 2917.32 69.74 4.00 235.38 2591.05
   19:41:02.192.17-May-2020 4994.01 2917.32 69.74 4.00 235.58 2591.05
   19:41:02.392.17-May-2020 4994.01 2917.32 69.74 4.00 235.78 2591.05
   19:41:02.592.17-May-2020 4994.01 2917.35 69.74 4.00 235.98 2591.05
   19:41:02.792.17-May-2020 4994.01 2917.35 69.74 4.00 236.18 2591.05
   19:41:02.991.17-May-2020 4994.01 2917.30 69.74 4.00 236.38 2591.05
   19:41:03.191.17-May-2020 4994.01 2917.34 69.74 4.00 236.58 2591.05
   19:41:03.391.17-May-2020 4994.01 2917.35 69.73 4.00 236.78 2591.05
   19:41:03.591.17-May-2020 4994.01 2917.33 69.73 4.00 236.98 2591.05
   19:41:03.791.17-May-2020 4994.01 2917.33 69.73 4.00 237.18 2591.05
   19:41:03.991.17-May-2020 4994.01 2917.33 69.73 4.00 237.38 2591.05
   19:41:04.191.17-May-2020 4994.01 2917.31 69.73 4.00 237.58 2591.05
   19:41:04.391.17-May-2020 4994.01 2917.32 69.73 4.00 237.78 2591.05
   19:41:04.591.17-May-2020 4994.01 2917.43 69.73 4.00 237.98 2591.05
   19:41:04.791.17-May-2020 4994.01 2917.26 69.73 4.00 238.18 2591.05
   19:41:04.991.17-May-2020 4994.01 2917.34 69.73 4.00 238.38 2591.05
   19:41:05.191.17-May-2020 4994.01 2917.34 69.73 4.00 238.58 2591.05
   19:41:05.391.17-May-2020 4994.01 2917.34 69.73 4.00 238.78 2591.05
   19:41:05.591.17-May-2020 4994.01 2917.41 69.73 4.00 238.98 2591.05
   19:41:05.791.17-May-2020 4994.01 2917.41 69.73 4.00 239.18 2591.05
   19:41:05.991.17-May-2020 4994.01 2917.32 69.73 4.00 239.38 2591.05
   19:41:06.191.17-May-2020 4994.01 2917.42 69.73 4.00 239.58 2591.05
   19:41:06.391.17-May-2020 4994.01 2917.29 69.73 4.00 239.78 2591.05
   19:41:06.591.17-May-2020 4994.01 2917.34 69.73 4.00 239.98 2591.05
   19:41:06.791.17-May-2020 4994.01 2917.34 69.73 4.00 240.18 2591.05
   19:41:06.991.17-May-2020 4994.01 2917.41 69.73 4.00 240.38 2591.05
   19:41:07.191.17-May-2020 4994.01 2917.29 69.73 4.00 240.58 2591.05
   19:41:07.391.17-May-2020 4994.01 2917.33 69.73 4.00 240.78 2591.05
   19:41:07.591.17-May-2020 4994.01 2917.33 69.73 4.00 240.98 2591.05
   19:41:07.791.17-May-2020 4994.01 2917.33 69.73 4.00 241.18 2591.05
   19:41:07.991.17-May-2020 4994.01 2917.32 69.73 4.00 241.38 2591.05
   19:41:08.191.17-May-2020 4994.01 2917.33 69.73 4.00 241.58 2591.05
   19:41:08.391.17-May-2020 4994.01 2917.33 69.73 4.00 241.78 2591.05
   19:41:08.591.17-May-2020 4994.01 2917.32 69.73 4.00 241.98 2591.05
   19:41:08.791.17-May-2020 4994.01 2917.32 69.73 4.00 242.18 2591.05
   19:41:08.991.17-May-2020 4994.01 2917.31 69.73 4.00 242.38 2591.05
   19:41:09.191.17-May-2020 4994.01 2917.33 69.73 4.00 242.58 2591.05
   19:41:09.391.17-May-2020 4994.01 2917.41 69.73 4.00 242.78 2591.05
   19:41:09.591.17-May-2020 4994.01 2917.29 69.73 4.00 242.98 2591.05
   19:41:09.791.17-May-2020 4994.01 2917.29 69.73 4.00 243.18 2591.05
   19:41:09.991.17-May-2020 4994.01 2917.33 69.73 4.00 243.38 2591.05
   19:41:10.191.17-May-2020 4994.01 2917.33 69.73 4.00 243.58 2591.05
   19:41:10.391.17-May-2020 4994.01 2917.31 69.73 4.00 243.78 2591.05
   19:41:10.591.17-May-2020 4994.01 2917.31 69.73 4.00 243.98 2591.05
   19:41:10.791.17-May-2020 4994.01 2917.31 69.73 4.00 244.18 2591.05
   19:41:10.991.17-May-2020 4994.01 2917.31 69.73 4.00 244.38 2591.05
   19:41:11.191.17-May-2020 4994.01 2917.43 69.73 4.00 244.58 2591.05
   19:41:11.391.17-May-2020 4994.01 2917.27 69.73 4.00 244.78 2591.05
   19:41:11.591.17-May-2020 4994.01 2917.31 69.73 4.00 244.98 2591.05
   19:41:11.791.17-May-2020 4994.01 2917.31 69.73 4.00 245.18 2591.05
   19:41:11.991.17-May-2020 4994.01 2917.35 69.73 4.00 245.38 2591.05
   19:41:12.191.17-May-2020 4994.01 2917.41 69.73 4.00 245.58 2591.05
   19:41:12.391.17-May-2020 4994.01 2917.30 69.73 4.00 245.78 2591.05
   19:41:12.591.17-May-2020 4994.01 2917.30 69.73 4.00 245.98 2591.05
   19:41:12.791.17-May-2020 4994.01 2917.30 69.73 4.00 246.18 2591.05
   19:41:12.991.17-May-2020 4994.01 2917.23 69.73 4.00 246.38 2591.05
   19:41:13.191.17-May-2020 4994.01 2917.35 69.73 4.00 246.58 2591.05
   19:41:13.391.17-May-2020 4994.01 2917.34 69.73 4.00 246.78 2591.05
   19:41:13.591.17-May-2020 4994.01 2917.35 69.73 4.00 246.98 2591.05
   19:41:13.791.17-May-2020 4994.01 2917.35 69.73 4.00 247.18 2591.05
   19:41:13.991.17-May-2020 4994.01 2917.28 69.73 4.00 247.38 2591.05
   19:41:14.191.17-May-2020 4994.01 2917.33 69.72 4.00 247.58 2591.05
   19:41:14.391.17-May-2020 4994.01 2917.33 69.72 4.00 247.78 2591.05
   19:41:14.591.17-May-2020 4994.01 2917.31 69.72 4.00 247.98 2591.05
   19:41:14.791.17-May-2020 4994.01 2917.31 69.72 4.00 248.18 2591.05
   19:41:14.991.17-May-2020 4994.01 2917.32 69.72 4.00 248.38 2591.05
   19:41:15.191.17-May-2020 4994.01 2917.31 69.72 4.00 248.58 2591.05
   19:41:15.391.17-May-2020 4994.01 2917.30 69.72 4.00 248.78 2591.05
   19:41:15.591.17-May-2020 4994.01 2917.33 69.72 4.00 248.98 2591.05
   19:41:15.791.17-May-2020 4994.01 2917.33 69.72 4.00 249.18 2591.05
   19:41:15.990.17-May-2020 4994.01 2917.35 69.72 4.00 249.38 2591.05
   19:41:16.190.17-May-2020 4994.01 2917.31 69.72 4.00 249.58 2591.05
   19:41:16.390.17-May-2020 4994.01 2917.29 69.72 4.00 249.78 2591.05
   19:41:16.590.17-May-2020 4994.01 2917.32 69.72 4.00 249.98 2591.05
   19:41:16.790.17-May-2020 4994.01 2917.32 69.72 4.00 250.18 2591.05
   19:41:16.990.17-May-2020 4994.01 2917.30 69.72 4.00 250.38 2591.05
   19:41:17.190.17-May-2020 4994.01 2917.31 69.72 4.00 250.58 2591.05
   19:41:17.390.17-May-2020 4994.01 2917.30 69.72 4.00 250.78 2591.05
   19:41:17.590.17-May-2020 4994.01 2917.30 69.72 4.00 250.98 2591.05
   19:41:17.790.17-May-2020 4994.01 2917.30 69.72 4.00 251.18 2591.05
   19:41:17.990.17-May-2020 4994.01 2917.34 69.72 4.00 251.38 2591.05
   19:41:18.190.17-May-2020 4994.01 2917.28 69.72 4.00 251.58 2591.05
   19:41:18.390.17-May-2020 4994.01 2917.37 69.72 4.00 251.78 2591.05
   19:41:18.590.17-May-2020 4994.01 2917.33 69.72 4.00 251.98 2591.05
   19:41:18.790.17-May-2020 4994.01 2917.33 69.72 4.00 252.18 2591.05
   19:41:18.990.17-May-2020 4994.01 2917.33 69.72 4.00 252.38 2591.05
   19:41:19.190.17-May-2020 4994.01 2917.28 69.72 4.00 252.58 2591.05
   19:41:19.390.17-May-2020 4994.01 2917.41 69.72 4.00 252.78 2591.05
