~Version Information
 VERS.                  2.0:   CWLS log ASCII Standard -VERSION 2.0
 WRAP.                   NO:   One line per depth step
~Well Information Block
#MNEM.UNIT     VALUE/NAME     DESCRIPTION
#---------     -----------    ---------------------------
 STRT.S             23:36:46 17-May-20: START TIME 23:36:46 17-May-20
 STOP.S             23:44:24 17-May-20: STOP TIME  23:44:24 17-May-20
 STEP.S                   0.00: STEP TIME
 NULL.                 -999.25: NULL VALUE
 UNIT.                     N/A:  LOGGING EQUIPMENT ID
 DCON.         Sperry Drilling:  DIRECTNL CONTR
 DOE .                     N/A:  DOE NUMBER
 JOBN.        AZ-XX-0906252240:  JOB TICKET NUMB
 MWDS.                     N/A:  MWD SHOP
 PROV.                    Baku:  PROVINCE
 STAT.                    Baku:  STATE NAME
 REGN.                   EESSA:  REGION
 BASE.              Azerbaijan:  LOGGING EQUIPMENT BASE LOCATION
 UWI .                     N/A:  UNIQUE WELL IDENTIFIER
 API .                     N/A:  API NUMBER
 MDS .        Operator Entered:  MAG DATA SOURCE
 WTYP.                Deviated:  WELL TYPE
 COMP.     BP Exploration (Caspian Sea) Ltd.:  COMPANY
 SRVC.          Turan Drilling:  CONTRACTOR
 WELL.           J23 (Slot 07):  WELL NAME
 CTRY.              Azerbaijan:  COUNTRY NAME
 FLD .                     ACG:  FIELD NAME
 PDAT.          Mean Sea Level:  PERMANENT DATUM
 RIG .             West Chirag:  RIG NAME
 SON .        AZ-XX-0906252240:  JOB NUMBER
 FTOP.          Formation Tops:  FORM TOPS DESC
 ILTD.               Lithology:  INTERP LTH DESC
 SVYD.                  Survey:  SURVEY DESC
 DMOD.             Drill Model:  DRILL MOD DESC
 HPTY.       Minimum Curvature:  HOLE POS TYPE
 NREF.                    Grid:  NORTH REFERENCE
 SPUD.               27-Aug-20:  SPUD DATE
 DATE.      00.00.00 19-May-20:  END TIME
 STIM.      03.00.00 25-Mar-20:  START TIME
 DMF .             Drill Floor:  DRILL MEAS FROM
 DFST.                        :  DIST FSL TEXT
 DFWT.                        :  DIST FWL TEXT
 CNTY.                        :  COUNTY
 LOC .                        :  LOCATION
 LMF .             Drill Floor:  LOG MEASURED FROM
 VSNS.m                   9.43:  VERT SEC N/S
 VSEW.m                  -8.91:  VERT SEC E/W
 AGAP.m                  43.00:  AIR GAP
 DEP .m                 354.17:  DEPTH
 APD .m                  43.00:  DEPTH ABOVE PD
 WDMS.m                 169.80:  WD ELEV
 EGL .m                   0.00:  GROUND ELEVATION
 EPD .m                   0.00:  ELEVATION
 AZTC.deg                 6.31:  AZM TOTAL CORR
 GRDC.deg                 0.14:  GRID CORRECTION
 MDEC.deg                 6.45:  MAGNETIC DECL
 MDIP.deg                59.56:  MAGNETIC DIP
 MFLD.nT              50295.00:  MAGNETIC FIELD
 GVFD.g                   1.00:  GRAVITY FIELD
 VSDR.deg               179.88:  VERT SEC DIRECT
 TDD .m                5150.01:  TOTAL DEPTH (DRILLER)
 SDEP.m                 864.00:  START DEPTH
 DFSL.m                   0.00:  DISTANCE FSL
 DFWL.m                   0.00:  DISTANCE FWL
 UTMY.m             4443793.85:  UTM Y
 UTMX.m              519005.06:  UTM X
 WHEW.m                  -8.91:  WELL HEAD E/W
 WHNS.m                   9.43:  WELL HEAD N/S
 LONG.deg                51.22:  LONGITUDE
 LATI.deg                40.13:  LATITUDE
 TVDS.m                  43.00:  TVDSS CORRECTN
 EKB .m                   0.00:  KB ELEVATION
 EDF .m                  43.00:  DF ELEVATION
 TDL .m                 363.00:  TOTAL DEPTH (LOGGER)
 MAGU.                 1850802:  MAGUTM CHECKSUM
 VSC .                       0:  VS TO CLOSURE
~Parameter Information Block
#MNEM.UNIT       Value        Description
#---------     -----------    ---------------------------
 AV  .mps                 2.30:  Ann Velocity 
 AVMX.mps                 4.40:  Max Ann Veloc 
 AZIF.deg               110.24:  Azm, Final 
 BHAT.        Rotary Steerable:  BHA Type 
 BREV.rev               331.00:  Rev Bit Total 
 BROT.°/30m               0.00:  Build Rotating 
 BS  .in                  8.50:  Bit Size 
 BSZ .in                  8.50:  Bit Size 
 BTPL.psig              585.00:  Bit Press Loss 
 CABU.                     Yes:  Customer Abuse 
 TCS .hr                122.75:  Time Ciculation Ended 
 CV  .mps                 2.67:  Crit Velocity 
 CVMX.mps                 3.56:  Max Crit Veloc 
 DD1 .          Rashad Habibov:  Direct Drillr 1 
 DD2 .         Rasim Ibrahimov:  Direct Drillr 2 
 DDSV.               Geo-Pilot:  DD Service 
 DEFF.%                  98.00:  % Det Eff 
 DLRX.°/30m               0.75:  Dogleg Rot Max 
 DLSO.°/30m               1.25:  Dogleg Oriented 
 DLSX.°/30m               2.06:  Dogleg Str Max 
 DRET.      07.45.00 17-May-20:  Drill End Time 
 DRST.      22.50.00 15-May-20:  Drill Start Tim 
 DTIM.hr                 20.75:  Time Drilling 
 EDEP.m                5124.01:  End Depth 
 ENG1.           Eldar Hajiyev:  Engineer 1 
 ENG2.        Marcelo Sandoval:  Engineer 2 
 ENG3.        Davud huseynzada:  Engineer 3 
 ENG4.          Ruslan Safarov:  Engineer 4 
 ETIM.      04.33.00 23-May-20:  End Time 
 FLOI.gpm               450.00:  Flow In 
 FLON.gpm               400.00:  Flow In Min 
 FLOS.cptm                0.00:  Fluid Loss 
 FLOX.gpm               500.00:  Flow In Max 
 FTRO.       Formation Presure:  FTWD Run Obj 
 HFLO.                      No:  High Flow 
 HPRE.                     Yes:  High Pressure 
 HTEM.                      No:  High Temp 
 HYDO.m                   1.80:  Hydro Offset 
 IFIN.deg                75.06:  Inc, Final 
 IMAX.deg                75.38:  Inc Max 
 IMIN.deg                74.69:  Inc Min 
 IMND.m                5027.38:  Inc Min Depth 
 IMXD.m                4771.61:  Inc Max Depth 
 JARR.                      No:  Jarring 
 LETM.      07.45.00 17-May-20:  Log End Time 
 LOST.hr                     0:  Lost Rig Time 
 LSTM.      22.50.00 15-May-20:  Log Start Time 
 MDCL.ppm             42000.00:  Mud Chlorides 
 MDES.     Inversion Oil/Synthetic:  Mud Desc 
 DFD .sg                  1.34:  Mud Density 
 MDMN.sg                  1.34:  Dens Mud Min 
 MDMX.sg                  1.34:  Dens Mud Max 
 MOIL.                       0:  Run Mud Oil % 
 MOWR.                   67:33:  Run Mud OWR 
 MSND.                       0:  Run Mud Sand % 
 MSOL.                     1.8:  Run Mud Solids% 
 DFV .spqt               76.00:  Mud Viscosity 
 MWOD.in                  6.75:  MWD Tool OD 
 MWSI.                      No:  Serv Intrp, MWD 
 OTIM.hr                228.19:  Time Operating 
 PCON.           Look Like New:  Pad Condition 
 PMAX.psia             6164.70:  Press Op, Max 
 PV  .cP                 28.00:  Mud PV 
 RUN .                     900:  Run Number 
 ROPA.m/hr               19.00:  ROP Avg 
 ROPN.m/hr               11.00:  ROP Min 
 ROPX.m/hr               36.00:  ROP Max 
 RPMA.rpm               120.00:  RPM Surface Avg 
 RPMN.rpm               120.00:  RPM Surface Min 
 RPMX.rpm               120.00:  RPM Surface Max 
 RRUN.                    L604:  Rig Run Number 
 RTIM.hr                  7.00:  Time Reaming 
 SAZI.deg               109.27:  Azm, Start 
 SDEP.m                4761.01:  Start Depth 
 SIDD.                      No:  Serv Intrp, DD 
 SINC.deg                75.38:  Inc, Start 
 SPPA.psig             3574.00:  SPP Avg 
 SPPN.psig             3475.00:  SPP Min 
 SPPX.psig             3791.00:  SPP Max 
 STIM.      07.08.48 13-May-20:  Start Time 
 SVCS.                 DD, MWD:  Services 
 SVER.                    9.20:  Sperry Version 
 TDAT.m                 363.00:  Tot Depth Attmp 
 TDDF.                      No:  Trip for DD 
 TDLG.m                 363.00:  Tot Depth Loggd 
 TFF .                      No:  Trip for Fail 
 TQAA.f-kp               20.00:  Torque Abs Avg 
 TQAN.f-kp               18.00:  Torque Abs Min 
 TQAX.f-kp               22.00:  Torque Abs Max 
 TRRT.°/30m              -0.35:  Turn Rotating 
 MRT .                    HCIM:  Maximum Recorded Temperature 
 TTMX.degC               92.16:  Max Tool Temp 
 VS01.                90586518:  Virtual Str1 SN 
 VS02.        AZ90560654Z1W1C6:  Virtual Str2 SN 
 VS03.           AZ90610398F11:  Virtual Str3 SN 
 VS04.                90514975:  Virtual Str4 SN 
 VS05.                90514972:  Virtual Str5 SN 
 VS06.     AZ90603282F11V7D1A6:  Virtual Str6 SN 
 WBMN.klb                 7.00:  WOB Min 
 WOBA.klb                12.00:  WOB Avg 
 WOBX.klb                14.00:  WOB Max 
 YP  .lhf2               32.00:  Yield Point 
~Curve Information Block
#MNEM.UNIT                 API CODE     Curve Description
#---------               -----------    ---------------------------
 TIME.HHMMSS            00 000 000 000:  GT Time & Date
 GTDEPTH.m              00 000 000 000:  GT Depth
 GTPQH.psia             00 000 000 000:  GT HR Quartz Pressure
 GTTQ.degC              00 000 000 000:  GT Quartz Temperature
 GTTN.NONE              00 000 000 000:  GT Test Number
 GTET.sec               00 000 000 000:  GT Elapsed Test Time
 GTTVD.m                00 000 000 000:  GT True Vertical Depth
#Other Information
#
#WARRANTY: Halliburton will use its best efforts to furnish customers with 
#accurate information and interpretations that are part of, and incident to, the services 
#provided.  However, Halliburton cannot and does not warrant the accuracy 
#or correctness of such information and interpretations.  Under no circumstances should any 
#such information or interpretation be relied upon as the sole basis for any drilling, 
#completion, production, or financial decision or any procedure involving any risk to the 
#safety of any drilling venture, drilling rig or its crew or any other third party.  The 
#Customer has full responsibility for all drilling, completion and production operation.  
#Halliburton makes no representations or warranties, either expressed or 
#implied, including, but not limited to, the implied warranties of merchantability or fitness 
#for a particular purpose, with respect to the services rendered.  In no event will 
#Halliburton be liable for failure to obtain any particular results or for 
#any damages, including, but not limited to, indirect, special or consequential damages, 
#resulting from the use of any information or interpretation provided by Halliburton.
#
~A           TIME           GTDEPTH  GTPQH  GTTQ  GTTN  GTET   GTTVD  
# ...
   23:42:53.883.17-May-2020 4902.01 5511.22 66.29 9.00 367.81 2567.50
   23:42:54.083.17-May-2020 4902.01 5511.22 66.29 9.00 368.01 2567.50
   23:42:54.283.17-May-2020 4902.01 5502.31 66.29 9.00 368.21 2567.50
   23:42:54.483.17-May-2020 4902.01 5504.84 66.29 9.00 368.41 2567.50
   23:42:54.683.17-May-2020 4902.01 5504.09 66.29 9.00 368.61 2567.50
   23:42:54.883.17-May-2020 4902.01 5498.42 66.29 9.00 368.81 2567.50
   23:42:55.083.17-May-2020 4902.01 5498.42 66.29 9.00 369.01 2567.50
   23:42:55.283.17-May-2020 4902.01 5505.67 66.29 9.00 369.21 2567.50
   23:42:55.482.17-May-2020 4902.01 5501.84 66.29 9.00 369.41 2567.50
   23:42:55.682.17-May-2020 4902.01 5509.26 66.29 9.00 369.61 2567.50
   23:42:55.882.17-May-2020 4902.01 5499.76 66.30 9.00 369.81 2567.50
   23:42:56.082.17-May-2020 4902.01 5499.76 66.30 9.00 370.01 2567.50
   23:42:56.282.17-May-2020 4902.01 5499.53 66.30 9.00 370.21 2567.50
   23:42:56.482.17-May-2020 4902.01 5501.95 66.30 9.00 370.41 2567.50
   23:42:56.682.17-May-2020 4902.01 5499.35 66.30 9.00 370.61 2567.50
   23:42:56.882.17-May-2020 4902.01 5500.21 66.30 9.00 370.81 2567.50
   23:42:57.082.17-May-2020 4902.01 5500.21 66.30 9.00 371.01 2567.50
   23:42:57.281.17-May-2020 4902.01 5515.84 66.31 9.00 371.21 2567.50
   23:42:57.481.17-May-2020 4902.01 5491.54 66.31 9.00 371.41 2567.50
   23:42:57.681.17-May-2020 4902.01 5506.91 66.31 9.00 371.61 2567.50
   23:42:57.881.17-May-2020 4902.01 5500.20 66.31 9.00 371.81 2567.50
   23:42:58.081.17-May-2020 4902.01 5500.20 66.31 9.00 372.01 2567.50
   23:42:58.281.17-May-2020 4902.01 5499.50 66.31 9.00 372.21 2567.50
   23:42:58.481.17-May-2020 4902.01 5499.98 66.31 9.00 372.41 2567.50
   23:42:58.681.17-May-2020 4902.01 5498.40 66.32 9.00 372.61 2567.50
   23:42:58.881.17-May-2020 4902.01 5498.37 66.32 9.00 372.81 2567.50
   23:42:59.081.17-May-2020 4902.01 5498.37 66.32 9.00 373.01 2567.50
   23:42:59.280.17-May-2020 4902.01 5498.31 66.32 9.00 373.21 2567.50
   23:42:59.480.17-May-2020 4902.01 5511.08 66.32 9.00 373.41 2567.50
   23:42:59.680.17-May-2020 4902.01 5494.12 66.32 9.00 373.61 2567.50
   23:42:59.880.17-May-2020 4902.01 5509.80 66.32 9.00 373.81 2567.50
   23:43:00.080.17-May-2020 4902.01 5509.80 66.32 9.00 374.01 2567.50
   23:43:00.280.17-May-2020 4902.01 5500.47 66.32 9.00 374.21 2567.50
   23:43:00.480.17-May-2020 4902.01 5504.24 66.33 9.00 374.41 2567.50
   23:43:00.680.17-May-2020 4902.01 5515.86 66.33 9.00 374.61 2567.50
   23:43:00.880.17-May-2020 4902.01 5501.48 66.33 9.00 374.81 2567.50
   23:43:01.080.17-May-2020 4902.01 5501.48 66.33 9.00 375.01 2567.50
   23:43:01.279.17-May-2020 4902.01 5508.45 66.33 9.00 375.21 2567.50
   23:43:01.479.17-May-2020 4902.01 5501.49 66.33 9.00 375.41 2567.50
   23:43:01.679.17-May-2020 4902.01 5518.56 66.33 9.00 375.61 2567.50
   23:43:01.879.17-May-2020 4902.01 5495.74 66.33 9.00 375.81 2567.50
   23:43:02.079.17-May-2020 4902.01 5495.74 66.33 9.00 376.01 2567.50
   23:43:02.279.17-May-2020 4902.01 5503.69 66.33 9.00 376.21 2567.50
   23:43:02.479.17-May-2020 4902.01 5504.88 66.33 9.00 376.41 2567.50
   23:43:02.679.17-May-2020 4902.01 5501.86 66.33 9.00 376.61 2567.50
   23:43:02.879.17-May-2020 4902.01 5503.14 66.33 9.00 376.81 2567.50
   23:43:03.079.17-May-2020 4902.01 5503.14 66.33 9.00 377.01 2567.50
   23:43:03.278.17-May-2020 4902.01 5500.95 66.33 9.00 377.21 2567.50
   23:43:03.478.17-May-2020 4902.01 5500.83 66.33 9.00 377.41 2567.50
   23:43:03.678.17-May-2020 4902.01 5510.20 66.33 9.00 377.61 2567.50
   23:43:03.878.17-May-2020 4902.01 5500.60 66.33 9.00 377.81 2567.50
   23:43:04.078.17-May-2020 4902.01 5500.60 66.33 9.00 378.01 2567.50
   23:43:04.278.17-May-2020 4902.01 5506.77 66.33 9.00 378.21 2567.50
   23:43:04.478.17-May-2020 4902.01 5498.91 66.33 9.00 378.41 2567.50
   23:43:04.678.17-May-2020 4902.01 5502.87 66.33 9.00 378.61 2567.50
   23:43:04.878.17-May-2020 4902.01 5498.99 66.33 9.00 378.81 2567.50
   23:43:05.077.17-May-2020 4902.01 5498.99 66.33 9.00 379.01 2567.50
   23:43:05.277.17-May-2020 4902.01 5498.25 66.33 9.00 379.21 2567.50
   23:43:05.477.17-May-2020 4902.01 5498.89 66.33 9.00 379.41 2567.50
   23:43:05.677.17-May-2020 4902.01 5497.95 66.33 9.00 379.61 2567.50
   23:43:05.877.17-May-2020 4902.01 5500.15 66.33 9.00 379.81 2567.50
   23:43:06.077.17-May-2020 4902.01 5500.15 66.33 9.00 380.00 2567.50
   23:43:06.277.17-May-2020 4902.01 5496.60 66.33 9.00 380.20 2567.50
   23:43:06.477.17-May-2020 4902.01 5508.15 66.33 9.00 380.40 2567.50
   23:43:06.677.17-May-2020 4902.01 5497.31 66.33 9.00 380.60 2567.50
   23:43:06.877.17-May-2020 4902.01 5514.42 66.33 9.00 380.80 2567.50
   23:43:07.076.17-May-2020 4902.01 5514.42 66.33 9.00 381.00 2567.50
   23:43:07.276.17-May-2020 4902.01 5511.71 66.33 9.00 381.20 2567.50
   23:43:07.476.17-May-2020 4902.01 5496.68 66.33 9.00 381.40 2567.50
   23:43:07.676.17-May-2020 4902.01 5506.88 66.33 9.00 381.60 2567.50
   23:43:07.876.17-May-2020 4902.01 5506.70 66.33 9.00 381.80 2567.50
   23:43:08.076.17-May-2020 4902.01 5506.70 66.33 9.00 382.00 2567.50
   23:43:08.276.17-May-2020 4902.01 5508.28 66.33 9.00 382.20 2567.50
   23:43:08.476.17-May-2020 4902.01 5514.24 66.33 9.00 382.40 2567.50
   23:43:08.676.17-May-2020 4902.01 5499.15 66.33 9.00 382.60 2567.50
   23:43:08.876.17-May-2020 4902.01 5505.37 66.33 9.00 382.80 2567.50
   23:43:09.075.17-May-2020 4902.01 5505.37 66.33 9.00 383.00 2567.50
   23:43:09.275.17-May-2020 4902.01 5501.55 66.33 9.00 383.20 2567.50
   23:43:09.475.17-May-2020 4902.01 5502.77 66.33 9.00 383.40 2567.50
   23:43:09.675.17-May-2020 4902.01 5500.63 66.33 9.00 383.60 2567.50
   23:43:09.875.17-May-2020 4902.01 5500.83 66.33 9.00 383.80 2567.50
   23:43:10.075.17-May-2020 4902.01 5500.83 66.33 9.00 384.00 2567.50
   23:43:10.275.17-May-2020 4902.01 5500.23 66.33 9.00 384.20 2567.50
   23:43:10.475.17-May-2020 4902.01 5506.18 66.33 9.00 384.40 2567.50
   23:43:10.675.17-May-2020 4902.01 5501.13 66.33 9.00 384.60 2567.50
   23:43:10.875.17-May-2020 4902.01 5499.70 66.33 9.00 384.80 2567.50
   23:43:11.074.17-May-2020 4902.01 5499.70 66.33 9.00 385.00 2567.50
   23:43:11.274.17-May-2020 4902.01 5497.76 66.33 9.00 385.20 2567.50
   23:43:11.474.17-May-2020 4902.01 5501.57 66.33 9.00 385.40 2567.50
   23:43:11.674.17-May-2020 4902.01 5497.94 66.33 9.00 385.60 2567.50
   23:43:11.874.17-May-2020 4902.01 5498.94 66.33 9.00 385.80 2567.50
   23:43:12.074.17-May-2020 4902.01 5498.94 66.33 9.00 386.00 2567.50
   23:43:12.274.17-May-2020 4902.01 5498.58 66.33 9.00 386.20 2567.50
   23:43:12.474.17-May-2020 4902.01 5497.34 66.33 9.00 386.40 2567.50
   23:43:12.674.17-May-2020 4902.01 5497.66 66.33 9.00 386.60 2567.50
   23:43:12.873.17-May-2020 4902.01 5508.73 66.33 9.00 386.80 2567.50
   23:43:13.073.17-May-2020 4902.01 5508.73 66.33 9.00 387.00 2567.50
   23:43:13.273.17-May-2020 4902.01 5509.26 66.33 9.00 387.20 2567.50
   23:43:13.473.17-May-2020 4902.01 5500.28 66.33 9.00 387.40 2567.50
   23:43:13.673.17-May-2020 4902.01 5511.51 66.33 9.00 387.60 2567.50
   23:43:13.873.17-May-2020 4902.01 5496.22 66.33 9.00 387.80 2567.50
   23:43:14.073.17-May-2020 4902.01 5496.22 66.33 9.00 388.00 2567.50
   23:43:14.273.17-May-2020 4902.01 5497.23 66.33 9.00 388.20 2567.50
   23:43:14.473.17-May-2020 4902.01 5508.93 66.33 9.00 388.40 2567.50
   23:43:14.673.17-May-2020 4902.01 5504.08 66.33 9.00 388.60 2567.50
   23:43:14.872.17-May-2020 4902.01 5500.69 66.33 9.00 388.80 2567.50
   23:43:15.072.17-May-2020 4902.01 5500.69 66.33 9.00 389.00 2567.50
   23:43:15.272.17-May-2020 4902.01 5505.38 66.33 9.00 389.20 2567.50
   23:43:15.472.17-May-2020 4902.01 5503.79 66.33 9.00 389.40 2567.50
   23:43:15.672.17-May-2020 4902.01 5508.58 66.33 9.00 389.60 2567.50
   23:43:15.872.17-May-2020 4902.01 5500.79 66.33 9.00 389.80 2567.50
   23:43:16.072.17-May-2020 4902.01 5500.79 66.33 9.00 390.00 2567.50
   23:43:16.272.17-May-2020 4902.01 5500.45 66.33 9.00 390.20 2567.50
   23:43:16.472.17-May-2020 4902.01 5500.96 66.33 9.00 390.40 2567.50
   23:43:16.672.17-May-2020 4902.01 5499.08 66.33 9.00 390.60 2567.50
