~Version Information
 VERS.                  2.0:   CWLS log ASCII Standard -VERSION 2.0
 WRAP.                   NO:   One line per depth step
~Well Information Block
#MNEM.UNIT     VALUE/NAME     DESCRIPTION
#---------     -----------    ---------------------------
 STRT.S             02:13:59 18-May-20: START TIME 02:13:59 18-May-20
 STOP.S             02:21:38 18-May-20: STOP TIME  02:21:38 18-May-20
 STEP.S                   0.00: STEP TIME
 NULL.                 -999.25: NULL VALUE
 UNIT.                     N/A:  LOGGING EQUIPMENT ID
 DCON.         Sperry Drilling:  DIRECTNL CONTR
 DOE .                     N/A:  DOE NUMBER
 JOBN.        AZ-XX-0906252240:  JOB TICKET NUMB
 MWDS.                     N/A:  MWD SHOP
 PROV.                    Baku:  PROVINCE
 STAT.                    Baku:  STATE NAME
 REGN.                   EESSA:  REGION
 BASE.              Azerbaijan:  LOGGING EQUIPMENT BASE LOCATION
 UWI .                     N/A:  UNIQUE WELL IDENTIFIER
 API .                     N/A:  API NUMBER
 MDS .        Operator Entered:  MAG DATA SOURCE
 WTYP.                Deviated:  WELL TYPE
 COMP.     BP Exploration (Caspian Sea) Ltd.:  COMPANY
 SRVC.          Turan Drilling:  CONTRACTOR
 WELL.           J23 (Slot 07):  WELL NAME
 CTRY.              Azerbaijan:  COUNTRY NAME
 FLD .                     ACG:  FIELD NAME
 PDAT.          Mean Sea Level:  PERMANENT DATUM
 RIG .             West Chirag:  RIG NAME
 SON .        AZ-XX-0906252240:  JOB NUMBER
 FTOP.          Formation Tops:  FORM TOPS DESC
 ILTD.               Lithology:  INTERP LTH DESC
 SVYD.                  Survey:  SURVEY DESC
 DMOD.             Drill Model:  DRILL MOD DESC
 HPTY.       Minimum Curvature:  HOLE POS TYPE
 NREF.                    Grid:  NORTH REFERENCE
 SPUD.               27-Aug-20:  SPUD DATE
 DATE.      00.00.00 19-May-20:  END TIME
 STIM.      03.00.00 25-Mar-20:  START TIME
 DMF .             Drill Floor:  DRILL MEAS FROM
 DFST.                        :  DIST FSL TEXT
 DFWT.                        :  DIST FWL TEXT
 CNTY.                        :  COUNTY
 LOC .                        :  LOCATION
 LMF .             Drill Floor:  LOG MEASURED FROM
 VSNS.m                   9.43:  VERT SEC N/S
 VSEW.m                  -8.91:  VERT SEC E/W
 AGAP.m                  43.00:  AIR GAP
 DEP .m                 354.17:  DEPTH
 APD .m                  43.00:  DEPTH ABOVE PD
 WDMS.m                 169.80:  WD ELEV
 EGL .m                   0.00:  GROUND ELEVATION
 EPD .m                   0.00:  ELEVATION
 AZTC.deg                 6.31:  AZM TOTAL CORR
 GRDC.deg                 0.14:  GRID CORRECTION
 MDEC.deg                 6.45:  MAGNETIC DECL
 MDIP.deg                59.56:  MAGNETIC DIP
 MFLD.nT              50295.00:  MAGNETIC FIELD
 GVFD.g                   1.00:  GRAVITY FIELD
 VSDR.deg               179.88:  VERT SEC DIRECT
 TDD .m                5150.01:  TOTAL DEPTH (DRILLER)
 SDEP.m                 864.00:  START DEPTH
 DFSL.m                   0.00:  DISTANCE FSL
 DFWL.m                   0.00:  DISTANCE FWL
 UTMY.m             4443793.85:  UTM Y
 UTMX.m              519005.06:  UTM X
 WHEW.m                  -8.91:  WELL HEAD E/W
 WHNS.m                   9.43:  WELL HEAD N/S
 LONG.deg                51.22:  LONGITUDE
 LATI.deg                40.13:  LATITUDE
 TVDS.m                  43.00:  TVDSS CORRECTN
 EKB .m                   0.00:  KB ELEVATION
 EDF .m                  43.00:  DF ELEVATION
 TDL .m                 363.00:  TOTAL DEPTH (LOGGER)
 MAGU.                 1850802:  MAGUTM CHECKSUM
 VSC .                       0:  VS TO CLOSURE
~Parameter Information Block
#MNEM.UNIT       Value        Description
#---------     -----------    ---------------------------
 AV  .mps                 2.30:  Ann Velocity 
 AVMX.mps                 4.40:  Max Ann Veloc 
 AZIF.deg               110.24:  Azm, Final 
 BHAT.        Rotary Steerable:  BHA Type 
 BREV.rev               331.00:  Rev Bit Total 
 BROT.°/30m               0.00:  Build Rotating 
 BS  .in                  8.50:  Bit Size 
 BSZ .in                  8.50:  Bit Size 
 BTPL.psig              585.00:  Bit Press Loss 
 CABU.                     Yes:  Customer Abuse 
 COMM.                     ü9U:  Run Comments 1 
 TCS .hr                122.75:  Time Ciculation Ended 
 CV  .mps                 2.67:  Crit Velocity 
 CVMX.mps                 3.56:  Max Crit Veloc 
 DD1 .          Rashad Habibov:  Direct Drillr 1 
 DD2 .         Rasim Ibrahimov:  Direct Drillr 2 
 DDSV.               Geo-Pilot:  DD Service 
 DEFF.%                  98.00:  % Det Eff 
 DLRX.°/30m               0.75:  Dogleg Rot Max 
 DLSO.°/30m               1.25:  Dogleg Oriented 
 DLSX.°/30m               2.06:  Dogleg Str Max 
 DRET.      07.45.00 17-May-20:  Drill End Time 
 DRST.      22.50.00 15-May-20:  Drill Start Tim 
 DTIM.hr                 20.75:  Time Drilling 
 EDEP.m                5124.01:  End Depth 
 ENG1.           Eldar Hajiyev:  Engineer 1 
 ENG2.        Marcelo Sandoval:  Engineer 2 
 ENG3.        Davud huseynzada:  Engineer 3 
 ENG4.          Ruslan Safarov:  Engineer 4 
 ETIM.      04.33.00 23-May-20:  End Time 
 FLOI.gpm               450.00:  Flow In 
 FLON.gpm               400.00:  Flow In Min 
 FLOS.cptm                0.00:  Fluid Loss 
 FLOX.gpm               500.00:  Flow In Max 
 FTRO.       Formation Presure:  FTWD Run Obj 
 HFLO.                      No:  High Flow 
 HPRE.                     Yes:  High Pressure 
 HTEM.                      No:  High Temp 
 HYDO.m                   1.80:  Hydro Offset 
 IFIN.deg                75.06:  Inc, Final 
 IMAX.deg                75.38:  Inc Max 
 IMIN.deg                74.69:  Inc Min 
 IMND.m                5027.38:  Inc Min Depth 
 IMXD.m                4771.61:  Inc Max Depth 
 JARR.                      No:  Jarring 
 LETM.      07.45.00 17-May-20:  Log End Time 
 LOST.hr                     0:  Lost Rig Time 
 LSTM.      22.50.00 15-May-20:  Log Start Time 
 MDCL.ppm             42000.00:  Mud Chlorides 
 MDES.     Inversion Oil/Synthetic:  Mud Desc 
 DFD .sg                  1.34:  Mud Density 
 MDMN.sg                  1.34:  Dens Mud Min 
 MDMX.sg                  1.34:  Dens Mud Max 
 MOIL.                       0:  Run Mud Oil % 
 MOWR.                   67:33:  Run Mud OWR 
 MSND.                       0:  Run Mud Sand % 
 MSOL.                     1.8:  Run Mud Solids% 
 DFV .spqt               76.00:  Mud Viscosity 
 MWOD.in                  6.75:  MWD Tool OD 
 MWSI.                      No:  Serv Intrp, MWD 
 OTIM.hr                228.19:  Time Operating 
 PCON.           Look Like New:  Pad Condition 
 PMAX.psia             6164.70:  Press Op, Max 
 PV  .cP                 28.00:  Mud PV 
 RUN .                     900:  Run Number 
 ROPA.m/hr               19.00:  ROP Avg 
 ROPN.m/hr               11.00:  ROP Min 
 ROPX.m/hr               36.00:  ROP Max 
 RPMA.rpm               120.00:  RPM Surface Avg 
 RPMN.rpm               120.00:  RPM Surface Min 
 RPMX.rpm               120.00:  RPM Surface Max 
 RRUN.                    L604:  Rig Run Number 
 RTIM.hr                  7.00:  Time Reaming 
 SAZI.deg               109.27:  Azm, Start 
 SDEP.m                4761.01:  Start Depth 
 SIDD.                      No:  Serv Intrp, DD 
 SINC.deg                75.38:  Inc, Start 
 SPPA.psig             3574.00:  SPP Avg 
 SPPN.psig             3475.00:  SPP Min 
 SPPX.psig             3791.00:  SPP Max 
 STIM.      07.08.48 13-May-20:  Start Time 
 SVCS.                 DD, MWD:  Services 
 SVER.                    9.20:  Sperry Version 
 TDAT.m                 363.00:  Tot Depth Attmp 
 TDDF.                      No:  Trip for DD 
 TDLG.m                 363.00:  Tot Depth Loggd 
 TFF .                      No:  Trip for Fail 
 TQAA.f-kp               20.00:  Torque Abs Avg 
 TQAN.f-kp               18.00:  Torque Abs Min 
 TQAX.f-kp               22.00:  Torque Abs Max 
 TRRT.°/30m              -0.35:  Turn Rotating 
 MRT .                    HCIM:  Maximum Recorded Temperature 
 TTMX.degC               92.16:  Max Tool Temp 
 VS01.                90586518:  Virtual Str1 SN 
 VS02.        AZ90560654Z1W1C6:  Virtual Str2 SN 
 VS03.           AZ90610398F11:  Virtual Str3 SN 
 VS04.                90514975:  Virtual Str4 SN 
 VS05.                90514972:  Virtual Str5 SN 
 VS06.     AZ90603282F11V7D1A6:  Virtual Str6 SN 
 WBMN.klb                 7.00:  WOB Min 
 WOBA.klb                12.00:  WOB Avg 
 WOBX.klb                14.00:  WOB Max 
 YP  .lhf2               32.00:  Yield Point 
~Curve Information Block
#MNEM.UNIT                 API CODE     Curve Description
#---------               -----------    ---------------------------
 TIME.HHMMSS            00 000 000 000:  GT Time & Date
 GTDEPTH.m              00 000 000 000:  GT Depth
 GTPQH.psia             00 000 000 000:  GT HR Quartz Pressure
 GTTQ.degC              00 000 000 000:  GT Quartz Temperature
 GTTN.NONE              00 000 000 000:  GT Test Number
 GTET.sec               00 000 000 000:  GT Elapsed Test Time
 GTTVD.m                00 000 000 000:  GT True Vertical Depth
#Other Information
#
#WARRANTY: Halliburton will use its best efforts to furnish customers with 
#accurate information and interpretations that are part of, and incident to, the services 
#provided.  However, Halliburton cannot and does not warrant the accuracy 
#or correctness of such information and interpretations.  Under no circumstances should any 
#such information or interpretation be relied upon as the sole basis for any drilling, 
#completion, production, or financial decision or any procedure involving any risk to the 
#safety of any drilling venture, drilling rig or its crew or any other third party.  The 
#Customer has full responsibility for all drilling, completion and production operation.  
#Halliburton makes no representations or warranties, either expressed or 
#implied, including, but not limited to, the implied warranties of merchantability or fitness 
#for a particular purpose, with respect to the services rendered.  In no event will 
#Halliburton be liable for failure to obtain any particular results or for 
#any damages, including, but not limited to, indirect, special or consequential damages, 
#resulting from the use of any information or interpretation provided by Halliburton.
#
~A           TIME           GTDEPTH  GTPQH  GTTQ  GTTN   GTET   GTTVD  
# ...
   02:19:16.489.18-May-2020 4832.01 2681.80 65.96 12.00 316.53 2549.35
   02:19:16.689.18-May-2020 4832.01 2681.77 65.96 12.00 316.73 2549.35
   02:19:16.889.18-May-2020 4832.01 2681.80 65.96 12.00 316.93 2549.35
   02:19:17.089.18-May-2020 4832.01 2681.76 65.96 12.00 317.13 2549.35
   02:19:17.289.18-May-2020 4832.01 2681.76 65.96 12.00 317.33 2549.35
   02:19:17.489.18-May-2020 4832.01 2681.77 65.96 12.00 317.53 2549.35
   02:19:17.689.18-May-2020 4832.01 2681.76 65.96 12.00 317.73 2549.35
   02:19:17.889.18-May-2020 4832.01 2681.77 65.96 12.00 317.93 2549.35
   02:19:18.089.18-May-2020 4832.01 2681.77 65.96 12.00 318.13 2549.35
   02:19:18.290.18-May-2020 4832.01 2681.87 65.96 12.00 318.33 2549.35
   02:19:18.490.18-May-2020 4832.01 2682.50 65.96 12.00 318.53 2549.35
   02:19:18.690.18-May-2020 4832.01 2682.08 65.96 12.00 318.73 2549.35
   02:19:18.890.18-May-2020 4832.01 2681.97 65.96 12.00 318.93 2549.35
   02:19:19.090.18-May-2020 4832.01 2681.87 65.96 12.00 319.13 2549.35
   02:19:19.290.18-May-2020 4832.01 2681.87 65.96 12.00 319.33 2549.35
   02:19:19.490.18-May-2020 4832.01 2681.81 65.96 12.00 319.53 2549.35
   02:19:19.690.18-May-2020 4832.01 2681.83 65.96 12.00 319.73 2549.35
   02:19:19.890.18-May-2020 4832.01 2681.78 65.96 12.00 319.93 2549.35
   02:19:20.090.18-May-2020 4832.01 2681.76 65.96 12.00 320.13 2549.35
   02:19:20.290.18-May-2020 4832.01 2681.76 65.96 12.00 320.33 2549.35
   02:19:20.490.18-May-2020 4832.01 2681.78 65.96 12.00 320.53 2549.35
   02:19:20.691.18-May-2020 4832.01 2681.81 65.96 12.00 320.73 2549.35
   02:19:20.891.18-May-2020 4832.01 2681.86 65.96 12.00 320.93 2549.35
   02:19:21.091.18-May-2020 4832.01 2681.76 65.96 12.00 321.13 2549.35
   02:19:21.291.18-May-2020 4832.01 2681.77 65.96 12.00 321.33 2549.35
   02:19:21.491.18-May-2020 4832.01 2681.83 65.96 12.00 321.53 2549.35
   02:19:21.691.18-May-2020 4832.01 2681.81 65.96 12.00 321.73 2549.35
   02:19:21.891.18-May-2020 4832.01 2681.87 65.96 12.00 321.93 2549.35
   02:19:22.091.18-May-2020 4832.01 2681.93 65.96 12.00 322.13 2549.35
   02:19:22.291.18-May-2020 4832.01 2681.93 65.96 12.00 322.33 2549.35
   02:19:22.491.18-May-2020 4832.01 2681.82 65.96 12.00 322.53 2549.35
   02:19:22.691.18-May-2020 4832.01 2681.80 65.96 12.00 322.73 2549.35
   02:19:22.891.18-May-2020 4832.01 2681.77 65.96 12.00 322.93 2549.35
   02:19:23.091.18-May-2020 4832.01 2681.80 65.96 12.00 323.13 2549.35
   02:19:23.292.18-May-2020 4832.01 2681.80 65.96 12.00 323.33 2549.35
   02:19:23.492.18-May-2020 4832.01 2681.80 65.96 12.00 323.53 2549.35
   02:19:23.692.18-May-2020 4832.01 2681.81 65.96 12.00 323.73 2549.35
   02:19:23.892.18-May-2020 4832.01 2681.78 65.96 12.00 323.93 2549.35
   02:19:24.092.18-May-2020 4832.01 2681.78 65.96 12.00 324.13 2549.35
   02:19:24.292.18-May-2020 4832.01 2681.78 65.96 12.00 324.33 2549.35
   02:19:24.492.18-May-2020 4832.01 2681.78 65.96 12.00 324.53 2549.35
   02:19:24.692.18-May-2020 4832.01 2681.77 65.96 12.00 324.73 2549.35
   02:19:24.892.18-May-2020 4832.01 2681.78 65.96 12.00 324.93 2549.35
   02:19:25.092.18-May-2020 4832.01 2681.78 65.96 12.00 325.13 2549.35
   02:19:25.292.18-May-2020 4832.01 2681.78 65.96 12.00 325.33 2549.35
   02:19:25.492.18-May-2020 4832.01 2681.77 65.96 12.00 325.53 2549.35
   02:19:25.693.18-May-2020 4832.01 2681.80 65.96 12.00 325.73 2549.35
   02:19:25.893.18-May-2020 4832.01 2681.73 65.96 12.00 325.93 2549.35
   02:19:26.093.18-May-2020 4832.01 2681.81 65.96 12.00 326.13 2549.35
   02:19:26.293.18-May-2020 4832.01 2681.81 65.96 12.00 326.33 2549.35
   02:19:26.493.18-May-2020 4832.01 2681.80 65.96 12.00 326.53 2549.35
   02:19:26.693.18-May-2020 4832.01 2681.73 65.96 12.00 326.73 2549.35
   02:19:26.893.18-May-2020 4832.01 2681.75 65.96 12.00 326.93 2549.35
   02:19:27.093.18-May-2020 4832.01 2681.82 65.96 12.00 327.13 2549.35
   02:19:27.293.18-May-2020 4832.01 2681.82 65.96 12.00 327.33 2549.35
   02:19:27.493.18-May-2020 4832.01 2681.81 65.96 12.00 327.53 2549.35
   02:19:27.693.18-May-2020 4832.01 2681.80 65.96 12.00 327.73 2549.35
   02:19:27.893.18-May-2020 4832.01 2681.77 65.96 12.00 327.93 2549.35
   02:19:28.094.18-May-2020 4832.01 2681.76 65.96 12.00 328.13 2549.35
   02:19:28.294.18-May-2020 4832.01 2681.76 65.96 12.00 328.33 2549.35
   02:19:28.494.18-May-2020 4832.01 2681.75 65.96 12.00 328.53 2549.35
   02:19:28.694.18-May-2020 4832.01 2681.76 65.96 12.00 328.73 2549.35
   02:19:28.894.18-May-2020 4832.01 2681.77 65.96 12.00 328.93 2549.35
   02:19:29.094.18-May-2020 4832.01 2681.75 65.96 12.00 329.13 2549.35
   02:19:29.294.18-May-2020 4832.01 2681.75 65.96 12.00 329.33 2549.35
   02:19:29.494.18-May-2020 4832.01 2681.76 65.96 12.00 329.53 2549.35
   02:19:29.694.18-May-2020 4832.01 2681.75 65.96 12.00 329.73 2549.35
   02:19:29.894.18-May-2020 4832.01 2681.77 65.96 12.00 329.93 2549.35
   02:19:30.094.18-May-2020 4832.01 2681.76 65.96 12.00 330.13 2549.35
   02:19:30.294.18-May-2020 4832.01 2681.76 65.96 12.00 330.33 2549.35
   02:19:30.494.18-May-2020 4832.01 2681.78 65.96 12.00 330.53 2549.35
   02:19:30.695.18-May-2020 4832.01 2681.76 65.96 12.00 330.73 2549.35
   02:19:30.895.18-May-2020 4832.01 2681.75 65.96 12.00 330.93 2549.35
   02:19:31.095.18-May-2020 4832.01 2681.77 65.96 12.00 331.13 2549.35
   02:19:31.295.18-May-2020 4832.01 2681.77 65.96 12.00 331.33 2549.35
   02:19:31.495.18-May-2020 4832.01 2681.77 65.96 12.00 331.53 2549.35
   02:19:31.695.18-May-2020 4832.01 2681.76 65.96 12.00 331.73 2549.35
   02:19:31.895.18-May-2020 4832.01 2681.79 65.96 12.00 331.93 2549.35
   02:19:32.095.18-May-2020 4832.01 2681.80 65.96 12.00 332.13 2549.35
   02:19:32.295.18-May-2020 4832.01 2681.76 65.96 12.00 332.33 2549.35
   02:19:32.495.18-May-2020 4832.01 2681.76 65.96 12.00 332.53 2549.35
   02:19:32.695.18-May-2020 4832.01 2681.75 65.96 12.00 332.73 2549.35
   02:19:32.895.18-May-2020 4832.01 2681.78 65.96 12.00 332.93 2549.35
   02:19:33.096.18-May-2020 4832.01 2681.77 65.96 12.00 333.13 2549.35
   02:19:33.296.18-May-2020 4832.01 2681.77 65.96 12.00 333.33 2549.35
   02:19:33.496.18-May-2020 4832.01 2681.74 65.95 12.00 333.53 2549.35
   02:19:33.696.18-May-2020 4832.01 2681.78 65.95 12.00 333.73 2549.35
   02:19:33.896.18-May-2020 4832.01 2681.77 65.95 12.00 333.93 2549.35
   02:19:34.096.18-May-2020 4832.01 2681.77 65.95 12.00 334.13 2549.35
   02:19:34.296.18-May-2020 4832.01 2681.77 65.95 12.00 334.33 2549.35
   02:19:34.496.18-May-2020 4832.01 2681.74 65.95 12.00 334.53 2549.35
   02:19:34.696.18-May-2020 4832.01 2681.81 65.95 12.00 334.73 2549.35
   02:19:34.896.18-May-2020 4832.01 2681.76 65.95 12.00 334.94 2549.35
   02:19:35.096.18-May-2020 4832.01 2681.79 65.95 12.00 335.14 2549.35
   02:19:35.296.18-May-2020 4832.01 2681.79 65.95 12.00 335.34 2549.35
   02:19:35.496.18-May-2020 4832.01 2681.76 65.95 12.00 335.54 2549.35
   02:19:35.697.18-May-2020 4832.01 2681.76 65.95 12.00 335.74 2549.35
   02:19:35.897.18-May-2020 4832.01 2681.75 65.95 12.00 335.94 2549.35
   02:19:36.097.18-May-2020 4832.01 2681.75 65.95 12.00 336.14 2549.35
   02:19:36.297.18-May-2020 4832.01 2681.75 65.95 12.00 336.34 2549.35
   02:19:36.497.18-May-2020 4832.01 2681.77 65.95 12.00 336.54 2549.35
   02:19:36.697.18-May-2020 4832.01 2681.77 65.95 12.00 336.74 2549.35
   02:19:36.897.18-May-2020 4832.01 2681.74 65.95 12.00 336.94 2549.35
   02:19:37.097.18-May-2020 4832.01 2681.77 65.95 12.00 337.14 2549.35
   02:19:37.297.18-May-2020 4832.01 2681.78 65.95 12.00 337.34 2549.35
   02:19:37.497.18-May-2020 4832.01 2681.76 65.95 12.00 337.54 2549.35
   02:19:37.697.18-May-2020 4832.01 2681.75 65.95 12.00 337.74 2549.35
   02:19:37.897.18-May-2020 4832.01 2681.76 65.95 12.00 337.94 2549.35
   02:19:38.098.18-May-2020 4832.01 2681.75 65.95 12.00 338.14 2549.35
   02:19:38.298.18-May-2020 4832.01 2681.75 65.95 12.00 338.34 2549.35
   02:19:38.498.18-May-2020 4832.01 2681.72 65.95 12.00 338.54 2549.35
   02:19:38.698.18-May-2020 4832.01 2681.77 65.95 12.00 338.74 2549.35
   02:19:38.898.18-May-2020 4832.01 2681.78 65.95 12.00 338.94 2549.35
