~Version Information
 VERS.                  2.0:   CWLS log ASCII Standard -VERSION 2.0
 WRAP.                   NO:   One line per depth step
~Well Information Block
#MNEM.UNIT     VALUE/NAME     DESCRIPTION
#---------     -----------    ---------------------------
 STRT.S             22:49:31 17-May-20: START TIME 22:49:31 17-May-20
 STOP.S             22:56:24 17-May-20: STOP TIME  22:56:24 17-May-20
 STEP.S                   0.00: STEP TIME
 NULL.                 -999.25: NULL VALUE
 UNIT.                     N/A:  LOGGING EQUIPMENT ID
 DCON.         Sperry Drilling:  DIRECTNL CONTR
 DOE .                     N/A:  DOE NUMBER
 JOBN.        AZ-XX-0906252240:  JOB TICKET NUMB
 MWDS.                     N/A:  MWD SHOP
 PROV.                    Baku:  PROVINCE
 STAT.                    Baku:  STATE NAME
 REGN.                   EESSA:  REGION
 BASE.              Azerbaijan:  LOGGING EQUIPMENT BASE LOCATION
 UWI .                     N/A:  UNIQUE WELL IDENTIFIER
 API .                     N/A:  API NUMBER
 MDS .        Operator Entered:  MAG DATA SOURCE
 WTYP.                Deviated:  WELL TYPE
 COMP.     BP Exploration (Caspian Sea) Ltd.:  COMPANY
 SRVC.          Turan Drilling:  CONTRACTOR
 WELL.           J23 (Slot 07):  WELL NAME
 CTRY.              Azerbaijan:  COUNTRY NAME
 FLD .                     ACG:  FIELD NAME
 PDAT.          Mean Sea Level:  PERMANENT DATUM
 RIG .             West Chirag:  RIG NAME
 SON .        AZ-XX-0906252240:  JOB NUMBER
 FTOP.          Formation Tops:  FORM TOPS DESC
 ILTD.               Lithology:  INTERP LTH DESC
 SVYD.                  Survey:  SURVEY DESC
 DMOD.             Drill Model:  DRILL MOD DESC
 HPTY.       Minimum Curvature:  HOLE POS TYPE
 NREF.                    Grid:  NORTH REFERENCE
 SPUD.               27-Aug-20:  SPUD DATE
 DATE.      00.00.00 19-May-20:  END TIME
 STIM.      03.00.00 25-Mar-20:  START TIME
 DMF .             Drill Floor:  DRILL MEAS FROM
 DFST.                        :  DIST FSL TEXT
 DFWT.                        :  DIST FWL TEXT
 CNTY.                        :  COUNTY
 LOC .                        :  LOCATION
 LMF .             Drill Floor:  LOG MEASURED FROM
 VSNS.m                   9.43:  VERT SEC N/S
 VSEW.m                  -8.91:  VERT SEC E/W
 AGAP.m                  43.00:  AIR GAP
 DEP .m                 354.17:  DEPTH
 APD .m                  43.00:  DEPTH ABOVE PD
 WDMS.m                 169.80:  WD ELEV
 EGL .m                   0.00:  GROUND ELEVATION
 EPD .m                   0.00:  ELEVATION
 AZTC.deg                 6.31:  AZM TOTAL CORR
 GRDC.deg                 0.14:  GRID CORRECTION
 MDEC.deg                 6.45:  MAGNETIC DECL
 MDIP.deg                59.56:  MAGNETIC DIP
 MFLD.nT              50295.00:  MAGNETIC FIELD
 GVFD.g                   1.00:  GRAVITY FIELD
 VSDR.deg               179.88:  VERT SEC DIRECT
 TDD .m                5150.01:  TOTAL DEPTH (DRILLER)
 SDEP.m                 864.00:  START DEPTH
 DFSL.m                   0.00:  DISTANCE FSL
 DFWL.m                   0.00:  DISTANCE FWL
 UTMY.m             4443793.85:  UTM Y
 UTMX.m              519005.06:  UTM X
 WHEW.m                  -8.91:  WELL HEAD E/W
 WHNS.m                   9.43:  WELL HEAD N/S
 LONG.deg                51.22:  LONGITUDE
 LATI.deg                40.13:  LATITUDE
 TVDS.m                  43.00:  TVDSS CORRECTN
 EKB .m                   0.00:  KB ELEVATION
 EDF .m                  43.00:  DF ELEVATION
 TDL .m                 363.00:  TOTAL DEPTH (LOGGER)
 MAGU.                 1850802:  MAGUTM CHECKSUM
 VSC .                       0:  VS TO CLOSURE
~Parameter Information Block
#MNEM.UNIT       Value        Description
#---------     -----------    ---------------------------
 AV  .mps                 2.30:  Ann Velocity 
 AVMX.mps                 4.40:  Max Ann Veloc 
 AZIF.deg               110.24:  Azm, Final 
 BHAT.        Rotary Steerable:  BHA Type 
 BREV.rev               331.00:  Rev Bit Total 
 BROT.°/30m               0.00:  Build Rotating 
 BS  .in                  8.50:  Bit Size 
 BSZ .in                  8.50:  Bit Size 
 BTPL.psig              585.00:  Bit Press Loss 
 CABU.                     Yes:  Customer Abuse 
 COMM.                     ¼´€:  Run Comments 1 
 TCS .hr                122.75:  Time Ciculation Ended 
 CV  .mps                 2.67:  Crit Velocity 
 CVMX.mps                 3.56:  Max Crit Veloc 
 DD1 .          Rashad Habibov:  Direct Drillr 1 
 DD2 .         Rasim Ibrahimov:  Direct Drillr 2 
 DDSV.               Geo-Pilot:  DD Service 
 DEFF.%                  98.00:  % Det Eff 
 DLRX.°/30m               0.75:  Dogleg Rot Max 
 DLSO.°/30m               1.25:  Dogleg Oriented 
 DLSX.°/30m               2.06:  Dogleg Str Max 
 DRET.      07.45.00 17-May-20:  Drill End Time 
 DRST.      22.50.00 15-May-20:  Drill Start Tim 
 DTIM.hr                 20.75:  Time Drilling 
 EDEP.m                5124.01:  End Depth 
 ENG1.           Eldar Hajiyev:  Engineer 1 
 ENG2.        Marcelo Sandoval:  Engineer 2 
 ENG3.        Davud huseynzada:  Engineer 3 
 ENG4.          Ruslan Safarov:  Engineer 4 
 ETIM.      04.33.00 23-May-20:  End Time 
 FLOI.gpm               450.00:  Flow In 
 FLON.gpm               400.00:  Flow In Min 
 FLOS.cptm                0.00:  Fluid Loss 
 FLOX.gpm               500.00:  Flow In Max 
 FTRO.       Formation Presure:  FTWD Run Obj 
 HFLO.                      No:  High Flow 
 HPRE.                     Yes:  High Pressure 
 HTEM.                      No:  High Temp 
 HYDO.m                   1.80:  Hydro Offset 
 IFIN.deg                75.06:  Inc, Final 
 IMAX.deg                75.38:  Inc Max 
 IMIN.deg                74.69:  Inc Min 
 IMND.m                5027.38:  Inc Min Depth 
 IMXD.m                4771.61:  Inc Max Depth 
 JARR.                      No:  Jarring 
 LETM.      07.45.00 17-May-20:  Log End Time 
 LOST.hr                     0:  Lost Rig Time 
 LSTM.      22.50.00 15-May-20:  Log Start Time 
 MDCL.ppm             42000.00:  Mud Chlorides 
 MDES.     Inversion Oil/Synthetic:  Mud Desc 
 DFD .sg                  1.34:  Mud Density 
 MDMN.sg                  1.34:  Dens Mud Min 
 MDMX.sg                  1.34:  Dens Mud Max 
 MOIL.                       0:  Run Mud Oil % 
 MOWR.                   67:33:  Run Mud OWR 
 MSND.                       0:  Run Mud Sand % 
 MSOL.                     1.8:  Run Mud Solids% 
 DFV .spqt               76.00:  Mud Viscosity 
 MWOD.in                  6.75:  MWD Tool OD 
 MWSI.                      No:  Serv Intrp, MWD 
 OTIM.hr                228.19:  Time Operating 
 PCON.           Look Like New:  Pad Condition 
 PMAX.psia             6164.70:  Press Op, Max 
 PV  .cP                 28.00:  Mud PV 
 RUN .                     900:  Run Number 
 ROPA.m/hr               19.00:  ROP Avg 
 ROPN.m/hr               11.00:  ROP Min 
 ROPX.m/hr               36.00:  ROP Max 
 RPMA.rpm               120.00:  RPM Surface Avg 
 RPMN.rpm               120.00:  RPM Surface Min 
 RPMX.rpm               120.00:  RPM Surface Max 
 RRUN.                    L604:  Rig Run Number 
 RTIM.hr                  7.00:  Time Reaming 
 SAZI.deg               109.27:  Azm, Start 
 SDEP.m                4761.01:  Start Depth 
 SIDD.                      No:  Serv Intrp, DD 
 SINC.deg                75.38:  Inc, Start 
 SPPA.psig             3574.00:  SPP Avg 
 SPPN.psig             3475.00:  SPP Min 
 SPPX.psig             3791.00:  SPP Max 
 STIM.      07.08.48 13-May-20:  Start Time 
 SVCS.                 DD, MWD:  Services 
 SVER.                    9.20:  Sperry Version 
 TDAT.m                 363.00:  Tot Depth Attmp 
 TDDF.                      No:  Trip for DD 
 TDLG.m                 363.00:  Tot Depth Loggd 
 TFF .                      No:  Trip for Fail 
 TQAA.f-kp               20.00:  Torque Abs Avg 
 TQAN.f-kp               18.00:  Torque Abs Min 
 TQAX.f-kp               22.00:  Torque Abs Max 
 TRRT.°/30m              -0.35:  Turn Rotating 
 MRT .                    HCIM:  Maximum Recorded Temperature 
 TTMX.degC               92.16:  Max Tool Temp 
 VS01.                90586518:  Virtual Str1 SN 
 VS02.        AZ90560654Z1W1C6:  Virtual Str2 SN 
 VS03.           AZ90610398F11:  Virtual Str3 SN 
 VS04.                90514975:  Virtual Str4 SN 
 VS05.                90514972:  Virtual Str5 SN 
 VS06.     AZ90603282F11V7D1A6:  Virtual Str6 SN 
 WBMN.klb                 7.00:  WOB Min 
 WOBA.klb                12.00:  WOB Avg 
 WOBX.klb                14.00:  WOB Max 
 YP  .lhf2               32.00:  Yield Point 
~Curve Information Block
#MNEM.UNIT                 API CODE     Curve Description
#---------               -----------    ---------------------------
 TIME.HHMMSS            00 000 000 000:  GT Time & Date
 GTDEPTH.m              00 000 000 000:  GT Depth
 GTPQH.psia             00 000 000 000:  GT HR Quartz Pressure
 GTTQ.degC              00 000 000 000:  GT Quartz Temperature
 GTTN.NONE              00 000 000 000:  GT Test Number
 GTET.sec               00 000 000 000:  GT Elapsed Test Time
 GTTVD.m                00 000 000 000:  GT True Vertical Depth
#Other Information
#
#WARRANTY: Halliburton will use its best efforts to furnish customers with 
#accurate information and interpretations that are part of, and incident to, the services 
#provided.  However, Halliburton cannot and does not warrant the accuracy 
#or correctness of such information and interpretations.  Under no circumstances should any 
#such information or interpretation be relied upon as the sole basis for any drilling, 
#completion, production, or financial decision or any procedure involving any risk to the 
#safety of any drilling venture, drilling rig or its crew or any other third party.  The 
#Customer has full responsibility for all drilling, completion and production operation.  
#Halliburton makes no representations or warranties, either expressed or 
#implied, including, but not limited to, the implied warranties of merchantability or fitness 
#for a particular purpose, with respect to the services rendered.  In no event will 
#Halliburton be liable for failure to obtain any particular results or for 
#any damages, including, but not limited to, indirect, special or consequential damages, 
#resulting from the use of any information or interpretation provided by Halliburton.
#
~A           TIME           GTDEPTH  GTPQH  GTTQ  GTTN  GTET   GTTVD  
# ...
   22:54:07.385.17-May-2020 4908.51   57.13 67.16 8.00 275.86 2569.17
   22:54:07.585.17-May-2020 4908.51   57.25 67.16 8.00 276.06 2569.17
   22:54:07.785.17-May-2020 4908.51   57.41 67.16 8.00 276.26 2569.17
   22:54:07.985.17-May-2020 4908.51   57.58 67.16 8.00 276.46 2569.17
   22:54:08.185.17-May-2020 4908.51   57.69 67.16 8.00 276.66 2569.17
   22:54:08.385.17-May-2020 4908.51   57.83 67.16 8.00 276.86 2569.17
   22:54:08.584.17-May-2020 4908.51   58.01 67.16 8.00 277.06 2569.17
   22:54:08.784.17-May-2020 4908.51   58.14 67.16 8.00 277.26 2569.17
   22:54:08.984.17-May-2020 4908.51   58.26 67.16 8.00 277.46 2569.17
   22:54:09.184.17-May-2020 4908.51   58.40 67.16 8.00 277.66 2569.17
   22:54:09.384.17-May-2020 4908.51   58.60 67.16 8.00 277.86 2569.17
   22:54:09.584.17-May-2020 4908.51   58.60 67.16 8.00 278.06 2569.17
   22:54:09.784.17-May-2020 4908.51   58.83 67.16 8.00 278.26 2569.17
   22:54:09.984.17-May-2020 4908.51   58.97 67.16 8.00 278.46 2569.17
   22:54:10.184.17-May-2020 4908.51   59.11 67.16 8.00 278.66 2569.17
   22:54:10.383.17-May-2020 4908.51   59.25 67.16 8.00 278.86 2569.17
   22:54:10.583.17-May-2020 4908.51   59.25 67.16 8.00 279.06 2569.17
   22:54:10.783.17-May-2020 4908.51   59.54 67.16 8.00 279.26 2569.17
   22:54:10.983.17-May-2020 4908.51   59.68 67.16 8.00 279.46 2569.17
   22:54:11.183.17-May-2020 4908.51   59.83 67.16 8.00 279.66 2569.17
   22:54:11.383.17-May-2020 4908.51   60.00 67.16 8.00 279.86 2569.17
   22:54:11.583.17-May-2020 4908.51   60.16 67.16 8.00 280.06 2569.17
   22:54:11.783.17-May-2020 4908.51   60.27 67.16 8.00 280.26 2569.17
   22:54:11.983.17-May-2020 4908.51   60.40 67.16 8.00 280.46 2569.17
   22:54:12.183.17-May-2020 4908.51   60.54 67.16 8.00 280.66 2569.17
   22:54:12.382.17-May-2020 4908.51   60.69 67.16 8.00 280.86 2569.17
   22:54:12.582.17-May-2020 4908.51   60.84 67.16 8.00 281.06 2569.17
   22:54:12.782.17-May-2020 4908.51   60.98 67.16 8.00 281.26 2569.17
   22:54:12.982.17-May-2020 4908.51   61.13 67.16 8.00 281.46 2569.17
   22:54:13.182.17-May-2020 4908.51   61.27 67.16 8.00 281.66 2569.17
   22:54:13.382.17-May-2020 4908.51   61.45 67.16 8.00 281.86 2569.17
   22:54:13.582.17-May-2020 4908.51   61.45 67.16 8.00 282.06 2569.17
   22:54:13.782.17-May-2020 4908.51   61.73 67.16 8.00 282.26 2569.17
   22:54:13.982.17-May-2020 4908.51   61.87 67.16 8.00 282.46 2569.17
   22:54:14.182.17-May-2020 4908.51   62.04 67.16 8.00 282.65 2569.17
   22:54:14.381.17-May-2020 4908.51   62.20 67.16 8.00 282.85 2569.17
   22:54:14.581.17-May-2020 4908.51   62.20 67.16 8.00 283.05 2569.17
   22:54:14.781.17-May-2020 4908.51   62.43 67.16 8.00 283.25 2569.17
   22:54:14.981.17-May-2020 4908.51   62.63 67.16 8.00 283.45 2569.17
   22:54:15.181.17-May-2020 4908.51   62.75 67.16 8.00 283.65 2569.17
   22:54:15.381.17-May-2020 4908.51   62.88 67.16 8.00 283.85 2569.17
   22:54:15.581.17-May-2020 4908.51   63.02 67.16 8.00 284.05 2569.17
   22:54:15.781.17-May-2020 4908.51   63.22 67.16 8.00 284.25 2569.17
   22:54:15.981.17-May-2020 4908.51   63.35 67.16 8.00 284.45 2569.17
   22:54:16.181.17-May-2020 4908.51   63.47 67.16 8.00 284.65 2569.17
   22:54:16.380.17-May-2020 4908.51   63.61 67.16 8.00 284.85 2569.17
   22:54:16.580.17-May-2020 4908.51   63.75 67.16 8.00 285.05 2569.17
   22:54:16.780.17-May-2020 4908.51   63.89 67.16 8.00 285.25 2569.17
   22:54:16.980.17-May-2020 4908.51   64.04 67.16 8.00 285.45 2569.17
   22:54:17.180.17-May-2020 4908.51   64.18 67.16 8.00 285.65 2569.17
   22:54:17.380.17-May-2020 4908.51   64.33 67.16 8.00 285.85 2569.17
   22:54:17.580.17-May-2020 4908.51   64.33 67.16 8.00 286.05 2569.17
   22:54:17.780.17-May-2020 4908.51   64.66 67.16 8.00 286.25 2569.17
   22:54:17.980.17-May-2020 4908.51   64.83 67.16 8.00 286.45 2569.17
   22:54:18.179.17-May-2020 4908.51   64.94 67.16 8.00 286.65 2569.17
   22:54:18.379.17-May-2020 4908.51   65.07 67.16 8.00 286.85 2569.17
   22:54:18.579.17-May-2020 4908.51   65.07 67.16 8.00 287.05 2569.17
   22:54:18.779.17-May-2020 4908.51   65.36 67.16 8.00 287.25 2569.17
   22:54:18.979.17-May-2020 4908.51   65.52 67.16 8.00 287.45 2569.17
   22:54:19.179.17-May-2020 4908.51   65.66 67.16 8.00 287.65 2569.17
   22:54:19.379.17-May-2020 4908.51   65.80 67.16 8.00 287.85 2569.17
   22:54:19.579.17-May-2020 4908.51   65.80 67.16 8.00 288.05 2569.17
   22:54:19.779.17-May-2020 4908.51   66.12 67.16 8.00 288.25 2569.17
   22:54:19.979.17-May-2020 4908.51   66.32 67.16 8.00 288.45 2569.17
   22:54:20.178.17-May-2020 4908.51   66.42 67.16 8.00 288.65 2569.17
   22:54:20.378.17-May-2020 4908.51   66.56 67.16 8.00 288.85 2569.17
   22:54:20.578.17-May-2020 4908.51   66.73 67.16 8.00 289.05 2569.17
   22:54:20.778.17-May-2020 4908.51   66.92 67.16 8.00 289.25 2569.17
   22:54:20.978.17-May-2020 4908.51   67.02 67.16 8.00 289.45 2569.17
   22:54:21.178.17-May-2020 4908.51   67.16 67.16 8.00 289.65 2569.17
   22:54:21.378.17-May-2020 4908.51   67.35 67.16 8.00 289.85 2569.17
   22:54:21.578.17-May-2020 4908.51   67.35 67.16 8.00 290.05 2569.17
   22:54:21.778.17-May-2020 4908.51   67.63 67.16 8.00 290.25 2569.17
   22:54:21.978.17-May-2020 4908.51   67.77 67.16 8.00 290.45 2569.17
   22:54:22.177.17-May-2020 4908.51   67.92 67.16 8.00 290.65 2569.17
   22:54:22.377.17-May-2020 4908.51   68.13 67.16 8.00 290.85 2569.17
   22:54:22.577.17-May-2020 4908.51   68.13 67.16 8.00 291.05 2569.17
   22:54:22.777.17-May-2020 4908.51   68.39 67.16 8.00 291.25 2569.17
   22:54:22.977.17-May-2020 4908.51   68.54 67.16 8.00 291.45 2569.17
   22:54:23.177.17-May-2020 4908.51   68.69 67.16 8.00 291.65 2569.17
   22:54:23.377.17-May-2020 4908.51   68.85 67.16 8.00 291.85 2569.17
   22:54:23.577.17-May-2020 4908.51   68.99 67.16 8.00 292.05 2569.17
   22:54:23.777.17-May-2020 4908.51   69.15 67.16 8.00 292.25 2569.17
   22:54:23.977.17-May-2020 4908.51   69.31 67.16 8.00 292.45 2569.17
   22:54:24.176.17-May-2020 4908.51   69.46 67.16 8.00 292.65 2569.17
   22:54:24.376.17-May-2020 4908.51   69.64 67.16 8.00 292.85 2569.17
   22:54:24.576.17-May-2020 4908.51   69.82 67.16 8.00 293.05 2569.17
   22:54:24.776.17-May-2020 4908.51   69.94 67.16 8.00 293.25 2569.17
   22:54:24.976.17-May-2020 4908.51   70.09 67.16 8.00 293.45 2569.17
   22:54:25.176.17-May-2020 4908.51   70.24 67.16 8.00 293.65 2569.17
   22:54:25.376.17-May-2020 4908.51   70.40 67.16 8.00 293.85 2569.17
   22:54:25.576.17-May-2020 4908.51   70.40 67.16 8.00 294.05 2569.17
   22:54:25.776.17-May-2020 4908.51   70.72 67.16 8.00 294.25 2569.17
   22:54:25.975.17-May-2020 4908.51   70.87 67.16 8.00 294.45 2569.17
   22:54:26.175.17-May-2020 4908.51   71.04 67.16 8.00 294.65 2569.17
   22:54:26.375.17-May-2020 4908.51   71.21 67.16 8.00 294.85 2569.17
   22:54:26.575.17-May-2020 4908.51   71.21 67.16 8.00 295.05 2569.17
   22:54:26.775.17-May-2020 4908.51   71.52 67.16 8.00 295.25 2569.17
   22:54:26.975.17-May-2020 4908.51   71.70 67.16 8.00 295.45 2569.17
   22:54:27.175.17-May-2020 4908.51   71.90 67.16 8.00 295.65 2569.17
   22:54:27.375.17-May-2020 4908.51   72.02 67.16 8.00 295.85 2569.17
   22:54:27.575.17-May-2020 4908.51   72.16 67.16 8.00 296.05 2569.17
   22:54:27.775.17-May-2020 4908.51   72.33 67.16 8.00 296.25 2569.17
   22:54:27.974.17-May-2020 4908.51   72.54 67.16 8.00 296.45 2569.17
   22:54:28.174.17-May-2020 4908.51   72.67 67.16 8.00 296.65 2569.17
   22:54:28.374.17-May-2020 4908.51   72.80 67.16 8.00 296.85 2569.17
   22:54:28.574.17-May-2020 4908.51   72.97 67.16 8.00 297.05 2569.17
   22:54:28.774.17-May-2020 4908.51   73.16 67.16 8.00 297.25 2569.17
   22:54:28.974.17-May-2020 4908.51   73.34 67.16 8.00 297.45 2569.17
   22:54:29.174.17-May-2020 4908.51   73.46 67.16 8.00 297.65 2569.17
   22:54:29.374.17-May-2020 4908.51   73.61 67.16 8.00 297.85 2569.17
   22:54:29.574.17-May-2020 4908.51   73.61 67.16 8.00 298.05 2569.17
   22:54:29.774.17-May-2020 4908.51   73.94 67.16 8.00 298.25 2569.17
   22:54:29.973.17-May-2020 4908.51   74.11 67.16 8.00 298.45 2569.17
   22:54:30.173.17-May-2020 4908.51   74.27 67.16 8.00 298.65 2569.17
