~Version Information
 VERS.                  2.0:   CWLS log ASCII Standard -VERSION 2.0
 WRAP.                   NO:   One line per depth step
~Well Information Block
#MNEM.UNIT     VALUE/NAME     DESCRIPTION
#---------     -----------    ---------------------------
 STRT.S             20:30:46 17-May-20: START TIME 20:30:46 17-May-20
 STOP.S             20:37:50 17-May-20: STOP TIME  20:37:50 17-May-20
 STEP.S                   0.00: STEP TIME
 NULL.                 -999.25: NULL VALUE
 UNIT.                     N/A:  LOGGING EQUIPMENT ID
 DCON.         Sperry Drilling:  DIRECTNL CONTR
 DOE .                     N/A:  DOE NUMBER
 JOBN.        AZ-XX-0906252240:  JOB TICKET NUMB
 MWDS.                     N/A:  MWD SHOP
 PROV.                    Baku:  PROVINCE
 STAT.                    Baku:  STATE NAME
 REGN.                   EESSA:  REGION
 BASE.              Azerbaijan:  LOGGING EQUIPMENT BASE LOCATION
 UWI .                     N/A:  UNIQUE WELL IDENTIFIER
 API .                     N/A:  API NUMBER
 MDS .        Operator Entered:  MAG DATA SOURCE
 WTYP.                Deviated:  WELL TYPE
 COMP.     BP Exploration (Caspian Sea) Ltd.:  COMPANY
 SRVC.          Turan Drilling:  CONTRACTOR
 WELL.           J23 (Slot 07):  WELL NAME
 CTRY.              Azerbaijan:  COUNTRY NAME
 FLD .                     ACG:  FIELD NAME
 PDAT.          Mean Sea Level:  PERMANENT DATUM
 RIG .             West Chirag:  RIG NAME
 SON .        AZ-XX-0906252240:  JOB NUMBER
 FTOP.          Formation Tops:  FORM TOPS DESC
 ILTD.               Lithology:  INTERP LTH DESC
 SVYD.                  Survey:  SURVEY DESC
 DMOD.             Drill Model:  DRILL MOD DESC
 HPTY.       Minimum Curvature:  HOLE POS TYPE
 NREF.                    Grid:  NORTH REFERENCE
 SPUD.               27-Aug-20:  SPUD DATE
 DATE.      00.00.00 19-May-20:  END TIME
 STIM.      03.00.00 25-Mar-20:  START TIME
 DMF .             Drill Floor:  DRILL MEAS FROM
 DFST.                        :  DIST FSL TEXT
 DFWT.                        :  DIST FWL TEXT
 CNTY.                        :  COUNTY
 LOC .                        :  LOCATION
 LMF .             Drill Floor:  LOG MEASURED FROM
 VSNS.m                   9.43:  VERT SEC N/S
 VSEW.m                  -8.91:  VERT SEC E/W
 AGAP.m                  43.00:  AIR GAP
 DEP .m                 354.17:  DEPTH
 APD .m                  43.00:  DEPTH ABOVE PD
 WDMS.m                 169.80:  WD ELEV
 EGL .m                   0.00:  GROUND ELEVATION
 EPD .m                   0.00:  ELEVATION
 AZTC.deg                 6.31:  AZM TOTAL CORR
 GRDC.deg                 0.14:  GRID CORRECTION
 MDEC.deg                 6.45:  MAGNETIC DECL
 MDIP.deg                59.56:  MAGNETIC DIP
 MFLD.nT              50295.00:  MAGNETIC FIELD
 GVFD.g                   1.00:  GRAVITY FIELD
 VSDR.deg               179.88:  VERT SEC DIRECT
 TDD .m                5150.01:  TOTAL DEPTH (DRILLER)
 SDEP.m                 864.00:  START DEPTH
 DFSL.m                   0.00:  DISTANCE FSL
 DFWL.m                   0.00:  DISTANCE FWL
 UTMY.m             4443793.85:  UTM Y
 UTMX.m              519005.06:  UTM X
 WHEW.m                  -8.91:  WELL HEAD E/W
 WHNS.m                   9.43:  WELL HEAD N/S
 LONG.deg                51.22:  LONGITUDE
 LATI.deg                40.13:  LATITUDE
 TVDS.m                  43.00:  TVDSS CORRECTN
 EKB .m                   0.00:  KB ELEVATION
 EDF .m                  43.00:  DF ELEVATION
 TDL .m                 363.00:  TOTAL DEPTH (LOGGER)
 MAGU.                 1850802:  MAGUTM CHECKSUM
 VSC .                       0:  VS TO CLOSURE
~Parameter Information Block
#MNEM.UNIT       Value        Description
#---------     -----------    ---------------------------
 AV  .mps                 2.30:  Ann Velocity 
 AVMX.mps                 4.40:  Max Ann Veloc 
 AZIF.deg               110.24:  Azm, Final 
 BHAT.        Rotary Steerable:  BHA Type 
 BREV.rev               331.00:  Rev Bit Total 
 BROT.°/30m               0.00:  Build Rotating 
 BS  .in                  8.50:  Bit Size 
 BSZ .in                  8.50:  Bit Size 
 BTPL.psig              585.00:  Bit Press Loss 
 CABU.                     Yes:  Customer Abuse 
 TCS .hr                122.75:  Time Ciculation Ended 
 CV  .mps                 2.67:  Crit Velocity 
 CVMX.mps                 3.56:  Max Crit Veloc 
 DD1 .          Rashad Habibov:  Direct Drillr 1 
 DD2 .         Rasim Ibrahimov:  Direct Drillr 2 
 DDSV.               Geo-Pilot:  DD Service 
 DEFF.%                  98.00:  % Det Eff 
 DLRX.°/30m               0.75:  Dogleg Rot Max 
 DLSO.°/30m               1.25:  Dogleg Oriented 
 DLSX.°/30m               2.06:  Dogleg Str Max 
 DRET.      07.45.00 17-May-20:  Drill End Time 
 DRST.      22.50.00 15-May-20:  Drill Start Tim 
 DTIM.hr                 20.75:  Time Drilling 
 EDEP.m                5124.01:  End Depth 
 ENG1.           Eldar Hajiyev:  Engineer 1 
 ENG2.        Marcelo Sandoval:  Engineer 2 
 ENG3.        Davud huseynzada:  Engineer 3 
 ENG4.          Ruslan Safarov:  Engineer 4 
 ETIM.      04.33.00 23-May-20:  End Time 
 FLOI.gpm               450.00:  Flow In 
 FLON.gpm               400.00:  Flow In Min 
 FLOS.cptm                0.00:  Fluid Loss 
 FLOX.gpm               500.00:  Flow In Max 
 FTRO.       Formation Presure:  FTWD Run Obj 
 HFLO.                      No:  High Flow 
 HPRE.                     Yes:  High Pressure 
 HTEM.                      No:  High Temp 
 HYDO.m                   1.80:  Hydro Offset 
 IFIN.deg                75.06:  Inc, Final 
 IMAX.deg                75.38:  Inc Max 
 IMIN.deg                74.69:  Inc Min 
 IMND.m                5027.38:  Inc Min Depth 
 IMXD.m                4771.61:  Inc Max Depth 
 JARR.                      No:  Jarring 
 LETM.      07.45.00 17-May-20:  Log End Time 
 LOST.hr                     0:  Lost Rig Time 
 LSTM.      22.50.00 15-May-20:  Log Start Time 
 MDCL.ppm             42000.00:  Mud Chlorides 
 MDES.     Inversion Oil/Synthetic:  Mud Desc 
 DFD .sg                  1.34:  Mud Density 
 MDMN.sg                  1.34:  Dens Mud Min 
 MDMX.sg                  1.34:  Dens Mud Max 
 MOIL.                       0:  Run Mud Oil % 
 MOWR.                   67:33:  Run Mud OWR 
 MSND.                       0:  Run Mud Sand % 
 MSOL.                     1.8:  Run Mud Solids% 
 DFV .spqt               76.00:  Mud Viscosity 
 MWOD.in                  6.75:  MWD Tool OD 
 MWSI.                      No:  Serv Intrp, MWD 
 OTIM.hr                228.19:  Time Operating 
 PCON.           Look Like New:  Pad Condition 
 PMAX.psia             6164.70:  Press Op, Max 
 PV  .cP                 28.00:  Mud PV 
 RUN .                     900:  Run Number 
 ROPA.m/hr               19.00:  ROP Avg 
 ROPN.m/hr               11.00:  ROP Min 
 ROPX.m/hr               36.00:  ROP Max 
 RPMA.rpm               120.00:  RPM Surface Avg 
 RPMN.rpm               120.00:  RPM Surface Min 
 RPMX.rpm               120.00:  RPM Surface Max 
 RRUN.                    L604:  Rig Run Number 
 RTIM.hr                  7.00:  Time Reaming 
 SAZI.deg               109.27:  Azm, Start 
 SDEP.m                4761.01:  Start Depth 
 SIDD.                      No:  Serv Intrp, DD 
 SINC.deg                75.38:  Inc, Start 
 SPPA.psig             3574.00:  SPP Avg 
 SPPN.psig             3475.00:  SPP Min 
 SPPX.psig             3791.00:  SPP Max 
 STIM.      07.08.48 13-May-20:  Start Time 
 SVCS.                 DD, MWD:  Services 
 SVER.                    9.20:  Sperry Version 
 TDAT.m                 363.00:  Tot Depth Attmp 
 TDDF.                      No:  Trip for DD 
 TDLG.m                 363.00:  Tot Depth Loggd 
 TFF .                      No:  Trip for Fail 
 TQAA.f-kp               20.00:  Torque Abs Avg 
 TQAN.f-kp               18.00:  Torque Abs Min 
 TQAX.f-kp               22.00:  Torque Abs Max 
 TRRT.°/30m              -0.35:  Turn Rotating 
 MRT .                    HCIM:  Maximum Recorded Temperature 
 TTMX.degC               92.16:  Max Tool Temp 
 VS01.                90586518:  Virtual Str1 SN 
 VS02.        AZ90560654Z1W1C6:  Virtual Str2 SN 
 VS03.           AZ90610398F11:  Virtual Str3 SN 
 VS04.                90514975:  Virtual Str4 SN 
 VS05.                90514972:  Virtual Str5 SN 
 VS06.     AZ90603282F11V7D1A6:  Virtual Str6 SN 
 WBMN.klb                 7.00:  WOB Min 
 WOBA.klb                12.00:  WOB Avg 
 WOBX.klb                14.00:  WOB Max 
 YP  .lhf2               32.00:  Yield Point 
~Curve Information Block
#MNEM.UNIT                 API CODE     Curve Description
#---------               -----------    ---------------------------
 TIME.HHMMSS            00 000 000 000:  GT Time & Date
 GTDEPTH.m              00 000 000 000:  GT Depth
 GTPQH.psia             00 000 000 000:  GT HR Quartz Pressure
 GTTQ.degC              00 000 000 000:  GT Quartz Temperature
 GTTN.NONE              00 000 000 000:  GT Test Number
 GTET.sec               00 000 000 000:  GT Elapsed Test Time
 GTTVD.m                00 000 000 000:  GT True Vertical Depth
#Other Information
#
#WARRANTY: Halliburton will use its best efforts to furnish customers with 
#accurate information and interpretations that are part of, and incident to, the services 
#provided.  However, Halliburton cannot and does not warrant the accuracy 
#or correctness of such information and interpretations.  Under no circumstances should any 
#such information or interpretation be relied upon as the sole basis for any drilling, 
#completion, production, or financial decision or any procedure involving any risk to the 
#safety of any drilling venture, drilling rig or its crew or any other third party.  The 
#Customer has full responsibility for all drilling, completion and production operation.  
#Halliburton makes no representations or warranties, either expressed or 
#implied, including, but not limited to, the implied warranties of merchantability or fitness 
#for a particular purpose, with respect to the services rendered.  In no event will 
#Halliburton be liable for failure to obtain any particular results or for 
#any damages, including, but not limited to, indirect, special or consequential damages, 
#resulting from the use of any information or interpretation provided by Halliburton.
#
~A           TIME           GTDEPTH  GTPQH  GTTQ  GTTN  GTET   GTTVD  
# ...
   20:31:55.356.17-May-2020 4971.01 2894.00 68.73 5.00  68.99 2585.16
   20:31:55.556.17-May-2020 4971.01 2894.00 68.73 5.00  69.19 2585.16
   20:31:55.756.17-May-2020 4971.01 2894.04 68.73 5.00  69.39 2585.16
   20:31:55.956.17-May-2020 4971.01 2894.05 68.73 5.00  69.59 2585.16
   20:31:56.156.17-May-2020 4971.01 2894.06 68.73 5.00  69.79 2585.16
   20:31:56.356.17-May-2020 4971.01 2894.14 68.73 5.00  69.99 2585.16
   20:31:56.556.17-May-2020 4971.01 2893.78 68.73 5.00  70.19 2585.16
   20:31:56.756.17-May-2020 4971.01 2893.91 68.73 5.00  70.39 2585.16
   20:31:56.956.17-May-2020 4971.01 2893.99 68.73 5.00  70.59 2585.16
   20:31:57.155.17-May-2020 4971.01 2893.86 68.73 5.00  70.79 2585.16
   20:31:57.355.17-May-2020 4971.01 2893.92 68.73 5.00  70.99 2585.16
   20:31:57.555.17-May-2020 4971.01 2893.92 68.73 5.00  71.19 2585.16
   20:31:57.755.17-May-2020 4971.01 2893.92 68.73 5.00  71.39 2585.16
   20:31:57.955.17-May-2020 4971.01 2894.12 68.73 5.00  71.59 2585.16
   20:31:58.155.17-May-2020 4971.01 2893.81 68.73 5.00  71.79 2585.16
   20:31:58.355.17-May-2020 4971.01 2893.94 68.73 5.00  71.99 2585.16
   20:31:58.555.17-May-2020 4971.01 2893.94 68.73 5.00  72.19 2585.16
   20:31:58.755.17-May-2020 4971.01 2893.99 68.73 5.00  72.39 2585.16
   20:31:58.955.17-May-2020 4971.01 2894.15 68.73 5.00  72.59 2585.16
   20:31:59.155.17-May-2020 4971.01 2894.15 68.73 5.00  72.79 2585.16
   20:31:59.355.17-May-2020 4971.01 2893.96 68.73 5.00  72.99 2585.16
   20:31:59.555.17-May-2020 4971.01 2893.96 68.73 5.00  73.19 2585.16
   20:31:59.755.17-May-2020 4971.01 2894.02 68.73 5.00  73.39 2585.16
   20:31:59.955.17-May-2020 4971.01 2894.07 68.73 5.00  73.59 2585.16
   20:32:00.155.17-May-2020 4971.01 2894.09 68.73 5.00  73.79 2585.16
   20:32:00.355.17-May-2020 4971.01 2894.13 68.73 5.00  73.99 2585.16
   20:32:00.555.17-May-2020 4971.01 2894.12 68.73 5.00  74.19 2585.16
   20:32:00.755.17-May-2020 4971.01 2894.15 68.73 5.00  74.39 2585.16
   20:32:00.955.17-May-2020 4971.01 2894.17 68.73 5.00  74.59 2585.16
   20:32:01.155.17-May-2020 4971.01 2894.08 68.73 5.00  74.79 2585.16
   20:32:01.355.17-May-2020 4971.01 2893.98 68.73 5.00  74.99 2585.16
   20:32:01.555.17-May-2020 4971.01 2893.98 68.73 5.00  75.19 2585.16
   20:32:01.755.17-May-2020 4971.01 2894.04 68.73 5.00  75.39 2585.16
   20:32:01.955.17-May-2020 4971.01 2894.09 68.73 5.00  75.59 2585.16
   20:32:02.155.17-May-2020 4971.01 2894.13 68.73 5.00  75.79 2585.16
   20:32:02.355.17-May-2020 4971.01 2894.13 68.73 5.00  75.99 2585.16
   20:32:02.555.17-May-2020 4971.01 2894.13 68.73 5.00  76.19 2585.16
   20:32:02.755.17-May-2020 4971.01 2894.18 68.73 5.00  76.39 2585.16
   20:32:02.955.17-May-2020 4971.01 2894.21 68.73 5.00  76.59 2585.16
   20:32:03.155.17-May-2020 4971.01 2894.28 68.73 5.00  76.79 2585.16
   20:32:03.355.17-May-2020 4971.01 2893.93 68.73 5.00  76.99 2585.16
   20:32:03.555.17-May-2020 4971.01 2894.05 68.73 5.00  77.19 2585.16
   20:32:03.755.17-May-2020 4971.01 2894.16 68.73 5.00  77.39 2585.16
   20:32:03.955.17-May-2020 4971.01 2893.99 68.73 5.00  77.59 2585.16
   20:32:04.155.17-May-2020 4971.01 2894.06 68.73 5.00  77.79 2585.16
   20:32:04.355.17-May-2020 4971.01 2894.07 68.73 5.00  77.99 2585.16
   20:32:04.555.17-May-2020 4971.01 2894.07 68.73 5.00  78.19 2585.16
   20:32:04.755.17-May-2020 4971.01 2894.22 68.73 5.00  78.39 2585.16
   20:32:04.955.17-May-2020 4971.01 2893.95 68.73 5.00  78.59 2585.16
   20:32:05.155.17-May-2020 4971.01 2894.06 68.73 5.00  78.79 2585.16
   20:32:05.355.17-May-2020 4971.01 2894.10 68.73 5.00  78.99 2585.16
   20:32:05.555.17-May-2020 4971.01 2894.10 68.73 5.00  79.19 2585.16
   20:32:05.755.17-May-2020 4971.01 2894.26 68.73 5.00  79.39 2585.16
   20:32:05.955.17-May-2020 4971.01 2893.93 68.73 5.00  79.59 2585.16
   20:32:06.155.17-May-2020 4971.01 2894.07 68.73 5.00  79.79 2585.16
   20:32:06.355.17-May-2020 4971.01 2894.11 68.73 5.00  79.99 2585.16
   20:32:06.555.17-May-2020 4971.01 2894.11 68.73 5.00  80.19 2585.16
   20:32:06.755.17-May-2020 4971.01 2894.15 68.74 5.00  80.39 2585.16
   20:32:06.955.17-May-2020 4971.01 2894.17 68.73 5.00  80.59 2585.16
   20:32:07.155.17-May-2020 4971.01 2894.21 68.73 5.00  80.79 2585.16
   20:32:07.355.17-May-2020 4971.01 2894.22 68.74 5.00  80.99 2585.16
   20:32:07.555.17-May-2020 4971.01 2894.25 68.74 5.00  81.19 2585.16
   20:32:07.755.17-May-2020 4971.01 2894.26 68.74 5.00  81.39 2585.16
   20:32:07.955.17-May-2020 4971.01 2894.14 68.74 5.00  81.59 2585.16
   20:32:08.155.17-May-2020 4971.01 2894.14 68.74 5.00  81.79 2585.16
   20:32:08.355.17-May-2020 4971.01 2894.13 68.74 5.00  81.99 2585.16
   20:32:08.555.17-May-2020 4971.01 2894.12 68.74 5.00  82.19 2585.16
   20:32:08.755.17-May-2020 4971.01 2894.18 68.74 5.00  82.39 2585.16
   20:32:08.955.17-May-2020 4971.01 2894.22 68.74 5.00  82.59 2585.16
   20:32:09.155.17-May-2020 4971.01 2894.21 68.74 5.00  82.79 2585.16
   20:32:09.355.17-May-2020 4971.01 2894.24 68.74 5.00  82.99 2585.16
   20:32:09.555.17-May-2020 4971.01 2894.24 68.74 5.00  83.19 2585.16
   20:32:09.755.17-May-2020 4971.01 2894.28 68.74 5.00  83.39 2585.16
   20:32:09.954.17-May-2020 4971.01 2894.35 68.74 5.00  83.59 2585.16
   20:32:10.154.17-May-2020 4971.01 2894.02 68.74 5.00  83.79 2585.16
   20:32:10.354.17-May-2020 4971.01 2894.13 68.74 5.00  83.99 2585.16
   20:32:10.554.17-May-2020 4971.01 2894.13 68.74 5.00  84.19 2585.16
   20:32:10.754.17-May-2020 4971.01 2894.12 68.74 5.00  84.39 2585.16
   20:32:10.954.17-May-2020 4971.01 2894.16 68.74 5.00  84.59 2585.16
   20:32:11.154.17-May-2020 4971.01 2894.16 68.74 5.00  84.79 2585.16
   20:32:11.354.17-May-2020 4971.01 2894.11 68.74 5.00  84.99 2585.16
   20:32:11.554.17-May-2020 4971.01 2894.11 68.74 5.00  85.19 2585.16
   20:32:11.754.17-May-2020 4971.01 2894.03 68.74 5.00  85.39 2585.16
   20:32:11.954.17-May-2020 4971.01 2894.13 68.74 5.00  85.59 2585.16
   20:32:12.154.17-May-2020 4971.01 2894.16 68.74 5.00  85.79 2585.16
   20:32:12.354.17-May-2020 4971.01 2894.19 68.74 5.00  85.99 2585.16
   20:32:12.554.17-May-2020 4971.01 2894.19 68.74 5.00  86.19 2585.16
   20:32:12.754.17-May-2020 4971.01 2894.16 68.74 5.00  86.39 2585.16
   20:32:12.954.17-May-2020 4971.01 2894.17 68.74 5.00  86.59 2585.16
   20:32:13.154.17-May-2020 4971.01 2894.14 68.74 5.00  86.79 2585.16
   20:32:13.354.17-May-2020 4971.01 2894.20 68.74 5.00  86.99 2585.16
   20:32:13.554.17-May-2020 4971.01 2894.20 68.74 5.00  87.19 2585.16
   20:32:13.754.17-May-2020 4971.01 2894.23 68.74 5.00  87.39 2585.16
   20:32:13.954.17-May-2020 4971.01 2894.26 68.74 5.00  87.59 2585.16
   20:32:14.154.17-May-2020 4971.01 2894.28 68.74 5.00  87.79 2585.16
   20:32:14.354.17-May-2020 4971.01 2894.30 68.74 5.00  87.99 2585.16
   20:32:14.554.17-May-2020 4971.01 2894.30 68.74 5.00  88.19 2585.16
   20:32:14.754.17-May-2020 4971.01 2894.08 68.74 5.00  88.39 2585.16
   20:32:14.954.17-May-2020 4971.01 2894.19 68.74 5.00  88.59 2585.16
   20:32:15.154.17-May-2020 4971.01 2894.21 68.74 5.00  88.79 2585.16
   20:32:15.354.17-May-2020 4971.01 2894.18 68.74 5.00  88.99 2585.16
   20:32:15.554.17-May-2020 4971.01 2894.23 68.74 5.00  89.19 2585.16
   20:32:15.754.17-May-2020 4971.01 2894.26 68.74 5.00  89.39 2585.16
   20:32:15.954.17-May-2020 4971.01 2894.28 68.74 5.00  89.59 2585.16
   20:32:16.154.17-May-2020 4971.01 2894.29 68.74 5.00  89.79 2585.16
   20:32:16.354.17-May-2020 4971.01 2894.30 68.74 5.00  89.99 2585.16
   20:32:16.554.17-May-2020 4971.01 2894.30 68.74 5.00  90.19 2585.16
   20:32:16.754.17-May-2020 4971.01 2894.22 68.74 5.00  90.39 2585.16
   20:32:16.954.17-May-2020 4971.01 2894.22 68.74 5.00  90.59 2585.16
   20:32:17.154.17-May-2020 4971.01 2894.22 68.74 5.00  90.79 2585.16
   20:32:17.354.17-May-2020 4971.01 2894.31 68.74 5.00  90.99 2585.16
   20:32:17.554.17-May-2020 4971.01 2894.09 68.74 5.00  91.19 2585.16
   20:32:17.754.17-May-2020 4971.01 2894.19 68.74 5.00  91.39 2585.16
   20:32:17.954.17-May-2020 4971.01 2894.20 68.74 5.00  91.59 2585.16
   20:32:18.154.17-May-2020 4971.01 2894.21 68.74 5.00  91.79 2585.16
