~Version Information
 VERS.                  2.0:   CWLS log ASCII Standard -VERSION 2.0
 WRAP.                   NO:   One line per depth step
~Well Information Block
#MNEM.UNIT     VALUE/NAME     DESCRIPTION
#---------     -----------    ---------------------------
 STRT.S             12:13:26 20-May-20: START TIME 12:13:26 20-May-20
 STOP.S             12:20:31 20-May-20: STOP TIME  12:20:31 20-May-20
 STEP.S                   0.00: STEP TIME
 NULL.                 -999.25: NULL VALUE
 UNIT.                     N/A:  LOGGING EQUIPMENT ID
 DCON.         Sperry Drilling:  DIRECTNL CONTR
 DOE .                     N/A:  DOE NUMBER
 JOBN.        AZ-XX-0906252240:  JOB TICKET NUMB
 MWDS.                     N/A:  MWD SHOP
 PROV.                    Baku:  PROVINCE
 STAT.                    Baku:  STATE NAME
 REGN.                   EESSA:  REGION
 BASE.              Azerbaijan:  LOGGING EQUIPMENT BASE LOCATION
 UWI .                     N/A:  UNIQUE WELL IDENTIFIER
 API .                     N/A:  API NUMBER
 MDS .        Operator Entered:  MAG DATA SOURCE
 WTYP.                Deviated:  WELL TYPE
 COMP.     BP Exploration (Caspian Sea) Ltd.:  COMPANY
 SRVC.          Turan Drilling:  CONTRACTOR
 WELL.           J23 (Slot 07):  WELL NAME
 CTRY.              Azerbaijan:  COUNTRY NAME
 FLD .                     ACG:  FIELD NAME
 PDAT.          Mean Sea Level:  PERMANENT DATUM
 RIG .             West Chirag:  RIG NAME
 SON .        AZ-XX-0906252240:  JOB NUMBER
 FTOP.          Formation Tops:  FORM TOPS DESC
 ILTD.               Lithology:  INTERP LTH DESC
 SVYD.                  Survey:  SURVEY DESC
 DMOD.             Drill Model:  DRILL MOD DESC
 HPTY.       Minimum Curvature:  HOLE POS TYPE
 NREF.                    Grid:  NORTH REFERENCE
 SPUD.               27-Aug-20:  SPUD DATE
 DATE.      00.00.00 19-May-20:  END TIME
 STIM.      03.00.00 25-Mar-20:  START TIME
 DMF .             Drill Floor:  DRILL MEAS FROM
 DFST.                        :  DIST FSL TEXT
 DFWT.                        :  DIST FWL TEXT
 CNTY.                        :  COUNTY
 LOC .                        :  LOCATION
 LMF .             Drill Floor:  LOG MEASURED FROM
 VSNS.m                   9.43:  VERT SEC N/S
 VSEW.m                  -8.91:  VERT SEC E/W
 AGAP.m                  43.00:  AIR GAP
 DEP .m                 354.17:  DEPTH
 APD .m                  43.00:  DEPTH ABOVE PD
 WDMS.m                 169.80:  WD ELEV
 EGL .m                   0.00:  GROUND ELEVATION
 EPD .m                   0.00:  ELEVATION
 AZTC.deg                 6.31:  AZM TOTAL CORR
 GRDC.deg                 0.14:  GRID CORRECTION
 MDEC.deg                 6.45:  MAGNETIC DECL
 MDIP.deg                59.56:  MAGNETIC DIP
 MFLD.nT              50295.00:  MAGNETIC FIELD
 GVFD.g                   1.00:  GRAVITY FIELD
 VSDR.deg               179.88:  VERT SEC DIRECT
 TDD .m                5150.01:  TOTAL DEPTH (DRILLER)
 SDEP.m                 864.00:  START DEPTH
 DFSL.m                   0.00:  DISTANCE FSL
 DFWL.m                   0.00:  DISTANCE FWL
 UTMY.m             4443793.85:  UTM Y
 UTMX.m              519005.06:  UTM X
 WHEW.m                  -8.91:  WELL HEAD E/W
 WHNS.m                   9.43:  WELL HEAD N/S
 LONG.deg                51.22:  LONGITUDE
 LATI.deg                40.13:  LATITUDE
 TVDS.m                  43.00:  TVDSS CORRECTN
 EKB .m                   0.00:  KB ELEVATION
 EDF .m                  43.00:  DF ELEVATION
 TDL .m                 363.00:  TOTAL DEPTH (LOGGER)
 MAGU.                 1850802:  MAGUTM CHECKSUM
 VSC .                       0:  VS TO CLOSURE
~Parameter Information Block
#MNEM.UNIT       Value        Description
#---------     -----------    ---------------------------
 AV  .mps                 2.30:  Ann Velocity 
 AVMX.mps                 4.40:  Max Ann Veloc 
 AZIF.deg               110.24:  Azm, Final 
 BHAT.        Rotary Steerable:  BHA Type 
 BREV.rev               331.00:  Rev Bit Total 
 BROT.°/30m               0.00:  Build Rotating 
 BS  .in                  8.50:  Bit Size 
 BSZ .in                  8.50:  Bit Size 
 BTPL.psig              585.00:  Bit Press Loss 
 CABU.                     Yes:  Customer Abuse 
 COMM.                     моЊ:  Run Comments 1 
 TCS .hr                122.75:  Time Ciculation Ended 
 CV  .mps                 2.67:  Crit Velocity 
 CVMX.mps                 3.56:  Max Crit Veloc 
 DD1 .          Rashad Habibov:  Direct Drillr 1 
 DD2 .         Rasim Ibrahimov:  Direct Drillr 2 
 DDSV.               Geo-Pilot:  DD Service 
 DEFF.%                  98.00:  % Det Eff 
 DLRX.°/30m               0.75:  Dogleg Rot Max 
 DLSO.°/30m               1.25:  Dogleg Oriented 
 DLSX.°/30m               2.06:  Dogleg Str Max 
 DRET.      07.45.00 17-May-20:  Drill End Time 
 DRST.      22.50.00 15-May-20:  Drill Start Tim 
 DTIM.hr                 20.75:  Time Drilling 
 EDEP.m                5124.01:  End Depth 
 ENG1.           Eldar Hajiyev:  Engineer 1 
 ENG2.        Marcelo Sandoval:  Engineer 2 
 ENG3.        Davud huseynzada:  Engineer 3 
 ENG4.          Ruslan Safarov:  Engineer 4 
 ETIM.      04.33.00 23-May-20:  End Time 
 FLOI.gpm               450.00:  Flow In 
 FLON.gpm               400.00:  Flow In Min 
 FLOS.cptm                0.00:  Fluid Loss 
 FLOX.gpm               500.00:  Flow In Max 
 FTRO.       Formation Presure:  FTWD Run Obj 
 HFLO.                      No:  High Flow 
 HPRE.                     Yes:  High Pressure 
 HTEM.                      No:  High Temp 
 HYDO.m                   1.80:  Hydro Offset 
 IFIN.deg                75.06:  Inc, Final 
 IMAX.deg                75.38:  Inc Max 
 IMIN.deg                74.69:  Inc Min 
 IMND.m                5027.38:  Inc Min Depth 
 IMXD.m                4771.61:  Inc Max Depth 
 JARR.                      No:  Jarring 
 LETM.      07.45.00 17-May-20:  Log End Time 
 LOST.hr                     0:  Lost Rig Time 
 LSTM.      22.50.00 15-May-20:  Log Start Time 
 MDCL.ppm             42000.00:  Mud Chlorides 
 MDES.     Inversion Oil/Synthetic:  Mud Desc 
 DFD .sg                  1.34:  Mud Density 
 MDMN.sg                  1.34:  Dens Mud Min 
 MDMX.sg                  1.34:  Dens Mud Max 
 MOIL.                       0:  Run Mud Oil % 
 MOWR.                   67:33:  Run Mud OWR 
 MSND.                       0:  Run Mud Sand % 
 MSOL.                     1.8:  Run Mud Solids% 
 DFV .spqt               76.00:  Mud Viscosity 
 MWOD.in                  6.75:  MWD Tool OD 
 MWSI.                      No:  Serv Intrp, MWD 
 OTIM.hr                228.19:  Time Operating 
 PCON.           Look Like New:  Pad Condition 
 PMAX.psia             6164.70:  Press Op, Max 
 PV  .cP                 28.00:  Mud PV 
 RUN .                     900:  Run Number 
 ROPA.m/hr               19.00:  ROP Avg 
 ROPN.m/hr               11.00:  ROP Min 
 ROPX.m/hr               36.00:  ROP Max 
 RPMA.rpm               120.00:  RPM Surface Avg 
 RPMN.rpm               120.00:  RPM Surface Min 
 RPMX.rpm               120.00:  RPM Surface Max 
 RRUN.                    L604:  Rig Run Number 
 RTIM.hr                  7.00:  Time Reaming 
 SAZI.deg               109.27:  Azm, Start 
 SDEP.m                4761.01:  Start Depth 
 SIDD.                      No:  Serv Intrp, DD 
 SINC.deg                75.38:  Inc, Start 
 SPPA.psig             3574.00:  SPP Avg 
 SPPN.psig             3475.00:  SPP Min 
 SPPX.psig             3791.00:  SPP Max 
 STIM.      07.08.48 13-May-20:  Start Time 
 SVCS.                 DD, MWD:  Services 
 SVER.                    9.20:  Sperry Version 
 TDAT.m                 363.00:  Tot Depth Attmp 
 TDDF.                      No:  Trip for DD 
 TDLG.m                 363.00:  Tot Depth Loggd 
 TFF .                      No:  Trip for Fail 
 TQAA.f-kp               20.00:  Torque Abs Avg 
 TQAN.f-kp               18.00:  Torque Abs Min 
 TQAX.f-kp               22.00:  Torque Abs Max 
 TRRT.°/30m              -0.35:  Turn Rotating 
 MRT .                    HCIM:  Maximum Recorded Temperature 
 TTMX.degC               92.16:  Max Tool Temp 
 VS01.                90586518:  Virtual Str1 SN 
 VS02.        AZ90560654Z1W1C6:  Virtual Str2 SN 
 VS03.           AZ90610398F11:  Virtual Str3 SN 
 VS04.                90514975:  Virtual Str4 SN 
 VS05.                90514972:  Virtual Str5 SN 
 VS06.     AZ90603282F11V7D1A6:  Virtual Str6 SN 
 WBMN.klb                 7.00:  WOB Min 
 WOBA.klb                12.00:  WOB Avg 
 WOBX.klb                14.00:  WOB Max 
 YP  .lhf2               32.00:  Yield Point 
~Curve Information Block
#MNEM.UNIT                 API CODE     Curve Description
#---------               -----------    ---------------------------
 TIME.HHMMSS            00 000 000 000:  GT Time & Date
 GTDEPTH.m              00 000 000 000:  GT Depth
 GTPQH.psia             00 000 000 000:  GT HR Quartz Pressure
 GTTQ.degC              00 000 000 000:  GT Quartz Temperature
 GTTN.NONE              00 000 000 000:  GT Test Number
 GTET.sec               00 000 000 000:  GT Elapsed Test Time
 GTTVD.m                00 000 000 000:  GT True Vertical Depth
#Other Information
#
#WARRANTY: Halliburton will use its best efforts to furnish customers with 
#accurate information and interpretations that are part of, and incident to, the services 
#provided.  However, Halliburton cannot and does not warrant the accuracy 
#or correctness of such information and interpretations.  Under no circumstances should any 
#such information or interpretation be relied upon as the sole basis for any drilling, 
#completion, production, or financial decision or any procedure involving any risk to the 
#safety of any drilling venture, drilling rig or its crew or any other third party.  The 
#Customer has full responsibility for all drilling, completion and production operation.  
#Halliburton makes no representations or warranties, either expressed or 
#implied, including, but not limited to, the implied warranties of merchantability or fitness 
#for a particular purpose, with respect to the services rendered.  In no event will 
#Halliburton be liable for failure to obtain any particular results or for 
#any damages, including, but not limited to, indirect, special or consequential damages, 
#resulting from the use of any information or interpretation provided by Halliburton.
#
~A           TIME           GTDEPTH  GTPQH  GTTQ  GTTN   GTET   GTTVD  
# ...
   12:14:57.130.20-May-2020 4766.51 5490.38 69.51 15.00  90.43 2532.42
   12:14:57.330.20-May-2020 4766.51 5488.55 69.51 15.00  90.63 2532.42
   12:14:57.530.20-May-2020 4766.51 5491.51 69.51 15.00  90.83 2532.42
   12:14:57.730.20-May-2020 4766.51 5490.76 69.51 15.00  91.03 2532.42
   12:14:57.930.20-May-2020 4766.51 5489.25 69.51 15.00  91.23 2532.42
   12:14:58.130.20-May-2020 4766.51 5488.32 69.51 15.00  91.43 2532.42
   12:14:58.330.20-May-2020 4766.51 5488.40 69.51 15.00  91.63 2532.42
   12:14:58.530.20-May-2020 4766.51 5489.07 69.51 15.00  91.83 2532.42
   12:14:58.730.20-May-2020 4766.51 5498.84 69.51 15.00  92.03 2532.42
   12:14:58.930.20-May-2020 4766.51 5498.84 69.51 15.00  92.23 2532.42
   12:14:59.130.20-May-2020 4766.51 5487.74 69.51 15.00  92.43 2532.42
   12:14:59.330.20-May-2020 4766.51 5486.87 69.51 15.00  92.63 2532.42
   12:14:59.530.20-May-2020 4766.51 5488.77 69.51 15.00  92.83 2532.42
   12:14:59.730.20-May-2020 4766.51 5488.76 69.51 15.00  93.03 2532.42
   12:14:59.931.20-May-2020 4766.51 5488.76 69.51 15.00  93.23 2532.42
   12:15:00.131.20-May-2020 4766.51 5487.13 69.51 15.00  93.43 2532.42
   12:15:00.331.20-May-2020 4766.51 5487.38 69.51 15.00  93.63 2532.42
   12:15:00.531.20-May-2020 4766.51 5487.49 69.51 15.00  93.83 2532.42
   12:15:00.731.20-May-2020 4766.51 5487.36 69.51 15.00  94.03 2532.42
   12:15:00.931.20-May-2020 4766.51 5498.73 69.51 15.00  94.23 2532.42
   12:15:01.131.20-May-2020 4766.51 5486.92 69.51 15.00  94.43 2532.42
   12:15:01.331.20-May-2020 4766.51 5487.06 69.51 15.00  94.63 2532.42
   12:15:01.531.20-May-2020 4766.51 5490.15 69.51 15.00  94.83 2532.42
   12:15:01.731.20-May-2020 4766.51 5496.86 69.51 15.00  95.03 2532.42
   12:15:01.931.20-May-2020 4766.51 5496.86 69.51 15.00  95.23 2532.42
   12:15:02.131.20-May-2020 4766.51 5488.02 69.51 15.00  95.43 2532.42
   12:15:02.331.20-May-2020 4766.51 5486.34 69.50 15.00  95.63 2532.42
   12:15:02.531.20-May-2020 4766.51 5497.71 69.50 15.00  95.83 2532.42
   12:15:02.731.20-May-2020 4766.51 5494.61 69.50 15.00  96.03 2532.42
   12:15:02.931.20-May-2020 4766.51 5494.61 69.50 15.00  96.23 2532.42
   12:15:03.132.20-May-2020 4766.51 5487.67 69.50 15.00  96.43 2532.42
   12:15:03.332.20-May-2020 4766.51 5487.25 69.50 15.00  96.63 2532.42
   12:15:03.532.20-May-2020 4766.51 5504.50 69.50 15.00  96.83 2532.42
   12:15:03.732.20-May-2020 4766.51 5490.17 69.50 15.00  97.03 2532.42
   12:15:03.932.20-May-2020 4766.51 5490.17 69.50 15.00  97.23 2532.42
   12:15:04.132.20-May-2020 4766.51 5488.06 69.50 15.00  97.43 2532.42
   12:15:04.332.20-May-2020 4766.51 5489.81 69.50 15.00  97.63 2532.42
   12:15:04.532.20-May-2020 4766.51 5491.24 69.50 15.00  97.83 2532.42
   12:15:04.732.20-May-2020 4766.51 5488.60 69.50 15.00  98.03 2532.42
   12:15:04.932.20-May-2020 4766.51 5488.60 69.50 15.00  98.23 2532.42
   12:15:05.132.20-May-2020 4766.51 5488.05 69.50 15.00  98.43 2532.42
   12:15:05.332.20-May-2020 4766.51 5487.66 69.50 15.00  98.63 2532.42
   12:15:05.532.20-May-2020 4766.51 5498.44 69.50 15.00  98.83 2532.42
   12:15:05.732.20-May-2020 4766.51 5487.05 69.50 15.00  99.03 2532.42
   12:15:05.932.20-May-2020 4766.51 5487.05 69.50 15.00  99.23 2532.42
   12:15:06.133.20-May-2020 4766.51 5486.81 69.50 15.00  99.43 2532.42
   12:15:06.333.20-May-2020 4766.51 5487.01 69.50 15.00  99.63 2532.42
   12:15:06.533.20-May-2020 4766.51 5489.59 69.50 15.00  99.83 2532.42
   12:15:06.733.20-May-2020 4766.51 5487.37 69.50 15.00 100.03 2532.42
   12:15:06.933.20-May-2020 4766.51 5487.37 69.50 15.00 100.23 2532.42
   12:15:07.133.20-May-2020 4766.51 5487.45 69.50 15.00 100.43 2532.42
   12:15:07.333.20-May-2020 4766.51 5487.32 69.50 15.00 100.63 2532.42
   12:15:07.533.20-May-2020 4766.51 5486.62 69.49 15.00 100.83 2532.42
   12:15:07.733.20-May-2020 4766.51 5494.53 69.49 15.00 101.03 2532.42
   12:15:07.933.20-May-2020 4766.51 5494.53 69.49 15.00 101.23 2532.42
   12:15:08.133.20-May-2020 4766.51 5486.79 69.49 15.00 101.43 2532.42
   12:15:08.333.20-May-2020 4766.51 5486.63 69.49 15.00 101.63 2532.42
   12:15:08.533.20-May-2020 4766.51 5493.48 69.49 15.00 101.83 2532.42
   12:15:08.733.20-May-2020 4766.51 5495.44 69.49 15.00 102.03 2532.42
   12:15:08.933.20-May-2020 4766.51 5488.56 69.49 15.00 102.23 2532.42
   12:15:09.133.20-May-2020 4766.51 5487.62 69.49 15.00 102.43 2532.42
   12:15:09.334.20-May-2020 4766.51 5487.43 69.49 15.00 102.63 2532.42
   12:15:09.534.20-May-2020 4766.51 5503.15 69.49 15.00 102.83 2532.42
   12:15:09.734.20-May-2020 4766.51 5489.04 69.49 15.00 103.03 2532.42
   12:15:09.934.20-May-2020 4766.51 5489.04 69.49 15.00 103.23 2532.42
   12:15:10.134.20-May-2020 4766.51 5488.06 69.49 15.00 103.43 2532.42
   12:15:10.334.20-May-2020 4766.51 5498.95 69.49 15.00 103.63 2532.42
   12:15:10.534.20-May-2020 4766.51 5492.79 69.49 15.00 103.83 2532.42
   12:15:10.734.20-May-2020 4766.51 5489.02 69.49 15.00 104.03 2532.42
   12:15:10.934.20-May-2020 4766.51 5489.02 69.49 15.00 104.23 2532.42
   12:15:11.134.20-May-2020 4766.51 5488.23 69.49 15.00 104.43 2532.42
   12:15:11.334.20-May-2020 4766.51 5491.10 69.49 15.00 104.63 2532.42
   12:15:11.534.20-May-2020 4766.51 5488.42 69.49 15.00 104.83 2532.42
   12:15:11.734.20-May-2020 4766.51 5487.50 69.49 15.00 105.03 2532.42
   12:15:11.934.20-May-2020 4766.51 5487.50 69.49 15.00 105.23 2532.42
   12:15:12.134.20-May-2020 4766.51 5487.28 69.49 15.00 105.43 2532.42
   12:15:12.334.20-May-2020 4766.51 5492.61 69.49 15.00 105.63 2532.42
   12:15:12.535.20-May-2020 4766.51 5492.28 69.49 15.00 105.83 2532.42
   12:15:12.735.20-May-2020 4766.51 5486.99 69.49 15.00 106.03 2532.42
   12:15:12.935.20-May-2020 4766.51 5487.05 69.49 15.00 106.23 2532.42
   12:15:13.135.20-May-2020 4766.51 5486.33 69.48 15.00 106.43 2532.42
   12:15:13.335.20-May-2020 4766.51 5489.62 69.48 15.00 106.63 2532.42
   12:15:13.535.20-May-2020 4766.51 5487.73 69.48 15.00 106.83 2532.42
   12:15:13.735.20-May-2020 4766.51 5487.00 69.48 15.00 107.03 2532.42
   12:15:13.935.20-May-2020 4766.51 5487.38 69.48 15.00 107.23 2532.42
   12:15:14.135.20-May-2020 4766.51 5487.30 69.48 15.00 107.43 2532.42
   12:15:14.335.20-May-2020 4766.51 5486.65 69.48 15.00 107.63 2532.42
   12:15:14.535.20-May-2020 4766.51 5487.83 69.48 15.00 107.83 2532.42
   12:15:14.735.20-May-2020 4766.51 5496.85 69.48 15.00 108.03 2532.42
   12:15:14.935.20-May-2020 4766.51 5496.85 69.48 15.00 108.23 2532.42
   12:15:15.135.20-May-2020 4766.51 5486.92 69.48 15.00 108.43 2532.42
   12:15:15.335.20-May-2020 4766.51 5495.97 69.48 15.00 108.63 2532.42
   12:15:15.536.20-May-2020 4766.51 5492.16 69.48 15.00 108.83 2532.42
   12:15:15.736.20-May-2020 4766.51 5489.07 69.48 15.00 109.03 2532.42
   12:15:15.936.20-May-2020 4766.51 5489.07 69.48 15.00 109.23 2532.42
   12:15:16.136.20-May-2020 4766.51 5487.57 69.48 15.00 109.43 2532.42
   12:15:16.336.20-May-2020 4766.51 5501.92 69.48 15.00 109.64 2532.42
   12:15:16.536.20-May-2020 4766.51 5490.89 69.48 15.00 109.84 2532.42
   12:15:16.736.20-May-2020 4766.51 5487.69 69.48 15.00 110.04 2532.42
   12:15:16.936.20-May-2020 4766.51 5488.27 69.48 15.00 110.24 2532.42
   12:15:17.136.20-May-2020 4766.51 5494.44 69.48 15.00 110.44 2532.42
   12:15:17.336.20-May-2020 4766.51 5498.03 69.48 15.00 110.64 2532.42
   12:15:17.536.20-May-2020 4766.51 5489.13 69.48 15.00 110.84 2532.42
   12:15:17.736.20-May-2020 4766.51 5488.35 69.48 15.00 111.04 2532.42
   12:15:17.936.20-May-2020 4766.51 5487.98 69.48 15.00 111.24 2532.42
   12:15:18.136.20-May-2020 4766.51 5491.52 69.48 15.00 111.44 2532.42
   12:15:18.336.20-May-2020 4766.51 5488.81 69.47 15.00 111.64 2532.42
   12:15:18.536.20-May-2020 4766.51 5487.46 69.47 15.00 111.84 2532.42
   12:15:18.737.20-May-2020 4766.51 5487.64 69.47 15.00 112.04 2532.42
   12:15:18.937.20-May-2020 4766.51 5487.64 69.47 15.00 112.24 2532.42
   12:15:19.137.20-May-2020 4766.51 5489.25 69.47 15.00 112.44 2532.42
   12:15:19.337.20-May-2020 4766.51 5496.33 69.47 15.00 112.64 2532.42
   12:15:19.537.20-May-2020 4766.51 5487.13 69.47 15.00 112.84 2532.42
