~Version Information
 VERS.                  2.0:   CWLS log ASCII Standard -VERSION 2.0
 WRAP.                   NO:   One line per depth step
~Well Information Block
#MNEM.UNIT     VALUE/NAME     DESCRIPTION
#---------     -----------    ---------------------------
 STRT.S             01:27:41 18-May-20: START TIME 01:27:41 18-May-20
 STOP.S             01:34:42 18-May-20: STOP TIME  01:34:42 18-May-20
 STEP.S                   0.00: STEP TIME
 NULL.                 -999.25: NULL VALUE
 UNIT.                     N/A:  LOGGING EQUIPMENT ID
 DCON.         Sperry Drilling:  DIRECTNL CONTR
 DOE .                     N/A:  DOE NUMBER
 JOBN.        AZ-XX-0906252240:  JOB TICKET NUMB
 MWDS.                     N/A:  MWD SHOP
 PROV.                    Baku:  PROVINCE
 STAT.                    Baku:  STATE NAME
 REGN.                   EESSA:  REGION
 BASE.              Azerbaijan:  LOGGING EQUIPMENT BASE LOCATION
 UWI .                     N/A:  UNIQUE WELL IDENTIFIER
 API .                     N/A:  API NUMBER
 MDS .        Operator Entered:  MAG DATA SOURCE
 WTYP.                Deviated:  WELL TYPE
 COMP.     BP Exploration (Caspian Sea) Ltd.:  COMPANY
 SRVC.          Turan Drilling:  CONTRACTOR
 WELL.           J23 (Slot 07):  WELL NAME
 CTRY.              Azerbaijan:  COUNTRY NAME
 FLD .                     ACG:  FIELD NAME
 PDAT.          Mean Sea Level:  PERMANENT DATUM
 RIG .             West Chirag:  RIG NAME
 SON .        AZ-XX-0906252240:  JOB NUMBER
 FTOP.          Formation Tops:  FORM TOPS DESC
 ILTD.               Lithology:  INTERP LTH DESC
 SVYD.                  Survey:  SURVEY DESC
 DMOD.             Drill Model:  DRILL MOD DESC
 HPTY.       Minimum Curvature:  HOLE POS TYPE
 NREF.                    Grid:  NORTH REFERENCE
 SPUD.               27-Aug-20:  SPUD DATE
 DATE.      00.00.00 19-May-20:  END TIME
 STIM.      03.00.00 25-Mar-20:  START TIME
 DMF .             Drill Floor:  DRILL MEAS FROM
 DFST.                        :  DIST FSL TEXT
 DFWT.                        :  DIST FWL TEXT
 CNTY.                        :  COUNTY
 LOC .                        :  LOCATION
 LMF .             Drill Floor:  LOG MEASURED FROM
 VSNS.m                   9.43:  VERT SEC N/S
 VSEW.m                  -8.91:  VERT SEC E/W
 AGAP.m                  43.00:  AIR GAP
 DEP .m                 354.17:  DEPTH
 APD .m                  43.00:  DEPTH ABOVE PD
 WDMS.m                 169.80:  WD ELEV
 EGL .m                   0.00:  GROUND ELEVATION
 EPD .m                   0.00:  ELEVATION
 AZTC.deg                 6.31:  AZM TOTAL CORR
 GRDC.deg                 0.14:  GRID CORRECTION
 MDEC.deg                 6.45:  MAGNETIC DECL
 MDIP.deg                59.56:  MAGNETIC DIP
 MFLD.nT              50295.00:  MAGNETIC FIELD
 GVFD.g                   1.00:  GRAVITY FIELD
 VSDR.deg               179.88:  VERT SEC DIRECT
 TDD .m                5150.01:  TOTAL DEPTH (DRILLER)
 SDEP.m                 864.00:  START DEPTH
 DFSL.m                   0.00:  DISTANCE FSL
 DFWL.m                   0.00:  DISTANCE FWL
 UTMY.m             4443793.85:  UTM Y
 UTMX.m              519005.06:  UTM X
 WHEW.m                  -8.91:  WELL HEAD E/W
 WHNS.m                   9.43:  WELL HEAD N/S
 LONG.deg                51.22:  LONGITUDE
 LATI.deg                40.13:  LATITUDE
 TVDS.m                  43.00:  TVDSS CORRECTN
 EKB .m                   0.00:  KB ELEVATION
 EDF .m                  43.00:  DF ELEVATION
 TDL .m                 363.00:  TOTAL DEPTH (LOGGER)
 MAGU.                 1850802:  MAGUTM CHECKSUM
 VSC .                       0:  VS TO CLOSURE
~Parameter Information Block
#MNEM.UNIT       Value        Description
#---------     -----------    ---------------------------
 AV  .mps                 2.30:  Ann Velocity 
 AVMX.mps                 4.40:  Max Ann Veloc 
 AZIF.deg               110.24:  Azm, Final 
 BHAT.        Rotary Steerable:  BHA Type 
 BREV.rev               331.00:  Rev Bit Total 
 BROT.°/30m               0.00:  Build Rotating 
 BS  .in                  8.50:  Bit Size 
 BSZ .in                  8.50:  Bit Size 
 BTPL.psig              585.00:  Bit Press Loss 
 CABU.                     Yes:  Customer Abuse 
 COMM.                     tPr:  Run Comments 1 
 TCS .hr                122.75:  Time Ciculation Ended 
 CV  .mps                 2.67:  Crit Velocity 
 CVMX.mps                 3.56:  Max Crit Veloc 
 DD1 .          Rashad Habibov:  Direct Drillr 1 
 DD2 .         Rasim Ibrahimov:  Direct Drillr 2 
 DDSV.               Geo-Pilot:  DD Service 
 DEFF.%                  98.00:  % Det Eff 
 DLRX.°/30m               0.75:  Dogleg Rot Max 
 DLSO.°/30m               1.25:  Dogleg Oriented 
 DLSX.°/30m               2.06:  Dogleg Str Max 
 DRET.      07.45.00 17-May-20:  Drill End Time 
 DRST.      22.50.00 15-May-20:  Drill Start Tim 
 DTIM.hr                 20.75:  Time Drilling 
 EDEP.m                5124.01:  End Depth 
 ENG1.           Eldar Hajiyev:  Engineer 1 
 ENG2.        Marcelo Sandoval:  Engineer 2 
 ENG3.        Davud huseynzada:  Engineer 3 
 ENG4.          Ruslan Safarov:  Engineer 4 
 ETIM.      04.33.00 23-May-20:  End Time 
 FLOI.gpm               450.00:  Flow In 
 FLON.gpm               400.00:  Flow In Min 
 FLOS.cptm                0.00:  Fluid Loss 
 FLOX.gpm               500.00:  Flow In Max 
 FTRO.       Formation Presure:  FTWD Run Obj 
 HFLO.                      No:  High Flow 
 HPRE.                     Yes:  High Pressure 
 HTEM.                      No:  High Temp 
 HYDO.m                   1.80:  Hydro Offset 
 IFIN.deg                75.06:  Inc, Final 
 IMAX.deg                75.38:  Inc Max 
 IMIN.deg                74.69:  Inc Min 
 IMND.m                5027.38:  Inc Min Depth 
 IMXD.m                4771.61:  Inc Max Depth 
 JARR.                      No:  Jarring 
 LETM.      07.45.00 17-May-20:  Log End Time 
 LOST.hr                     0:  Lost Rig Time 
 LSTM.      22.50.00 15-May-20:  Log Start Time 
 MDCL.ppm             42000.00:  Mud Chlorides 
 MDES.     Inversion Oil/Synthetic:  Mud Desc 
 DFD .sg                  1.34:  Mud Density 
 MDMN.sg                  1.34:  Dens Mud Min 
 MDMX.sg                  1.34:  Dens Mud Max 
 MOIL.                       0:  Run Mud Oil % 
 MOWR.                   67:33:  Run Mud OWR 
 MSND.                       0:  Run Mud Sand % 
 MSOL.                     1.8:  Run Mud Solids% 
 DFV .spqt               76.00:  Mud Viscosity 
 MWOD.in                  6.75:  MWD Tool OD 
 MWSI.                      No:  Serv Intrp, MWD 
 OTIM.hr                228.19:  Time Operating 
 PCON.           Look Like New:  Pad Condition 
 PMAX.psia             6164.70:  Press Op, Max 
 PV  .cP                 28.00:  Mud PV 
 RUN .                     900:  Run Number 
 ROPA.m/hr               19.00:  ROP Avg 
 ROPN.m/hr               11.00:  ROP Min 
 ROPX.m/hr               36.00:  ROP Max 
 RPMA.rpm               120.00:  RPM Surface Avg 
 RPMN.rpm               120.00:  RPM Surface Min 
 RPMX.rpm               120.00:  RPM Surface Max 
 RRUN.                    L604:  Rig Run Number 
 RTIM.hr                  7.00:  Time Reaming 
 SAZI.deg               109.27:  Azm, Start 
 SDEP.m                4761.01:  Start Depth 
 SIDD.                      No:  Serv Intrp, DD 
 SINC.deg                75.38:  Inc, Start 
 SPPA.psig             3574.00:  SPP Avg 
 SPPN.psig             3475.00:  SPP Min 
 SPPX.psig             3791.00:  SPP Max 
 STIM.      07.08.48 13-May-20:  Start Time 
 SVCS.                 DD, MWD:  Services 
 SVER.                    9.20:  Sperry Version 
 TDAT.m                 363.00:  Tot Depth Attmp 
 TDDF.                      No:  Trip for DD 
 TDLG.m                 363.00:  Tot Depth Loggd 
 TFF .                      No:  Trip for Fail 
 TQAA.f-kp               20.00:  Torque Abs Avg 
 TQAN.f-kp               18.00:  Torque Abs Min 
 TQAX.f-kp               22.00:  Torque Abs Max 
 TRRT.°/30m              -0.35:  Turn Rotating 
 MRT .                    HCIM:  Maximum Recorded Temperature 
 TTMX.degC               92.16:  Max Tool Temp 
 VS01.                90586518:  Virtual Str1 SN 
 VS02.        AZ90560654Z1W1C6:  Virtual Str2 SN 
 VS03.           AZ90610398F11:  Virtual Str3 SN 
 VS04.                90514975:  Virtual Str4 SN 
 VS05.                90514972:  Virtual Str5 SN 
 VS06.     AZ90603282F11V7D1A6:  Virtual Str6 SN 
 WBMN.klb                 7.00:  WOB Min 
 WOBA.klb                12.00:  WOB Avg 
 WOBX.klb                14.00:  WOB Max 
 YP  .lhf2               32.00:  Yield Point 
~Curve Information Block
#MNEM.UNIT                 API CODE     Curve Description
#---------               -----------    ---------------------------
 TIME.HHMMSS            00 000 000 000:  GT Time & Date
 GTDEPTH.m              00 000 000 000:  GT Depth
 GTPQH.psia             00 000 000 000:  GT HR Quartz Pressure
 GTTQ.degC              00 000 000 000:  GT Quartz Temperature
 GTTN.NONE              00 000 000 000:  GT Test Number
 GTET.sec               00 000 000 000:  GT Elapsed Test Time
 GTTVD.m                00 000 000 000:  GT True Vertical Depth
#Other Information
#
#WARRANTY: Halliburton will use its best efforts to furnish customers with 
#accurate information and interpretations that are part of, and incident to, the services 
#provided.  However, Halliburton cannot and does not warrant the accuracy 
#or correctness of such information and interpretations.  Under no circumstances should any 
#such information or interpretation be relied upon as the sole basis for any drilling, 
#completion, production, or financial decision or any procedure involving any risk to the 
#safety of any drilling venture, drilling rig or its crew or any other third party.  The 
#Customer has full responsibility for all drilling, completion and production operation.  
#Halliburton makes no representations or warranties, either expressed or 
#implied, including, but not limited to, the implied warranties of merchantability or fitness 
#for a particular purpose, with respect to the services rendered.  In no event will 
#Halliburton be liable for failure to obtain any particular results or for 
#any damages, including, but not limited to, indirect, special or consequential damages, 
#resulting from the use of any information or interpretation provided by Halliburton.
#
~A           TIME           GTDEPTH  GTPQH  GTTQ  GTTN   GTET   GTTVD  
   01:27:41.841.18-May-2020 4854.01 5461.37 66.65 11.00   0.00 2555.10
   01:27:42.041.18-May-2020 4854.01 5474.31 66.65 11.00   0.20 2555.10
   01:27:42.241.18-May-2020 4854.01 5462.14 66.65 11.00   0.40 2555.10
   01:27:42.441.18-May-2020 4854.01 5464.80 66.65 11.00   0.60 2555.10
   01:27:42.641.18-May-2020 4854.01 5466.80 66.65 11.00   0.80 2555.10
   01:27:42.841.18-May-2020 4854.01 5462.14 66.65 11.00   1.00 2555.10
   01:27:43.041.18-May-2020 4854.01 5462.14 66.65 11.00   1.20 2555.10
   01:27:43.241.18-May-2020 4854.01 5461.11 66.65 11.00   1.40 2555.10
   01:27:43.441.18-May-2020 4854.01 5466.07 66.65 11.00   1.60 2555.10
   01:27:43.642.18-May-2020 4854.01 5470.57 66.65 11.00   1.80 2555.10
   01:27:43.842.18-May-2020 4854.01 5472.79 66.64 11.00   2.00 2555.10
   01:27:44.042.18-May-2020 4854.01 5472.79 66.64 11.00   2.20 2555.10
   01:27:44.242.18-May-2020 4854.01 5467.52 66.64 11.00   2.40 2555.10
   01:27:44.442.18-May-2020 4854.01 5470.51 66.64 11.00   2.60 2555.10
   01:27:44.642.18-May-2020 4854.01 5469.92 66.64 11.00   2.80 2555.10
   01:27:44.842.18-May-2020 4854.01 5468.97 66.64 11.00   3.00 2555.10
   01:27:45.042.18-May-2020 4854.01 5468.97 66.64 11.00   3.20 2555.10
   01:27:45.242.18-May-2020 4854.01 5468.69 66.64 11.00   3.40 2555.10
   01:27:45.442.18-May-2020 4854.01 5469.44 66.64 11.00   3.60 2555.10
   01:27:45.642.18-May-2020 4854.01 5470.13 66.64 11.00   3.80 2555.10
   01:27:45.842.18-May-2020 4854.01 5469.99 66.64 11.00   4.00 2555.10
   01:27:46.043.18-May-2020 4854.01 5469.99 66.64 11.00   4.20 2555.10
   01:27:46.243.18-May-2020 4854.01 5465.56 66.64 11.00   4.40 2555.10
   01:27:46.443.18-May-2020 4854.01 5472.87 66.64 11.00   4.60 2555.10
   01:27:46.643.18-May-2020 4854.01 5474.21 66.64 11.00   4.80 2555.10
   01:27:46.843.18-May-2020 4854.01 5472.63 66.64 11.00   5.00 2555.10
   01:27:47.043.18-May-2020 4854.01 5472.63 66.64 11.00   5.20 2555.10
   01:27:47.243.18-May-2020 4854.01 5472.59 66.64 11.00   5.40 2555.10
   01:27:47.443.18-May-2020 4854.01 5471.85 66.64 11.00   5.60 2555.10
   01:27:47.643.18-May-2020 4854.01 5471.00 66.64 11.00   5.80 2555.10
   01:27:47.843.18-May-2020 4854.01 5471.81 66.64 11.00   6.00 2555.10
   01:27:48.043.18-May-2020 4854.01 5471.81 66.64 11.00   6.20 2555.10
   01:27:48.243.18-May-2020 4854.01 5476.04 66.64 11.00   6.40 2555.10
   01:27:48.443.18-May-2020 4854.01 5476.12 66.64 11.00   6.60 2555.10
   01:27:48.644.18-May-2020 4854.01 5475.30 66.64 11.00   6.80 2555.10
   01:27:48.844.18-May-2020 4854.01 5473.78 66.64 11.00   7.00 2555.10
   01:27:49.044.18-May-2020 4854.01 5473.78 66.64 11.00   7.20 2555.10
   01:27:49.244.18-May-2020 4854.01 5484.16 66.64 11.00   7.40 2555.10
   01:27:49.444.18-May-2020 4854.01 5477.00 66.64 11.00   7.60 2555.10
   01:27:49.644.18-May-2020 4854.01 5473.35 66.64 11.00   7.80 2555.10
   01:27:49.844.18-May-2020 4854.01 5476.29 66.64 11.00   8.00 2555.10
   01:27:50.044.18-May-2020 4854.01 5476.29 66.64 11.00   8.20 2555.10
   01:27:50.244.18-May-2020 4854.01 5469.67 66.64 11.00   8.40 2555.10
   01:27:50.444.18-May-2020 4854.01 5477.38 66.64 11.00   8.60 2555.10
   01:27:50.644.18-May-2020 4854.01 5478.01 66.64 11.00   8.80 2555.10
   01:27:50.844.18-May-2020 4854.01 5488.37 66.64 11.00   9.00 2555.10
   01:27:51.045.18-May-2020 4854.01 5488.37 66.64 11.00   9.20 2555.10
   01:27:51.245.18-May-2020 4854.01 5478.82 66.64 11.00   9.40 2555.10
   01:27:51.445.18-May-2020 4854.01 5487.08 66.64 11.00   9.60 2555.10
   01:27:51.645.18-May-2020 4854.01 5478.86 66.64 11.00   9.80 2555.10
   01:27:51.845.18-May-2020 4854.01 5480.57 66.64 11.00  10.00 2555.10
   01:27:52.045.18-May-2020 4854.01 5480.57 66.64 11.00  10.20 2555.10
   01:27:52.245.18-May-2020 4854.01 5492.50 66.64 11.00  10.40 2555.10
   01:27:52.445.18-May-2020 4854.01 5473.48 66.64 11.00  10.60 2555.10
   01:27:52.645.18-May-2020 4854.01 5480.54 66.64 11.00  10.80 2555.10
   01:27:52.845.18-May-2020 4854.01 5481.95 66.64 11.00  11.00 2555.10
   01:27:53.045.18-May-2020 4854.01 5481.95 66.64 11.00  11.20 2555.10
   01:27:53.245.18-May-2020 4854.01 5478.72 66.64 11.00  11.40 2555.10
   01:27:53.445.18-May-2020 4854.01 5478.03 66.64 11.00  11.60 2555.10
   01:27:53.646.18-May-2020 4854.01 5477.59 66.64 11.00  11.80 2555.10
   01:27:53.846.18-May-2020 4854.01 5476.93 66.64 11.00  12.00 2555.10
   01:27:54.046.18-May-2020 4854.01 5476.93 66.64 11.00  12.20 2555.10
   01:27:54.246.18-May-2020 4854.01 5485.61 66.64 11.00  12.41 2555.10
   01:27:54.446.18-May-2020 4854.01 5477.95 66.64 11.00  12.61 2555.10
   01:27:54.646.18-May-2020 4854.01 5480.52 66.64 11.00  12.81 2555.10
   01:27:54.846.18-May-2020 4854.01 5480.99 66.64 11.00  13.01 2555.10
   01:27:55.046.18-May-2020 4854.01 5480.99 66.64 11.00  13.21 2555.10
   01:27:55.246.18-May-2020 4854.01 5479.99 66.64 11.00  13.41 2555.10
   01:27:55.446.18-May-2020 4854.01 5478.90 66.64 11.00  13.61 2555.10
   01:27:55.646.18-May-2020 4854.01 5479.21 66.64 11.00  13.81 2555.10
   01:27:55.846.18-May-2020 4854.01 5477.98 66.64 11.00  14.01 2555.10
   01:27:56.047.18-May-2020 4854.01 5477.98 66.64 11.00  14.21 2555.10
   01:27:56.247.18-May-2020 4854.01 5478.25 66.64 11.00  14.41 2555.10
   01:27:56.447.18-May-2020 4854.01 5479.66 66.64 11.00  14.61 2555.10
   01:27:56.647.18-May-2020 4854.01 5486.48 66.64 11.00  14.81 2555.10
   01:27:56.847.18-May-2020 4854.01 5483.00 66.64 11.00  15.01 2555.10
   01:27:57.047.18-May-2020 4854.01 5483.00 66.64 11.00  15.21 2555.10
   01:27:57.247.18-May-2020 4854.01 5494.82 66.64 11.00  15.41 2555.10
   01:27:57.447.18-May-2020 4854.01 5478.82 66.64 11.00  15.61 2555.10
   01:27:57.647.18-May-2020 4854.01 5482.80 66.64 11.00  15.81 2555.10
   01:27:57.847.18-May-2020 4854.01 5485.39 66.64 11.00  16.01 2555.10
   01:27:58.047.18-May-2020 4854.01 5485.39 66.64 11.00  16.21 2555.10
   01:27:58.247.18-May-2020 4854.01 5489.55 66.64 11.00  16.41 2555.10
   01:27:58.448.18-May-2020 4854.01 5485.65 66.64 11.00  16.61 2555.10
   01:27:58.648.18-May-2020 4854.01 5484.80 66.64 11.00  16.81 2555.10
   01:27:58.848.18-May-2020 4854.01 5489.55 66.64 11.00  17.01 2555.10
   01:27:59.048.18-May-2020 4854.01 5489.55 66.64 11.00  17.21 2555.10
   01:27:59.248.18-May-2020 4854.01 5482.82 66.64 11.00  17.41 2555.10
   01:27:59.448.18-May-2020 4854.01 5484.74 66.64 11.00  17.61 2555.10
   01:27:59.648.18-May-2020 4854.01 5483.22 66.64 11.00  17.81 2555.10
   01:27:59.848.18-May-2020 4854.01 5482.40 66.64 11.00  18.01 2555.10
   01:28:00.048.18-May-2020 4854.01 5482.40 66.64 11.00  18.21 2555.10
   01:28:00.248.18-May-2020 4854.01 5480.11 66.64 11.00  18.41 2555.10
   01:28:00.448.18-May-2020 4854.01 5481.32 66.64 11.00  18.61 2555.10
   01:28:00.648.18-May-2020 4854.01 5481.08 66.64 11.00  18.81 2555.10
   01:28:00.848.18-May-2020 4854.01 5491.39 66.64 11.00  19.01 2555.10
   01:28:01.049.18-May-2020 4854.01 5491.39 66.64 11.00  19.21 2555.10
   01:28:01.249.18-May-2020 4854.01 5479.58 66.64 11.00  19.41 2555.10
   01:28:01.449.18-May-2020 4854.01 5484.55 66.64 11.00  19.61 2555.10
   01:28:01.649.18-May-2020 4854.01 5483.72 66.64 11.00  19.81 2555.10
   01:28:01.849.18-May-2020 4854.01 5481.30 66.64 11.00  20.01 2555.10
   01:28:02.049.18-May-2020 4854.01 5481.30 66.64 11.00  20.21 2555.10
   01:28:02.249.18-May-2020 4854.01 5480.85 66.64 11.00  20.41 2555.10
   01:28:02.449.18-May-2020 4854.01 5481.19 66.64 11.00  20.61 2555.10
   01:28:02.649.18-May-2020 4854.01 5481.21 66.64 11.00  20.81 2555.10
   01:28:02.849.18-May-2020 4854.01 5481.04 66.64 11.00  21.01 2555.10
   01:28:03.049.18-May-2020 4854.01 5494.45 66.64 11.00  21.21 2555.10
   01:28:03.249.18-May-2020 4854.01 5477.43 66.64 11.00  21.41 2555.10
   01:28:03.450.18-May-2020 4854.01 5482.66 66.64 11.00  21.61 2555.10
   01:28:03.650.18-May-2020 4854.01 5486.36 66.64 11.00  21.81 2555.10
   01:28:03.850.18-May-2020 4854.01 5493.35 66.64 11.00  22.01 2555.10
   01:28:04.050.18-May-2020 4854.01 5493.35 66.64 11.00  22.21 2555.10
   01:28:04.250.18-May-2020 4854.01 5483.70 66.64 11.00  22.41 2555.10
