~Version Information
 VERS.                  2.0:   CWLS log ASCII Standard -VERSION 2.0
 WRAP.                   NO:   One line per depth step
~Well Information Block
#MNEM.UNIT     VALUE/NAME     DESCRIPTION
#---------     -----------    ---------------------------
 STRT.S             00:24:31 18-May-20: START TIME 00:24:31 18-May-20
 STOP.S             00:32:03 18-May-20: STOP TIME  00:32:03 18-May-20
 STEP.S                   0.00: STEP TIME
 NULL.                 -999.25: NULL VALUE
 UNIT.                     N/A:  LOGGING EQUIPMENT ID
 DCON.         Sperry Drilling:  DIRECTNL CONTR
 DOE .                     N/A:  DOE NUMBER
 JOBN.        AZ-XX-0906252240:  JOB TICKET NUMB
 MWDS.                     N/A:  MWD SHOP
 PROV.                    Baku:  PROVINCE
 STAT.                    Baku:  STATE NAME
 REGN.                   EESSA:  REGION
 BASE.              Azerbaijan:  LOGGING EQUIPMENT BASE LOCATION
 UWI .                     N/A:  UNIQUE WELL IDENTIFIER
 API .                     N/A:  API NUMBER
 MDS .        Operator Entered:  MAG DATA SOURCE
 WTYP.                Deviated:  WELL TYPE
 COMP.     BP Exploration (Caspian Sea) Ltd.:  COMPANY
 SRVC.          Turan Drilling:  CONTRACTOR
 WELL.           J23 (Slot 07):  WELL NAME
 CTRY.              Azerbaijan:  COUNTRY NAME
 FLD .                     ACG:  FIELD NAME
 PDAT.          Mean Sea Level:  PERMANENT DATUM
 RIG .             West Chirag:  RIG NAME
 SON .        AZ-XX-0906252240:  JOB NUMBER
 FTOP.          Formation Tops:  FORM TOPS DESC
 ILTD.               Lithology:  INTERP LTH DESC
 SVYD.                  Survey:  SURVEY DESC
 DMOD.             Drill Model:  DRILL MOD DESC
 HPTY.       Minimum Curvature:  HOLE POS TYPE
 NREF.                    Grid:  NORTH REFERENCE
 SPUD.               27-Aug-20:  SPUD DATE
 DATE.      00.00.00 19-May-20:  END TIME
 STIM.      03.00.00 25-Mar-20:  START TIME
 DMF .             Drill Floor:  DRILL MEAS FROM
 DFST.                        :  DIST FSL TEXT
 DFWT.                        :  DIST FWL TEXT
 CNTY.                        :  COUNTY
 LOC .                        :  LOCATION
 LMF .             Drill Floor:  LOG MEASURED FROM
 VSNS.m                   9.43:  VERT SEC N/S
 VSEW.m                  -8.91:  VERT SEC E/W
 AGAP.m                  43.00:  AIR GAP
 DEP .m                 354.17:  DEPTH
 APD .m                  43.00:  DEPTH ABOVE PD
 WDMS.m                 169.80:  WD ELEV
 EGL .m                   0.00:  GROUND ELEVATION
 EPD .m                   0.00:  ELEVATION
 AZTC.deg                 6.31:  AZM TOTAL CORR
 GRDC.deg                 0.14:  GRID CORRECTION
 MDEC.deg                 6.45:  MAGNETIC DECL
 MDIP.deg                59.56:  MAGNETIC DIP
 MFLD.nT              50295.00:  MAGNETIC FIELD
 GVFD.g                   1.00:  GRAVITY FIELD
 VSDR.deg               179.88:  VERT SEC DIRECT
 TDD .m                5150.01:  TOTAL DEPTH (DRILLER)
 SDEP.m                 864.00:  START DEPTH
 DFSL.m                   0.00:  DISTANCE FSL
 DFWL.m                   0.00:  DISTANCE FWL
 UTMY.m             4443793.85:  UTM Y
 UTMX.m              519005.06:  UTM X
 WHEW.m                  -8.91:  WELL HEAD E/W
 WHNS.m                   9.43:  WELL HEAD N/S
 LONG.deg                51.22:  LONGITUDE
 LATI.deg                40.13:  LATITUDE
 TVDS.m                  43.00:  TVDSS CORRECTN
 EKB .m                   0.00:  KB ELEVATION
 EDF .m                  43.00:  DF ELEVATION
 TDL .m                 363.00:  TOTAL DEPTH (LOGGER)
 MAGU.                 1850802:  MAGUTM CHECKSUM
 VSC .                       0:  VS TO CLOSURE
~Parameter Information Block
#MNEM.UNIT       Value        Description
#---------     -----------    ---------------------------
 AV  .mps                 2.30:  Ann Velocity 
 AVMX.mps                 4.40:  Max Ann Veloc 
 AZIF.deg               110.24:  Azm, Final 
 BHAT.        Rotary Steerable:  BHA Type 
 BREV.rev               331.00:  Rev Bit Total 
 BROT.°/30m               0.00:  Build Rotating 
 BS  .in                  8.50:  Bit Size 
 BSZ .in                  8.50:  Bit Size 
 BTPL.psig              585.00:  Bit Press Loss 
 CABU.                     Yes:  Customer Abuse 
 COMM.                     ô®q:  Run Comments 1 
 TCS .hr                122.75:  Time Ciculation Ended 
 CV  .mps                 2.67:  Crit Velocity 
 CVMX.mps                 3.56:  Max Crit Veloc 
 DD1 .          Rashad Habibov:  Direct Drillr 1 
 DD2 .         Rasim Ibrahimov:  Direct Drillr 2 
 DDSV.               Geo-Pilot:  DD Service 
 DEFF.%                  98.00:  % Det Eff 
 DLRX.°/30m               0.75:  Dogleg Rot Max 
 DLSO.°/30m               1.25:  Dogleg Oriented 
 DLSX.°/30m               2.06:  Dogleg Str Max 
 DRET.      07.45.00 17-May-20:  Drill End Time 
 DRST.      22.50.00 15-May-20:  Drill Start Tim 
 DTIM.hr                 20.75:  Time Drilling 
 EDEP.m                5124.01:  End Depth 
 ENG1.           Eldar Hajiyev:  Engineer 1 
 ENG2.        Marcelo Sandoval:  Engineer 2 
 ENG3.        Davud huseynzada:  Engineer 3 
 ENG4.          Ruslan Safarov:  Engineer 4 
 ETIM.      04.33.00 23-May-20:  End Time 
 FLOI.gpm               450.00:  Flow In 
 FLON.gpm               400.00:  Flow In Min 
 FLOS.cptm                0.00:  Fluid Loss 
 FLOX.gpm               500.00:  Flow In Max 
 FTRO.       Formation Presure:  FTWD Run Obj 
 HFLO.                      No:  High Flow 
 HPRE.                     Yes:  High Pressure 
 HTEM.                      No:  High Temp 
 HYDO.m                   1.80:  Hydro Offset 
 IFIN.deg                75.06:  Inc, Final 
 IMAX.deg                75.38:  Inc Max 
 IMIN.deg                74.69:  Inc Min 
 IMND.m                5027.38:  Inc Min Depth 
 IMXD.m                4771.61:  Inc Max Depth 
 JARR.                      No:  Jarring 
 LETM.      07.45.00 17-May-20:  Log End Time 
 LOST.hr                     0:  Lost Rig Time 
 LSTM.      22.50.00 15-May-20:  Log Start Time 
 MDCL.ppm             42000.00:  Mud Chlorides 
 MDES.     Inversion Oil/Synthetic:  Mud Desc 
 DFD .sg                  1.34:  Mud Density 
 MDMN.sg                  1.34:  Dens Mud Min 
 MDMX.sg                  1.34:  Dens Mud Max 
 MOIL.                       0:  Run Mud Oil % 
 MOWR.                   67:33:  Run Mud OWR 
 MSND.                       0:  Run Mud Sand % 
 MSOL.                     1.8:  Run Mud Solids% 
 DFV .spqt               76.00:  Mud Viscosity 
 MWOD.in                  6.75:  MWD Tool OD 
 MWSI.                      No:  Serv Intrp, MWD 
 OTIM.hr                228.19:  Time Operating 
 PCON.           Look Like New:  Pad Condition 
 PMAX.psia             6164.70:  Press Op, Max 
 PV  .cP                 28.00:  Mud PV 
 RUN .                     900:  Run Number 
 ROPA.m/hr               19.00:  ROP Avg 
 ROPN.m/hr               11.00:  ROP Min 
 ROPX.m/hr               36.00:  ROP Max 
 RPMA.rpm               120.00:  RPM Surface Avg 
 RPMN.rpm               120.00:  RPM Surface Min 
 RPMX.rpm               120.00:  RPM Surface Max 
 RRUN.                    L604:  Rig Run Number 
 RTIM.hr                  7.00:  Time Reaming 
 SAZI.deg               109.27:  Azm, Start 
 SDEP.m                4761.01:  Start Depth 
 SIDD.                      No:  Serv Intrp, DD 
 SINC.deg                75.38:  Inc, Start 
 SPPA.psig             3574.00:  SPP Avg 
 SPPN.psig             3475.00:  SPP Min 
 SPPX.psig             3791.00:  SPP Max 
 STIM.      07.08.48 13-May-20:  Start Time 
 SVCS.                 DD, MWD:  Services 
 SVER.                    9.20:  Sperry Version 
 TDAT.m                 363.00:  Tot Depth Attmp 
 TDDF.                      No:  Trip for DD 
 TDLG.m                 363.00:  Tot Depth Loggd 
 TFF .                      No:  Trip for Fail 
 TQAA.f-kp               20.00:  Torque Abs Avg 
 TQAN.f-kp               18.00:  Torque Abs Min 
 TQAX.f-kp               22.00:  Torque Abs Max 
 TRRT.°/30m              -0.35:  Turn Rotating 
 MRT .                    HCIM:  Maximum Recorded Temperature 
 TTMX.degC               92.16:  Max Tool Temp 
 VS01.                90586518:  Virtual Str1 SN 
 VS02.        AZ90560654Z1W1C6:  Virtual Str2 SN 
 VS03.           AZ90610398F11:  Virtual Str3 SN 
 VS04.                90514975:  Virtual Str4 SN 
 VS05.                90514972:  Virtual Str5 SN 
 VS06.     AZ90603282F11V7D1A6:  Virtual Str6 SN 
 WBMN.klb                 7.00:  WOB Min 
 WOBA.klb                12.00:  WOB Avg 
 WOBX.klb                14.00:  WOB Max 
 YP  .lhf2               32.00:  Yield Point 
~Curve Information Block
#MNEM.UNIT                 API CODE     Curve Description
#---------               -----------    ---------------------------
 TIME.HHMMSS            00 000 000 000:  GT Time & Date
 GTDEPTH.m              00 000 000 000:  GT Depth
 GTPQH.psia             00 000 000 000:  GT HR Quartz Pressure
 GTTQ.degC              00 000 000 000:  GT Quartz Temperature
 GTTN.NONE              00 000 000 000:  GT Test Number
 GTET.sec               00 000 000 000:  GT Elapsed Test Time
 GTTVD.m                00 000 000 000:  GT True Vertical Depth
#Other Information
#
#WARRANTY: Halliburton will use its best efforts to furnish customers with 
#accurate information and interpretations that are part of, and incident to, the services 
#provided.  However, Halliburton cannot and does not warrant the accuracy 
#or correctness of such information and interpretations.  Under no circumstances should any 
#such information or interpretation be relied upon as the sole basis for any drilling, 
#completion, production, or financial decision or any procedure involving any risk to the 
#safety of any drilling venture, drilling rig or its crew or any other third party.  The 
#Customer has full responsibility for all drilling, completion and production operation.  
#Halliburton makes no representations or warranties, either expressed or 
#implied, including, but not limited to, the implied warranties of merchantability or fitness 
#for a particular purpose, with respect to the services rendered.  In no event will 
#Halliburton be liable for failure to obtain any particular results or for 
#any damages, including, but not limited to, indirect, special or consequential damages, 
#resulting from the use of any information or interpretation provided by Halliburton.
#
~A           TIME           GTDEPTH  GTPQH  GTTQ  GTTN   GTET   GTTVD  
# ...
   00:27:54.794.18-May-2020 4886.01 3643.62 66.41 10.00 203.48 2563.39
   00:27:54.994.18-May-2020 4886.01 3643.77 66.41 10.00 203.68 2563.39
   00:27:55.194.18-May-2020 4886.01 3643.61 66.41 10.00 203.88 2563.39
   00:27:55.394.18-May-2020 4886.01 3643.80 66.41 10.00 204.08 2563.39
   00:27:55.595.18-May-2020 4886.01 3643.80 66.41 10.00 204.28 2563.39
   00:27:55.795.18-May-2020 4886.01 3643.70 66.41 10.00 204.48 2563.39
   00:27:55.995.18-May-2020 4886.01 3643.58 66.41 10.00 204.68 2563.39
   00:27:56.195.18-May-2020 4886.01 3643.66 66.41 10.00 204.88 2563.39
   00:27:56.395.18-May-2020 4886.01 3643.63 66.41 10.00 205.08 2563.39
   00:27:56.595.18-May-2020 4886.01 3643.63 66.41 10.00 205.28 2563.39
   00:27:56.795.18-May-2020 4886.01 3643.62 66.41 10.00 205.48 2563.39
   00:27:56.995.18-May-2020 4886.01 3643.79 66.41 10.00 205.68 2563.39
   00:27:57.195.18-May-2020 4886.01 3643.59 66.41 10.00 205.88 2563.39
   00:27:57.395.18-May-2020 4886.01 3643.79 66.41 10.00 206.08 2563.39
   00:27:57.595.18-May-2020 4886.01 3643.79 66.41 10.00 206.28 2563.39
   00:27:57.795.18-May-2020 4886.01 3643.77 66.41 10.00 206.48 2563.39
   00:27:57.996.18-May-2020 4886.01 3643.61 66.41 10.00 206.68 2563.39
   00:27:58.196.18-May-2020 4886.01 3643.84 66.41 10.00 206.88 2563.39
   00:27:58.396.18-May-2020 4886.01 3643.60 66.41 10.00 207.08 2563.39
   00:27:58.596.18-May-2020 4886.01 3643.93 66.41 10.00 207.28 2563.39
   00:27:58.796.18-May-2020 4886.01 3643.44 66.41 10.00 207.48 2563.39
   00:27:58.996.18-May-2020 4886.01 3643.78 66.41 10.00 207.68 2563.39
   00:27:59.196.18-May-2020 4886.01 3643.65 66.41 10.00 207.88 2563.39
   00:27:59.396.18-May-2020 4886.01 3643.73 66.41 10.00 208.08 2563.39
   00:27:59.596.18-May-2020 4886.01 3643.84 66.41 10.00 208.28 2563.39
   00:27:59.796.18-May-2020 4886.01 3643.53 66.41 10.00 208.48 2563.39
   00:27:59.996.18-May-2020 4886.01 3643.75 66.41 10.00 208.68 2563.39
   00:28:00.196.18-May-2020 4886.01 3643.68 66.41 10.00 208.88 2563.39
   00:28:00.396.18-May-2020 4886.01 3643.71 66.41 10.00 209.08 2563.39
   00:28:00.597.18-May-2020 4886.01 3643.71 66.41 10.00 209.28 2563.39
   00:28:00.797.18-May-2020 4886.01 3643.69 66.41 10.00 209.48 2563.39
   00:28:00.997.18-May-2020 4886.01 3643.65 66.41 10.00 209.68 2563.39
   00:28:01.197.18-May-2020 4886.01 3643.66 66.41 10.00 209.88 2563.39
   00:28:01.397.18-May-2020 4886.01 3643.65 66.41 10.00 210.08 2563.39
   00:28:01.597.18-May-2020 4886.01 3643.65 66.41 10.00 210.28 2563.39
   00:28:01.797.18-May-2020 4886.01 3643.84 66.41 10.00 210.48 2563.39
   00:28:01.997.18-May-2020 4886.01 3643.86 66.41 10.00 210.68 2563.39
   00:28:02.197.18-May-2020 4886.01 3643.73 66.41 10.00 210.89 2563.39
   00:28:02.397.18-May-2020 4886.01 3643.55 66.41 10.00 211.09 2563.39
   00:28:02.597.18-May-2020 4886.01 3643.55 66.41 10.00 211.29 2563.39
   00:28:02.797.18-May-2020 4886.01 3643.63 66.41 10.00 211.49 2563.39
   00:28:02.998.18-May-2020 4886.01 3643.65 66.41 10.00 211.69 2563.39
   00:28:03.198.18-May-2020 4886.01 3643.66 66.41 10.00 211.89 2563.39
   00:28:03.398.18-May-2020 4886.01 3643.66 66.41 10.00 212.09 2563.39
   00:28:03.598.18-May-2020 4886.01 3643.66 66.41 10.00 212.29 2563.39
   00:28:03.798.18-May-2020 4886.01 3643.94 66.41 10.00 212.49 2563.39
   00:28:03.998.18-May-2020 4886.01 3643.45 66.41 10.00 212.69 2563.39
   00:28:04.198.18-May-2020 4886.01 3643.76 66.41 10.00 212.89 2563.39
   00:28:04.398.18-May-2020 4886.01 3643.68 66.41 10.00 213.09 2563.39
   00:28:04.598.18-May-2020 4886.01 3643.68 66.41 10.00 213.29 2563.39
   00:28:04.798.18-May-2020 4886.01 3643.43 66.41 10.00 213.49 2563.39
   00:28:04.998.18-May-2020 4886.01 3643.82 66.41 10.00 213.69 2563.39
   00:28:05.198.18-May-2020 4886.01 3643.62 66.41 10.00 213.89 2563.39
   00:28:05.399.18-May-2020 4886.01 3644.02 66.41 10.00 214.09 2563.39
   00:28:05.599.18-May-2020 4886.01 3644.02 66.41 10.00 214.29 2563.39
   00:28:05.799.18-May-2020 4886.01 3643.88 66.41 10.00 214.49 2563.39
   00:28:05.999.18-May-2020 4886.01 3643.61 66.41 10.00 214.69 2563.39
   00:28:06.199.18-May-2020 4886.01 3643.59 66.41 10.00 214.89 2563.39
   00:28:06.399.18-May-2020 4886.01 3643.67 66.41 10.00 215.09 2563.39
   00:28:06.599.18-May-2020 4886.01 3643.90 66.41 10.00 215.29 2563.39
   00:28:06.799.18-May-2020 4886.01 3643.76 66.41 10.00 215.49 2563.39
   00:28:06.999.18-May-2020 4886.01 3643.58 66.41 10.00 215.69 2563.39
   00:28:07.199.18-May-2020 4886.01 3643.69 66.41 10.00 215.89 2563.39
   00:28:07.399.18-May-2020 4886.01 3643.62 66.41 10.00 216.09 2563.39
   00:28:07.599.18-May-2020 4886.01 3643.62 66.41 10.00 216.29 2563.39
   00:28:07.799.18-May-2020 4886.01 3643.65 66.41 10.00 216.49 2563.39
   00:28:08.000.18-May-2020 4886.01 3643.68 66.41 10.00 216.69 2563.39
   00:28:08.200.18-May-2020 4886.01 3643.62 66.41 10.00 216.89 2563.39
   00:28:08.400.18-May-2020 4886.01 3643.79 66.41 10.00 217.09 2563.39
   00:28:08.600.18-May-2020 4886.01 3643.79 66.41 10.00 217.29 2563.39
   00:28:08.800.18-May-2020 4886.01 3643.79 66.41 10.00 217.49 2563.39
   00:28:09.000.18-May-2020 4886.01 3643.64 66.41 10.00 217.69 2563.39
   00:28:09.200.18-May-2020 4886.01 3643.68 66.41 10.00 217.89 2563.39
   00:28:09.400.18-May-2020 4886.01 3643.61 66.41 10.00 218.09 2563.39
   00:28:09.600.18-May-2020 4886.01 3643.61 66.41 10.00 218.29 2563.39
   00:28:09.800.18-May-2020 4886.01 3643.65 66.41 10.00 218.49 2563.39
   00:28:10.000.18-May-2020 4886.01 3643.66 66.41 10.00 218.69 2563.39
   00:28:10.200.18-May-2020 4886.01 3643.66 66.41 10.00 218.89 2563.39
   00:28:10.401.18-May-2020 4886.01 3643.65 66.41 10.00 219.09 2563.39
   00:28:10.601.18-May-2020 4886.01 3643.88 66.41 10.00 219.29 2563.39
   00:28:10.801.18-May-2020 4886.01 3643.56 66.41 10.00 219.49 2563.39
   00:28:11.001.18-May-2020 4886.01 3643.83 66.41 10.00 219.69 2563.39
   00:28:11.201.18-May-2020 4886.01 3643.61 66.41 10.00 219.89 2563.39
   00:28:11.401.18-May-2020 4886.01 3644.01 66.41 10.00 220.09 2563.39
   00:28:11.601.18-May-2020 4886.01 3643.40 66.41 10.00 220.29 2563.39
   00:28:11.801.18-May-2020 4886.01 3643.83 66.41 10.00 220.49 2563.39
   00:28:12.001.18-May-2020 4886.01 3643.45 66.41 10.00 220.69 2563.39
   00:28:12.201.18-May-2020 4886.01 3643.93 66.41 10.00 220.89 2563.39
   00:28:12.401.18-May-2020 4886.01 3643.74 66.41 10.00 221.09 2563.39
   00:28:12.601.18-May-2020 4886.01 3643.74 66.41 10.00 221.29 2563.39
   00:28:12.801.18-May-2020 4886.01 3643.55 66.41 10.00 221.49 2563.39
   00:28:13.002.18-May-2020 4886.01 3643.65 66.41 10.00 221.69 2563.39
   00:28:13.202.18-May-2020 4886.01 3643.75 66.41 10.00 221.89 2563.39
   00:28:13.402.18-May-2020 4886.01 3643.84 66.41 10.00 222.09 2563.39
   00:28:13.602.18-May-2020 4886.01 3643.84 66.41 10.00 222.29 2563.39
   00:28:13.802.18-May-2020 4886.01 3643.66 66.41 10.00 222.49 2563.39
   00:28:14.002.18-May-2020 4886.01 3643.62 66.41 10.00 222.69 2563.39
   00:28:14.202.18-May-2020 4886.01 3643.69 66.41 10.00 222.89 2563.39
   00:28:14.402.18-May-2020 4886.01 3643.65 66.41 10.00 223.09 2563.39
   00:28:14.602.18-May-2020 4886.01 3643.65 66.41 10.00 223.29 2563.39
   00:28:14.802.18-May-2020 4886.01 3643.67 66.41 10.00 223.49 2563.39
   00:28:15.002.18-May-2020 4886.01 3643.63 66.41 10.00 223.69 2563.39
   00:28:15.202.18-May-2020 4886.01 3643.90 66.41 10.00 223.89 2563.39
   00:28:15.403.18-May-2020 4886.01 3643.50 66.41 10.00 224.09 2563.39
   00:28:15.603.18-May-2020 4886.01 3643.76 66.41 10.00 224.29 2563.39
   00:28:15.803.18-May-2020 4886.01 3643.67 66.41 10.00 224.49 2563.39
   00:28:16.003.18-May-2020 4886.01 3643.72 66.41 10.00 224.69 2563.39
   00:28:16.203.18-May-2020 4886.01 3643.58 66.41 10.00 224.89 2563.39
   00:28:16.403.18-May-2020 4886.01 3643.71 66.41 10.00 225.09 2563.39
   00:28:16.603.18-May-2020 4886.01 3643.71 66.41 10.00 225.29 2563.39
   00:28:16.803.18-May-2020 4886.01 3643.66 66.41 10.00 225.49 2563.39
   00:28:17.003.18-May-2020 4886.01 3643.65 66.41 10.00 225.69 2563.39
   00:28:17.203.18-May-2020 4886.01 3643.46 66.41 10.00 225.89 2563.39
