~Version Information
 VERS.                  2.0:   CWLS log ASCII Standard -VERSION 2.0
 WRAP.                   NO:   One line per depth step
~Well Information Block
#MNEM.UNIT     VALUE/NAME     DESCRIPTION
#---------     -----------    ---------------------------
 STRT.S             02:13:59 18-May-20: START TIME 02:13:59 18-May-20
 STOP.S             02:21:38 18-May-20: STOP TIME  02:21:38 18-May-20
 STEP.S                   0.00: STEP TIME
 NULL.                 -999.25: NULL VALUE
 UNIT.                     N/A:  LOGGING EQUIPMENT ID
 DCON.         Sperry Drilling:  DIRECTNL CONTR
 DOE .                     N/A:  DOE NUMBER
 JOBN.        AZ-XX-0906252240:  JOB TICKET NUMB
 MWDS.                     N/A:  MWD SHOP
 PROV.                    Baku:  PROVINCE
 STAT.                    Baku:  STATE NAME
 REGN.                   EESSA:  REGION
 BASE.              Azerbaijan:  LOGGING EQUIPMENT BASE LOCATION
 UWI .                     N/A:  UNIQUE WELL IDENTIFIER
 API .                     N/A:  API NUMBER
 MDS .        Operator Entered:  MAG DATA SOURCE
 WTYP.                Deviated:  WELL TYPE
 COMP.     BP Exploration (Caspian Sea) Ltd.:  COMPANY
 SRVC.          Turan Drilling:  CONTRACTOR
 WELL.           J23 (Slot 07):  WELL NAME
 CTRY.              Azerbaijan:  COUNTRY NAME
 FLD .                     ACG:  FIELD NAME
 PDAT.          Mean Sea Level:  PERMANENT DATUM
 RIG .             West Chirag:  RIG NAME
 SON .        AZ-XX-0906252240:  JOB NUMBER
 FTOP.          Formation Tops:  FORM TOPS DESC
 ILTD.               Lithology:  INTERP LTH DESC
 SVYD.                  Survey:  SURVEY DESC
 DMOD.             Drill Model:  DRILL MOD DESC
 HPTY.       Minimum Curvature:  HOLE POS TYPE
 NREF.                    Grid:  NORTH REFERENCE
 SPUD.               27-Aug-20:  SPUD DATE
 DATE.      00.00.00 19-May-20:  END TIME
 STIM.      03.00.00 25-Mar-20:  START TIME
 DMF .             Drill Floor:  DRILL MEAS FROM
 DFST.                        :  DIST FSL TEXT
 DFWT.                        :  DIST FWL TEXT
 CNTY.                        :  COUNTY
 LOC .                        :  LOCATION
 LMF .             Drill Floor:  LOG MEASURED FROM
 VSNS.m                   9.43:  VERT SEC N/S
 VSEW.m                  -8.91:  VERT SEC E/W
 AGAP.m                  43.00:  AIR GAP
 DEP .m                 354.17:  DEPTH
 APD .m                  43.00:  DEPTH ABOVE PD
 WDMS.m                 169.80:  WD ELEV
 EGL .m                   0.00:  GROUND ELEVATION
 EPD .m                   0.00:  ELEVATION
 AZTC.deg                 6.31:  AZM TOTAL CORR
 GRDC.deg                 0.14:  GRID CORRECTION
 MDEC.deg                 6.45:  MAGNETIC DECL
 MDIP.deg                59.56:  MAGNETIC DIP
 MFLD.nT              50295.00:  MAGNETIC FIELD
 GVFD.g                   1.00:  GRAVITY FIELD
 VSDR.deg               179.88:  VERT SEC DIRECT
 TDD .m                5150.01:  TOTAL DEPTH (DRILLER)
 SDEP.m                 864.00:  START DEPTH
 DFSL.m                   0.00:  DISTANCE FSL
 DFWL.m                   0.00:  DISTANCE FWL
 UTMY.m             4443793.85:  UTM Y
 UTMX.m              519005.06:  UTM X
 WHEW.m                  -8.91:  WELL HEAD E/W
 WHNS.m                   9.43:  WELL HEAD N/S
 LONG.deg                51.22:  LONGITUDE
 LATI.deg                40.13:  LATITUDE
 TVDS.m                  43.00:  TVDSS CORRECTN
 EKB .m                   0.00:  KB ELEVATION
 EDF .m                  43.00:  DF ELEVATION
 TDL .m                 363.00:  TOTAL DEPTH (LOGGER)
 MAGU.                 1850802:  MAGUTM CHECKSUM
 VSC .                       0:  VS TO CLOSURE
~Parameter Information Block
#MNEM.UNIT       Value        Description
#---------     -----------    ---------------------------
 AV  .mps                 2.30:  Ann Velocity 
 AVMX.mps                 4.40:  Max Ann Veloc 
 AZIF.deg               110.24:  Azm, Final 
 BHAT.        Rotary Steerable:  BHA Type 
 BREV.rev               331.00:  Rev Bit Total 
 BROT.°/30m               0.00:  Build Rotating 
 BS  .in                  8.50:  Bit Size 
 BSZ .in                  8.50:  Bit Size 
 BTPL.psig              585.00:  Bit Press Loss 
 CABU.                     Yes:  Customer Abuse 
 COMM.                     ü9U:  Run Comments 1 
 TCS .hr                122.75:  Time Ciculation Ended 
 CV  .mps                 2.67:  Crit Velocity 
 CVMX.mps                 3.56:  Max Crit Veloc 
 DD1 .          Rashad Habibov:  Direct Drillr 1 
 DD2 .         Rasim Ibrahimov:  Direct Drillr 2 
 DDSV.               Geo-Pilot:  DD Service 
 DEFF.%                  98.00:  % Det Eff 
 DLRX.°/30m               0.75:  Dogleg Rot Max 
 DLSO.°/30m               1.25:  Dogleg Oriented 
 DLSX.°/30m               2.06:  Dogleg Str Max 
 DRET.      07.45.00 17-May-20:  Drill End Time 
 DRST.      22.50.00 15-May-20:  Drill Start Tim 
 DTIM.hr                 20.75:  Time Drilling 
 EDEP.m                5124.01:  End Depth 
 ENG1.           Eldar Hajiyev:  Engineer 1 
 ENG2.        Marcelo Sandoval:  Engineer 2 
 ENG3.        Davud huseynzada:  Engineer 3 
 ENG4.          Ruslan Safarov:  Engineer 4 
 ETIM.      04.33.00 23-May-20:  End Time 
 FLOI.gpm               450.00:  Flow In 
 FLON.gpm               400.00:  Flow In Min 
 FLOS.cptm                0.00:  Fluid Loss 
 FLOX.gpm               500.00:  Flow In Max 
 FTRO.       Formation Presure:  FTWD Run Obj 
 HFLO.                      No:  High Flow 
 HPRE.                     Yes:  High Pressure 
 HTEM.                      No:  High Temp 
 HYDO.m                   1.80:  Hydro Offset 
 IFIN.deg                75.06:  Inc, Final 
 IMAX.deg                75.38:  Inc Max 
 IMIN.deg                74.69:  Inc Min 
 IMND.m                5027.38:  Inc Min Depth 
 IMXD.m                4771.61:  Inc Max Depth 
 JARR.                      No:  Jarring 
 LETM.      07.45.00 17-May-20:  Log End Time 
 LOST.hr                     0:  Lost Rig Time 
 LSTM.      22.50.00 15-May-20:  Log Start Time 
 MDCL.ppm             42000.00:  Mud Chlorides 
 MDES.     Inversion Oil/Synthetic:  Mud Desc 
 DFD .sg                  1.34:  Mud Density 
 MDMN.sg                  1.34:  Dens Mud Min 
 MDMX.sg                  1.34:  Dens Mud Max 
 MOIL.                       0:  Run Mud Oil % 
 MOWR.                   67:33:  Run Mud OWR 
 MSND.                       0:  Run Mud Sand % 
 MSOL.                     1.8:  Run Mud Solids% 
 DFV .spqt               76.00:  Mud Viscosity 
 MWOD.in                  6.75:  MWD Tool OD 
 MWSI.                      No:  Serv Intrp, MWD 
 OTIM.hr                228.19:  Time Operating 
 PCON.           Look Like New:  Pad Condition 
 PMAX.psia             6164.70:  Press Op, Max 
 PV  .cP                 28.00:  Mud PV 
 RUN .                     900:  Run Number 
 ROPA.m/hr               19.00:  ROP Avg 
 ROPN.m/hr               11.00:  ROP Min 
 ROPX.m/hr               36.00:  ROP Max 
 RPMA.rpm               120.00:  RPM Surface Avg 
 RPMN.rpm               120.00:  RPM Surface Min 
 RPMX.rpm               120.00:  RPM Surface Max 
 RRUN.                    L604:  Rig Run Number 
 RTIM.hr                  7.00:  Time Reaming 
 SAZI.deg               109.27:  Azm, Start 
 SDEP.m                4761.01:  Start Depth 
 SIDD.                      No:  Serv Intrp, DD 
 SINC.deg                75.38:  Inc, Start 
 SPPA.psig             3574.00:  SPP Avg 
 SPPN.psig             3475.00:  SPP Min 
 SPPX.psig             3791.00:  SPP Max 
 STIM.      07.08.48 13-May-20:  Start Time 
 SVCS.                 DD, MWD:  Services 
 SVER.                    9.20:  Sperry Version 
 TDAT.m                 363.00:  Tot Depth Attmp 
 TDDF.                      No:  Trip for DD 
 TDLG.m                 363.00:  Tot Depth Loggd 
 TFF .                      No:  Trip for Fail 
 TQAA.f-kp               20.00:  Torque Abs Avg 
 TQAN.f-kp               18.00:  Torque Abs Min 
 TQAX.f-kp               22.00:  Torque Abs Max 
 TRRT.°/30m              -0.35:  Turn Rotating 
 MRT .                    HCIM:  Maximum Recorded Temperature 
 TTMX.degC               92.16:  Max Tool Temp 
 VS01.                90586518:  Virtual Str1 SN 
 VS02.        AZ90560654Z1W1C6:  Virtual Str2 SN 
 VS03.           AZ90610398F11:  Virtual Str3 SN 
 VS04.                90514975:  Virtual Str4 SN 
 VS05.                90514972:  Virtual Str5 SN 
 VS06.     AZ90603282F11V7D1A6:  Virtual Str6 SN 
 WBMN.klb                 7.00:  WOB Min 
 WOBA.klb                12.00:  WOB Avg 
 WOBX.klb                14.00:  WOB Max 
 YP  .lhf2               32.00:  Yield Point 
~Curve Information Block
#MNEM.UNIT                 API CODE     Curve Description
#---------               -----------    ---------------------------
 TIME.HHMMSS            00 000 000 000:  GT Time & Date
 GTDEPTH.m              00 000 000 000:  GT Depth
 GTPQH.psia             00 000 000 000:  GT HR Quartz Pressure
 GTTQ.degC              00 000 000 000:  GT Quartz Temperature
 GTTN.NONE              00 000 000 000:  GT Test Number
 GTET.sec               00 000 000 000:  GT Elapsed Test Time
 GTTVD.m                00 000 000 000:  GT True Vertical Depth
#Other Information
#
#WARRANTY: Halliburton will use its best efforts to furnish customers with 
#accurate information and interpretations that are part of, and incident to, the services 
#provided.  However, Halliburton cannot and does not warrant the accuracy 
#or correctness of such information and interpretations.  Under no circumstances should any 
#such information or interpretation be relied upon as the sole basis for any drilling, 
#completion, production, or financial decision or any procedure involving any risk to the 
#safety of any drilling venture, drilling rig or its crew or any other third party.  The 
#Customer has full responsibility for all drilling, completion and production operation.  
#Halliburton makes no representations or warranties, either expressed or 
#implied, including, but not limited to, the implied warranties of merchantability or fitness 
#for a particular purpose, with respect to the services rendered.  In no event will 
#Halliburton be liable for failure to obtain any particular results or for 
#any damages, including, but not limited to, indirect, special or consequential damages, 
#resulting from the use of any information or interpretation provided by Halliburton.
#
~A           TIME           GTDEPTH  GTPQH  GTTQ  GTTN   GTET   GTTVD  
# ...
   02:20:46.925.18-May-2020 4832.01 5474.67 65.98 12.00 406.96 2549.35
   02:20:47.125.18-May-2020 4832.01 5484.36 65.98 12.00 407.16 2549.35
   02:20:47.325.18-May-2020 4832.01 5484.36 65.98 12.00 407.36 2549.35
   02:20:47.526.18-May-2020 4832.01 5476.14 65.98 12.00 407.56 2549.35
   02:20:47.726.18-May-2020 4832.01 5474.20 65.98 12.00 407.76 2549.35
   02:20:47.926.18-May-2020 4832.01 5487.20 65.98 12.00 407.96 2549.35
   02:20:48.126.18-May-2020 4832.01 5480.34 65.98 12.00 408.16 2549.35
   02:20:48.326.18-May-2020 4832.01 5480.34 65.98 12.00 408.36 2549.35
   02:20:48.526.18-May-2020 4832.01 5478.25 65.98 12.00 408.56 2549.35
   02:20:48.726.18-May-2020 4832.01 5475.78 65.98 12.00 408.76 2549.35
   02:20:48.926.18-May-2020 4832.01 5474.81 65.98 12.00 408.96 2549.35
   02:20:49.126.18-May-2020 4832.01 5473.73 65.98 12.00 409.17 2549.35
   02:20:49.326.18-May-2020 4832.01 5473.73 65.98 12.00 409.37 2549.35
   02:20:49.526.18-May-2020 4832.01 5472.54 65.98 12.00 409.57 2549.35
   02:20:49.726.18-May-2020 4832.01 5472.40 65.98 12.00 409.77 2549.35
   02:20:49.927.18-May-2020 4832.01 5484.77 65.98 12.00 409.97 2549.35
   02:20:50.127.18-May-2020 4832.01 5473.61 65.98 12.00 410.17 2549.35
   02:20:50.327.18-May-2020 4832.01 5473.61 65.98 12.00 410.37 2549.35
   02:20:50.527.18-May-2020 4832.01 5474.52 65.98 12.00 410.57 2549.35
   02:20:50.727.18-May-2020 4832.01 5474.39 65.98 12.00 410.77 2549.35
   02:20:50.927.18-May-2020 4832.01 5471.88 65.98 12.00 410.97 2549.35
   02:20:51.127.18-May-2020 4832.01 5471.44 65.98 12.00 411.17 2549.35
   02:20:51.327.18-May-2020 4832.01 5471.44 65.98 12.00 411.37 2549.35
   02:20:51.527.18-May-2020 4832.01 5470.98 65.98 12.00 411.57 2549.35
   02:20:51.727.18-May-2020 4832.01 5470.73 65.98 12.00 411.77 2549.35
   02:20:51.927.18-May-2020 4832.01 5470.45 65.98 12.00 411.97 2549.35
   02:20:52.127.18-May-2020 4832.01 5483.81 65.98 12.00 412.17 2549.35
   02:20:52.327.18-May-2020 4832.01 5483.81 65.98 12.00 412.37 2549.35
   02:20:52.528.18-May-2020 4832.01 5469.78 65.98 12.00 412.57 2549.35
   02:20:52.728.18-May-2020 4832.01 5474.54 65.98 12.00 412.77 2549.35
   02:20:52.928.18-May-2020 4832.01 5482.89 65.98 12.00 412.97 2549.35
   02:20:53.128.18-May-2020 4832.01 5476.58 65.98 12.00 413.17 2549.35
   02:20:53.328.18-May-2020 4832.01 5476.58 65.98 12.00 413.37 2549.35
   02:20:53.528.18-May-2020 4832.01 5477.10 65.98 12.00 413.57 2549.35
   02:20:53.728.18-May-2020 4832.01 5474.03 65.98 12.00 413.77 2549.35
   02:20:53.928.18-May-2020 4832.01 5485.77 65.98 12.00 413.97 2549.35
   02:20:54.128.18-May-2020 4832.01 5475.56 65.98 12.00 414.17 2549.35
   02:20:54.328.18-May-2020 4832.01 5469.62 65.98 12.00 414.37 2549.35
   02:20:54.528.18-May-2020 4832.01 5491.60 65.98 12.00 414.57 2549.35
   02:20:54.728.18-May-2020 4832.01 5476.51 65.98 12.00 414.77 2549.35
   02:20:54.929.18-May-2020 4832.01 5471.14 65.98 12.00 414.97 2549.35
   02:20:55.129.18-May-2020 4832.01 5476.08 65.98 12.00 415.17 2549.35
   02:20:55.329.18-May-2020 4832.01 5476.08 65.98 12.00 415.37 2549.35
   02:20:55.529.18-May-2020 4832.01 5474.27 65.98 12.00 415.57 2549.35
   02:20:55.729.18-May-2020 4832.01 5473.65 65.98 12.00 415.77 2549.35
   02:20:55.929.18-May-2020 4832.01 5472.53 65.97 12.00 415.97 2549.35
   02:20:56.129.18-May-2020 4832.01 5472.47 65.97 12.00 416.17 2549.35
   02:20:56.329.18-May-2020 4832.01 5472.47 65.97 12.00 416.37 2549.35
   02:20:56.529.18-May-2020 4832.01 5483.78 65.97 12.00 416.57 2549.35
   02:20:56.729.18-May-2020 4832.01 5471.30 65.97 12.00 416.77 2549.35
   02:20:56.929.18-May-2020 4832.01 5471.31 65.97 12.00 416.97 2549.35
   02:20:57.129.18-May-2020 4832.01 5472.79 65.97 12.00 417.17 2549.35
   02:20:57.329.18-May-2020 4832.01 5475.49 65.97 12.00 417.37 2549.35
   02:20:57.530.18-May-2020 4832.01 5472.50 65.97 12.00 417.57 2549.35
   02:20:57.730.18-May-2020 4832.01 5471.32 65.97 12.00 417.77 2549.35
   02:20:57.930.18-May-2020 4832.01 5471.18 65.97 12.00 417.97 2549.35
   02:20:58.130.18-May-2020 4832.01 5470.60 65.97 12.00 418.17 2549.35
   02:20:58.330.18-May-2020 4832.01 5470.60 65.97 12.00 418.37 2549.35
   02:20:58.530.18-May-2020 4832.01 5469.88 65.97 12.00 418.57 2549.35
   02:20:58.730.18-May-2020 4832.01 5476.02 65.97 12.00 418.77 2549.35
   02:20:58.930.18-May-2020 4832.01 5474.48 65.97 12.00 418.97 2549.35
   02:20:59.130.18-May-2020 4832.01 5473.20 65.97 12.00 419.17 2549.35
   02:20:59.330.18-May-2020 4832.01 5473.20 65.97 12.00 419.37 2549.35
   02:20:59.530.18-May-2020 4832.01 5489.49 65.97 12.00 419.57 2549.35
   02:20:59.730.18-May-2020 4832.01 5475.07 65.97 12.00 419.77 2549.35
   02:20:59.931.18-May-2020 4832.01 5470.40 65.97 12.00 419.97 2549.35
   02:21:00.131.18-May-2020 4832.01 5475.79 65.97 12.00 420.17 2549.35
   02:21:00.331.18-May-2020 4832.01 5475.79 65.97 12.00 420.37 2549.35
   02:21:00.531.18-May-2020 4832.01 5486.84 65.97 12.00 420.57 2549.35
   02:21:00.731.18-May-2020 4832.01 5472.63 65.97 12.00 420.77 2549.35
   02:21:00.931.18-May-2020 4832.01 5471.68 65.97 12.00 420.97 2549.35
   02:21:01.131.18-May-2020 4832.01 5485.88 65.97 12.00 421.17 2549.35
   02:21:01.331.18-May-2020 4832.01 5478.19 65.97 12.00 421.37 2549.35
   02:21:01.531.18-May-2020 4832.01 5475.03 65.97 12.00 421.57 2549.35
   02:21:01.731.18-May-2020 4832.01 5475.13 65.97 12.00 421.77 2549.35
   02:21:01.931.18-May-2020 4832.01 5478.52 65.97 12.00 421.97 2549.35
   02:21:02.131.18-May-2020 4832.01 5474.96 65.97 12.00 422.17 2549.35
   02:21:02.332.18-May-2020 4832.01 5474.96 65.97 12.00 422.37 2549.35
   02:21:02.532.18-May-2020 4832.01 5472.93 65.97 12.00 422.57 2549.35
   02:21:02.732.18-May-2020 4832.01 5472.30 65.97 12.00 422.77 2549.35
   02:21:02.932.18-May-2020 4832.01 5472.14 65.97 12.00 422.97 2549.35
   02:21:03.132.18-May-2020 4832.01 5475.68 65.97 12.00 423.17 2549.35
   02:21:03.332.18-May-2020 4832.01 5475.68 65.97 12.00 423.37 2549.35
   02:21:03.532.18-May-2020 4832.01 5474.92 65.97 12.00 423.57 2549.35
   02:21:03.732.18-May-2020 4832.01 5471.65 65.97 12.00 423.77 2549.35
   02:21:03.932.18-May-2020 4832.01 5475.97 65.97 12.00 423.97 2549.35
   02:21:04.132.18-May-2020 4832.01 5473.05 65.97 12.00 424.17 2549.35
   02:21:04.332.18-May-2020 4832.01 5473.05 65.97 12.00 424.37 2549.35
   02:21:04.532.18-May-2020 4832.01 5471.54 65.97 12.00 424.57 2549.35
   02:21:04.732.18-May-2020 4832.01 5470.63 65.97 12.00 424.77 2549.35
   02:21:04.933.18-May-2020 4832.01 5470.93 65.97 12.00 424.97 2549.35
   02:21:05.133.18-May-2020 4832.01 5470.57 65.97 12.00 425.17 2549.35
   02:21:05.333.18-May-2020 4832.01 5470.57 65.97 12.00 425.37 2549.35
   02:21:05.533.18-May-2020 4832.01 5481.20 65.97 12.00 425.57 2549.35
   02:21:05.733.18-May-2020 4832.01 5474.60 65.97 12.00 425.77 2549.35
   02:21:05.933.18-May-2020 4832.01 5469.77 65.97 12.00 425.97 2549.35
   02:21:06.133.18-May-2020 4832.01 5488.48 65.97 12.00 426.17 2549.35
   02:21:06.333.18-May-2020 4832.01 5488.48 65.97 12.00 426.37 2549.35
   02:21:06.533.18-May-2020 4832.01 5472.10 65.96 12.00 426.57 2549.35
   02:21:06.733.18-May-2020 4832.01 5473.95 65.96 12.00 426.77 2549.35
   02:21:06.933.18-May-2020 4832.01 5476.11 65.96 12.00 426.97 2549.35
   02:21:07.133.18-May-2020 4832.01 5479.85 65.96 12.00 427.17 2549.35
   02:21:07.334.18-May-2020 4832.01 5479.85 65.96 12.00 427.37 2549.35
   02:21:07.534.18-May-2020 4832.01 5476.01 65.96 12.00 427.57 2549.35
   02:21:07.734.18-May-2020 4832.01 5475.54 65.96 12.00 427.77 2549.35
   02:21:07.934.18-May-2020 4832.01 5486.04 65.96 12.00 427.97 2549.35
   02:21:08.134.18-May-2020 4832.01 5478.94 65.96 12.00 428.17 2549.35
   02:21:08.334.18-May-2020 4832.01 5478.94 65.96 12.00 428.37 2549.35
   02:21:08.534.18-May-2020 4832.01 5478.96 65.96 12.00 428.57 2549.35
   02:21:08.734.18-May-2020 4832.01 5475.05 65.96 12.00 428.77 2549.35
   02:21:08.934.18-May-2020 4832.01 5474.38 65.96 12.00 428.97 2549.35
   02:21:09.134.18-May-2020 4832.01 5473.46 65.96 12.00 429.17 2549.35
   02:21:09.334.18-May-2020 4832.01 5472.00 65.96 12.00 429.37 2549.35
