~Version Information
 VERS.                  2.0:   CWLS log ASCII Standard -VERSION 2.0
 WRAP.                   NO:   One line per depth step
~Well Information Block
#MNEM.UNIT     VALUE/NAME     DESCRIPTION
#---------     -----------    ---------------------------
 STRT.S             23:36:46 17-May-20: START TIME 23:36:46 17-May-20
 STOP.S             23:44:24 17-May-20: STOP TIME  23:44:24 17-May-20
 STEP.S                   0.00: STEP TIME
 NULL.                 -999.25: NULL VALUE
 UNIT.                     N/A:  LOGGING EQUIPMENT ID
 DCON.         Sperry Drilling:  DIRECTNL CONTR
 DOE .                     N/A:  DOE NUMBER
 JOBN.        AZ-XX-0906252240:  JOB TICKET NUMB
 MWDS.                     N/A:  MWD SHOP
 PROV.                    Baku:  PROVINCE
 STAT.                    Baku:  STATE NAME
 REGN.                   EESSA:  REGION
 BASE.              Azerbaijan:  LOGGING EQUIPMENT BASE LOCATION
 UWI .                     N/A:  UNIQUE WELL IDENTIFIER
 API .                     N/A:  API NUMBER
 MDS .        Operator Entered:  MAG DATA SOURCE
 WTYP.                Deviated:  WELL TYPE
 COMP.     BP Exploration (Caspian Sea) Ltd.:  COMPANY
 SRVC.          Turan Drilling:  CONTRACTOR
 WELL.           J23 (Slot 07):  WELL NAME
 CTRY.              Azerbaijan:  COUNTRY NAME
 FLD .                     ACG:  FIELD NAME
 PDAT.          Mean Sea Level:  PERMANENT DATUM
 RIG .             West Chirag:  RIG NAME
 SON .        AZ-XX-0906252240:  JOB NUMBER
 FTOP.          Formation Tops:  FORM TOPS DESC
 ILTD.               Lithology:  INTERP LTH DESC
 SVYD.                  Survey:  SURVEY DESC
 DMOD.             Drill Model:  DRILL MOD DESC
 HPTY.       Minimum Curvature:  HOLE POS TYPE
 NREF.                    Grid:  NORTH REFERENCE
 SPUD.               27-Aug-20:  SPUD DATE
 DATE.      00.00.00 19-May-20:  END TIME
 STIM.      03.00.00 25-Mar-20:  START TIME
 DMF .             Drill Floor:  DRILL MEAS FROM
 DFST.                        :  DIST FSL TEXT
 DFWT.                        :  DIST FWL TEXT
 CNTY.                        :  COUNTY
 LOC .                        :  LOCATION
 LMF .             Drill Floor:  LOG MEASURED FROM
 VSNS.m                   9.43:  VERT SEC N/S
 VSEW.m                  -8.91:  VERT SEC E/W
 AGAP.m                  43.00:  AIR GAP
 DEP .m                 354.17:  DEPTH
 APD .m                  43.00:  DEPTH ABOVE PD
 WDMS.m                 169.80:  WD ELEV
 EGL .m                   0.00:  GROUND ELEVATION
 EPD .m                   0.00:  ELEVATION
 AZTC.deg                 6.31:  AZM TOTAL CORR
 GRDC.deg                 0.14:  GRID CORRECTION
 MDEC.deg                 6.45:  MAGNETIC DECL
 MDIP.deg                59.56:  MAGNETIC DIP
 MFLD.nT              50295.00:  MAGNETIC FIELD
 GVFD.g                   1.00:  GRAVITY FIELD
 VSDR.deg               179.88:  VERT SEC DIRECT
 TDD .m                5150.01:  TOTAL DEPTH (DRILLER)
 SDEP.m                 864.00:  START DEPTH
 DFSL.m                   0.00:  DISTANCE FSL
 DFWL.m                   0.00:  DISTANCE FWL
 UTMY.m             4443793.85:  UTM Y
 UTMX.m              519005.06:  UTM X
 WHEW.m                  -8.91:  WELL HEAD E/W
 WHNS.m                   9.43:  WELL HEAD N/S
 LONG.deg                51.22:  LONGITUDE
 LATI.deg                40.13:  LATITUDE
 TVDS.m                  43.00:  TVDSS CORRECTN
 EKB .m                   0.00:  KB ELEVATION
 EDF .m                  43.00:  DF ELEVATION
 TDL .m                 363.00:  TOTAL DEPTH (LOGGER)
 MAGU.                 1850802:  MAGUTM CHECKSUM
 VSC .                       0:  VS TO CLOSURE
~Parameter Information Block
#MNEM.UNIT       Value        Description
#---------     -----------    ---------------------------
 AV  .mps                 2.30:  Ann Velocity 
 AVMX.mps                 4.40:  Max Ann Veloc 
 AZIF.deg               110.24:  Azm, Final 
 BHAT.        Rotary Steerable:  BHA Type 
 BREV.rev               331.00:  Rev Bit Total 
 BROT.°/30m               0.00:  Build Rotating 
 BS  .in                  8.50:  Bit Size 
 BSZ .in                  8.50:  Bit Size 
 BTPL.psig              585.00:  Bit Press Loss 
 CABU.                     Yes:  Customer Abuse 
 TCS .hr                122.75:  Time Ciculation Ended 
 CV  .mps                 2.67:  Crit Velocity 
 CVMX.mps                 3.56:  Max Crit Veloc 
 DD1 .          Rashad Habibov:  Direct Drillr 1 
 DD2 .         Rasim Ibrahimov:  Direct Drillr 2 
 DDSV.               Geo-Pilot:  DD Service 
 DEFF.%                  98.00:  % Det Eff 
 DLRX.°/30m               0.75:  Dogleg Rot Max 
 DLSO.°/30m               1.25:  Dogleg Oriented 
 DLSX.°/30m               2.06:  Dogleg Str Max 
 DRET.      07.45.00 17-May-20:  Drill End Time 
 DRST.      22.50.00 15-May-20:  Drill Start Tim 
 DTIM.hr                 20.75:  Time Drilling 
 EDEP.m                5124.01:  End Depth 
 ENG1.           Eldar Hajiyev:  Engineer 1 
 ENG2.        Marcelo Sandoval:  Engineer 2 
 ENG3.        Davud huseynzada:  Engineer 3 
 ENG4.          Ruslan Safarov:  Engineer 4 
 ETIM.      04.33.00 23-May-20:  End Time 
 FLOI.gpm               450.00:  Flow In 
 FLON.gpm               400.00:  Flow In Min 
 FLOS.cptm                0.00:  Fluid Loss 
 FLOX.gpm               500.00:  Flow In Max 
 FTRO.       Formation Presure:  FTWD Run Obj 
 HFLO.                      No:  High Flow 
 HPRE.                     Yes:  High Pressure 
 HTEM.                      No:  High Temp 
 HYDO.m                   1.80:  Hydro Offset 
 IFIN.deg                75.06:  Inc, Final 
 IMAX.deg                75.38:  Inc Max 
 IMIN.deg                74.69:  Inc Min 
 IMND.m                5027.38:  Inc Min Depth 
 IMXD.m                4771.61:  Inc Max Depth 
 JARR.                      No:  Jarring 
 LETM.      07.45.00 17-May-20:  Log End Time 
 LOST.hr                     0:  Lost Rig Time 
 LSTM.      22.50.00 15-May-20:  Log Start Time 
 MDCL.ppm             42000.00:  Mud Chlorides 
 MDES.     Inversion Oil/Synthetic:  Mud Desc 
 DFD .sg                  1.34:  Mud Density 
 MDMN.sg                  1.34:  Dens Mud Min 
 MDMX.sg                  1.34:  Dens Mud Max 
 MOIL.                       0:  Run Mud Oil % 
 MOWR.                   67:33:  Run Mud OWR 
 MSND.                       0:  Run Mud Sand % 
 MSOL.                     1.8:  Run Mud Solids% 
 DFV .spqt               76.00:  Mud Viscosity 
 MWOD.in                  6.75:  MWD Tool OD 
 MWSI.                      No:  Serv Intrp, MWD 
 OTIM.hr                228.19:  Time Operating 
 PCON.           Look Like New:  Pad Condition 
 PMAX.psia             6164.70:  Press Op, Max 
 PV  .cP                 28.00:  Mud PV 
 RUN .                     900:  Run Number 
 ROPA.m/hr               19.00:  ROP Avg 
 ROPN.m/hr               11.00:  ROP Min 
 ROPX.m/hr               36.00:  ROP Max 
 RPMA.rpm               120.00:  RPM Surface Avg 
 RPMN.rpm               120.00:  RPM Surface Min 
 RPMX.rpm               120.00:  RPM Surface Max 
 RRUN.                    L604:  Rig Run Number 
 RTIM.hr                  7.00:  Time Reaming 
 SAZI.deg               109.27:  Azm, Start 
 SDEP.m                4761.01:  Start Depth 
 SIDD.                      No:  Serv Intrp, DD 
 SINC.deg                75.38:  Inc, Start 
 SPPA.psig             3574.00:  SPP Avg 
 SPPN.psig             3475.00:  SPP Min 
 SPPX.psig             3791.00:  SPP Max 
 STIM.      07.08.48 13-May-20:  Start Time 
 SVCS.                 DD, MWD:  Services 
 SVER.                    9.20:  Sperry Version 
 TDAT.m                 363.00:  Tot Depth Attmp 
 TDDF.                      No:  Trip for DD 
 TDLG.m                 363.00:  Tot Depth Loggd 
 TFF .                      No:  Trip for Fail 
 TQAA.f-kp               20.00:  Torque Abs Avg 
 TQAN.f-kp               18.00:  Torque Abs Min 
 TQAX.f-kp               22.00:  Torque Abs Max 
 TRRT.°/30m              -0.35:  Turn Rotating 
 MRT .                    HCIM:  Maximum Recorded Temperature 
 TTMX.degC               92.16:  Max Tool Temp 
 VS01.                90586518:  Virtual Str1 SN 
 VS02.        AZ90560654Z1W1C6:  Virtual Str2 SN 
 VS03.           AZ90610398F11:  Virtual Str3 SN 
 VS04.                90514975:  Virtual Str4 SN 
 VS05.                90514972:  Virtual Str5 SN 
 VS06.     AZ90603282F11V7D1A6:  Virtual Str6 SN 
 WBMN.klb                 7.00:  WOB Min 
 WOBA.klb                12.00:  WOB Avg 
 WOBX.klb                14.00:  WOB Max 
 YP  .lhf2               32.00:  Yield Point 
~Curve Information Block
#MNEM.UNIT                 API CODE     Curve Description
#---------               -----------    ---------------------------
 TIME.HHMMSS            00 000 000 000:  GT Time & Date
 GTDEPTH.m              00 000 000 000:  GT Depth
 GTPQH.psia             00 000 000 000:  GT HR Quartz Pressure
 GTTQ.degC              00 000 000 000:  GT Quartz Temperature
 GTTN.NONE              00 000 000 000:  GT Test Number
 GTET.sec               00 000 000 000:  GT Elapsed Test Time
 GTTVD.m                00 000 000 000:  GT True Vertical Depth
#Other Information
#
#WARRANTY: Halliburton will use its best efforts to furnish customers with 
#accurate information and interpretations that are part of, and incident to, the services 
#provided.  However, Halliburton cannot and does not warrant the accuracy 
#or correctness of such information and interpretations.  Under no circumstances should any 
#such information or interpretation be relied upon as the sole basis for any drilling, 
#completion, production, or financial decision or any procedure involving any risk to the 
#safety of any drilling venture, drilling rig or its crew or any other third party.  The 
#Customer has full responsibility for all drilling, completion and production operation.  
#Halliburton makes no representations or warranties, either expressed or 
#implied, including, but not limited to, the implied warranties of merchantability or fitness 
#for a particular purpose, with respect to the services rendered.  In no event will 
#Halliburton be liable for failure to obtain any particular results or for 
#any damages, including, but not limited to, indirect, special or consequential damages, 
#resulting from the use of any information or interpretation provided by Halliburton.
#
~A           TIME           GTDEPTH  GTPQH  GTTQ  GTTN  GTET   GTTVD  
# ...
   23:37:55.037.17-May-2020 4902.01 3431.75 66.30 9.00  68.96 2567.50
   23:37:55.236.17-May-2020 4902.01 3431.75 66.30 9.00  69.16 2567.50
   23:37:55.436.17-May-2020 4902.01 3445.31 66.30 9.00  69.36 2567.50
   23:37:55.636.17-May-2020 4902.01 3450.55 66.30 9.00  69.56 2567.50
   23:37:55.836.17-May-2020 4902.01 3455.23 66.30 9.00  69.76 2567.50
   23:37:56.036.17-May-2020 4902.01 3460.47 66.30 9.00  69.96 2567.50
   23:37:56.236.17-May-2020 4902.01 3460.47 66.30 9.00  70.16 2567.50
   23:37:56.436.17-May-2020 4902.01 3470.69 66.30 9.00  70.36 2567.50
   23:37:56.636.17-May-2020 4902.01 3475.24 66.30 9.00  70.56 2567.50
   23:37:56.836.17-May-2020 4902.01 3479.50 66.31 9.00  70.76 2567.50
   23:37:57.036.17-May-2020 4902.01 3482.94 66.31 9.00  70.96 2567.50
   23:37:57.235.17-May-2020 4902.01 3482.94 66.31 9.00  71.16 2567.50
   23:37:57.435.17-May-2020 4902.01 3492.46 66.31 9.00  71.36 2567.50
   23:37:57.635.17-May-2020 4902.01 3495.95 66.31 9.00  71.56 2567.50
   23:37:57.835.17-May-2020 4902.01 3499.64 66.31 9.00  71.76 2567.50
   23:37:58.035.17-May-2020 4902.01 3502.92 66.31 9.00  71.96 2567.50
   23:37:58.235.17-May-2020 4902.01 3502.92 66.31 9.00  72.16 2567.50
   23:37:58.435.17-May-2020 4902.01 3509.64 66.31 9.00  72.36 2567.50
   23:37:58.635.17-May-2020 4902.01 3512.84 66.31 9.00  72.56 2567.50
   23:37:58.835.17-May-2020 4902.01 3515.81 66.31 9.00  72.76 2567.50
   23:37:59.035.17-May-2020 4902.01 3517.79 66.31 9.00  72.96 2567.50
   23:37:59.234.17-May-2020 4902.01 3517.79 66.31 9.00  73.16 2567.50
   23:37:59.434.17-May-2020 4902.01 3524.77 66.31 9.00  73.36 2567.50
   23:37:59.634.17-May-2020 4902.01 3527.59 66.32 9.00  73.56 2567.50
   23:37:59.834.17-May-2020 4902.01 3530.41 66.32 9.00  73.76 2567.50
   23:38:00.034.17-May-2020 4902.01 3533.01 66.32 9.00  73.96 2567.50
   23:38:00.234.17-May-2020 4902.01 3533.01 66.32 9.00  74.16 2567.50
   23:38:00.434.17-May-2020 4902.01 3538.10 66.32 9.00  74.36 2567.50
   23:38:00.634.17-May-2020 4902.01 3540.46 66.32 9.00  74.56 2567.50
   23:38:00.834.17-May-2020 4902.01 3542.83 66.32 9.00  74.76 2567.50
   23:38:01.034.17-May-2020 4902.01 3545.10 66.32 9.00  74.96 2567.50
   23:38:01.233.17-May-2020 4902.01 3545.10 66.32 9.00  75.16 2567.50
   23:38:01.433.17-May-2020 4902.01 3549.59 66.32 9.00  75.36 2567.50
   23:38:01.633.17-May-2020 4902.01 3552.03 66.32 9.00  75.56 2567.50
   23:38:01.833.17-May-2020 4902.01 3553.09 66.32 9.00  75.76 2567.50
   23:38:02.033.17-May-2020 4902.01 3557.18 66.32 9.00  75.96 2567.50
   23:38:02.233.17-May-2020 4902.01 3557.18 66.32 9.00  76.16 2567.50
   23:38:02.433.17-May-2020 4902.01 3561.44 66.32 9.00  76.36 2567.50
   23:38:02.633.17-May-2020 4902.01 3563.50 66.32 9.00  76.56 2567.50
   23:38:02.833.17-May-2020 4902.01 3563.81 66.32 9.00  76.76 2567.50
   23:38:03.032.17-May-2020 4902.01 3567.21 66.32 9.00  76.96 2567.50
   23:38:03.232.17-May-2020 4902.01 3567.21 66.32 9.00  77.16 2567.50
   23:38:03.432.17-May-2020 4902.01 3570.90 66.32 9.00  77.36 2567.50
   23:38:03.632.17-May-2020 4902.01 3572.72 66.32 9.00  77.56 2567.50
   23:38:03.832.17-May-2020 4902.01 3573.03 66.32 9.00  77.76 2567.50
   23:38:04.032.17-May-2020 4902.01 3576.04 66.32 9.00  77.96 2567.50
   23:38:04.232.17-May-2020 4902.01 3576.04 66.32 9.00  78.16 2567.50
   23:38:04.432.17-May-2020 4902.01 3579.06 66.32 9.00  78.36 2567.50
   23:38:04.632.17-May-2020 4902.01 3580.53 66.32 9.00  78.56 2567.50
   23:38:04.832.17-May-2020 4902.01 3581.99 66.32 9.00  78.76 2567.50
   23:38:05.031.17-May-2020 4902.01 3583.45 66.32 9.00  78.96 2567.50
   23:38:05.231.17-May-2020 4902.01 3583.45 66.32 9.00  79.16 2567.50
   23:38:05.431.17-May-2020 4902.01 3586.27 66.32 9.00  79.36 2567.50
   23:38:05.631.17-May-2020 4902.01 3587.54 66.32 9.00  79.56 2567.50
   23:38:05.831.17-May-2020 4902.01 3588.82 66.32 9.00  79.76 2567.50
   23:38:06.031.17-May-2020 4902.01 3589.45 66.32 9.00  79.96 2567.50
   23:38:06.231.17-May-2020 4902.01 3589.45 66.32 9.00  80.16 2567.50
   23:38:06.431.17-May-2020 4902.01 3592.66 66.32 9.00  80.36 2567.50
   23:38:06.631.17-May-2020 4902.01 3593.71 66.32 9.00  80.56 2567.50
   23:38:06.831.17-May-2020 4902.01 3595.07 66.33 9.00  80.76 2567.50
   23:38:07.030.17-May-2020 4902.01 3596.21 66.33 9.00  80.96 2567.50
   23:38:07.230.17-May-2020 4902.01 3596.21 66.33 9.00  81.16 2567.50
   23:38:07.430.17-May-2020 4902.01 3598.78 66.33 9.00  81.36 2567.50
   23:38:07.630.17-May-2020 4902.01 3599.99 66.33 9.00  81.56 2567.50
   23:38:07.830.17-May-2020 4902.01 3601.01 66.33 9.00  81.76 2567.50
   23:38:08.030.17-May-2020 4902.01 3601.30 66.33 9.00  81.96 2567.50
   23:38:08.230.17-May-2020 4902.01 3601.30 66.33 9.00  82.16 2567.50
   23:38:08.430.17-May-2020 4902.01 3603.95 66.33 9.00  82.36 2567.50
   23:38:08.630.17-May-2020 4902.01 3605.39 66.33 9.00  82.56 2567.50
   23:38:08.830.17-May-2020 4902.01 3606.50 66.33 9.00  82.76 2567.50
   23:38:09.029.17-May-2020 4902.01 3606.59 66.33 9.00  82.96 2567.50
   23:38:09.229.17-May-2020 4902.01 3606.59 66.33 9.00  83.16 2567.50
   23:38:09.429.17-May-2020 4902.01 3610.03 66.33 9.00  83.36 2567.50
   23:38:09.629.17-May-2020 4902.01 3610.88 66.33 9.00  83.56 2567.50
   23:38:09.829.17-May-2020 4902.01 3612.14 66.33 9.00  83.76 2567.50
   23:38:10.029.17-May-2020 4902.01 3611.53 66.33 9.00  83.96 2567.50
   23:38:10.229.17-May-2020 4902.01 3611.53 66.33 9.00  84.16 2567.50
   23:38:10.429.17-May-2020 4902.01 3614.67 66.33 9.00  84.36 2567.50
   23:38:10.629.17-May-2020 4902.01 3615.49 66.33 9.00  84.56 2567.50
   23:38:10.828.17-May-2020 4902.01 3615.61 66.33 9.00  84.76 2567.50
   23:38:11.028.17-May-2020 4902.01 3617.30 66.33 9.00  84.96 2567.50
   23:38:11.228.17-May-2020 4902.01 3617.30 66.33 9.00  85.16 2567.50
   23:38:11.428.17-May-2020 4902.01 3619.01 66.33 9.00  85.36 2567.50
   23:38:11.628.17-May-2020 4902.01 3619.95 66.33 9.00  85.56 2567.50
   23:38:11.828.17-May-2020 4902.01 3620.90 66.33 9.00  85.76 2567.50
   23:38:12.028.17-May-2020 4902.01 3621.63 66.33 9.00  85.96 2567.50
   23:38:12.228.17-May-2020 4902.01 3621.63 66.33 9.00  86.16 2567.50
   23:38:12.428.17-May-2020 4902.01 3623.51 66.33 9.00  86.36 2567.50
   23:38:12.628.17-May-2020 4902.01 3624.21 66.33 9.00  86.56 2567.50
   23:38:12.827.17-May-2020 4902.01 3625.01 66.33 9.00  86.76 2567.50
   23:38:13.027.17-May-2020 4902.01 3624.65 66.33 9.00  86.96 2567.50
   23:38:13.227.17-May-2020 4902.01 3624.65 66.33 9.00  87.16 2567.50
   23:38:13.427.17-May-2020 4902.01 3626.23 66.33 9.00  87.36 2567.50
   23:38:13.627.17-May-2020 4902.01 3626.85 66.33 9.00  87.56 2567.50
   23:38:13.827.17-May-2020 4902.01 3628.09 66.33 9.00  87.75 2567.50
   23:38:14.027.17-May-2020 4902.01 3628.92 66.33 9.00  87.95 2567.50
   23:38:14.227.17-May-2020 4902.01 3628.92 66.33 9.00  88.15 2567.50
   23:38:14.427.17-May-2020 4902.01 3630.60 66.33 9.00  88.35 2567.50
   23:38:14.627.17-May-2020 4902.01 3631.41 66.33 9.00  88.55 2567.50
   23:38:14.826.17-May-2020 4902.01 3632.21 66.33 9.00  88.75 2567.50
   23:38:15.026.17-May-2020 4902.01 3632.00 66.33 9.00  88.95 2567.50
   23:38:15.226.17-May-2020 4902.01 3632.00 66.33 9.00  89.15 2567.50
   23:38:15.426.17-May-2020 4902.01 3632.80 66.33 9.00  89.35 2567.50
   23:38:15.626.17-May-2020 4902.01 3633.95 66.33 9.00  89.55 2567.50
   23:38:15.826.17-May-2020 4902.01 3633.16 66.33 9.00  89.75 2567.50
   23:38:16.026.17-May-2020 4902.01 3633.38 66.33 9.00  89.95 2567.50
   23:38:16.226.17-May-2020 4902.01 3633.38 66.33 9.00  90.15 2567.50
   23:38:16.426.17-May-2020 4902.01 3633.95 66.33 9.00  90.35 2567.50
   23:38:16.626.17-May-2020 4902.01 3634.90 66.33 9.00  90.55 2567.50
   23:38:16.825.17-May-2020 4902.01 3635.68 66.33 9.00  90.75 2567.50
   23:38:17.025.17-May-2020 4902.01 3636.50 66.33 9.00  90.95 2567.50
   23:38:17.225.17-May-2020 4902.01 3636.50 66.33 9.00  91.15 2567.50
   23:38:17.425.17-May-2020 4902.01 3636.74 66.33 9.00  91.35 2567.50
   23:38:17.625.17-May-2020 4902.01 3638.15 66.33 9.00  91.55 2567.50
   23:38:17.825.17-May-2020 4902.01 3639.06 66.33 9.00  91.75 2567.50
