~Version Information
 VERS.                  2.0:   CWLS log ASCII Standard -VERSION 2.0
 WRAP.                   NO:   One line per depth step
~Well Information Block
#MNEM.UNIT     VALUE/NAME     DESCRIPTION
#---------     -----------    ---------------------------
 STRT.S             23:36:46 17-May-20: START TIME 23:36:46 17-May-20
 STOP.S             23:44:24 17-May-20: STOP TIME  23:44:24 17-May-20
 STEP.S                   0.00: STEP TIME
 NULL.                 -999.25: NULL VALUE
 UNIT.                     N/A:  LOGGING EQUIPMENT ID
 DCON.         Sperry Drilling:  DIRECTNL CONTR
 DOE .                     N/A:  DOE NUMBER
 JOBN.        AZ-XX-0906252240:  JOB TICKET NUMB
 MWDS.                     N/A:  MWD SHOP
 PROV.                    Baku:  PROVINCE
 STAT.                    Baku:  STATE NAME
 REGN.                   EESSA:  REGION
 BASE.              Azerbaijan:  LOGGING EQUIPMENT BASE LOCATION
 UWI .                     N/A:  UNIQUE WELL IDENTIFIER
 API .                     N/A:  API NUMBER
 MDS .        Operator Entered:  MAG DATA SOURCE
 WTYP.                Deviated:  WELL TYPE
 COMP.     BP Exploration (Caspian Sea) Ltd.:  COMPANY
 SRVC.          Turan Drilling:  CONTRACTOR
 WELL.           J23 (Slot 07):  WELL NAME
 CTRY.              Azerbaijan:  COUNTRY NAME
 FLD .                     ACG:  FIELD NAME
 PDAT.          Mean Sea Level:  PERMANENT DATUM
 RIG .             West Chirag:  RIG NAME
 SON .        AZ-XX-0906252240:  JOB NUMBER
 FTOP.          Formation Tops:  FORM TOPS DESC
 ILTD.               Lithology:  INTERP LTH DESC
 SVYD.                  Survey:  SURVEY DESC
 DMOD.             Drill Model:  DRILL MOD DESC
 HPTY.       Minimum Curvature:  HOLE POS TYPE
 NREF.                    Grid:  NORTH REFERENCE
 SPUD.               27-Aug-20:  SPUD DATE
 DATE.      00.00.00 19-May-20:  END TIME
 STIM.      03.00.00 25-Mar-20:  START TIME
 DMF .             Drill Floor:  DRILL MEAS FROM
 DFST.                        :  DIST FSL TEXT
 DFWT.                        :  DIST FWL TEXT
 CNTY.                        :  COUNTY
 LOC .                        :  LOCATION
 LMF .             Drill Floor:  LOG MEASURED FROM
 VSNS.m                   9.43:  VERT SEC N/S
 VSEW.m                  -8.91:  VERT SEC E/W
 AGAP.m                  43.00:  AIR GAP
 DEP .m                 354.17:  DEPTH
 APD .m                  43.00:  DEPTH ABOVE PD
 WDMS.m                 169.80:  WD ELEV
 EGL .m                   0.00:  GROUND ELEVATION
 EPD .m                   0.00:  ELEVATION
 AZTC.deg                 6.31:  AZM TOTAL CORR
 GRDC.deg                 0.14:  GRID CORRECTION
 MDEC.deg                 6.45:  MAGNETIC DECL
 MDIP.deg                59.56:  MAGNETIC DIP
 MFLD.nT              50295.00:  MAGNETIC FIELD
 GVFD.g                   1.00:  GRAVITY FIELD
 VSDR.deg               179.88:  VERT SEC DIRECT
 TDD .m                5150.01:  TOTAL DEPTH (DRILLER)
 SDEP.m                 864.00:  START DEPTH
 DFSL.m                   0.00:  DISTANCE FSL
 DFWL.m                   0.00:  DISTANCE FWL
 UTMY.m             4443793.85:  UTM Y
 UTMX.m              519005.06:  UTM X
 WHEW.m                  -8.91:  WELL HEAD E/W
 WHNS.m                   9.43:  WELL HEAD N/S
 LONG.deg                51.22:  LONGITUDE
 LATI.deg                40.13:  LATITUDE
 TVDS.m                  43.00:  TVDSS CORRECTN
 EKB .m                   0.00:  KB ELEVATION
 EDF .m                  43.00:  DF ELEVATION
 TDL .m                 363.00:  TOTAL DEPTH (LOGGER)
 MAGU.                 1850802:  MAGUTM CHECKSUM
 VSC .                       0:  VS TO CLOSURE
~Parameter Information Block
#MNEM.UNIT       Value        Description
#---------     -----------    ---------------------------
 AV  .mps                 2.30:  Ann Velocity 
 AVMX.mps                 4.40:  Max Ann Veloc 
 AZIF.deg               110.24:  Azm, Final 
 BHAT.        Rotary Steerable:  BHA Type 
 BREV.rev               331.00:  Rev Bit Total 
 BROT.°/30m               0.00:  Build Rotating 
 BS  .in                  8.50:  Bit Size 
 BSZ .in                  8.50:  Bit Size 
 BTPL.psig              585.00:  Bit Press Loss 
 CABU.                     Yes:  Customer Abuse 
 TCS .hr                122.75:  Time Ciculation Ended 
 CV  .mps                 2.67:  Crit Velocity 
 CVMX.mps                 3.56:  Max Crit Veloc 
 DD1 .          Rashad Habibov:  Direct Drillr 1 
 DD2 .         Rasim Ibrahimov:  Direct Drillr 2 
 DDSV.               Geo-Pilot:  DD Service 
 DEFF.%                  98.00:  % Det Eff 
 DLRX.°/30m               0.75:  Dogleg Rot Max 
 DLSO.°/30m               1.25:  Dogleg Oriented 
 DLSX.°/30m               2.06:  Dogleg Str Max 
 DRET.      07.45.00 17-May-20:  Drill End Time 
 DRST.      22.50.00 15-May-20:  Drill Start Tim 
 DTIM.hr                 20.75:  Time Drilling 
 EDEP.m                5124.01:  End Depth 
 ENG1.           Eldar Hajiyev:  Engineer 1 
 ENG2.        Marcelo Sandoval:  Engineer 2 
 ENG3.        Davud huseynzada:  Engineer 3 
 ENG4.          Ruslan Safarov:  Engineer 4 
 ETIM.      04.33.00 23-May-20:  End Time 
 FLOI.gpm               450.00:  Flow In 
 FLON.gpm               400.00:  Flow In Min 
 FLOS.cptm                0.00:  Fluid Loss 
 FLOX.gpm               500.00:  Flow In Max 
 FTRO.       Formation Presure:  FTWD Run Obj 
 HFLO.                      No:  High Flow 
 HPRE.                     Yes:  High Pressure 
 HTEM.                      No:  High Temp 
 HYDO.m                   1.80:  Hydro Offset 
 IFIN.deg                75.06:  Inc, Final 
 IMAX.deg                75.38:  Inc Max 
 IMIN.deg                74.69:  Inc Min 
 IMND.m                5027.38:  Inc Min Depth 
 IMXD.m                4771.61:  Inc Max Depth 
 JARR.                      No:  Jarring 
 LETM.      07.45.00 17-May-20:  Log End Time 
 LOST.hr                     0:  Lost Rig Time 
 LSTM.      22.50.00 15-May-20:  Log Start Time 
 MDCL.ppm             42000.00:  Mud Chlorides 
 MDES.     Inversion Oil/Synthetic:  Mud Desc 
 DFD .sg                  1.34:  Mud Density 
 MDMN.sg                  1.34:  Dens Mud Min 
 MDMX.sg                  1.34:  Dens Mud Max 
 MOIL.                       0:  Run Mud Oil % 
 MOWR.                   67:33:  Run Mud OWR 
 MSND.                       0:  Run Mud Sand % 
 MSOL.                     1.8:  Run Mud Solids% 
 DFV .spqt               76.00:  Mud Viscosity 
 MWOD.in                  6.75:  MWD Tool OD 
 MWSI.                      No:  Serv Intrp, MWD 
 OTIM.hr                228.19:  Time Operating 
 PCON.           Look Like New:  Pad Condition 
 PMAX.psia             6164.70:  Press Op, Max 
 PV  .cP                 28.00:  Mud PV 
 RUN .                     900:  Run Number 
 ROPA.m/hr               19.00:  ROP Avg 
 ROPN.m/hr               11.00:  ROP Min 
 ROPX.m/hr               36.00:  ROP Max 
 RPMA.rpm               120.00:  RPM Surface Avg 
 RPMN.rpm               120.00:  RPM Surface Min 
 RPMX.rpm               120.00:  RPM Surface Max 
 RRUN.                    L604:  Rig Run Number 
 RTIM.hr                  7.00:  Time Reaming 
 SAZI.deg               109.27:  Azm, Start 
 SDEP.m                4761.01:  Start Depth 
 SIDD.                      No:  Serv Intrp, DD 
 SINC.deg                75.38:  Inc, Start 
 SPPA.psig             3574.00:  SPP Avg 
 SPPN.psig             3475.00:  SPP Min 
 SPPX.psig             3791.00:  SPP Max 
 STIM.      07.08.48 13-May-20:  Start Time 
 SVCS.                 DD, MWD:  Services 
 SVER.                    9.20:  Sperry Version 
 TDAT.m                 363.00:  Tot Depth Attmp 
 TDDF.                      No:  Trip for DD 
 TDLG.m                 363.00:  Tot Depth Loggd 
 TFF .                      No:  Trip for Fail 
 TQAA.f-kp               20.00:  Torque Abs Avg 
 TQAN.f-kp               18.00:  Torque Abs Min 
 TQAX.f-kp               22.00:  Torque Abs Max 
 TRRT.°/30m              -0.35:  Turn Rotating 
 MRT .                    HCIM:  Maximum Recorded Temperature 
 TTMX.degC               92.16:  Max Tool Temp 
 VS01.                90586518:  Virtual Str1 SN 
 VS02.        AZ90560654Z1W1C6:  Virtual Str2 SN 
 VS03.           AZ90610398F11:  Virtual Str3 SN 
 VS04.                90514975:  Virtual Str4 SN 
 VS05.                90514972:  Virtual Str5 SN 
 VS06.     AZ90603282F11V7D1A6:  Virtual Str6 SN 
 WBMN.klb                 7.00:  WOB Min 
 WOBA.klb                12.00:  WOB Avg 
 WOBX.klb                14.00:  WOB Max 
 YP  .lhf2               32.00:  Yield Point 
~Curve Information Block
#MNEM.UNIT                 API CODE     Curve Description
#---------               -----------    ---------------------------
 TIME.HHMMSS            00 000 000 000:  GT Time & Date
 GTDEPTH.m              00 000 000 000:  GT Depth
 GTPQH.psia             00 000 000 000:  GT HR Quartz Pressure
 GTTQ.degC              00 000 000 000:  GT Quartz Temperature
 GTTN.NONE              00 000 000 000:  GT Test Number
 GTET.sec               00 000 000 000:  GT Elapsed Test Time
 GTTVD.m                00 000 000 000:  GT True Vertical Depth
#Other Information
#
#WARRANTY: Halliburton will use its best efforts to furnish customers with 
#accurate information and interpretations that are part of, and incident to, the services 
#provided.  However, Halliburton cannot and does not warrant the accuracy 
#or correctness of such information and interpretations.  Under no circumstances should any 
#such information or interpretation be relied upon as the sole basis for any drilling, 
#completion, production, or financial decision or any procedure involving any risk to the 
#safety of any drilling venture, drilling rig or its crew or any other third party.  The 
#Customer has full responsibility for all drilling, completion and production operation.  
#Halliburton makes no representations or warranties, either expressed or 
#implied, including, but not limited to, the implied warranties of merchantability or fitness 
#for a particular purpose, with respect to the services rendered.  In no event will 
#Halliburton be liable for failure to obtain any particular results or for 
#any damages, including, but not limited to, indirect, special or consequential damages, 
#resulting from the use of any information or interpretation provided by Halliburton.
#
~A           TIME           GTDEPTH  GTPQH  GTTQ  GTTN  GTET   GTTVD  
# ...
   23:37:09.060.17-May-2020 4902.01 5484.19 66.38 9.00  22.99 2567.50
   23:37:09.260.17-May-2020 4902.01 5484.19 66.38 9.00  23.19 2567.50
   23:37:09.460.17-May-2020 4902.01 5484.05 66.38 9.00  23.39 2567.50
   23:37:09.660.17-May-2020 4902.01 5485.48 66.38 9.00  23.59 2567.50
   23:37:09.860.17-May-2020 4902.01 5484.69 66.38 9.00  23.79 2567.50
   23:37:10.060.17-May-2020 4902.01 5495.49 66.38 9.00  23.99 2567.50
   23:37:10.260.17-May-2020 4902.01 5495.49 66.38 9.00  24.19 2567.50
   23:37:10.459.17-May-2020 4902.01 5487.91 66.38 9.00  24.39 2567.50
   23:37:10.659.17-May-2020 4902.01 5488.35 66.38 9.00  24.59 2567.50
   23:37:10.859.17-May-2020 4902.01 5484.43 66.38 9.00  24.79 2567.50
   23:37:11.059.17-May-2020 4902.01 5486.27 66.38 9.00  24.99 2567.50
   23:37:11.259.17-May-2020 4902.01 5486.27 66.38 9.00  25.19 2567.50
   23:37:11.459.17-May-2020 4902.01 5484.66 66.38 9.00  25.39 2567.50
   23:37:11.659.17-May-2020 4902.01 5484.24 66.38 9.00  25.59 2567.50
   23:37:11.859.17-May-2020 4902.01 5484.71 66.38 9.00  25.79 2567.50
   23:37:12.059.17-May-2020 4902.01 5483.85 66.38 9.00  25.99 2567.50
   23:37:12.259.17-May-2020 4902.01 5483.85 66.38 9.00  26.19 2567.50
   23:37:12.458.17-May-2020 4902.01 5490.84 66.38 9.00  26.39 2567.50
   23:37:12.658.17-May-2020 4902.01 5483.66 66.38 9.00  26.59 2567.50
   23:37:12.858.17-May-2020 4902.01 5494.23 66.38 9.00  26.79 2567.50
   23:37:13.058.17-May-2020 4902.01 5486.41 66.38 9.00  26.99 2567.50
   23:37:13.258.17-May-2020 4902.01 5486.41 66.38 9.00  27.19 2567.50
   23:37:13.458.17-May-2020 4902.01 5483.30 66.38 9.00  27.39 2567.50
   23:37:13.658.17-May-2020 4902.01 5497.22 66.38 9.00  27.59 2567.50
   23:37:13.858.17-May-2020 4902.01 5484.39 66.38 9.00  27.79 2567.50
   23:37:14.058.17-May-2020 4902.01 5504.43 66.38 9.00  27.99 2567.50
   23:37:14.258.17-May-2020 4902.01 5504.43 66.38 9.00  28.19 2567.50
   23:37:14.457.17-May-2020 4902.01 5499.02 66.38 9.00  28.39 2567.50
   23:37:14.657.17-May-2020 4902.01 5485.43 66.38 9.00  28.59 2567.50
   23:37:14.857.17-May-2020 4902.01 5493.06 66.38 9.00  28.79 2567.50
   23:37:15.057.17-May-2020 4902.01 5499.90 66.38 9.00  28.99 2567.50
   23:37:15.257.17-May-2020 4902.01 5499.90 66.38 9.00  29.19 2567.50
   23:37:15.457.17-May-2020 4902.01 5496.85 66.38 9.00  29.38 2567.50
   23:37:15.657.17-May-2020 4902.01 5487.90 66.37 9.00  29.58 2567.50
   23:37:15.857.17-May-2020 4902.01 5492.72 66.37 9.00  29.78 2567.50
   23:37:16.057.17-May-2020 4902.01 5486.43 66.37 9.00  29.98 2567.50
   23:37:16.257.17-May-2020 4902.01 5486.43 66.37 9.00  30.18 2567.50
   23:37:16.456.17-May-2020 4902.01 5486.91 66.37 9.00  30.38 2567.50
   23:37:16.656.17-May-2020 4902.01 5488.23 66.37 9.00  30.58 2567.50
   23:37:16.856.17-May-2020 4902.01 5486.82 66.37 9.00  30.78 2567.50
   23:37:17.056.17-May-2020 4902.01 5502.85 66.37 9.00  30.98 2567.50
   23:37:17.256.17-May-2020 4902.01 5502.85 66.37 9.00  31.18 2567.50
   23:37:17.456.17-May-2020 4902.01 5493.59 66.37 9.00  31.38 2567.50
   23:37:17.656.17-May-2020 4902.01 5488.35 66.37 9.00  31.58 2567.50
   23:37:17.856.17-May-2020 4902.01 5489.58 66.37 9.00  31.78 2567.50
   23:37:18.056.17-May-2020 4902.01 5487.64 66.37 9.00  31.98 2567.50
   23:37:18.255.17-May-2020 4902.01 5487.64 66.37 9.00  32.18 2567.50
   23:37:18.455.17-May-2020 4902.01 5487.24 66.37 9.00  32.38 2567.50
   23:37:18.655.17-May-2020 4902.01 5487.41 66.37 9.00  32.58 2567.50
   23:37:18.855.17-May-2020 4902.01 5487.43 66.37 9.00  32.78 2567.50
   23:37:19.055.17-May-2020 4902.01 5486.59 66.37 9.00  32.98 2567.50
   23:37:19.255.17-May-2020 4902.01 5486.59 66.37 9.00  33.18 2567.50
   23:37:19.455.17-May-2020 4902.01 5484.07 66.37 9.00  33.38 2567.50
   23:37:19.655.17-May-2020 4902.01 5490.87 66.37 9.00  33.58 2567.50
   23:37:19.855.17-May-2020 4902.01 5494.18 66.37 9.00  33.78 2567.50
   23:37:20.055.17-May-2020 4902.01 5501.10 66.37 9.00  33.98 2567.50
   23:37:20.254.17-May-2020 4902.01 5501.10 66.37 9.00  34.18 2567.50
   23:37:20.454.17-May-2020 4902.01 5493.75 66.37 9.00  34.38 2567.50
   23:37:20.654.17-May-2020 4902.01 5494.31 66.37 9.00  34.58 2567.50
   23:37:20.854.17-May-2020 4902.01 5489.97 66.37 9.00  34.78 2567.50
   23:37:21.054.17-May-2020 4902.01 5504.48 66.37 9.00  34.98 2567.50
   23:37:21.254.17-May-2020 4902.01 5504.48 66.37 9.00  35.18 2567.50
   23:37:21.454.17-May-2020 4902.01 5501.67 66.37 9.00  35.38 2567.50
   23:37:21.654.17-May-2020 4902.01 5487.97 66.37 9.00  35.58 2567.50
   23:37:21.854.17-May-2020 4902.01 5496.58 66.37 9.00  35.78 2567.50
   23:37:22.054.17-May-2020 4902.01 5501.74 66.37 9.00  35.98 2567.50
   23:37:22.253.17-May-2020 4902.01 5501.74 66.37 9.00  36.18 2567.50
   23:37:22.453.17-May-2020 4902.01 5499.39 66.37 9.00  36.38 2567.50
   23:37:22.653.17-May-2020 4902.01 5491.02 66.37 9.00  36.58 2567.50
   23:37:22.853.17-May-2020 4902.01 5494.54 66.37 9.00  36.78 2567.50
   23:37:23.053.17-May-2020 4902.01 5489.50 66.37 9.00  36.98 2567.50
   23:37:23.253.17-May-2020 4902.01 5489.50 66.37 9.00  37.18 2567.50
   23:37:23.453.17-May-2020 4902.01 5489.71 66.37 9.00  37.38 2567.50
   23:37:23.653.17-May-2020 4902.01 5490.61 66.37 9.00  37.58 2567.50
   23:37:23.853.17-May-2020 4902.01 5488.79 66.37 9.00  37.78 2567.50
   23:37:24.053.17-May-2020 4902.01 5489.29 66.37 9.00  37.98 2567.50
   23:37:24.252.17-May-2020 4902.01 5489.29 66.37 9.00  38.18 2567.50
   23:37:24.452.17-May-2020 4902.01 5490.88 66.37 9.00  38.38 2567.50
   23:37:24.652.17-May-2020 4902.01 5490.57 66.37 9.00  38.58 2567.50
   23:37:24.852.17-May-2020 4902.01 5496.48 66.37 9.00  38.78 2567.50
   23:37:25.052.17-May-2020 4902.01 5498.33 66.37 9.00  38.98 2567.50
   23:37:25.252.17-May-2020 4902.01 5498.33 66.37 9.00  39.18 2567.50
   23:37:25.452.17-May-2020 4902.01 5600.49 66.37 9.00  39.38 2567.50
   23:37:25.652.17-May-2020 4902.01 5585.97 66.37 9.00  39.58 2567.50
   23:37:25.852.17-May-2020 4902.01 5569.19 66.37 9.00  39.78 2567.50
   23:37:26.051.17-May-2020 4902.01 5555.76 66.37 9.00  39.98 2567.50
   23:37:26.251.17-May-2020 4902.01 5555.76 66.37 9.00  40.18 2567.50
   23:37:26.451.17-May-2020 4902.01 5540.33 66.37 9.00  40.38 2567.50
   23:37:26.651.17-May-2020 4902.01 5542.35 66.37 9.00  40.58 2567.50
   23:37:26.851.17-May-2020 4902.01 5509.80 66.37 9.00  40.78 2567.50
   23:37:27.051.17-May-2020 4902.01 5449.41 66.37 9.00  40.98 2567.50
   23:37:27.251.17-May-2020 4902.01 5449.41 66.37 9.00  41.18 2567.50
   23:37:27.451.17-May-2020 4902.01 5397.85 66.37 9.00  41.38 2567.50
   23:37:27.651.17-May-2020 4902.01 5385.21 66.37 9.00  41.58 2567.50
   23:37:27.851.17-May-2020 4902.01 5373.00 66.37 9.00  41.78 2567.50
   23:37:28.050.17-May-2020 4902.01 5361.88 66.37 9.00  41.98 2567.50
   23:37:28.250.17-May-2020 4902.01 5361.88 66.37 9.00  42.18 2567.50
   23:37:28.450.17-May-2020 4902.01 5352.98 66.37 9.00  42.38 2567.50
   23:37:28.650.17-May-2020 4902.01 5351.83 66.37 9.00  42.58 2567.50
   23:37:28.850.17-May-2020 4902.01 5350.11 66.37 9.00  42.78 2567.50
   23:37:29.050.17-May-2020 4902.01 5348.26 66.37 9.00  42.98 2567.50
   23:37:29.250.17-May-2020 4902.01 5348.26 66.37 9.00  43.18 2567.50
   23:37:29.450.17-May-2020 4902.01 5352.92 66.37 9.00  43.38 2567.50
   23:37:29.650.17-May-2020 4902.01 5353.70 66.37 9.00  43.58 2567.50
   23:37:29.850.17-May-2020 4902.01 5355.21 66.37 9.00  43.78 2567.50
   23:37:30.049.17-May-2020 4902.01 5360.48 66.37 9.00  43.98 2567.50
   23:37:30.249.17-May-2020 4902.01 5360.48 66.37 9.00  44.18 2567.50
   23:37:30.449.17-May-2020 4902.01 5361.02 66.37 9.00  44.38 2567.50
   23:37:30.649.17-May-2020 4902.01 5365.10 66.37 9.00  44.58 2567.50
   23:37:30.849.17-May-2020 4902.01 5366.39 66.37 9.00  44.78 2567.50
   23:37:31.049.17-May-2020 4902.01 5366.01 66.37 9.00  44.98 2567.50
   23:37:31.249.17-May-2020 4902.01 5366.01 66.37 9.00  45.18 2567.50
   23:37:31.449.17-May-2020 4902.01 5363.77 66.37 9.00  45.38 2567.50
   23:37:31.649.17-May-2020 4902.01 5367.79 66.37 9.00  45.58 2567.50
   23:37:31.849.17-May-2020 4902.01 5269.01 66.37 9.00  45.78 2567.50
