~Version Information
 VERS.                  2.0:   CWLS log ASCII Standard -VERSION 2.0
 WRAP.                   NO:   One line per depth step
~Well Information Block
#MNEM.UNIT     VALUE/NAME     DESCRIPTION
#---------     -----------    ---------------------------
 STRT.S             17:25:16 17-May-20: START TIME 17:25:16 17-May-20
 STOP.S             17:32:20 17-May-20: STOP TIME  17:32:20 17-May-20
 STEP.S                   0.00: STEP TIME
 NULL.                 -999.25: NULL VALUE
 UNIT.                     N/A:  LOGGING EQUIPMENT ID
 DCON.         Sperry Drilling:  DIRECTNL CONTR
 DOE .                     N/A:  DOE NUMBER
 JOBN.        AZ-XX-0906252240:  JOB TICKET NUMB
 MWDS.                     N/A:  MWD SHOP
 PROV.                    Baku:  PROVINCE
 STAT.                    Baku:  STATE NAME
 REGN.                   EESSA:  REGION
 BASE.              Azerbaijan:  LOGGING EQUIPMENT BASE LOCATION
 UWI .                     N/A:  UNIQUE WELL IDENTIFIER
 API .                     N/A:  API NUMBER
 MDS .        Operator Entered:  MAG DATA SOURCE
 WTYP.                Deviated:  WELL TYPE
 COMP.     BP Exploration (Caspian Sea) Ltd.:  COMPANY
 SRVC.          Turan Drilling:  CONTRACTOR
 WELL.           J23 (Slot 07):  WELL NAME
 CTRY.              Azerbaijan:  COUNTRY NAME
 FLD .                     ACG:  FIELD NAME
 PDAT.          Mean Sea Level:  PERMANENT DATUM
 RIG .             West Chirag:  RIG NAME
 SON .        AZ-XX-0906252240:  JOB NUMBER
 FTOP.          Formation Tops:  FORM TOPS DESC
 ILTD.               Lithology:  INTERP LTH DESC
 SVYD.                  Survey:  SURVEY DESC
 DMOD.             Drill Model:  DRILL MOD DESC
 HPTY.       Minimum Curvature:  HOLE POS TYPE
 NREF.                    Grid:  NORTH REFERENCE
 SPUD.               27-Aug-20:  SPUD DATE
 DATE.      00.00.00 19-May-20:  END TIME
 STIM.      03.00.00 25-Mar-20:  START TIME
 DMF .             Drill Floor:  DRILL MEAS FROM
 DFST.                        :  DIST FSL TEXT
 DFWT.                        :  DIST FWL TEXT
 CNTY.                        :  COUNTY
 LOC .                        :  LOCATION
 LMF .             Drill Floor:  LOG MEASURED FROM
 VSNS.m                   9.43:  VERT SEC N/S
 VSEW.m                  -8.91:  VERT SEC E/W
 AGAP.m                  43.00:  AIR GAP
 DEP .m                 354.17:  DEPTH
 APD .m                  43.00:  DEPTH ABOVE PD
 WDMS.m                 169.80:  WD ELEV
 EGL .m                   0.00:  GROUND ELEVATION
 EPD .m                   0.00:  ELEVATION
 AZTC.deg                 6.31:  AZM TOTAL CORR
 GRDC.deg                 0.14:  GRID CORRECTION
 MDEC.deg                 6.45:  MAGNETIC DECL
 MDIP.deg                59.56:  MAGNETIC DIP
 MFLD.nT              50295.00:  MAGNETIC FIELD
 GVFD.g                   1.00:  GRAVITY FIELD
 VSDR.deg               179.88:  VERT SEC DIRECT
 TDD .m                5150.01:  TOTAL DEPTH (DRILLER)
 SDEP.m                 864.00:  START DEPTH
 DFSL.m                   0.00:  DISTANCE FSL
 DFWL.m                   0.00:  DISTANCE FWL
 UTMY.m             4443793.85:  UTM Y
 UTMX.m              519005.06:  UTM X
 WHEW.m                  -8.91:  WELL HEAD E/W
 WHNS.m                   9.43:  WELL HEAD N/S
 LONG.deg                51.22:  LONGITUDE
 LATI.deg                40.13:  LATITUDE
 TVDS.m                  43.00:  TVDSS CORRECTN
 EKB .m                   0.00:  KB ELEVATION
 EDF .m                  43.00:  DF ELEVATION
 TDL .m                 363.00:  TOTAL DEPTH (LOGGER)
 MAGU.                 1850802:  MAGUTM CHECKSUM
 VSC .                       0:  VS TO CLOSURE
~Parameter Information Block
#MNEM.UNIT       Value        Description
#---------     -----------    ---------------------------
 AV  .mps                 2.30:  Ann Velocity 
 AVMX.mps                 4.40:  Max Ann Veloc 
 AZIF.deg               110.24:  Azm, Final 
 BHAT.        Rotary Steerable:  BHA Type 
 BREV.rev               331.00:  Rev Bit Total 
 BROT.°/30m               0.00:  Build Rotating 
 BS  .in                  8.50:  Bit Size 
 BSZ .in                  8.50:  Bit Size 
 BTPL.psig              585.00:  Bit Press Loss 
 CABU.                     Yes:  Customer Abuse 
 COMM.                     |n\:  Run Comments 1 
 TCS .hr                122.75:  Time Ciculation Ended 
 CV  .mps                 2.67:  Crit Velocity 
 CVMX.mps                 3.56:  Max Crit Veloc 
 DD1 .          Rashad Habibov:  Direct Drillr 1 
 DD2 .         Rasim Ibrahimov:  Direct Drillr 2 
 DDSV.               Geo-Pilot:  DD Service 
 DEFF.%                  98.00:  % Det Eff 
 DLRX.°/30m               0.75:  Dogleg Rot Max 
 DLSO.°/30m               1.25:  Dogleg Oriented 
 DLSX.°/30m               2.06:  Dogleg Str Max 
 DRET.      07.45.00 17-May-20:  Drill End Time 
 DRST.      22.50.00 15-May-20:  Drill Start Tim 
 DTIM.hr                 20.75:  Time Drilling 
 EDEP.m                5124.01:  End Depth 
 ENG1.           Eldar Hajiyev:  Engineer 1 
 ENG2.        Marcelo Sandoval:  Engineer 2 
 ENG3.        Davud huseynzada:  Engineer 3 
 ENG4.          Ruslan Safarov:  Engineer 4 
 ETIM.      04.33.00 23-May-20:  End Time 
 FLOI.gpm               450.00:  Flow In 
 FLON.gpm               400.00:  Flow In Min 
 FLOS.cptm                0.00:  Fluid Loss 
 FLOX.gpm               500.00:  Flow In Max 
 FTRO.       Formation Presure:  FTWD Run Obj 
 HFLO.                      No:  High Flow 
 HPRE.                     Yes:  High Pressure 
 HTEM.                      No:  High Temp 
 HYDO.m                   1.80:  Hydro Offset 
 IFIN.deg                75.06:  Inc, Final 
 IMAX.deg                75.38:  Inc Max 
 IMIN.deg                74.69:  Inc Min 
 IMND.m                5027.38:  Inc Min Depth 
 IMXD.m                4771.61:  Inc Max Depth 
 JARR.                      No:  Jarring 
 LETM.      07.45.00 17-May-20:  Log End Time 
 LOST.hr                     0:  Lost Rig Time 
 LSTM.      22.50.00 15-May-20:  Log Start Time 
 MDCL.ppm             42000.00:  Mud Chlorides 
 MDES.     Inversion Oil/Synthetic:  Mud Desc 
 DFD .sg                  1.34:  Mud Density 
 MDMN.sg                  1.34:  Dens Mud Min 
 MDMX.sg                  1.34:  Dens Mud Max 
 MOIL.                       0:  Run Mud Oil % 
 MOWR.                   67:33:  Run Mud OWR 
 MSND.                       0:  Run Mud Sand % 
 MSOL.                     1.8:  Run Mud Solids% 
 DFV .spqt               76.00:  Mud Viscosity 
 MWOD.in                  6.75:  MWD Tool OD 
 MWSI.                      No:  Serv Intrp, MWD 
 OTIM.hr                228.19:  Time Operating 
 PCON.           Look Like New:  Pad Condition 
 PMAX.psia             6164.70:  Press Op, Max 
 PV  .cP                 28.00:  Mud PV 
 RUN .                     900:  Run Number 
 ROPA.m/hr               19.00:  ROP Avg 
 ROPN.m/hr               11.00:  ROP Min 
 ROPX.m/hr               36.00:  ROP Max 
 RPMA.rpm               120.00:  RPM Surface Avg 
 RPMN.rpm               120.00:  RPM Surface Min 
 RPMX.rpm               120.00:  RPM Surface Max 
 RRUN.                    L604:  Rig Run Number 
 RTIM.hr                  7.00:  Time Reaming 
 SAZI.deg               109.27:  Azm, Start 
 SDEP.m                4761.01:  Start Depth 
 SIDD.                      No:  Serv Intrp, DD 
 SINC.deg                75.38:  Inc, Start 
 SPPA.psig             3574.00:  SPP Avg 
 SPPN.psig             3475.00:  SPP Min 
 SPPX.psig             3791.00:  SPP Max 
 STIM.      07.08.48 13-May-20:  Start Time 
 SVCS.                 DD, MWD:  Services 
 SVER.                    9.20:  Sperry Version 
 TDAT.m                 363.00:  Tot Depth Attmp 
 TDDF.                      No:  Trip for DD 
 TDLG.m                 363.00:  Tot Depth Loggd 
 TFF .                      No:  Trip for Fail 
 TQAA.f-kp               20.00:  Torque Abs Avg 
 TQAN.f-kp               18.00:  Torque Abs Min 
 TQAX.f-kp               22.00:  Torque Abs Max 
 TRRT.°/30m              -0.35:  Turn Rotating 
 MRT .                    HCIM:  Maximum Recorded Temperature 
 TTMX.degC               92.16:  Max Tool Temp 
 VS01.                90586518:  Virtual Str1 SN 
 VS02.        AZ90560654Z1W1C6:  Virtual Str2 SN 
 VS03.           AZ90610398F11:  Virtual Str3 SN 
 VS04.                90514975:  Virtual Str4 SN 
 VS05.                90514972:  Virtual Str5 SN 
 VS06.     AZ90603282F11V7D1A6:  Virtual Str6 SN 
 WBMN.klb                 7.00:  WOB Min 
 WOBA.klb                12.00:  WOB Avg 
 WOBX.klb                14.00:  WOB Max 
 YP  .lhf2               32.00:  Yield Point 
~Curve Information Block
#MNEM.UNIT                 API CODE     Curve Description
#---------               -----------    ---------------------------
 TIME.HHMMSS            00 000 000 000:  GT Time & Date
 GTDEPTH.m              00 000 000 000:  GT Depth
 GTPQH.psia             00 000 000 000:  GT HR Quartz Pressure
 GTTQ.degC              00 000 000 000:  GT Quartz Temperature
 GTTN.NONE              00 000 000 000:  GT Test Number
 GTET.sec               00 000 000 000:  GT Elapsed Test Time
 GTTVD.m                00 000 000 000:  GT True Vertical Depth
#Other Information
#
#WARRANTY: Halliburton will use its best efforts to furnish customers with 
#accurate information and interpretations that are part of, and incident to, the services 
#provided.  However, Halliburton cannot and does not warrant the accuracy 
#or correctness of such information and interpretations.  Under no circumstances should any 
#such information or interpretation be relied upon as the sole basis for any drilling, 
#completion, production, or financial decision or any procedure involving any risk to the 
#safety of any drilling venture, drilling rig or its crew or any other third party.  The 
#Customer has full responsibility for all drilling, completion and production operation.  
#Halliburton makes no representations or warranties, either expressed or 
#implied, including, but not limited to, the implied warranties of merchantability or fitness 
#for a particular purpose, with respect to the services rendered.  In no event will 
#Halliburton be liable for failure to obtain any particular results or for 
#any damages, including, but not limited to, indirect, special or consequential damages, 
#resulting from the use of any information or interpretation provided by Halliburton.
#
~A           TIME           GTDEPTH  GTPQH  GTTQ  GTTN  GTET   GTTVD  
# ...
   17:28:43.512.17-May-2020 5032.01 2638.12 70.57 3.00 207.19 2600.96
   17:28:43.712.17-May-2020 5032.01 2638.12 70.57 3.00 207.39 2600.96
   17:28:43.913.17-May-2020 5032.01 2637.88 70.57 3.00 207.59 2600.96
   17:28:44.113.17-May-2020 5032.01 2638.00 70.57 3.00 207.79 2600.96
   17:28:44.313.17-May-2020 5032.01 2637.99 70.57 3.00 207.99 2600.96
   17:28:44.513.17-May-2020 5032.01 2638.00 70.57 3.00 208.19 2600.96
   17:28:44.713.17-May-2020 5032.01 2638.00 70.57 3.00 208.39 2600.96
   17:28:44.914.17-May-2020 5032.01 2637.97 70.57 3.00 208.60 2600.96
   17:28:45.114.17-May-2020 5032.01 2637.98 70.57 3.00 208.80 2600.96
   17:28:45.314.17-May-2020 5032.01 2637.99 70.57 3.00 209.00 2600.96
   17:28:45.514.17-May-2020 5032.01 2638.07 70.57 3.00 209.20 2600.96
   17:28:45.714.17-May-2020 5032.01 2638.07 70.57 3.00 209.40 2600.96
   17:28:45.915.17-May-2020 5032.01 2637.98 70.57 3.00 209.60 2600.96
   17:28:46.115.17-May-2020 5032.01 2637.88 70.57 3.00 209.80 2600.96
   17:28:46.315.17-May-2020 5032.01 2638.12 70.56 3.00 210.00 2600.96
   17:28:46.515.17-May-2020 5032.01 2638.08 70.56 3.00 210.20 2600.96
   17:28:46.715.17-May-2020 5032.01 2638.08 70.56 3.00 210.40 2600.96
   17:28:46.915.17-May-2020 5032.01 2637.98 70.56 3.00 210.60 2600.96
   17:28:47.116.17-May-2020 5032.01 2638.10 70.56 3.00 210.80 2600.96
   17:28:47.316.17-May-2020 5032.01 2638.03 70.56 3.00 211.00 2600.96
   17:28:47.516.17-May-2020 5032.01 2637.95 70.56 3.00 211.20 2600.96
   17:28:47.716.17-May-2020 5032.01 2637.95 70.56 3.00 211.40 2600.96
   17:28:47.916.17-May-2020 5032.01 2638.14 70.56 3.00 211.60 2600.96
   17:28:48.117.17-May-2020 5032.01 2637.99 70.56 3.00 211.80 2600.96
   17:28:48.317.17-May-2020 5032.01 2637.92 70.56 3.00 212.00 2600.96
   17:28:48.517.17-May-2020 5032.01 2638.01 70.56 3.00 212.20 2600.96
   17:28:48.717.17-May-2020 5032.01 2637.98 70.56 3.00 212.40 2600.96
   17:28:48.917.17-May-2020 5032.01 2637.98 70.56 3.00 212.60 2600.96
   17:28:49.117.17-May-2020 5032.01 2638.00 70.56 3.00 212.80 2600.96
   17:28:49.318.17-May-2020 5032.01 2637.99 70.56 3.00 213.00 2600.96
   17:28:49.518.17-May-2020 5032.01 2637.99 70.56 3.00 213.20 2600.96
   17:28:49.718.17-May-2020 5032.01 2637.99 70.56 3.00 213.40 2600.96
   17:28:49.918.17-May-2020 5032.01 2637.92 70.56 3.00 213.60 2600.96
   17:28:50.118.17-May-2020 5032.01 2638.07 70.56 3.00 213.80 2600.96
   17:28:50.319.17-May-2020 5032.01 2638.09 70.56 3.00 214.00 2600.96
   17:28:50.519.17-May-2020 5032.01 2637.91 70.56 3.00 214.20 2600.96
   17:28:50.719.17-May-2020 5032.01 2637.91 70.56 3.00 214.40 2600.96
   17:28:50.919.17-May-2020 5032.01 2638.03 70.56 3.00 214.60 2600.96
   17:28:51.119.17-May-2020 5032.01 2637.98 70.56 3.00 214.80 2600.96
   17:28:51.320.17-May-2020 5032.01 2637.96 70.56 3.00 215.00 2600.96
   17:28:51.520.17-May-2020 5032.01 2637.98 70.56 3.00 215.20 2600.96
   17:28:51.720.17-May-2020 5032.01 2637.98 70.56 3.00 215.40 2600.96
   17:28:51.920.17-May-2020 5032.01 2637.98 70.56 3.00 215.60 2600.96
   17:28:52.120.17-May-2020 5032.01 2638.08 70.56 3.00 215.80 2600.96
   17:28:52.320.17-May-2020 5032.01 2638.01 70.56 3.00 216.00 2600.96
   17:28:52.521.17-May-2020 5032.01 2637.93 70.56 3.00 216.20 2600.96
   17:28:52.721.17-May-2020 5032.01 2638.09 70.56 3.00 216.40 2600.96
   17:28:52.921.17-May-2020 5032.01 2638.08 70.56 3.00 216.60 2600.96
   17:28:53.121.17-May-2020 5032.01 2637.90 70.56 3.00 216.80 2600.96
   17:28:53.321.17-May-2020 5032.01 2637.96 70.56 3.00 217.00 2600.96
   17:28:53.522.17-May-2020 5032.01 2637.97 70.56 3.00 217.20 2600.96
   17:28:53.722.17-May-2020 5032.01 2637.97 70.56 3.00 217.40 2600.96
   17:28:53.922.17-May-2020 5032.01 2638.04 70.56 3.00 217.60 2600.96
   17:28:54.122.17-May-2020 5032.01 2637.94 70.56 3.00 217.80 2600.96
   17:28:54.322.17-May-2020 5032.01 2637.94 70.56 3.00 218.00 2600.96
   17:28:54.523.17-May-2020 5032.01 2638.13 70.56 3.00 218.20 2600.96
   17:28:54.723.17-May-2020 5032.01 2638.13 70.56 3.00 218.40 2600.96
   17:28:54.923.17-May-2020 5032.01 2637.92 70.56 3.00 218.60 2600.96
   17:28:55.123.17-May-2020 5032.01 2637.97 70.56 3.00 218.80 2600.96
   17:28:55.323.17-May-2020 5032.01 2638.03 70.56 3.00 219.00 2600.96
   17:28:55.523.17-May-2020 5032.01 2637.98 70.56 3.00 219.21 2600.96
   17:28:55.724.17-May-2020 5032.01 2637.98 70.56 3.00 219.41 2600.96
   17:28:55.924.17-May-2020 5032.01 2637.99 70.56 3.00 219.61 2600.96
   17:28:56.124.17-May-2020 5032.01 2637.97 70.56 3.00 219.81 2600.96
   17:28:56.324.17-May-2020 5032.01 2637.98 70.56 3.00 220.01 2600.96
   17:28:56.524.17-May-2020 5032.01 2638.04 70.56 3.00 220.21 2600.96
   17:28:56.725.17-May-2020 5032.01 2638.06 70.56 3.00 220.41 2600.96
   17:28:56.925.17-May-2020 5032.01 2637.96 70.56 3.00 220.61 2600.96
   17:28:57.125.17-May-2020 5032.01 2637.94 70.56 3.00 220.81 2600.96
   17:28:57.325.17-May-2020 5032.01 2637.98 70.55 3.00 221.01 2600.96
   17:28:57.525.17-May-2020 5032.01 2638.00 70.55 3.00 221.21 2600.96
   17:28:57.726.17-May-2020 5032.01 2638.00 70.55 3.00 221.41 2600.96
   17:28:57.926.17-May-2020 5032.01 2637.97 70.55 3.00 221.61 2600.96
   17:28:58.126.17-May-2020 5032.01 2637.97 70.55 3.00 221.81 2600.96
   17:28:58.326.17-May-2020 5032.01 2637.99 70.55 3.00 222.01 2600.96
   17:28:58.526.17-May-2020 5032.01 2637.99 70.55 3.00 222.21 2600.96
   17:28:58.726.17-May-2020 5032.01 2637.99 70.55 3.00 222.41 2600.96
   17:28:58.927.17-May-2020 5032.01 2637.96 70.55 3.00 222.61 2600.96
   17:28:59.127.17-May-2020 5032.01 2637.91 70.55 3.00 222.81 2600.96
   17:28:59.327.17-May-2020 5032.01 2638.00 70.55 3.00 223.01 2600.96
   17:28:59.527.17-May-2020 5032.01 2638.14 70.55 3.00 223.21 2600.96
   17:28:59.727.17-May-2020 5032.01 2638.14 70.55 3.00 223.41 2600.96
   17:28:59.928.17-May-2020 5032.01 2637.98 70.55 3.00 223.61 2600.96
   17:29:00.128.17-May-2020 5032.01 2638.06 70.55 3.00 223.81 2600.96
   17:29:00.328.17-May-2020 5032.01 2638.01 70.55 3.00 224.01 2600.96
   17:29:00.528.17-May-2020 5032.01 2637.96 70.55 3.00 224.21 2600.96
   17:29:00.728.17-May-2020 5032.01 2637.96 70.55 3.00 224.41 2600.96
   17:29:00.929.17-May-2020 5032.01 2638.06 70.55 3.00 224.61 2600.96
   17:29:01.129.17-May-2020 5032.01 2638.08 70.55 3.00 224.81 2600.96
   17:29:01.329.17-May-2020 5032.01 2637.89 70.55 3.00 225.01 2600.96
   17:29:01.529.17-May-2020 5032.01 2637.98 70.55 3.00 225.21 2600.96
   17:29:01.729.17-May-2020 5032.01 2637.98 70.55 3.00 225.41 2600.96
   17:29:01.929.17-May-2020 5032.01 2637.99 70.55 3.00 225.61 2600.96
   17:29:02.130.17-May-2020 5032.01 2637.98 70.55 3.00 225.81 2600.96
   17:29:02.330.17-May-2020 5032.01 2637.97 70.55 3.00 226.01 2600.96
   17:29:02.530.17-May-2020 5032.01 2637.97 70.55 3.00 226.21 2600.96
   17:29:02.730.17-May-2020 5032.01 2637.97 70.55 3.00 226.41 2600.96
   17:29:02.930.17-May-2020 5032.01 2637.97 70.55 3.00 226.61 2600.96
   17:29:03.131.17-May-2020 5032.01 2637.98 70.55 3.00 226.81 2600.96
   17:29:03.331.17-May-2020 5032.01 2638.07 70.55 3.00 227.01 2600.96
   17:29:03.531.17-May-2020 5032.01 2637.95 70.55 3.00 227.21 2600.96
   17:29:03.731.17-May-2020 5032.01 2637.95 70.55 3.00 227.41 2600.96
   17:29:03.931.17-May-2020 5032.01 2638.00 70.55 3.00 227.61 2600.96
   17:29:04.132.17-May-2020 5032.01 2637.96 70.55 3.00 227.81 2600.96
   17:29:04.332.17-May-2020 5032.01 2637.97 70.55 3.00 228.01 2600.96
   17:29:04.532.17-May-2020 5032.01 2637.96 70.55 3.00 228.21 2600.96
   17:29:04.732.17-May-2020 5032.01 2637.96 70.55 3.00 228.41 2600.96
   17:29:04.932.17-May-2020 5032.01 2637.97 70.55 3.00 228.61 2600.96
   17:29:05.132.17-May-2020 5032.01 2638.14 70.55 3.00 228.81 2600.96
   17:29:05.333.17-May-2020 5032.01 2637.94 70.55 3.00 229.01 2600.96
   17:29:05.533.17-May-2020 5032.01 2637.90 70.55 3.00 229.21 2600.96
   17:29:05.733.17-May-2020 5032.01 2637.90 70.55 3.00 229.41 2600.96
   17:29:05.933.17-May-2020 5032.01 2638.00 70.55 3.00 229.61 2600.96
   17:29:06.133.17-May-2020 5032.01 2637.96 70.55 3.00 229.81 2600.96
   17:29:06.334.17-May-2020 5032.01 2637.94 70.55 3.00 230.02 2600.96
