~Version Information
 VERS.                  2.0:   CWLS log ASCII Standard -VERSION 2.0
 WRAP.                   NO:   One line per depth step
~Well Information Block
#MNEM.UNIT     VALUE/NAME     DESCRIPTION
#---------     -----------    ---------------------------
 STRT.S             22:49:31 17-May-20: START TIME 22:49:31 17-May-20
 STOP.S             22:56:24 17-May-20: STOP TIME  22:56:24 17-May-20
 STEP.S                   0.00: STEP TIME
 NULL.                 -999.25: NULL VALUE
 UNIT.                     N/A:  LOGGING EQUIPMENT ID
 DCON.         Sperry Drilling:  DIRECTNL CONTR
 DOE .                     N/A:  DOE NUMBER
 JOBN.        AZ-XX-0906252240:  JOB TICKET NUMB
 MWDS.                     N/A:  MWD SHOP
 PROV.                    Baku:  PROVINCE
 STAT.                    Baku:  STATE NAME
 REGN.                   EESSA:  REGION
 BASE.              Azerbaijan:  LOGGING EQUIPMENT BASE LOCATION
 UWI .                     N/A:  UNIQUE WELL IDENTIFIER
 API .                     N/A:  API NUMBER
 MDS .        Operator Entered:  MAG DATA SOURCE
 WTYP.                Deviated:  WELL TYPE
 COMP.     BP Exploration (Caspian Sea) Ltd.:  COMPANY
 SRVC.          Turan Drilling:  CONTRACTOR
 WELL.           J23 (Slot 07):  WELL NAME
 CTRY.              Azerbaijan:  COUNTRY NAME
 FLD .                     ACG:  FIELD NAME
 PDAT.          Mean Sea Level:  PERMANENT DATUM
 RIG .             West Chirag:  RIG NAME
 SON .        AZ-XX-0906252240:  JOB NUMBER
 FTOP.          Formation Tops:  FORM TOPS DESC
 ILTD.               Lithology:  INTERP LTH DESC
 SVYD.                  Survey:  SURVEY DESC
 DMOD.             Drill Model:  DRILL MOD DESC
 HPTY.       Minimum Curvature:  HOLE POS TYPE
 NREF.                    Grid:  NORTH REFERENCE
 SPUD.               27-Aug-20:  SPUD DATE
 DATE.      00.00.00 19-May-20:  END TIME
 STIM.      03.00.00 25-Mar-20:  START TIME
 DMF .             Drill Floor:  DRILL MEAS FROM
 DFST.                        :  DIST FSL TEXT
 DFWT.                        :  DIST FWL TEXT
 CNTY.                        :  COUNTY
 LOC .                        :  LOCATION
 LMF .             Drill Floor:  LOG MEASURED FROM
 VSNS.m                   9.43:  VERT SEC N/S
 VSEW.m                  -8.91:  VERT SEC E/W
 AGAP.m                  43.00:  AIR GAP
 DEP .m                 354.17:  DEPTH
 APD .m                  43.00:  DEPTH ABOVE PD
 WDMS.m                 169.80:  WD ELEV
 EGL .m                   0.00:  GROUND ELEVATION
 EPD .m                   0.00:  ELEVATION
 AZTC.deg                 6.31:  AZM TOTAL CORR
 GRDC.deg                 0.14:  GRID CORRECTION
 MDEC.deg                 6.45:  MAGNETIC DECL
 MDIP.deg                59.56:  MAGNETIC DIP
 MFLD.nT              50295.00:  MAGNETIC FIELD
 GVFD.g                   1.00:  GRAVITY FIELD
 VSDR.deg               179.88:  VERT SEC DIRECT
 TDD .m                5150.01:  TOTAL DEPTH (DRILLER)
 SDEP.m                 864.00:  START DEPTH
 DFSL.m                   0.00:  DISTANCE FSL
 DFWL.m                   0.00:  DISTANCE FWL
 UTMY.m             4443793.85:  UTM Y
 UTMX.m              519005.06:  UTM X
 WHEW.m                  -8.91:  WELL HEAD E/W
 WHNS.m                   9.43:  WELL HEAD N/S
 LONG.deg                51.22:  LONGITUDE
 LATI.deg                40.13:  LATITUDE
 TVDS.m                  43.00:  TVDSS CORRECTN
 EKB .m                   0.00:  KB ELEVATION
 EDF .m                  43.00:  DF ELEVATION
 TDL .m                 363.00:  TOTAL DEPTH (LOGGER)
 MAGU.                 1850802:  MAGUTM CHECKSUM
 VSC .                       0:  VS TO CLOSURE
~Parameter Information Block
#MNEM.UNIT       Value        Description
#---------     -----------    ---------------------------
 AV  .mps                 2.30:  Ann Velocity 
 AVMX.mps                 4.40:  Max Ann Veloc 
 AZIF.deg               110.24:  Azm, Final 
 BHAT.        Rotary Steerable:  BHA Type 
 BREV.rev               331.00:  Rev Bit Total 
 BROT.°/30m               0.00:  Build Rotating 
 BS  .in                  8.50:  Bit Size 
 BSZ .in                  8.50:  Bit Size 
 BTPL.psig              585.00:  Bit Press Loss 
 CABU.                     Yes:  Customer Abuse 
 COMM.                     ¼´€:  Run Comments 1 
 TCS .hr                122.75:  Time Ciculation Ended 
 CV  .mps                 2.67:  Crit Velocity 
 CVMX.mps                 3.56:  Max Crit Veloc 
 DD1 .          Rashad Habibov:  Direct Drillr 1 
 DD2 .         Rasim Ibrahimov:  Direct Drillr 2 
 DDSV.               Geo-Pilot:  DD Service 
 DEFF.%                  98.00:  % Det Eff 
 DLRX.°/30m               0.75:  Dogleg Rot Max 
 DLSO.°/30m               1.25:  Dogleg Oriented 
 DLSX.°/30m               2.06:  Dogleg Str Max 
 DRET.      07.45.00 17-May-20:  Drill End Time 
 DRST.      22.50.00 15-May-20:  Drill Start Tim 
 DTIM.hr                 20.75:  Time Drilling 
 EDEP.m                5124.01:  End Depth 
 ENG1.           Eldar Hajiyev:  Engineer 1 
 ENG2.        Marcelo Sandoval:  Engineer 2 
 ENG3.        Davud huseynzada:  Engineer 3 
 ENG4.          Ruslan Safarov:  Engineer 4 
 ETIM.      04.33.00 23-May-20:  End Time 
 FLOI.gpm               450.00:  Flow In 
 FLON.gpm               400.00:  Flow In Min 
 FLOS.cptm                0.00:  Fluid Loss 
 FLOX.gpm               500.00:  Flow In Max 
 FTRO.       Formation Presure:  FTWD Run Obj 
 HFLO.                      No:  High Flow 
 HPRE.                     Yes:  High Pressure 
 HTEM.                      No:  High Temp 
 HYDO.m                   1.80:  Hydro Offset 
 IFIN.deg                75.06:  Inc, Final 
 IMAX.deg                75.38:  Inc Max 
 IMIN.deg                74.69:  Inc Min 
 IMND.m                5027.38:  Inc Min Depth 
 IMXD.m                4771.61:  Inc Max Depth 
 JARR.                      No:  Jarring 
 LETM.      07.45.00 17-May-20:  Log End Time 
 LOST.hr                     0:  Lost Rig Time 
 LSTM.      22.50.00 15-May-20:  Log Start Time 
 MDCL.ppm             42000.00:  Mud Chlorides 
 MDES.     Inversion Oil/Synthetic:  Mud Desc 
 DFD .sg                  1.34:  Mud Density 
 MDMN.sg                  1.34:  Dens Mud Min 
 MDMX.sg                  1.34:  Dens Mud Max 
 MOIL.                       0:  Run Mud Oil % 
 MOWR.                   67:33:  Run Mud OWR 
 MSND.                       0:  Run Mud Sand % 
 MSOL.                     1.8:  Run Mud Solids% 
 DFV .spqt               76.00:  Mud Viscosity 
 MWOD.in                  6.75:  MWD Tool OD 
 MWSI.                      No:  Serv Intrp, MWD 
 OTIM.hr                228.19:  Time Operating 
 PCON.           Look Like New:  Pad Condition 
 PMAX.psia             6164.70:  Press Op, Max 
 PV  .cP                 28.00:  Mud PV 
 RUN .                     900:  Run Number 
 ROPA.m/hr               19.00:  ROP Avg 
 ROPN.m/hr               11.00:  ROP Min 
 ROPX.m/hr               36.00:  ROP Max 
 RPMA.rpm               120.00:  RPM Surface Avg 
 RPMN.rpm               120.00:  RPM Surface Min 
 RPMX.rpm               120.00:  RPM Surface Max 
 RRUN.                    L604:  Rig Run Number 
 RTIM.hr                  7.00:  Time Reaming 
 SAZI.deg               109.27:  Azm, Start 
 SDEP.m                4761.01:  Start Depth 
 SIDD.                      No:  Serv Intrp, DD 
 SINC.deg                75.38:  Inc, Start 
 SPPA.psig             3574.00:  SPP Avg 
 SPPN.psig             3475.00:  SPP Min 
 SPPX.psig             3791.00:  SPP Max 
 STIM.      07.08.48 13-May-20:  Start Time 
 SVCS.                 DD, MWD:  Services 
 SVER.                    9.20:  Sperry Version 
 TDAT.m                 363.00:  Tot Depth Attmp 
 TDDF.                      No:  Trip for DD 
 TDLG.m                 363.00:  Tot Depth Loggd 
 TFF .                      No:  Trip for Fail 
 TQAA.f-kp               20.00:  Torque Abs Avg 
 TQAN.f-kp               18.00:  Torque Abs Min 
 TQAX.f-kp               22.00:  Torque Abs Max 
 TRRT.°/30m              -0.35:  Turn Rotating 
 MRT .                    HCIM:  Maximum Recorded Temperature 
 TTMX.degC               92.16:  Max Tool Temp 
 VS01.                90586518:  Virtual Str1 SN 
 VS02.        AZ90560654Z1W1C6:  Virtual Str2 SN 
 VS03.           AZ90610398F11:  Virtual Str3 SN 
 VS04.                90514975:  Virtual Str4 SN 
 VS05.                90514972:  Virtual Str5 SN 
 VS06.     AZ90603282F11V7D1A6:  Virtual Str6 SN 
 WBMN.klb                 7.00:  WOB Min 
 WOBA.klb                12.00:  WOB Avg 
 WOBX.klb                14.00:  WOB Max 
 YP  .lhf2               32.00:  Yield Point 
~Curve Information Block
#MNEM.UNIT                 API CODE     Curve Description
#---------               -----------    ---------------------------
 TIME.HHMMSS            00 000 000 000:  GT Time & Date
 GTDEPTH.m              00 000 000 000:  GT Depth
 GTPQH.psia             00 000 000 000:  GT HR Quartz Pressure
 GTTQ.degC              00 000 000 000:  GT Quartz Temperature
 GTTN.NONE              00 000 000 000:  GT Test Number
 GTET.sec               00 000 000 000:  GT Elapsed Test Time
 GTTVD.m                00 000 000 000:  GT True Vertical Depth
#Other Information
#
#WARRANTY: Halliburton will use its best efforts to furnish customers with 
#accurate information and interpretations that are part of, and incident to, the services 
#provided.  However, Halliburton cannot and does not warrant the accuracy 
#or correctness of such information and interpretations.  Under no circumstances should any 
#such information or interpretation be relied upon as the sole basis for any drilling, 
#completion, production, or financial decision or any procedure involving any risk to the 
#safety of any drilling venture, drilling rig or its crew or any other third party.  The 
#Customer has full responsibility for all drilling, completion and production operation.  
#Halliburton makes no representations or warranties, either expressed or 
#implied, including, but not limited to, the implied warranties of merchantability or fitness 
#for a particular purpose, with respect to the services rendered.  In no event will 
#Halliburton be liable for failure to obtain any particular results or for 
#any damages, including, but not limited to, indirect, special or consequential damages, 
#resulting from the use of any information or interpretation provided by Halliburton.
#
~A           TIME           GTDEPTH  GTPQH  GTTQ  GTTN  GTET   GTTVD  
# ...
   22:49:54.515.17-May-2020 4908.51 5513.76 67.30 8.00  22.99 2569.17
   22:49:54.715.17-May-2020 4908.51 5513.76 67.30 8.00  23.19 2569.17
   22:49:54.915.17-May-2020 4908.51 5512.59 67.30 8.00  23.39 2569.17
   22:49:55.114.17-May-2020 4908.51 5511.83 67.30 8.00  23.59 2569.17
   22:49:55.314.17-May-2020 4908.51 5527.24 67.29 8.00  23.79 2569.17
   22:49:55.514.17-May-2020 4908.51 5504.81 67.29 8.00  23.99 2569.17
   22:49:55.714.17-May-2020 4908.51 5504.81 67.29 8.00  24.19 2569.17
   22:49:55.914.17-May-2020 4908.51 5511.34 67.29 8.00  24.39 2569.17
   22:49:56.114.17-May-2020 4908.51 5517.10 67.29 8.00  24.59 2569.17
   22:49:56.314.17-May-2020 4908.51 5511.21 67.29 8.00  24.79 2569.17
   22:49:56.514.17-May-2020 4908.51 5514.75 67.29 8.00  24.99 2569.17
   22:49:56.714.17-May-2020 4908.51 5514.75 67.29 8.00  25.19 2569.17
   22:49:56.914.17-May-2020 4908.51 5513.67 67.29 8.00  25.39 2569.17
   22:49:57.113.17-May-2020 4908.51 5512.65 67.29 8.00  25.59 2569.17
   22:49:57.313.17-May-2020 4908.51 5512.70 67.29 8.00  25.79 2569.17
   22:49:57.513.17-May-2020 4908.51 5525.36 67.29 8.00  25.99 2569.17
   22:49:57.713.17-May-2020 4908.51 5525.36 67.29 8.00  26.19 2569.17
   22:49:57.913.17-May-2020 4908.51 5519.25 67.29 8.00  26.39 2569.17
   22:49:58.113.17-May-2020 4908.51 5516.79 67.29 8.00  26.59 2569.17
   22:49:58.313.17-May-2020 4908.51 5518.73 67.29 8.00  26.79 2569.17
   22:49:58.513.17-May-2020 4908.51 5524.32 67.29 8.00  26.99 2569.17
   22:49:58.713.17-May-2020 4908.51 5524.32 67.29 8.00  27.19 2569.17
   22:49:58.913.17-May-2020 4908.51 5525.21 67.29 8.00  27.39 2569.17
   22:49:59.112.17-May-2020 4908.51 5528.88 67.29 8.00  27.59 2569.17
   22:49:59.312.17-May-2020 4908.51 5514.17 67.29 8.00  27.79 2569.17
   22:49:59.512.17-May-2020 4908.51 5525.26 67.29 8.00  27.99 2569.17
   22:49:59.712.17-May-2020 4908.51 5525.26 67.29 8.00  28.19 2569.17
   22:49:59.912.17-May-2020 4908.51 5515.20 67.29 8.00  28.39 2569.17
   22:50:00.112.17-May-2020 4908.51 5526.51 67.29 8.00  28.59 2569.17
   22:50:00.312.17-May-2020 4908.51 5517.03 67.29 8.00  28.79 2569.17
   22:50:00.512.17-May-2020 4908.51 5522.21 67.29 8.00  28.99 2569.17
   22:50:00.712.17-May-2020 4908.51 5522.21 67.29 8.00  29.19 2569.17
   22:50:00.912.17-May-2020 4908.51 5519.21 67.29 8.00  29.38 2569.17
   22:50:01.111.17-May-2020 4908.51 5516.00 67.29 8.00  29.58 2569.17
   22:50:01.311.17-May-2020 4908.51 5517.31 67.29 8.00  29.78 2569.17
   22:50:01.511.17-May-2020 4908.51 5516.14 67.29 8.00  29.98 2569.17
   22:50:01.711.17-May-2020 4908.51 5516.14 67.29 8.00  30.18 2569.17
   22:50:01.911.17-May-2020 4908.51 5508.64 67.29 8.00  30.38 2569.17
   22:50:02.111.17-May-2020 4908.51 5524.03 67.29 8.00  30.58 2569.17
   22:50:02.311.17-May-2020 4908.51 5516.25 67.29 8.00  30.78 2569.17
   22:50:02.511.17-May-2020 4908.51 5519.19 67.29 8.00  30.98 2569.17
   22:50:02.711.17-May-2020 4908.51 5519.19 67.29 8.00  31.18 2569.17
   22:50:02.910.17-May-2020 4908.51 5517.86 67.29 8.00  31.38 2569.17
   22:50:03.110.17-May-2020 4908.51 5515.66 67.29 8.00  31.58 2569.17
   22:50:03.310.17-May-2020 4908.51 5516.54 67.29 8.00  31.78 2569.17
   22:50:03.510.17-May-2020 4908.51 5519.40 67.29 8.00  31.98 2569.17
   22:50:03.710.17-May-2020 4908.51 5519.40 67.29 8.00  32.18 2569.17
   22:50:03.910.17-May-2020 4908.51 5657.73 67.29 8.00  32.38 2569.17
   22:50:04.110.17-May-2020 4908.51 5646.27 67.29 8.00  32.58 2569.17
   22:50:04.310.17-May-2020 4908.51 5638.31 67.29 8.00  32.78 2569.17
   22:50:04.510.17-May-2020 4908.51 5618.63 67.29 8.00  32.98 2569.17
   22:50:04.710.17-May-2020 4908.51 5618.63 67.29 8.00  33.18 2569.17
   22:50:04.909.17-May-2020 4908.51 5598.20 67.29 8.00  33.38 2569.17
   22:50:05.109.17-May-2020 4908.51 5579.96 67.29 8.00  33.58 2569.17
   22:50:05.309.17-May-2020 4908.51 5576.16 67.29 8.00  33.78 2569.17
   22:50:05.509.17-May-2020 4908.51 5569.71 67.29 8.00  33.98 2569.17
   22:50:05.709.17-May-2020 4908.51 5569.71 67.29 8.00  34.18 2569.17
   22:50:05.909.17-May-2020 4908.51 5550.92 67.29 8.00  34.38 2569.17
   22:50:06.109.17-May-2020 4908.51 5533.09 67.29 8.00  34.58 2569.17
   22:50:06.309.17-May-2020 4908.51 5511.75 67.29 8.00  34.78 2569.17
   22:50:06.509.17-May-2020 4908.51 5481.68 67.29 8.00  34.98 2569.17
   22:50:06.709.17-May-2020 4908.51 5481.68 67.29 8.00  35.18 2569.17
   22:50:06.908.17-May-2020 4908.51 5419.25 67.29 8.00  35.38 2569.17
   22:50:07.108.17-May-2020 4908.51 5380.97 67.29 8.00  35.58 2569.17
   22:50:07.308.17-May-2020 4908.51 5343.97 67.29 8.00  35.78 2569.17
   22:50:07.508.17-May-2020 4908.51 5305.69 67.29 8.00  35.98 2569.17
   22:50:07.708.17-May-2020 4908.51 5305.69 67.29 8.00  36.18 2569.17
   22:50:07.908.17-May-2020 4908.51 5232.07 67.29 8.00  36.38 2569.17
   22:50:08.108.17-May-2020 4908.51 5199.67 67.29 8.00  36.58 2569.17
   22:50:08.308.17-May-2020 4908.51 5173.12 67.29 8.00  36.78 2569.17
   22:50:08.508.17-May-2020 4908.51 5153.74 67.29 8.00  36.98 2569.17
   22:50:08.708.17-May-2020 4908.51 5153.74 67.29 8.00  37.18 2569.17
   22:50:08.907.17-May-2020 4908.51 5127.48 67.29 8.00  37.38 2569.17
   22:50:09.107.17-May-2020 4908.51 5114.26 67.29 8.00  37.58 2569.17
   22:50:09.307.17-May-2020 4908.51 5104.34 67.29 8.00  37.78 2569.17
   22:50:09.507.17-May-2020 4908.51 5096.79 67.29 8.00  37.98 2569.17
   22:50:09.707.17-May-2020 4908.51 5096.79 67.29 8.00  38.18 2569.17
   22:50:09.907.17-May-2020 4908.51 5082.63 67.29 8.00  38.38 2569.17
   22:50:10.107.17-May-2020 4908.51 5077.16 67.29 8.00  38.58 2569.17
   22:50:10.307.17-May-2020 4908.51 5071.38 67.29 8.00  38.78 2569.17
   22:50:10.507.17-May-2020 4908.51 5065.37 67.29 8.00  38.98 2569.17
   22:50:10.706.17-May-2020 4908.51 5065.37 67.29 8.00  39.18 2569.17
   22:50:10.906.17-May-2020 4908.51 5052.76 67.28 8.00  39.38 2569.17
   22:50:11.106.17-May-2020 4908.51 5045.80 67.28 8.00  39.58 2569.17
   22:50:11.306.17-May-2020 4908.51 5038.82 67.28 8.00  39.78 2569.17
   22:50:11.506.17-May-2020 4908.51 5075.99 67.28 8.00  39.98 2569.17
   22:50:11.706.17-May-2020 4908.51 5075.99 67.28 8.00  40.18 2569.17
   22:50:11.906.17-May-2020 4908.51 3459.93 67.28 8.00  40.38 2569.17
   22:50:12.106.17-May-2020 4908.51 2575.70 67.28 8.00  40.58 2569.17
   22:50:12.306.17-May-2020 4908.51 1813.74 67.28 8.00  40.78 2569.17
   22:50:12.506.17-May-2020 4908.51 1104.16 67.28 8.00  40.98 2569.17
   22:50:12.705.17-May-2020 4908.51 1104.16 67.28 8.00  41.18 2569.17
   22:50:12.905.17-May-2020 4908.51   68.90 67.28 8.00  41.38 2569.17
   22:50:13.105.17-May-2020 4908.51   43.27 67.28 8.00  41.58 2569.17
   22:50:13.305.17-May-2020 4908.51   41.52 67.27 8.00  41.78 2569.17
   22:50:13.505.17-May-2020 4908.51   40.38 67.27 8.00  41.98 2569.17
   22:50:13.705.17-May-2020 4908.51   40.38 67.27 8.00  42.18 2569.17
   22:50:13.905.17-May-2020 4908.51   39.09 67.26 8.00  42.38 2569.17
   22:50:14.105.17-May-2020 4908.51   38.57 67.26 8.00  42.58 2569.17
   22:50:14.305.17-May-2020 4908.51   38.14 67.26 8.00  42.78 2569.17
   22:50:14.505.17-May-2020 4908.51   37.89 67.25 8.00  42.98 2569.17
   22:50:14.704.17-May-2020 4908.51   37.89 67.25 8.00  43.18 2569.17
   22:50:14.904.17-May-2020 4908.51   37.41 67.25 8.00  43.38 2569.17
   22:50:15.104.17-May-2020 4908.51   37.24 67.24 8.00  43.58 2569.17
   22:50:15.304.17-May-2020 4908.51   37.11 67.24 8.00  43.78 2569.17
   22:50:15.504.17-May-2020 4908.51   37.00 67.23 8.00  43.98 2569.17
   22:50:15.704.17-May-2020 4908.51   37.00 67.23 8.00  44.18 2569.17
   22:50:15.904.17-May-2020 4908.51   36.75 67.22 8.00  44.38 2569.17
   22:50:16.104.17-May-2020 4908.51   36.65 67.22 8.00  44.58 2569.17
   22:50:16.304.17-May-2020 4908.51   36.55 67.22 8.00  44.78 2569.17
   22:50:16.504.17-May-2020 4908.51   36.47 67.21 8.00  44.98 2569.17
   22:50:16.703.17-May-2020 4908.51   36.39 67.21 8.00  45.18 2569.17
   22:50:16.903.17-May-2020 4908.51   36.31 67.20 8.00  45.38 2569.17
   22:50:17.103.17-May-2020 4908.51   36.20 67.20 8.00  45.58 2569.17
   22:50:17.303.17-May-2020 4908.51   36.13 67.20 8.00  45.78 2569.17
