~Version Information
 VERS.                  2.0:   CWLS log ASCII Standard -VERSION 2.0
 WRAP.                   NO:   One line per depth step
~Well Information Block
#MNEM.UNIT     VALUE/NAME     DESCRIPTION
#---------     -----------    ---------------------------
 STRT.S             21:13:20 18-May-20: START TIME 21:13:20 18-May-20
 STOP.S             21:20:25 18-May-20: STOP TIME  21:20:25 18-May-20
 STEP.S                   0.00: STEP TIME
 NULL.                 -999.25: NULL VALUE
 UNIT.                     N/A:  LOGGING EQUIPMENT ID
 DCON.         Sperry Drilling:  DIRECTNL CONTR
 DOE .                     N/A:  DOE NUMBER
 JOBN.        AZ-XX-0906252240:  JOB TICKET NUMB
 MWDS.                     N/A:  MWD SHOP
 PROV.                    Baku:  PROVINCE
 STAT.                    Baku:  STATE NAME
 REGN.                   EESSA:  REGION
 BASE.              Azerbaijan:  LOGGING EQUIPMENT BASE LOCATION
 UWI .                     N/A:  UNIQUE WELL IDENTIFIER
 API .                     N/A:  API NUMBER
 MDS .        Operator Entered:  MAG DATA SOURCE
 WTYP.                Deviated:  WELL TYPE
 COMP.     BP Exploration (Caspian Sea) Ltd.:  COMPANY
 SRVC.          Turan Drilling:  CONTRACTOR
 WELL.           J23 (Slot 07):  WELL NAME
 CTRY.              Azerbaijan:  COUNTRY NAME
 FLD .                     ACG:  FIELD NAME
 PDAT.          Mean Sea Level:  PERMANENT DATUM
 RIG .             West Chirag:  RIG NAME
 SON .        AZ-XX-0906252240:  JOB NUMBER
 FTOP.          Formation Tops:  FORM TOPS DESC
 ILTD.               Lithology:  INTERP LTH DESC
 SVYD.                  Survey:  SURVEY DESC
 DMOD.             Drill Model:  DRILL MOD DESC
 HPTY.       Minimum Curvature:  HOLE POS TYPE
 NREF.                    Grid:  NORTH REFERENCE
 SPUD.               27-Aug-20:  SPUD DATE
 DATE.      00.00.00 19-May-20:  END TIME
 STIM.      03.00.00 25-Mar-20:  START TIME
 DMF .             Drill Floor:  DRILL MEAS FROM
 DFST.                        :  DIST FSL TEXT
 DFWT.                        :  DIST FWL TEXT
 CNTY.                        :  COUNTY
 LOC .                        :  LOCATION
 LMF .             Drill Floor:  LOG MEASURED FROM
 VSNS.m                   9.43:  VERT SEC N/S
 VSEW.m                  -8.91:  VERT SEC E/W
 AGAP.m                  43.00:  AIR GAP
 DEP .m                 354.17:  DEPTH
 APD .m                  43.00:  DEPTH ABOVE PD
 WDMS.m                 169.80:  WD ELEV
 EGL .m                   0.00:  GROUND ELEVATION
 EPD .m                   0.00:  ELEVATION
 AZTC.deg                 6.31:  AZM TOTAL CORR
 GRDC.deg                 0.14:  GRID CORRECTION
 MDEC.deg                 6.45:  MAGNETIC DECL
 MDIP.deg                59.56:  MAGNETIC DIP
 MFLD.nT              50295.00:  MAGNETIC FIELD
 GVFD.g                   1.00:  GRAVITY FIELD
 VSDR.deg               179.88:  VERT SEC DIRECT
 TDD .m                5150.01:  TOTAL DEPTH (DRILLER)
 SDEP.m                 864.00:  START DEPTH
 DFSL.m                   0.00:  DISTANCE FSL
 DFWL.m                   0.00:  DISTANCE FWL
 UTMY.m             4443793.85:  UTM Y
 UTMX.m              519005.06:  UTM X
 WHEW.m                  -8.91:  WELL HEAD E/W
 WHNS.m                   9.43:  WELL HEAD N/S
 LONG.deg                51.22:  LONGITUDE
 LATI.deg                40.13:  LATITUDE
 TVDS.m                  43.00:  TVDSS CORRECTN
 EKB .m                   0.00:  KB ELEVATION
 EDF .m                  43.00:  DF ELEVATION
 TDL .m                 363.00:  TOTAL DEPTH (LOGGER)
 MAGU.                 1850802:  MAGUTM CHECKSUM
 VSC .                       0:  VS TO CLOSURE
~Parameter Information Block
#MNEM.UNIT       Value        Description
#---------     -----------    ---------------------------
 AV  .mps                 2.30:  Ann Velocity 
 AVMX.mps                 4.40:  Max Ann Veloc 
 AZIF.deg               110.24:  Azm, Final 
 BHAT.        Rotary Steerable:  BHA Type 
 BREV.rev               331.00:  Rev Bit Total 
 BROT.°/30m               0.00:  Build Rotating 
 BS  .in                  8.50:  Bit Size 
 BSZ .in                  8.50:  Bit Size 
 BTPL.psig              585.00:  Bit Press Loss 
 CABU.                     Yes:  Customer Abuse 
 TCS .hr                122.75:  Time Ciculation Ended 
 CV  .mps                 2.67:  Crit Velocity 
 CVMX.mps                 3.56:  Max Crit Veloc 
 DD1 .          Rashad Habibov:  Direct Drillr 1 
 DD2 .         Rasim Ibrahimov:  Direct Drillr 2 
 DDSV.               Geo-Pilot:  DD Service 
 DEFF.%                  98.00:  % Det Eff 
 DLRX.°/30m               0.75:  Dogleg Rot Max 
 DLSO.°/30m               1.25:  Dogleg Oriented 
 DLSX.°/30m               2.06:  Dogleg Str Max 
 DRET.      07.45.00 17-May-20:  Drill End Time 
 DRST.      22.50.00 15-May-20:  Drill Start Tim 
 DTIM.hr                 20.75:  Time Drilling 
 EDEP.m                5124.01:  End Depth 
 ENG1.           Eldar Hajiyev:  Engineer 1 
 ENG2.        Marcelo Sandoval:  Engineer 2 
 ENG3.        Davud huseynzada:  Engineer 3 
 ENG4.          Ruslan Safarov:  Engineer 4 
 ETIM.      04.33.00 23-May-20:  End Time 
 FLOI.gpm               450.00:  Flow In 
 FLON.gpm               400.00:  Flow In Min 
 FLOS.cptm                0.00:  Fluid Loss 
 FLOX.gpm               500.00:  Flow In Max 
 FTRO.       Formation Presure:  FTWD Run Obj 
 HFLO.                      No:  High Flow 
 HPRE.                     Yes:  High Pressure 
 HTEM.                      No:  High Temp 
 HYDO.m                   1.80:  Hydro Offset 
 IFIN.deg                75.06:  Inc, Final 
 IMAX.deg                75.38:  Inc Max 
 IMIN.deg                74.69:  Inc Min 
 IMND.m                5027.38:  Inc Min Depth 
 IMXD.m                4771.61:  Inc Max Depth 
 JARR.                      No:  Jarring 
 LETM.      07.45.00 17-May-20:  Log End Time 
 LOST.hr                     0:  Lost Rig Time 
 LSTM.      22.50.00 15-May-20:  Log Start Time 
 MDCL.ppm             42000.00:  Mud Chlorides 
 MDES.     Inversion Oil/Synthetic:  Mud Desc 
 DFD .sg                  1.34:  Mud Density 
 MDMN.sg                  1.34:  Dens Mud Min 
 MDMX.sg                  1.34:  Dens Mud Max 
 MOIL.                       0:  Run Mud Oil % 
 MOWR.                   67:33:  Run Mud OWR 
 MSND.                       0:  Run Mud Sand % 
 MSOL.                     1.8:  Run Mud Solids% 
 DFV .spqt               76.00:  Mud Viscosity 
 MWOD.in                  6.75:  MWD Tool OD 
 MWSI.                      No:  Serv Intrp, MWD 
 OTIM.hr                228.19:  Time Operating 
 PCON.           Look Like New:  Pad Condition 
 PMAX.psia             6164.70:  Press Op, Max 
 PV  .cP                 28.00:  Mud PV 
 RUN .                     900:  Run Number 
 ROPA.m/hr               19.00:  ROP Avg 
 ROPN.m/hr               11.00:  ROP Min 
 ROPX.m/hr               36.00:  ROP Max 
 RPMA.rpm               120.00:  RPM Surface Avg 
 RPMN.rpm               120.00:  RPM Surface Min 
 RPMX.rpm               120.00:  RPM Surface Max 
 RRUN.                    L604:  Rig Run Number 
 RTIM.hr                  7.00:  Time Reaming 
 SAZI.deg               109.27:  Azm, Start 
 SDEP.m                4761.01:  Start Depth 
 SIDD.                      No:  Serv Intrp, DD 
 SINC.deg                75.38:  Inc, Start 
 SPPA.psig             3574.00:  SPP Avg 
 SPPN.psig             3475.00:  SPP Min 
 SPPX.psig             3791.00:  SPP Max 
 STIM.      07.08.48 13-May-20:  Start Time 
 SVCS.                 DD, MWD:  Services 
 SVER.                    9.20:  Sperry Version 
 TDAT.m                 363.00:  Tot Depth Attmp 
 TDDF.                      No:  Trip for DD 
 TDLG.m                 363.00:  Tot Depth Loggd 
 TFF .                      No:  Trip for Fail 
 TQAA.f-kp               20.00:  Torque Abs Avg 
 TQAN.f-kp               18.00:  Torque Abs Min 
 TQAX.f-kp               22.00:  Torque Abs Max 
 TRRT.°/30m              -0.35:  Turn Rotating 
 MRT .                    HCIM:  Maximum Recorded Temperature 
 TTMX.degC               92.16:  Max Tool Temp 
 VS01.                90586518:  Virtual Str1 SN 
 VS02.        AZ90560654Z1W1C6:  Virtual Str2 SN 
 VS03.           AZ90610398F11:  Virtual Str3 SN 
 VS04.                90514975:  Virtual Str4 SN 
 VS05.                90514972:  Virtual Str5 SN 
 VS06.     AZ90603282F11V7D1A6:  Virtual Str6 SN 
 WBMN.klb                 7.00:  WOB Min 
 WOBA.klb                12.00:  WOB Avg 
 WOBX.klb                14.00:  WOB Max 
 YP  .lhf2               32.00:  Yield Point 
~Curve Information Block
#MNEM.UNIT                 API CODE     Curve Description
#---------               -----------    ---------------------------
 TIME.HHMMSS            00 000 000 000:  GT Time & Date
 GTDEPTH.m              00 000 000 000:  GT Depth
 GTPQH.psia             00 000 000 000:  GT HR Quartz Pressure
 GTTQ.degC              00 000 000 000:  GT Quartz Temperature
 GTTN.NONE              00 000 000 000:  GT Test Number
 GTET.sec               00 000 000 000:  GT Elapsed Test Time
 GTTVD.m                00 000 000 000:  GT True Vertical Depth
#Other Information
#
#WARRANTY: Halliburton will use its best efforts to furnish customers with 
#accurate information and interpretations that are part of, and incident to, the services 
#provided.  However, Halliburton cannot and does not warrant the accuracy 
#or correctness of such information and interpretations.  Under no circumstances should any 
#such information or interpretation be relied upon as the sole basis for any drilling, 
#completion, production, or financial decision or any procedure involving any risk to the 
#safety of any drilling venture, drilling rig or its crew or any other third party.  The 
#Customer has full responsibility for all drilling, completion and production operation.  
#Halliburton makes no representations or warranties, either expressed or 
#implied, including, but not limited to, the implied warranties of merchantability or fitness 
#for a particular purpose, with respect to the services rendered.  In no event will 
#Halliburton be liable for failure to obtain any particular results or for 
#any damages, including, but not limited to, indirect, special or consequential damages, 
#resulting from the use of any information or interpretation provided by Halliburton.
#
~A           TIME           GTDEPTH  GTPQH  GTTQ  GTTN   GTET   GTTVD  
# ...
   21:17:51.737.18-May-2020 4766.01 5452.15 60.62 14.00 271.27 2532.29
   21:17:51.937.18-May-2020 4766.01 5484.67 60.62 14.00 271.47 2532.29
   21:17:52.138.18-May-2020 4766.01 5483.23 60.62 14.00 271.67 2532.29
   21:17:52.338.18-May-2020 4766.01 5497.59 60.62 14.00 271.87 2532.29
   21:17:52.538.18-May-2020 4766.01 5488.83 60.62 14.00 272.07 2532.29
   21:17:52.738.18-May-2020 4766.01 5488.83 60.62 14.00 272.27 2532.29
   21:17:52.938.18-May-2020 4766.01 5503.89 60.62 14.00 272.47 2532.29
   21:17:53.138.18-May-2020 4766.01 5498.28 60.62 14.00 272.67 2532.29
   21:17:53.338.18-May-2020 4766.01 5493.53 60.62 14.00 272.87 2532.29
   21:17:53.538.18-May-2020 4766.01 5492.15 60.62 14.00 273.07 2532.29
   21:17:53.738.18-May-2020 4766.01 5492.15 60.62 14.00 273.27 2532.29
   21:17:53.938.18-May-2020 4766.01 5503.14 60.62 14.00 273.47 2532.29
   21:17:54.138.18-May-2020 4766.01 5494.17 60.62 14.00 273.67 2532.29
   21:17:54.338.18-May-2020 4766.01 5496.82 60.62 14.00 273.87 2532.29
   21:17:54.538.18-May-2020 4766.01 5511.56 60.62 14.00 274.07 2532.29
   21:17:54.738.18-May-2020 4766.01 5504.03 60.62 14.00 274.27 2532.29
   21:17:54.938.18-May-2020 4766.01 5497.53 60.62 14.00 274.47 2532.29
   21:17:55.138.18-May-2020 4766.01 5496.78 60.62 14.00 274.67 2532.29
   21:17:55.338.18-May-2020 4766.01 5508.93 60.62 14.00 274.87 2532.29
   21:17:55.538.18-May-2020 4766.01 5502.11 60.62 14.00 275.07 2532.29
   21:17:55.739.18-May-2020 4766.01 5502.11 60.62 14.00 275.27 2532.29
   21:17:55.939.18-May-2020 4766.01 5498.84 60.62 14.00 275.47 2532.29
   21:17:56.139.18-May-2020 4766.01 5502.52 60.62 14.00 275.67 2532.29
   21:17:56.339.18-May-2020 4766.01 5500.91 60.62 14.00 275.87 2532.29
   21:17:56.539.18-May-2020 4766.01 5512.26 60.62 14.00 276.07 2532.29
   21:17:56.739.18-May-2020 4766.01 5512.26 60.62 14.00 276.27 2532.29
   21:17:56.939.18-May-2020 4766.01 5501.81 60.62 14.00 276.47 2532.29
   21:17:57.139.18-May-2020 4766.01 5499.77 60.62 14.00 276.67 2532.29
   21:17:57.339.18-May-2020 4766.01 5509.28 60.62 14.00 276.87 2532.29
   21:17:57.539.18-May-2020 4766.01 5500.91 60.62 14.00 277.07 2532.29
   21:17:57.739.18-May-2020 4766.01 5500.91 60.62 14.00 277.27 2532.29
   21:17:57.939.18-May-2020 4766.01 5501.65 60.62 14.00 277.47 2532.29
   21:17:58.139.18-May-2020 4766.01 5503.79 60.62 14.00 277.67 2532.29
   21:17:58.339.18-May-2020 4766.01 5502.25 60.62 14.00 277.87 2532.29
   21:17:58.539.18-May-2020 4766.01 5501.40 60.62 14.00 278.07 2532.29
   21:17:58.739.18-May-2020 4766.01 5515.14 60.62 14.00 278.27 2532.29
   21:17:58.939.18-May-2020 4766.01 5498.88 60.62 14.00 278.47 2532.29
   21:17:59.139.18-May-2020 4766.01 5501.92 60.62 14.00 278.67 2532.29
   21:17:59.339.18-May-2020 4766.01 5501.08 60.62 14.00 278.87 2532.29
   21:17:59.540.18-May-2020 4766.01 5521.00 60.62 14.00 279.07 2532.29
   21:17:59.740.18-May-2020 4766.01 5521.00 60.62 14.00 279.27 2532.29
   21:17:59.940.18-May-2020 4766.01 5502.04 60.62 14.00 279.47 2532.29
   21:18:00.140.18-May-2020 4766.01 5502.00 60.62 14.00 279.67 2532.29
   21:18:00.340.18-May-2020 4766.01 5528.46 60.62 14.00 279.87 2532.29
   21:18:00.540.18-May-2020 4766.01 5500.35 60.62 14.00 280.07 2532.29
   21:18:00.740.18-May-2020 4766.01 5500.35 60.62 14.00 280.27 2532.29
   21:18:00.940.18-May-2020 4766.01 5515.41 60.62 14.00 280.47 2532.29
   21:18:01.140.18-May-2020 4766.01 5513.60 60.62 14.00 280.67 2532.29
   21:18:01.340.18-May-2020 4766.01 5505.89 60.62 14.00 280.87 2532.29
   21:18:01.540.18-May-2020 4766.01 5501.07 60.62 14.00 281.07 2532.29
   21:18:01.740.18-May-2020 4766.01 5501.07 60.62 14.00 281.27 2532.29
   21:18:01.940.18-May-2020 4766.01 5508.61 60.62 14.00 281.47 2532.29
   21:18:02.140.18-May-2020 4766.01 5505.78 60.62 14.00 281.67 2532.29
   21:18:02.340.18-May-2020 4766.01 5504.49 60.62 14.00 281.87 2532.29
   21:18:02.540.18-May-2020 4766.01 5507.51 60.62 14.00 282.07 2532.29
   21:18:02.740.18-May-2020 4766.01 5507.66 60.62 14.00 282.27 2532.29
   21:18:02.940.18-May-2020 4766.01 5517.37 60.62 14.00 282.48 2532.29
   21:18:03.140.18-May-2020 4766.01 5504.79 60.62 14.00 282.68 2532.29
   21:18:03.341.18-May-2020 4766.01 5506.74 60.62 14.00 282.88 2532.29
   21:18:03.541.18-May-2020 4766.01 5505.74 60.62 14.00 283.08 2532.29
   21:18:03.741.18-May-2020 4766.01 5505.74 60.62 14.00 283.28 2532.29
   21:18:03.941.18-May-2020 4766.01 5509.15 60.62 14.00 283.48 2532.29
   21:18:04.141.18-May-2020 4766.01 5506.57 60.62 14.00 283.68 2532.29
   21:18:04.341.18-May-2020 4766.01 5506.48 60.62 14.00 283.88 2532.29
   21:18:04.541.18-May-2020 4766.01 5508.77 60.62 14.00 284.08 2532.29
   21:18:04.741.18-May-2020 4766.01 5508.77 60.62 14.00 284.28 2532.29
   21:18:04.941.18-May-2020 4766.01 5507.46 60.62 14.00 284.48 2532.29
   21:18:05.141.18-May-2020 4766.01 5512.00 60.62 14.00 284.68 2532.29
   21:18:05.341.18-May-2020 4766.01 5514.51 60.62 14.00 284.88 2532.29
   21:18:05.541.18-May-2020 4766.01 5508.01 60.62 14.00 285.08 2532.29
   21:18:05.741.18-May-2020 4766.01 5508.01 60.62 14.00 285.28 2532.29
   21:18:05.941.18-May-2020 4766.01 5515.44 60.62 14.00 285.48 2532.29
   21:18:06.141.18-May-2020 4766.01 5524.33 60.62 14.00 285.68 2532.29
   21:18:06.341.18-May-2020 4766.01 5510.03 60.62 14.00 285.88 2532.29
   21:18:06.541.18-May-2020 4766.01 5511.11 60.62 14.00 286.08 2532.29
   21:18:06.741.18-May-2020 4766.01 5514.26 60.62 14.00 286.28 2532.29
   21:18:06.941.18-May-2020 4766.01 5523.38 60.62 14.00 286.48 2532.29
   21:18:07.142.18-May-2020 4766.01 5526.36 60.62 14.00 286.68 2532.29
   21:18:07.342.18-May-2020 4766.01 5510.15 60.62 14.00 286.88 2532.29
   21:18:07.542.18-May-2020 4766.01 5515.57 60.62 14.00 287.08 2532.29
   21:18:07.742.18-May-2020 4766.01 5530.20 60.62 14.00 287.28 2532.29
   21:18:07.942.18-May-2020 4766.01 5522.27 60.62 14.00 287.48 2532.29
   21:18:08.142.18-May-2020 4766.01 5514.40 60.62 14.00 287.68 2532.29
   21:18:08.342.18-May-2020 4766.01 5514.74 60.62 14.00 287.88 2532.29
   21:18:08.542.18-May-2020 4766.01 5526.97 60.62 14.00 288.08 2532.29
   21:18:08.742.18-May-2020 4766.01 5526.97 60.62 14.00 288.28 2532.29
   21:18:08.942.18-May-2020 4766.01 5515.03 60.62 14.00 288.48 2532.29
   21:18:09.142.18-May-2020 4766.01 5516.15 60.62 14.00 288.68 2532.29
   21:18:09.342.18-May-2020 4766.01 5519.19 60.62 14.00 288.88 2532.29
   21:18:09.542.18-May-2020 4766.01 5516.58 60.62 14.00 289.08 2532.29
   21:18:09.742.18-May-2020 4766.01 5516.58 60.62 14.00 289.28 2532.29
   21:18:09.942.18-May-2020 4766.01 5512.64 60.62 14.00 289.48 2532.29
   21:18:10.142.18-May-2020 4766.01 5517.31 60.62 14.00 289.68 2532.29
   21:18:10.342.18-May-2020 4766.01 5515.21 60.62 14.00 289.88 2532.29
   21:18:10.542.18-May-2020 4766.01 5525.45 60.62 14.00 290.08 2532.29
   21:18:10.742.18-May-2020 4766.01 5514.67 60.62 14.00 290.28 2532.29
   21:18:10.943.18-May-2020 4766.01 5514.11 60.62 14.00 290.48 2532.29
   21:18:11.143.18-May-2020 4766.01 5514.43 60.62 14.00 290.68 2532.29
   21:18:11.343.18-May-2020 4766.01 5515.40 60.62 14.00 290.88 2532.29
   21:18:11.543.18-May-2020 4766.01 5511.72 60.62 14.00 291.08 2532.29
   21:18:11.743.18-May-2020 4766.01 5511.72 60.62 14.00 291.28 2532.29
   21:18:11.943.18-May-2020 4766.01 5521.69 60.62 14.00 291.48 2532.29
   21:18:12.143.18-May-2020 4766.01 5509.99 60.62 14.00 291.68 2532.29
   21:18:12.343.18-May-2020 4766.01 5510.33 60.62 14.00 291.88 2532.29
   21:18:12.543.18-May-2020 4766.01 5509.62 60.62 14.00 292.08 2532.29
   21:18:12.743.18-May-2020 4766.01 5522.48 60.62 14.00 292.28 2532.29
   21:18:12.943.18-May-2020 4766.01 5517.67 60.62 14.00 292.48 2532.29
   21:18:13.143.18-May-2020 4766.01 5509.78 60.62 14.00 292.68 2532.29
   21:18:13.343.18-May-2020 4766.01 5510.01 60.62 14.00 292.88 2532.29
   21:18:13.543.18-May-2020 4766.01 5527.94 60.62 14.00 293.08 2532.29
   21:18:13.743.18-May-2020 4766.01 5527.94 60.62 14.00 293.28 2532.29
   21:18:13.943.18-May-2020 4766.01 5511.14 60.62 14.00 293.48 2532.29
   21:18:14.143.18-May-2020 4766.01 5518.59 60.62 14.00 293.68 2532.29
