~Version Information
 VERS.                  2.0:   CWLS log ASCII Standard -VERSION 2.0
 WRAP.                   NO:   One line per depth step
~Well Information Block
#MNEM.UNIT     VALUE/NAME     DESCRIPTION
#---------     -----------    ---------------------------
 STRT.S             17:25:16 17-May-20: START TIME 17:25:16 17-May-20
 STOP.S             17:32:20 17-May-20: STOP TIME  17:32:20 17-May-20
 STEP.S                   0.00: STEP TIME
 NULL.                 -999.25: NULL VALUE
 UNIT.                     N/A:  LOGGING EQUIPMENT ID
 DCON.         Sperry Drilling:  DIRECTNL CONTR
 DOE .                     N/A:  DOE NUMBER
 JOBN.        AZ-XX-0906252240:  JOB TICKET NUMB
 MWDS.                     N/A:  MWD SHOP
 PROV.                    Baku:  PROVINCE
 STAT.                    Baku:  STATE NAME
 REGN.                   EESSA:  REGION
 BASE.              Azerbaijan:  LOGGING EQUIPMENT BASE LOCATION
 UWI .                     N/A:  UNIQUE WELL IDENTIFIER
 API .                     N/A:  API NUMBER
 MDS .        Operator Entered:  MAG DATA SOURCE
 WTYP.                Deviated:  WELL TYPE
 COMP.     BP Exploration (Caspian Sea) Ltd.:  COMPANY
 SRVC.          Turan Drilling:  CONTRACTOR
 WELL.           J23 (Slot 07):  WELL NAME
 CTRY.              Azerbaijan:  COUNTRY NAME
 FLD .                     ACG:  FIELD NAME
 PDAT.          Mean Sea Level:  PERMANENT DATUM
 RIG .             West Chirag:  RIG NAME
 SON .        AZ-XX-0906252240:  JOB NUMBER
 FTOP.          Formation Tops:  FORM TOPS DESC
 ILTD.               Lithology:  INTERP LTH DESC
 SVYD.                  Survey:  SURVEY DESC
 DMOD.             Drill Model:  DRILL MOD DESC
 HPTY.       Minimum Curvature:  HOLE POS TYPE
 NREF.                    Grid:  NORTH REFERENCE
 SPUD.               27-Aug-20:  SPUD DATE
 DATE.      00.00.00 19-May-20:  END TIME
 STIM.      03.00.00 25-Mar-20:  START TIME
 DMF .             Drill Floor:  DRILL MEAS FROM
 DFST.                        :  DIST FSL TEXT
 DFWT.                        :  DIST FWL TEXT
 CNTY.                        :  COUNTY
 LOC .                        :  LOCATION
 LMF .             Drill Floor:  LOG MEASURED FROM
 VSNS.m                   9.43:  VERT SEC N/S
 VSEW.m                  -8.91:  VERT SEC E/W
 AGAP.m                  43.00:  AIR GAP
 DEP .m                 354.17:  DEPTH
 APD .m                  43.00:  DEPTH ABOVE PD
 WDMS.m                 169.80:  WD ELEV
 EGL .m                   0.00:  GROUND ELEVATION
 EPD .m                   0.00:  ELEVATION
 AZTC.deg                 6.31:  AZM TOTAL CORR
 GRDC.deg                 0.14:  GRID CORRECTION
 MDEC.deg                 6.45:  MAGNETIC DECL
 MDIP.deg                59.56:  MAGNETIC DIP
 MFLD.nT              50295.00:  MAGNETIC FIELD
 GVFD.g                   1.00:  GRAVITY FIELD
 VSDR.deg               179.88:  VERT SEC DIRECT
 TDD .m                5150.01:  TOTAL DEPTH (DRILLER)
 SDEP.m                 864.00:  START DEPTH
 DFSL.m                   0.00:  DISTANCE FSL
 DFWL.m                   0.00:  DISTANCE FWL
 UTMY.m             4443793.85:  UTM Y
 UTMX.m              519005.06:  UTM X
 WHEW.m                  -8.91:  WELL HEAD E/W
 WHNS.m                   9.43:  WELL HEAD N/S
 LONG.deg                51.22:  LONGITUDE
 LATI.deg                40.13:  LATITUDE
 TVDS.m                  43.00:  TVDSS CORRECTN
 EKB .m                   0.00:  KB ELEVATION
 EDF .m                  43.00:  DF ELEVATION
 TDL .m                 363.00:  TOTAL DEPTH (LOGGER)
 MAGU.                 1850802:  MAGUTM CHECKSUM
 VSC .                       0:  VS TO CLOSURE
~Parameter Information Block
#MNEM.UNIT       Value        Description
#---------     -----------    ---------------------------
 AV  .mps                 2.30:  Ann Velocity 
 AVMX.mps                 4.40:  Max Ann Veloc 
 AZIF.deg               110.24:  Azm, Final 
 BHAT.        Rotary Steerable:  BHA Type 
 BREV.rev               331.00:  Rev Bit Total 
 BROT.°/30m               0.00:  Build Rotating 
 BS  .in                  8.50:  Bit Size 
 BSZ .in                  8.50:  Bit Size 
 BTPL.psig              585.00:  Bit Press Loss 
 CABU.                     Yes:  Customer Abuse 
 COMM.                     |n\:  Run Comments 1 
 TCS .hr                122.75:  Time Ciculation Ended 
 CV  .mps                 2.67:  Crit Velocity 
 CVMX.mps                 3.56:  Max Crit Veloc 
 DD1 .          Rashad Habibov:  Direct Drillr 1 
 DD2 .         Rasim Ibrahimov:  Direct Drillr 2 
 DDSV.               Geo-Pilot:  DD Service 
 DEFF.%                  98.00:  % Det Eff 
 DLRX.°/30m               0.75:  Dogleg Rot Max 
 DLSO.°/30m               1.25:  Dogleg Oriented 
 DLSX.°/30m               2.06:  Dogleg Str Max 
 DRET.      07.45.00 17-May-20:  Drill End Time 
 DRST.      22.50.00 15-May-20:  Drill Start Tim 
 DTIM.hr                 20.75:  Time Drilling 
 EDEP.m                5124.01:  End Depth 
 ENG1.           Eldar Hajiyev:  Engineer 1 
 ENG2.        Marcelo Sandoval:  Engineer 2 
 ENG3.        Davud huseynzada:  Engineer 3 
 ENG4.          Ruslan Safarov:  Engineer 4 
 ETIM.      04.33.00 23-May-20:  End Time 
 FLOI.gpm               450.00:  Flow In 
 FLON.gpm               400.00:  Flow In Min 
 FLOS.cptm                0.00:  Fluid Loss 
 FLOX.gpm               500.00:  Flow In Max 
 FTRO.       Formation Presure:  FTWD Run Obj 
 HFLO.                      No:  High Flow 
 HPRE.                     Yes:  High Pressure 
 HTEM.                      No:  High Temp 
 HYDO.m                   1.80:  Hydro Offset 
 IFIN.deg                75.06:  Inc, Final 
 IMAX.deg                75.38:  Inc Max 
 IMIN.deg                74.69:  Inc Min 
 IMND.m                5027.38:  Inc Min Depth 
 IMXD.m                4771.61:  Inc Max Depth 
 JARR.                      No:  Jarring 
 LETM.      07.45.00 17-May-20:  Log End Time 
 LOST.hr                     0:  Lost Rig Time 
 LSTM.      22.50.00 15-May-20:  Log Start Time 
 MDCL.ppm             42000.00:  Mud Chlorides 
 MDES.     Inversion Oil/Synthetic:  Mud Desc 
 DFD .sg                  1.34:  Mud Density 
 MDMN.sg                  1.34:  Dens Mud Min 
 MDMX.sg                  1.34:  Dens Mud Max 
 MOIL.                       0:  Run Mud Oil % 
 MOWR.                   67:33:  Run Mud OWR 
 MSND.                       0:  Run Mud Sand % 
 MSOL.                     1.8:  Run Mud Solids% 
 DFV .spqt               76.00:  Mud Viscosity 
 MWOD.in                  6.75:  MWD Tool OD 
 MWSI.                      No:  Serv Intrp, MWD 
 OTIM.hr                228.19:  Time Operating 
 PCON.           Look Like New:  Pad Condition 
 PMAX.psia             6164.70:  Press Op, Max 
 PV  .cP                 28.00:  Mud PV 
 RUN .                     900:  Run Number 
 ROPA.m/hr               19.00:  ROP Avg 
 ROPN.m/hr               11.00:  ROP Min 
 ROPX.m/hr               36.00:  ROP Max 
 RPMA.rpm               120.00:  RPM Surface Avg 
 RPMN.rpm               120.00:  RPM Surface Min 
 RPMX.rpm               120.00:  RPM Surface Max 
 RRUN.                    L604:  Rig Run Number 
 RTIM.hr                  7.00:  Time Reaming 
 SAZI.deg               109.27:  Azm, Start 
 SDEP.m                4761.01:  Start Depth 
 SIDD.                      No:  Serv Intrp, DD 
 SINC.deg                75.38:  Inc, Start 
 SPPA.psig             3574.00:  SPP Avg 
 SPPN.psig             3475.00:  SPP Min 
 SPPX.psig             3791.00:  SPP Max 
 STIM.      07.08.48 13-May-20:  Start Time 
 SVCS.                 DD, MWD:  Services 
 SVER.                    9.20:  Sperry Version 
 TDAT.m                 363.00:  Tot Depth Attmp 
 TDDF.                      No:  Trip for DD 
 TDLG.m                 363.00:  Tot Depth Loggd 
 TFF .                      No:  Trip for Fail 
 TQAA.f-kp               20.00:  Torque Abs Avg 
 TQAN.f-kp               18.00:  Torque Abs Min 
 TQAX.f-kp               22.00:  Torque Abs Max 
 TRRT.°/30m              -0.35:  Turn Rotating 
 MRT .                    HCIM:  Maximum Recorded Temperature 
 TTMX.degC               92.16:  Max Tool Temp 
 VS01.                90586518:  Virtual Str1 SN 
 VS02.        AZ90560654Z1W1C6:  Virtual Str2 SN 
 VS03.           AZ90610398F11:  Virtual Str3 SN 
 VS04.                90514975:  Virtual Str4 SN 
 VS05.                90514972:  Virtual Str5 SN 
 VS06.     AZ90603282F11V7D1A6:  Virtual Str6 SN 
 WBMN.klb                 7.00:  WOB Min 
 WOBA.klb                12.00:  WOB Avg 
 WOBX.klb                14.00:  WOB Max 
 YP  .lhf2               32.00:  Yield Point 
~Curve Information Block
#MNEM.UNIT                 API CODE     Curve Description
#---------               -----------    ---------------------------
 TIME.HHMMSS            00 000 000 000:  GT Time & Date
 GTDEPTH.m              00 000 000 000:  GT Depth
 GTPQH.psia             00 000 000 000:  GT HR Quartz Pressure
 GTTQ.degC              00 000 000 000:  GT Quartz Temperature
 GTTN.NONE              00 000 000 000:  GT Test Number
 GTET.sec               00 000 000 000:  GT Elapsed Test Time
 GTTVD.m                00 000 000 000:  GT True Vertical Depth
#Other Information
#
#WARRANTY: Halliburton will use its best efforts to furnish customers with 
#accurate information and interpretations that are part of, and incident to, the services 
#provided.  However, Halliburton cannot and does not warrant the accuracy 
#or correctness of such information and interpretations.  Under no circumstances should any 
#such information or interpretation be relied upon as the sole basis for any drilling, 
#completion, production, or financial decision or any procedure involving any risk to the 
#safety of any drilling venture, drilling rig or its crew or any other third party.  The 
#Customer has full responsibility for all drilling, completion and production operation.  
#Halliburton makes no representations or warranties, either expressed or 
#implied, including, but not limited to, the implied warranties of merchantability or fitness 
#for a particular purpose, with respect to the services rendered.  In no event will 
#Halliburton be liable for failure to obtain any particular results or for 
#any damages, including, but not limited to, indirect, special or consequential damages, 
#resulting from the use of any information or interpretation provided by Halliburton.
#
~A           TIME           GTDEPTH  GTPQH  GTTQ  GTTN  GTET   GTTVD  
# ...
   17:26:25.383.17-May-2020 5032.01 2637.62 70.66 3.00  69.06 2600.96
   17:26:25.583.17-May-2020 5032.01 2637.62 70.66 3.00  69.26 2600.96
   17:26:25.783.17-May-2020 5032.01 2637.79 70.66 3.00  69.46 2600.96
   17:26:25.984.17-May-2020 5032.01 2637.65 70.66 3.00  69.67 2600.96
   17:26:26.184.17-May-2020 5032.01 2637.62 70.66 3.00  69.87 2600.96
   17:26:26.384.17-May-2020 5032.01 2637.71 70.66 3.00  70.07 2600.96
   17:26:26.584.17-May-2020 5032.01 2637.71 70.66 3.00  70.27 2600.96
   17:26:26.784.17-May-2020 5032.01 2637.79 70.66 3.00  70.47 2600.96
   17:26:26.985.17-May-2020 5032.01 2637.83 70.66 3.00  70.67 2600.96
   17:26:27.185.17-May-2020 5032.01 2637.86 70.66 3.00  70.87 2600.96
   17:26:27.385.17-May-2020 5032.01 2637.87 70.66 3.00  71.07 2600.96
   17:26:27.585.17-May-2020 5032.01 2637.87 70.66 3.00  71.27 2600.96
   17:26:27.785.17-May-2020 5032.01 2637.86 70.66 3.00  71.47 2600.96
   17:26:27.986.17-May-2020 5032.01 2637.82 70.66 3.00  71.67 2600.96
   17:26:28.186.17-May-2020 5032.01 2637.67 70.66 3.00  71.87 2600.96
   17:26:28.386.17-May-2020 5032.01 2637.75 70.66 3.00  72.07 2600.96
   17:26:28.586.17-May-2020 5032.01 2637.80 70.66 3.00  72.27 2600.96
   17:26:28.786.17-May-2020 5032.01 2637.83 70.66 3.00  72.47 2600.96
   17:26:28.986.17-May-2020 5032.01 2637.85 70.66 3.00  72.67 2600.96
   17:26:29.187.17-May-2020 5032.01 2637.88 70.66 3.00  72.87 2600.96
   17:26:29.387.17-May-2020 5032.01 2637.92 70.66 3.00  73.07 2600.96
   17:26:29.587.17-May-2020 5032.01 2637.92 70.66 3.00  73.27 2600.96
   17:26:29.787.17-May-2020 5032.01 2637.97 70.66 3.00  73.47 2600.96
   17:26:29.987.17-May-2020 5032.01 2637.81 70.66 3.00  73.67 2600.96
   17:26:30.188.17-May-2020 5032.01 2637.77 70.66 3.00  73.87 2600.96
   17:26:30.388.17-May-2020 5032.01 2637.70 70.66 3.00  74.07 2600.96
   17:26:30.588.17-May-2020 5032.01 2637.70 70.66 3.00  74.27 2600.96
   17:26:30.788.17-May-2020 5032.01 2637.93 70.66 3.00  74.47 2600.96
   17:26:30.988.17-May-2020 5032.01 2637.75 70.66 3.00  74.67 2600.96
   17:26:31.189.17-May-2020 5032.01 2637.81 70.66 3.00  74.87 2600.96
   17:26:31.389.17-May-2020 5032.01 2637.95 70.66 3.00  75.07 2600.96
   17:26:31.589.17-May-2020 5032.01 2637.95 70.66 3.00  75.27 2600.96
   17:26:31.789.17-May-2020 5032.01 2637.79 70.66 3.00  75.47 2600.96
   17:26:31.989.17-May-2020 5032.01 2637.80 70.66 3.00  75.67 2600.96
   17:26:32.189.17-May-2020 5032.01 2637.97 70.66 3.00  75.87 2600.96
   17:26:32.390.17-May-2020 5032.01 2637.80 70.66 3.00  76.07 2600.96
   17:26:32.590.17-May-2020 5032.01 2637.76 70.66 3.00  76.27 2600.96
   17:26:32.790.17-May-2020 5032.01 2637.88 70.66 3.00  76.47 2600.96
   17:26:32.990.17-May-2020 5032.01 2637.87 70.66 3.00  76.67 2600.96
   17:26:33.190.17-May-2020 5032.01 2637.90 70.66 3.00  76.87 2600.96
   17:26:33.391.17-May-2020 5032.01 2637.93 70.66 3.00  77.07 2600.96
   17:26:33.591.17-May-2020 5032.01 2637.93 70.66 3.00  77.27 2600.96
   17:26:33.791.17-May-2020 5032.01 2637.98 70.66 3.00  77.47 2600.96
   17:26:33.991.17-May-2020 5032.01 2638.01 70.66 3.00  77.67 2600.96
   17:26:34.191.17-May-2020 5032.01 2637.97 70.66 3.00  77.87 2600.96
   17:26:34.391.17-May-2020 5032.01 2637.93 70.66 3.00  78.07 2600.96
   17:26:34.592.17-May-2020 5032.01 2637.93 70.66 3.00  78.27 2600.96
   17:26:34.792.17-May-2020 5032.01 2637.83 70.66 3.00  78.47 2600.96
   17:26:34.992.17-May-2020 5032.01 2637.91 70.66 3.00  78.67 2600.96
   17:26:35.192.17-May-2020 5032.01 2637.94 70.66 3.00  78.87 2600.96
   17:26:35.392.17-May-2020 5032.01 2637.95 70.66 3.00  79.07 2600.96
   17:26:35.593.17-May-2020 5032.01 2637.95 70.66 3.00  79.27 2600.96
   17:26:35.793.17-May-2020 5032.01 2638.00 70.66 3.00  79.47 2600.96
   17:26:35.993.17-May-2020 5032.01 2638.04 70.66 3.00  79.67 2600.96
   17:26:36.193.17-May-2020 5032.01 2638.05 70.66 3.00  79.87 2600.96
   17:26:36.393.17-May-2020 5032.01 2638.06 70.66 3.00  80.07 2600.96
   17:26:36.594.17-May-2020 5032.01 2637.91 70.66 3.00  80.28 2600.96
   17:26:36.794.17-May-2020 5032.01 2637.86 70.66 3.00  80.48 2600.96
   17:26:36.994.17-May-2020 5032.01 2638.02 70.66 3.00  80.68 2600.96
   17:26:37.194.17-May-2020 5032.01 2637.97 70.66 3.00  80.88 2600.96
   17:26:37.394.17-May-2020 5032.01 2637.88 70.66 3.00  81.08 2600.96
   17:26:37.594.17-May-2020 5032.01 2637.88 70.66 3.00  81.28 2600.96
   17:26:37.795.17-May-2020 5032.01 2637.94 70.66 3.00  81.48 2600.96
   17:26:37.995.17-May-2020 5032.01 2638.03 70.66 3.00  81.68 2600.96
   17:26:38.195.17-May-2020 5032.01 2637.95 70.66 3.00  81.88 2600.96
   17:26:38.395.17-May-2020 5032.01 2637.89 70.66 3.00  82.08 2600.96
   17:26:38.595.17-May-2020 5032.01 2637.89 70.66 3.00  82.28 2600.96
   17:26:38.796.17-May-2020 5032.01 2638.04 70.66 3.00  82.48 2600.96
   17:26:38.996.17-May-2020 5032.01 2637.97 70.66 3.00  82.68 2600.96
   17:26:39.196.17-May-2020 5032.01 2637.89 70.66 3.00  82.88 2600.96
   17:26:39.396.17-May-2020 5032.01 2637.96 70.66 3.00  83.08 2600.96
   17:26:39.596.17-May-2020 5032.01 2637.96 70.66 3.00  83.28 2600.96
   17:26:39.797.17-May-2020 5032.01 2637.99 70.66 3.00  83.48 2600.96
   17:26:39.997.17-May-2020 5032.01 2638.02 70.66 3.00  83.68 2600.96
   17:26:40.197.17-May-2020 5032.01 2638.05 70.66 3.00  83.88 2600.96
   17:26:40.397.17-May-2020 5032.01 2638.06 70.66 3.00  84.08 2600.96
   17:26:40.597.17-May-2020 5032.01 2638.06 70.66 3.00  84.28 2600.96
   17:26:40.797.17-May-2020 5032.01 2638.12 70.66 3.00  84.48 2600.96
   17:26:40.998.17-May-2020 5032.01 2638.02 70.66 3.00  84.68 2600.96
   17:26:41.198.17-May-2020 5032.01 2637.94 70.66 3.00  84.88 2600.96
   17:26:41.398.17-May-2020 5032.01 2637.94 70.66 3.00  85.08 2600.96
   17:26:41.598.17-May-2020 5032.01 2637.94 70.66 3.00  85.28 2600.96
   17:26:41.798.17-May-2020 5032.01 2638.05 70.66 3.00  85.48 2600.96
   17:26:41.999.17-May-2020 5032.01 2638.04 70.66 3.00  85.68 2600.96
   17:26:42.199.17-May-2020 5032.01 2638.04 70.66 3.00  85.88 2600.96
   17:26:42.399.17-May-2020 5032.01 2638.07 70.66 3.00  86.08 2600.96
   17:26:42.599.17-May-2020 5032.01 2638.07 70.66 3.00  86.28 2600.96
   17:26:42.799.17-May-2020 5032.01 2638.08 70.66 3.00  86.48 2600.96
   17:26:43.000.17-May-2020 5032.01 2638.10 70.66 3.00  86.68 2600.96
   17:26:43.200.17-May-2020 5032.01 2637.98 70.66 3.00  86.88 2600.96
   17:26:43.400.17-May-2020 5032.01 2637.95 70.66 3.00  87.08 2600.96
   17:26:43.600.17-May-2020 5032.01 2637.95 70.66 3.00  87.28 2600.96
   17:26:43.800.17-May-2020 5032.01 2638.03 70.66 3.00  87.48 2600.96
   17:26:44.000.17-May-2020 5032.01 2637.92 70.66 3.00  87.68 2600.96
   17:26:44.201.17-May-2020 5032.01 2638.03 70.66 3.00  87.88 2600.96
   17:26:44.401.17-May-2020 5032.01 2638.03 70.66 3.00  88.08 2600.96
   17:26:44.601.17-May-2020 5032.01 2638.03 70.66 3.00  88.28 2600.96
   17:26:44.801.17-May-2020 5032.01 2637.99 70.66 3.00  88.48 2600.96
   17:26:45.001.17-May-2020 5032.01 2637.97 70.66 3.00  88.68 2600.96
   17:26:45.202.17-May-2020 5032.01 2638.06 70.66 3.00  88.88 2600.96
   17:26:45.402.17-May-2020 5032.01 2638.06 70.66 3.00  89.08 2600.96
   17:26:45.602.17-May-2020 5032.01 2638.06 70.66 3.00  89.28 2600.96
   17:26:45.802.17-May-2020 5032.01 2638.06 70.66 3.00  89.48 2600.96
   17:26:46.002.17-May-2020 5032.01 2638.00 70.66 3.00  89.68 2600.96
   17:26:46.203.17-May-2020 5032.01 2638.03 70.66 3.00  89.88 2600.96
   17:26:46.403.17-May-2020 5032.01 2638.08 70.66 3.00  90.08 2600.96
   17:26:46.603.17-May-2020 5032.01 2638.08 70.66 3.00  90.28 2600.96
   17:26:46.803.17-May-2020 5032.01 2638.08 70.66 3.00  90.48 2600.96
   17:26:47.003.17-May-2020 5032.01 2638.11 70.66 3.00  90.68 2600.96
   17:26:47.203.17-May-2020 5032.01 2638.08 70.66 3.00  90.88 2600.96
   17:26:47.404.17-May-2020 5032.01 2638.14 70.66 3.00  91.09 2600.96
   17:26:47.604.17-May-2020 5032.01 2638.14 70.66 3.00  91.29 2600.96
   17:26:47.804.17-May-2020 5032.01 2637.98 70.66 3.00  91.49 2600.96
   17:26:48.004.17-May-2020 5032.01 2638.06 70.66 3.00  91.69 2600.96
   17:26:48.204.17-May-2020 5032.01 2638.09 70.66 3.00  91.89 2600.96
