~Version Information
 VERS.                  2.0:   CWLS log ASCII Standard -VERSION 2.0
 WRAP.                   NO:   One line per depth step
~Well Information Block
#MNEM.UNIT     VALUE/NAME     DESCRIPTION
#---------     -----------    ---------------------------
 STRT.S             21:13:20 18-May-20: START TIME 21:13:20 18-May-20
 STOP.S             21:20:25 18-May-20: STOP TIME  21:20:25 18-May-20
 STEP.S                   0.00: STEP TIME
 NULL.                 -999.25: NULL VALUE
 UNIT.                     N/A:  LOGGING EQUIPMENT ID
 DCON.         Sperry Drilling:  DIRECTNL CONTR
 DOE .                     N/A:  DOE NUMBER
 JOBN.        AZ-XX-0906252240:  JOB TICKET NUMB
 MWDS.                     N/A:  MWD SHOP
 PROV.                    Baku:  PROVINCE
 STAT.                    Baku:  STATE NAME
 REGN.                   EESSA:  REGION
 BASE.              Azerbaijan:  LOGGING EQUIPMENT BASE LOCATION
 UWI .                     N/A:  UNIQUE WELL IDENTIFIER
 API .                     N/A:  API NUMBER
 MDS .        Operator Entered:  MAG DATA SOURCE
 WTYP.                Deviated:  WELL TYPE
 COMP.     BP Exploration (Caspian Sea) Ltd.:  COMPANY
 SRVC.          Turan Drilling:  CONTRACTOR
 WELL.           J23 (Slot 07):  WELL NAME
 CTRY.              Azerbaijan:  COUNTRY NAME
 FLD .                     ACG:  FIELD NAME
 PDAT.          Mean Sea Level:  PERMANENT DATUM
 RIG .             West Chirag:  RIG NAME
 SON .        AZ-XX-0906252240:  JOB NUMBER
 FTOP.          Formation Tops:  FORM TOPS DESC
 ILTD.               Lithology:  INTERP LTH DESC
 SVYD.                  Survey:  SURVEY DESC
 DMOD.             Drill Model:  DRILL MOD DESC
 HPTY.       Minimum Curvature:  HOLE POS TYPE
 NREF.                    Grid:  NORTH REFERENCE
 SPUD.               27-Aug-20:  SPUD DATE
 DATE.      00.00.00 19-May-20:  END TIME
 STIM.      03.00.00 25-Mar-20:  START TIME
 DMF .             Drill Floor:  DRILL MEAS FROM
 DFST.                        :  DIST FSL TEXT
 DFWT.                        :  DIST FWL TEXT
 CNTY.                        :  COUNTY
 LOC .                        :  LOCATION
 LMF .             Drill Floor:  LOG MEASURED FROM
 VSNS.m                   9.43:  VERT SEC N/S
 VSEW.m                  -8.91:  VERT SEC E/W
 AGAP.m                  43.00:  AIR GAP
 DEP .m                 354.17:  DEPTH
 APD .m                  43.00:  DEPTH ABOVE PD
 WDMS.m                 169.80:  WD ELEV
 EGL .m                   0.00:  GROUND ELEVATION
 EPD .m                   0.00:  ELEVATION
 AZTC.deg                 6.31:  AZM TOTAL CORR
 GRDC.deg                 0.14:  GRID CORRECTION
 MDEC.deg                 6.45:  MAGNETIC DECL
 MDIP.deg                59.56:  MAGNETIC DIP
 MFLD.nT              50295.00:  MAGNETIC FIELD
 GVFD.g                   1.00:  GRAVITY FIELD
 VSDR.deg               179.88:  VERT SEC DIRECT
 TDD .m                5150.01:  TOTAL DEPTH (DRILLER)
 SDEP.m                 864.00:  START DEPTH
 DFSL.m                   0.00:  DISTANCE FSL
 DFWL.m                   0.00:  DISTANCE FWL
 UTMY.m             4443793.85:  UTM Y
 UTMX.m              519005.06:  UTM X
 WHEW.m                  -8.91:  WELL HEAD E/W
 WHNS.m                   9.43:  WELL HEAD N/S
 LONG.deg                51.22:  LONGITUDE
 LATI.deg                40.13:  LATITUDE
 TVDS.m                  43.00:  TVDSS CORRECTN
 EKB .m                   0.00:  KB ELEVATION
 EDF .m                  43.00:  DF ELEVATION
 TDL .m                 363.00:  TOTAL DEPTH (LOGGER)
 MAGU.                 1850802:  MAGUTM CHECKSUM
 VSC .                       0:  VS TO CLOSURE
~Parameter Information Block
#MNEM.UNIT       Value        Description
#---------     -----------    ---------------------------
 AV  .mps                 2.30:  Ann Velocity 
 AVMX.mps                 4.40:  Max Ann Veloc 
 AZIF.deg               110.24:  Azm, Final 
 BHAT.        Rotary Steerable:  BHA Type 
 BREV.rev               331.00:  Rev Bit Total 
 BROT.°/30m               0.00:  Build Rotating 
 BS  .in                  8.50:  Bit Size 
 BSZ .in                  8.50:  Bit Size 
 BTPL.psig              585.00:  Bit Press Loss 
 CABU.                     Yes:  Customer Abuse 
 TCS .hr                122.75:  Time Ciculation Ended 
 CV  .mps                 2.67:  Crit Velocity 
 CVMX.mps                 3.56:  Max Crit Veloc 
 DD1 .          Rashad Habibov:  Direct Drillr 1 
 DD2 .         Rasim Ibrahimov:  Direct Drillr 2 
 DDSV.               Geo-Pilot:  DD Service 
 DEFF.%                  98.00:  % Det Eff 
 DLRX.°/30m               0.75:  Dogleg Rot Max 
 DLSO.°/30m               1.25:  Dogleg Oriented 
 DLSX.°/30m               2.06:  Dogleg Str Max 
 DRET.      07.45.00 17-May-20:  Drill End Time 
 DRST.      22.50.00 15-May-20:  Drill Start Tim 
 DTIM.hr                 20.75:  Time Drilling 
 EDEP.m                5124.01:  End Depth 
 ENG1.           Eldar Hajiyev:  Engineer 1 
 ENG2.        Marcelo Sandoval:  Engineer 2 
 ENG3.        Davud huseynzada:  Engineer 3 
 ENG4.          Ruslan Safarov:  Engineer 4 
 ETIM.      04.33.00 23-May-20:  End Time 
 FLOI.gpm               450.00:  Flow In 
 FLON.gpm               400.00:  Flow In Min 
 FLOS.cptm                0.00:  Fluid Loss 
 FLOX.gpm               500.00:  Flow In Max 
 FTRO.       Formation Presure:  FTWD Run Obj 
 HFLO.                      No:  High Flow 
 HPRE.                     Yes:  High Pressure 
 HTEM.                      No:  High Temp 
 HYDO.m                   1.80:  Hydro Offset 
 IFIN.deg                75.06:  Inc, Final 
 IMAX.deg                75.38:  Inc Max 
 IMIN.deg                74.69:  Inc Min 
 IMND.m                5027.38:  Inc Min Depth 
 IMXD.m                4771.61:  Inc Max Depth 
 JARR.                      No:  Jarring 
 LETM.      07.45.00 17-May-20:  Log End Time 
 LOST.hr                     0:  Lost Rig Time 
 LSTM.      22.50.00 15-May-20:  Log Start Time 
 MDCL.ppm             42000.00:  Mud Chlorides 
 MDES.     Inversion Oil/Synthetic:  Mud Desc 
 DFD .sg                  1.34:  Mud Density 
 MDMN.sg                  1.34:  Dens Mud Min 
 MDMX.sg                  1.34:  Dens Mud Max 
 MOIL.                       0:  Run Mud Oil % 
 MOWR.                   67:33:  Run Mud OWR 
 MSND.                       0:  Run Mud Sand % 
 MSOL.                     1.8:  Run Mud Solids% 
 DFV .spqt               76.00:  Mud Viscosity 
 MWOD.in                  6.75:  MWD Tool OD 
 MWSI.                      No:  Serv Intrp, MWD 
 OTIM.hr                228.19:  Time Operating 
 PCON.           Look Like New:  Pad Condition 
 PMAX.psia             6164.70:  Press Op, Max 
 PV  .cP                 28.00:  Mud PV 
 RUN .                     900:  Run Number 
 ROPA.m/hr               19.00:  ROP Avg 
 ROPN.m/hr               11.00:  ROP Min 
 ROPX.m/hr               36.00:  ROP Max 
 RPMA.rpm               120.00:  RPM Surface Avg 
 RPMN.rpm               120.00:  RPM Surface Min 
 RPMX.rpm               120.00:  RPM Surface Max 
 RRUN.                    L604:  Rig Run Number 
 RTIM.hr                  7.00:  Time Reaming 
 SAZI.deg               109.27:  Azm, Start 
 SDEP.m                4761.01:  Start Depth 
 SIDD.                      No:  Serv Intrp, DD 
 SINC.deg                75.38:  Inc, Start 
 SPPA.psig             3574.00:  SPP Avg 
 SPPN.psig             3475.00:  SPP Min 
 SPPX.psig             3791.00:  SPP Max 
 STIM.      07.08.48 13-May-20:  Start Time 
 SVCS.                 DD, MWD:  Services 
 SVER.                    9.20:  Sperry Version 
 TDAT.m                 363.00:  Tot Depth Attmp 
 TDDF.                      No:  Trip for DD 
 TDLG.m                 363.00:  Tot Depth Loggd 
 TFF .                      No:  Trip for Fail 
 TQAA.f-kp               20.00:  Torque Abs Avg 
 TQAN.f-kp               18.00:  Torque Abs Min 
 TQAX.f-kp               22.00:  Torque Abs Max 
 TRRT.°/30m              -0.35:  Turn Rotating 
 MRT .                    HCIM:  Maximum Recorded Temperature 
 TTMX.degC               92.16:  Max Tool Temp 
 VS01.                90586518:  Virtual Str1 SN 
 VS02.        AZ90560654Z1W1C6:  Virtual Str2 SN 
 VS03.           AZ90610398F11:  Virtual Str3 SN 
 VS04.                90514975:  Virtual Str4 SN 
 VS05.                90514972:  Virtual Str5 SN 
 VS06.     AZ90603282F11V7D1A6:  Virtual Str6 SN 
 WBMN.klb                 7.00:  WOB Min 
 WOBA.klb                12.00:  WOB Avg 
 WOBX.klb                14.00:  WOB Max 
 YP  .lhf2               32.00:  Yield Point 
~Curve Information Block
#MNEM.UNIT                 API CODE     Curve Description
#---------               -----------    ---------------------------
 TIME.HHMMSS            00 000 000 000:  GT Time & Date
 GTDEPTH.m              00 000 000 000:  GT Depth
 GTPQH.psia             00 000 000 000:  GT HR Quartz Pressure
 GTTQ.degC              00 000 000 000:  GT Quartz Temperature
 GTTN.NONE              00 000 000 000:  GT Test Number
 GTET.sec               00 000 000 000:  GT Elapsed Test Time
 GTTVD.m                00 000 000 000:  GT True Vertical Depth
#Other Information
#
#WARRANTY: Halliburton will use its best efforts to furnish customers with 
#accurate information and interpretations that are part of, and incident to, the services 
#provided.  However, Halliburton cannot and does not warrant the accuracy 
#or correctness of such information and interpretations.  Under no circumstances should any 
#such information or interpretation be relied upon as the sole basis for any drilling, 
#completion, production, or financial decision or any procedure involving any risk to the 
#safety of any drilling venture, drilling rig or its crew or any other third party.  The 
#Customer has full responsibility for all drilling, completion and production operation.  
#Halliburton makes no representations or warranties, either expressed or 
#implied, including, but not limited to, the implied warranties of merchantability or fitness 
#for a particular purpose, with respect to the services rendered.  In no event will 
#Halliburton be liable for failure to obtain any particular results or for 
#any damages, including, but not limited to, indirect, special or consequential damages, 
#resulting from the use of any information or interpretation provided by Halliburton.
#
~A           TIME           GTDEPTH  GTPQH  GTTQ  GTTN   GTET   GTTVD  
# ...
   21:15:58.707.18-May-2020 4766.01 5470.90 60.63 14.00 158.24 2532.29
   21:15:58.907.18-May-2020 4766.01 5390.07 60.63 14.00 158.44 2532.29
   21:15:59.108.18-May-2020 4766.01 5429.77 60.63 14.00 158.64 2532.29
   21:15:59.308.18-May-2020 4766.01 5388.89 60.63 14.00 158.84 2532.29
   21:15:59.508.18-May-2020 4766.01 5424.55 60.63 14.00 159.04 2532.29
   21:15:59.708.18-May-2020 4766.01 5424.55 60.63 14.00 159.24 2532.29
   21:15:59.908.18-May-2020 4766.01 5470.30 60.63 14.00 159.44 2532.29
   21:16:00.108.18-May-2020 4766.01 5455.09 60.63 14.00 159.64 2532.29
   21:16:00.308.18-May-2020 4766.01 5466.46 60.63 14.00 159.84 2532.29
   21:16:00.508.18-May-2020 4766.01 5462.26 60.63 14.00 160.04 2532.29
   21:16:00.708.18-May-2020 4766.01 5462.26 60.63 14.00 160.24 2532.29
   21:16:00.908.18-May-2020 4766.01 5472.65 60.63 14.00 160.44 2532.29
   21:16:01.108.18-May-2020 4766.01 5471.56 60.63 14.00 160.64 2532.29
   21:16:01.308.18-May-2020 4766.01 5451.67 60.63 14.00 160.84 2532.29
   21:16:01.508.18-May-2020 4766.01 5451.81 60.63 14.00 161.04 2532.29
   21:16:01.708.18-May-2020 4766.01 5451.81 60.63 14.00 161.24 2532.29
   21:16:01.908.18-May-2020 4766.01 5472.89 60.63 14.00 161.44 2532.29
   21:16:02.108.18-May-2020 4766.01 5472.15 60.63 14.00 161.64 2532.29
   21:16:02.308.18-May-2020 4766.01 5471.17 60.63 14.00 161.84 2532.29
   21:16:02.508.18-May-2020 4766.01 5479.11 60.63 14.00 162.04 2532.29
   21:16:02.708.18-May-2020 4766.01 5469.52 60.63 14.00 162.24 2532.29
   21:16:02.909.18-May-2020 4766.01 5462.44 60.63 14.00 162.44 2532.29
   21:16:03.109.18-May-2020 4766.01 5464.69 60.63 14.00 162.64 2532.29
   21:16:03.309.18-May-2020 4766.01 5476.56 60.63 14.00 162.84 2532.29
   21:16:03.509.18-May-2020 4766.01 5469.61 60.63 14.00 163.04 2532.29
   21:16:03.709.18-May-2020 4766.01 5469.61 60.63 14.00 163.24 2532.29
   21:16:03.909.18-May-2020 4766.01 5453.34 60.63 14.00 163.44 2532.29
   21:16:04.109.18-May-2020 4766.01 5464.70 60.63 14.00 163.64 2532.29
   21:16:04.309.18-May-2020 4766.01 5446.70 60.63 14.00 163.84 2532.29
   21:16:04.509.18-May-2020 4766.01 5442.67 60.63 14.00 164.04 2532.29
   21:16:04.709.18-May-2020 4766.01 5442.67 60.63 14.00 164.24 2532.29
   21:16:04.909.18-May-2020 4766.01 5474.83 60.63 14.00 164.44 2532.29
   21:16:05.109.18-May-2020 4766.01 5478.54 60.63 14.00 164.64 2532.29
   21:16:05.309.18-May-2020 4766.01 5477.64 60.63 14.00 164.84 2532.29
   21:16:05.509.18-May-2020 4766.01 5500.45 60.63 14.00 165.04 2532.29
   21:16:05.709.18-May-2020 4766.01 5475.75 60.63 14.00 165.24 2532.29
   21:16:05.909.18-May-2020 4766.01 5479.14 60.63 14.00 165.44 2532.29
   21:16:06.109.18-May-2020 4766.01 5478.39 60.63 14.00 165.64 2532.29
   21:16:06.309.18-May-2020 4766.01 5504.27 60.63 14.00 165.84 2532.29
   21:16:06.509.18-May-2020 4766.01 5476.48 60.63 14.00 166.04 2532.29
   21:16:06.710.18-May-2020 4766.01 5479.48 60.63 14.00 166.24 2532.29
   21:16:06.910.18-May-2020 4766.01 5478.68 60.63 14.00 166.44 2532.29
   21:16:07.110.18-May-2020 4766.01 5490.39 60.63 14.00 166.64 2532.29
   21:16:07.310.18-May-2020 4766.01 5493.70 60.63 14.00 166.84 2532.29
   21:16:07.510.18-May-2020 4766.01 5478.33 60.63 14.00 167.04 2532.29
   21:16:07.710.18-May-2020 4766.01 5478.33 60.63 14.00 167.24 2532.29
   21:16:07.910.18-May-2020 4766.01 5481.69 60.63 14.00 167.44 2532.29
   21:16:08.110.18-May-2020 4766.01 5487.47 60.63 14.00 167.64 2532.29
   21:16:08.310.18-May-2020 4766.01 5482.33 60.63 14.00 167.84 2532.29
   21:16:08.510.18-May-2020 4766.01 5480.43 60.63 14.00 168.04 2532.29
   21:16:08.710.18-May-2020 4766.01 5480.43 60.63 14.00 168.24 2532.29
   21:16:08.910.18-May-2020 4766.01 5480.75 60.63 14.00 168.44 2532.29
   21:16:09.110.18-May-2020 4766.01 5479.90 60.63 14.00 168.64 2532.29
   21:16:09.310.18-May-2020 4766.01 5486.15 60.63 14.00 168.84 2532.29
   21:16:09.510.18-May-2020 4766.01 5482.65 60.63 14.00 169.04 2532.29
   21:16:09.710.18-May-2020 4766.01 5482.65 60.63 14.00 169.24 2532.29
   21:16:09.910.18-May-2020 4766.01 5479.09 60.63 14.00 169.44 2532.29
   21:16:10.110.18-May-2020 4766.01 5483.14 60.63 14.00 169.65 2532.29
   21:16:10.311.18-May-2020 4766.01 5483.93 60.63 14.00 169.85 2532.29
   21:16:10.511.18-May-2020 4766.01 5478.93 60.63 14.00 170.05 2532.29
   21:16:10.711.18-May-2020 4766.01 5478.38 60.63 14.00 170.25 2532.29
   21:16:10.911.18-May-2020 4766.01 5479.32 60.63 14.00 170.45 2532.29
   21:16:11.111.18-May-2020 4766.01 5478.81 60.63 14.00 170.65 2532.29
   21:16:11.311.18-May-2020 4766.01 5477.06 60.63 14.00 170.85 2532.29
   21:16:11.511.18-May-2020 4766.01 5478.19 60.63 14.00 171.05 2532.29
   21:16:11.711.18-May-2020 4766.01 5478.19 60.63 14.00 171.25 2532.29
   21:16:11.911.18-May-2020 4766.01 5476.21 60.63 14.00 171.45 2532.29
   21:16:12.111.18-May-2020 4766.01 5477.78 60.63 14.00 171.65 2532.29
   21:16:12.311.18-May-2020 4766.01 5492.17 60.63 14.00 171.85 2532.29
   21:16:12.511.18-May-2020 4766.01 5482.94 60.63 14.00 172.05 2532.29
   21:16:12.711.18-May-2020 4766.01 5482.94 60.63 14.00 172.25 2532.29
   21:16:12.911.18-May-2020 4766.01 5476.29 60.63 14.00 172.45 2532.29
   21:16:13.111.18-May-2020 4766.01 5488.22 60.63 14.00 172.65 2532.29
   21:16:13.311.18-May-2020 4766.01 5492.53 60.63 14.00 172.85 2532.29
   21:16:13.511.18-May-2020 4766.01 5475.40 60.63 14.00 173.05 2532.29
   21:16:13.711.18-May-2020 4766.01 5475.40 60.63 14.00 173.25 2532.29
   21:16:13.911.18-May-2020 4766.01 5478.42 60.63 14.00 173.45 2532.29
   21:16:14.112.18-May-2020 4766.01 5498.02 60.63 14.00 173.65 2532.29
   21:16:14.312.18-May-2020 4766.01 5475.26 60.63 14.00 173.85 2532.29
   21:16:14.512.18-May-2020 4766.01 5477.05 60.63 14.00 174.05 2532.29
   21:16:14.712.18-May-2020 4766.01 5475.57 60.63 14.00 174.25 2532.29
   21:16:14.912.18-May-2020 4766.01 5486.51 60.62 14.00 174.45 2532.29
   21:16:15.112.18-May-2020 4766.01 5477.32 60.63 14.00 174.65 2532.29
   21:16:15.312.18-May-2020 4766.01 5475.05 60.62 14.00 174.85 2532.29
   21:16:15.512.18-May-2020 4766.01 5475.50 60.63 14.00 175.05 2532.29
   21:16:15.712.18-May-2020 4766.01 5475.50 60.63 14.00 175.25 2532.29
   21:16:15.912.18-May-2020 4766.01 5474.36 60.62 14.00 175.45 2532.29
   21:16:16.112.18-May-2020 4766.01 5486.62 60.63 14.00 175.65 2532.29
   21:16:16.312.18-May-2020 4766.01 5471.79 60.62 14.00 175.85 2532.29
   21:16:16.512.18-May-2020 4766.01 5474.44 60.63 14.00 176.05 2532.29
   21:16:16.712.18-May-2020 4766.01 5474.44 60.63 14.00 176.25 2532.29
   21:16:16.912.18-May-2020 4766.01 5481.17 60.62 14.00 176.45 2532.29
   21:16:17.112.18-May-2020 4766.01 5475.40 60.63 14.00 176.65 2532.29
   21:16:17.312.18-May-2020 4766.01 5473.61 60.62 14.00 176.85 2532.29
   21:16:17.512.18-May-2020 4766.01 5474.09 60.62 14.00 177.05 2532.29
   21:16:17.712.18-May-2020 4766.01 5474.09 60.62 14.00 177.25 2532.29
   21:16:17.913.18-May-2020 4766.01 5473.57 60.62 14.00 177.45 2532.29
   21:16:18.113.18-May-2020 4766.01 5472.59 60.62 14.00 177.65 2532.29
   21:16:18.313.18-May-2020 4766.01 5479.84 60.62 14.00 177.85 2532.29
   21:16:18.513.18-May-2020 4766.01 5476.27 60.62 14.00 178.05 2532.29
   21:16:18.713.18-May-2020 4766.01 5473.10 60.62 14.00 178.25 2532.29
   21:16:18.913.18-May-2020 4766.01 5473.24 60.62 14.00 178.45 2532.29
   21:16:19.113.18-May-2020 4766.01 5490.97 60.62 14.00 178.65 2532.29
   21:16:19.313.18-May-2020 4766.01 5475.98 60.62 14.00 178.85 2532.29
   21:16:19.513.18-May-2020 4766.01 5474.34 60.62 14.00 179.05 2532.29
   21:16:19.713.18-May-2020 4766.01 5474.34 60.62 14.00 179.25 2532.29
   21:16:19.913.18-May-2020 4766.01 5483.42 60.62 14.00 179.45 2532.29
   21:16:20.113.18-May-2020 4766.01 5490.63 60.62 14.00 179.65 2532.29
   21:16:20.313.18-May-2020 4766.01 5471.98 60.62 14.00 179.85 2532.29
   21:16:20.513.18-May-2020 4766.01 5475.55 60.62 14.00 180.05 2532.29
   21:16:20.713.18-May-2020 4766.01 5475.55 60.62 14.00 180.25 2532.29
   21:16:20.913.18-May-2020 4766.01 5482.98 60.62 14.00 180.45 2532.29
   21:16:21.113.18-May-2020 4766.01 5475.75 60.62 14.00 180.65 2532.29
