~Version Information
 VERS.                  2.0:   CWLS log ASCII Standard -VERSION 2.0
 WRAP.                   NO:   One line per depth step
~Well Information Block
#MNEM.UNIT     VALUE/NAME     DESCRIPTION
#---------     -----------    ---------------------------
 STRT.S             21:13:20 18-May-20: START TIME 21:13:20 18-May-20
 STOP.S             21:20:25 18-May-20: STOP TIME  21:20:25 18-May-20
 STEP.S                   0.00: STEP TIME
 NULL.                 -999.25: NULL VALUE
 UNIT.                     N/A:  LOGGING EQUIPMENT ID
 DCON.         Sperry Drilling:  DIRECTNL CONTR
 DOE .                     N/A:  DOE NUMBER
 JOBN.        AZ-XX-0906252240:  JOB TICKET NUMB
 MWDS.                     N/A:  MWD SHOP
 PROV.                    Baku:  PROVINCE
 STAT.                    Baku:  STATE NAME
 REGN.                   EESSA:  REGION
 BASE.              Azerbaijan:  LOGGING EQUIPMENT BASE LOCATION
 UWI .                     N/A:  UNIQUE WELL IDENTIFIER
 API .                     N/A:  API NUMBER
 MDS .        Operator Entered:  MAG DATA SOURCE
 WTYP.                Deviated:  WELL TYPE
 COMP.     BP Exploration (Caspian Sea) Ltd.:  COMPANY
 SRVC.          Turan Drilling:  CONTRACTOR
 WELL.           J23 (Slot 07):  WELL NAME
 CTRY.              Azerbaijan:  COUNTRY NAME
 FLD .                     ACG:  FIELD NAME
 PDAT.          Mean Sea Level:  PERMANENT DATUM
 RIG .             West Chirag:  RIG NAME
 SON .        AZ-XX-0906252240:  JOB NUMBER
 FTOP.          Formation Tops:  FORM TOPS DESC
 ILTD.               Lithology:  INTERP LTH DESC
 SVYD.                  Survey:  SURVEY DESC
 DMOD.             Drill Model:  DRILL MOD DESC
 HPTY.       Minimum Curvature:  HOLE POS TYPE
 NREF.                    Grid:  NORTH REFERENCE
 SPUD.               27-Aug-20:  SPUD DATE
 DATE.      00.00.00 19-May-20:  END TIME
 STIM.      03.00.00 25-Mar-20:  START TIME
 DMF .             Drill Floor:  DRILL MEAS FROM
 DFST.                        :  DIST FSL TEXT
 DFWT.                        :  DIST FWL TEXT
 CNTY.                        :  COUNTY
 LOC .                        :  LOCATION
 LMF .             Drill Floor:  LOG MEASURED FROM
 VSNS.m                   9.43:  VERT SEC N/S
 VSEW.m                  -8.91:  VERT SEC E/W
 AGAP.m                  43.00:  AIR GAP
 DEP .m                 354.17:  DEPTH
 APD .m                  43.00:  DEPTH ABOVE PD
 WDMS.m                 169.80:  WD ELEV
 EGL .m                   0.00:  GROUND ELEVATION
 EPD .m                   0.00:  ELEVATION
 AZTC.deg                 6.31:  AZM TOTAL CORR
 GRDC.deg                 0.14:  GRID CORRECTION
 MDEC.deg                 6.45:  MAGNETIC DECL
 MDIP.deg                59.56:  MAGNETIC DIP
 MFLD.nT              50295.00:  MAGNETIC FIELD
 GVFD.g                   1.00:  GRAVITY FIELD
 VSDR.deg               179.88:  VERT SEC DIRECT
 TDD .m                5150.01:  TOTAL DEPTH (DRILLER)
 SDEP.m                 864.00:  START DEPTH
 DFSL.m                   0.00:  DISTANCE FSL
 DFWL.m                   0.00:  DISTANCE FWL
 UTMY.m             4443793.85:  UTM Y
 UTMX.m              519005.06:  UTM X
 WHEW.m                  -8.91:  WELL HEAD E/W
 WHNS.m                   9.43:  WELL HEAD N/S
 LONG.deg                51.22:  LONGITUDE
 LATI.deg                40.13:  LATITUDE
 TVDS.m                  43.00:  TVDSS CORRECTN
 EKB .m                   0.00:  KB ELEVATION
 EDF .m                  43.00:  DF ELEVATION
 TDL .m                 363.00:  TOTAL DEPTH (LOGGER)
 MAGU.                 1850802:  MAGUTM CHECKSUM
 VSC .                       0:  VS TO CLOSURE
~Parameter Information Block
#MNEM.UNIT       Value        Description
#---------     -----------    ---------------------------
 AV  .mps                 2.30:  Ann Velocity 
 AVMX.mps                 4.40:  Max Ann Veloc 
 AZIF.deg               110.24:  Azm, Final 
 BHAT.        Rotary Steerable:  BHA Type 
 BREV.rev               331.00:  Rev Bit Total 
 BROT.°/30m               0.00:  Build Rotating 
 BS  .in                  8.50:  Bit Size 
 BSZ .in                  8.50:  Bit Size 
 BTPL.psig              585.00:  Bit Press Loss 
 CABU.                     Yes:  Customer Abuse 
 TCS .hr                122.75:  Time Ciculation Ended 
 CV  .mps                 2.67:  Crit Velocity 
 CVMX.mps                 3.56:  Max Crit Veloc 
 DD1 .          Rashad Habibov:  Direct Drillr 1 
 DD2 .         Rasim Ibrahimov:  Direct Drillr 2 
 DDSV.               Geo-Pilot:  DD Service 
 DEFF.%                  98.00:  % Det Eff 
 DLRX.°/30m               0.75:  Dogleg Rot Max 
 DLSO.°/30m               1.25:  Dogleg Oriented 
 DLSX.°/30m               2.06:  Dogleg Str Max 
 DRET.      07.45.00 17-May-20:  Drill End Time 
 DRST.      22.50.00 15-May-20:  Drill Start Tim 
 DTIM.hr                 20.75:  Time Drilling 
 EDEP.m                5124.01:  End Depth 
 ENG1.           Eldar Hajiyev:  Engineer 1 
 ENG2.        Marcelo Sandoval:  Engineer 2 
 ENG3.        Davud huseynzada:  Engineer 3 
 ENG4.          Ruslan Safarov:  Engineer 4 
 ETIM.      04.33.00 23-May-20:  End Time 
 FLOI.gpm               450.00:  Flow In 
 FLON.gpm               400.00:  Flow In Min 
 FLOS.cptm                0.00:  Fluid Loss 
 FLOX.gpm               500.00:  Flow In Max 
 FTRO.       Formation Presure:  FTWD Run Obj 
 HFLO.                      No:  High Flow 
 HPRE.                     Yes:  High Pressure 
 HTEM.                      No:  High Temp 
 HYDO.m                   1.80:  Hydro Offset 
 IFIN.deg                75.06:  Inc, Final 
 IMAX.deg                75.38:  Inc Max 
 IMIN.deg                74.69:  Inc Min 
 IMND.m                5027.38:  Inc Min Depth 
 IMXD.m                4771.61:  Inc Max Depth 
 JARR.                      No:  Jarring 
 LETM.      07.45.00 17-May-20:  Log End Time 
 LOST.hr                     0:  Lost Rig Time 
 LSTM.      22.50.00 15-May-20:  Log Start Time 
 MDCL.ppm             42000.00:  Mud Chlorides 
 MDES.     Inversion Oil/Synthetic:  Mud Desc 
 DFD .sg                  1.34:  Mud Density 
 MDMN.sg                  1.34:  Dens Mud Min 
 MDMX.sg                  1.34:  Dens Mud Max 
 MOIL.                       0:  Run Mud Oil % 
 MOWR.                   67:33:  Run Mud OWR 
 MSND.                       0:  Run Mud Sand % 
 MSOL.                     1.8:  Run Mud Solids% 
 DFV .spqt               76.00:  Mud Viscosity 
 MWOD.in                  6.75:  MWD Tool OD 
 MWSI.                      No:  Serv Intrp, MWD 
 OTIM.hr                228.19:  Time Operating 
 PCON.           Look Like New:  Pad Condition 
 PMAX.psia             6164.70:  Press Op, Max 
 PV  .cP                 28.00:  Mud PV 
 RUN .                     900:  Run Number 
 ROPA.m/hr               19.00:  ROP Avg 
 ROPN.m/hr               11.00:  ROP Min 
 ROPX.m/hr               36.00:  ROP Max 
 RPMA.rpm               120.00:  RPM Surface Avg 
 RPMN.rpm               120.00:  RPM Surface Min 
 RPMX.rpm               120.00:  RPM Surface Max 
 RRUN.                    L604:  Rig Run Number 
 RTIM.hr                  7.00:  Time Reaming 
 SAZI.deg               109.27:  Azm, Start 
 SDEP.m                4761.01:  Start Depth 
 SIDD.                      No:  Serv Intrp, DD 
 SINC.deg                75.38:  Inc, Start 
 SPPA.psig             3574.00:  SPP Avg 
 SPPN.psig             3475.00:  SPP Min 
 SPPX.psig             3791.00:  SPP Max 
 STIM.      07.08.48 13-May-20:  Start Time 
 SVCS.                 DD, MWD:  Services 
 SVER.                    9.20:  Sperry Version 
 TDAT.m                 363.00:  Tot Depth Attmp 
 TDDF.                      No:  Trip for DD 
 TDLG.m                 363.00:  Tot Depth Loggd 
 TFF .                      No:  Trip for Fail 
 TQAA.f-kp               20.00:  Torque Abs Avg 
 TQAN.f-kp               18.00:  Torque Abs Min 
 TQAX.f-kp               22.00:  Torque Abs Max 
 TRRT.°/30m              -0.35:  Turn Rotating 
 MRT .                    HCIM:  Maximum Recorded Temperature 
 TTMX.degC               92.16:  Max Tool Temp 
 VS01.                90586518:  Virtual Str1 SN 
 VS02.        AZ90560654Z1W1C6:  Virtual Str2 SN 
 VS03.           AZ90610398F11:  Virtual Str3 SN 
 VS04.                90514975:  Virtual Str4 SN 
 VS05.                90514972:  Virtual Str5 SN 
 VS06.     AZ90603282F11V7D1A6:  Virtual Str6 SN 
 WBMN.klb                 7.00:  WOB Min 
 WOBA.klb                12.00:  WOB Avg 
 WOBX.klb                14.00:  WOB Max 
 YP  .lhf2               32.00:  Yield Point 
~Curve Information Block
#MNEM.UNIT                 API CODE     Curve Description
#---------               -----------    ---------------------------
 TIME.HHMMSS            00 000 000 000:  GT Time & Date
 GTDEPTH.m              00 000 000 000:  GT Depth
 GTPQH.psia             00 000 000 000:  GT HR Quartz Pressure
 GTTQ.degC              00 000 000 000:  GT Quartz Temperature
 GTTN.NONE              00 000 000 000:  GT Test Number
 GTET.sec               00 000 000 000:  GT Elapsed Test Time
 GTTVD.m                00 000 000 000:  GT True Vertical Depth
#Other Information
#
#WARRANTY: Halliburton will use its best efforts to furnish customers with 
#accurate information and interpretations that are part of, and incident to, the services 
#provided.  However, Halliburton cannot and does not warrant the accuracy 
#or correctness of such information and interpretations.  Under no circumstances should any 
#such information or interpretation be relied upon as the sole basis for any drilling, 
#completion, production, or financial decision or any procedure involving any risk to the 
#safety of any drilling venture, drilling rig or its crew or any other third party.  The 
#Customer has full responsibility for all drilling, completion and production operation.  
#Halliburton makes no representations or warranties, either expressed or 
#implied, including, but not limited to, the implied warranties of merchantability or fitness 
#for a particular purpose, with respect to the services rendered.  In no event will 
#Halliburton be liable for failure to obtain any particular results or for 
#any damages, including, but not limited to, indirect, special or consequential damages, 
#resulting from the use of any information or interpretation provided by Halliburton.
#
~A           TIME           GTDEPTH  GTPQH  GTTQ  GTTN   GTET   GTTVD  
# ...
   21:17:06.525.18-May-2020 4766.01 5476.61 60.62 14.00 226.06 2532.29
   21:17:06.725.18-May-2020 4766.01 5479.90 60.62 14.00 226.26 2532.29
   21:17:06.926.18-May-2020 4766.01 5478.83 60.62 14.00 226.46 2532.29
   21:17:07.126.18-May-2020 4766.01 5503.21 60.62 14.00 226.66 2532.29
   21:17:07.326.18-May-2020 4766.01 5479.47 60.62 14.00 226.86 2532.29
   21:17:07.526.18-May-2020 4766.01 5480.21 60.62 14.00 227.06 2532.29
   21:17:07.726.18-May-2020 4766.01 5480.21 60.62 14.00 227.26 2532.29
   21:17:07.926.18-May-2020 4766.01 5489.56 60.62 14.00 227.46 2532.29
   21:17:08.126.18-May-2020 4766.01 5492.74 60.62 14.00 227.66 2532.29
   21:17:08.326.18-May-2020 4766.01 5481.39 60.62 14.00 227.86 2532.29
   21:17:08.526.18-May-2020 4766.01 5480.46 60.62 14.00 228.06 2532.29
   21:17:08.726.18-May-2020 4766.01 5480.46 60.62 14.00 228.26 2532.29
   21:17:08.926.18-May-2020 4766.01 5485.70 60.62 14.00 228.46 2532.29
   21:17:09.126.18-May-2020 4766.01 5483.32 60.62 14.00 228.66 2532.29
   21:17:09.326.18-May-2020 4766.01 5479.55 60.62 14.00 228.86 2532.29
   21:17:09.526.18-May-2020 4766.01 5479.39 60.62 14.00 229.06 2532.29
   21:17:09.726.18-May-2020 4766.01 5479.39 60.62 14.00 229.26 2532.29
   21:17:09.926.18-May-2020 4766.01 5479.28 60.62 14.00 229.46 2532.29
   21:17:10.126.18-May-2020 4766.01 5482.68 60.62 14.00 229.66 2532.29
   21:17:10.326.18-May-2020 4766.01 5483.93 60.62 14.00 229.86 2532.29
   21:17:10.526.18-May-2020 4766.01 5477.46 60.62 14.00 230.06 2532.29
   21:17:10.727.18-May-2020 4766.01 5477.99 60.62 14.00 230.26 2532.29
   21:17:10.927.18-May-2020 4766.01 5480.06 60.62 14.00 230.46 2532.29
   21:17:11.127.18-May-2020 4766.01 5484.04 60.62 14.00 230.66 2532.29
   21:17:11.327.18-May-2020 4766.01 5477.76 60.62 14.00 230.86 2532.29
   21:17:11.527.18-May-2020 4766.01 5477.24 60.62 14.00 231.06 2532.29
   21:17:11.727.18-May-2020 4766.01 5477.24 60.62 14.00 231.26 2532.29
   21:17:11.927.18-May-2020 4766.01 5477.71 60.62 14.00 231.46 2532.29
   21:17:12.127.18-May-2020 4766.01 5475.88 60.62 14.00 231.66 2532.29
   21:17:12.327.18-May-2020 4766.01 5475.79 60.62 14.00 231.86 2532.29
   21:17:12.527.18-May-2020 4766.01 5487.94 60.62 14.00 232.06 2532.29
   21:17:12.727.18-May-2020 4766.01 5487.94 60.62 14.00 232.26 2532.29
   21:17:12.927.18-May-2020 4766.01 5476.93 60.62 14.00 232.46 2532.29
   21:17:13.127.18-May-2020 4766.01 5481.17 60.62 14.00 232.66 2532.29
   21:17:13.327.18-May-2020 4766.01 5491.55 60.62 14.00 232.86 2532.29
   21:17:13.527.18-May-2020 4766.01 5476.55 60.62 14.00 233.06 2532.29
   21:17:13.727.18-May-2020 4766.01 5476.55 60.62 14.00 233.26 2532.29
   21:17:13.927.18-May-2020 4766.01 5480.06 60.62 14.00 233.46 2532.29
   21:17:14.127.18-May-2020 4766.01 5499.37 60.62 14.00 233.66 2532.29
   21:17:14.328.18-May-2020 4766.01 5475.91 60.62 14.00 233.86 2532.29
   21:17:14.528.18-May-2020 4766.01 5477.78 60.62 14.00 234.06 2532.29
   21:17:14.728.18-May-2020 4766.01 5490.85 60.62 14.00 234.26 2532.29
   21:17:14.928.18-May-2020 4766.01 5485.90 60.62 14.00 234.46 2532.29
   21:17:15.128.18-May-2020 4766.01 5481.33 60.62 14.00 234.66 2532.29
   21:17:15.328.18-May-2020 4766.01 5477.64 60.62 14.00 234.86 2532.29
   21:17:15.528.18-May-2020 4766.01 5486.69 60.62 14.00 235.06 2532.29
   21:17:15.728.18-May-2020 4766.01 5486.69 60.62 14.00 235.26 2532.29
   21:17:15.928.18-May-2020 4766.01 5479.65 60.62 14.00 235.46 2532.29
   21:17:16.128.18-May-2020 4766.01 5478.81 60.62 14.00 235.66 2532.29
   21:17:16.328.18-May-2020 4766.01 5480.10 60.62 14.00 235.86 2532.29
   21:17:16.528.18-May-2020 4766.01 5479.16 60.62 14.00 236.06 2532.29
   21:17:16.728.18-May-2020 4766.01 5479.16 60.62 14.00 236.26 2532.29
   21:17:16.928.18-May-2020 4766.01 5480.11 60.62 14.00 236.46 2532.29
   21:17:17.128.18-May-2020 4766.01 5478.36 60.62 14.00 236.66 2532.29
   21:17:17.328.18-May-2020 4766.01 5477.30 60.62 14.00 236.86 2532.29
   21:17:17.528.18-May-2020 4766.01 5482.02 60.62 14.00 237.06 2532.29
   21:17:17.728.18-May-2020 4766.01 5482.02 60.62 14.00 237.26 2532.29
   21:17:17.928.18-May-2020 4766.01 5477.51 60.62 14.00 237.46 2532.29
   21:17:18.129.18-May-2020 4766.01 5477.33 60.62 14.00 237.66 2532.29
   21:17:18.329.18-May-2020 4766.01 5478.56 60.62 14.00 237.86 2532.29
   21:17:18.529.18-May-2020 4766.01 5478.22 60.62 14.00 238.06 2532.29
   21:17:18.729.18-May-2020 4766.01 5476.50 60.62 14.00 238.26 2532.29
   21:17:18.929.18-May-2020 4766.01 5478.65 60.62 14.00 238.46 2532.29
   21:17:19.129.18-May-2020 4766.01 5485.54 60.62 14.00 238.66 2532.29
   21:17:19.329.18-May-2020 4766.01 5475.40 60.62 14.00 238.86 2532.29
   21:17:19.529.18-May-2020 4766.01 5476.70 60.62 14.00 239.06 2532.29
   21:17:19.729.18-May-2020 4766.01 5476.70 60.62 14.00 239.26 2532.29
   21:17:19.929.18-May-2020 4766.01 5483.20 60.62 14.00 239.46 2532.29
   21:17:20.129.18-May-2020 4766.01 5477.17 60.62 14.00 239.66 2532.29
   21:17:20.329.18-May-2020 4766.01 5475.67 60.62 14.00 239.86 2532.29
   21:17:20.529.18-May-2020 4766.01 5485.85 60.62 14.00 240.06 2532.29
   21:17:20.729.18-May-2020 4766.01 5485.85 60.62 14.00 240.26 2532.29
   21:17:20.929.18-May-2020 4766.01 5474.70 60.62 14.00 240.46 2532.29
   21:17:21.129.18-May-2020 4766.01 5477.52 60.62 14.00 240.66 2532.29
   21:17:21.329.18-May-2020 4766.01 5485.33 60.62 14.00 240.86 2532.29
   21:17:21.529.18-May-2020 4766.01 5494.99 60.62 14.00 241.06 2532.29
   21:17:21.729.18-May-2020 4766.01 5494.99 60.62 14.00 241.26 2532.29
   21:17:21.930.18-May-2020 4766.01 5476.73 60.62 14.00 241.46 2532.29
   21:17:22.130.18-May-2020 4766.01 5482.59 60.62 14.00 241.66 2532.29
   21:17:22.330.18-May-2020 4766.01 5488.74 60.62 14.00 241.86 2532.29
   21:17:22.530.18-May-2020 4766.01 5478.88 60.62 14.00 242.06 2532.29
   21:17:22.730.18-May-2020 4766.01 5477.21 60.62 14.00 242.26 2532.29
   21:17:22.930.18-May-2020 4766.01 5479.48 60.62 14.00 242.46 2532.29
   21:17:23.130.18-May-2020 4766.01 5481.06 60.62 14.00 242.66 2532.29
   21:17:23.330.18-May-2020 4766.01 5478.83 60.62 14.00 242.86 2532.29
   21:17:23.530.18-May-2020 4766.01 5487.17 60.62 14.00 243.06 2532.29
   21:17:23.730.18-May-2020 4766.01 5487.17 60.62 14.00 243.26 2532.29
   21:17:23.930.18-May-2020 4766.01 5478.27 60.62 14.00 243.46 2532.29
   21:17:24.130.18-May-2020 4766.01 5477.64 60.62 14.00 243.66 2532.29
   21:17:24.330.18-May-2020 4766.01 5485.15 60.62 14.00 243.86 2532.29
   21:17:24.530.18-May-2020 4766.01 5477.26 60.62 14.00 244.06 2532.29
   21:17:24.730.18-May-2020 4766.01 5477.26 60.62 14.00 244.26 2532.29
   21:17:24.930.18-May-2020 4766.01 5477.85 60.62 14.00 244.46 2532.29
   21:17:25.130.18-May-2020 4766.01 5478.74 60.62 14.00 244.66 2532.29
   21:17:25.330.18-May-2020 4766.01 5476.23 60.62 14.00 244.87 2532.29
   21:17:25.530.18-May-2020 4766.01 5475.85 60.62 14.00 245.07 2532.29
   21:17:25.731.18-May-2020 4766.01 5475.85 60.62 14.00 245.27 2532.29
   21:17:25.931.18-May-2020 4766.01 5473.16 60.62 14.00 245.47 2532.29
   21:17:26.131.18-May-2020 4766.01 5476.88 60.62 14.00 245.67 2532.29
   21:17:26.331.18-May-2020 4766.01 5475.79 60.62 14.00 245.87 2532.29
   21:17:26.531.18-May-2020 4766.01 5498.73 60.62 14.00 246.07 2532.29
   21:17:26.731.18-May-2020 4766.01 5474.50 60.62 14.00 246.27 2532.29
   21:17:26.931.18-May-2020 4766.01 5477.16 60.62 14.00 246.47 2532.29
   21:17:27.131.18-May-2020 4766.01 5476.90 60.62 14.00 246.67 2532.29
   21:17:27.331.18-May-2020 4766.01 5502.74 60.62 14.00 246.87 2532.29
   21:17:27.531.18-May-2020 4766.01 5475.69 60.62 14.00 247.07 2532.29
   21:17:27.731.18-May-2020 4766.01 5475.69 60.62 14.00 247.27 2532.29
   21:17:27.931.18-May-2020 4766.01 5477.23 60.62 14.00 247.47 2532.29
   21:17:28.131.18-May-2020 4766.01 5497.19 60.62 14.00 247.67 2532.29
   21:17:28.331.18-May-2020 4766.01 5482.56 60.62 14.00 247.87 2532.29
   21:17:28.531.18-May-2020 4766.01 5477.17 60.62 14.00 248.07 2532.29
   21:17:28.731.18-May-2020 4766.01 5477.17 60.62 14.00 248.27 2532.29
   21:17:28.931.18-May-2020 4766.01 5485.70 60.62 14.00 248.47 2532.29
