~Version Information
 VERS.                  2.0:   CWLS log ASCII Standard -VERSION 2.0
 WRAP.                   NO:   One line per depth step
~Well Information Block
#MNEM.UNIT     VALUE/NAME     DESCRIPTION
#---------     -----------    ---------------------------
 STRT.S             16:14:41 17-May-20: START TIME 16:14:41 17-May-20
 STOP.S             16:21:36 17-May-20: STOP TIME  16:21:36 17-May-20
 STEP.S                   0.00: STEP TIME
 NULL.                 -999.25: NULL VALUE
 UNIT.                     N/A:  LOGGING EQUIPMENT ID
 DCON.         Sperry Drilling:  DIRECTNL CONTR
 DOE .                     N/A:  DOE NUMBER
 JOBN.        AZ-XX-0906252240:  JOB TICKET NUMB
 MWDS.                     N/A:  MWD SHOP
 PROV.                    Baku:  PROVINCE
 STAT.                    Baku:  STATE NAME
 REGN.                   EESSA:  REGION
 BASE.              Azerbaijan:  LOGGING EQUIPMENT BASE LOCATION
 UWI .                     N/A:  UNIQUE WELL IDENTIFIER
 API .                     N/A:  API NUMBER
 MDS .        Operator Entered:  MAG DATA SOURCE
 WTYP.                Deviated:  WELL TYPE
 COMP.     BP Exploration (Caspian Sea) Ltd.:  COMPANY
 SRVC.          Turan Drilling:  CONTRACTOR
 WELL.           J23 (Slot 07):  WELL NAME
 CTRY.              Azerbaijan:  COUNTRY NAME
 FLD .                     ACG:  FIELD NAME
 PDAT.          Mean Sea Level:  PERMANENT DATUM
 RIG .             West Chirag:  RIG NAME
 SON .        AZ-XX-0906252240:  JOB NUMBER
 FTOP.          Formation Tops:  FORM TOPS DESC
 ILTD.               Lithology:  INTERP LTH DESC
 SVYD.                  Survey:  SURVEY DESC
 DMOD.             Drill Model:  DRILL MOD DESC
 HPTY.       Minimum Curvature:  HOLE POS TYPE
 NREF.                    Grid:  NORTH REFERENCE
 SPUD.               27-Aug-20:  SPUD DATE
 DATE.      00.00.00 19-May-20:  END TIME
 STIM.      03.00.00 25-Mar-20:  START TIME
 DMF .             Drill Floor:  DRILL MEAS FROM
 DFST.                        :  DIST FSL TEXT
 DFWT.                        :  DIST FWL TEXT
 CNTY.                        :  COUNTY
 LOC .                        :  LOCATION
 LMF .             Drill Floor:  LOG MEASURED FROM
 VSNS.m                   9.43:  VERT SEC N/S
 VSEW.m                  -8.91:  VERT SEC E/W
 AGAP.m                  43.00:  AIR GAP
 DEP .m                 354.17:  DEPTH
 APD .m                  43.00:  DEPTH ABOVE PD
 WDMS.m                 169.80:  WD ELEV
 EGL .m                   0.00:  GROUND ELEVATION
 EPD .m                   0.00:  ELEVATION
 AZTC.deg                 6.31:  AZM TOTAL CORR
 GRDC.deg                 0.14:  GRID CORRECTION
 MDEC.deg                 6.45:  MAGNETIC DECL
 MDIP.deg                59.56:  MAGNETIC DIP
 MFLD.nT              50295.00:  MAGNETIC FIELD
 GVFD.g                   1.00:  GRAVITY FIELD
 VSDR.deg               179.88:  VERT SEC DIRECT
 TDD .m                5150.01:  TOTAL DEPTH (DRILLER)
 SDEP.m                 864.00:  START DEPTH
 DFSL.m                   0.00:  DISTANCE FSL
 DFWL.m                   0.00:  DISTANCE FWL
 UTMY.m             4443793.85:  UTM Y
 UTMX.m              519005.06:  UTM X
 WHEW.m                  -8.91:  WELL HEAD E/W
 WHNS.m                   9.43:  WELL HEAD N/S
 LONG.deg                51.22:  LONGITUDE
 LATI.deg                40.13:  LATITUDE
 TVDS.m                  43.00:  TVDSS CORRECTN
 EKB .m                   0.00:  KB ELEVATION
 EDF .m                  43.00:  DF ELEVATION
 TDL .m                 363.00:  TOTAL DEPTH (LOGGER)
 MAGU.                 1850802:  MAGUTM CHECKSUM
 VSC .                       0:  VS TO CLOSURE
~Parameter Information Block
#MNEM.UNIT       Value        Description
#---------     -----------    ---------------------------
 AV  .mps                 2.30:  Ann Velocity 
 AVMX.mps                 4.40:  Max Ann Veloc 
 AZIF.deg               110.24:  Azm, Final 
 BHAT.        Rotary Steerable:  BHA Type 
 BREV.rev               331.00:  Rev Bit Total 
 BROT.°/30m               0.00:  Build Rotating 
 BS  .in                  8.50:  Bit Size 
 BSZ .in                  8.50:  Bit Size 
 BTPL.psig              585.00:  Bit Press Loss 
 CABU.                     Yes:  Customer Abuse 
 COMM.                     ¿m:  Run Comments 1 
 TCS .hr                122.75:  Time Ciculation Ended 
 CV  .mps                 2.67:  Crit Velocity 
 CVMX.mps                 3.56:  Max Crit Veloc 
 DD1 .          Rashad Habibov:  Direct Drillr 1 
 DD2 .         Rasim Ibrahimov:  Direct Drillr 2 
 DDSV.               Geo-Pilot:  DD Service 
 DEFF.%                  98.00:  % Det Eff 
 DLRX.°/30m               0.75:  Dogleg Rot Max 
 DLSO.°/30m               1.25:  Dogleg Oriented 
 DLSX.°/30m               2.06:  Dogleg Str Max 
 DRET.      07.45.00 17-May-20:  Drill End Time 
 DRST.      22.50.00 15-May-20:  Drill Start Tim 
 DTIM.hr                 20.75:  Time Drilling 
 EDEP.m                5124.01:  End Depth 
 ENG1.           Eldar Hajiyev:  Engineer 1 
 ENG2.        Marcelo Sandoval:  Engineer 2 
 ENG3.        Davud huseynzada:  Engineer 3 
 ENG4.          Ruslan Safarov:  Engineer 4 
 ETIM.      04.33.00 23-May-20:  End Time 
 FLOI.gpm               450.00:  Flow In 
 FLON.gpm               400.00:  Flow In Min 
 FLOS.cptm                0.00:  Fluid Loss 
 FLOX.gpm               500.00:  Flow In Max 
 FTRO.       Formation Presure:  FTWD Run Obj 
 HFLO.                      No:  High Flow 
 HPRE.                     Yes:  High Pressure 
 HTEM.                      No:  High Temp 
 HYDO.m                   1.80:  Hydro Offset 
 IFIN.deg                75.06:  Inc, Final 
 IMAX.deg                75.38:  Inc Max 
 IMIN.deg                74.69:  Inc Min 
 IMND.m                5027.38:  Inc Min Depth 
 IMXD.m                4771.61:  Inc Max Depth 
 JARR.                      No:  Jarring 
 LETM.      07.45.00 17-May-20:  Log End Time 
 LOST.hr                     0:  Lost Rig Time 
 LSTM.      22.50.00 15-May-20:  Log Start Time 
 MDCL.ppm             42000.00:  Mud Chlorides 
 MDES.     Inversion Oil/Synthetic:  Mud Desc 
 DFD .sg                  1.34:  Mud Density 
 MDMN.sg                  1.34:  Dens Mud Min 
 MDMX.sg                  1.34:  Dens Mud Max 
 MOIL.                       0:  Run Mud Oil % 
 MOWR.                   67:33:  Run Mud OWR 
 MSND.                       0:  Run Mud Sand % 
 MSOL.                     1.8:  Run Mud Solids% 
 DFV .spqt               76.00:  Mud Viscosity 
 MWOD.in                  6.75:  MWD Tool OD 
 MWSI.                      No:  Serv Intrp, MWD 
 OTIM.hr                228.19:  Time Operating 
 PCON.           Look Like New:  Pad Condition 
 PMAX.psia             6164.70:  Press Op, Max 
 PV  .cP                 28.00:  Mud PV 
 RUN .                     900:  Run Number 
 ROPA.m/hr               19.00:  ROP Avg 
 ROPN.m/hr               11.00:  ROP Min 
 ROPX.m/hr               36.00:  ROP Max 
 RPMA.rpm               120.00:  RPM Surface Avg 
 RPMN.rpm               120.00:  RPM Surface Min 
 RPMX.rpm               120.00:  RPM Surface Max 
 RRUN.                    L604:  Rig Run Number 
 RTIM.hr                  7.00:  Time Reaming 
 SAZI.deg               109.27:  Azm, Start 
 SDEP.m                4761.01:  Start Depth 
 SIDD.                      No:  Serv Intrp, DD 
 SINC.deg                75.38:  Inc, Start 
 SPPA.psig             3574.00:  SPP Avg 
 SPPN.psig             3475.00:  SPP Min 
 SPPX.psig             3791.00:  SPP Max 
 STIM.      07.08.48 13-May-20:  Start Time 
 SVCS.                 DD, MWD:  Services 
 SVER.                    9.20:  Sperry Version 
 TDAT.m                 363.00:  Tot Depth Attmp 
 TDDF.                      No:  Trip for DD 
 TDLG.m                 363.00:  Tot Depth Loggd 
 TFF .                      No:  Trip for Fail 
 TQAA.f-kp               20.00:  Torque Abs Avg 
 TQAN.f-kp               18.00:  Torque Abs Min 
 TQAX.f-kp               22.00:  Torque Abs Max 
 TRRT.°/30m              -0.35:  Turn Rotating 
 MRT .                    HCIM:  Maximum Recorded Temperature 
 TTMX.degC               92.16:  Max Tool Temp 
 VS01.                90586518:  Virtual Str1 SN 
 VS02.        AZ90560654Z1W1C6:  Virtual Str2 SN 
 VS03.           AZ90610398F11:  Virtual Str3 SN 
 VS04.                90514975:  Virtual Str4 SN 
 VS05.                90514972:  Virtual Str5 SN 
 VS06.     AZ90603282F11V7D1A6:  Virtual Str6 SN 
 WBMN.klb                 7.00:  WOB Min 
 WOBA.klb                12.00:  WOB Avg 
 WOBX.klb                14.00:  WOB Max 
 YP  .lhf2               32.00:  Yield Point 
~Curve Information Block
#MNEM.UNIT                 API CODE     Curve Description
#---------               -----------    ---------------------------
 TIME.HHMMSS            00 000 000 000:  GT Time & Date
 GTDEPTH.m              00 000 000 000:  GT Depth
 GTPQH.psia             00 000 000 000:  GT HR Quartz Pressure
 GTTQ.degC              00 000 000 000:  GT Quartz Temperature
 GTTN.NONE              00 000 000 000:  GT Test Number
 GTET.sec               00 000 000 000:  GT Elapsed Test Time
 GTTVD.m                00 000 000 000:  GT True Vertical Depth
#Other Information
#
#WARRANTY: Halliburton will use its best efforts to furnish customers with 
#accurate information and interpretations that are part of, and incident to, the services 
#provided.  However, Halliburton cannot and does not warrant the accuracy 
#or correctness of such information and interpretations.  Under no circumstances should any 
#such information or interpretation be relied upon as the sole basis for any drilling, 
#completion, production, or financial decision or any procedure involving any risk to the 
#safety of any drilling venture, drilling rig or its crew or any other third party.  The 
#Customer has full responsibility for all drilling, completion and production operation.  
#Halliburton makes no representations or warranties, either expressed or 
#implied, including, but not limited to, the implied warranties of merchantability or fitness 
#for a particular purpose, with respect to the services rendered.  In no event will 
#Halliburton be liable for failure to obtain any particular results or for 
#any damages, including, but not limited to, indirect, special or consequential damages, 
#resulting from the use of any information or interpretation provided by Halliburton.
#
~A           TIME           GTDEPTH  GTPQH  GTTQ  GTTN  GTET   GTTVD  
# ...
   16:21:12.000.17-May-2020 5073.51 5613.81 71.25 2.00 391.00 2611.87
   16:21:12.200.17-May-2020 5073.51 5632.07 71.25 2.00 391.20 2611.87
   16:21:12.400.17-May-2020 5073.51 5630.03 71.25 2.00 391.40 2611.87
   16:21:12.600.17-May-2020 5073.51 5618.60 71.25 2.00 391.60 2611.87
   16:21:12.800.17-May-2020 5073.51 5615.14 71.25 2.00 391.80 2611.87
   16:21:13.000.17-May-2020 5073.51 5620.01 71.25 2.00 392.00 2611.87
   16:21:13.200.17-May-2020 5073.51 5620.01 71.25 2.00 392.20 2611.87
   16:21:13.400.17-May-2020 5073.51 5624.73 71.24 2.00 392.40 2611.87
   16:21:13.600.17-May-2020 5073.51 5615.23 71.24 2.00 392.60 2611.87
   16:21:13.800.17-May-2020 5073.51 5613.65 71.24 2.00 392.80 2611.87
   16:21:14.000.17-May-2020 5073.51 5624.23 71.24 2.00 393.00 2611.87
   16:21:14.200.17-May-2020 5073.51 5624.23 71.24 2.00 393.20 2611.87
   16:21:14.400.17-May-2020 5073.51 5615.95 71.24 2.00 393.40 2611.87
   16:21:14.600.17-May-2020 5073.51 5614.97 71.24 2.00 393.60 2611.87
   16:21:14.800.17-May-2020 5073.51 5616.41 71.24 2.00 393.80 2611.87
   16:21:15.000.17-May-2020 5073.51 5617.15 71.24 2.00 394.00 2611.87
   16:21:15.200.17-May-2020 5073.51 5617.15 71.24 2.00 394.20 2611.87
   16:21:15.400.17-May-2020 5073.51 5622.46 71.24 2.00 394.40 2611.87
   16:21:15.600.17-May-2020 5073.51 5613.82 71.24 2.00 394.60 2611.87
   16:21:15.800.17-May-2020 5073.51 5610.72 71.24 2.00 394.80 2611.87
   16:21:16.000.17-May-2020 5073.51 5620.90 71.24 2.00 395.00 2611.87
   16:21:16.200.17-May-2020 5073.51 5617.85 71.24 2.00 395.20 2611.87
   16:21:16.400.17-May-2020 5073.51 5615.34 71.24 2.00 395.40 2611.87
   16:21:16.600.17-May-2020 5073.51 5613.84 71.24 2.00 395.60 2611.87
   16:21:16.800.17-May-2020 5073.51 5614.90 71.24 2.00 395.80 2611.87
   16:21:17.000.17-May-2020 5073.51 5616.13 71.24 2.00 396.00 2611.87
   16:21:17.200.17-May-2020 5073.51 5616.13 71.24 2.00 396.20 2611.87
   16:21:17.400.17-May-2020 5073.51 5629.70 71.24 2.00 396.40 2611.87
   16:21:17.600.17-May-2020 5073.51 5621.30 71.24 2.00 396.60 2611.87
   16:21:17.800.17-May-2020 5073.51 5615.69 71.24 2.00 396.80 2611.87
   16:21:18.000.17-May-2020 5073.51 5612.39 71.24 2.00 397.00 2611.87
   16:21:18.200.17-May-2020 5073.51 5612.39 71.24 2.00 397.20 2611.87
   16:21:18.400.17-May-2020 5073.51 5630.11 71.24 2.00 397.40 2611.87
   16:21:18.600.17-May-2020 5073.51 5625.90 71.24 2.00 397.60 2611.87
   16:21:18.800.17-May-2020 5073.51 5615.22 71.24 2.00 397.80 2611.87
   16:21:19.000.17-May-2020 5073.51 5612.74 71.23 2.00 398.00 2611.87
   16:21:19.200.17-May-2020 5073.51 5612.74 71.23 2.00 398.20 2611.87
   16:21:19.400.17-May-2020 5073.51 5634.45 71.23 2.00 398.40 2611.87
   16:21:19.600.17-May-2020 5073.51 5623.06 71.23 2.00 398.60 2611.87
   16:21:19.800.17-May-2020 5073.51 5616.05 71.23 2.00 398.80 2611.87
   16:21:20.000.17-May-2020 5073.51 5611.87 71.23 2.00 399.00 2611.87
   16:21:20.200.17-May-2020 5073.51 5611.87 71.23 2.00 399.20 2611.87
   16:21:20.400.17-May-2020 5073.51 5632.69 71.23 2.00 399.40 2611.87
   16:21:20.600.17-May-2020 5073.51 5618.87 71.23 2.00 399.60 2611.87
   16:21:20.800.17-May-2020 5073.51 5613.87 71.23 2.00 399.80 2611.87
   16:21:21.000.17-May-2020 5073.51 5615.69 71.23 2.00 400.00 2611.87
   16:21:21.200.17-May-2020 5073.51 5615.69 71.23 2.00 400.20 2611.87
   16:21:21.400.17-May-2020 5073.51 5616.73 71.23 2.00 400.40 2611.87
   16:21:21.600.17-May-2020 5073.51 5615.91 71.23 2.00 400.60 2611.87
   16:21:21.800.17-May-2020 5073.51 5615.43 71.23 2.00 400.80 2611.87
   16:21:22.000.17-May-2020 5073.51 5616.30 71.23 2.00 401.00 2611.87
   16:21:22.200.17-May-2020 5073.51 5616.30 71.23 2.00 401.20 2611.87
   16:21:22.400.17-May-2020 5073.51 5628.59 71.23 2.00 401.40 2611.87
   16:21:22.600.17-May-2020 5073.51 5622.68 71.23 2.00 401.60 2611.87
   16:21:22.800.17-May-2020 5073.51 5612.84 71.23 2.00 401.80 2611.87
   16:21:23.000.17-May-2020 5073.51 5612.05 71.23 2.00 402.00 2611.87
   16:21:23.200.17-May-2020 5073.51 5612.05 71.23 2.00 402.20 2611.87
   16:21:23.400.17-May-2020 5073.51 5616.68 71.23 2.00 402.40 2611.87
   16:21:23.600.17-May-2020 5073.51 5614.85 71.23 2.00 402.60 2611.87
   16:21:23.800.17-May-2020 5073.51 5613.98 71.23 2.00 402.80 2611.87
   16:21:24.000.17-May-2020 5073.51 5614.85 71.23 2.00 403.00 2611.87
   16:21:24.200.17-May-2020 5073.51 5615.04 71.23 2.00 403.20 2611.87
   16:21:24.400.17-May-2020 5073.51 5613.87 71.23 2.00 403.40 2611.87
   16:21:24.600.17-May-2020 5073.51 5629.65 71.23 2.00 403.60 2611.87
   16:21:24.800.17-May-2020 5073.51 5622.78 71.23 2.00 403.80 2611.87
   16:21:25.000.17-May-2020 5073.51 5615.22 71.22 2.00 404.00 2611.87
   16:21:25.200.17-May-2020 5073.51 5615.22 71.22 2.00 404.20 2611.87
   16:21:25.400.17-May-2020 5073.51 5619.47 71.22 2.00 404.40 2611.87
   16:21:25.600.17-May-2020 5073.51 5632.63 71.22 2.00 404.60 2611.87
   16:21:25.800.17-May-2020 5073.51 5621.57 71.22 2.00 404.80 2611.87
   16:21:26.000.17-May-2020 5073.51 5614.95 71.22 2.00 405.00 2611.87
   16:21:26.200.17-May-2020 5073.51 5614.95 71.22 2.00 405.20 2611.87
   16:21:26.400.17-May-2020 5073.51 5618.06 71.22 2.00 405.40 2611.87
   16:21:26.600.17-May-2020 5073.51 5633.17 71.22 2.00 405.60 2611.87
   16:21:26.800.17-May-2020 5073.51 5624.80 71.22 2.00 405.80 2611.87
   16:21:27.000.17-May-2020 5073.51 5614.77 71.22 2.00 406.00 2611.87
   16:21:27.200.17-May-2020 5073.51 5614.77 71.22 2.00 406.20 2611.87
   16:21:27.400.17-May-2020 5073.51 5637.82 71.22 2.00 406.40 2611.87
   16:21:27.600.17-May-2020 5073.51 5624.79 71.22 2.00 406.60 2611.87
   16:21:27.800.17-May-2020 5073.51 5615.33 71.22 2.00 406.80 2611.87
   16:21:28.000.17-May-2020 5073.51 5611.00 71.22 2.00 407.00 2611.87
   16:21:28.200.17-May-2020 5073.51 5621.61 71.22 2.00 407.20 2611.87
   16:21:28.400.17-May-2020 5073.51 5620.20 71.22 2.00 407.40 2611.87
   16:21:28.600.17-May-2020 5073.51 5615.45 71.22 2.00 407.60 2611.87
   16:21:28.800.17-May-2020 5073.51 5615.21 71.22 2.00 407.80 2611.87
   16:21:29.000.17-May-2020 5073.51 5615.40 71.22 2.00 408.00 2611.87
   16:21:29.200.17-May-2020 5073.51 5615.40 71.22 2.00 408.20 2611.87
   16:21:29.400.17-May-2020 5073.51 5629.84 71.22 2.00 408.40 2611.87
   16:21:29.600.17-May-2020 5073.51 5620.16 71.22 2.00 408.60 2611.87
   16:21:29.800.17-May-2020 5073.51 5614.74 71.22 2.00 408.80 2611.87
   16:21:30.000.17-May-2020 5073.51 5611.05 71.22 2.00 409.00 2611.87
   16:21:30.200.17-May-2020 5073.51 5611.05 71.22 2.00 409.20 2611.87
   16:21:30.400.17-May-2020 5073.51 5619.08 71.22 2.00 409.40 2611.87
   16:21:30.600.17-May-2020 5073.51 5616.07 71.22 2.00 409.60 2611.87
   16:21:30.800.17-May-2020 5073.51 5614.33 71.22 2.00 409.80 2611.87
   16:21:31.000.17-May-2020 5073.51 5614.58 71.22 2.00 410.00 2611.87
   16:21:31.200.17-May-2020 5073.51 5614.58 71.22 2.00 410.20 2611.87
   16:21:31.400.17-May-2020 5073.51 5614.84 71.21 2.00 410.40 2611.87
   16:21:31.600.17-May-2020 5073.51 5624.64 71.21 2.00 410.60 2611.87
   16:21:31.800.17-May-2020 5073.51 5626.10 71.21 2.00 410.80 2611.87
   16:21:32.000.17-May-2020 5073.51 5617.01 71.21 2.00 411.00 2611.87
   16:21:32.200.17-May-2020 5073.51 5614.53 71.21 2.00 411.20 2611.87
   16:21:32.400.17-May-2020 5073.51 5616.20 71.21 2.00 411.40 2611.87
   16:21:32.600.17-May-2020 5073.51 5634.83 71.21 2.00 411.60 2611.87
   16:21:32.800.17-May-2020 5073.51 5622.62 71.21 2.00 411.80 2611.87
   16:21:33.000.17-May-2020 5073.51 5615.40 71.21 2.00 412.00 2611.87
   16:21:33.200.17-May-2020 5073.51 5615.40 71.21 2.00 412.20 2611.87
   16:21:33.400.17-May-2020 5073.51 5619.05 71.21 2.00 412.40 2611.87
   16:21:33.600.17-May-2020 5073.51 5634.54 71.21 2.00 412.60 2611.87
   16:21:33.800.17-May-2020 5073.51 5623.22 71.21 2.00 412.80 2611.87
   16:21:34.000.17-May-2020 5073.51 5615.24 71.21 2.00 413.00 2611.87
   16:21:34.200.17-May-2020 5073.51 5615.24 71.21 2.00 413.20 2611.87
   16:21:34.400.17-May-2020 5073.51 5638.06 71.21 2.00 413.40 2611.87
   16:21:34.600.17-May-2020 5073.51 5626.18 71.21 2.00 413.60 2611.87
   16:21:34.800.17-May-2020 5073.51 5615.40 71.21 2.00 413.80 2611.87
