~Version Information
 VERS.                  2.0:   CWLS log ASCII Standard -VERSION 2.0
 WRAP.                   NO:   One line per depth step
~Well Information Block
#MNEM.UNIT     VALUE/NAME     DESCRIPTION
#---------     -----------    ---------------------------
 STRT.S             03:21:16 18-May-20: START TIME 03:21:16 18-May-20
 STOP.S             03:28:29 18-May-20: STOP TIME  03:28:29 18-May-20
 STEP.S                   0.00: STEP TIME
 NULL.                 -999.25: NULL VALUE
 UNIT.                     N/A:  LOGGING EQUIPMENT ID
 DCON.         Sperry Drilling:  DIRECTNL CONTR
 DOE .                     N/A:  DOE NUMBER
 JOBN.        AZ-XX-0906252240:  JOB TICKET NUMB
 MWDS.                     N/A:  MWD SHOP
 PROV.                    Baku:  PROVINCE
 STAT.                    Baku:  STATE NAME
 REGN.                   EESSA:  REGION
 BASE.              Azerbaijan:  LOGGING EQUIPMENT BASE LOCATION
 UWI .                     N/A:  UNIQUE WELL IDENTIFIER
 API .                     N/A:  API NUMBER
 MDS .        Operator Entered:  MAG DATA SOURCE
 WTYP.                Deviated:  WELL TYPE
 COMP.     BP Exploration (Caspian Sea) Ltd.:  COMPANY
 SRVC.          Turan Drilling:  CONTRACTOR
 WELL.           J23 (Slot 07):  WELL NAME
 CTRY.              Azerbaijan:  COUNTRY NAME
 FLD .                     ACG:  FIELD NAME
 PDAT.          Mean Sea Level:  PERMANENT DATUM
 RIG .             West Chirag:  RIG NAME
 SON .        AZ-XX-0906252240:  JOB NUMBER
 FTOP.          Formation Tops:  FORM TOPS DESC
 ILTD.               Lithology:  INTERP LTH DESC
 SVYD.                  Survey:  SURVEY DESC
 DMOD.             Drill Model:  DRILL MOD DESC
 HPTY.       Minimum Curvature:  HOLE POS TYPE
 NREF.                    Grid:  NORTH REFERENCE
 SPUD.               27-Aug-20:  SPUD DATE
 DATE.      00.00.00 19-May-20:  END TIME
 STIM.      03.00.00 25-Mar-20:  START TIME
 DMF .             Drill Floor:  DRILL MEAS FROM
 DFST.                        :  DIST FSL TEXT
 DFWT.                        :  DIST FWL TEXT
 CNTY.                        :  COUNTY
 LOC .                        :  LOCATION
 LMF .             Drill Floor:  LOG MEASURED FROM
 VSNS.m                   9.43:  VERT SEC N/S
 VSEW.m                  -8.91:  VERT SEC E/W
 AGAP.m                  43.00:  AIR GAP
 DEP .m                 354.17:  DEPTH
 APD .m                  43.00:  DEPTH ABOVE PD
 WDMS.m                 169.80:  WD ELEV
 EGL .m                   0.00:  GROUND ELEVATION
 EPD .m                   0.00:  ELEVATION
 AZTC.deg                 6.31:  AZM TOTAL CORR
 GRDC.deg                 0.14:  GRID CORRECTION
 MDEC.deg                 6.45:  MAGNETIC DECL
 MDIP.deg                59.56:  MAGNETIC DIP
 MFLD.nT              50295.00:  MAGNETIC FIELD
 GVFD.g                   1.00:  GRAVITY FIELD
 VSDR.deg               179.88:  VERT SEC DIRECT
 TDD .m                5150.01:  TOTAL DEPTH (DRILLER)
 SDEP.m                 864.00:  START DEPTH
 DFSL.m                   0.00:  DISTANCE FSL
 DFWL.m                   0.00:  DISTANCE FWL
 UTMY.m             4443793.85:  UTM Y
 UTMX.m              519005.06:  UTM X
 WHEW.m                  -8.91:  WELL HEAD E/W
 WHNS.m                   9.43:  WELL HEAD N/S
 LONG.deg                51.22:  LONGITUDE
 LATI.deg                40.13:  LATITUDE
 TVDS.m                  43.00:  TVDSS CORRECTN
 EKB .m                   0.00:  KB ELEVATION
 EDF .m                  43.00:  DF ELEVATION
 TDL .m                 363.00:  TOTAL DEPTH (LOGGER)
 MAGU.                 1850802:  MAGUTM CHECKSUM
 VSC .                       0:  VS TO CLOSURE
~Parameter Information Block
#MNEM.UNIT       Value        Description
#---------     -----------    ---------------------------
 AV  .mps                 2.30:  Ann Velocity 
 AVMX.mps                 4.40:  Max Ann Veloc 
 AZIF.deg               110.24:  Azm, Final 
 BHAT.        Rotary Steerable:  BHA Type 
 BREV.rev               331.00:  Rev Bit Total 
 BROT.°/30m               0.00:  Build Rotating 
 BS  .in                  8.50:  Bit Size 
 BSZ .in                  8.50:  Bit Size 
 BTPL.psig              585.00:  Bit Press Loss 
 CABU.                     Yes:  Customer Abuse 
 TCS .hr                122.75:  Time Ciculation Ended 
 CV  .mps                 2.67:  Crit Velocity 
 CVMX.mps                 3.56:  Max Crit Veloc 
 DD1 .          Rashad Habibov:  Direct Drillr 1 
 DD2 .         Rasim Ibrahimov:  Direct Drillr 2 
 DDSV.               Geo-Pilot:  DD Service 
 DEFF.%                  98.00:  % Det Eff 
 DLRX.°/30m               0.75:  Dogleg Rot Max 
 DLSO.°/30m               1.25:  Dogleg Oriented 
 DLSX.°/30m               2.06:  Dogleg Str Max 
 DRET.      07.45.00 17-May-20:  Drill End Time 
 DRST.      22.50.00 15-May-20:  Drill Start Tim 
 DTIM.hr                 20.75:  Time Drilling 
 EDEP.m                5124.01:  End Depth 
 ENG1.           Eldar Hajiyev:  Engineer 1 
 ENG2.        Marcelo Sandoval:  Engineer 2 
 ENG3.        Davud huseynzada:  Engineer 3 
 ENG4.          Ruslan Safarov:  Engineer 4 
 ETIM.      04.33.00 23-May-20:  End Time 
 FLOI.gpm               450.00:  Flow In 
 FLON.gpm               400.00:  Flow In Min 
 FLOS.cptm                0.00:  Fluid Loss 
 FLOX.gpm               500.00:  Flow In Max 
 FTRO.       Formation Presure:  FTWD Run Obj 
 HFLO.                      No:  High Flow 
 HPRE.                     Yes:  High Pressure 
 HTEM.                      No:  High Temp 
 HYDO.m                   1.80:  Hydro Offset 
 IFIN.deg                75.06:  Inc, Final 
 IMAX.deg                75.38:  Inc Max 
 IMIN.deg                74.69:  Inc Min 
 IMND.m                5027.38:  Inc Min Depth 
 IMXD.m                4771.61:  Inc Max Depth 
 JARR.                      No:  Jarring 
 LETM.      07.45.00 17-May-20:  Log End Time 
 LOST.hr                     0:  Lost Rig Time 
 LSTM.      22.50.00 15-May-20:  Log Start Time 
 MDCL.ppm             42000.00:  Mud Chlorides 
 MDES.     Inversion Oil/Synthetic:  Mud Desc 
 DFD .sg                  1.34:  Mud Density 
 MDMN.sg                  1.34:  Dens Mud Min 
 MDMX.sg                  1.34:  Dens Mud Max 
 MOIL.                       0:  Run Mud Oil % 
 MOWR.                   67:33:  Run Mud OWR 
 MSND.                       0:  Run Mud Sand % 
 MSOL.                     1.8:  Run Mud Solids% 
 DFV .spqt               76.00:  Mud Viscosity 
 MWOD.in                  6.75:  MWD Tool OD 
 MWSI.                      No:  Serv Intrp, MWD 
 OTIM.hr                228.19:  Time Operating 
 PCON.           Look Like New:  Pad Condition 
 PMAX.psia             6164.70:  Press Op, Max 
 PV  .cP                 28.00:  Mud PV 
 RUN .                     900:  Run Number 
 ROPA.m/hr               19.00:  ROP Avg 
 ROPN.m/hr               11.00:  ROP Min 
 ROPX.m/hr               36.00:  ROP Max 
 RPMA.rpm               120.00:  RPM Surface Avg 
 RPMN.rpm               120.00:  RPM Surface Min 
 RPMX.rpm               120.00:  RPM Surface Max 
 RRUN.                    L604:  Rig Run Number 
 RTIM.hr                  7.00:  Time Reaming 
 SAZI.deg               109.27:  Azm, Start 
 SDEP.m                4761.01:  Start Depth 
 SIDD.                      No:  Serv Intrp, DD 
 SINC.deg                75.38:  Inc, Start 
 SPPA.psig             3574.00:  SPP Avg 
 SPPN.psig             3475.00:  SPP Min 
 SPPX.psig             3791.00:  SPP Max 
 STIM.      07.08.48 13-May-20:  Start Time 
 SVCS.                 DD, MWD:  Services 
 SVER.                    9.20:  Sperry Version 
 TDAT.m                 363.00:  Tot Depth Attmp 
 TDDF.                      No:  Trip for DD 
 TDLG.m                 363.00:  Tot Depth Loggd 
 TFF .                      No:  Trip for Fail 
 TQAA.f-kp               20.00:  Torque Abs Avg 
 TQAN.f-kp               18.00:  Torque Abs Min 
 TQAX.f-kp               22.00:  Torque Abs Max 
 TRRT.°/30m              -0.35:  Turn Rotating 
 MRT .                    HCIM:  Maximum Recorded Temperature 
 TTMX.degC               92.16:  Max Tool Temp 
 VS01.                90586518:  Virtual Str1 SN 
 VS02.        AZ90560654Z1W1C6:  Virtual Str2 SN 
 VS03.           AZ90610398F11:  Virtual Str3 SN 
 VS04.                90514975:  Virtual Str4 SN 
 VS05.                90514972:  Virtual Str5 SN 
 VS06.     AZ90603282F11V7D1A6:  Virtual Str6 SN 
 WBMN.klb                 7.00:  WOB Min 
 WOBA.klb                12.00:  WOB Avg 
 WOBX.klb                14.00:  WOB Max 
 YP  .lhf2               32.00:  Yield Point 
~Curve Information Block
#MNEM.UNIT                 API CODE     Curve Description
#---------               -----------    ---------------------------
 TIME.HHMMSS            00 000 000 000:  GT Time & Date
 GTDEPTH.m              00 000 000 000:  GT Depth
 GTPQH.psia             00 000 000 000:  GT HR Quartz Pressure
 GTTQ.degC              00 000 000 000:  GT Quartz Temperature
 GTTN.NONE              00 000 000 000:  GT Test Number
 GTET.sec               00 000 000 000:  GT Elapsed Test Time
 GTTVD.m                00 000 000 000:  GT True Vertical Depth
#Other Information
#
#WARRANTY: Halliburton will use its best efforts to furnish customers with 
#accurate information and interpretations that are part of, and incident to, the services 
#provided.  However, Halliburton cannot and does not warrant the accuracy 
#or correctness of such information and interpretations.  Under no circumstances should any 
#such information or interpretation be relied upon as the sole basis for any drilling, 
#completion, production, or financial decision or any procedure involving any risk to the 
#safety of any drilling venture, drilling rig or its crew or any other third party.  The 
#Customer has full responsibility for all drilling, completion and production operation.  
#Halliburton makes no representations or warranties, either expressed or 
#implied, including, but not limited to, the implied warranties of merchantability or fitness 
#for a particular purpose, with respect to the services rendered.  In no event will 
#Halliburton be liable for failure to obtain any particular results or for 
#any damages, including, but not limited to, indirect, special or consequential damages, 
#resulting from the use of any information or interpretation provided by Halliburton.
#
~A           TIME           GTDEPTH  GTPQH  GTTQ  GTTN   GTET   GTTVD  
# ...
   03:23:32.244.18-May-2020 4797.01 3817.76 65.96 13.00 135.65 2540.22
   03:23:32.444.18-May-2020 4797.01 3817.81 65.96 13.00 135.85 2540.22
   03:23:32.644.18-May-2020 4797.01 3817.73 65.96 13.00 136.05 2540.22
   03:23:32.844.18-May-2020 4797.01 3817.73 65.96 13.00 136.25 2540.22
   03:23:33.044.18-May-2020 4797.01 3816.78 65.96 13.00 136.46 2540.22
   03:23:33.244.18-May-2020 4797.01 3818.83 65.96 13.00 136.66 2540.22
   03:23:33.444.18-May-2020 4797.01 3817.61 65.96 13.00 136.86 2540.22
   03:23:33.644.18-May-2020 4797.01 3817.62 65.96 13.00 137.06 2540.22
   03:23:33.844.18-May-2020 4797.01 3817.62 65.96 13.00 137.26 2540.22
   03:23:34.044.18-May-2020 4797.01 3817.75 65.96 13.00 137.46 2540.22
   03:23:34.245.18-May-2020 4797.01 3817.68 65.96 13.00 137.66 2540.22
   03:23:34.445.18-May-2020 4797.01 3817.69 65.96 13.00 137.86 2540.22
   03:23:34.645.18-May-2020 4797.01 3817.66 65.96 13.00 138.06 2540.22
   03:23:34.845.18-May-2020 4797.01 3817.66 65.96 13.00 138.26 2540.22
   03:23:35.045.18-May-2020 4797.01 3817.65 65.96 13.00 138.46 2540.22
   03:23:35.245.18-May-2020 4797.01 3817.53 65.96 13.00 138.66 2540.22
   03:23:35.445.18-May-2020 4797.01 3817.64 65.96 13.00 138.86 2540.22
   03:23:35.645.18-May-2020 4797.01 3817.56 65.96 13.00 139.06 2540.22
   03:23:35.845.18-May-2020 4797.01 3817.56 65.96 13.00 139.26 2540.22
   03:23:36.045.18-May-2020 4797.01 3817.82 65.96 13.00 139.46 2540.22
   03:23:36.245.18-May-2020 4797.01 3817.72 65.96 13.00 139.66 2540.22
   03:23:36.445.18-May-2020 4797.01 3817.65 65.96 13.00 139.86 2540.22
   03:23:36.646.18-May-2020 4797.01 3817.64 65.96 13.00 140.06 2540.22
   03:23:36.846.18-May-2020 4797.01 3817.64 65.96 13.00 140.26 2540.22
   03:23:37.046.18-May-2020 4797.01 3817.65 65.96 13.00 140.46 2540.22
   03:23:37.246.18-May-2020 4797.01 3816.59 65.96 13.00 140.66 2540.22
   03:23:37.446.18-May-2020 4797.01 3818.74 65.96 13.00 140.86 2540.22
   03:23:37.646.18-May-2020 4797.01 3817.53 65.96 13.00 141.06 2540.22
   03:23:37.846.18-May-2020 4797.01 3817.53 65.96 13.00 141.26 2540.22
   03:23:38.046.18-May-2020 4797.01 3818.02 65.96 13.00 141.46 2540.22
   03:23:38.246.18-May-2020 4797.01 3816.66 65.96 13.00 141.66 2540.22
   03:23:38.446.18-May-2020 4797.01 3818.65 65.96 13.00 141.86 2540.22
   03:23:38.646.18-May-2020 4797.01 3817.57 65.96 13.00 142.06 2540.22
   03:23:38.846.18-May-2020 4797.01 3817.57 65.96 13.00 142.26 2540.22
   03:23:39.047.18-May-2020 4797.01 3817.90 65.96 13.00 142.46 2540.22
   03:23:39.247.18-May-2020 4797.01 3817.75 65.96 13.00 142.66 2540.22
   03:23:39.447.18-May-2020 4797.01 3817.76 65.96 13.00 142.86 2540.22
   03:23:39.647.18-May-2020 4797.01 3817.60 65.96 13.00 143.06 2540.22
   03:23:39.847.18-May-2020 4797.01 3817.60 65.96 13.00 143.26 2540.22
   03:23:40.047.18-May-2020 4797.01 3818.89 65.96 13.00 143.46 2540.22
   03:23:40.247.18-May-2020 4797.01 3817.69 65.96 13.00 143.66 2540.22
   03:23:40.447.18-May-2020 4797.01 3817.58 65.96 13.00 143.86 2540.22
   03:23:40.647.18-May-2020 4797.01 3818.11 65.96 13.00 144.06 2540.22
   03:23:40.847.18-May-2020 4797.01 3818.11 65.96 13.00 144.26 2540.22
   03:23:41.047.18-May-2020 4797.01 3817.67 65.96 13.00 144.46 2540.22
   03:23:41.247.18-May-2020 4797.01 3817.72 65.96 13.00 144.66 2540.22
   03:23:41.447.18-May-2020 4797.01 3817.68 65.96 13.00 144.86 2540.22
   03:23:41.648.18-May-2020 4797.01 3817.61 65.96 13.00 145.06 2540.22
   03:23:41.848.18-May-2020 4797.01 3817.61 65.96 13.00 145.26 2540.22
   03:23:42.048.18-May-2020 4797.01 3817.46 65.96 13.00 145.46 2540.22
   03:23:42.248.18-May-2020 4797.01 3817.76 65.96 13.00 145.66 2540.22
   03:23:42.448.18-May-2020 4797.01 3817.53 65.96 13.00 145.86 2540.22
   03:23:42.648.18-May-2020 4797.01 3817.84 65.96 13.00 146.06 2540.22
   03:23:42.848.18-May-2020 4797.01 3817.84 65.96 13.00 146.26 2540.22
   03:23:43.048.18-May-2020 4797.01 3817.75 65.96 13.00 146.46 2540.22
   03:23:43.248.18-May-2020 4797.01 3817.67 65.96 13.00 146.66 2540.22
   03:23:43.448.18-May-2020 4797.01 3817.65 65.96 13.00 146.86 2540.22
   03:23:43.648.18-May-2020 4797.01 3817.67 65.96 13.00 147.06 2540.22
   03:23:43.848.18-May-2020 4797.01 3817.67 65.96 13.00 147.26 2540.22
   03:23:44.049.18-May-2020 4797.01 3816.58 65.96 13.00 147.46 2540.22
   03:23:44.249.18-May-2020 4797.01 3818.70 65.96 13.00 147.66 2540.22
   03:23:44.449.18-May-2020 4797.01 3817.61 65.96 13.00 147.86 2540.22
   03:23:44.649.18-May-2020 4797.01 3817.52 65.96 13.00 148.06 2540.22
   03:23:44.849.18-May-2020 4797.01 3817.52 65.96 13.00 148.26 2540.22
   03:23:45.049.18-May-2020 4797.01 3816.76 65.96 13.00 148.46 2540.22
   03:23:45.249.18-May-2020 4797.01 3818.56 65.96 13.00 148.66 2540.22
   03:23:45.449.18-May-2020 4797.01 3817.65 65.96 13.00 148.86 2540.22
   03:23:45.649.18-May-2020 4797.01 3817.58 65.96 13.00 149.06 2540.22
   03:23:45.849.18-May-2020 4797.01 3817.58 65.96 13.00 149.26 2540.22
   03:23:46.049.18-May-2020 4797.01 3817.78 65.96 13.00 149.46 2540.22
   03:23:46.249.18-May-2020 4797.01 3817.79 65.96 13.00 149.66 2540.22
   03:23:46.450.18-May-2020 4797.01 3817.62 65.96 13.00 149.86 2540.22
   03:23:46.650.18-May-2020 4797.01 3816.77 65.96 13.00 150.06 2540.22
   03:23:46.850.18-May-2020 4797.01 3816.77 65.96 13.00 150.26 2540.22
   03:23:47.050.18-May-2020 4797.01 3817.73 65.96 13.00 150.46 2540.22
   03:23:47.250.18-May-2020 4797.01 3817.62 65.96 13.00 150.66 2540.22
   03:23:47.450.18-May-2020 4797.01 3818.14 65.96 13.00 150.86 2540.22
   03:23:47.650.18-May-2020 4797.01 3817.83 65.96 13.00 151.06 2540.22
   03:23:47.850.18-May-2020 4797.01 3817.83 65.96 13.00 151.26 2540.22
   03:23:48.050.18-May-2020 4797.01 3817.72 65.96 13.00 151.46 2540.22
   03:23:48.250.18-May-2020 4797.01 3817.73 65.96 13.00 151.66 2540.22
   03:23:48.450.18-May-2020 4797.01 3817.61 65.96 13.00 151.86 2540.22
   03:23:48.650.18-May-2020 4797.01 3817.73 65.96 13.00 152.06 2540.22
   03:23:48.850.18-May-2020 4797.01 3817.73 65.96 13.00 152.26 2540.22
   03:23:49.051.18-May-2020 4797.01 3817.96 65.96 13.00 152.46 2540.22
   03:23:49.251.18-May-2020 4797.01 3817.56 65.96 13.00 152.66 2540.22
   03:23:49.451.18-May-2020 4797.01 3817.82 65.96 13.00 152.86 2540.22
   03:23:49.651.18-May-2020 4797.01 3817.93 65.96 13.00 153.06 2540.22
   03:23:49.851.18-May-2020 4797.01 3817.75 65.96 13.00 153.26 2540.22
   03:23:50.051.18-May-2020 4797.01 3817.72 65.96 13.00 153.46 2540.22
   03:23:50.251.18-May-2020 4797.01 3817.67 65.96 13.00 153.66 2540.22
   03:23:50.451.18-May-2020 4797.01 3817.68 65.96 13.00 153.86 2540.22
   03:23:50.651.18-May-2020 4797.01 3817.67 65.96 13.00 154.06 2540.22
   03:23:50.851.18-May-2020 4797.01 3817.67 65.96 13.00 154.26 2540.22
   03:23:51.051.18-May-2020 4797.01 3818.71 65.96 13.00 154.46 2540.22
   03:23:51.251.18-May-2020 4797.01 3817.70 65.96 13.00 154.66 2540.22
   03:23:51.452.18-May-2020 4797.01 3817.56 65.96 13.00 154.86 2540.22
   03:23:51.652.18-May-2020 4797.01 3818.03 65.96 13.00 155.06 2540.22
   03:23:51.852.18-May-2020 4797.01 3818.03 65.96 13.00 155.26 2540.22
   03:23:52.052.18-May-2020 4797.01 3818.37 65.96 13.00 155.46 2540.22
   03:23:52.252.18-May-2020 4797.01 3817.76 65.96 13.00 155.66 2540.22
   03:23:52.452.18-May-2020 4797.01 3817.61 65.96 13.00 155.86 2540.22
   03:23:52.652.18-May-2020 4797.01 3817.89 65.96 13.00 156.06 2540.22
   03:23:52.852.18-May-2020 4797.01 3817.89 65.96 13.00 156.26 2540.22
   03:23:53.052.18-May-2020 4797.01 3817.96 65.96 13.00 156.46 2540.22
   03:23:53.252.18-May-2020 4797.01 3817.59 65.96 13.00 156.66 2540.22
   03:23:53.452.18-May-2020 4797.01 3816.80 65.96 13.00 156.86 2540.22
   03:23:53.652.18-May-2020 4797.01 3818.92 65.96 13.00 157.06 2540.22
   03:23:53.852.18-May-2020 4797.01 3818.92 65.96 13.00 157.26 2540.22
   03:23:54.053.18-May-2020 4797.01 3817.65 65.96 13.00 157.46 2540.22
   03:23:54.253.18-May-2020 4797.01 3818.12 65.96 13.00 157.66 2540.22
   03:23:54.453.18-May-2020 4797.01 3817.88 65.96 13.00 157.86 2540.22
   03:23:54.653.18-May-2020 4797.01 3817.71 65.96 13.00 158.06 2540.22
